{"last_updated":1729581039,"ttl":60,"version":"2.2","data":{"bikes":[{"bike_id":"9a89681b-50ef-4d7d-98de-b2afb5895f27","system_id":"levelo_inurba_marseille","lat":43.23187,"lon":5.39977,"is_reserved":false,"is_disabled":false,"rental_uris":{"android":"levelo://app?vid=9a89681b-50ef-4d7d-98de-b2afb5895f27","ios":"levelo://app?vid=9a89681b-50ef-4d7d-98de-b2afb5895f27"},"vehicle_type_id":"4","last_reported":1729581040,"current_range_meters":38000,"station_id":"ce4bhn12rcd13ifvqgqg","pricing_plan_id":"cebpf4jnsgd1na2vs0mg"},{"bike_id":"c2549b74-0c0f-478e-b573-8b6752baa8b4","system_id":"levelo_inurba_marseille","lat":43.264973,"lon":5.395206,"is_reserved":false,"is_disabled":false,"rental_uris":{"android":"levelo://app?vid=c2549b74-0c0f-478e-b573-8b6752baa8b4","ios":"levelo://app?vid=c2549b74-0c0f-478e-b573-8b6752baa8b4"},"vehicle_type_id":"4","last_reported":1729581040,"current_range_meters":38000,"station_id":"ce4bh0h2rcd13ifvqd60","pricing_plan_id":"cebpf4jnsgd1na2vs0mg"},{"bike_id":"a44bec04-9c8f-4201-86e0-ce99047f918f","system_id":"levelo_inurba_marseille","lat":43.25101,"lon":5.39525,"is_reserved":false,"is_disabled":false,"rental_uris":{"android":"levelo://app?vid=a44bec04-9c8f-4201-86e0-ce99047f918f","ios":"levelo://app?vid=a44bec04-9c8f-4201-86e0-ce99047f918f"},"vehicle_type_id":"4","last_reported":1729581040,"current_range_meters":25200,"station_id":"ce4bhm12rcd13ifvqgkg","pricing_plan_id":"cebpf4jnsgd1na2vs0mg"},{"bike_id":"0620c771-335e-46de-bfcd-7ed714f74814","system_id":"levelo_inurba_marseille","lat":43.3014,"lon":5.37423,"is_reserved":false,"is_disabled":false,"rental_uris":{"android":"levelo://app?vid=0620c771-335e-46de-bfcd-7ed714f74814","ios":"levelo://app?vid=0620c771-335e-46de-bfcd-7ed714f74814"},"vehicle_type_id":"4","last_reported":1729581040,"current_range_meters":33600,"station_id":"ce4bgs92rcd13ifvqcc0","pricing_plan_id":"cebpf4jnsgd1na2vs0mg"},{"bike_id":"14a6b650-aa74-4bf4-9069-64f7c3fc1f64","system_id":"levelo_inurba_marseille","lat":43.29621,"lon":5.37162,"is_reserved":false,"is_disabled":false,"rental_uris":{"android":"levelo://app?vid=14a6b650-aa74-4bf4-9069-64f7c3fc1f64","ios":"levelo://app?vid=14a6b650-aa74-4bf4-9069-64f7c3fc1f64"},"vehicle_type_id":"4","last_reported":1729581040,"current_range_meters":36800,"station_id":"ce4bgnh2rcd13ifvqc0g","pricing_plan_id":"cebpf4jnsgd1na2vs0mg"},{"bike_id":"f6ea7288-765c-4be6-918b-74447ffffe08","system_id":"levelo_inurba_marseille","lat":43.30473,"lon":5.37895,"is_reserved":false,"is_disabled":false,"rental_uris":{"android":"levelo://app?vid=f6ea7288-765c-4be6-918b-74447ffffe08","ios":"levelo://app?vid=f6ea7288-765c-4be6-918b-74447ffffe08"},"vehicle_type_id":"4","last_reported":1729581040,"current_range_meters":38800,"station_id":"ce4bgup2rcd13ifvqcn0","pricing_plan_id":"cebpf4jnsgd1na2vs0mg"},{"bike_id":"96514785-d870-47b5-b81e-b009c40258ef","system_id":"levelo_inurba_marseille","lat":43.24398,"lon":5.37058,"is_reserved":false,"is_disabled":false,"rental_uris":{"android":"levelo://app?vid=96514785-d870-47b5-b81e-b009c40258ef","ios":"levelo://app?vid=96514785-d870-47b5-b81e-b009c40258ef"},"vehicle_type_id":"4","last_reported":1729581040,"current_range_meters":18800,"station_id":"ce4bhhh2rcd13ifvqfk0","pricing_plan_id":"cebpf4jnsgd1na2vs0mg"},{"bike_id":"353ec5cf-b58b-4354-ba57-e03f44389fe9","system_id":"levelo_inurba_marseille","lat":43.2418,"lon":5.3973,"is_reserved":false,"is_disabled":false,"rental_uris":{"android":"levelo://app?vid=353ec5cf-b58b-4354-ba57-e03f44389fe9","ios":"levelo://app?vid=353ec5cf-b58b-4354-ba57-e03f44389fe9"},"vehicle_type_id":"4","last_reported":1729581040,"current_range_meters":3200,"station_id":"ce4bhn12rcd13ifvqgpg","pricing_plan_id":"cebpf4jnsgd1na2vs0mg"},{"bike_id":"056124ee-b6f9-468d-94ef-5fa46e18bd36","system_id":"levelo_inurba_marseille","lat":43.33616,"lon":5.41029,"is_reserved":false,"is_disabled":false,"rental_uris":{"android":"levelo://app?vid=056124ee-b6f9-468d-94ef-5fa46e18bd36","ios":"levelo://app?vid=056124ee-b6f9-468d-94ef-5fa46e18bd36"},"vehicle_type_id":"4","last_reported":1729581040,"current_range_meters":38800,"station_id":"ce4bhqh2rcd13ifvqhmg","pricing_plan_id":"cebpf4jnsgd1na2vs0mg"},{"bike_id":"c863ab3d-1edc-4863-a6c7-73e4e0932069","system_id":"levelo_inurba_marseille","lat":43.33601,"lon":5.41022,"is_reserved":false,"is_disabled":false,"rental_uris":{"android":"levelo://app?vid=c863ab3d-1edc-4863-a6c7-73e4e0932069","ios":"levelo://app?vid=c863ab3d-1edc-4863-a6c7-73e4e0932069"},"vehicle_type_id":"4","last_reported":1729581040,"current_range_meters":4800,"station_id":"ce4bhqh2rcd13ifvqhmg","pricing_plan_id":"cebpf4jnsgd1na2vs0mg"},{"bike_id":"24779d50-42a9-4d54-86a3-43333f8ae02d","system_id":"levelo_inurba_marseille","lat":43.24391,"lon":5.37063,"is_reserved":false,"is_disabled":false,"rental_uris":{"android":"levelo://app?vid=24779d50-42a9-4d54-86a3-43333f8ae02d","ios":"levelo://app?vid=24779d50-42a9-4d54-86a3-43333f8ae02d"},"vehicle_type_id":"4","last_reported":1729581040,"current_range_meters":36800,"station_id":"ce4bhhh2rcd13ifvqfk0","pricing_plan_id":"cebpf4jnsgd1na2vs0mg"},{"bike_id":"b8aa97cc-df5c-4052-b32f-7592ab28a1b6","system_id":"levelo_inurba_marseille","lat":43.32129,"lon":5.38811,"is_reserved":false,"is_disabled":false,"rental_uris":{"android":"levelo://app?vid=b8aa97cc-df5c-4052-b32f-7592ab28a1b6","ios":"levelo://app?vid=b8aa97cc-df5c-4052-b32f-7592ab28a1b6"},"vehicle_type_id":"4","last_reported":1729581040,"current_range_meters":28400,"station_id":"","pricing_plan_id":"cebpf4jnsgd1na2vs0mg"},{"bike_id":"cfa25fdc-4ee7-411f-b4e5-66c6d975811e","system_id":"levelo_inurba_marseille","lat":43.33023,"lon":5.39044,"is_reserved":false,"is_disabled":false,"rental_uris":{"android":"levelo://app?vid=cfa25fdc-4ee7-411f-b4e5-66c6d975811e","ios":"levelo://app?vid=cfa25fdc-4ee7-411f-b4e5-66c6d975811e"},"vehicle_type_id":"4","last_reported":1729581040,"current_range_meters":16000,"station_id":"ce4bhr92rcd13ifvqhrg","pricing_plan_id":"cebpf4jnsgd1na2vs0mg"},{"bike_id":"73f218c2-0725-4672-b081-40d1d929b71a","system_id":"levelo_inurba_marseille","lat":43.29031,"lon":5.37554,"is_reserved":false,"is_disabled":false,"rental_uris":{"android":"levelo://app?vid=73f218c2-0725-4672-b081-40d1d929b71a","ios":"levelo://app?vid=73f218c2-0725-4672-b081-40d1d929b71a"},"vehicle_type_id":"4","last_reported":1729581040,"current_range_meters":32800,"station_id":"ce4bh692rcd13ifvqe90","pricing_plan_id":"cebpf4jnsgd1na2vs0mg"},{"bike_id":"8b1b5549-026d-499e-8f57-a5860290ed8f","system_id":"levelo_inurba_marseille","lat":43.30542,"lon":5.36715,"is_reserved":false,"is_disabled":false,"rental_uris":{"android":"levelo://app?vid=8b1b5549-026d-499e-8f57-a5860290ed8f","ios":"levelo://app?vid=8b1b5549-026d-499e-8f57-a5860290ed8f"},"vehicle_type_id":"4","last_reported":1729581040,"current_range_meters":36400,"station_id":"ce4bgrp2rcd13ifvqc9g","pricing_plan_id":"cebpf4jnsgd1na2vs0mg"},{"bike_id":"6c2ef09b-22aa-411f-a7de-f152acc381cb","system_id":"levelo_inurba_marseille","lat":43.30949,"lon":5.39035,"is_reserved":false,"is_disabled":false,"rental_uris":{"android":"levelo://app?vid=6c2ef09b-22aa-411f-a7de-f152acc381cb","ios":"levelo://app?vid=6c2ef09b-22aa-411f-a7de-f152acc381cb"},"vehicle_type_id":"4","last_reported":1729581040,"current_range_meters":38800,"station_id":"ce4bgup2rcd13ifvqco0","pricing_plan_id":"cebpf4jnsgd1na2vs0mg"},{"bike_id":"1ba9aa31-f615-44fe-91ed-af5fd57c6599","system_id":"levelo_inurba_marseille","lat":43.29187,"lon":5.358,"is_reserved":false,"is_disabled":false,"rental_uris":{"android":"levelo://app?vid=1ba9aa31-f615-44fe-91ed-af5fd57c6599","ios":"levelo://app?vid=1ba9aa31-f615-44fe-91ed-af5fd57c6599"},"vehicle_type_id":"4","last_reported":1729581040,"current_range_meters":38400,"station_id":"ce4bhb12rcd13ifvqel0","pricing_plan_id":"cebpf4jnsgd1na2vs0mg"},{"bike_id":"c32831a9-e064-4d70-bbdd-66063ddbadde","system_id":"levelo_inurba_marseille","lat":43.25938,"lon":5.40908,"is_reserved":false,"is_disabled":false,"rental_uris":{"android":"levelo://app?vid=c32831a9-e064-4d70-bbdd-66063ddbadde","ios":"levelo://app?vid=c32831a9-e064-4d70-bbdd-66063ddbadde"},"vehicle_type_id":"4","last_reported":1729581040,"current_range_meters":32400,"station_id":"ce4bhm92rcd13ifvqglg","pricing_plan_id":"cebpf4jnsgd1na2vs0mg"},{"bike_id":"6ab1d38e-e47b-4ebf-a605-d049bb137069","system_id":"levelo_inurba_marseille","lat":43.29007,"lon":5.356157,"is_reserved":false,"is_disabled":false,"rental_uris":{"android":"levelo://app?vid=6ab1d38e-e47b-4ebf-a605-d049bb137069","ios":"levelo://app?vid=6ab1d38e-e47b-4ebf-a605-d049bb137069"},"vehicle_type_id":"4","last_reported":1729581040,"current_range_meters":33600,"station_id":"ce4bh512rcd13ifvqe2g","pricing_plan_id":"cebpf4jnsgd1na2vs0mg"},{"bike_id":"5700ca7b-4b04-4654-9ace-208c9e150bc3","system_id":"levelo_inurba_marseille","lat":43.23958,"lon":5.36638,"is_reserved":false,"is_disabled":false,"rental_uris":{"android":"levelo://app?vid=5700ca7b-4b04-4654-9ace-208c9e150bc3","ios":"levelo://app?vid=5700ca7b-4b04-4654-9ace-208c9e150bc3"},"vehicle_type_id":"4","last_reported":1729581040,"current_range_meters":35200,"station_id":"ce4bhi12rcd13ifvqfp0","pricing_plan_id":"cebpf4jnsgd1na2vs0mg"},{"bike_id":"f6c9be39-c087-4b75-9648-136fc7275428","system_id":"levelo_inurba_marseille","lat":43.30167,"lon":5.38096,"is_reserved":false,"is_disabled":false,"rental_uris":{"android":"levelo://app?vid=f6c9be39-c087-4b75-9648-136fc7275428","ios":"levelo://app?vid=f6c9be39-c087-4b75-9648-136fc7275428"},"vehicle_type_id":"4","last_reported":1729581040,"current_range_meters":24400,"station_id":"ce4bgjp2rcd13ifvqbh0","pricing_plan_id":"cebpf4jnsgd1na2vs0mg"},{"bike_id":"6cdd3cb5-ba15-4e85-8896-0ce16f3566f8","system_id":"levelo_inurba_marseille","lat":43.24079,"lon":5.3776,"is_reserved":false,"is_disabled":false,"rental_uris":{"android":"levelo://app?vid=6cdd3cb5-ba15-4e85-8896-0ce16f3566f8","ios":"levelo://app?vid=6cdd3cb5-ba15-4e85-8896-0ce16f3566f8"},"vehicle_type_id":"4","last_reported":1729581040,"current_range_meters":37600,"station_id":"ce4bhnp2rcd13ifvqgvg","pricing_plan_id":"cebpf4jnsgd1na2vs0mg"},{"bike_id":"1c35994b-cece-4553-a8a1-4af08476c849","system_id":"levelo_inurba_marseille","lat":43.32366,"lon":5.38884,"is_reserved":false,"is_disabled":false,"rental_uris":{"android":"levelo://app?vid=1c35994b-cece-4553-a8a1-4af08476c849","ios":"levelo://app?vid=1c35994b-cece-4553-a8a1-4af08476c849"},"vehicle_type_id":"4","last_reported":1729581040,"current_range_meters":36400,"station_id":"ce4bhqp2rcd13ifvqhog","pricing_plan_id":"cebpf4jnsgd1na2vs0mg"},{"bike_id":"079957d9-760c-47bf-ae79-16e2d1ebf037","system_id":"levelo_inurba_marseille","lat":43.32483,"lon":5.36566,"is_reserved":false,"is_disabled":false,"rental_uris":{"android":"levelo://app?vid=079957d9-760c-47bf-ae79-16e2d1ebf037","ios":"levelo://app?vid=079957d9-760c-47bf-ae79-16e2d1ebf037"},"vehicle_type_id":"4","last_reported":1729581040,"current_range_meters":33600,"station_id":"ce4bhs12rcd13ifvqhvg","pricing_plan_id":"cebpf4jnsgd1na2vs0mg"},{"bike_id":"d446a555-49be-49be-a11a-13447f0374cb","system_id":"levelo_inurba_marseille","lat":43.24079,"lon":5.37765,"is_reserved":false,"is_disabled":false,"rental_uris":{"android":"levelo://app?vid=d446a555-49be-49be-a11a-13447f0374cb","ios":"levelo://app?vid=d446a555-49be-49be-a11a-13447f0374cb"},"vehicle_type_id":"4","last_reported":1729581040,"current_range_meters":11600,"station_id":"ce4bhnp2rcd13ifvqgvg","pricing_plan_id":"cebpf4jnsgd1na2vs0mg"},{"bike_id":"6693cd0c-fe48-434b-8c32-77dc3a0e9af8","system_id":"levelo_inurba_marseille","lat":43.33211,"lon":5.38166,"is_reserved":false,"is_disabled":false,"rental_uris":{"android":"levelo://app?vid=6693cd0c-fe48-434b-8c32-77dc3a0e9af8","ios":"levelo://app?vid=6693cd0c-fe48-434b-8c32-77dc3a0e9af8"},"vehicle_type_id":"4","last_reported":1729581040,"current_range_meters":38000,"station_id":"","pricing_plan_id":"cebpf4jnsgd1na2vs0mg"},{"bike_id":"d8fcc4fa-ed39-4df3-8a67-0231297479c5","system_id":"levelo_inurba_marseille","lat":43.32657,"lon":5.40991,"is_reserved":false,"is_disabled":false,"rental_uris":{"android":"levelo://app?vid=d8fcc4fa-ed39-4df3-8a67-0231297479c5","ios":"levelo://app?vid=d8fcc4fa-ed39-4df3-8a67-0231297479c5"},"vehicle_type_id":"4","last_reported":1729581040,"current_range_meters":6000,"station_id":"ce4bhpp2rcd13ifvqhgg","pricing_plan_id":"cebpf4jnsgd1na2vs0mg"},{"bike_id":"8bbeb5dd-f933-4661-9b1c-ecda8dcc2367","system_id":"levelo_inurba_marseille","lat":43.30608,"lon":5.37226,"is_reserved":false,"is_disabled":false,"rental_uris":{"android":"levelo://app?vid=8bbeb5dd-f933-4661-9b1c-ecda8dcc2367","ios":"levelo://app?vid=8bbeb5dd-f933-4661-9b1c-ecda8dcc2367"},"vehicle_type_id":"4","last_reported":1729581040,"current_range_meters":8000,"station_id":"ce4bgqh2rcd13ifvqc4g","pricing_plan_id":"cebpf4jnsgd1na2vs0mg"},{"bike_id":"03c51820-cb2f-4040-944f-2f970b04d942","system_id":"levelo_inurba_marseille","lat":43.3172,"lon":5.43717,"is_reserved":false,"is_disabled":false,"rental_uris":{"android":"levelo://app?vid=03c51820-cb2f-4040-944f-2f970b04d942","ios":"levelo://app?vid=03c51820-cb2f-4040-944f-2f970b04d942"},"vehicle_type_id":"4","last_reported":1729581040,"current_range_meters":15200,"station_id":"ce4bhp92rcd13ifvqhcg","pricing_plan_id":"cebpf4jnsgd1na2vs0mg"},{"bike_id":"43d84e84-d11a-465b-bead-4980d2e23e6a","system_id":"levelo_inurba_marseille","lat":43.29191,"lon":5.35812,"is_reserved":false,"is_disabled":false,"rental_uris":{"android":"levelo://app?vid=43d84e84-d11a-465b-bead-4980d2e23e6a","ios":"levelo://app?vid=43d84e84-d11a-465b-bead-4980d2e23e6a"},"vehicle_type_id":"4","last_reported":1729581040,"current_range_meters":24000,"station_id":"ce4bhb12rcd13ifvqel0","pricing_plan_id":"cebpf4jnsgd1na2vs0mg"},{"bike_id":"f7d7e980-5c84-4432-b54b-9d2a213d76b4","system_id":"levelo_inurba_marseille","lat":43.30914,"lon":5.36858,"is_reserved":false,"is_disabled":false,"rental_uris":{"android":"levelo://app?vid=f7d7e980-5c84-4432-b54b-9d2a213d76b4","ios":"levelo://app?vid=f7d7e980-5c84-4432-b54b-9d2a213d76b4"},"vehicle_type_id":"4","last_reported":1729581040,"current_range_meters":38800,"station_id":"ce4bgn92rcd13ifvqbvg","pricing_plan_id":"cebpf4jnsgd1na2vs0mg"},{"bike_id":"abe658d4-12a8-41db-b6b3-738fdbd608a2","system_id":"levelo_inurba_marseille","lat":43.23196,"lon":5.35562,"is_reserved":false,"is_disabled":false,"rental_uris":{"android":"levelo://app?vid=abe658d4-12a8-41db-b6b3-738fdbd608a2","ios":"levelo://app?vid=abe658d4-12a8-41db-b6b3-738fdbd608a2"},"vehicle_type_id":"4","last_reported":1729581040,"current_range_meters":35600,"station_id":"ce4bhu92rcd13ifvqi70","pricing_plan_id":"cebpf4jnsgd1na2vs0mg"},{"bike_id":"ecf5aaf1-3072-45c8-bc85-9209f1480bbf","system_id":"levelo_inurba_marseille","lat":43.23155,"lon":5.43698,"is_reserved":false,"is_disabled":false,"rental_uris":{"android":"levelo://app?vid=ecf5aaf1-3072-45c8-bc85-9209f1480bbf","ios":"levelo://app?vid=ecf5aaf1-3072-45c8-bc85-9209f1480bbf"},"vehicle_type_id":"4","last_reported":1729581040,"current_range_meters":24000,"station_id":"ce4bhmp2rcd13ifvqgog","pricing_plan_id":"cebpf4jnsgd1na2vs0mg"},{"bike_id":"8f033525-bc8f-42c4-9121-468701b80638","system_id":"levelo_inurba_marseille","lat":43.25007,"lon":5.38911,"is_reserved":false,"is_disabled":false,"rental_uris":{"android":"levelo://app?vid=8f033525-bc8f-42c4-9121-468701b80638","ios":"levelo://app?vid=8f033525-bc8f-42c4-9121-468701b80638"},"vehicle_type_id":"4","last_reported":1729581040,"current_range_meters":38400,"station_id":"ce4bhgp2rcd13ifvqfd0","pricing_plan_id":"cebpf4jnsgd1na2vs0mg"},{"bike_id":"9a29c955-a717-4a1f-a7ee-ab07c0a9e45d","system_id":"levelo_inurba_marseille","lat":43.2594,"lon":5.40907,"is_reserved":false,"is_disabled":false,"rental_uris":{"android":"levelo://app?vid=9a29c955-a717-4a1f-a7ee-ab07c0a9e45d","ios":"levelo://app?vid=9a29c955-a717-4a1f-a7ee-ab07c0a9e45d"},"vehicle_type_id":"4","last_reported":1729581040,"current_range_meters":28400,"station_id":"ce4bhm92rcd13ifvqglg","pricing_plan_id":"cebpf4jnsgd1na2vs0mg"},{"bike_id":"f8787c88-1be1-45e0-b108-32f155ca387d","system_id":"levelo_inurba_marseille","lat":43.24189,"lon":5.39743,"is_reserved":false,"is_disabled":false,"rental_uris":{"android":"levelo://app?vid=f8787c88-1be1-45e0-b108-32f155ca387d","ios":"levelo://app?vid=f8787c88-1be1-45e0-b108-32f155ca387d"},"vehicle_type_id":"4","last_reported":1729581040,"current_range_meters":26000,"station_id":"ce4bhn12rcd13ifvqgpg","pricing_plan_id":"cebpf4jnsgd1na2vs0mg"},{"bike_id":"e60756c5-6254-4cc6-8261-a873faab6f63","system_id":"levelo_inurba_marseille","lat":43.25931,"lon":5.40912,"is_reserved":false,"is_disabled":false,"rental_uris":{"android":"levelo://app?vid=e60756c5-6254-4cc6-8261-a873faab6f63","ios":"levelo://app?vid=e60756c5-6254-4cc6-8261-a873faab6f63"},"vehicle_type_id":"4","last_reported":1729581040,"current_range_meters":38800,"station_id":"ce4bhm92rcd13ifvqglg","pricing_plan_id":"cebpf4jnsgd1na2vs0mg"},{"bike_id":"7e43cda1-03cb-4ed5-9609-f6d261929a60","system_id":"levelo_inurba_marseille","lat":43.3028,"lon":5.37707,"is_reserved":false,"is_disabled":false,"rental_uris":{"android":"levelo://app?vid=7e43cda1-03cb-4ed5-9609-f6d261929a60","ios":"levelo://app?vid=7e43cda1-03cb-4ed5-9609-f6d261929a60"},"vehicle_type_id":"4","last_reported":1729581040,"current_range_meters":37600,"station_id":"ce4bguh2rcd13ifvqcj0","pricing_plan_id":"cebpf4jnsgd1na2vs0mg"},{"bike_id":"e86b0c6d-ab65-46e8-b02f-bd84dad96c56","system_id":"levelo_inurba_marseille","lat":43.31218,"lon":5.36861,"is_reserved":false,"is_disabled":false,"rental_uris":{"android":"levelo://app?vid=e86b0c6d-ab65-46e8-b02f-bd84dad96c56","ios":"levelo://app?vid=e86b0c6d-ab65-46e8-b02f-bd84dad96c56"},"vehicle_type_id":"4","last_reported":1729581040,"current_range_meters":39200,"station_id":"ce4bgl92rcd13ifvqbq0","pricing_plan_id":"cebpf4jnsgd1na2vs0mg"},{"bike_id":"60717735-8180-439d-aa16-1261afe15895","system_id":"levelo_inurba_marseille","lat":43.24185,"lon":5.39732,"is_reserved":false,"is_disabled":false,"rental_uris":{"android":"levelo://app?vid=60717735-8180-439d-aa16-1261afe15895","ios":"levelo://app?vid=60717735-8180-439d-aa16-1261afe15895"},"vehicle_type_id":"4","last_reported":1729581040,"current_range_meters":33600,"station_id":"ce4bhn12rcd13ifvqgpg","pricing_plan_id":"cebpf4jnsgd1na2vs0mg"},{"bike_id":"392b8842-5fcf-4d6d-8c90-ea89e1dbc013","system_id":"levelo_inurba_marseille","lat":43.26677,"lon":5.38266,"is_reserved":false,"is_disabled":false,"rental_uris":{"android":"levelo://app?vid=392b8842-5fcf-4d6d-8c90-ea89e1dbc013","ios":"levelo://app?vid=392b8842-5fcf-4d6d-8c90-ea89e1dbc013"},"vehicle_type_id":"4","last_reported":1729581040,"current_range_meters":2800,"station_id":"ce4bhg92rcd13ifvqf90","pricing_plan_id":"cebpf4jnsgd1na2vs0mg"},{"bike_id":"309bb1c3-85e0-469d-b068-2e24a723c6dc","system_id":"levelo_inurba_marseille","lat":43.25934,"lon":5.40906,"is_reserved":false,"is_disabled":false,"rental_uris":{"android":"levelo://app?vid=309bb1c3-85e0-469d-b068-2e24a723c6dc","ios":"levelo://app?vid=309bb1c3-85e0-469d-b068-2e24a723c6dc"},"vehicle_type_id":"4","last_reported":1729581040,"current_range_meters":16400,"station_id":"ce4bhm92rcd13ifvqglg","pricing_plan_id":"cebpf4jnsgd1na2vs0mg"},{"bike_id":"6c1c4dca-9c27-40ae-b248-3f66b24560fc","system_id":"levelo_inurba_marseille","lat":43.24176,"lon":5.39729,"is_reserved":false,"is_disabled":false,"rental_uris":{"android":"levelo://app?vid=6c1c4dca-9c27-40ae-b248-3f66b24560fc","ios":"levelo://app?vid=6c1c4dca-9c27-40ae-b248-3f66b24560fc"},"vehicle_type_id":"4","last_reported":1729581040,"current_range_meters":28400,"station_id":"ce4bhn12rcd13ifvqgpg","pricing_plan_id":"cebpf4jnsgd1na2vs0mg"},{"bike_id":"3c2e9290-6792-4e2d-b00d-712b965be0bd","system_id":"levelo_inurba_marseille","lat":43.26423,"lon":5.38681,"is_reserved":false,"is_disabled":false,"rental_uris":{"android":"levelo://app?vid=3c2e9290-6792-4e2d-b00d-712b965be0bd","ios":"levelo://app?vid=3c2e9290-6792-4e2d-b00d-712b965be0bd"},"vehicle_type_id":"4","last_reported":1729581040,"current_range_meters":9200,"station_id":"","pricing_plan_id":"cebpf4jnsgd1na2vs0mg"},{"bike_id":"51cde9b4-7441-4cb2-904d-4757c342232d","system_id":"levelo_inurba_marseille","lat":43.30473,"lon":5.37905,"is_reserved":false,"is_disabled":false,"rental_uris":{"android":"levelo://app?vid=51cde9b4-7441-4cb2-904d-4757c342232d","ios":"levelo://app?vid=51cde9b4-7441-4cb2-904d-4757c342232d"},"vehicle_type_id":"4","last_reported":1729581040,"current_range_meters":39200,"station_id":"ce4bgup2rcd13ifvqcn0","pricing_plan_id":"cebpf4jnsgd1na2vs0mg"},{"bike_id":"ff54830c-312d-4330-9515-07bfe642959a","system_id":"levelo_inurba_marseille","lat":43.25928,"lon":5.40912,"is_reserved":false,"is_disabled":false,"rental_uris":{"android":"levelo://app?vid=ff54830c-312d-4330-9515-07bfe642959a","ios":"levelo://app?vid=ff54830c-312d-4330-9515-07bfe642959a"},"vehicle_type_id":"4","last_reported":1729581040,"current_range_meters":20400,"station_id":"ce4bhm92rcd13ifvqglg","pricing_plan_id":"cebpf4jnsgd1na2vs0mg"},{"bike_id":"8c0492ab-2d45-4afb-95a1-d3970d15852a","system_id":"levelo_inurba_marseille","lat":43.33024,"lon":5.39039,"is_reserved":false,"is_disabled":false,"rental_uris":{"android":"levelo://app?vid=8c0492ab-2d45-4afb-95a1-d3970d15852a","ios":"levelo://app?vid=8c0492ab-2d45-4afb-95a1-d3970d15852a"},"vehicle_type_id":"4","last_reported":1729581040,"current_range_meters":8800,"station_id":"ce4bhr92rcd13ifvqhrg","pricing_plan_id":"cebpf4jnsgd1na2vs0mg"},{"bike_id":"e86d8755-2f6e-45be-b7a9-c103ee5c06e3","system_id":"levelo_inurba_marseille","lat":43.25938,"lon":5.40911,"is_reserved":false,"is_disabled":false,"rental_uris":{"android":"levelo://app?vid=e86d8755-2f6e-45be-b7a9-c103ee5c06e3","ios":"levelo://app?vid=e86d8755-2f6e-45be-b7a9-c103ee5c06e3"},"vehicle_type_id":"4","last_reported":1729581040,"current_range_meters":26800,"station_id":"ce4bhm92rcd13ifvqglg","pricing_plan_id":"cebpf4jnsgd1na2vs0mg"},{"bike_id":"566ef3cd-3e87-4087-a6aa-32a145c590e2","system_id":"levelo_inurba_marseille","lat":43.25578,"lon":5.38236,"is_reserved":false,"is_disabled":false,"rental_uris":{"android":"levelo://app?vid=566ef3cd-3e87-4087-a6aa-32a145c590e2","ios":"levelo://app?vid=566ef3cd-3e87-4087-a6aa-32a145c590e2"},"vehicle_type_id":"4","last_reported":1729581040,"current_range_meters":13600,"station_id":"ce4bhih2rcd13ifvqfs0","pricing_plan_id":"cebpf4jnsgd1na2vs0mg"},{"bike_id":"e73397ec-41ef-401f-966f-7b0b12ace5aa","system_id":"levelo_inurba_marseille","lat":43.23193,"lon":5.35553,"is_reserved":false,"is_disabled":false,"rental_uris":{"android":"levelo://app?vid=e73397ec-41ef-401f-966f-7b0b12ace5aa","ios":"levelo://app?vid=e73397ec-41ef-401f-966f-7b0b12ace5aa"},"vehicle_type_id":"4","last_reported":1729581040,"current_range_meters":38800,"station_id":"ce4bhu92rcd13ifvqi70","pricing_plan_id":"cebpf4jnsgd1na2vs0mg"},{"bike_id":"cb8c14be-838d-45f8-9135-305e9f32077f","system_id":"levelo_inurba_marseille","lat":43.30904,"lon":5.36847,"is_reserved":false,"is_disabled":false,"rental_uris":{"android":"levelo://app?vid=cb8c14be-838d-45f8-9135-305e9f32077f","ios":"levelo://app?vid=cb8c14be-838d-45f8-9135-305e9f32077f"},"vehicle_type_id":"4","last_reported":1729581040,"current_range_meters":29600,"station_id":"ce4bgn92rcd13ifvqbvg","pricing_plan_id":"cebpf4jnsgd1na2vs0mg"},{"bike_id":"a3f1de88-f26b-447f-8432-a65120dc1fba","system_id":"levelo_inurba_marseille","lat":43.24675,"lon":5.3815,"is_reserved":false,"is_disabled":false,"rental_uris":{"android":"levelo://app?vid=a3f1de88-f26b-447f-8432-a65120dc1fba","ios":"levelo://app?vid=a3f1de88-f26b-447f-8432-a65120dc1fba"},"vehicle_type_id":"4","last_reported":1729581040,"current_range_meters":8000,"station_id":"ce4bhih2rcd13ifvqfr0","pricing_plan_id":"cebpf4jnsgd1na2vs0mg"},{"bike_id":"e19ecf22-5188-430a-b60f-8b78af092b21","system_id":"levelo_inurba_marseille","lat":43.30544,"lon":5.36559,"is_reserved":false,"is_disabled":false,"rental_uris":{"android":"levelo://app?vid=e19ecf22-5188-430a-b60f-8b78af092b21","ios":"levelo://app?vid=e19ecf22-5188-430a-b60f-8b78af092b21"},"vehicle_type_id":"4","last_reported":1729581040,"current_range_meters":32000,"station_id":"ce4bgs12rcd13ifvqcag","pricing_plan_id":"cebpf4jnsgd1na2vs0mg"},{"bike_id":"2e834380-0591-4a5f-a7c6-ec896c58b9ae","system_id":"levelo_inurba_marseille","lat":43.3155,"lon":5.4038,"is_reserved":false,"is_disabled":false,"rental_uris":{"android":"levelo://app?vid=2e834380-0591-4a5f-a7c6-ec896c58b9ae","ios":"levelo://app?vid=2e834380-0591-4a5f-a7c6-ec896c58b9ae"},"vehicle_type_id":"4","last_reported":1729581040,"current_range_meters":28000,"station_id":"","pricing_plan_id":"cebpf4jnsgd1na2vs0mg"},{"bike_id":"a46224bf-1e23-44ee-9665-6762e802956f","system_id":"levelo_inurba_marseille","lat":43.25935,"lon":5.40913,"is_reserved":false,"is_disabled":false,"rental_uris":{"android":"levelo://app?vid=a46224bf-1e23-44ee-9665-6762e802956f","ios":"levelo://app?vid=a46224bf-1e23-44ee-9665-6762e802956f"},"vehicle_type_id":"4","last_reported":1729581040,"current_range_meters":35200,"station_id":"ce4bhm92rcd13ifvqglg","pricing_plan_id":"cebpf4jnsgd1na2vs0mg"},{"bike_id":"4db5f57a-1837-492d-ba97-4e606b1a8f25","system_id":"levelo_inurba_marseille","lat":43.24184,"lon":5.39725,"is_reserved":false,"is_disabled":false,"rental_uris":{"android":"levelo://app?vid=4db5f57a-1837-492d-ba97-4e606b1a8f25","ios":"levelo://app?vid=4db5f57a-1837-492d-ba97-4e606b1a8f25"},"vehicle_type_id":"4","last_reported":1729581040,"current_range_meters":38000,"station_id":"ce4bhn12rcd13ifvqgpg","pricing_plan_id":"cebpf4jnsgd1na2vs0mg"},{"bike_id":"a4bec522-c4e8-47bb-983c-2f5c3143ecc9","system_id":"levelo_inurba_marseille","lat":43.23153,"lon":5.43719,"is_reserved":false,"is_disabled":false,"rental_uris":{"android":"levelo://app?vid=a4bec522-c4e8-47bb-983c-2f5c3143ecc9","ios":"levelo://app?vid=a4bec522-c4e8-47bb-983c-2f5c3143ecc9"},"vehicle_type_id":"4","last_reported":1729581040,"current_range_meters":7200,"station_id":"ce4bhmp2rcd13ifvqgog","pricing_plan_id":"cebpf4jnsgd1na2vs0mg"},{"bike_id":"7b55bf91-35db-4d77-ba2d-32a86d96429a","system_id":"levelo_inurba_marseille","lat":43.26681,"lon":5.38267,"is_reserved":false,"is_disabled":false,"rental_uris":{"android":"levelo://app?vid=7b55bf91-35db-4d77-ba2d-32a86d96429a","ios":"levelo://app?vid=7b55bf91-35db-4d77-ba2d-32a86d96429a"},"vehicle_type_id":"4","last_reported":1729581040,"current_range_meters":38800,"station_id":"ce4bhg92rcd13ifvqf90","pricing_plan_id":"cebpf4jnsgd1na2vs0mg"},{"bike_id":"0542018d-404c-4931-92ac-7d497686214b","system_id":"levelo_inurba_marseille","lat":43.29564,"lon":5.42283,"is_reserved":false,"is_disabled":false,"rental_uris":{"android":"levelo://app?vid=0542018d-404c-4931-92ac-7d497686214b","ios":"levelo://app?vid=0542018d-404c-4931-92ac-7d497686214b"},"vehicle_type_id":"4","last_reported":1729581040,"current_range_meters":38800,"station_id":"ce4bhph2rcd13ifvqhdg","pricing_plan_id":"cebpf4jnsgd1na2vs0mg"},{"bike_id":"7c8c328e-af8d-41b2-b851-783953a78dd4","system_id":"levelo_inurba_marseille","lat":43.30952,"lon":5.39026,"is_reserved":false,"is_disabled":false,"rental_uris":{"android":"levelo://app?vid=7c8c328e-af8d-41b2-b851-783953a78dd4","ios":"levelo://app?vid=7c8c328e-af8d-41b2-b851-783953a78dd4"},"vehicle_type_id":"4","last_reported":1729581040,"current_range_meters":24000,"station_id":"ce4bgup2rcd13ifvqco0","pricing_plan_id":"cebpf4jnsgd1na2vs0mg"},{"bike_id":"bc1c4b65-b2ef-458a-9377-0e29b328aa0e","system_id":"levelo_inurba_marseille","lat":43.30352,"lon":5.4188,"is_reserved":false,"is_disabled":false,"rental_uris":{"android":"levelo://app?vid=bc1c4b65-b2ef-458a-9377-0e29b328aa0e","ios":"levelo://app?vid=bc1c4b65-b2ef-458a-9377-0e29b328aa0e"},"vehicle_type_id":"4","last_reported":1729581040,"current_range_meters":38800,"station_id":"ce4bhop2rcd13ifvqh7g","pricing_plan_id":"cebpf4jnsgd1na2vs0mg"},{"bike_id":"86e9e27a-9a12-44c4-9297-c1c1fb127512","system_id":"levelo_inurba_marseille","lat":43.31337,"lon":5.39697,"is_reserved":false,"is_disabled":false,"rental_uris":{"android":"levelo://app?vid=86e9e27a-9a12-44c4-9297-c1c1fb127512","ios":"levelo://app?vid=86e9e27a-9a12-44c4-9297-c1c1fb127512"},"vehicle_type_id":"4","last_reported":1729581040,"current_range_meters":38800,"station_id":"ce4bgvp2rcd13ifvqcu0","pricing_plan_id":"cebpf4jnsgd1na2vs0mg"},{"bike_id":"67349b8d-80b3-4749-832d-07f7e424b34c","system_id":"levelo_inurba_marseille","lat":43.26678,"lon":5.38265,"is_reserved":false,"is_disabled":false,"rental_uris":{"android":"levelo://app?vid=67349b8d-80b3-4749-832d-07f7e424b34c","ios":"levelo://app?vid=67349b8d-80b3-4749-832d-07f7e424b34c"},"vehicle_type_id":"4","last_reported":1729581040,"current_range_meters":39200,"station_id":"ce4bhg92rcd13ifvqf90","pricing_plan_id":"cebpf4jnsgd1na2vs0mg"},{"bike_id":"a4d59fb6-d87d-4baf-89e2-41760680e237","system_id":"levelo_inurba_marseille","lat":43.24074,"lon":5.37767,"is_reserved":false,"is_disabled":false,"rental_uris":{"android":"levelo://app?vid=a4d59fb6-d87d-4baf-89e2-41760680e237","ios":"levelo://app?vid=a4d59fb6-d87d-4baf-89e2-41760680e237"},"vehicle_type_id":"4","last_reported":1729581040,"current_range_meters":34000,"station_id":"ce4bhnp2rcd13ifvqgvg","pricing_plan_id":"cebpf4jnsgd1na2vs0mg"},{"bike_id":"1bcb55a5-c74e-4a9e-956b-3b5cb07d2887","system_id":"levelo_inurba_marseille","lat":43.30922,"lon":5.3685,"is_reserved":false,"is_disabled":false,"rental_uris":{"android":"levelo://app?vid=1bcb55a5-c74e-4a9e-956b-3b5cb07d2887","ios":"levelo://app?vid=1bcb55a5-c74e-4a9e-956b-3b5cb07d2887"},"vehicle_type_id":"4","last_reported":1729581040,"current_range_meters":37600,"station_id":"ce4bgn92rcd13ifvqbvg","pricing_plan_id":"cebpf4jnsgd1na2vs0mg"},{"bike_id":"2163a0a5-3422-4c4d-af38-bb1f09e39a7b","system_id":"levelo_inurba_marseille","lat":43.30566,"lon":5.36532,"is_reserved":false,"is_disabled":false,"rental_uris":{"android":"levelo://app?vid=2163a0a5-3422-4c4d-af38-bb1f09e39a7b","ios":"levelo://app?vid=2163a0a5-3422-4c4d-af38-bb1f09e39a7b"},"vehicle_type_id":"4","last_reported":1729581040,"current_range_meters":14000,"station_id":"ce4bgs12rcd13ifvqcag","pricing_plan_id":"cebpf4jnsgd1na2vs0mg"},{"bike_id":"f3e6b978-18f1-4d62-8e62-10f47b84c435","system_id":"levelo_inurba_marseille","lat":43.26556,"lon":5.37286,"is_reserved":false,"is_disabled":false,"rental_uris":{"android":"levelo://app?vid=f3e6b978-18f1-4d62-8e62-10f47b84c435","ios":"levelo://app?vid=f3e6b978-18f1-4d62-8e62-10f47b84c435"},"vehicle_type_id":"4","last_reported":1729581040,"current_range_meters":28800,"station_id":"ce4bhg12rcd13ifvqf70","pricing_plan_id":"cebpf4jnsgd1na2vs0mg"},{"bike_id":"5279b792-c05c-48f0-a472-c6e49ece0970","system_id":"levelo_inurba_marseille","lat":43.276745,"lon":5.388462,"is_reserved":false,"is_disabled":false,"rental_uris":{"android":"levelo://app?vid=5279b792-c05c-48f0-a472-c6e49ece0970","ios":"levelo://app?vid=5279b792-c05c-48f0-a472-c6e49ece0970"},"vehicle_type_id":"4","last_reported":1729581040,"current_range_meters":33200,"station_id":"ce4bhi12rcd13ifvqfo0","pricing_plan_id":"cebpf4jnsgd1na2vs0mg"},{"bike_id":"804fb848-57f6-4944-985c-c6acefd10248","system_id":"levelo_inurba_marseille","lat":43.28157,"lon":5.42648,"is_reserved":false,"is_disabled":false,"rental_uris":{"android":"levelo://app?vid=804fb848-57f6-4944-985c-c6acefd10248","ios":"levelo://app?vid=804fb848-57f6-4944-985c-c6acefd10248"},"vehicle_type_id":"4","last_reported":1729581040,"current_range_meters":38800,"station_id":"ce4bhnh2rcd13ifvqgug","pricing_plan_id":"cebpf4jnsgd1na2vs0mg"},{"bike_id":"3092cc72-6376-4a93-9a44-b7bd6dbe386d","system_id":"levelo_inurba_marseille","lat":43.30543,"lon":5.36701,"is_reserved":false,"is_disabled":false,"rental_uris":{"android":"levelo://app?vid=3092cc72-6376-4a93-9a44-b7bd6dbe386d","ios":"levelo://app?vid=3092cc72-6376-4a93-9a44-b7bd6dbe386d"},"vehicle_type_id":"4","last_reported":1729581040,"current_range_meters":36000,"station_id":"ce4bgrp2rcd13ifvqc9g","pricing_plan_id":"cebpf4jnsgd1na2vs0mg"},{"bike_id":"afee6143-a1e5-4f5c-b68a-34eaaf39de65","system_id":"levelo_inurba_marseille","lat":43.23156,"lon":5.43703,"is_reserved":false,"is_disabled":false,"rental_uris":{"android":"levelo://app?vid=afee6143-a1e5-4f5c-b68a-34eaaf39de65","ios":"levelo://app?vid=afee6143-a1e5-4f5c-b68a-34eaaf39de65"},"vehicle_type_id":"4","last_reported":1729581040,"current_range_meters":32000,"station_id":"ce4bhmp2rcd13ifvqgog","pricing_plan_id":"cebpf4jnsgd1na2vs0mg"},{"bike_id":"b4c8e455-c10a-4076-95c4-1ddb2041d1c1","system_id":"levelo_inurba_marseille","lat":43.33616,"lon":5.41028,"is_reserved":false,"is_disabled":false,"rental_uris":{"android":"levelo://app?vid=b4c8e455-c10a-4076-95c4-1ddb2041d1c1","ios":"levelo://app?vid=b4c8e455-c10a-4076-95c4-1ddb2041d1c1"},"vehicle_type_id":"4","last_reported":1729581040,"current_range_meters":32000,"station_id":"ce4bhqh2rcd13ifvqhmg","pricing_plan_id":"cebpf4jnsgd1na2vs0mg"},{"bike_id":"cb1f5b68-1056-4fae-b9dc-c0f0c6b03ec1","system_id":"levelo_inurba_marseille","lat":43.24544,"lon":5.39525,"is_reserved":false,"is_disabled":false,"rental_uris":{"android":"levelo://app?vid=cb1f5b68-1056-4fae-b9dc-c0f0c6b03ec1","ios":"levelo://app?vid=cb1f5b68-1056-4fae-b9dc-c0f0c6b03ec1"},"vehicle_type_id":"4","last_reported":1729581040,"current_range_meters":38800,"station_id":"ce4bhlp2rcd13ifvqgjg","pricing_plan_id":"cebpf4jnsgd1na2vs0mg"},{"bike_id":"4244ce3d-005e-44c0-b1e0-939a08589aac","system_id":"levelo_inurba_marseille","lat":43.29013,"lon":5.38131,"is_reserved":false,"is_disabled":false,"rental_uris":{"android":"levelo://app?vid=4244ce3d-005e-44c0-b1e0-939a08589aac","ios":"levelo://app?vid=4244ce3d-005e-44c0-b1e0-939a08589aac"},"vehicle_type_id":"4","last_reported":1729581040,"current_range_meters":32000,"station_id":"ce4bh4p2rcd13ifvqe1g","pricing_plan_id":"cebpf4jnsgd1na2vs0mg"},{"bike_id":"d67659aa-1879-49ff-9e21-343007f69c6c","system_id":"levelo_inurba_marseille","lat":43.30807,"lon":5.43525,"is_reserved":false,"is_disabled":false,"rental_uris":{"android":"levelo://app?vid=d67659aa-1879-49ff-9e21-343007f69c6c","ios":"levelo://app?vid=d67659aa-1879-49ff-9e21-343007f69c6c"},"vehicle_type_id":"4","last_reported":1729581040,"current_range_meters":38800,"station_id":"ce4bhph2rcd13ifvqheg","pricing_plan_id":"cebpf4jnsgd1na2vs0mg"},{"bike_id":"a6440e14-2d32-407b-aef5-fe1035539b6c","system_id":"levelo_inurba_marseille","lat":43.280781,"lon":5.39642,"is_reserved":false,"is_disabled":false,"rental_uris":{"android":"levelo://app?vid=a6440e14-2d32-407b-aef5-fe1035539b6c","ios":"levelo://app?vid=a6440e14-2d32-407b-aef5-fe1035539b6c"},"vehicle_type_id":"4","last_reported":1729581040,"current_range_meters":28800,"station_id":"ce4bho12rcd13ifvqh2g","pricing_plan_id":"cebpf4jnsgd1na2vs0mg"},{"bike_id":"19119e7b-68fe-4a9e-b3d2-d1db016b71a7","system_id":"levelo_inurba_marseille","lat":43.26198,"lon":5.37453,"is_reserved":false,"is_disabled":false,"rental_uris":{"android":"levelo://app?vid=19119e7b-68fe-4a9e-b3d2-d1db016b71a7","ios":"levelo://app?vid=19119e7b-68fe-4a9e-b3d2-d1db016b71a7"},"vehicle_type_id":"4","last_reported":1729581040,"current_range_meters":32000,"station_id":"ce4bhgp2rcd13ifvqfc0","pricing_plan_id":"cebpf4jnsgd1na2vs0mg"},{"bike_id":"3edcc9de-82f8-488a-80ec-7f7f41bf5d14","system_id":"levelo_inurba_marseille","lat":43.32343,"lon":5.40626,"is_reserved":false,"is_disabled":false,"rental_uris":{"android":"levelo://app?vid=3edcc9de-82f8-488a-80ec-7f7f41bf5d14","ios":"levelo://app?vid=3edcc9de-82f8-488a-80ec-7f7f41bf5d14"},"vehicle_type_id":"4","last_reported":1729581040,"current_range_meters":11600,"station_id":"ce4bhq92rcd13ifvqhjg","pricing_plan_id":"cebpf4jnsgd1na2vs0mg"},{"bike_id":"bcbb5e20-f38e-42ab-9272-3e2f5015d7dd","system_id":"levelo_inurba_marseille","lat":43.308576,"lon":5.396573,"is_reserved":false,"is_disabled":false,"rental_uris":{"android":"levelo://app?vid=bcbb5e20-f38e-42ab-9272-3e2f5015d7dd","ios":"levelo://app?vid=bcbb5e20-f38e-42ab-9272-3e2f5015d7dd"},"vehicle_type_id":"4","last_reported":1729581040,"current_range_meters":38000,"station_id":"ce4bh012rcd13ifvqcv0","pricing_plan_id":"cebpf4jnsgd1na2vs0mg"},{"bike_id":"a78a05f6-e187-4669-80d1-9675fd22ff5c","system_id":"levelo_inurba_marseille","lat":43.31363,"lon":5.38497,"is_reserved":false,"is_disabled":false,"rental_uris":{"android":"levelo://app?vid=a78a05f6-e187-4669-80d1-9675fd22ff5c","ios":"levelo://app?vid=a78a05f6-e187-4669-80d1-9675fd22ff5c"},"vehicle_type_id":"4","last_reported":1729581040,"current_range_meters":38800,"station_id":"ce4bgt92rcd13ifvqcf0","pricing_plan_id":"cebpf4jnsgd1na2vs0mg"},{"bike_id":"7bc8993f-b69f-4b96-8190-8b6682b7d70f","system_id":"levelo_inurba_marseille","lat":43.33719,"lon":5.39181,"is_reserved":false,"is_disabled":false,"rental_uris":{"android":"levelo://app?vid=7bc8993f-b69f-4b96-8190-8b6682b7d70f","ios":"levelo://app?vid=7bc8993f-b69f-4b96-8190-8b6682b7d70f"},"vehicle_type_id":"4","last_reported":1729581040,"current_range_meters":38800,"station_id":"ce4bhr92rcd13ifvqhsg","pricing_plan_id":"cebpf4jnsgd1na2vs0mg"},{"bike_id":"864575c1-85b8-4008-92ba-391073d4ed51","system_id":"levelo_inurba_marseille","lat":43.23195,"lon":5.35548,"is_reserved":false,"is_disabled":false,"rental_uris":{"android":"levelo://app?vid=864575c1-85b8-4008-92ba-391073d4ed51","ios":"levelo://app?vid=864575c1-85b8-4008-92ba-391073d4ed51"},"vehicle_type_id":"4","last_reported":1729581040,"current_range_meters":25600,"station_id":"ce4bhu92rcd13ifvqi70","pricing_plan_id":"cebpf4jnsgd1na2vs0mg"},{"bike_id":"d23f3b7a-3b74-4c64-9e31-1d0d06e7394d","system_id":"levelo_inurba_marseille","lat":43.3014,"lon":5.37419,"is_reserved":false,"is_disabled":false,"rental_uris":{"android":"levelo://app?vid=d23f3b7a-3b74-4c64-9e31-1d0d06e7394d","ios":"levelo://app?vid=d23f3b7a-3b74-4c64-9e31-1d0d06e7394d"},"vehicle_type_id":"4","last_reported":1729581040,"current_range_meters":38800,"station_id":"ce4bgs92rcd13ifvqcc0","pricing_plan_id":"cebpf4jnsgd1na2vs0mg"},{"bike_id":"8607679d-137c-4f2f-8735-c7133b5650b7","system_id":"levelo_inurba_marseille","lat":43.3372,"lon":5.39186,"is_reserved":false,"is_disabled":false,"rental_uris":{"android":"levelo://app?vid=8607679d-137c-4f2f-8735-c7133b5650b7","ios":"levelo://app?vid=8607679d-137c-4f2f-8735-c7133b5650b7"},"vehicle_type_id":"4","last_reported":1729581040,"current_range_meters":33200,"station_id":"ce4bhr92rcd13ifvqhsg","pricing_plan_id":"cebpf4jnsgd1na2vs0mg"},{"bike_id":"583b84e4-e3c8-43a2-bc23-69cbb4d4e7f3","system_id":"levelo_inurba_marseille","lat":43.26684,"lon":5.38271,"is_reserved":false,"is_disabled":false,"rental_uris":{"android":"levelo://app?vid=583b84e4-e3c8-43a2-bc23-69cbb4d4e7f3","ios":"levelo://app?vid=583b84e4-e3c8-43a2-bc23-69cbb4d4e7f3"},"vehicle_type_id":"4","last_reported":1729581040,"current_range_meters":38800,"station_id":"ce4bhg92rcd13ifvqf90","pricing_plan_id":"cebpf4jnsgd1na2vs0mg"},{"bike_id":"86f0e3e8-8f9e-4b42-9ecf-5b34e95d52a2","system_id":"levelo_inurba_marseille","lat":43.26556,"lon":5.37284,"is_reserved":false,"is_disabled":false,"rental_uris":{"android":"levelo://app?vid=86f0e3e8-8f9e-4b42-9ecf-5b34e95d52a2","ios":"levelo://app?vid=86f0e3e8-8f9e-4b42-9ecf-5b34e95d52a2"},"vehicle_type_id":"4","last_reported":1729581040,"current_range_meters":36000,"station_id":"ce4bhg12rcd13ifvqf70","pricing_plan_id":"cebpf4jnsgd1na2vs0mg"},{"bike_id":"0728974d-1ad5-4181-91f2-6035aab7157d","system_id":"levelo_inurba_marseille","lat":43.23196,"lon":5.35547,"is_reserved":false,"is_disabled":false,"rental_uris":{"android":"levelo://app?vid=0728974d-1ad5-4181-91f2-6035aab7157d","ios":"levelo://app?vid=0728974d-1ad5-4181-91f2-6035aab7157d"},"vehicle_type_id":"4","last_reported":1729581040,"current_range_meters":38800,"station_id":"ce4bhu92rcd13ifvqi70","pricing_plan_id":"cebpf4jnsgd1na2vs0mg"},{"bike_id":"518ed396-16bf-490b-8ae4-67c4aee16e99","system_id":"levelo_inurba_marseille","lat":43.31354,"lon":5.36704,"is_reserved":false,"is_disabled":false,"rental_uris":{"android":"levelo://app?vid=518ed396-16bf-490b-8ae4-67c4aee16e99","ios":"levelo://app?vid=518ed396-16bf-490b-8ae4-67c4aee16e99"},"vehicle_type_id":"4","last_reported":1729581040,"current_range_meters":32000,"station_id":"ce4bgr92rcd13ifvqc6g","pricing_plan_id":"cebpf4jnsgd1na2vs0mg"},{"bike_id":"40789e63-bb12-414a-9e11-b14620ea6085","system_id":"levelo_inurba_marseille","lat":43.31714,"lon":5.37769,"is_reserved":false,"is_disabled":false,"rental_uris":{"android":"levelo://app?vid=40789e63-bb12-414a-9e11-b14620ea6085","ios":"levelo://app?vid=40789e63-bb12-414a-9e11-b14620ea6085"},"vehicle_type_id":"4","last_reported":1729581040,"current_range_meters":38400,"station_id":"ce4bgth2rcd13ifvqch0","pricing_plan_id":"cebpf4jnsgd1na2vs0mg"},{"bike_id":"2c2f3718-7209-4389-9d1d-d985a7daaef2","system_id":"levelo_inurba_marseille","lat":43.31682,"lon":5.37511,"is_reserved":false,"is_disabled":false,"rental_uris":{"android":"levelo://app?vid=2c2f3718-7209-4389-9d1d-d985a7daaef2","ios":"levelo://app?vid=2c2f3718-7209-4389-9d1d-d985a7daaef2"},"vehicle_type_id":"4","last_reported":1729581040,"current_range_meters":10000,"station_id":"","pricing_plan_id":"cebpf4jnsgd1na2vs0mg"},{"bike_id":"4dcc8215-e5f2-4a71-8a57-226c3eb4f4d5","system_id":"levelo_inurba_marseille","lat":43.27996,"lon":5.40007,"is_reserved":false,"is_disabled":false,"rental_uris":{"android":"levelo://app?vid=4dcc8215-e5f2-4a71-8a57-226c3eb4f4d5","ios":"levelo://app?vid=4dcc8215-e5f2-4a71-8a57-226c3eb4f4d5"},"vehicle_type_id":"4","last_reported":1729581040,"current_range_meters":18800,"station_id":"ce4bho92rcd13ifvqh4g","pricing_plan_id":"cebpf4jnsgd1na2vs0mg"},{"bike_id":"4fbc9bcd-f983-47d0-a432-134af039f6c8","system_id":"levelo_inurba_marseille","lat":43.23149,"lon":5.43723,"is_reserved":false,"is_disabled":false,"rental_uris":{"android":"levelo://app?vid=4fbc9bcd-f983-47d0-a432-134af039f6c8","ios":"levelo://app?vid=4fbc9bcd-f983-47d0-a432-134af039f6c8"},"vehicle_type_id":"4","last_reported":1729581040,"current_range_meters":16800,"station_id":"ce4bhmp2rcd13ifvqgog","pricing_plan_id":"cebpf4jnsgd1na2vs0mg"},{"bike_id":"287bf577-ec28-476f-81dc-18f5c4d600e7","system_id":"levelo_inurba_marseille","lat":43.3054,"lon":5.36558,"is_reserved":false,"is_disabled":false,"rental_uris":{"android":"levelo://app?vid=287bf577-ec28-476f-81dc-18f5c4d600e7","ios":"levelo://app?vid=287bf577-ec28-476f-81dc-18f5c4d600e7"},"vehicle_type_id":"4","last_reported":1729581040,"current_range_meters":26800,"station_id":"ce4bgs12rcd13ifvqcag","pricing_plan_id":"cebpf4jnsgd1na2vs0mg"},{"bike_id":"411ac777-0a9d-4c25-a41c-3bef2a6f6c7c","system_id":"levelo_inurba_marseille","lat":43.28639,"lon":5.39898,"is_reserved":false,"is_disabled":false,"rental_uris":{"android":"levelo://app?vid=411ac777-0a9d-4c25-a41c-3bef2a6f6c7c","ios":"levelo://app?vid=411ac777-0a9d-4c25-a41c-3bef2a6f6c7c"},"vehicle_type_id":"4","last_reported":1729581040,"current_range_meters":24800,"station_id":"ce4bh9p2rcd13ifvqec0","pricing_plan_id":"cebpf4jnsgd1na2vs0mg"},{"bike_id":"c5632612-78a9-4b09-b011-066b66d82389","system_id":"levelo_inurba_marseille","lat":43.30953,"lon":5.39028,"is_reserved":false,"is_disabled":false,"rental_uris":{"android":"levelo://app?vid=c5632612-78a9-4b09-b011-066b66d82389","ios":"levelo://app?vid=c5632612-78a9-4b09-b011-066b66d82389"},"vehicle_type_id":"4","last_reported":1729581040,"current_range_meters":27600,"station_id":"ce4bgup2rcd13ifvqco0","pricing_plan_id":"cebpf4jnsgd1na2vs0mg"},{"bike_id":"3502d262-242a-4f41-b46a-18e154b6d3d4","system_id":"levelo_inurba_marseille","lat":43.25937,"lon":5.40898,"is_reserved":false,"is_disabled":false,"rental_uris":{"android":"levelo://app?vid=3502d262-242a-4f41-b46a-18e154b6d3d4","ios":"levelo://app?vid=3502d262-242a-4f41-b46a-18e154b6d3d4"},"vehicle_type_id":"4","last_reported":1729581040,"current_range_meters":28800,"station_id":"ce4bhm92rcd13ifvqglg","pricing_plan_id":"cebpf4jnsgd1na2vs0mg"},{"bike_id":"b80433ac-4b37-4869-84e8-91999a3765ef","system_id":"levelo_inurba_marseille","lat":43.33607,"lon":5.41022,"is_reserved":false,"is_disabled":false,"rental_uris":{"android":"levelo://app?vid=b80433ac-4b37-4869-84e8-91999a3765ef","ios":"levelo://app?vid=b80433ac-4b37-4869-84e8-91999a3765ef"},"vehicle_type_id":"4","last_reported":1729581040,"current_range_meters":27600,"station_id":"ce4bhqh2rcd13ifvqhmg","pricing_plan_id":"cebpf4jnsgd1na2vs0mg"},{"bike_id":"79a1e020-318b-42a1-a8c0-a424b1daf69e","system_id":"levelo_inurba_marseille","lat":43.296,"lon":5.36142,"is_reserved":false,"is_disabled":false,"rental_uris":{"android":"levelo://app?vid=79a1e020-318b-42a1-a8c0-a424b1daf69e","ios":"levelo://app?vid=79a1e020-318b-42a1-a8c0-a424b1daf69e"},"vehicle_type_id":"4","last_reported":1729581040,"current_range_meters":6800,"station_id":"","pricing_plan_id":"cebpf4jnsgd1na2vs0mg"},{"bike_id":"e9eb57d8-3b64-44fc-bcf6-5325de798e1b","system_id":"levelo_inurba_marseille","lat":43.29557,"lon":5.42293,"is_reserved":false,"is_disabled":false,"rental_uris":{"android":"levelo://app?vid=e9eb57d8-3b64-44fc-bcf6-5325de798e1b","ios":"levelo://app?vid=e9eb57d8-3b64-44fc-bcf6-5325de798e1b"},"vehicle_type_id":"4","last_reported":1729581040,"current_range_meters":32000,"station_id":"ce4bhph2rcd13ifvqhdg","pricing_plan_id":"cebpf4jnsgd1na2vs0mg"},{"bike_id":"0a6ebde7-e192-4abe-814b-51fd0c0644f2","system_id":"levelo_inurba_marseille","lat":43.278258,"lon":5.391989,"is_reserved":false,"is_disabled":false,"rental_uris":{"android":"levelo://app?vid=0a6ebde7-e192-4abe-814b-51fd0c0644f2","ios":"levelo://app?vid=0a6ebde7-e192-4abe-814b-51fd0c0644f2"},"vehicle_type_id":"4","last_reported":1729581040,"current_range_meters":28800,"station_id":"ce4bhoh2rcd13ifvqh5g","pricing_plan_id":"cebpf4jnsgd1na2vs0mg"},{"bike_id":"6eced96a-b021-41b9-89bf-72379aa39c97","system_id":"levelo_inurba_marseille","lat":43.25938,"lon":5.4091,"is_reserved":false,"is_disabled":false,"rental_uris":{"android":"levelo://app?vid=6eced96a-b021-41b9-89bf-72379aa39c97","ios":"levelo://app?vid=6eced96a-b021-41b9-89bf-72379aa39c97"},"vehicle_type_id":"4","last_reported":1729581040,"current_range_meters":33600,"station_id":"ce4bhm92rcd13ifvqglg","pricing_plan_id":"cebpf4jnsgd1na2vs0mg"},{"bike_id":"3b146ebd-f1ca-414f-8b07-c3be71b7e9f5","system_id":"levelo_inurba_marseille","lat":43.24388,"lon":5.37061,"is_reserved":false,"is_disabled":false,"rental_uris":{"android":"levelo://app?vid=3b146ebd-f1ca-414f-8b07-c3be71b7e9f5","ios":"levelo://app?vid=3b146ebd-f1ca-414f-8b07-c3be71b7e9f5"},"vehicle_type_id":"4","last_reported":1729581040,"current_range_meters":24800,"station_id":"ce4bhhh2rcd13ifvqfk0","pricing_plan_id":"cebpf4jnsgd1na2vs0mg"},{"bike_id":"ada05105-b609-4b47-b6ef-58f23d195ff5","system_id":"levelo_inurba_marseille","lat":43.29217,"lon":5.36053,"is_reserved":false,"is_disabled":false,"rental_uris":{"android":"levelo://app?vid=ada05105-b609-4b47-b6ef-58f23d195ff5","ios":"levelo://app?vid=ada05105-b609-4b47-b6ef-58f23d195ff5"},"vehicle_type_id":"4","last_reported":1729581040,"current_range_meters":9600,"station_id":"ce4bhbh2rcd13ifvqeqg","pricing_plan_id":"cebpf4jnsgd1na2vs0mg"},{"bike_id":"7adf842b-4b8c-4356-a23f-1be0cbaf4d21","system_id":"levelo_inurba_marseille","lat":43.23195,"lon":5.35542,"is_reserved":false,"is_disabled":false,"rental_uris":{"android":"levelo://app?vid=7adf842b-4b8c-4356-a23f-1be0cbaf4d21","ios":"levelo://app?vid=7adf842b-4b8c-4356-a23f-1be0cbaf4d21"},"vehicle_type_id":"4","last_reported":1729581040,"current_range_meters":10000,"station_id":"ce4bhu92rcd13ifvqi70","pricing_plan_id":"cebpf4jnsgd1na2vs0mg"},{"bike_id":"3fbb21dc-457c-4028-8cc7-8a7ddebb915c","system_id":"levelo_inurba_marseille","lat":43.23188,"lon":5.35543,"is_reserved":false,"is_disabled":false,"rental_uris":{"android":"levelo://app?vid=3fbb21dc-457c-4028-8cc7-8a7ddebb915c","ios":"levelo://app?vid=3fbb21dc-457c-4028-8cc7-8a7ddebb915c"},"vehicle_type_id":"4","last_reported":1729581040,"current_range_meters":37600,"station_id":"ce4bhu92rcd13ifvqi70","pricing_plan_id":"cebpf4jnsgd1na2vs0mg"},{"bike_id":"8d66234d-ed10-4a56-b9bf-7024ed1a6c9c","system_id":"levelo_inurba_marseille","lat":43.32562,"lon":5.37912,"is_reserved":false,"is_disabled":false,"rental_uris":{"android":"levelo://app?vid=8d66234d-ed10-4a56-b9bf-7024ed1a6c9c","ios":"levelo://app?vid=8d66234d-ed10-4a56-b9bf-7024ed1a6c9c"},"vehicle_type_id":"4","last_reported":1729581040,"current_range_meters":8000,"station_id":"","pricing_plan_id":"cebpf4jnsgd1na2vs0mg"},{"bike_id":"cdb1b7b6-aedf-414f-a98c-4e36927c1c7b","system_id":"levelo_inurba_marseille","lat":43.27056,"lon":5.40263,"is_reserved":false,"is_disabled":false,"rental_uris":{"android":"levelo://app?vid=cdb1b7b6-aedf-414f-a98c-4e36927c1c7b","ios":"levelo://app?vid=cdb1b7b6-aedf-414f-a98c-4e36927c1c7b"},"vehicle_type_id":"4","last_reported":1729581040,"current_range_meters":33600,"station_id":"ce4bhk92rcd13ifvqgc0","pricing_plan_id":"cebpf4jnsgd1na2vs0mg"},{"bike_id":"7933aded-6259-4976-b6f7-05e90ee81aa9","system_id":"levelo_inurba_marseille","lat":43.30534,"lon":5.36555,"is_reserved":false,"is_disabled":false,"rental_uris":{"android":"levelo://app?vid=7933aded-6259-4976-b6f7-05e90ee81aa9","ios":"levelo://app?vid=7933aded-6259-4976-b6f7-05e90ee81aa9"},"vehicle_type_id":"4","last_reported":1729581040,"current_range_meters":38800,"station_id":"ce4bgs12rcd13ifvqcag","pricing_plan_id":"cebpf4jnsgd1na2vs0mg"},{"bike_id":"35a565d6-0fdf-4c4d-adba-c25dff6d340e","system_id":"levelo_inurba_marseille","lat":43.255,"lon":5.37651,"is_reserved":false,"is_disabled":false,"rental_uris":{"android":"levelo://app?vid=35a565d6-0fdf-4c4d-adba-c25dff6d340e","ios":"levelo://app?vid=35a565d6-0fdf-4c4d-adba-c25dff6d340e"},"vehicle_type_id":"4","last_reported":1729581040,"current_range_meters":13600,"station_id":"ce4bhh12rcd13ifvqff0","pricing_plan_id":"cebpf4jnsgd1na2vs0mg"},{"bike_id":"1d043a7e-e4a0-4b52-a511-dae1798912e1","system_id":"levelo_inurba_marseille","lat":43.28153,"lon":5.42639,"is_reserved":false,"is_disabled":false,"rental_uris":{"android":"levelo://app?vid=1d043a7e-e4a0-4b52-a511-dae1798912e1","ios":"levelo://app?vid=1d043a7e-e4a0-4b52-a511-dae1798912e1"},"vehicle_type_id":"4","last_reported":1729581040,"current_range_meters":37600,"station_id":"ce4bhnh2rcd13ifvqgug","pricing_plan_id":"cebpf4jnsgd1na2vs0mg"},{"bike_id":"2e7e341d-6647-47b6-9b4f-10b43bf22d61","system_id":"levelo_inurba_marseille","lat":43.30421,"lon":5.41289,"is_reserved":false,"is_disabled":false,"rental_uris":{"android":"levelo://app?vid=2e7e341d-6647-47b6-9b4f-10b43bf22d61","ios":"levelo://app?vid=2e7e341d-6647-47b6-9b4f-10b43bf22d61"},"vehicle_type_id":"4","last_reported":1729581040,"current_range_meters":30400,"station_id":"ce4bhop2rcd13ifvqh8g","pricing_plan_id":"cebpf4jnsgd1na2vs0mg"},{"bike_id":"00efb7ea-4935-4991-8e09-7c91b5acc755","system_id":"levelo_inurba_marseille","lat":43.29141,"lon":5.37752,"is_reserved":false,"is_disabled":false,"rental_uris":{"android":"levelo://app?vid=00efb7ea-4935-4991-8e09-7c91b5acc755","ios":"levelo://app?vid=00efb7ea-4935-4991-8e09-7c91b5acc755"},"vehicle_type_id":"4","last_reported":1729581040,"current_range_meters":22800,"station_id":"ce4bgpp2rcd13ifvqc3g","pricing_plan_id":"cebpf4jnsgd1na2vs0mg"},{"bike_id":"4c9cd873-b86d-45ed-8195-b76cbcf6fe83","system_id":"levelo_inurba_marseille","lat":43.25933,"lon":5.4091,"is_reserved":false,"is_disabled":false,"rental_uris":{"android":"levelo://app?vid=4c9cd873-b86d-45ed-8195-b76cbcf6fe83","ios":"levelo://app?vid=4c9cd873-b86d-45ed-8195-b76cbcf6fe83"},"vehicle_type_id":"4","last_reported":1729581040,"current_range_meters":37600,"station_id":"ce4bhm92rcd13ifvqglg","pricing_plan_id":"cebpf4jnsgd1na2vs0mg"},{"bike_id":"6cd915b7-8862-4c87-b58a-50cab51e10ad","system_id":"levelo_inurba_marseille","lat":43.29566,"lon":5.42278,"is_reserved":false,"is_disabled":false,"rental_uris":{"android":"levelo://app?vid=6cd915b7-8862-4c87-b58a-50cab51e10ad","ios":"levelo://app?vid=6cd915b7-8862-4c87-b58a-50cab51e10ad"},"vehicle_type_id":"4","last_reported":1729581040,"current_range_meters":22800,"station_id":"ce4bhph2rcd13ifvqhdg","pricing_plan_id":"cebpf4jnsgd1na2vs0mg"},{"bike_id":"b30795d5-c289-4858-b63e-3d6a34fb8b3d","system_id":"levelo_inurba_marseille","lat":43.26685,"lon":5.38266,"is_reserved":false,"is_disabled":false,"rental_uris":{"android":"levelo://app?vid=b30795d5-c289-4858-b63e-3d6a34fb8b3d","ios":"levelo://app?vid=b30795d5-c289-4858-b63e-3d6a34fb8b3d"},"vehicle_type_id":"4","last_reported":1729581040,"current_range_meters":36000,"station_id":"ce4bhg92rcd13ifvqf90","pricing_plan_id":"cebpf4jnsgd1na2vs0mg"},{"bike_id":"3b8770c4-2e69-44bb-a6aa-bcd3f26e7d7f","system_id":"levelo_inurba_marseille","lat":43.31326,"lon":5.39688,"is_reserved":false,"is_disabled":false,"rental_uris":{"android":"levelo://app?vid=3b8770c4-2e69-44bb-a6aa-bcd3f26e7d7f","ios":"levelo://app?vid=3b8770c4-2e69-44bb-a6aa-bcd3f26e7d7f"},"vehicle_type_id":"4","last_reported":1729581040,"current_range_meters":32800,"station_id":"ce4bgvp2rcd13ifvqcu0","pricing_plan_id":"cebpf4jnsgd1na2vs0mg"},{"bike_id":"155517ef-0a83-4c87-b2da-fb3d8d259bc7","system_id":"levelo_inurba_marseille","lat":43.25578,"lon":5.38239,"is_reserved":false,"is_disabled":false,"rental_uris":{"android":"levelo://app?vid=155517ef-0a83-4c87-b2da-fb3d8d259bc7","ios":"levelo://app?vid=155517ef-0a83-4c87-b2da-fb3d8d259bc7"},"vehicle_type_id":"4","last_reported":1729581040,"current_range_meters":37600,"station_id":"ce4bhih2rcd13ifvqfs0","pricing_plan_id":"cebpf4jnsgd1na2vs0mg"},{"bike_id":"0cbf08a8-ca2f-4e93-b15f-4e46b4a438c8","system_id":"levelo_inurba_marseille","lat":43.26682,"lon":5.38271,"is_reserved":false,"is_disabled":false,"rental_uris":{"android":"levelo://app?vid=0cbf08a8-ca2f-4e93-b15f-4e46b4a438c8","ios":"levelo://app?vid=0cbf08a8-ca2f-4e93-b15f-4e46b4a438c8"},"vehicle_type_id":"4","last_reported":1729581040,"current_range_meters":34000,"station_id":"ce4bhg92rcd13ifvqf90","pricing_plan_id":"cebpf4jnsgd1na2vs0mg"},{"bike_id":"2d01babb-a88f-40ff-bc1c-db20c2d7144e","system_id":"levelo_inurba_marseille","lat":43.24818,"lon":5.37459,"is_reserved":false,"is_disabled":false,"rental_uris":{"android":"levelo://app?vid=2d01babb-a88f-40ff-bc1c-db20c2d7144e","ios":"levelo://app?vid=2d01babb-a88f-40ff-bc1c-db20c2d7144e"},"vehicle_type_id":"4","last_reported":1729581040,"current_range_meters":38000,"station_id":"ce4bhgh2rcd13ifvqfb0","pricing_plan_id":"cebpf4jnsgd1na2vs0mg"},{"bike_id":"718b87b6-1d51-42c0-8532-54da7b2390a1","system_id":"levelo_inurba_marseille","lat":43.286102,"lon":5.351031,"is_reserved":false,"is_disabled":false,"rental_uris":{"android":"levelo://app?vid=718b87b6-1d51-42c0-8532-54da7b2390a1","ios":"levelo://app?vid=718b87b6-1d51-42c0-8532-54da7b2390a1"},"vehicle_type_id":"4","last_reported":1729581040,"current_range_meters":29600,"station_id":"ce4bgip2rcd13ifvqbb0","pricing_plan_id":"cebpf4jnsgd1na2vs0mg"},{"bike_id":"d35aead5-74d9-4a00-baad-d7d1ed435177","system_id":"levelo_inurba_marseille","lat":43.24073,"lon":5.37759,"is_reserved":false,"is_disabled":false,"rental_uris":{"android":"levelo://app?vid=d35aead5-74d9-4a00-baad-d7d1ed435177","ios":"levelo://app?vid=d35aead5-74d9-4a00-baad-d7d1ed435177"},"vehicle_type_id":"4","last_reported":1729581040,"current_range_meters":36400,"station_id":"ce4bhnp2rcd13ifvqgvg","pricing_plan_id":"cebpf4jnsgd1na2vs0mg"},{"bike_id":"9c3e814f-92e3-446d-aa0c-284e59dcf17d","system_id":"levelo_inurba_marseille","lat":43.31338,"lon":5.36709,"is_reserved":false,"is_disabled":false,"rental_uris":{"android":"levelo://app?vid=9c3e814f-92e3-446d-aa0c-284e59dcf17d","ios":"levelo://app?vid=9c3e814f-92e3-446d-aa0c-284e59dcf17d"},"vehicle_type_id":"4","last_reported":1729581040,"current_range_meters":28800,"station_id":"ce4bgr92rcd13ifvqc6g","pricing_plan_id":"cebpf4jnsgd1na2vs0mg"},{"bike_id":"9497472b-df01-4419-8ccb-4371f577f35f","system_id":"levelo_inurba_marseille","lat":43.25585,"lon":5.38246,"is_reserved":false,"is_disabled":false,"rental_uris":{"android":"levelo://app?vid=9497472b-df01-4419-8ccb-4371f577f35f","ios":"levelo://app?vid=9497472b-df01-4419-8ccb-4371f577f35f"},"vehicle_type_id":"4","last_reported":1729581040,"current_range_meters":18000,"station_id":"ce4bhih2rcd13ifvqfs0","pricing_plan_id":"cebpf4jnsgd1na2vs0mg"},{"bike_id":"5c6dffeb-0d00-4bb4-9976-ee8d11f07f2f","system_id":"levelo_inurba_marseille","lat":43.28035,"lon":5.36948,"is_reserved":false,"is_disabled":false,"rental_uris":{"android":"levelo://app?vid=5c6dffeb-0d00-4bb4-9976-ee8d11f07f2f","ios":"levelo://app?vid=5c6dffeb-0d00-4bb4-9976-ee8d11f07f2f"},"vehicle_type_id":"4","last_reported":1729581040,"current_range_meters":30000,"station_id":"ce4bha12rcd13ifvqef0","pricing_plan_id":"cebpf4jnsgd1na2vs0mg"},{"bike_id":"262d6295-809d-45c9-9768-b3b5a2cf90b7","system_id":"levelo_inurba_marseille","lat":43.31358,"lon":5.36718,"is_reserved":false,"is_disabled":false,"rental_uris":{"android":"levelo://app?vid=262d6295-809d-45c9-9768-b3b5a2cf90b7","ios":"levelo://app?vid=262d6295-809d-45c9-9768-b3b5a2cf90b7"},"vehicle_type_id":"4","last_reported":1729581040,"current_range_meters":28400,"station_id":"ce4bgr92rcd13ifvqc6g","pricing_plan_id":"cebpf4jnsgd1na2vs0mg"},{"bike_id":"c3945b60-e38d-4106-8f18-92c7f436cc4f","system_id":"levelo_inurba_marseille","lat":43.33757,"lon":5.37448,"is_reserved":false,"is_disabled":false,"rental_uris":{"android":"levelo://app?vid=c3945b60-e38d-4106-8f18-92c7f436cc4f","ios":"levelo://app?vid=c3945b60-e38d-4106-8f18-92c7f436cc4f"},"vehicle_type_id":"4","last_reported":1729581040,"current_range_meters":32800,"station_id":"","pricing_plan_id":"cebpf4jnsgd1na2vs0mg"},{"bike_id":"6cbc5653-716d-4889-800b-7beedcee4bce","system_id":"levelo_inurba_marseille","lat":43.29944,"lon":5.36546,"is_reserved":false,"is_disabled":false,"rental_uris":{"android":"levelo://app?vid=6cbc5653-716d-4889-800b-7beedcee4bce","ios":"levelo://app?vid=6cbc5653-716d-4889-800b-7beedcee4bce"},"vehicle_type_id":"4","last_reported":1729581040,"current_range_meters":3600,"station_id":"ce4bgm92rcd13ifvqbr0","pricing_plan_id":"cebpf4jnsgd1na2vs0mg"},{"bike_id":"62319cd6-601c-4bd5-be71-d403e057dd4c","system_id":"levelo_inurba_marseille","lat":43.29444,"lon":5.39743,"is_reserved":false,"is_disabled":false,"rental_uris":{"android":"levelo://app?vid=62319cd6-601c-4bd5-be71-d403e057dd4c","ios":"levelo://app?vid=62319cd6-601c-4bd5-be71-d403e057dd4c"},"vehicle_type_id":"4","last_reported":1729581040,"current_range_meters":36400,"station_id":"ce4bh3h2rcd13ifvqdo0","pricing_plan_id":"cebpf4jnsgd1na2vs0mg"},{"bike_id":"de1ff86d-3061-40a1-be1e-8be446e6115e","system_id":"levelo_inurba_marseille","lat":43.29595,"lon":5.38155,"is_reserved":false,"is_disabled":false,"rental_uris":{"android":"levelo://app?vid=de1ff86d-3061-40a1-be1e-8be446e6115e","ios":"levelo://app?vid=de1ff86d-3061-40a1-be1e-8be446e6115e"},"vehicle_type_id":"4","last_reported":1729581040,"current_range_meters":16000,"station_id":"ce4bgl12rcd13ifvqbo0","pricing_plan_id":"cebpf4jnsgd1na2vs0mg"},{"bike_id":"288d6a7f-d998-4597-bb7b-cda3c5ea3b38","system_id":"levelo_inurba_marseille","lat":43.30473,"lon":5.37906,"is_reserved":false,"is_disabled":false,"rental_uris":{"android":"levelo://app?vid=288d6a7f-d998-4597-bb7b-cda3c5ea3b38","ios":"levelo://app?vid=288d6a7f-d998-4597-bb7b-cda3c5ea3b38"},"vehicle_type_id":"4","last_reported":1729581040,"current_range_meters":36800,"station_id":"ce4bgup2rcd13ifvqcn0","pricing_plan_id":"cebpf4jnsgd1na2vs0mg"},{"bike_id":"f4204522-656c-4631-a7bd-3a1a72a52bfd","system_id":"levelo_inurba_marseille","lat":43.27612,"lon":5.35889,"is_reserved":false,"is_disabled":false,"rental_uris":{"android":"levelo://app?vid=f4204522-656c-4631-a7bd-3a1a72a52bfd","ios":"levelo://app?vid=f4204522-656c-4631-a7bd-3a1a72a52bfd"},"vehicle_type_id":"4","last_reported":1729581040,"current_range_meters":37600,"station_id":"","pricing_plan_id":"cebpf4jnsgd1na2vs0mg"},{"bike_id":"c37a9f14-2d78-41b8-ba95-c64c54cc1335","system_id":"levelo_inurba_marseille","lat":43.3056,"lon":5.36534,"is_reserved":false,"is_disabled":false,"rental_uris":{"android":"levelo://app?vid=c37a9f14-2d78-41b8-ba95-c64c54cc1335","ios":"levelo://app?vid=c37a9f14-2d78-41b8-ba95-c64c54cc1335"},"vehicle_type_id":"4","last_reported":1729581040,"current_range_meters":24400,"station_id":"ce4bgs12rcd13ifvqcag","pricing_plan_id":"cebpf4jnsgd1na2vs0mg"},{"bike_id":"6a39592d-784d-4530-b290-97caa8355493","system_id":"levelo_inurba_marseille","lat":43.30947,"lon":5.39029,"is_reserved":false,"is_disabled":false,"rental_uris":{"android":"levelo://app?vid=6a39592d-784d-4530-b290-97caa8355493","ios":"levelo://app?vid=6a39592d-784d-4530-b290-97caa8355493"},"vehicle_type_id":"4","last_reported":1729581040,"current_range_meters":21600,"station_id":"ce4bgup2rcd13ifvqco0","pricing_plan_id":"cebpf4jnsgd1na2vs0mg"},{"bike_id":"f1996839-6fc2-4108-a37b-6bd5e51ee519","system_id":"levelo_inurba_marseille","lat":43.285,"lon":5.39099,"is_reserved":false,"is_disabled":false,"rental_uris":{"android":"levelo://app?vid=f1996839-6fc2-4108-a37b-6bd5e51ee519","ios":"levelo://app?vid=f1996839-6fc2-4108-a37b-6bd5e51ee519"},"vehicle_type_id":"4","last_reported":1729581040,"current_range_meters":36800,"station_id":"","pricing_plan_id":"cebpf4jnsgd1na2vs0mg"},{"bike_id":"9819146e-6e38-4bfb-8718-b0a15928bc96","system_id":"levelo_inurba_marseille","lat":43.31342,"lon":5.36713,"is_reserved":false,"is_disabled":false,"rental_uris":{"android":"levelo://app?vid=9819146e-6e38-4bfb-8718-b0a15928bc96","ios":"levelo://app?vid=9819146e-6e38-4bfb-8718-b0a15928bc96"},"vehicle_type_id":"4","last_reported":1729581040,"current_range_meters":28800,"station_id":"ce4bgr92rcd13ifvqc6g","pricing_plan_id":"cebpf4jnsgd1na2vs0mg"},{"bike_id":"bca2497e-086e-49bf-b52f-e9bb31e166f6","system_id":"levelo_inurba_marseille","lat":43.29927,"lon":5.3745,"is_reserved":false,"is_disabled":false,"rental_uris":{"android":"levelo://app?vid=bca2497e-086e-49bf-b52f-e9bb31e166f6","ios":"levelo://app?vid=bca2497e-086e-49bf-b52f-e9bb31e166f6"},"vehicle_type_id":"4","last_reported":1729581040,"current_range_meters":27600,"station_id":"ce4bgjh2rcd13ifvqbg0","pricing_plan_id":"cebpf4jnsgd1na2vs0mg"},{"bike_id":"1cc8c524-3a72-465f-8ebe-e4c35d504abb","system_id":"levelo_inurba_marseille","lat":43.24076,"lon":5.37761,"is_reserved":false,"is_disabled":false,"rental_uris":{"android":"levelo://app?vid=1cc8c524-3a72-465f-8ebe-e4c35d504abb","ios":"levelo://app?vid=1cc8c524-3a72-465f-8ebe-e4c35d504abb"},"vehicle_type_id":"4","last_reported":1729581040,"current_range_meters":16800,"station_id":"ce4bhnp2rcd13ifvqgvg","pricing_plan_id":"cebpf4jnsgd1na2vs0mg"},{"bike_id":"97c628ec-78ad-479d-8be4-dc8daabb741e","system_id":"levelo_inurba_marseille","lat":43.28681,"lon":5.39996,"is_reserved":false,"is_disabled":false,"rental_uris":{"android":"levelo://app?vid=97c628ec-78ad-479d-8be4-dc8daabb741e","ios":"levelo://app?vid=97c628ec-78ad-479d-8be4-dc8daabb741e"},"vehicle_type_id":"4","last_reported":1729581040,"current_range_meters":37600,"station_id":"","pricing_plan_id":"cebpf4jnsgd1na2vs0mg"},{"bike_id":"f366cd14-7f76-4198-91dc-acde72a15d9d","system_id":"levelo_inurba_marseille","lat":43.308865,"lon":5.396517,"is_reserved":false,"is_disabled":false,"rental_uris":{"android":"levelo://app?vid=f366cd14-7f76-4198-91dc-acde72a15d9d","ios":"levelo://app?vid=f366cd14-7f76-4198-91dc-acde72a15d9d"},"vehicle_type_id":"4","last_reported":1729581040,"current_range_meters":30800,"station_id":"ce4bh012rcd13ifvqcv0","pricing_plan_id":"cebpf4jnsgd1na2vs0mg"},{"bike_id":"4f68ae36-a4e1-417a-b787-88827d17303a","system_id":"levelo_inurba_marseille","lat":43.301605,"lon":5.38085,"is_reserved":false,"is_disabled":false,"rental_uris":{"android":"levelo://app?vid=4f68ae36-a4e1-417a-b787-88827d17303a","ios":"levelo://app?vid=4f68ae36-a4e1-417a-b787-88827d17303a"},"vehicle_type_id":"4","last_reported":1729581040,"current_range_meters":30800,"station_id":"ce4bgjp2rcd13ifvqbh0","pricing_plan_id":"cebpf4jnsgd1na2vs0mg"},{"bike_id":"4193fd47-2d06-4c8f-893b-74c939505688","system_id":"levelo_inurba_marseille","lat":43.2621,"lon":5.37442,"is_reserved":false,"is_disabled":false,"rental_uris":{"android":"levelo://app?vid=4193fd47-2d06-4c8f-893b-74c939505688","ios":"levelo://app?vid=4193fd47-2d06-4c8f-893b-74c939505688"},"vehicle_type_id":"4","last_reported":1729581040,"current_range_meters":30400,"station_id":"ce4bhgp2rcd13ifvqfc0","pricing_plan_id":"cebpf4jnsgd1na2vs0mg"},{"bike_id":"6ba1088e-f6d7-458a-a335-f0b3c3746983","system_id":"levelo_inurba_marseille","lat":43.2419,"lon":5.39734,"is_reserved":false,"is_disabled":false,"rental_uris":{"android":"levelo://app?vid=6ba1088e-f6d7-458a-a335-f0b3c3746983","ios":"levelo://app?vid=6ba1088e-f6d7-458a-a335-f0b3c3746983"},"vehicle_type_id":"4","last_reported":1729581040,"current_range_meters":38000,"station_id":"ce4bhn12rcd13ifvqgpg","pricing_plan_id":"cebpf4jnsgd1na2vs0mg"},{"bike_id":"6a606450-0244-4420-a512-c69c644c2c13","system_id":"levelo_inurba_marseille","lat":43.25491,"lon":5.37652,"is_reserved":false,"is_disabled":false,"rental_uris":{"android":"levelo://app?vid=6a606450-0244-4420-a512-c69c644c2c13","ios":"levelo://app?vid=6a606450-0244-4420-a512-c69c644c2c13"},"vehicle_type_id":"4","last_reported":1729581040,"current_range_meters":37600,"station_id":"ce4bhh12rcd13ifvqff0","pricing_plan_id":"cebpf4jnsgd1na2vs0mg"},{"bike_id":"7ab01dfe-2692-44c6-8319-8a46fd385894","system_id":"levelo_inurba_marseille","lat":43.25868,"lon":5.39901,"is_reserved":false,"is_disabled":false,"rental_uris":{"android":"levelo://app?vid=7ab01dfe-2692-44c6-8319-8a46fd385894","ios":"levelo://app?vid=7ab01dfe-2692-44c6-8319-8a46fd385894"},"vehicle_type_id":"4","last_reported":1729581040,"current_range_meters":34800,"station_id":"ce4bhl92rcd13ifvqghg","pricing_plan_id":"cebpf4jnsgd1na2vs0mg"},{"bike_id":"c6514999-11a6-4cc9-8fdc-53a83e26106a","system_id":"levelo_inurba_marseille","lat":43.25088,"lon":5.39522,"is_reserved":false,"is_disabled":false,"rental_uris":{"android":"levelo://app?vid=c6514999-11a6-4cc9-8fdc-53a83e26106a","ios":"levelo://app?vid=c6514999-11a6-4cc9-8fdc-53a83e26106a"},"vehicle_type_id":"4","last_reported":1729581040,"current_range_meters":38400,"station_id":"ce4bhm12rcd13ifvqgkg","pricing_plan_id":"cebpf4jnsgd1na2vs0mg"},{"bike_id":"24e922d8-f510-48d4-8c7f-6def24068e41","system_id":"levelo_inurba_marseille","lat":43.25492,"lon":5.37646,"is_reserved":false,"is_disabled":false,"rental_uris":{"android":"levelo://app?vid=24e922d8-f510-48d4-8c7f-6def24068e41","ios":"levelo://app?vid=24e922d8-f510-48d4-8c7f-6def24068e41"},"vehicle_type_id":"4","last_reported":1729581040,"current_range_meters":38400,"station_id":"ce4bhh12rcd13ifvqff0","pricing_plan_id":"cebpf4jnsgd1na2vs0mg"},{"bike_id":"fed181f1-bf63-44a2-8176-df50744f2b5a","system_id":"levelo_inurba_marseille","lat":43.33603,"lon":5.41021,"is_reserved":false,"is_disabled":false,"rental_uris":{"android":"levelo://app?vid=fed181f1-bf63-44a2-8176-df50744f2b5a","ios":"levelo://app?vid=fed181f1-bf63-44a2-8176-df50744f2b5a"},"vehicle_type_id":"4","last_reported":1729581040,"current_range_meters":19600,"station_id":"ce4bhqh2rcd13ifvqhmg","pricing_plan_id":"cebpf4jnsgd1na2vs0mg"},{"bike_id":"6cbaa18b-deba-4b12-8423-7aff8642a881","system_id":"levelo_inurba_marseille","lat":43.30552,"lon":5.3672,"is_reserved":false,"is_disabled":false,"rental_uris":{"android":"levelo://app?vid=6cbaa18b-deba-4b12-8423-7aff8642a881","ios":"levelo://app?vid=6cbaa18b-deba-4b12-8423-7aff8642a881"},"vehicle_type_id":"4","last_reported":1729581040,"current_range_meters":26800,"station_id":"ce4bgrp2rcd13ifvqc9g","pricing_plan_id":"cebpf4jnsgd1na2vs0mg"},{"bike_id":"5e9e22a8-83e6-488b-b876-d74daeb25302","system_id":"levelo_inurba_marseille","lat":43.30275,"lon":5.37717,"is_reserved":false,"is_disabled":false,"rental_uris":{"android":"levelo://app?vid=5e9e22a8-83e6-488b-b876-d74daeb25302","ios":"levelo://app?vid=5e9e22a8-83e6-488b-b876-d74daeb25302"},"vehicle_type_id":"4","last_reported":1729581040,"current_range_meters":13600,"station_id":"ce4bguh2rcd13ifvqcj0","pricing_plan_id":"cebpf4jnsgd1na2vs0mg"},{"bike_id":"fa481e4e-4749-4d4b-9709-d597ee1df05b","system_id":"levelo_inurba_marseille","lat":43.30457,"lon":5.36738,"is_reserved":false,"is_disabled":false,"rental_uris":{"android":"levelo://app?vid=fa481e4e-4749-4d4b-9709-d597ee1df05b","ios":"levelo://app?vid=fa481e4e-4749-4d4b-9709-d597ee1df05b"},"vehicle_type_id":"4","last_reported":1729581040,"current_range_meters":38400,"station_id":"ce4bgrp2rcd13ifvqc9g","pricing_plan_id":"cebpf4jnsgd1na2vs0mg"},{"bike_id":"cd569d34-72b9-45ee-a81f-749c2ae00b5a","system_id":"levelo_inurba_marseille","lat":43.2962,"lon":5.37162,"is_reserved":false,"is_disabled":false,"rental_uris":{"android":"levelo://app?vid=cd569d34-72b9-45ee-a81f-749c2ae00b5a","ios":"levelo://app?vid=cd569d34-72b9-45ee-a81f-749c2ae00b5a"},"vehicle_type_id":"4","last_reported":1729581040,"current_range_meters":38800,"station_id":"ce4bgnh2rcd13ifvqc0g","pricing_plan_id":"cebpf4jnsgd1na2vs0mg"},{"bike_id":"ec125df5-44cc-49b7-81e0-c522bd2ca48c","system_id":"levelo_inurba_marseille","lat":43.23153,"lon":5.43708,"is_reserved":false,"is_disabled":false,"rental_uris":{"android":"levelo://app?vid=ec125df5-44cc-49b7-81e0-c522bd2ca48c","ios":"levelo://app?vid=ec125df5-44cc-49b7-81e0-c522bd2ca48c"},"vehicle_type_id":"4","last_reported":1729581040,"current_range_meters":18800,"station_id":"ce4bhmp2rcd13ifvqgog","pricing_plan_id":"cebpf4jnsgd1na2vs0mg"},{"bike_id":"495d9b54-adef-4d33-98e0-753a1caccc4a","system_id":"levelo_inurba_marseille","lat":43.29943,"lon":5.36538,"is_reserved":false,"is_disabled":false,"rental_uris":{"android":"levelo://app?vid=495d9b54-adef-4d33-98e0-753a1caccc4a","ios":"levelo://app?vid=495d9b54-adef-4d33-98e0-753a1caccc4a"},"vehicle_type_id":"4","last_reported":1729581040,"current_range_meters":28800,"station_id":"ce4bgm92rcd13ifvqbr0","pricing_plan_id":"cebpf4jnsgd1na2vs0mg"},{"bike_id":"27e21e6d-e1ae-4b6a-8820-0f7ea3745f34","system_id":"levelo_inurba_marseille","lat":43.2959,"lon":5.37369,"is_reserved":false,"is_disabled":false,"rental_uris":{"android":"levelo://app?vid=27e21e6d-e1ae-4b6a-8820-0f7ea3745f34","ios":"levelo://app?vid=27e21e6d-e1ae-4b6a-8820-0f7ea3745f34"},"vehicle_type_id":"4","last_reported":1729581040,"current_range_meters":30400,"station_id":"","pricing_plan_id":"cebpf4jnsgd1na2vs0mg"},{"bike_id":"fd536803-b9cd-4b52-b966-d5ac2acd7b0a","system_id":"levelo_inurba_marseille","lat":43.25939,"lon":5.40904,"is_reserved":false,"is_disabled":false,"rental_uris":{"android":"levelo://app?vid=fd536803-b9cd-4b52-b966-d5ac2acd7b0a","ios":"levelo://app?vid=fd536803-b9cd-4b52-b966-d5ac2acd7b0a"},"vehicle_type_id":"4","last_reported":1729581040,"current_range_meters":34800,"station_id":"ce4bhm92rcd13ifvqglg","pricing_plan_id":"cebpf4jnsgd1na2vs0mg"},{"bike_id":"68df9c1d-fba9-4c07-912c-48515acd5a55","system_id":"levelo_inurba_marseille","lat":43.32044,"lon":5.41568,"is_reserved":false,"is_disabled":false,"rental_uris":{"android":"levelo://app?vid=68df9c1d-fba9-4c07-912c-48515acd5a55","ios":"levelo://app?vid=68df9c1d-fba9-4c07-912c-48515acd5a55"},"vehicle_type_id":"4","last_reported":1729581040,"current_range_meters":27200,"station_id":"ce4bhq92rcd13ifvqhkg","pricing_plan_id":"cebpf4jnsgd1na2vs0mg"},{"bike_id":"4a3aa950-2095-498f-87de-414e2c498191","system_id":"levelo_inurba_marseille","lat":43.28149,"lon":5.42646,"is_reserved":false,"is_disabled":false,"rental_uris":{"android":"levelo://app?vid=4a3aa950-2095-498f-87de-414e2c498191","ios":"levelo://app?vid=4a3aa950-2095-498f-87de-414e2c498191"},"vehicle_type_id":"4","last_reported":1729581040,"current_range_meters":38800,"station_id":"ce4bhnh2rcd13ifvqgug","pricing_plan_id":"cebpf4jnsgd1na2vs0mg"},{"bike_id":"f4d138cc-efea-45ee-b8e2-47b7659e2f71","system_id":"levelo_inurba_marseille","lat":43.301602,"lon":5.380702,"is_reserved":false,"is_disabled":false,"rental_uris":{"android":"levelo://app?vid=f4d138cc-efea-45ee-b8e2-47b7659e2f71","ios":"levelo://app?vid=f4d138cc-efea-45ee-b8e2-47b7659e2f71"},"vehicle_type_id":"4","last_reported":1729581040,"current_range_meters":26000,"station_id":"ce4bgjp2rcd13ifvqbh0","pricing_plan_id":"cebpf4jnsgd1na2vs0mg"},{"bike_id":"967e5eae-ae5e-4c21-bf3a-c0959016b278","system_id":"levelo_inurba_marseille","lat":43.24801,"lon":5.37453,"is_reserved":false,"is_disabled":false,"rental_uris":{"android":"levelo://app?vid=967e5eae-ae5e-4c21-bf3a-c0959016b278","ios":"levelo://app?vid=967e5eae-ae5e-4c21-bf3a-c0959016b278"},"vehicle_type_id":"4","last_reported":1729581040,"current_range_meters":36800,"station_id":"ce4bhgh2rcd13ifvqfb0","pricing_plan_id":"cebpf4jnsgd1na2vs0mg"},{"bike_id":"26fb7cb7-d72b-44c3-9e31-877619775168","system_id":"levelo_inurba_marseille","lat":43.30464,"lon":5.37904,"is_reserved":false,"is_disabled":false,"rental_uris":{"android":"levelo://app?vid=26fb7cb7-d72b-44c3-9e31-877619775168","ios":"levelo://app?vid=26fb7cb7-d72b-44c3-9e31-877619775168"},"vehicle_type_id":"4","last_reported":1729581040,"current_range_meters":35600,"station_id":"ce4bgup2rcd13ifvqcn0","pricing_plan_id":"cebpf4jnsgd1na2vs0mg"},{"bike_id":"05ba3d76-a880-4e08-bd5e-c88b517f9e8d","system_id":"levelo_inurba_marseille","lat":43.32492,"lon":5.36559,"is_reserved":false,"is_disabled":false,"rental_uris":{"android":"levelo://app?vid=05ba3d76-a880-4e08-bd5e-c88b517f9e8d","ios":"levelo://app?vid=05ba3d76-a880-4e08-bd5e-c88b517f9e8d"},"vehicle_type_id":"4","last_reported":1729581040,"current_range_meters":38400,"station_id":"ce4bhs12rcd13ifvqhvg","pricing_plan_id":"cebpf4jnsgd1na2vs0mg"},{"bike_id":"cba57ba3-0a8b-418b-9617-226cc2b07ef6","system_id":"levelo_inurba_marseille","lat":43.30464,"lon":5.37908,"is_reserved":false,"is_disabled":false,"rental_uris":{"android":"levelo://app?vid=cba57ba3-0a8b-418b-9617-226cc2b07ef6","ios":"levelo://app?vid=cba57ba3-0a8b-418b-9617-226cc2b07ef6"},"vehicle_type_id":"4","last_reported":1729581040,"current_range_meters":28400,"station_id":"ce4bgup2rcd13ifvqcn0","pricing_plan_id":"cebpf4jnsgd1na2vs0mg"},{"bike_id":"14b7df84-de69-4342-b319-c7e24c480e4f","system_id":"levelo_inurba_marseille","lat":43.25866,"lon":5.39897,"is_reserved":false,"is_disabled":false,"rental_uris":{"android":"levelo://app?vid=14b7df84-de69-4342-b319-c7e24c480e4f","ios":"levelo://app?vid=14b7df84-de69-4342-b319-c7e24c480e4f"},"vehicle_type_id":"4","last_reported":1729581040,"current_range_meters":38400,"station_id":"ce4bhl92rcd13ifvqghg","pricing_plan_id":"cebpf4jnsgd1na2vs0mg"},{"bike_id":"8273f07f-4a55-425c-8610-6e9ec4f94b46","system_id":"levelo_inurba_marseille","lat":43.33023,"lon":5.39043,"is_reserved":false,"is_disabled":false,"rental_uris":{"android":"levelo://app?vid=8273f07f-4a55-425c-8610-6e9ec4f94b46","ios":"levelo://app?vid=8273f07f-4a55-425c-8610-6e9ec4f94b46"},"vehicle_type_id":"4","last_reported":1729581040,"current_range_meters":39200,"station_id":"ce4bhr92rcd13ifvqhrg","pricing_plan_id":"cebpf4jnsgd1na2vs0mg"},{"bike_id":"815dd284-1bd2-4bb9-992a-b2116e2485bc","system_id":"levelo_inurba_marseille","lat":43.32774,"lon":5.36162,"is_reserved":false,"is_disabled":false,"rental_uris":{"android":"levelo://app?vid=815dd284-1bd2-4bb9-992a-b2116e2485bc","ios":"levelo://app?vid=815dd284-1bd2-4bb9-992a-b2116e2485bc"},"vehicle_type_id":"4","last_reported":1729581040,"current_range_meters":34800,"station_id":"","pricing_plan_id":"cebpf4jnsgd1na2vs0mg"},{"bike_id":"f8620ccb-80c4-49d0-9aa5-4272e3c7dec8","system_id":"levelo_inurba_marseille","lat":43.29229,"lon":5.36069,"is_reserved":false,"is_disabled":false,"rental_uris":{"android":"levelo://app?vid=f8620ccb-80c4-49d0-9aa5-4272e3c7dec8","ios":"levelo://app?vid=f8620ccb-80c4-49d0-9aa5-4272e3c7dec8"},"vehicle_type_id":"4","last_reported":1729581040,"current_range_meters":30800,"station_id":"ce4bhbh2rcd13ifvqeqg","pricing_plan_id":"cebpf4jnsgd1na2vs0mg"},{"bike_id":"a6becff1-00d3-47fa-8898-3ba6d7221fbe","system_id":"levelo_inurba_marseille","lat":43.23196,"lon":5.35549,"is_reserved":false,"is_disabled":false,"rental_uris":{"android":"levelo://app?vid=a6becff1-00d3-47fa-8898-3ba6d7221fbe","ios":"levelo://app?vid=a6becff1-00d3-47fa-8898-3ba6d7221fbe"},"vehicle_type_id":"4","last_reported":1729581040,"current_range_meters":37600,"station_id":"ce4bhu92rcd13ifvqi70","pricing_plan_id":"cebpf4jnsgd1na2vs0mg"},{"bike_id":"4fcb59d5-0fb2-4fa9-80f3-40fcebf4ade3","system_id":"levelo_inurba_marseille","lat":43.24388,"lon":5.37056,"is_reserved":false,"is_disabled":false,"rental_uris":{"android":"levelo://app?vid=4fcb59d5-0fb2-4fa9-80f3-40fcebf4ade3","ios":"levelo://app?vid=4fcb59d5-0fb2-4fa9-80f3-40fcebf4ade3"},"vehicle_type_id":"4","last_reported":1729581040,"current_range_meters":28400,"station_id":"ce4bhhh2rcd13ifvqfk0","pricing_plan_id":"cebpf4jnsgd1na2vs0mg"},{"bike_id":"2865aa37-cd36-4fb4-8235-6e81415a1fd9","system_id":"levelo_inurba_marseille","lat":43.30904,"lon":5.36853,"is_reserved":false,"is_disabled":false,"rental_uris":{"android":"levelo://app?vid=2865aa37-cd36-4fb4-8235-6e81415a1fd9","ios":"levelo://app?vid=2865aa37-cd36-4fb4-8235-6e81415a1fd9"},"vehicle_type_id":"4","last_reported":1729581040,"current_range_meters":8000,"station_id":"ce4bgn92rcd13ifvqbvg","pricing_plan_id":"cebpf4jnsgd1na2vs0mg"},{"bike_id":"82bf8484-d4bf-4817-8e22-a28267be48eb","system_id":"levelo_inurba_marseille","lat":43.27341,"lon":5.39291,"is_reserved":false,"is_disabled":false,"rental_uris":{"android":"levelo://app?vid=82bf8484-d4bf-4817-8e22-a28267be48eb","ios":"levelo://app?vid=82bf8484-d4bf-4817-8e22-a28267be48eb"},"vehicle_type_id":"4","last_reported":1729581040,"current_range_meters":38000,"station_id":"ce4bhdp2rcd13ifvqf20","pricing_plan_id":"cebpf4jnsgd1na2vs0mg"},{"bike_id":"dee0d09e-7eb5-4f6e-83a5-90719294f0fc","system_id":"levelo_inurba_marseille","lat":43.27065,"lon":5.40258,"is_reserved":false,"is_disabled":false,"rental_uris":{"android":"levelo://app?vid=dee0d09e-7eb5-4f6e-83a5-90719294f0fc","ios":"levelo://app?vid=dee0d09e-7eb5-4f6e-83a5-90719294f0fc"},"vehicle_type_id":"4","last_reported":1729581040,"current_range_meters":38800,"station_id":"ce4bhk92rcd13ifvqgc0","pricing_plan_id":"cebpf4jnsgd1na2vs0mg"},{"bike_id":"2c1fae55-921d-4a72-86b0-19b559b438c8","system_id":"levelo_inurba_marseille","lat":43.31716,"lon":5.42403,"is_reserved":false,"is_disabled":false,"rental_uris":{"android":"levelo://app?vid=2c1fae55-921d-4a72-86b0-19b559b438c8","ios":"levelo://app?vid=2c1fae55-921d-4a72-86b0-19b559b438c8"},"vehicle_type_id":"4","last_reported":1729581040,"current_range_meters":38800,"station_id":"ce4bhp92rcd13ifvqhbg","pricing_plan_id":"cebpf4jnsgd1na2vs0mg"},{"bike_id":"5a67c892-a602-4b40-977c-c1acd665d17e","system_id":"levelo_inurba_marseille","lat":43.25936,"lon":5.40913,"is_reserved":false,"is_disabled":false,"rental_uris":{"android":"levelo://app?vid=5a67c892-a602-4b40-977c-c1acd665d17e","ios":"levelo://app?vid=5a67c892-a602-4b40-977c-c1acd665d17e"},"vehicle_type_id":"4","last_reported":1729581040,"current_range_meters":23200,"station_id":"ce4bhm92rcd13ifvqglg","pricing_plan_id":"cebpf4jnsgd1na2vs0mg"},{"bike_id":"1f52981c-7bb8-4af1-af37-b4a098cafcb2","system_id":"levelo_inurba_marseille","lat":43.2815,"lon":5.42652,"is_reserved":false,"is_disabled":false,"rental_uris":{"android":"levelo://app?vid=1f52981c-7bb8-4af1-af37-b4a098cafcb2","ios":"levelo://app?vid=1f52981c-7bb8-4af1-af37-b4a098cafcb2"},"vehicle_type_id":"4","last_reported":1729581040,"current_range_meters":28800,"station_id":"ce4bhnh2rcd13ifvqgug","pricing_plan_id":"cebpf4jnsgd1na2vs0mg"},{"bike_id":"2964a11f-51b8-4363-a1c8-8363abf6a1b2","system_id":"levelo_inurba_marseille","lat":43.336126,"lon":5.410219,"is_reserved":false,"is_disabled":false,"rental_uris":{"android":"levelo://app?vid=2964a11f-51b8-4363-a1c8-8363abf6a1b2","ios":"levelo://app?vid=2964a11f-51b8-4363-a1c8-8363abf6a1b2"},"vehicle_type_id":"4","last_reported":1729581040,"current_range_meters":25600,"station_id":"ce4bhqh2rcd13ifvqhmg","pricing_plan_id":"cebpf4jnsgd1na2vs0mg"},{"bike_id":"bf8d0617-6bef-47ca-8c84-936cfebcc97c","system_id":"levelo_inurba_marseille","lat":43.32112,"lon":5.36771,"is_reserved":false,"is_disabled":false,"rental_uris":{"android":"levelo://app?vid=bf8d0617-6bef-47ca-8c84-936cfebcc97c","ios":"levelo://app?vid=bf8d0617-6bef-47ca-8c84-936cfebcc97c"},"vehicle_type_id":"4","last_reported":1729581040,"current_range_meters":17600,"station_id":"ce4bhrh2rcd13ifvqhug","pricing_plan_id":"cebpf4jnsgd1na2vs0mg"},{"bike_id":"40928ea3-dcd7-49b1-80c8-e0997d5f011b","system_id":"levelo_inurba_marseille","lat":43.25722,"lon":5.41114,"is_reserved":false,"is_disabled":false,"rental_uris":{"android":"levelo://app?vid=40928ea3-dcd7-49b1-80c8-e0997d5f011b","ios":"levelo://app?vid=40928ea3-dcd7-49b1-80c8-e0997d5f011b"},"vehicle_type_id":"4","last_reported":1729581040,"current_range_meters":38800,"station_id":"ce4bhkp2rcd13ifvqgd0","pricing_plan_id":"cebpf4jnsgd1na2vs0mg"},{"bike_id":"7e3cb010-b5b3-478f-8b4d-4185ab46a9f4","system_id":"levelo_inurba_marseille","lat":43.31349,"lon":5.36736,"is_reserved":false,"is_disabled":false,"rental_uris":{"android":"levelo://app?vid=7e3cb010-b5b3-478f-8b4d-4185ab46a9f4","ios":"levelo://app?vid=7e3cb010-b5b3-478f-8b4d-4185ab46a9f4"},"vehicle_type_id":"4","last_reported":1729581040,"current_range_meters":36000,"station_id":"ce4bgr92rcd13ifvqc6g","pricing_plan_id":"cebpf4jnsgd1na2vs0mg"},{"bike_id":"6306bed3-0d2b-49da-95c5-973170dba4a6","system_id":"levelo_inurba_marseille","lat":43.23155,"lon":5.43726,"is_reserved":false,"is_disabled":false,"rental_uris":{"android":"levelo://app?vid=6306bed3-0d2b-49da-95c5-973170dba4a6","ios":"levelo://app?vid=6306bed3-0d2b-49da-95c5-973170dba4a6"},"vehicle_type_id":"4","last_reported":1729581040,"current_range_meters":34800,"station_id":"ce4bhmp2rcd13ifvqgog","pricing_plan_id":"cebpf4jnsgd1na2vs0mg"},{"bike_id":"ee458820-4b5f-4880-a810-7e29f4e09d82","system_id":"levelo_inurba_marseille","lat":43.31342,"lon":5.36726,"is_reserved":false,"is_disabled":false,"rental_uris":{"android":"levelo://app?vid=ee458820-4b5f-4880-a810-7e29f4e09d82","ios":"levelo://app?vid=ee458820-4b5f-4880-a810-7e29f4e09d82"},"vehicle_type_id":"4","last_reported":1729581040,"current_range_meters":10800,"station_id":"ce4bgr92rcd13ifvqc6g","pricing_plan_id":"cebpf4jnsgd1na2vs0mg"},{"bike_id":"564679bc-3036-4e84-be3b-bc8a8ca807a7","system_id":"levelo_inurba_marseille","lat":43.3135,"lon":5.36697,"is_reserved":false,"is_disabled":false,"rental_uris":{"android":"levelo://app?vid=564679bc-3036-4e84-be3b-bc8a8ca807a7","ios":"levelo://app?vid=564679bc-3036-4e84-be3b-bc8a8ca807a7"},"vehicle_type_id":"4","last_reported":1729581040,"current_range_meters":25600,"station_id":"ce4bgr92rcd13ifvqc6g","pricing_plan_id":"cebpf4jnsgd1na2vs0mg"},{"bike_id":"9b2eea5a-3cff-40ce-ae1c-16e410ab238a","system_id":"levelo_inurba_marseille","lat":43.27388,"lon":5.4194,"is_reserved":false,"is_disabled":false,"rental_uris":{"android":"levelo://app?vid=9b2eea5a-3cff-40ce-ae1c-16e410ab238a","ios":"levelo://app?vid=9b2eea5a-3cff-40ce-ae1c-16e410ab238a"},"vehicle_type_id":"4","last_reported":1729581040,"current_range_meters":38800,"station_id":"","pricing_plan_id":"cebpf4jnsgd1na2vs0mg"},{"bike_id":"ae3fcb04-be9a-4eda-86cc-c69683243e47","system_id":"levelo_inurba_marseille","lat":43.23958,"lon":5.36636,"is_reserved":false,"is_disabled":false,"rental_uris":{"android":"levelo://app?vid=ae3fcb04-be9a-4eda-86cc-c69683243e47","ios":"levelo://app?vid=ae3fcb04-be9a-4eda-86cc-c69683243e47"},"vehicle_type_id":"4","last_reported":1729581040,"current_range_meters":38400,"station_id":"ce4bhi12rcd13ifvqfp0","pricing_plan_id":"cebpf4jnsgd1na2vs0mg"},{"bike_id":"9968650a-6a5f-490f-885d-fb56fcf30842","system_id":"levelo_inurba_marseille","lat":43.303097,"lon":5.368948,"is_reserved":false,"is_disabled":false,"rental_uris":{"android":"levelo://app?vid=9968650a-6a5f-490f-885d-fb56fcf30842","ios":"levelo://app?vid=9968650a-6a5f-490f-885d-fb56fcf30842"},"vehicle_type_id":"4","last_reported":1729581040,"current_range_meters":28400,"station_id":"","pricing_plan_id":"cebpf4jnsgd1na2vs0mg"},{"bike_id":"8f9fb3ea-8851-4c2f-9fde-790500627295","system_id":"levelo_inurba_marseille","lat":43.30546,"lon":5.38423,"is_reserved":false,"is_disabled":false,"rental_uris":{"android":"levelo://app?vid=8f9fb3ea-8851-4c2f-9fde-790500627295","ios":"levelo://app?vid=8f9fb3ea-8851-4c2f-9fde-790500627295"},"vehicle_type_id":"4","last_reported":1729581040,"current_range_meters":38800,"station_id":"ce4bgg92rcd13ifvqb30","pricing_plan_id":"cebpf4jnsgd1na2vs0mg"},{"bike_id":"ac48df2d-ed11-4f75-a366-651c47a3c8ce","system_id":"levelo_inurba_marseille","lat":43.30911,"lon":5.37224,"is_reserved":false,"is_disabled":false,"rental_uris":{"android":"levelo://app?vid=ac48df2d-ed11-4f75-a366-651c47a3c8ce","ios":"levelo://app?vid=ac48df2d-ed11-4f75-a366-651c47a3c8ce"},"vehicle_type_id":"4","last_reported":1729581040,"current_range_meters":36400,"station_id":"ce4bguh2rcd13ifvqckg","pricing_plan_id":"cebpf4jnsgd1na2vs0mg"},{"bike_id":"b8b55413-7dab-47bd-af63-9762535f48b6","system_id":"levelo_inurba_marseille","lat":43.30917,"lon":5.36855,"is_reserved":false,"is_disabled":false,"rental_uris":{"android":"levelo://app?vid=b8b55413-7dab-47bd-af63-9762535f48b6","ios":"levelo://app?vid=b8b55413-7dab-47bd-af63-9762535f48b6"},"vehicle_type_id":"4","last_reported":1729581040,"current_range_meters":32000,"station_id":"ce4bgn92rcd13ifvqbvg","pricing_plan_id":"cebpf4jnsgd1na2vs0mg"},{"bike_id":"faba22e2-af0c-4546-8b1b-e1b7ae13fd9e","system_id":"levelo_inurba_marseille","lat":43.30333,"lon":5.40437,"is_reserved":false,"is_disabled":false,"rental_uris":{"android":"levelo://app?vid=faba22e2-af0c-4546-8b1b-e1b7ae13fd9e","ios":"levelo://app?vid=faba22e2-af0c-4546-8b1b-e1b7ae13fd9e"},"vehicle_type_id":"4","last_reported":1729581040,"current_range_meters":18800,"station_id":"ce4bh012rcd13ifvqd10","pricing_plan_id":"cebpf4jnsgd1na2vs0mg"},{"bike_id":"89cd4180-a145-4b63-802a-77710e52e1ef","system_id":"levelo_inurba_marseille","lat":43.34145,"lon":5.40899,"is_reserved":false,"is_disabled":false,"rental_uris":{"android":"levelo://app?vid=89cd4180-a145-4b63-802a-77710e52e1ef","ios":"levelo://app?vid=89cd4180-a145-4b63-802a-77710e52e1ef"},"vehicle_type_id":"4","last_reported":1729581040,"current_range_meters":35600,"station_id":"ce4bhqh2rcd13ifvqhlg","pricing_plan_id":"cebpf4jnsgd1na2vs0mg"},{"bike_id":"95faf5a7-3c03-4023-979e-39111a670c75","system_id":"levelo_inurba_marseille","lat":43.30162,"lon":5.38085,"is_reserved":false,"is_disabled":false,"rental_uris":{"android":"levelo://app?vid=95faf5a7-3c03-4023-979e-39111a670c75","ios":"levelo://app?vid=95faf5a7-3c03-4023-979e-39111a670c75"},"vehicle_type_id":"4","last_reported":1729581040,"current_range_meters":36800,"station_id":"ce4bgjp2rcd13ifvqbh0","pricing_plan_id":"cebpf4jnsgd1na2vs0mg"},{"bike_id":"c5857893-442c-48c0-8e95-134a1c912329","system_id":"levelo_inurba_marseille","lat":43.28155,"lon":5.42643,"is_reserved":false,"is_disabled":false,"rental_uris":{"android":"levelo://app?vid=c5857893-442c-48c0-8e95-134a1c912329","ios":"levelo://app?vid=c5857893-442c-48c0-8e95-134a1c912329"},"vehicle_type_id":"4","last_reported":1729581040,"current_range_meters":28800,"station_id":"ce4bhnh2rcd13ifvqgug","pricing_plan_id":"cebpf4jnsgd1na2vs0mg"},{"bike_id":"33aebf2e-693e-4bec-aa86-cd51abf77276","system_id":"levelo_inurba_marseille","lat":43.28035,"lon":5.36943,"is_reserved":false,"is_disabled":false,"rental_uris":{"android":"levelo://app?vid=33aebf2e-693e-4bec-aa86-cd51abf77276","ios":"levelo://app?vid=33aebf2e-693e-4bec-aa86-cd51abf77276"},"vehicle_type_id":"4","last_reported":1729581040,"current_range_meters":38800,"station_id":"ce4bha12rcd13ifvqef0","pricing_plan_id":"cebpf4jnsgd1na2vs0mg"},{"bike_id":"58893085-5024-49b2-9926-e68fd9d15630","system_id":"levelo_inurba_marseille","lat":43.2594,"lon":5.409,"is_reserved":false,"is_disabled":false,"rental_uris":{"android":"levelo://app?vid=58893085-5024-49b2-9926-e68fd9d15630","ios":"levelo://app?vid=58893085-5024-49b2-9926-e68fd9d15630"},"vehicle_type_id":"4","last_reported":1729581040,"current_range_meters":36000,"station_id":"ce4bhm92rcd13ifvqglg","pricing_plan_id":"cebpf4jnsgd1na2vs0mg"},{"bike_id":"ed73d99e-9629-4238-a3de-0f260c9ae761","system_id":"levelo_inurba_marseille","lat":43.24175,"lon":5.39744,"is_reserved":false,"is_disabled":false,"rental_uris":{"android":"levelo://app?vid=ed73d99e-9629-4238-a3de-0f260c9ae761","ios":"levelo://app?vid=ed73d99e-9629-4238-a3de-0f260c9ae761"},"vehicle_type_id":"4","last_reported":1729581040,"current_range_meters":38800,"station_id":"ce4bhn12rcd13ifvqgpg","pricing_plan_id":"cebpf4jnsgd1na2vs0mg"},{"bike_id":"f9275779-8159-45c8-9d6f-75cf25195292","system_id":"levelo_inurba_marseille","lat":43.29839,"lon":5.36265,"is_reserved":false,"is_disabled":false,"rental_uris":{"android":"levelo://app?vid=f9275779-8159-45c8-9d6f-75cf25195292","ios":"levelo://app?vid=f9275779-8159-45c8-9d6f-75cf25195292"},"vehicle_type_id":"4","last_reported":1729581040,"current_range_meters":28000,"station_id":"ce4bgpp2rcd13ifvqc3g","pricing_plan_id":"cebpf4jnsgd1na2vs0mg"},{"bike_id":"72d17f57-f311-406c-bd16-8f6e38e48074","system_id":"levelo_inurba_marseille","lat":43.30541,"lon":5.36561,"is_reserved":false,"is_disabled":false,"rental_uris":{"android":"levelo://app?vid=72d17f57-f311-406c-bd16-8f6e38e48074","ios":"levelo://app?vid=72d17f57-f311-406c-bd16-8f6e38e48074"},"vehicle_type_id":"4","last_reported":1729581040,"current_range_meters":34000,"station_id":"ce4bgs12rcd13ifvqcag","pricing_plan_id":"cebpf4jnsgd1na2vs0mg"},{"bike_id":"b4789163-6828-4a10-a9ee-82c4d843f33d","system_id":"levelo_inurba_marseille","lat":43.28149,"lon":5.42639,"is_reserved":false,"is_disabled":false,"rental_uris":{"android":"levelo://app?vid=b4789163-6828-4a10-a9ee-82c4d843f33d","ios":"levelo://app?vid=b4789163-6828-4a10-a9ee-82c4d843f33d"},"vehicle_type_id":"4","last_reported":1729581040,"current_range_meters":38800,"station_id":"ce4bhnh2rcd13ifvqgug","pricing_plan_id":"cebpf4jnsgd1na2vs0mg"},{"bike_id":"075ead82-b450-4ec8-8a7d-2751ac43939e","system_id":"levelo_inurba_marseille","lat":43.2992,"lon":5.37463,"is_reserved":false,"is_disabled":false,"rental_uris":{"android":"levelo://app?vid=075ead82-b450-4ec8-8a7d-2751ac43939e","ios":"levelo://app?vid=075ead82-b450-4ec8-8a7d-2751ac43939e"},"vehicle_type_id":"4","last_reported":1729581040,"current_range_meters":38400,"station_id":"ce4bgjh2rcd13ifvqbg0","pricing_plan_id":"cebpf4jnsgd1na2vs0mg"},{"bike_id":"08f737d2-12f8-47af-ba63-d13893de5385","system_id":"levelo_inurba_marseille","lat":43.25096,"lon":5.39515,"is_reserved":false,"is_disabled":false,"rental_uris":{"android":"levelo://app?vid=08f737d2-12f8-47af-ba63-d13893de5385","ios":"levelo://app?vid=08f737d2-12f8-47af-ba63-d13893de5385"},"vehicle_type_id":"4","last_reported":1729581040,"current_range_meters":28000,"station_id":"ce4bhm12rcd13ifvqgkg","pricing_plan_id":"cebpf4jnsgd1na2vs0mg"},{"bike_id":"e0dddda3-3616-4116-8e19-d7edbf456221","system_id":"levelo_inurba_marseille","lat":43.24437,"lon":5.37857,"is_reserved":false,"is_disabled":false,"rental_uris":{"android":"levelo://app?vid=e0dddda3-3616-4116-8e19-d7edbf456221","ios":"levelo://app?vid=e0dddda3-3616-4116-8e19-d7edbf456221"},"vehicle_type_id":"4","last_reported":1729581040,"current_range_meters":2800,"station_id":"","pricing_plan_id":"cebpf4jnsgd1na2vs0mg"},{"bike_id":"57738026-7e54-4838-a89a-5d39a9792d96","system_id":"levelo_inurba_marseille","lat":43.30145,"lon":5.37425,"is_reserved":false,"is_disabled":false,"rental_uris":{"android":"levelo://app?vid=57738026-7e54-4838-a89a-5d39a9792d96","ios":"levelo://app?vid=57738026-7e54-4838-a89a-5d39a9792d96"},"vehicle_type_id":"4","last_reported":1729581040,"current_range_meters":36800,"station_id":"ce4bgs92rcd13ifvqcc0","pricing_plan_id":"cebpf4jnsgd1na2vs0mg"},{"bike_id":"50e963e0-105c-4264-a3f1-8e1f4496432c","system_id":"levelo_inurba_marseille","lat":43.26684,"lon":5.38268,"is_reserved":false,"is_disabled":false,"rental_uris":{"android":"levelo://app?vid=50e963e0-105c-4264-a3f1-8e1f4496432c","ios":"levelo://app?vid=50e963e0-105c-4264-a3f1-8e1f4496432c"},"vehicle_type_id":"4","last_reported":1729581040,"current_range_meters":38800,"station_id":"ce4bhg92rcd13ifvqf90","pricing_plan_id":"cebpf4jnsgd1na2vs0mg"},{"bike_id":"81e4488d-b9df-4764-b508-9fca2a6674ff","system_id":"levelo_inurba_marseille","lat":43.23191,"lon":5.3555,"is_reserved":false,"is_disabled":false,"rental_uris":{"android":"levelo://app?vid=81e4488d-b9df-4764-b508-9fca2a6674ff","ios":"levelo://app?vid=81e4488d-b9df-4764-b508-9fca2a6674ff"},"vehicle_type_id":"4","last_reported":1729581040,"current_range_meters":38000,"station_id":"ce4bhu92rcd13ifvqi70","pricing_plan_id":"cebpf4jnsgd1na2vs0mg"},{"bike_id":"44550e6e-2644-4242-b698-239c03743e5c","system_id":"levelo_inurba_marseille","lat":43.23153,"lon":5.43704,"is_reserved":false,"is_disabled":false,"rental_uris":{"android":"levelo://app?vid=44550e6e-2644-4242-b698-239c03743e5c","ios":"levelo://app?vid=44550e6e-2644-4242-b698-239c03743e5c"},"vehicle_type_id":"4","last_reported":1729581040,"current_range_meters":19600,"station_id":"ce4bhmp2rcd13ifvqgog","pricing_plan_id":"cebpf4jnsgd1na2vs0mg"},{"bike_id":"23e6ca2f-6508-428f-91df-505ca4e33c4f","system_id":"levelo_inurba_marseille","lat":43.33606,"lon":5.410239,"is_reserved":false,"is_disabled":false,"rental_uris":{"android":"levelo://app?vid=23e6ca2f-6508-428f-91df-505ca4e33c4f","ios":"levelo://app?vid=23e6ca2f-6508-428f-91df-505ca4e33c4f"},"vehicle_type_id":"4","last_reported":1729581040,"current_range_meters":24800,"station_id":"ce4bhqh2rcd13ifvqhmg","pricing_plan_id":"cebpf4jnsgd1na2vs0mg"},{"bike_id":"cc7ba531-eadc-4a76-b88a-eac33527a1c8","system_id":"levelo_inurba_marseille","lat":43.31895,"lon":5.40742,"is_reserved":false,"is_disabled":false,"rental_uris":{"android":"levelo://app?vid=cc7ba531-eadc-4a76-b88a-eac33527a1c8","ios":"levelo://app?vid=cc7ba531-eadc-4a76-b88a-eac33527a1c8"},"vehicle_type_id":"4","last_reported":1729581040,"current_range_meters":10800,"station_id":"ce4bhq12rcd13ifvqhig","pricing_plan_id":"cebpf4jnsgd1na2vs0mg"},{"bike_id":"41f146b8-1dba-4586-8725-ff2b6bb602ee","system_id":"levelo_inurba_marseille","lat":43.25095,"lon":5.39517,"is_reserved":false,"is_disabled":false,"rental_uris":{"android":"levelo://app?vid=41f146b8-1dba-4586-8725-ff2b6bb602ee","ios":"levelo://app?vid=41f146b8-1dba-4586-8725-ff2b6bb602ee"},"vehicle_type_id":"4","last_reported":1729581040,"current_range_meters":20400,"station_id":"ce4bhm12rcd13ifvqgkg","pricing_plan_id":"cebpf4jnsgd1na2vs0mg"},{"bike_id":"4b321f9c-d240-4200-bb60-7b70406f810a","system_id":"levelo_inurba_marseille","lat":43.25087,"lon":5.39515,"is_reserved":false,"is_disabled":false,"rental_uris":{"android":"levelo://app?vid=4b321f9c-d240-4200-bb60-7b70406f810a","ios":"levelo://app?vid=4b321f9c-d240-4200-bb60-7b70406f810a"},"vehicle_type_id":"4","last_reported":1729581040,"current_range_meters":14000,"station_id":"ce4bhm12rcd13ifvqgkg","pricing_plan_id":"cebpf4jnsgd1na2vs0mg"},{"bike_id":"a9002a5d-a535-42b5-88b4-26d81fd5238e","system_id":"levelo_inurba_marseille","lat":43.32346,"lon":5.40618,"is_reserved":false,"is_disabled":false,"rental_uris":{"android":"levelo://app?vid=a9002a5d-a535-42b5-88b4-26d81fd5238e","ios":"levelo://app?vid=a9002a5d-a535-42b5-88b4-26d81fd5238e"},"vehicle_type_id":"4","last_reported":1729581040,"current_range_meters":15200,"station_id":"ce4bhq92rcd13ifvqhjg","pricing_plan_id":"cebpf4jnsgd1na2vs0mg"},{"bike_id":"452e95e6-ff76-4aae-9c1c-e65d1b93b05c","system_id":"levelo_inurba_marseille","lat":43.29906,"lon":5.43659,"is_reserved":false,"is_disabled":false,"rental_uris":{"android":"levelo://app?vid=452e95e6-ff76-4aae-9c1c-e65d1b93b05c","ios":"levelo://app?vid=452e95e6-ff76-4aae-9c1c-e65d1b93b05c"},"vehicle_type_id":"4","last_reported":1729581040,"current_range_meters":24400,"station_id":"ce4bhpp2rcd13ifvqhfg","pricing_plan_id":"cebpf4jnsgd1na2vs0mg"},{"bike_id":"087a7bf8-4bdf-408b-a60c-b4b0ac6d7a5a","system_id":"levelo_inurba_marseille","lat":43.32482,"lon":5.36556,"is_reserved":false,"is_disabled":false,"rental_uris":{"android":"levelo://app?vid=087a7bf8-4bdf-408b-a60c-b4b0ac6d7a5a","ios":"levelo://app?vid=087a7bf8-4bdf-408b-a60c-b4b0ac6d7a5a"},"vehicle_type_id":"4","last_reported":1729581040,"current_range_meters":39200,"station_id":"ce4bhs12rcd13ifvqhvg","pricing_plan_id":"cebpf4jnsgd1na2vs0mg"},{"bike_id":"cf9cef09-fa96-4f4d-a4c3-e5dca4c180f2","system_id":"levelo_inurba_marseille","lat":43.25064,"lon":5.41769,"is_reserved":false,"is_disabled":false,"rental_uris":{"android":"levelo://app?vid=cf9cef09-fa96-4f4d-a4c3-e5dca4c180f2","ios":"levelo://app?vid=cf9cef09-fa96-4f4d-a4c3-e5dca4c180f2"},"vehicle_type_id":"4","last_reported":1729581040,"current_range_meters":28400,"station_id":"","pricing_plan_id":"cebpf4jnsgd1na2vs0mg"},{"bike_id":"8e69a6a5-93ac-4dfe-aae0-b77140693ad7","system_id":"levelo_inurba_marseille","lat":43.30158,"lon":5.3809,"is_reserved":false,"is_disabled":false,"rental_uris":{"android":"levelo://app?vid=8e69a6a5-93ac-4dfe-aae0-b77140693ad7","ios":"levelo://app?vid=8e69a6a5-93ac-4dfe-aae0-b77140693ad7"},"vehicle_type_id":"4","last_reported":1729581040,"current_range_meters":37600,"station_id":"ce4bgjp2rcd13ifvqbh0","pricing_plan_id":"cebpf4jnsgd1na2vs0mg"},{"bike_id":"c1202558-5912-4252-85d0-5ea44a1dd5e3","system_id":"levelo_inurba_marseille","lat":43.32483,"lon":5.36554,"is_reserved":false,"is_disabled":false,"rental_uris":{"android":"levelo://app?vid=c1202558-5912-4252-85d0-5ea44a1dd5e3","ios":"levelo://app?vid=c1202558-5912-4252-85d0-5ea44a1dd5e3"},"vehicle_type_id":"4","last_reported":1729581040,"current_range_meters":39200,"station_id":"ce4bhs12rcd13ifvqhvg","pricing_plan_id":"cebpf4jnsgd1na2vs0mg"},{"bike_id":"e32d4a7b-35fd-4837-991d-8d82b9d45a33","system_id":"levelo_inurba_marseille","lat":43.25574,"lon":5.38227,"is_reserved":false,"is_disabled":false,"rental_uris":{"android":"levelo://app?vid=e32d4a7b-35fd-4837-991d-8d82b9d45a33","ios":"levelo://app?vid=e32d4a7b-35fd-4837-991d-8d82b9d45a33"},"vehicle_type_id":"4","last_reported":1729581040,"current_range_meters":22400,"station_id":"ce4bhih2rcd13ifvqfs0","pricing_plan_id":"cebpf4jnsgd1na2vs0mg"},{"bike_id":"f72e61e8-0ef0-4d35-bdcd-fe0790ee94fb","system_id":"levelo_inurba_marseille","lat":43.25578,"lon":5.38235,"is_reserved":false,"is_disabled":false,"rental_uris":{"android":"levelo://app?vid=f72e61e8-0ef0-4d35-bdcd-fe0790ee94fb","ios":"levelo://app?vid=f72e61e8-0ef0-4d35-bdcd-fe0790ee94fb"},"vehicle_type_id":"4","last_reported":1729581040,"current_range_meters":8000,"station_id":"ce4bhih2rcd13ifvqfs0","pricing_plan_id":"cebpf4jnsgd1na2vs0mg"},{"bike_id":"e36662ab-0d44-441b-a831-03da1e47f0e4","system_id":"levelo_inurba_marseille","lat":43.29627,"lon":5.3717,"is_reserved":false,"is_disabled":false,"rental_uris":{"android":"levelo://app?vid=e36662ab-0d44-441b-a831-03da1e47f0e4","ios":"levelo://app?vid=e36662ab-0d44-441b-a831-03da1e47f0e4"},"vehicle_type_id":"4","last_reported":1729581040,"current_range_meters":29600,"station_id":"ce4bgnh2rcd13ifvqc0g","pricing_plan_id":"cebpf4jnsgd1na2vs0mg"},{"bike_id":"f230ab88-a7e0-4738-aa0c-64b4da859b69","system_id":"levelo_inurba_marseille","lat":43.30542,"lon":5.36714,"is_reserved":false,"is_disabled":false,"rental_uris":{"android":"levelo://app?vid=f230ab88-a7e0-4738-aa0c-64b4da859b69","ios":"levelo://app?vid=f230ab88-a7e0-4738-aa0c-64b4da859b69"},"vehicle_type_id":"4","last_reported":1729581040,"current_range_meters":35600,"station_id":"ce4bgrp2rcd13ifvqc9g","pricing_plan_id":"cebpf4jnsgd1na2vs0mg"},{"bike_id":"d20bead2-b955-407f-8b31-f72294936ad7","system_id":"levelo_inurba_marseille","lat":43.25936,"lon":5.40908,"is_reserved":false,"is_disabled":false,"rental_uris":{"android":"levelo://app?vid=d20bead2-b955-407f-8b31-f72294936ad7","ios":"levelo://app?vid=d20bead2-b955-407f-8b31-f72294936ad7"},"vehicle_type_id":"4","last_reported":1729581040,"current_range_meters":23200,"station_id":"ce4bhm92rcd13ifvqglg","pricing_plan_id":"cebpf4jnsgd1na2vs0mg"},