{"last_updated":1719000559,"ttl":30,"version":"2.2","data":{"bikes":[{"bike_id":"75abd866-9285-4481-8e2a-51bbc267af51","system_id":"levelo_inurba_marseille","lat":43.312239,"lon":5.368562,"is_reserved":false,"is_disabled":false,"rental_uris":{"android":"levelo://app?vid=75abd866-9285-4481-8e2a-51bbc267af51","ios":"levelo://app?vid=75abd866-9285-4481-8e2a-51bbc267af51"},"vehicle_type_id":"4","last_reported":1719000559,"current_range_meters":9200,"station_id":"ce4bgl92rcd13ifvqbq0","pricing_plan_id":"cebpf4jnsgd1na2vs0mg"},{"bike_id":"ed14ec74-1f1c-4cfd-8d26-59aa92fdca8a","system_id":"levelo_inurba_marseille","lat":43.313099,"lon":5.369714,"is_reserved":false,"is_disabled":false,"rental_uris":{"android":"levelo://app?vid=ed14ec74-1f1c-4cfd-8d26-59aa92fdca8a","ios":"levelo://app?vid=ed14ec74-1f1c-4cfd-8d26-59aa92fdca8a"},"vehicle_type_id":"4","last_reported":1719000559,"current_range_meters":27200,"station_id":"","pricing_plan_id":"cebpf4jnsgd1na2vs0mg"},{"bike_id":"97af607b-32d9-4a9c-a508-3d866fd5f44e","system_id":"levelo_inurba_marseille","lat":43.309076,"lon":5.368465,"is_reserved":false,"is_disabled":false,"rental_uris":{"android":"levelo://app?vid=97af607b-32d9-4a9c-a508-3d866fd5f44e","ios":"levelo://app?vid=97af607b-32d9-4a9c-a508-3d866fd5f44e"},"vehicle_type_id":"4","last_reported":1719000559,"current_range_meters":9600,"station_id":"ce4bgn92rcd13ifvqbvg","pricing_plan_id":"cebpf4jnsgd1na2vs0mg"},{"bike_id":"4d65f698-03b9-43a1-8927-409f3c9731ae","system_id":"levelo_inurba_marseille","lat":43.314811,"lon":5.373104,"is_reserved":false,"is_disabled":false,"rental_uris":{"android":"levelo://app?vid=4d65f698-03b9-43a1-8927-409f3c9731ae","ios":"levelo://app?vid=4d65f698-03b9-43a1-8927-409f3c9731ae"},"vehicle_type_id":"4","last_reported":1719000559,"current_range_meters":0,"station_id":"ce4bgt12rcd13ifvqcd0","pricing_plan_id":"cebpf4jnsgd1na2vs0mg"},{"bike_id":"20f31c62-307b-4c16-93b6-6fcc5accd677","system_id":"levelo_inurba_marseille","lat":43.314603,"lon":5.373688,"is_reserved":false,"is_disabled":false,"rental_uris":{"android":"levelo://app?vid=20f31c62-307b-4c16-93b6-6fcc5accd677","ios":"levelo://app?vid=20f31c62-307b-4c16-93b6-6fcc5accd677"},"vehicle_type_id":"4","last_reported":1719000559,"current_range_meters":16400,"station_id":"","pricing_plan_id":"cebpf4jnsgd1na2vs0mg"},{"bike_id":"b02b78da-9825-4ffd-95ed-79333ee0239c","system_id":"levelo_inurba_marseille","lat":43.309034,"lon":5.371783,"is_reserved":false,"is_disabled":false,"rental_uris":{"android":"levelo://app?vid=b02b78da-9825-4ffd-95ed-79333ee0239c","ios":"levelo://app?vid=b02b78da-9825-4ffd-95ed-79333ee0239c"},"vehicle_type_id":"4","last_reported":1719000559,"current_range_meters":1200,"station_id":"ce4bguh2rcd13ifvqckg","pricing_plan_id":"cebpf4jnsgd1na2vs0mg"},{"bike_id":"c8d74784-cfa3-4dc0-a55e-c53d6b6b7590","system_id":"levelo_inurba_marseille","lat":43.316429,"lon":5.374269,"is_reserved":false,"is_disabled":false,"rental_uris":{"android":"levelo://app?vid=c8d74784-cfa3-4dc0-a55e-c53d6b6b7590","ios":"levelo://app?vid=c8d74784-cfa3-4dc0-a55e-c53d6b6b7590"},"vehicle_type_id":"4","last_reported":1719000559,"current_range_meters":18800,"station_id":"","pricing_plan_id":"cebpf4jnsgd1na2vs0mg"},{"bike_id":"a2e2771c-545c-4820-af81-2253069b2219","system_id":"levelo_inurba_marseille","lat":43.311125,"lon":5.377624,"is_reserved":false,"is_disabled":false,"rental_uris":{"android":"levelo://app?vid=a2e2771c-545c-4820-af81-2253069b2219","ios":"levelo://app?vid=a2e2771c-545c-4820-af81-2253069b2219"},"vehicle_type_id":"4","last_reported":1719000559,"current_range_meters":0,"station_id":"ce4bgt92rcd13ifvqcg0","pricing_plan_id":"cebpf4jnsgd1na2vs0mg"},{"bike_id":"4e85fdad-75e1-449a-b822-9464cb5301ee","system_id":"levelo_inurba_marseille","lat":43.30304,"lon":5.368987,"is_reserved":false,"is_disabled":false,"rental_uris":{"android":"levelo://app?vid=4e85fdad-75e1-449a-b822-9464cb5301ee","ios":"levelo://app?vid=4e85fdad-75e1-449a-b822-9464cb5301ee"},"vehicle_type_id":"4","last_reported":1719000559,"current_range_meters":22000,"station_id":"ce4bgqh2rcd13ifvqc5g","pricing_plan_id":"cebpf4jnsgd1na2vs0mg"},{"bike_id":"e3a0fc07-7f6e-489a-804d-9c1dc39610f8","system_id":"levelo_inurba_marseille","lat":43.315289,"lon":5.380349,"is_reserved":false,"is_disabled":false,"rental_uris":{"android":"levelo://app?vid=e3a0fc07-7f6e-489a-804d-9c1dc39610f8","ios":"levelo://app?vid=e3a0fc07-7f6e-489a-804d-9c1dc39610f8"},"vehicle_type_id":"4","last_reported":1719000559,"current_range_meters":2400,"station_id":"ce4bhsp2rcd13ifvqi50","pricing_plan_id":"cebpf4jnsgd1na2vs0mg"},{"bike_id":"46268943-c399-48c5-9fc1-c43434645a4a","system_id":"levelo_inurba_marseille","lat":43.315289,"lon":5.380349,"is_reserved":false,"is_disabled":false,"rental_uris":{"android":"levelo://app?vid=46268943-c399-48c5-9fc1-c43434645a4a","ios":"levelo://app?vid=46268943-c399-48c5-9fc1-c43434645a4a"},"vehicle_type_id":"4","last_reported":1719000559,"current_range_meters":18800,"station_id":"ce4bhsp2rcd13ifvqi50","pricing_plan_id":"cebpf4jnsgd1na2vs0mg"},{"bike_id":"efa82152-2591-4e73-aee1-388ea0bcfcf7","system_id":"levelo_inurba_marseille","lat":43.315289,"lon":5.380349,"is_reserved":false,"is_disabled":false,"rental_uris":{"android":"levelo://app?vid=efa82152-2591-4e73-aee1-388ea0bcfcf7","ios":"levelo://app?vid=efa82152-2591-4e73-aee1-388ea0bcfcf7"},"vehicle_type_id":"4","last_reported":1719000559,"current_range_meters":27200,"station_id":"ce4bhsp2rcd13ifvqi50","pricing_plan_id":"cebpf4jnsgd1na2vs0mg"},{"bike_id":"1aa9382d-bd55-4aff-8971-b23615fccdae","system_id":"levelo_inurba_marseille","lat":43.31094,"lon":5.38135,"is_reserved":false,"is_disabled":false,"rental_uris":{"android":"levelo://app?vid=1aa9382d-bd55-4aff-8971-b23615fccdae","ios":"levelo://app?vid=1aa9382d-bd55-4aff-8971-b23615fccdae"},"vehicle_type_id":"4","last_reported":1719000559,"current_range_meters":4000,"station_id":"","pricing_plan_id":"cebpf4jnsgd1na2vs0mg"},{"bike_id":"26b2d6c0-1d27-4d30-bcec-a19c7616248c","system_id":"levelo_inurba_marseille","lat":43.301939,"lon":5.366286,"is_reserved":false,"is_disabled":false,"rental_uris":{"android":"levelo://app?vid=26b2d6c0-1d27-4d30-bcec-a19c7616248c","ios":"levelo://app?vid=26b2d6c0-1d27-4d30-bcec-a19c7616248c"},"vehicle_type_id":"4","last_reported":1719000559,"current_range_meters":0,"station_id":"ce4bgrh2rcd13ifvqc8g","pricing_plan_id":"cebpf4jnsgd1na2vs0mg"},{"bike_id":"39ea8e28-3de3-4d52-8c74-6616a9f37906","system_id":"levelo_inurba_marseille","lat":43.308034,"lon":5.38156,"is_reserved":false,"is_disabled":false,"rental_uris":{"android":"levelo://app?vid=39ea8e28-3de3-4d52-8c74-6616a9f37906","ios":"levelo://app?vid=39ea8e28-3de3-4d52-8c74-6616a9f37906"},"vehicle_type_id":"4","last_reported":1719000559,"current_range_meters":0,"station_id":"ce4bgt12rcd13ifvqce0","pricing_plan_id":"cebpf4jnsgd1na2vs0mg"},{"bike_id":"1cf8ebbf-396e-4e5d-8863-a0e6010561dc","system_id":"levelo_inurba_marseille","lat":43.307985,"lon":5.38154,"is_reserved":false,"is_disabled":false,"rental_uris":{"android":"levelo://app?vid=1cf8ebbf-396e-4e5d-8863-a0e6010561dc","ios":"levelo://app?vid=1cf8ebbf-396e-4e5d-8863-a0e6010561dc"},"vehicle_type_id":"4","last_reported":1719000559,"current_range_meters":0,"station_id":"ce4bgt12rcd13ifvqce0","pricing_plan_id":"cebpf4jnsgd1na2vs0mg"},{"bike_id":"3699e0d6-b7cf-47fc-8aa9-aac7f2ae604f","system_id":"levelo_inurba_marseille","lat":43.308012,"lon":5.381511,"is_reserved":false,"is_disabled":false,"rental_uris":{"android":"levelo://app?vid=3699e0d6-b7cf-47fc-8aa9-aac7f2ae604f","ios":"levelo://app?vid=3699e0d6-b7cf-47fc-8aa9-aac7f2ae604f"},"vehicle_type_id":"4","last_reported":1719000559,"current_range_meters":4000,"station_id":"ce4bgt12rcd13ifvqce0","pricing_plan_id":"cebpf4jnsgd1na2vs0mg"},{"bike_id":"a3351bc9-57e5-40a8-a632-fb07b59c3abd","system_id":"levelo_inurba_marseille","lat":43.3009,"lon":5.36549,"is_reserved":false,"is_disabled":false,"rental_uris":{"android":"levelo://app?vid=a3351bc9-57e5-40a8-a632-fb07b59c3abd","ios":"levelo://app?vid=a3351bc9-57e5-40a8-a632-fb07b59c3abd"},"vehicle_type_id":"4","last_reported":1719000559,"current_range_meters":0,"station_id":"","pricing_plan_id":"cebpf4jnsgd1na2vs0mg"},{"bike_id":"0cf4f2e2-150e-4567-bd04-06c956a4df89","system_id":"levelo_inurba_marseille","lat":43.32488,"lon":5.36555,"is_reserved":false,"is_disabled":false,"rental_uris":{"android":"levelo://app?vid=0cf4f2e2-150e-4567-bd04-06c956a4df89","ios":"levelo://app?vid=0cf4f2e2-150e-4567-bd04-06c956a4df89"},"vehicle_type_id":"4","last_reported":1719000559,"current_range_meters":0,"station_id":"ce4bhs12rcd13ifvqhvg","pricing_plan_id":"cebpf4jnsgd1na2vs0mg"},{"bike_id":"732f3b32-0acc-46de-bd4d-d288d2686bf1","system_id":"levelo_inurba_marseille","lat":43.310804,"lon":5.38359,"is_reserved":false,"is_disabled":false,"rental_uris":{"android":"levelo://app?vid=732f3b32-0acc-46de-bd4d-d288d2686bf1","ios":"levelo://app?vid=732f3b32-0acc-46de-bd4d-d288d2686bf1"},"vehicle_type_id":"4","last_reported":1719000559,"current_range_meters":0,"station_id":"ce4bgv92rcd13ifvqcr0","pricing_plan_id":"cebpf4jnsgd1na2vs0mg"},{"bike_id":"a7ce4af3-b9a3-4154-b2c6-fe94ff06d9e4","system_id":"levelo_inurba_marseille","lat":43.300313,"lon":5.369527,"is_reserved":false,"is_disabled":false,"rental_uris":{"android":"levelo://app?vid=a7ce4af3-b9a3-4154-b2c6-fe94ff06d9e4","ios":"levelo://app?vid=a7ce4af3-b9a3-4154-b2c6-fe94ff06d9e4"},"vehicle_type_id":"4","last_reported":1719000559,"current_range_meters":14400,"station_id":"","pricing_plan_id":"cebpf4jnsgd1na2vs0mg"},{"bike_id":"4f17b089-79cb-4f2e-a7e1-b736df93b457","system_id":"levelo_inurba_marseille","lat":43.31991,"lon":5.3815,"is_reserved":false,"is_disabled":false,"rental_uris":{"android":"levelo://app?vid=4f17b089-79cb-4f2e-a7e1-b736df93b457","ios":"levelo://app?vid=4f17b089-79cb-4f2e-a7e1-b736df93b457"},"vehicle_type_id":"4","last_reported":1719000559,"current_range_meters":0,"station_id":"ce4bhr12rcd13ifvqhpg","pricing_plan_id":"cebpf4jnsgd1na2vs0mg"},{"bike_id":"c07aff00-4eae-4c47-9b68-664428730875","system_id":"levelo_inurba_marseille","lat":43.299994,"lon":5.368956,"is_reserved":false,"is_disabled":false,"rental_uris":{"android":"levelo://app?vid=c07aff00-4eae-4c47-9b68-664428730875","ios":"levelo://app?vid=c07aff00-4eae-4c47-9b68-664428730875"},"vehicle_type_id":"4","last_reported":1719000559,"current_range_meters":13200,"station_id":"","pricing_plan_id":"cebpf4jnsgd1na2vs0mg"},{"bike_id":"b77334d8-4c3c-4ea7-8a80-8826fccf7367","system_id":"levelo_inurba_marseille","lat":43.313571,"lon":5.384829,"is_reserved":false,"is_disabled":false,"rental_uris":{"android":"levelo://app?vid=b77334d8-4c3c-4ea7-8a80-8826fccf7367","ios":"levelo://app?vid=b77334d8-4c3c-4ea7-8a80-8826fccf7367"},"vehicle_type_id":"4","last_reported":1719000559,"current_range_meters":18800,"station_id":"ce4bgt92rcd13ifvqcf0","pricing_plan_id":"cebpf4jnsgd1na2vs0mg"},{"bike_id":"5beaa108-b40a-480e-ae27-fe5dd23534b9","system_id":"levelo_inurba_marseille","lat":43.313571,"lon":5.384829,"is_reserved":false,"is_disabled":false,"rental_uris":{"android":"levelo://app?vid=5beaa108-b40a-480e-ae27-fe5dd23534b9","ios":"levelo://app?vid=5beaa108-b40a-480e-ae27-fe5dd23534b9"},"vehicle_type_id":"4","last_reported":1719000559,"current_range_meters":14800,"station_id":"ce4bgt92rcd13ifvqcf0","pricing_plan_id":"cebpf4jnsgd1na2vs0mg"},{"bike_id":"1f9dc8a6-1fb6-455b-9953-9dd64f0bcc9a","system_id":"levelo_inurba_marseille","lat":43.29929,"lon":5.36547,"is_reserved":false,"is_disabled":false,"rental_uris":{"android":"levelo://app?vid=1f9dc8a6-1fb6-455b-9953-9dd64f0bcc9a","ios":"levelo://app?vid=1f9dc8a6-1fb6-455b-9953-9dd64f0bcc9a"},"vehicle_type_id":"4","last_reported":1719000559,"current_range_meters":0,"station_id":"ce4bgm92rcd13ifvqbr0","pricing_plan_id":"cebpf4jnsgd1na2vs0mg"},{"bike_id":"5b90e3c9-5d78-4c68-a004-77653d75644c","system_id":"levelo_inurba_marseille","lat":43.305404,"lon":5.384242,"is_reserved":false,"is_disabled":false,"rental_uris":{"android":"levelo://app?vid=5b90e3c9-5d78-4c68-a004-77653d75644c","ios":"levelo://app?vid=5b90e3c9-5d78-4c68-a004-77653d75644c"},"vehicle_type_id":"4","last_reported":1719000559,"current_range_meters":0,"station_id":"ce4bgg92rcd13ifvqb30","pricing_plan_id":"cebpf4jnsgd1na2vs0mg"},{"bike_id":"75e30a53-b4b0-4a77-8099-d0c5f83e6e3c","system_id":"levelo_inurba_marseille","lat":43.31174,"lon":5.387103,"is_reserved":false,"is_disabled":false,"rental_uris":{"android":"levelo://app?vid=75e30a53-b4b0-4a77-8099-d0c5f83e6e3c","ios":"levelo://app?vid=75e30a53-b4b0-4a77-8099-d0c5f83e6e3c"},"vehicle_type_id":"4","last_reported":1719000559,"current_range_meters":8000,"station_id":"ce4bgv12rcd13ifvqcp0","pricing_plan_id":"cebpf4jnsgd1na2vs0mg"},{"bike_id":"1eaf2cea-c5e6-4107-966f-65ae419d7fce","system_id":"levelo_inurba_marseille","lat":43.311722,"lon":5.387247,"is_reserved":false,"is_disabled":false,"rental_uris":{"android":"levelo://app?vid=1eaf2cea-c5e6-4107-966f-65ae419d7fce","ios":"levelo://app?vid=1eaf2cea-c5e6-4107-966f-65ae419d7fce"},"vehicle_type_id":"4","last_reported":1719000559,"current_range_meters":7200,"station_id":"ce4bgv12rcd13ifvqcp0","pricing_plan_id":"cebpf4jnsgd1na2vs0mg"},{"bike_id":"c5e7ef38-a8bb-4cdb-aa74-caf7026f20ab","system_id":"levelo_inurba_marseille","lat":43.297163,"lon":5.365866,"is_reserved":false,"is_disabled":false,"rental_uris":{"android":"levelo://app?vid=c5e7ef38-a8bb-4cdb-aa74-caf7026f20ab","ios":"levelo://app?vid=c5e7ef38-a8bb-4cdb-aa74-caf7026f20ab"},"vehicle_type_id":"4","last_reported":1719000559,"current_range_meters":0,"station_id":"ce4bgn12rcd13ifvqbt0","pricing_plan_id":"cebpf4jnsgd1na2vs0mg"},{"bike_id":"0d39bd3c-1435-48e1-9268-aeea3106df65","system_id":"levelo_inurba_marseille","lat":43.29817,"lon":5.3772,"is_reserved":false,"is_disabled":false,"rental_uris":{"android":"levelo://app?vid=0d39bd3c-1435-48e1-9268-aeea3106df65","ios":"levelo://app?vid=0d39bd3c-1435-48e1-9268-aeea3106df65"},"vehicle_type_id":"4","last_reported":1719000559,"current_range_meters":6000,"station_id":"","pricing_plan_id":"cebpf4jnsgd1na2vs0mg"},{"bike_id":"ca740ea3-6342-4a9a-95d2-fbf6a08a5b51","system_id":"levelo_inurba_marseille","lat":43.299028,"lon":5.381509,"is_reserved":false,"is_disabled":false,"rental_uris":{"android":"levelo://app?vid=ca740ea3-6342-4a9a-95d2-fbf6a08a5b51","ios":"levelo://app?vid=ca740ea3-6342-4a9a-95d2-fbf6a08a5b51"},"vehicle_type_id":"4","last_reported":1719000559,"current_range_meters":7600,"station_id":"ce4bgj12rcd13ifvqbc0","pricing_plan_id":"cebpf4jnsgd1na2vs0mg"},{"bike_id":"2e95a5d2-c86e-4a69-b4c5-8e1706bbc290","system_id":"levelo_inurba_marseille","lat":43.295677,"lon":5.374993,"is_reserved":false,"is_disabled":false,"rental_uris":{"android":"levelo://app?vid=2e95a5d2-c86e-4a69-b4c5-8e1706bbc290","ios":"levelo://app?vid=2e95a5d2-c86e-4a69-b4c5-8e1706bbc290"},"vehicle_type_id":"4","last_reported":1719000559,"current_range_meters":20800,"station_id":"","pricing_plan_id":"cebpf4jnsgd1na2vs0mg"},{"bike_id":"215d06e6-5eb5-4a39-826b-42364394925d","system_id":"levelo_inurba_marseille","lat":43.304278,"lon":5.388868,"is_reserved":false,"is_disabled":false,"rental_uris":{"android":"levelo://app?vid=215d06e6-5eb5-4a39-826b-42364394925d","ios":"levelo://app?vid=215d06e6-5eb5-4a39-826b-42364394925d"},"vehicle_type_id":"4","last_reported":1719000559,"current_range_meters":4400,"station_id":"ce4bgk12rcd13ifvqbi0","pricing_plan_id":"cebpf4jnsgd1na2vs0mg"},{"bike_id":"44a8e034-dd78-43fb-95e2-ac4ce13f759c","system_id":"levelo_inurba_marseille","lat":43.296263,"lon":5.377094,"is_reserved":false,"is_disabled":false,"rental_uris":{"android":"levelo://app?vid=44a8e034-dd78-43fb-95e2-ac4ce13f759c","ios":"levelo://app?vid=44a8e034-dd78-43fb-95e2-ac4ce13f759c"},"vehicle_type_id":"4","last_reported":1719000559,"current_range_meters":13600,"station_id":"ce4bgi92rcd13ifvqb90","pricing_plan_id":"cebpf4jnsgd1na2vs0mg"},{"bike_id":"34778f61-0847-445d-8002-d9d4fdfd31a1","system_id":"levelo_inurba_marseille","lat":43.296277,"lon":5.377108,"is_reserved":false,"is_disabled":false,"rental_uris":{"android":"levelo://app?vid=34778f61-0847-445d-8002-d9d4fdfd31a1","ios":"levelo://app?vid=34778f61-0847-445d-8002-d9d4fdfd31a1"},"vehicle_type_id":"4","last_reported":1719000559,"current_range_meters":5200,"station_id":"ce4bgi92rcd13ifvqb90","pricing_plan_id":"cebpf4jnsgd1na2vs0mg"},{"bike_id":"d52ed9ed-f58a-4bdd-b73c-6bdbb79e32ec","system_id":"levelo_inurba_marseille","lat":43.296263,"lon":5.377094,"is_reserved":false,"is_disabled":false,"rental_uris":{"android":"levelo://app?vid=d52ed9ed-f58a-4bdd-b73c-6bdbb79e32ec","ios":"levelo://app?vid=d52ed9ed-f58a-4bdd-b73c-6bdbb79e32ec"},"vehicle_type_id":"4","last_reported":1719000559,"current_range_meters":28400,"station_id":"ce4bgi92rcd13ifvqb90","pricing_plan_id":"cebpf4jnsgd1na2vs0mg"},{"bike_id":"8851190b-1d5e-4d90-b8c7-e7fb39a4fa4b","system_id":"levelo_inurba_marseille","lat":43.296277,"lon":5.377108,"is_reserved":false,"is_disabled":false,"rental_uris":{"android":"levelo://app?vid=8851190b-1d5e-4d90-b8c7-e7fb39a4fa4b","ios":"levelo://app?vid=8851190b-1d5e-4d90-b8c7-e7fb39a4fa4b"},"vehicle_type_id":"4","last_reported":1719000559,"current_range_meters":11600,"station_id":"ce4bgi92rcd13ifvqb90","pricing_plan_id":"cebpf4jnsgd1na2vs0mg"},{"bike_id":"dcba8935-b12c-4b25-a30a-c8a224ec4c6e","system_id":"levelo_inurba_marseille","lat":43.2961,"lon":5.37722,"is_reserved":false,"is_disabled":false,"rental_uris":{"android":"levelo://app?vid=dcba8935-b12c-4b25-a30a-c8a224ec4c6e","ios":"levelo://app?vid=dcba8935-b12c-4b25-a30a-c8a224ec4c6e"},"vehicle_type_id":"4","last_reported":1719000559,"current_range_meters":29600,"station_id":"ce4bgi92rcd13ifvqb90","pricing_plan_id":"cebpf4jnsgd1na2vs0mg"},{"bike_id":"3cb39179-1cad-4a31-9e5a-56780f581544","system_id":"levelo_inurba_marseille","lat":43.29976,"lon":5.384855,"is_reserved":false,"is_disabled":false,"rental_uris":{"android":"levelo://app?vid=3cb39179-1cad-4a31-9e5a-56780f581544","ios":"levelo://app?vid=3cb39179-1cad-4a31-9e5a-56780f581544"},"vehicle_type_id":"4","last_reported":1719000559,"current_range_meters":31200,"station_id":"ce4bgj92rcd13ifvqbd0","pricing_plan_id":"cebpf4jnsgd1na2vs0mg"},{"bike_id":"17f9effb-54f3-43f9-9002-1fea0f9d79a6","system_id":"levelo_inurba_marseille","lat":43.299707,"lon":5.384859,"is_reserved":false,"is_disabled":false,"rental_uris":{"android":"levelo://app?vid=17f9effb-54f3-43f9-9002-1fea0f9d79a6","ios":"levelo://app?vid=17f9effb-54f3-43f9-9002-1fea0f9d79a6"},"vehicle_type_id":"4","last_reported":1719000559,"current_range_meters":10800,"station_id":"ce4bgj92rcd13ifvqbd0","pricing_plan_id":"cebpf4jnsgd1na2vs0mg"},{"bike_id":"3cb1a56b-1ad9-40b3-91bd-f4f71bf45615","system_id":"levelo_inurba_marseille","lat":43.299707,"lon":5.384859,"is_reserved":false,"is_disabled":false,"rental_uris":{"android":"levelo://app?vid=3cb1a56b-1ad9-40b3-91bd-f4f71bf45615","ios":"levelo://app?vid=3cb1a56b-1ad9-40b3-91bd-f4f71bf45615"},"vehicle_type_id":"4","last_reported":1719000559,"current_range_meters":31200,"station_id":"ce4bgj92rcd13ifvqbd0","pricing_plan_id":"cebpf4jnsgd1na2vs0mg"},{"bike_id":"c3eba795-0b13-43f7-8269-3624db024664","system_id":"levelo_inurba_marseille","lat":43.29978,"lon":5.38498,"is_reserved":false,"is_disabled":false,"rental_uris":{"android":"levelo://app?vid=c3eba795-0b13-43f7-8269-3624db024664","ios":"levelo://app?vid=c3eba795-0b13-43f7-8269-3624db024664"},"vehicle_type_id":"4","last_reported":1719000559,"current_range_meters":26800,"station_id":"ce4bgj92rcd13ifvqbd0","pricing_plan_id":"cebpf4jnsgd1na2vs0mg"},{"bike_id":"6c7bd5c0-5fed-44a4-be84-afab12b5059e","system_id":"levelo_inurba_marseille","lat":43.299717,"lon":5.384845,"is_reserved":false,"is_disabled":false,"rental_uris":{"android":"levelo://app?vid=6c7bd5c0-5fed-44a4-be84-afab12b5059e","ios":"levelo://app?vid=6c7bd5c0-5fed-44a4-be84-afab12b5059e"},"vehicle_type_id":"4","last_reported":1719000559,"current_range_meters":31200,"station_id":"ce4bgj92rcd13ifvqbd0","pricing_plan_id":"cebpf4jnsgd1na2vs0mg"},{"bike_id":"b870948e-6a64-4200-aef3-fab2f8befab6","system_id":"levelo_inurba_marseille","lat":43.29965,"lon":5.38497,"is_reserved":false,"is_disabled":false,"rental_uris":{"android":"levelo://app?vid=b870948e-6a64-4200-aef3-fab2f8befab6","ios":"levelo://app?vid=b870948e-6a64-4200-aef3-fab2f8befab6"},"vehicle_type_id":"4","last_reported":1719000559,"current_range_meters":11600,"station_id":"ce4bgj92rcd13ifvqbd0","pricing_plan_id":"cebpf4jnsgd1na2vs0mg"},{"bike_id":"c5118c2d-c9cf-4afe-b2c7-b8cc12d27783","system_id":"levelo_inurba_marseille","lat":43.299724,"lon":5.384848,"is_reserved":false,"is_disabled":false,"rental_uris":{"android":"levelo://app?vid=c5118c2d-c9cf-4afe-b2c7-b8cc12d27783","ios":"levelo://app?vid=c5118c2d-c9cf-4afe-b2c7-b8cc12d27783"},"vehicle_type_id":"4","last_reported":1719000559,"current_range_meters":2000,"station_id":"ce4bgj92rcd13ifvqbd0","pricing_plan_id":"cebpf4jnsgd1na2vs0mg"},{"bike_id":"4d6b325b-884b-448e-8a2d-def0cb196543","system_id":"levelo_inurba_marseille","lat":43.299707,"lon":5.384859,"is_reserved":false,"is_disabled":false,"rental_uris":{"android":"levelo://app?vid=4d6b325b-884b-448e-8a2d-def0cb196543","ios":"levelo://app?vid=4d6b325b-884b-448e-8a2d-def0cb196543"},"vehicle_type_id":"4","last_reported":1719000559,"current_range_meters":7200,"station_id":"ce4bgj92rcd13ifvqbd0","pricing_plan_id":"cebpf4jnsgd1na2vs0mg"},{"bike_id":"004a7cdb-4746-43cd-a305-a05207e33dd8","system_id":"levelo_inurba_marseille","lat":43.296062,"lon":5.380826,"is_reserved":false,"is_disabled":false,"rental_uris":{"android":"levelo://app?vid=004a7cdb-4746-43cd-a305-a05207e33dd8","ios":"levelo://app?vid=004a7cdb-4746-43cd-a305-a05207e33dd8"},"vehicle_type_id":"4","last_reported":1719000559,"current_range_meters":0,"station_id":"ce4bgl12rcd13ifvqbo0","pricing_plan_id":"cebpf4jnsgd1na2vs0mg"},{"bike_id":"3a699aa0-1790-4655-a1b3-a3e18a582894","system_id":"levelo_inurba_marseille","lat":43.29602,"lon":5.381084,"is_reserved":false,"is_disabled":false,"rental_uris":{"android":"levelo://app?vid=3a699aa0-1790-4655-a1b3-a3e18a582894","ios":"levelo://app?vid=3a699aa0-1790-4655-a1b3-a3e18a582894"},"vehicle_type_id":"4","last_reported":1719000559,"current_range_meters":24400,"station_id":"ce4bgl12rcd13ifvqbo0","pricing_plan_id":"cebpf4jnsgd1na2vs0mg"},{"bike_id":"d2c499ce-adcd-46db-971a-d64c92de3c40","system_id":"levelo_inurba_marseille","lat":43.29602,"lon":5.381084,"is_reserved":false,"is_disabled":false,"rental_uris":{"android":"levelo://app?vid=d2c499ce-adcd-46db-971a-d64c92de3c40","ios":"levelo://app?vid=d2c499ce-adcd-46db-971a-d64c92de3c40"},"vehicle_type_id":"4","last_reported":1719000559,"current_range_meters":400,"station_id":"ce4bgl12rcd13ifvqbo0","pricing_plan_id":"cebpf4jnsgd1na2vs0mg"},{"bike_id":"6632b804-fcf9-40fb-a289-49d2e138336d","system_id":"levelo_inurba_marseille","lat":43.29592,"lon":5.381113,"is_reserved":false,"is_disabled":false,"rental_uris":{"android":"levelo://app?vid=6632b804-fcf9-40fb-a289-49d2e138336d","ios":"levelo://app?vid=6632b804-fcf9-40fb-a289-49d2e138336d"},"vehicle_type_id":"4","last_reported":1719000559,"current_range_meters":31200,"station_id":"ce4bgl12rcd13ifvqbo0","pricing_plan_id":"cebpf4jnsgd1na2vs0mg"},{"bike_id":"d5003054-daf7-4c93-bf41-2f7bcdf577b9","system_id":"levelo_inurba_marseille","lat":43.29309,"lon":5.37181,"is_reserved":false,"is_disabled":false,"rental_uris":{"android":"levelo://app?vid=d5003054-daf7-4c93-bf41-2f7bcdf577b9","ios":"levelo://app?vid=d5003054-daf7-4c93-bf41-2f7bcdf577b9"},"vehicle_type_id":"4","last_reported":1719000559,"current_range_meters":25600,"station_id":"ce4bgh92rcd13ifvqb40","pricing_plan_id":"cebpf4jnsgd1na2vs0mg"},{"bike_id":"e299b34b-41b8-4b7b-a1f3-a0c858e3b97f","system_id":"levelo_inurba_marseille","lat":43.292749,"lon":5.368402,"is_reserved":false,"is_disabled":false,"rental_uris":{"android":"levelo://app?vid=e299b34b-41b8-4b7b-a1f3-a0c858e3b97f","ios":"levelo://app?vid=e299b34b-41b8-4b7b-a1f3-a0c858e3b97f"},"vehicle_type_id":"4","last_reported":1719000559,"current_range_meters":0,"station_id":"ce4bhbp2rcd13ifvqesg","pricing_plan_id":"cebpf4jnsgd1na2vs0mg"},{"bike_id":"f9ab10b6-0f35-462b-acda-cd60f4004702","system_id":"levelo_inurba_marseille","lat":43.292749,"lon":5.368402,"is_reserved":false,"is_disabled":false,"rental_uris":{"android":"levelo://app?vid=f9ab10b6-0f35-462b-acda-cd60f4004702","ios":"levelo://app?vid=f9ab10b6-0f35-462b-acda-cd60f4004702"},"vehicle_type_id":"4","last_reported":1719000559,"current_range_meters":16000,"station_id":"ce4bhbp2rcd13ifvqesg","pricing_plan_id":"cebpf4jnsgd1na2vs0mg"},{"bike_id":"ea30467a-cda1-45e5-983a-a91bbd0dd6d6","system_id":"levelo_inurba_marseille","lat":43.29277,"lon":5.36842,"is_reserved":false,"is_disabled":false,"rental_uris":{"android":"levelo://app?vid=ea30467a-cda1-45e5-983a-a91bbd0dd6d6","ios":"levelo://app?vid=ea30467a-cda1-45e5-983a-a91bbd0dd6d6"},"vehicle_type_id":"4","last_reported":1719000559,"current_range_meters":0,"station_id":"ce4bhbp2rcd13ifvqesg","pricing_plan_id":"cebpf4jnsgd1na2vs0mg"},{"bike_id":"be1af0f2-c461-4da1-bdcb-b93a88e4acda","system_id":"levelo_inurba_marseille","lat":43.293259,"lon":5.371586,"is_reserved":false,"is_disabled":false,"rental_uris":{"android":"levelo://app?vid=be1af0f2-c461-4da1-bdcb-b93a88e4acda","ios":"levelo://app?vid=be1af0f2-c461-4da1-bdcb-b93a88e4acda"},"vehicle_type_id":"4","last_reported":1719000559,"current_range_meters":0,"station_id":"ce4bgh92rcd13ifvqb40","pricing_plan_id":"cebpf4jnsgd1na2vs0mg"},{"bike_id":"b77e2470-bab3-42d4-aa1c-edfdd21f727e","system_id":"levelo_inurba_marseille","lat":43.29301,"lon":5.37179,"is_reserved":false,"is_disabled":false,"rental_uris":{"android":"levelo://app?vid=b77e2470-bab3-42d4-aa1c-edfdd21f727e","ios":"levelo://app?vid=b77e2470-bab3-42d4-aa1c-edfdd21f727e"},"vehicle_type_id":"4","last_reported":1719000559,"current_range_meters":3200,"station_id":"ce4bgh92rcd13ifvqb40","pricing_plan_id":"cebpf4jnsgd1na2vs0mg"},{"bike_id":"c9443ceb-e8c0-496b-b949-84ebd05e2555","system_id":"levelo_inurba_marseille","lat":43.297472,"lon":5.3854,"is_reserved":false,"is_disabled":false,"rental_uris":{"android":"levelo://app?vid=c9443ceb-e8c0-496b-b949-84ebd05e2555","ios":"levelo://app?vid=c9443ceb-e8c0-496b-b949-84ebd05e2555"},"vehicle_type_id":"4","last_reported":1719000559,"current_range_meters":0,"station_id":"","pricing_plan_id":"cebpf4jnsgd1na2vs0mg"},{"bike_id":"8a918296-ada5-4693-b209-7164abee503f","system_id":"levelo_inurba_marseille","lat":43.305994,"lon":5.393687,"is_reserved":false,"is_disabled":false,"rental_uris":{"android":"levelo://app?vid=8a918296-ada5-4693-b209-7164abee503f","ios":"levelo://app?vid=8a918296-ada5-4693-b209-7164abee503f"},"vehicle_type_id":"4","last_reported":1719000559,"current_range_meters":0,"station_id":"ce4bh0p2rcd13ifvqd80","pricing_plan_id":"cebpf4jnsgd1na2vs0mg"},{"bike_id":"dba12d27-6c36-4ab6-862f-a18ebb6fb9e1","system_id":"levelo_inurba_marseille","lat":43.292934,"lon":5.374639,"is_reserved":false,"is_disabled":false,"rental_uris":{"android":"levelo://app?vid=dba12d27-6c36-4ab6-862f-a18ebb6fb9e1","ios":"levelo://app?vid=dba12d27-6c36-4ab6-862f-a18ebb6fb9e1"},"vehicle_type_id":"4","last_reported":1719000559,"current_range_meters":0,"station_id":"ce4bgi12rcd13ifvqb70","pricing_plan_id":"cebpf4jnsgd1na2vs0mg"},{"bike_id":"5d61b496-6357-4252-9153-17bde3862807","system_id":"levelo_inurba_marseille","lat":43.296888,"lon":5.38529,"is_reserved":false,"is_disabled":false,"rental_uris":{"android":"levelo://app?vid=5d61b496-6357-4252-9153-17bde3862807","ios":"levelo://app?vid=5d61b496-6357-4252-9153-17bde3862807"},"vehicle_type_id":"4","last_reported":1719000559,"current_range_meters":4400,"station_id":"","pricing_plan_id":"cebpf4jnsgd1na2vs0mg"},{"bike_id":"66e226bc-c221-418a-94f9-1ad0f26f8aca","system_id":"levelo_inurba_marseille","lat":43.2936,"lon":5.37835,"is_reserved":false,"is_disabled":false,"rental_uris":{"android":"levelo://app?vid=66e226bc-c221-418a-94f9-1ad0f26f8aca","ios":"levelo://app?vid=66e226bc-c221-418a-94f9-1ad0f26f8aca"},"vehicle_type_id":"4","last_reported":1719000559,"current_range_meters":14400,"station_id":"ce4bgjh2rcd13ifvqbf0","pricing_plan_id":"cebpf4jnsgd1na2vs0mg"},{"bike_id":"eb229c57-8bea-4be5-8f8a-ee029fb4bd0f","system_id":"levelo_inurba_marseille","lat":43.292311,"lon":5.360731,"is_reserved":false,"is_disabled":false,"rental_uris":{"android":"levelo://app?vid=eb229c57-8bea-4be5-8f8a-ee029fb4bd0f","ios":"levelo://app?vid=eb229c57-8bea-4be5-8f8a-ee029fb4bd0f"},"vehicle_type_id":"4","last_reported":1719000559,"current_range_meters":0,"station_id":"ce4bhbh2rcd13ifvqeqg","pricing_plan_id":"cebpf4jnsgd1na2vs0mg"},{"bike_id":"a0138c55-b7d7-4460-85ae-26892f8ceadf","system_id":"levelo_inurba_marseille","lat":43.298764,"lon":5.388973,"is_reserved":false,"is_disabled":false,"rental_uris":{"android":"levelo://app?vid=a0138c55-b7d7-4460-85ae-26892f8ceadf","ios":"levelo://app?vid=a0138c55-b7d7-4460-85ae-26892f8ceadf"},"vehicle_type_id":"4","last_reported":1719000559,"current_range_meters":0,"station_id":"ce4bh392rcd13ifvqdl0","pricing_plan_id":"cebpf4jnsgd1na2vs0mg"},{"bike_id":"c03f7a04-d747-4781-872e-2b1862a7a6ec","system_id":"levelo_inurba_marseille","lat":43.298764,"lon":5.388973,"is_reserved":false,"is_disabled":false,"rental_uris":{"android":"levelo://app?vid=c03f7a04-d747-4781-872e-2b1862a7a6ec","ios":"levelo://app?vid=c03f7a04-d747-4781-872e-2b1862a7a6ec"},"vehicle_type_id":"4","last_reported":1719000559,"current_range_meters":800,"station_id":"ce4bh392rcd13ifvqdl0","pricing_plan_id":"cebpf4jnsgd1na2vs0mg"},{"bike_id":"24f4bfa6-75d7-4729-aa8f-9ad6ee72ed36","system_id":"levelo_inurba_marseille","lat":43.291671,"lon":5.371575,"is_reserved":false,"is_disabled":false,"rental_uris":{"android":"levelo://app?vid=24f4bfa6-75d7-4729-aa8f-9ad6ee72ed36","ios":"levelo://app?vid=24f4bfa6-75d7-4729-aa8f-9ad6ee72ed36"},"vehicle_type_id":"4","last_reported":1719000559,"current_range_meters":15600,"station_id":"ce4bha92rcd13ifvqeh0","pricing_plan_id":"cebpf4jnsgd1na2vs0mg"},{"bike_id":"e12cb9fb-861e-4c10-ac0e-52b97c2c1519","system_id":"levelo_inurba_marseille","lat":43.29571,"lon":5.38551,"is_reserved":false,"is_disabled":false,"rental_uris":{"android":"levelo://app?vid=e12cb9fb-861e-4c10-ac0e-52b97c2c1519","ios":"levelo://app?vid=e12cb9fb-861e-4c10-ac0e-52b97c2c1519"},"vehicle_type_id":"4","last_reported":1719000559,"current_range_meters":4400,"station_id":"ce4bgih2rcd13ifvqba0","pricing_plan_id":"cebpf4jnsgd1na2vs0mg"},{"bike_id":"b7df3b27-8e96-4962-a114-d3a27d485588","system_id":"levelo_inurba_marseille","lat":43.291994,"lon":5.357886,"is_reserved":false,"is_disabled":false,"rental_uris":{"android":"levelo://app?vid=b7df3b27-8e96-4962-a114-d3a27d485588","ios":"levelo://app?vid=b7df3b27-8e96-4962-a114-d3a27d485588"},"vehicle_type_id":"4","last_reported":1719000559,"current_range_meters":0,"station_id":"ce4bhb12rcd13ifvqel0","pricing_plan_id":"cebpf4jnsgd1na2vs0mg"},{"bike_id":"b633bb77-0e13-4f2a-86f4-b2a60dcc6116","system_id":"levelo_inurba_marseille","lat":43.29529,"lon":5.385581,"is_reserved":false,"is_disabled":false,"rental_uris":{"android":"levelo://app?vid=b633bb77-0e13-4f2a-86f4-b2a60dcc6116","ios":"levelo://app?vid=b633bb77-0e13-4f2a-86f4-b2a60dcc6116"},"vehicle_type_id":"4","last_reported":1719000559,"current_range_meters":22400,"station_id":"ce4bgih2rcd13ifvqba0","pricing_plan_id":"cebpf4jnsgd1na2vs0mg"},{"bike_id":"043c8e56-0812-42ac-844a-d3377f3df9fb","system_id":"levelo_inurba_marseille","lat":43.29538,"lon":5.38536,"is_reserved":false,"is_disabled":false,"rental_uris":{"android":"levelo://app?vid=043c8e56-0812-42ac-844a-d3377f3df9fb","ios":"levelo://app?vid=043c8e56-0812-42ac-844a-d3377f3df9fb"},"vehicle_type_id":"4","last_reported":1719000559,"current_range_meters":6800,"station_id":"ce4bgih2rcd13ifvqba0","pricing_plan_id":"cebpf4jnsgd1na2vs0mg"},{"bike_id":"e201af57-2de4-49d0-8a40-3a138c5c6ae4","system_id":"levelo_inurba_marseille","lat":43.29543,"lon":5.38545,"is_reserved":false,"is_disabled":false,"rental_uris":{"android":"levelo://app?vid=e201af57-2de4-49d0-8a40-3a138c5c6ae4","ios":"levelo://app?vid=e201af57-2de4-49d0-8a40-3a138c5c6ae4"},"vehicle_type_id":"4","last_reported":1719000559,"current_range_meters":23200,"station_id":"ce4bgih2rcd13ifvqba0","pricing_plan_id":"cebpf4jnsgd1na2vs0mg"},{"bike_id":"70933cd8-c092-4e55-94e9-f3603ad27338","system_id":"levelo_inurba_marseille","lat":43.2954,"lon":5.38541,"is_reserved":false,"is_disabled":false,"rental_uris":{"android":"levelo://app?vid=70933cd8-c092-4e55-94e9-f3603ad27338","ios":"levelo://app?vid=70933cd8-c092-4e55-94e9-f3603ad27338"},"vehicle_type_id":"4","last_reported":1719000559,"current_range_meters":25600,"station_id":"ce4bgih2rcd13ifvqba0","pricing_plan_id":"cebpf4jnsgd1na2vs0mg"},{"bike_id":"8a9fe48a-e80f-45d8-8798-63fa91671dc3","system_id":"levelo_inurba_marseille","lat":43.29529,"lon":5.385581,"is_reserved":false,"is_disabled":false,"rental_uris":{"android":"levelo://app?vid=8a9fe48a-e80f-45d8-8798-63fa91671dc3","ios":"levelo://app?vid=8a9fe48a-e80f-45d8-8798-63fa91671dc3"},"vehicle_type_id":"4","last_reported":1719000559,"current_range_meters":15200,"station_id":"ce4bgih2rcd13ifvqba0","pricing_plan_id":"cebpf4jnsgd1na2vs0mg"},{"bike_id":"6e7ccf66-365c-46ef-aff6-fd7f76725fcc","system_id":"levelo_inurba_marseille","lat":43.2954,"lon":5.38542,"is_reserved":false,"is_disabled":false,"rental_uris":{"android":"levelo://app?vid=6e7ccf66-365c-46ef-aff6-fd7f76725fcc","ios":"levelo://app?vid=6e7ccf66-365c-46ef-aff6-fd7f76725fcc"},"vehicle_type_id":"4","last_reported":1719000559,"current_range_meters":11600,"station_id":"ce4bgih2rcd13ifvqba0","pricing_plan_id":"cebpf4jnsgd1na2vs0mg"},{"bike_id":"96739e64-6545-4ac4-bfa0-7711401fc721","system_id":"levelo_inurba_marseille","lat":43.29529,"lon":5.385581,"is_reserved":false,"is_disabled":false,"rental_uris":{"android":"levelo://app?vid=96739e64-6545-4ac4-bfa0-7711401fc721","ios":"levelo://app?vid=96739e64-6545-4ac4-bfa0-7711401fc721"},"vehicle_type_id":"4","last_reported":1719000559,"current_range_meters":22800,"station_id":"ce4bgih2rcd13ifvqba0","pricing_plan_id":"cebpf4jnsgd1na2vs0mg"},{"bike_id":"c289c87e-06a1-4067-b63e-83e57163206b","system_id":"levelo_inurba_marseille","lat":43.29537,"lon":5.3854,"is_reserved":false,"is_disabled":false,"rental_uris":{"android":"levelo://app?vid=c289c87e-06a1-4067-b63e-83e57163206b","ios":"levelo://app?vid=c289c87e-06a1-4067-b63e-83e57163206b"},"vehicle_type_id":"4","last_reported":1719000559,"current_range_meters":27200,"station_id":"ce4bgih2rcd13ifvqba0","pricing_plan_id":"cebpf4jnsgd1na2vs0mg"},{"bike_id":"c6fc2f24-43b0-4a6f-94e2-11f895ffb2ac","system_id":"levelo_inurba_marseille","lat":43.29538,"lon":5.38544,"is_reserved":false,"is_disabled":false,"rental_uris":{"android":"levelo://app?vid=c6fc2f24-43b0-4a6f-94e2-11f895ffb2ac","ios":"levelo://app?vid=c6fc2f24-43b0-4a6f-94e2-11f895ffb2ac"},"vehicle_type_id":"4","last_reported":1719000559,"current_range_meters":26000,"station_id":"ce4bgih2rcd13ifvqba0","pricing_plan_id":"cebpf4jnsgd1na2vs0mg"},{"bike_id":"b4065373-65e2-4203-911a-91cb5ce935b1","system_id":"levelo_inurba_marseille","lat":43.29534,"lon":5.38538,"is_reserved":false,"is_disabled":false,"rental_uris":{"android":"levelo://app?vid=b4065373-65e2-4203-911a-91cb5ce935b1","ios":"levelo://app?vid=b4065373-65e2-4203-911a-91cb5ce935b1"},"vehicle_type_id":"4","last_reported":1719000559,"current_range_meters":30000,"station_id":"ce4bgih2rcd13ifvqba0","pricing_plan_id":"cebpf4jnsgd1na2vs0mg"},{"bike_id":"9cb16436-92da-4c72-abb8-24ac0add9fc5","system_id":"levelo_inurba_marseille","lat":43.29533,"lon":5.38537,"is_reserved":false,"is_disabled":false,"rental_uris":{"android":"levelo://app?vid=9cb16436-92da-4c72-abb8-24ac0add9fc5","ios":"levelo://app?vid=9cb16436-92da-4c72-abb8-24ac0add9fc5"},"vehicle_type_id":"4","last_reported":1719000559,"current_range_meters":26400,"station_id":"ce4bgih2rcd13ifvqba0","pricing_plan_id":"cebpf4jnsgd1na2vs0mg"},{"bike_id":"b5642447-64a0-4bf6-8771-ec4e2da36e64","system_id":"levelo_inurba_marseille","lat":43.29538,"lon":5.38547,"is_reserved":false,"is_disabled":false,"rental_uris":{"android":"levelo://app?vid=b5642447-64a0-4bf6-8771-ec4e2da36e64","ios":"levelo://app?vid=b5642447-64a0-4bf6-8771-ec4e2da36e64"},"vehicle_type_id":"4","last_reported":1719000559,"current_range_meters":7200,"station_id":"ce4bgih2rcd13ifvqba0","pricing_plan_id":"cebpf4jnsgd1na2vs0mg"},{"bike_id":"70259f20-b066-4942-b7e3-c8140860148b","system_id":"levelo_inurba_marseille","lat":43.29534,"lon":5.3854,"is_reserved":false,"is_disabled":false,"rental_uris":{"android":"levelo://app?vid=70259f20-b066-4942-b7e3-c8140860148b","ios":"levelo://app?vid=70259f20-b066-4942-b7e3-c8140860148b"},"vehicle_type_id":"4","last_reported":1719000559,"current_range_meters":21600,"station_id":"ce4bgih2rcd13ifvqba0","pricing_plan_id":"cebpf4jnsgd1na2vs0mg"},{"bike_id":"2ae947fb-497b-4bca-b8e7-6c15d939bc54","system_id":"levelo_inurba_marseille","lat":43.29535,"lon":5.38542,"is_reserved":false,"is_disabled":false,"rental_uris":{"android":"levelo://app?vid=2ae947fb-497b-4bca-b8e7-6c15d939bc54","ios":"levelo://app?vid=2ae947fb-497b-4bca-b8e7-6c15d939bc54"},"vehicle_type_id":"4","last_reported":1719000559,"current_range_meters":16800,"station_id":"ce4bgih2rcd13ifvqba0","pricing_plan_id":"cebpf4jnsgd1na2vs0mg"},{"bike_id":"71a846a0-8f48-4acb-b4fa-55dd98a07e32","system_id":"levelo_inurba_marseille","lat":43.29537,"lon":5.38546,"is_reserved":false,"is_disabled":false,"rental_uris":{"android":"levelo://app?vid=71a846a0-8f48-4acb-b4fa-55dd98a07e32","ios":"levelo://app?vid=71a846a0-8f48-4acb-b4fa-55dd98a07e32"},"vehicle_type_id":"4","last_reported":1719000559,"current_range_meters":10000,"station_id":"ce4bgih2rcd13ifvqba0","pricing_plan_id":"cebpf4jnsgd1na2vs0mg"},{"bike_id":"a071f621-ed5f-4dbe-a78d-51c4098843b1","system_id":"levelo_inurba_marseille","lat":43.29532,"lon":5.38539,"is_reserved":false,"is_disabled":false,"rental_uris":{"android":"levelo://app?vid=a071f621-ed5f-4dbe-a78d-51c4098843b1","ios":"levelo://app?vid=a071f621-ed5f-4dbe-a78d-51c4098843b1"},"vehicle_type_id":"4","last_reported":1719000559,"current_range_meters":31200,"station_id":"ce4bgih2rcd13ifvqba0","pricing_plan_id":"cebpf4jnsgd1na2vs0mg"},{"bike_id":"fc11e692-dea3-47b1-b738-8178c163ce89","system_id":"levelo_inurba_marseille","lat":43.29534,"lon":5.38543,"is_reserved":false,"is_disabled":false,"rental_uris":{"android":"levelo://app?vid=fc11e692-dea3-47b1-b738-8178c163ce89","ios":"levelo://app?vid=fc11e692-dea3-47b1-b738-8178c163ce89"},"vehicle_type_id":"4","last_reported":1719000559,"current_range_meters":12000,"station_id":"ce4bgih2rcd13ifvqba0","pricing_plan_id":"cebpf4jnsgd1na2vs0mg"},{"bike_id":"88e6e588-3234-4197-bf50-ff7642f38f5f","system_id":"levelo_inurba_marseille","lat":43.29529,"lon":5.385581,"is_reserved":false,"is_disabled":false,"rental_uris":{"android":"levelo://app?vid=88e6e588-3234-4197-bf50-ff7642f38f5f","ios":"levelo://app?vid=88e6e588-3234-4197-bf50-ff7642f38f5f"},"vehicle_type_id":"4","last_reported":1719000559,"current_range_meters":16400,"station_id":"ce4bgih2rcd13ifvqba0","pricing_plan_id":"cebpf4jnsgd1na2vs0mg"},{"bike_id":"b165aecb-eed3-4e54-8d7b-6c63c41a1dd9","system_id":"levelo_inurba_marseille","lat":43.290779,"lon":5.371482,"is_reserved":false,"is_disabled":false,"rental_uris":{"android":"levelo://app?vid=b165aecb-eed3-4e54-8d7b-6c63c41a1dd9","ios":"levelo://app?vid=b165aecb-eed3-4e54-8d7b-6c63c41a1dd9"},"vehicle_type_id":"4","last_reported":1719000559,"current_range_meters":0,"station_id":"ce4bh5p2rcd13ifvqe4g","pricing_plan_id":"cebpf4jnsgd1na2vs0mg"},{"bike_id":"277e25c4-aba7-4bd2-85c6-fe1453ad200b","system_id":"levelo_inurba_marseille","lat":43.302008,"lon":5.394694,"is_reserved":false,"is_disabled":false,"rental_uris":{"android":"levelo://app?vid=277e25c4-aba7-4bd2-85c6-fe1453ad200b","ios":"levelo://app?vid=277e25c4-aba7-4bd2-85c6-fe1453ad200b"},"vehicle_type_id":"4","last_reported":1719000559,"current_range_meters":12000,"station_id":"ce4bh0p2rcd13ifvqd70","pricing_plan_id":"cebpf4jnsgd1na2vs0mg"},{"bike_id":"7787571c-42de-4581-9444-4a99120a3e92","system_id":"levelo_inurba_marseille","lat":43.290631,"lon":5.359244,"is_reserved":false,"is_disabled":false,"rental_uris":{"android":"levelo://app?vid=7787571c-42de-4581-9444-4a99120a3e92","ios":"levelo://app?vid=7787571c-42de-4581-9444-4a99120a3e92"},"vehicle_type_id":"4","last_reported":1719000559,"current_range_meters":6800,"station_id":"ce4bha92rcd13ifvqeg0","pricing_plan_id":"cebpf4jnsgd1na2vs0mg"},{"bike_id":"d44641bc-16cd-434c-bc33-76e26d0d4415","system_id":"levelo_inurba_marseille","lat":43.29426,"lon":5.38614,"is_reserved":false,"is_disabled":false,"rental_uris":{"android":"levelo://app?vid=d44641bc-16cd-434c-bc33-76e26d0d4415","ios":"levelo://app?vid=d44641bc-16cd-434c-bc33-76e26d0d4415"},"vehicle_type_id":"4","last_reported":1719000559,"current_range_meters":10400,"station_id":"ce4bh2h2rcd13ifvqdh0","pricing_plan_id":"cebpf4jnsgd1na2vs0mg"},{"bike_id":"6f29f8d9-0d48-4f4a-a242-3e8cb0c5bd48","system_id":"levelo_inurba_marseille","lat":43.29425,"lon":5.38618,"is_reserved":false,"is_disabled":false,"rental_uris":{"android":"levelo://app?vid=6f29f8d9-0d48-4f4a-a242-3e8cb0c5bd48","ios":"levelo://app?vid=6f29f8d9-0d48-4f4a-a242-3e8cb0c5bd48"},"vehicle_type_id":"4","last_reported":1719000559,"current_range_meters":6000,"station_id":"ce4bh2h2rcd13ifvqdh0","pricing_plan_id":"cebpf4jnsgd1na2vs0mg"},{"bike_id":"ac5616c3-3d0f-4618-a1cc-b4efbd8cc92e","system_id":"levelo_inurba_marseille","lat":43.29425,"lon":5.3862,"is_reserved":false,"is_disabled":false,"rental_uris":{"android":"levelo://app?vid=ac5616c3-3d0f-4618-a1cc-b4efbd8cc92e","ios":"levelo://app?vid=ac5616c3-3d0f-4618-a1cc-b4efbd8cc92e"},"vehicle_type_id":"4","last_reported":1719000559,"current_range_meters":16400,"station_id":"ce4bh2h2rcd13ifvqdh0","pricing_plan_id":"cebpf4jnsgd1na2vs0mg"},{"bike_id":"e0fd70f2-576b-416b-87a4-09897c79f30e","system_id":"levelo_inurba_marseille","lat":43.294162,"lon":5.386292,"is_reserved":false,"is_disabled":false,"rental_uris":{"android":"levelo://app?vid=e0fd70f2-576b-416b-87a4-09897c79f30e","ios":"levelo://app?vid=e0fd70f2-576b-416b-87a4-09897c79f30e"},"vehicle_type_id":"4","last_reported":1719000559,"current_range_meters":26000,"station_id":"ce4bh2h2rcd13ifvqdh0","pricing_plan_id":"cebpf4jnsgd1na2vs0mg"},{"bike_id":"480f6b23-42ff-4c1c-be0d-4454466b743a","system_id":"levelo_inurba_marseille","lat":43.29422,"lon":5.38617,"is_reserved":false,"is_disabled":false,"rental_uris":{"android":"levelo://app?vid=480f6b23-42ff-4c1c-be0d-4454466b743a","ios":"levelo://app?vid=480f6b23-42ff-4c1c-be0d-4454466b743a"},"vehicle_type_id":"4","last_reported":1719000559,"current_range_meters":3600,"station_id":"ce4bh2h2rcd13ifvqdh0","pricing_plan_id":"cebpf4jnsgd1na2vs0mg"},{"bike_id":"0034413c-fc3e-4e4b-9241-97db948ad16f","system_id":"levelo_inurba_marseille","lat":43.29422,"lon":5.38618,"is_reserved":false,"is_disabled":false,"rental_uris":{"android":"levelo://app?vid=0034413c-fc3e-4e4b-9241-97db948ad16f","ios":"levelo://app?vid=0034413c-fc3e-4e4b-9241-97db948ad16f"},"vehicle_type_id":"4","last_reported":1719000559,"current_range_meters":10400,"station_id":"ce4bh2h2rcd13ifvqdh0","pricing_plan_id":"cebpf4jnsgd1na2vs0mg"},{"bike_id":"952847a7-4492-4bc3-ae07-bb8ea42b91c2","system_id":"levelo_inurba_marseille","lat":43.29421,"lon":5.38617,"is_reserved":false,"is_disabled":false,"rental_uris":{"android":"levelo://app?vid=952847a7-4492-4bc3-ae07-bb8ea42b91c2","ios":"levelo://app?vid=952847a7-4492-4bc3-ae07-bb8ea42b91c2"},"vehicle_type_id":"4","last_reported":1719000559,"current_range_meters":28800,"station_id":"ce4bh2h2rcd13ifvqdh0","pricing_plan_id":"cebpf4jnsgd1na2vs0mg"},{"bike_id":"9bf72481-4d31-41ce-bffc-83e793d3c36e","system_id":"levelo_inurba_marseille","lat":43.29422,"lon":5.38619,"is_reserved":false,"is_disabled":false,"rental_uris":{"android":"levelo://app?vid=9bf72481-4d31-41ce-bffc-83e793d3c36e","ios":"levelo://app?vid=9bf72481-4d31-41ce-bffc-83e793d3c36e"},"vehicle_type_id":"4","last_reported":1719000559,"current_range_meters":3600,"station_id":"ce4bh2h2rcd13ifvqdh0","pricing_plan_id":"cebpf4jnsgd1na2vs0mg"},{"bike_id":"cb9a3562-4b9d-4781-ada9-b287e84f73d0","system_id":"levelo_inurba_marseille","lat":43.29419,"lon":5.38614,"is_reserved":false,"is_disabled":false,"rental_uris":{"android":"levelo://app?vid=cb9a3562-4b9d-4781-ada9-b287e84f73d0","ios":"levelo://app?vid=cb9a3562-4b9d-4781-ada9-b287e84f73d0"},"vehicle_type_id":"4","last_reported":1719000559,"current_range_meters":22400,"station_id":"ce4bh2h2rcd13ifvqdh0","pricing_plan_id":"cebpf4jnsgd1na2vs0mg"},{"bike_id":"225ba511-6139-4fdc-8710-119cc897b5ef","system_id":"levelo_inurba_marseille","lat":43.294153,"lon":5.386305,"is_reserved":false,"is_disabled":false,"rental_uris":{"android":"levelo://app?vid=225ba511-6139-4fdc-8710-119cc897b5ef","ios":"levelo://app?vid=225ba511-6139-4fdc-8710-119cc897b5ef"},"vehicle_type_id":"4","last_reported":1719000559,"current_range_meters":31200,"station_id":"ce4bh2h2rcd13ifvqdh0","pricing_plan_id":"cebpf4jnsgd1na2vs0mg"},{"bike_id":"086c8e9d-b2ce-4c9e-ae98-e9a65d2fd10e","system_id":"levelo_inurba_marseille","lat":43.29421,"lon":5.3862,"is_reserved":false,"is_disabled":false,"rental_uris":{"android":"levelo://app?vid=086c8e9d-b2ce-4c9e-ae98-e9a65d2fd10e","ios":"levelo://app?vid=086c8e9d-b2ce-4c9e-ae98-e9a65d2fd10e"},"vehicle_type_id":"4","last_reported":1719000559,"current_range_meters":16000,"station_id":"ce4bh2h2rcd13ifvqdh0","pricing_plan_id":"cebpf4jnsgd1na2vs0mg"},{"bike_id":"f358d95d-c97e-46bc-8633-dc6a25235fe7","system_id":"levelo_inurba_marseille","lat":43.294153,"lon":5.386305,"is_reserved":false,"is_disabled":false,"rental_uris":{"android":"levelo://app?vid=f358d95d-c97e-46bc-8633-dc6a25235fe7","ios":"levelo://app?vid=f358d95d-c97e-46bc-8633-dc6a25235fe7"},"vehicle_type_id":"4","last_reported":1719000559,"current_range_meters":13200,"station_id":"ce4bh2h2rcd13ifvqdh0","pricing_plan_id":"cebpf4jnsgd1na2vs0mg"},{"bike_id":"90f7d7e5-3ec9-4ec7-8ab2-f64f288450f7","system_id":"levelo_inurba_marseille","lat":43.29418,"lon":5.38618,"is_reserved":false,"is_disabled":false,"rental_uris":{"android":"levelo://app?vid=90f7d7e5-3ec9-4ec7-8ab2-f64f288450f7","ios":"levelo://app?vid=90f7d7e5-3ec9-4ec7-8ab2-f64f288450f7"},"vehicle_type_id":"4","last_reported":1719000559,"current_range_meters":800,"station_id":"ce4bh2h2rcd13ifvqdh0","pricing_plan_id":"cebpf4jnsgd1na2vs0mg"},{"bike_id":"f31860b4-e538-452f-a736-5297f55b3708","system_id":"levelo_inurba_marseille","lat":43.29419,"lon":5.3862,"is_reserved":false,"is_disabled":false,"rental_uris":{"android":"levelo://app?vid=f31860b4-e538-452f-a736-5297f55b3708","ios":"levelo://app?vid=f31860b4-e538-452f-a736-5297f55b3708"},"vehicle_type_id":"4","last_reported":1719000559,"current_range_meters":25200,"station_id":"ce4bh2h2rcd13ifvqdh0","pricing_plan_id":"cebpf4jnsgd1na2vs0mg"},{"bike_id":"32b4c9fa-eeaf-423b-8045-2666c2976b80","system_id":"levelo_inurba_marseille","lat":43.29425,"lon":5.386309,"is_reserved":false,"is_disabled":false,"rental_uris":{"android":"levelo://app?vid=32b4c9fa-eeaf-423b-8045-2666c2976b80","ios":"levelo://app?vid=32b4c9fa-eeaf-423b-8045-2666c2976b80"},"vehicle_type_id":"4","last_reported":1719000559,"current_range_meters":20400,"station_id":"ce4bh2h2rcd13ifvqdh0","pricing_plan_id":"cebpf4jnsgd1na2vs0mg"},{"bike_id":"d361ac5a-c60b-4477-a3d8-8e2b26578312","system_id":"levelo_inurba_marseille","lat":43.29422,"lon":5.38626,"is_reserved":false,"is_disabled":false,"rental_uris":{"android":"levelo://app?vid=d361ac5a-c60b-4477-a3d8-8e2b26578312","ios":"levelo://app?vid=d361ac5a-c60b-4477-a3d8-8e2b26578312"},"vehicle_type_id":"4","last_reported":1719000559,"current_range_meters":25600,"station_id":"ce4bh2h2rcd13ifvqdh0","pricing_plan_id":"cebpf4jnsgd1na2vs0mg"},{"bike_id":"73b79994-5a4f-4c47-acde-3119d26426e4","system_id":"levelo_inurba_marseille","lat":43.29418,"lon":5.3862,"is_reserved":false,"is_disabled":false,"rental_uris":{"android":"levelo://app?vid=73b79994-5a4f-4c47-acde-3119d26426e4","ios":"levelo://app?vid=73b79994-5a4f-4c47-acde-3119d26426e4"},"vehicle_type_id":"4","last_reported":1719000559,"current_range_meters":7600,"station_id":"ce4bh2h2rcd13ifvqdh0","pricing_plan_id":"cebpf4jnsgd1na2vs0mg"},{"bike_id":"6aa14788-bccf-4c6a-9ab2-fdd2439a609e","system_id":"levelo_inurba_marseille","lat":43.29419,"lon":5.38623,"is_reserved":false,"is_disabled":false,"rental_uris":{"android":"levelo://app?vid=6aa14788-bccf-4c6a-9ab2-fdd2439a609e","ios":"levelo://app?vid=6aa14788-bccf-4c6a-9ab2-fdd2439a609e"},"vehicle_type_id":"4","last_reported":1719000559,"current_range_meters":21200,"station_id":"ce4bh2h2rcd13ifvqdh0","pricing_plan_id":"cebpf4jnsgd1na2vs0mg"},{"bike_id":"b19d6a18-fa18-4d00-9d37-ce3527460291","system_id":"levelo_inurba_marseille","lat":43.29414,"lon":5.38614,"is_reserved":false,"is_disabled":false,"rental_uris":{"android":"levelo://app?vid=b19d6a18-fa18-4d00-9d37-ce3527460291","ios":"levelo://app?vid=b19d6a18-fa18-4d00-9d37-ce3527460291"},"vehicle_type_id":"4","last_reported":1719000559,"current_range_meters":15600,"station_id":"ce4bh2h2rcd13ifvqdh0","pricing_plan_id":"cebpf4jnsgd1na2vs0mg"},{"bike_id":"4b22a8e6-6515-4850-9baf-7677429fd364","system_id":"levelo_inurba_marseille","lat":43.290319,"lon":5.375732,"is_reserved":false,"is_disabled":false,"rental_uris":{"android":"levelo://app?vid=4b22a8e6-6515-4850-9baf-7677429fd364","ios":"levelo://app?vid=4b22a8e6-6515-4850-9baf-7677429fd364"},"vehicle_type_id":"4","last_reported":1719000559,"current_range_meters":6000,"station_id":"ce4bh692rcd13ifvqe90","pricing_plan_id":"cebpf4jnsgd1na2vs0mg"},{"bike_id":"85af2f30-cc01-4700-a10a-3b6dd77d6a5d","system_id":"levelo_inurba_marseille","lat":43.29418,"lon":5.38623,"is_reserved":false,"is_disabled":false,"rental_uris":{"android":"levelo://app?vid=85af2f30-cc01-4700-a10a-3b6dd77d6a5d","ios":"levelo://app?vid=85af2f30-cc01-4700-a10a-3b6dd77d6a5d"},"vehicle_type_id":"4","last_reported":1719000559,"current_range_meters":4800,"station_id":"ce4bh2h2rcd13ifvqdh0","pricing_plan_id":"cebpf4jnsgd1na2vs0mg"},{"bike_id":"68d1e58a-632c-4248-a7d1-03a91993b785","system_id":"levelo_inurba_marseille","lat":43.29416,"lon":5.3862,"is_reserved":false,"is_disabled":false,"rental_uris":{"android":"levelo://app?vid=68d1e58a-632c-4248-a7d1-03a91993b785","ios":"levelo://app?vid=68d1e58a-632c-4248-a7d1-03a91993b785"},"vehicle_type_id":"4","last_reported":1719000559,"current_range_meters":4400,"station_id":"ce4bh2h2rcd13ifvqdh0","pricing_plan_id":"cebpf4jnsgd1na2vs0mg"},{"bike_id":"42b981d7-927f-4379-b4ee-1fb780b58734","system_id":"levelo_inurba_marseille","lat":43.2942,"lon":5.38629,"is_reserved":false,"is_disabled":false,"rental_uris":{"android":"levelo://app?vid=42b981d7-927f-4379-b4ee-1fb780b58734","ios":"levelo://app?vid=42b981d7-927f-4379-b4ee-1fb780b58734"},"vehicle_type_id":"4","last_reported":1719000559,"current_range_meters":0,"station_id":"ce4bh2h2rcd13ifvqdh0","pricing_plan_id":"cebpf4jnsgd1na2vs0mg"},{"bike_id":"a7e061e0-2419-494a-a435-dab9772ee7d0","system_id":"levelo_inurba_marseille","lat":43.29417,"lon":5.38624,"is_reserved":false,"is_disabled":false,"rental_uris":{"android":"levelo://app?vid=a7e061e0-2419-494a-a435-dab9772ee7d0","ios":"levelo://app?vid=a7e061e0-2419-494a-a435-dab9772ee7d0"},"vehicle_type_id":"4","last_reported":1719000559,"current_range_meters":7600,"station_id":"ce4bh2h2rcd13ifvqdh0","pricing_plan_id":"cebpf4jnsgd1na2vs0mg"},{"bike_id":"b037e260-a32a-4014-8ab4-d75140054b87","system_id":"levelo_inurba_marseille","lat":43.29419,"lon":5.38628,"is_reserved":false,"is_disabled":false,"rental_uris":{"android":"levelo://app?vid=b037e260-a32a-4014-8ab4-d75140054b87","ios":"levelo://app?vid=b037e260-a32a-4014-8ab4-d75140054b87"},"vehicle_type_id":"4","last_reported":1719000559,"current_range_meters":13200,"station_id":"ce4bh2h2rcd13ifvqdh0","pricing_plan_id":"cebpf4jnsgd1na2vs0mg"},{"bike_id":"81dddc43-1a1e-463e-b5e3-bdae30449428","system_id":"levelo_inurba_marseille","lat":43.294153,"lon":5.386305,"is_reserved":false,"is_disabled":false,"rental_uris":{"android":"levelo://app?vid=81dddc43-1a1e-463e-b5e3-bdae30449428","ios":"levelo://app?vid=81dddc43-1a1e-463e-b5e3-bdae30449428"},"vehicle_type_id":"4","last_reported":1719000559,"current_range_meters":8800,"station_id":"ce4bh2h2rcd13ifvqdh0","pricing_plan_id":"cebpf4jnsgd1na2vs0mg"},{"bike_id":"6ce6c5e0-3166-4bf8-b903-08bdf649a722","system_id":"levelo_inurba_marseille","lat":43.29417,"lon":5.38626,"is_reserved":false,"is_disabled":false,"rental_uris":{"android":"levelo://app?vid=6ce6c5e0-3166-4bf8-b903-08bdf649a722","ios":"levelo://app?vid=6ce6c5e0-3166-4bf8-b903-08bdf649a722"},"vehicle_type_id":"4","last_reported":1719000559,"current_range_meters":31200,"station_id":"ce4bh2h2rcd13ifvqdh0","pricing_plan_id":"cebpf4jnsgd1na2vs0mg"},{"bike_id":"e9c214bd-25cf-41e7-aa9e-592a2d460c70","system_id":"levelo_inurba_marseille","lat":43.29419,"lon":5.3863,"is_reserved":false,"is_disabled":false,"rental_uris":{"android":"levelo://app?vid=e9c214bd-25cf-41e7-aa9e-592a2d460c70","ios":"levelo://app?vid=e9c214bd-25cf-41e7-aa9e-592a2d460c70"},"vehicle_type_id":"4","last_reported":1719000559,"current_range_meters":17600,"station_id":"ce4bh2h2rcd13ifvqdh0","pricing_plan_id":"cebpf4jnsgd1na2vs0mg"},{"bike_id":"693e297b-85e7-4bc0-9904-91a4580da074","system_id":"levelo_inurba_marseille","lat":43.29415,"lon":5.38623,"is_reserved":false,"is_disabled":false,"rental_uris":{"android":"levelo://app?vid=693e297b-85e7-4bc0-9904-91a4580da074","ios":"levelo://app?vid=693e297b-85e7-4bc0-9904-91a4580da074"},"vehicle_type_id":"4","last_reported":1719000559,"current_range_meters":0,"station_id":"ce4bh2h2rcd13ifvqdh0","pricing_plan_id":"cebpf4jnsgd1na2vs0mg"},{"bike_id":"c0e72eb5-220d-47bf-8f31-e0ca8fde9184","system_id":"levelo_inurba_marseille","lat":43.294162,"lon":5.386292,"is_reserved":false,"is_disabled":false,"rental_uris":{"android":"levelo://app?vid=c0e72eb5-220d-47bf-8f31-e0ca8fde9184","ios":"levelo://app?vid=c0e72eb5-220d-47bf-8f31-e0ca8fde9184"},"vehicle_type_id":"4","last_reported":1719000559,"current_range_meters":29600,"station_id":"ce4bh2h2rcd13ifvqdh0","pricing_plan_id":"cebpf4jnsgd1na2vs0mg"},{"bike_id":"2df616d2-a6d3-40bb-90a6-a9c63d2b51a3","system_id":"levelo_inurba_marseille","lat":43.29415,"lon":5.38624,"is_reserved":false,"is_disabled":false,"rental_uris":{"android":"levelo://app?vid=2df616d2-a6d3-40bb-90a6-a9c63d2b51a3","ios":"levelo://app?vid=2df616d2-a6d3-40bb-90a6-a9c63d2b51a3"},"vehicle_type_id":"4","last_reported":1719000559,"current_range_meters":31600,"station_id":"ce4bh2h2rcd13ifvqdh0","pricing_plan_id":"cebpf4jnsgd1na2vs0mg"},{"bike_id":"b05386ec-1dc8-409b-a6d4-f5daa98a6510","system_id":"levelo_inurba_marseille","lat":43.294161,"lon":5.386261,"is_reserved":false,"is_disabled":false,"rental_uris":{"android":"levelo://app?vid=b05386ec-1dc8-409b-a6d4-f5daa98a6510","ios":"levelo://app?vid=b05386ec-1dc8-409b-a6d4-f5daa98a6510"},"vehicle_type_id":"4","last_reported":1719000559,"current_range_meters":23600,"station_id":"ce4bh2h2rcd13ifvqdh0","pricing_plan_id":"cebpf4jnsgd1na2vs0mg"},{"bike_id":"1dd52819-3853-4c45-bd3e-40cb81e92539","system_id":"levelo_inurba_marseille","lat":43.29413,"lon":5.38622,"is_reserved":false,"is_disabled":false,"rental_uris":{"android":"levelo://app?vid=1dd52819-3853-4c45-bd3e-40cb81e92539","ios":"levelo://app?vid=1dd52819-3853-4c45-bd3e-40cb81e92539"},"vehicle_type_id":"4","last_reported":1719000559,"current_range_meters":4000,"station_id":"ce4bh2h2rcd13ifvqdh0","pricing_plan_id":"cebpf4jnsgd1na2vs0mg"},{"bike_id":"3feef793-087d-4c67-9be6-4a85699f28ba","system_id":"levelo_inurba_marseille","lat":43.29416,"lon":5.3863,"is_reserved":false,"is_disabled":false,"rental_uris":{"android":"levelo://app?vid=3feef793-087d-4c67-9be6-4a85699f28ba","ios":"levelo://app?vid=3feef793-087d-4c67-9be6-4a85699f28ba"},"vehicle_type_id":"4","last_reported":1719000559,"current_range_meters":26000,"station_id":"ce4bh2h2rcd13ifvqdh0","pricing_plan_id":"cebpf4jnsgd1na2vs0mg"},{"bike_id":"2dd21fd1-2104-4ff1-bf4e-c73857d89132","system_id":"levelo_inurba_marseille","lat":43.28942,"lon":5.36633,"is_reserved":false,"is_disabled":false,"rental_uris":{"android":"levelo://app?vid=2dd21fd1-2104-4ff1-bf4e-c73857d89132","ios":"levelo://app?vid=2dd21fd1-2104-4ff1-bf4e-c73857d89132"},"vehicle_type_id":"4","last_reported":1719000559,"current_range_meters":0,"station_id":"ce4bhap2rcd13ifvqek0","pricing_plan_id":"cebpf4jnsgd1na2vs0mg"},{"bike_id":"d2a3df0f-acad-4032-8d86-37c7c567d3ed","system_id":"levelo_inurba_marseille","lat":43.29412,"lon":5.38623,"is_reserved":false,"is_disabled":false,"rental_uris":{"android":"levelo://app?vid=d2a3df0f-acad-4032-8d86-37c7c567d3ed","ios":"levelo://app?vid=d2a3df0f-acad-4032-8d86-37c7c567d3ed"},"vehicle_type_id":"4","last_reported":1719000559,"current_range_meters":8800,"station_id":"ce4bh2h2rcd13ifvqdh0","pricing_plan_id":"cebpf4jnsgd1na2vs0mg"},{"bike_id":"1c048c9f-9eb0-42c2-a5ac-bde34891858b","system_id":"levelo_inurba_marseille","lat":43.29413,"lon":5.38627,"is_reserved":false,"is_disabled":false,"rental_uris":{"android":"levelo://app?vid=1c048c9f-9eb0-42c2-a5ac-bde34891858b","ios":"levelo://app?vid=1c048c9f-9eb0-42c2-a5ac-bde34891858b"},"vehicle_type_id":"4","last_reported":1719000559,"current_range_meters":31200,"station_id":"ce4bh2h2rcd13ifvqdh0","pricing_plan_id":"cebpf4jnsgd1na2vs0mg"},{"bike_id":"999aa994-3951-4c9d-b8ac-4f34b8071292","system_id":"levelo_inurba_marseille","lat":43.29408,"lon":5.38621,"is_reserved":false,"is_disabled":false,"rental_uris":{"android":"levelo://app?vid=999aa994-3951-4c9d-b8ac-4f34b8071292","ios":"levelo://app?vid=999aa994-3951-4c9d-b8ac-4f34b8071292"},"vehicle_type_id":"4","last_reported":1719000559,"current_range_meters":6800,"station_id":"ce4bh2h2rcd13ifvqdh0","pricing_plan_id":"cebpf4jnsgd1na2vs0mg"},{"bike_id":"a23f753c-a2fd-4ba0-a679-0fe1698ca3a1","system_id":"levelo_inurba_marseille","lat":43.292642,"lon":5.384254,"is_reserved":false,"is_disabled":false,"rental_uris":{"android":"levelo://app?vid=a23f753c-a2fd-4ba0-a679-0fe1698ca3a1","ios":"levelo://app?vid=a23f753c-a2fd-4ba0-a679-0fe1698ca3a1"},"vehicle_type_id":"4","last_reported":1719000559,"current_range_meters":5200,"station_id":"ce4bh692rcd13ifvqea0","pricing_plan_id":"cebpf4jnsgd1na2vs0mg"},{"bike_id":"32988daf-4148-4cb0-9177-d6a855557b42","system_id":"levelo_inurba_marseille","lat":43.304274,"lon":5.397513,"is_reserved":false,"is_disabled":false,"rental_uris":{"android":"levelo://app?vid=32988daf-4148-4cb0-9177-d6a855557b42","ios":"levelo://app?vid=32988daf-4148-4cb0-9177-d6a855557b42"},"vehicle_type_id":"4","last_reported":1719000559,"current_range_meters":14000,"station_id":"ce4bh092rcd13ifvqd20","pricing_plan_id":"cebpf4jnsgd1na2vs0mg"},{"bike_id":"ef656e04-a6d1-4312-8604-386863d6f5c8","system_id":"levelo_inurba_marseille","lat":43.29269,"lon":5.38434,"is_reserved":false,"is_disabled":false,"rental_uris":{"android":"levelo://app?vid=ef656e04-a6d1-4312-8604-386863d6f5c8","ios":"levelo://app?vid=ef656e04-a6d1-4312-8604-386863d6f5c8"},"vehicle_type_id":"4","last_reported":1719000559,"current_range_meters":30400,"station_id":"ce4bh692rcd13ifvqea0","pricing_plan_id":"cebpf4jnsgd1na2vs0mg"},{"bike_id":"3406ab01-04b2-447f-ac6d-4745c74ce1d8","system_id":"levelo_inurba_marseille","lat":43.292714,"lon":5.384448,"is_reserved":false,"is_disabled":false,"rental_uris":{"android":"levelo://app?vid=3406ab01-04b2-447f-ac6d-4745c74ce1d8","ios":"levelo://app?vid=3406ab01-04b2-447f-ac6d-4745c74ce1d8"},"vehicle_type_id":"4","last_reported":1719000559,"current_range_meters":6400,"station_id":"ce4bh692rcd13ifvqea0","pricing_plan_id":"cebpf4jnsgd1na2vs0mg"},{"bike_id":"d18c6f59-af7e-4f03-bc20-dd14e24656a3","system_id":"levelo_inurba_marseille","lat":43.292587,"lon":5.38422,"is_reserved":false,"is_disabled":false,"rental_uris":{"android":"levelo://app?vid=d18c6f59-af7e-4f03-bc20-dd14e24656a3","ios":"levelo://app?vid=d18c6f59-af7e-4f03-bc20-dd14e24656a3"},"vehicle_type_id":"4","last_reported":1719000559,"current_range_meters":6800,"station_id":"ce4bh692rcd13ifvqea0","pricing_plan_id":"cebpf4jnsgd1na2vs0mg"},{"bike_id":"95cb4976-73cb-4503-a0d3-6be571369b01","system_id":"levelo_inurba_marseille","lat":43.292642,"lon":5.384254,"is_reserved":false,"is_disabled":false,"rental_uris":{"android":"levelo://app?vid=95cb4976-73cb-4503-a0d3-6be571369b01","ios":"levelo://app?vid=95cb4976-73cb-4503-a0d3-6be571369b01"},"vehicle_type_id":"4","last_reported":1719000559,"current_range_meters":30400,"station_id":"ce4bh692rcd13ifvqea0","pricing_plan_id":"cebpf4jnsgd1na2vs0mg"},{"bike_id":"dbec2fb8-35b2-44db-857d-c9888742a9bc","system_id":"levelo_inurba_marseille","lat":43.29271,"lon":5.38449,"is_reserved":false,"is_disabled":false,"rental_uris":{"android":"levelo://app?vid=dbec2fb8-35b2-44db-857d-c9888742a9bc","ios":"levelo://app?vid=dbec2fb8-35b2-44db-857d-c9888742a9bc"},"vehicle_type_id":"4","last_reported":1719000559,"current_range_meters":2400,"station_id":"ce4bh692rcd13ifvqea0","pricing_plan_id":"cebpf4jnsgd1na2vs0mg"},{"bike_id":"005026c8-0d04-4e62-bb58-725069a53a1e","system_id":"levelo_inurba_marseille","lat":43.292642,"lon":5.384254,"is_reserved":false,"is_disabled":false,"rental_uris":{"android":"levelo://app?vid=005026c8-0d04-4e62-bb58-725069a53a1e","ios":"levelo://app?vid=005026c8-0d04-4e62-bb58-725069a53a1e"},"vehicle_type_id":"4","last_reported":1719000559,"current_range_meters":16800,"station_id":"ce4bh692rcd13ifvqea0","pricing_plan_id":"cebpf4jnsgd1na2vs0mg"},{"bike_id":"2b70adbf-5ab3-485f-815e-1f1bf438e103","system_id":"levelo_inurba_marseille","lat":43.29264,"lon":5.38435,"is_reserved":false,"is_disabled":false,"rental_uris":{"android":"levelo://app?vid=2b70adbf-5ab3-485f-815e-1f1bf438e103","ios":"levelo://app?vid=2b70adbf-5ab3-485f-815e-1f1bf438e103"},"vehicle_type_id":"4","last_reported":1719000559,"current_range_meters":23600,"station_id":"ce4bh692rcd13ifvqea0","pricing_plan_id":"cebpf4jnsgd1na2vs0mg"},{"bike_id":"9a0e23b8-8e85-4409-be31-34497de02484","system_id":"levelo_inurba_marseille","lat":43.292642,"lon":5.384254,"is_reserved":false,"is_disabled":false,"rental_uris":{"android":"levelo://app?vid=9a0e23b8-8e85-4409-be31-34497de02484","ios":"levelo://app?vid=9a0e23b8-8e85-4409-be31-34497de02484"},"vehicle_type_id":"4","last_reported":1719000559,"current_range_meters":16000,"station_id":"ce4bh692rcd13ifvqea0","pricing_plan_id":"cebpf4jnsgd1na2vs0mg"},{"bike_id":"c75b6c09-c863-44d9-91f6-b73ac29b03b6","system_id":"levelo_inurba_marseille","lat":43.29266,"lon":5.3844,"is_reserved":false,"is_disabled":false,"rental_uris":{"android":"levelo://app?vid=c75b6c09-c863-44d9-91f6-b73ac29b03b6","ios":"levelo://app?vid=c75b6c09-c863-44d9-91f6-b73ac29b03b6"},"vehicle_type_id":"4","last_reported":1719000559,"current_range_meters":4800,"station_id":"ce4bh692rcd13ifvqea0","pricing_plan_id":"cebpf4jnsgd1na2vs0mg"},{"bike_id":"489511f9-1712-4957-b959-96a7ad7e5f95","system_id":"levelo_inurba_marseille","lat":43.292644,"lon":5.384257,"is_reserved":false,"is_disabled":false,"rental_uris":{"android":"levelo://app?vid=489511f9-1712-4957-b959-96a7ad7e5f95","ios":"levelo://app?vid=489511f9-1712-4957-b959-96a7ad7e5f95"},"vehicle_type_id":"4","last_reported":1719000559,"current_range_meters":6000,"station_id":"ce4bh692rcd13ifvqea0","pricing_plan_id":"cebpf4jnsgd1na2vs0mg"},{"bike_id":"786beef9-b881-4745-911b-288fd02c8b58","system_id":"levelo_inurba_marseille","lat":43.29263,"lon":5.38436,"is_reserved":false,"is_disabled":false,"rental_uris":{"android":"levelo://app?vid=786beef9-b881-4745-911b-288fd02c8b58","ios":"levelo://app?vid=786beef9-b881-4745-911b-288fd02c8b58"},"vehicle_type_id":"4","last_reported":1719000559,"current_range_meters":4000,"station_id":"ce4bh692rcd13ifvqea0","pricing_plan_id":"cebpf4jnsgd1na2vs0mg"},{"bike_id":"2ab98eea-089d-4d2e-8b2e-d7324e0ae66c","system_id":"levelo_inurba_marseille","lat":43.29259,"lon":5.38428,"is_reserved":false,"is_disabled":false,"rental_uris":{"android":"levelo://app?vid=2ab98eea-089d-4d2e-8b2e-d7324e0ae66c","ios":"levelo://app?vid=2ab98eea-089d-4d2e-8b2e-d7324e0ae66c"},"vehicle_type_id":"4","last_reported":1719000559,"current_range_meters":28000,"station_id":"ce4bh692rcd13ifvqea0","pricing_plan_id":"cebpf4jnsgd1na2vs0mg"},{"bike_id":"6ec01b67-9470-4571-96b7-fb3571f583ce","system_id":"levelo_inurba_marseille","lat":43.29263,"lon":5.38437,"is_reserved":false,"is_disabled":false,"rental_uris":{"android":"levelo://app?vid=6ec01b67-9470-4571-96b7-fb3571f583ce","ios":"levelo://app?vid=6ec01b67-9470-4571-96b7-fb3571f583ce"},"vehicle_type_id":"4","last_reported":1719000559,"current_range_meters":23600,"station_id":"ce4bh692rcd13ifvqea0","pricing_plan_id":"cebpf4jnsgd1na2vs0mg"},{"bike_id":"013dcf6d-6a84-442d-9d53-d0c4faa03d85","system_id":"levelo_inurba_marseille","lat":43.29263,"lon":5.38437,"is_reserved":false,"is_disabled":false,"rental_uris":{"android":"levelo://app?vid=013dcf6d-6a84-442d-9d53-d0c4faa03d85","ios":"levelo://app?vid=013dcf6d-6a84-442d-9d53-d0c4faa03d85"},"vehicle_type_id":"4","last_reported":1719000559,"current_range_meters":13600,"station_id":"ce4bh692rcd13ifvqea0","pricing_plan_id":"cebpf4jnsgd1na2vs0mg"},{"bike_id":"7fb4ca90-c7f5-4442-b8d2-a89ce3cdb669","system_id":"levelo_inurba_marseille","lat":43.29266,"lon":5.38445,"is_reserved":false,"is_disabled":false,"rental_uris":{"android":"levelo://app?vid=7fb4ca90-c7f5-4442-b8d2-a89ce3cdb669","ios":"levelo://app?vid=7fb4ca90-c7f5-4442-b8d2-a89ce3cdb669"},"vehicle_type_id":"4","last_reported":1719000559,"current_range_meters":22000,"station_id":"ce4bh692rcd13ifvqea0","pricing_plan_id":"cebpf4jnsgd1na2vs0mg"},{"bike_id":"844ec1d8-d39f-47ae-b7d8-35e739596a4f","system_id":"levelo_inurba_marseille","lat":43.292644,"lon":5.384257,"is_reserved":false,"is_disabled":false,"rental_uris":{"android":"levelo://app?vid=844ec1d8-d39f-47ae-b7d8-35e739596a4f","ios":"levelo://app?vid=844ec1d8-d39f-47ae-b7d8-35e739596a4f"},"vehicle_type_id":"4","last_reported":1719000559,"current_range_meters":24000,"station_id":"ce4bh692rcd13ifvqea0","pricing_plan_id":"cebpf4jnsgd1na2vs0mg"},{"bike_id":"c6ee741a-feac-44b9-99ac-b891b6c28c72","system_id":"levelo_inurba_marseille","lat":43.292642,"lon":5.384254,"is_reserved":false,"is_disabled":false,"rental_uris":{"android":"levelo://app?vid=c6ee741a-feac-44b9-99ac-b891b6c28c72","ios":"levelo://app?vid=c6ee741a-feac-44b9-99ac-b891b6c28c72"},"vehicle_type_id":"4","last_reported":1719000559,"current_range_meters":6400,"station_id":"ce4bh692rcd13ifvqea0","pricing_plan_id":"cebpf4jnsgd1na2vs0mg"},{"bike_id":"501a18ba-a76e-4c44-83db-8e196aac9f0b","system_id":"levelo_inurba_marseille","lat":43.29262,"lon":5.3844,"is_reserved":false,"is_disabled":false,"rental_uris":{"android":"levelo://app?vid=501a18ba-a76e-4c44-83db-8e196aac9f0b","ios":"levelo://app?vid=501a18ba-a76e-4c44-83db-8e196aac9f0b"},"vehicle_type_id":"4","last_reported":1719000559,"current_range_meters":13200,"station_id":"ce4bh692rcd13ifvqea0","pricing_plan_id":"cebpf4jnsgd1na2vs0mg"},{"bike_id":"6a2e00b6-7eb1-4bc3-8c1b-10405b4b69eb","system_id":"levelo_inurba_marseille","lat":43.292613,"lon":5.384397,"is_reserved":false,"is_disabled":false,"rental_uris":{"android":"levelo://app?vid=6a2e00b6-7eb1-4bc3-8c1b-10405b4b69eb","ios":"levelo://app?vid=6a2e00b6-7eb1-4bc3-8c1b-10405b4b69eb"},"vehicle_type_id":"4","last_reported":1719000559,"current_range_meters":4400,"station_id":"ce4bh692rcd13ifvqea0","pricing_plan_id":"cebpf4jnsgd1na2vs0mg"},{"bike_id":"d9bfd3e4-7708-43ba-9b7b-69fc5379b291","system_id":"levelo_inurba_marseille","lat":43.292642,"lon":5.384254,"is_reserved":false,"is_disabled":false,"rental_uris":{"android":"levelo://app?vid=d9bfd3e4-7708-43ba-9b7b-69fc5379b291","ios":"levelo://app?vid=d9bfd3e4-7708-43ba-9b7b-69fc5379b291"},"vehicle_type_id":"4","last_reported":1719000559,"current_range_meters":16000,"station_id":"ce4bh692rcd13ifvqea0","pricing_plan_id":"cebpf4jnsgd1na2vs0mg"},{"bike_id":"aa3edfd2-e8ab-4fe8-9709-4be997737a25","system_id":"levelo_inurba_marseille","lat":43.292605,"lon":5.38439,"is_reserved":false,"is_disabled":false,"rental_uris":{"android":"levelo://app?vid=aa3edfd2-e8ab-4fe8-9709-4be997737a25","ios":"levelo://app?vid=aa3edfd2-e8ab-4fe8-9709-4be997737a25"},"vehicle_type_id":"4","last_reported":1719000559,"current_range_meters":17200,"station_id":"ce4bh692rcd13ifvqea0","pricing_plan_id":"cebpf4jnsgd1na2vs0mg"},{"bike_id":"7615ebb7-c5a8-4305-b835-f2c50c1b44a3","system_id":"levelo_inurba_marseille","lat":43.29261,"lon":5.38442,"is_reserved":false,"is_disabled":false,"rental_uris":{"android":"levelo://app?vid=7615ebb7-c5a8-4305-b835-f2c50c1b44a3","ios":"levelo://app?vid=7615ebb7-c5a8-4305-b835-f2c50c1b44a3"},"vehicle_type_id":"4","last_reported":1719000559,"current_range_meters":18400,"station_id":"ce4bh692rcd13ifvqea0","pricing_plan_id":"cebpf4jnsgd1na2vs0mg"},{"bike_id":"b9fff1e0-04ce-493e-b698-384bec72b204","system_id":"levelo_inurba_marseille","lat":43.292642,"lon":5.384254,"is_reserved":false,"is_disabled":false,"rental_uris":{"android":"levelo://app?vid=b9fff1e0-04ce-493e-b698-384bec72b204","ios":"levelo://app?vid=b9fff1e0-04ce-493e-b698-384bec72b204"},"vehicle_type_id":"4","last_reported":1719000559,"current_range_meters":19200,"station_id":"ce4bh692rcd13ifvqea0","pricing_plan_id":"cebpf4jnsgd1na2vs0mg"},{"bike_id":"66142ebd-8997-4faf-835f-5a06e60f6fcc","system_id":"levelo_inurba_marseille","lat":43.29262,"lon":5.38445,"is_reserved":false,"is_disabled":false,"rental_uris":{"android":"levelo://app?vid=66142ebd-8997-4faf-835f-5a06e60f6fcc","ios":"levelo://app?vid=66142ebd-8997-4faf-835f-5a06e60f6fcc"},"vehicle_type_id":"4","last_reported":1719000559,"current_range_meters":31200,"station_id":"ce4bh692rcd13ifvqea0","pricing_plan_id":"cebpf4jnsgd1na2vs0mg"},{"bike_id":"c83a2627-fa02-44fd-8fa2-e4c062ff2cbe","system_id":"levelo_inurba_marseille","lat":43.29257,"lon":5.38437,"is_reserved":false,"is_disabled":false,"rental_uris":{"android":"levelo://app?vid=c83a2627-fa02-44fd-8fa2-e4c062ff2cbe","ios":"levelo://app?vid=c83a2627-fa02-44fd-8fa2-e4c062ff2cbe"},"vehicle_type_id":"4","last_reported":1719000559,"current_range_meters":7200,"station_id":"ce4bh692rcd13ifvqea0","pricing_plan_id":"cebpf4jnsgd1na2vs0mg"},{"bike_id":"a527abac-2e6d-4190-968c-3516248c8f20","system_id":"levelo_inurba_marseille","lat":43.29259,"lon":5.38442,"is_reserved":false,"is_disabled":false,"rental_uris":{"android":"levelo://app?vid=a527abac-2e6d-4190-968c-3516248c8f20","ios":"levelo://app?vid=a527abac-2e6d-4190-968c-3516248c8f20"},"vehicle_type_id":"4","last_reported":1719000559,"current_range_meters":800,"station_id":"ce4bh692rcd13ifvqea0","pricing_plan_id":"cebpf4jnsgd1na2vs0mg"},{"bike_id":"e82f3c42-67c1-47ab-a593-26993cef4d97","system_id":"levelo_inurba_marseille","lat":43.292642,"lon":5.384254,"is_reserved":false,"is_disabled":false,"rental_uris":{"android":"levelo://app?vid=e82f3c42-67c1-47ab-a593-26993cef4d97","ios":"levelo://app?vid=e82f3c42-67c1-47ab-a593-26993cef4d97"},"vehicle_type_id":"4","last_reported":1719000559,"current_range_meters":2000,"station_id":"ce4bh692rcd13ifvqea0","pricing_plan_id":"cebpf4jnsgd1na2vs0mg"},{"bike_id":"bf7e0889-d8db-4385-8837-7db81f9f2fd9","system_id":"levelo_inurba_marseille","lat":43.292439,"lon":5.384101,"is_reserved":false,"is_disabled":false,"rental_uris":{"android":"levelo://app?vid=bf7e0889-d8db-4385-8837-7db81f9f2fd9","ios":"levelo://app?vid=bf7e0889-d8db-4385-8837-7db81f9f2fd9"},"vehicle_type_id":"4","last_reported":1719000559,"current_range_meters":21600,"station_id":"ce4bh692rcd13ifvqea0","pricing_plan_id":"cebpf4jnsgd1na2vs0mg"},{"bike_id":"73850747-512e-410d-8460-13e2626c11f9","system_id":"levelo_inurba_marseille","lat":43.292582,"lon":5.384432,"is_reserved":false,"is_disabled":false,"rental_uris":{"android":"levelo://app?vid=73850747-512e-410d-8460-13e2626c11f9","ios":"levelo://app?vid=73850747-512e-410d-8460-13e2626c11f9"},"vehicle_type_id":"4","last_reported":1719000559,"current_range_meters":24000,"station_id":"ce4bh692rcd13ifvqea0","pricing_plan_id":"cebpf4jnsgd1na2vs0mg"},{"bike_id":"679871e8-2c30-42cf-8998-780f3603910a","system_id":"levelo_inurba_marseille","lat":43.2926,"lon":5.38448,"is_reserved":false,"is_disabled":false,"rental_uris":{"android":"levelo://app?vid=679871e8-2c30-42cf-8998-780f3603910a","ios":"levelo://app?vid=679871e8-2c30-42cf-8998-780f3603910a"},"vehicle_type_id":"4","last_reported":1719000559,"current_range_meters":27600,"station_id":"ce4bh692rcd13ifvqea0","pricing_plan_id":"cebpf4jnsgd1na2vs0mg"},{"bike_id":"12d1e1ae-54da-4fd3-af8c-17884bc3afa0","system_id":"levelo_inurba_marseille","lat":43.29254,"lon":5.38439,"is_reserved":false,"is_disabled":false,"rental_uris":{"android":"levelo://app?vid=12d1e1ae-54da-4fd3-af8c-17884bc3afa0","ios":"levelo://app?vid=12d1e1ae-54da-4fd3-af8c-17884bc3afa0"},"vehicle_type_id":"4","last_reported":1719000559,"current_range_meters":30000,"station_id":"ce4bh692rcd13ifvqea0","pricing_plan_id":"cebpf4jnsgd1na2vs0mg"},{"bike_id":"0ae7750b-8c9a-44fb-a037-1c457438f7a7","system_id":"levelo_inurba_marseille","lat":43.292644,"lon":5.384257,"is_reserved":false,"is_disabled":false,"rental_uris":{"android":"levelo://app?vid=0ae7750b-8c9a-44fb-a037-1c457438f7a7","ios":"levelo://app?vid=0ae7750b-8c9a-44fb-a037-1c457438f7a7"},"vehicle_type_id":"4","last_reported":1719000559,"current_range_meters":2800,"station_id":"ce4bh692rcd13ifvqea0","pricing_plan_id":"cebpf4jnsgd1na2vs0mg"},{"bike_id":"3f4dba2a-9019-4574-a042-54fb9131eef9","system_id":"levelo_inurba_marseille","lat":43.289468,"lon":5.363719,"is_reserved":false,"is_disabled":false,"rental_uris":{"android":"levelo://app?vid=3f4dba2a-9019-4574-a042-54fb9131eef9","ios":"levelo://app?vid=3f4dba2a-9019-4574-a042-54fb9131eef9"},"vehicle_type_id":"4","last_reported":1719000559,"current_range_meters":4800,"station_id":"ce4bhc92rcd13ifvqetg","pricing_plan_id":"cebpf4jnsgd1na2vs0mg"},{"bike_id":"5819bdce-8c53-49d7-97aa-35f891921cf6","system_id":"levelo_inurba_marseille","lat":43.289307,"lon":5.38406,"is_reserved":false,"is_disabled":false,"rental_uris":{"android":"levelo://app?vid=5819bdce-8c53-49d7-97aa-35f891921cf6","ios":"levelo://app?vid=5819bdce-8c53-49d7-97aa-35f891921cf6"},"vehicle_type_id":"4","last_reported":1719000559,"current_range_meters":0,"station_id":"ce4bh612rcd13ifvqe6g","pricing_plan_id":"cebpf4jnsgd1na2vs0mg"},{"bike_id":"d5712ac3-8b93-47d4-9f9c-f031190ae1ed","system_id":"levelo_inurba_marseille","lat":43.290988,"lon":5.381269,"is_reserved":false,"is_disabled":false,"rental_uris":{"android":"levelo://app?vid=d5712ac3-8b93-47d4-9f9c-f031190ae1ed","ios":"levelo://app?vid=d5712ac3-8b93-47d4-9f9c-f031190ae1ed"},"vehicle_type_id":"4","last_reported":1719000559,"current_range_meters":0,"station_id":"ce4bh512rcd13ifvqe2g","pricing_plan_id":"cebpf4jnsgd1na2vs0mg"},{"bike_id":"4f70b162-1264-4526-9829-b5b68ed037a1","system_id":"levelo_inurba_marseille","lat":43.290995,"lon":5.381361,"is_reserved":false,"is_disabled":false,"rental_uris":{"android":"levelo://app?vid=4f70b162-1264-4526-9829-b5b68ed037a1","ios":"levelo://app?vid=4f70b162-1264-4526-9829-b5b68ed037a1"},"vehicle_type_id":"4","last_reported":1719000559,"current_range_meters":30400,"station_id":"ce4bh512rcd13ifvqe2g","pricing_plan_id":"cebpf4jnsgd1na2vs0mg"},{"bike_id":"c781adbe-ac01-40fc-ae24-a4fa4e7e6699","system_id":"levelo_inurba_marseille","lat":43.29095,"lon":5.38129,"is_reserved":false,"is_disabled":false,"rental_uris":{"android":"levelo://app?vid=c781adbe-ac01-40fc-ae24-a4fa4e7e6699","ios":"levelo://app?vid=c781adbe-ac01-40fc-ae24-a4fa4e7e6699"},"vehicle_type_id":"4","last_reported":1719000559,"current_range_meters":0,"station_id":"ce4bh512rcd13ifvqe2g","pricing_plan_id":"cebpf4jnsgd1na2vs0mg"},{"bike_id":"b9f1a866-56b0-42f8-af43-b5069abc11f3","system_id":"levelo_inurba_marseille","lat":43.290995,"lon":5.381361,"is_reserved":false,"is_disabled":false,"rental_uris":{"android":"levelo://app?vid=b9f1a866-56b0-42f8-af43-b5069abc11f3","ios":"levelo://app?vid=b9f1a866-56b0-42f8-af43-b5069abc11f3"},"vehicle_type_id":"4","last_reported":1719000559,"current_range_meters":0,"station_id":"ce4bh512rcd13ifvqe2g","pricing_plan_id":"cebpf4jnsgd1na2vs0mg"},{"bike_id":"2994925c-5248-4637-a008-0ff0ca958593","system_id":"levelo_inurba_marseille","lat":43.29806,"lon":5.39349,"is_reserved":false,"is_disabled":false,"rental_uris":{"android":"levelo://app?vid=2994925c-5248-4637-a008-0ff0ca958593","ios":"levelo://app?vid=2994925c-5248-4637-a008-0ff0ca958593"},"vehicle_type_id":"4","last_reported":1719000559,"current_range_meters":0,"station_id":"chh1huq6cuj3fo74tm60","pricing_plan_id":"cebpf4jnsgd1na2vs0mg"},{"bike_id":"5c83ab4a-95d7-4ca7-a91f-00fa9f68c8ba","system_id":"levelo_inurba_marseille","lat":43.29789,"lon":5.39342,"is_reserved":false,"is_disabled":false,"rental_uris":{"android":"levelo://app?vid=5c83ab4a-95d7-4ca7-a91f-00fa9f68c8ba","ios":"levelo://app?vid=5c83ab4a-95d7-4ca7-a91f-00fa9f68c8ba"},"vehicle_type_id":"4","last_reported":1719000559,"current_range_meters":18800,"station_id":"chh1huq6cuj3fo74tm60","pricing_plan_id":"cebpf4jnsgd1na2vs0mg"},{"bike_id":"1d52fef8-e40a-464c-acf5-7497976458c0","system_id":"levelo_inurba_marseille","lat":43.29523,"lon":5.39034,"is_reserved":false,"is_disabled":false,"rental_uris":{"android":"levelo://app?vid=1d52fef8-e40a-464c-acf5-7497976458c0","ios":"levelo://app?vid=1d52fef8-e40a-464c-acf5-7497976458c0"},"vehicle_type_id":"4","last_reported":1719000559,"current_range_meters":29600,"station_id":"ce4bh3p2rcd13ifvqdp0","pricing_plan_id":"cebpf4jnsgd1na2vs0mg"},{"bike_id":"de33b865-370a-490a-8a6b-0e9dec0d3084","system_id":"levelo_inurba_marseille","lat":43.33025,"lon":5.39046,"is_reserved":false,"is_disabled":false,"rental_uris":{"android":"levelo://app?vid=de33b865-370a-490a-8a6b-0e9dec0d3084","ios":"levelo://app?vid=de33b865-370a-490a-8a6b-0e9dec0d3084"},"vehicle_type_id":"4","last_reported":1719000559,"current_range_meters":0,"station_id":"ce4bhr92rcd13ifvqhrg","pricing_plan_id":"cebpf4jnsgd1na2vs0mg"},{"bike_id":"89be1fdc-b4dd-4929-bb67-87243a1c0241","system_id":"levelo_inurba_marseille","lat":43.310555,"lon":5.40094,"is_reserved":false,"is_disabled":false,"rental_uris":{"android":"levelo://app?vid=89be1fdc-b4dd-4929-bb67-87243a1c0241","ios":"levelo://app?vid=89be1fdc-b4dd-4929-bb67-87243a1c0241"},"vehicle_type_id":"4","last_reported":1719000559,"current_range_meters":0,"station_id":"","pricing_plan_id":"cebpf4jnsgd1na2vs0mg"},{"bike_id":"d9cfd4a5-510d-4162-8d65-0a74cb85d5ef","system_id":"levelo_inurba_marseille","lat":43.28856,"lon":5.358371,"is_reserved":false,"is_disabled":false,"rental_uris":{"android":"levelo://app?vid=d9cfd4a5-510d-4162-8d65-0a74cb85d5ef","ios":"levelo://app?vid=d9cfd4a5-510d-4162-8d65-0a74cb85d5ef"},"vehicle_type_id":"4","last_reported":1719000559,"current_range_meters":28000,"station_id":"ce4bhb12rcd13ifvqem0","pricing_plan_id":"cebpf4jnsgd1na2vs0mg"},{"bike_id":"4ed44ccf-c7b7-4117-a149-4c17f86258f1","system_id":"levelo_inurba_marseille","lat":43.312609,"lon":5.401662,"is_reserved":false,"is_disabled":false,"rental_uris":{"android":"levelo://app?vid=4ed44ccf-c7b7-4117-a149-4c17f86258f1","ios":"levelo://app?vid=4ed44ccf-c7b7-4117-a149-4c17f86258f1"},"vehicle_type_id":"4","last_reported":1719000559,"current_range_meters":28400,"station_id":"ce4bh092rcd13ifvqd30","pricing_plan_id":"cebpf4jnsgd1na2vs0mg"},{"bike_id":"05092e03-5cef-41c3-9575-df5db7507ebd","system_id":"levelo_inurba_marseille","lat":43.33739,"lon":5.37464,"is_reserved":false,"is_disabled":false,"rental_uris":{"android":"levelo://app?vid=05092e03-5cef-41c3-9575-df5db7507ebd","ios":"levelo://app?vid=05092e03-5cef-41c3-9575-df5db7507ebd"},"vehicle_type_id":"4","last_reported":1719000559,"current_range_meters":22400,"station_id":"","pricing_plan_id":"cebpf4jnsgd1na2vs0mg"},{"bike_id":"d689a06a-4369-4cef-9754-43dddd10e797","system_id":"levelo_inurba_marseille","lat":43.312609,"lon":5.401662,"is_reserved":false,"is_disabled":false,"rental_uris":{"android":"levelo://app?vid=d689a06a-4369-4cef-9754-43dddd10e797","ios":"levelo://app?vid=d689a06a-4369-4cef-9754-43dddd10e797"},"vehicle_type_id":"4","last_reported":1719000559,"current_range_meters":0,"station_id":"ce4bh092rcd13ifvqd30","pricing_plan_id":"cebpf4jnsgd1na2vs0mg"},{"bike_id":"01c7bf66-d7ae-42dc-87da-ddb8559a66e0","system_id":"levelo_inurba_marseille","lat":43.309371,"lon":5.401449,"is_reserved":false,"is_disabled":false,"rental_uris":{"android":"levelo://app?vid=01c7bf66-d7ae-42dc-87da-ddb8559a66e0","ios":"levelo://app?vid=01c7bf66-d7ae-42dc-87da-ddb8559a66e0"},"vehicle_type_id":"4","last_reported":1719000559,"current_range_meters":7600,"station_id":"ce4bgvp2rcd13ifvqct0","pricing_plan_id":"cebpf4jnsgd1na2vs0mg"},{"bike_id":"db534928-e6a2-47cc-a852-558fe66ed50c","system_id":"levelo_inurba_marseille","lat":43.337444,"lon":5.374659,"is_reserved":false,"is_disabled":false,"rental_uris":{"android":"levelo://app?vid=db534928-e6a2-47cc-a852-558fe66ed50c","ios":"levelo://app?vid=db534928-e6a2-47cc-a852-558fe66ed50c"},"vehicle_type_id":"4","last_reported":1719000559,"current_range_meters":22000,"station_id":"","pricing_plan_id":"cebpf4jnsgd1na2vs0mg"},{"bike_id":"d5826ef6-4757-4c76-8193-cb247f579963","system_id":"levelo_inurba_marseille","lat":43.309371,"lon":5.401449,"is_reserved":false,"is_disabled":false,"rental_uris":{"android":"levelo://app?vid=d5826ef6-4757-4c76-8193-cb247f579963","ios":"levelo://app?vid=d5826ef6-4757-4c76-8193-cb247f579963"},"vehicle_type_id":"4","last_reported":1719000559,"current_range_meters":26400,"station_id":"ce4bgvp2rcd13ifvqct0","pricing_plan_id":"cebpf4jnsgd1na2vs0mg"},{"bike_id":"01318c22-1928-4980-be0f-3524ce832f2c","system_id":"levelo_inurba_marseille","lat":43.29481,"lon":5.391615,"is_reserved":false,"is_disabled":false,"rental_uris":{"android":"levelo://app?vid=01318c22-1928-4980-be0f-3524ce832f2c","ios":"levelo://app?vid=01318c22-1928-4980-be0f-3524ce832f2c"},"vehicle_type_id":"4","last_reported":1719000559,"current_range_meters":25200,"station_id":"","pricing_plan_id":"cebpf4jnsgd1na2vs0mg"},{"bike_id":"0e11bbab-a5d9-4098-a6f1-624d89f27c59","system_id":"levelo_inurba_marseille","lat":43.337572,"lon":5.374546,"is_reserved":false,"is_disabled":false,"rental_uris":{"android":"levelo://app?vid=0e11bbab-a5d9-4098-a6f1-624d89f27c59","ios":"levelo://app?vid=0e11bbab-a5d9-4098-a6f1-624d89f27c59"},"vehicle_type_id":"4","last_reported":1719000559,"current_range_meters":26800,"station_id":"","pricing_plan_id":"cebpf4jnsgd1na2vs0mg"},{"bike_id":"a00c218c-138a-4388-aca4-2952a6961815","system_id":"levelo_inurba_marseille","lat":43.337514,"lon":5.374896,"is_reserved":false,"is_disabled":false,"rental_uris":{"android":"levelo://app?vid=a00c218c-138a-4388-aca4-2952a6961815","ios":"levelo://app?vid=a00c218c-138a-4388-aca4-2952a6961815"},"vehicle_type_id":"4","last_reported":1719000559,"current_range_meters":30000,"station_id":"","pricing_plan_id":"cebpf4jnsgd1na2vs0mg"},{"bike_id":"6e445f2c-ca64-4b5f-91f7-41d553691ea5","system_id":"levelo_inurba_marseille","lat":43.33765,"lon":5.3743,"is_reserved":false,"is_disabled":false,"rental_uris":{"android":"levelo://app?vid=6e445f2c-ca64-4b5f-91f7-41d553691ea5","ios":"levelo://app?vid=6e445f2c-ca64-4b5f-91f7-41d553691ea5"},"vehicle_type_id":"4","last_reported":1719000559,"current_range_meters":30000,"station_id":"","pricing_plan_id":"cebpf4jnsgd1na2vs0mg"},{"bike_id":"c9b66a2b-0639-4d7a-b560-2bf673d8bd00","system_id":"levelo_inurba_marseille","lat":43.33033,"lon":5.39233,"is_reserved":false,"is_disabled":false,"rental_uris":{"android":"levelo://app?vid=c9b66a2b-0639-4d7a-b560-2bf673d8bd00","ios":"levelo://app?vid=c9b66a2b-0639-4d7a-b560-2bf673d8bd00"},"vehicle_type_id":"4","last_reported":1719000559,"current_range_meters":0,"station_id":"","pricing_plan_id":"cebpf4jnsgd1na2vs0mg"},{"bike_id":"e7be790b-07e4-40f3-b60f-da683b157943","system_id":"levelo_inurba_marseille","lat":43.33033,"lon":5.39238,"is_reserved":false,"is_disabled":false,"rental_uris":{"android":"levelo://app?vid=e7be790b-07e4-40f3-b60f-da683b157943","ios":"levelo://app?vid=e7be790b-07e4-40f3-b60f-da683b157943"},"vehicle_type_id":"4","last_reported":1719000559,"current_range_meters":21600,"station_id":"","pricing_plan_id":"cebpf4jnsgd1na2vs0mg"},{"bike_id":"a77bf3f1-dc55-4e35-8fe0-6292cee970ef","system_id":"levelo_inurba_marseille","lat":43.33035,"lon":5.39239,"is_reserved":false,"is_disabled":false,"rental_uris":{"android":"levelo://app?vid=a77bf3f1-dc55-4e35-8fe0-6292cee970ef","ios":"levelo://app?vid=a77bf3f1-dc55-4e35-8fe0-6292cee970ef"},"vehicle_type_id":"4","last_reported":1719000559,"current_range_meters":24400,"station_id":"","pricing_plan_id":"cebpf4jnsgd1na2vs0mg"},{"bike_id":"457259f4-2778-42f8-8372-c6c895d3a51d","system_id":"levelo_inurba_marseille","lat":43.33036,"lon":5.392397,"is_reserved":false,"is_disabled":false,"rental_uris":{"android":"levelo://app?vid=457259f4-2778-42f8-8372-c6c895d3a51d","ios":"levelo://app?vid=457259f4-2778-42f8-8372-c6c895d3a51d"},"vehicle_type_id":"4","last_reported":1719000559,"current_range_meters":12800,"station_id":"","pricing_plan_id":"cebpf4jnsgd1na2vs0mg"},{"bike_id":"84fd7cc4-a62e-44ce-afec-401fb5432af3","system_id":"levelo_inurba_marseille","lat":43.30132,"lon":5.39863,"is_reserved":false,"is_disabled":false,"rental_uris":{"android":"levelo://app?vid=84fd7cc4-a62e-44ce-afec-401fb5432af3","ios":"levelo://app?vid=84fd7cc4-a62e-44ce-afec-401fb5432af3"},"vehicle_type_id":"4","last_reported":1719000559,"current_range_meters":0,"station_id":"ce4bh0h2rcd13ifvqd40","pricing_plan_id":"cebpf4jnsgd1na2vs0mg"},{"bike_id":"1529575d-3c24-4053-9dc4-3fc753c20a3e","system_id":"levelo_inurba_marseille","lat":43.3304,"lon":5.39281,"is_reserved":false,"is_disabled":false,"rental_uris":{"android":"levelo://app?vid=1529575d-3c24-4053-9dc4-3fc753c20a3e","ios":"levelo://app?vid=1529575d-3c24-4053-9dc4-3fc753c20a3e"},"vehicle_type_id":"4","last_reported":1719000559,"current_range_meters":4400,"station_id":"","pricing_plan_id":"cebpf4jnsgd1na2vs0mg"},{"bike_id":"1811313f-49d5-4ba5-8ff5-6ecb230e88b4","system_id":"levelo_inurba_marseille","lat":43.286961,"lon":5.373785,"is_reserved":false,"is_disabled":false,"rental_uris":{"android":"levelo://app?vid=1811313f-49d5-4ba5-8ff5-6ecb230e88b4","ios":"levelo://app?vid=1811313f-49d5-4ba5-8ff5-6ecb230e88b4"},"vehicle_type_id":"4","last_reported":1719000559,"current_range_meters":11200,"station_id":"ce4bh3p2rcd13ifvqdq0","pricing_plan_id":"cebpf4jnsgd1na2vs0mg"},{"bike_id":"b02cd3ba-26cb-4bb2-a0d2-cf6f2852e8c8","system_id":"levelo_inurba_marseille","lat":43.298681,"lon":5.397225,"is_reserved":false,"is_disabled":false,"rental_uris":{"android":"levelo://app?vid=b02cd3ba-26cb-4bb2-a0d2-cf6f2852e8c8","ios":"levelo://app?vid=b02cd3ba-26cb-4bb2-a0d2-cf6f2852e8c8"},"vehicle_type_id":"4","last_reported":1719000559,"current_range_meters":17200,"station_id":"ce4bh0h2rcd13ifvqd50","pricing_plan_id":"cebpf4jnsgd1na2vs0mg"},{"bike_id":"c3532963-4dd4-4de9-aca7-6a5bcbb47c29","system_id":"levelo_inurba_marseille","lat":43.298681,"lon":5.397225,"is_reserved":false,"is_disabled":false,"rental_uris":{"android":"levelo://app?vid=c3532963-4dd4-4de9-aca7-6a5bcbb47c29","ios":"levelo://app?vid=c3532963-4dd4-4de9-aca7-6a5bcbb47c29"},"vehicle_type_id":"4","last_reported":1719000559,"current_range_meters":13200,"station_id":"ce4bh0h2rcd13ifvqd50","pricing_plan_id":"cebpf4jnsgd1na2vs0mg"},{"bike_id":"5be12bc2-761d-4bae-9ec8-a802d5fc2258","system_id":"levelo_inurba_marseille","lat":43.286593,"lon":5.363346,"is_reserved":false,"is_disabled":false,"rental_uris":{"android":"levelo://app?vid=5be12bc2-761d-4bae-9ec8-a802d5fc2258","ios":"levelo://app?vid=5be12bc2-761d-4bae-9ec8-a802d5fc2258"},"vehicle_type_id":"4","last_reported":1719000559,"current_range_meters":0,"station_id":"ce4bhah2rcd13ifvqej0","pricing_plan_id":"cebpf4jnsgd1na2vs0mg"},{"bike_id":"314b5f80-c4d1-4d4e-934f-3e0621937769","system_id":"levelo_inurba_marseille","lat":43.286591,"lon":5.363346,"is_reserved":false,"is_disabled":false,"rental_uris":{"android":"levelo://app?vid=314b5f80-c4d1-4d4e-934f-3e0621937769","ios":"levelo://app?vid=314b5f80-c4d1-4d4e-934f-3e0621937769"},"vehicle_type_id":"4","last_reported":1719000559,"current_range_meters":27200,"station_id":"ce4bhah2rcd13ifvqej0","pricing_plan_id":"cebpf4jnsgd1na2vs0mg"},{"bike_id":"c04ebc75-0cd7-4182-b942-0e45fbca2247","system_id":"levelo_inurba_marseille","lat":43.295196,"lon":5.39397,"is_reserved":false,"is_disabled":false,"rental_uris":{"android":"levelo://app?vid=c04ebc75-0cd7-4182-b942-0e45fbca2247","ios":"levelo://app?vid=c04ebc75-0cd7-4182-b942-0e45fbca2247"},"vehicle_type_id":"4","last_reported":1719000559,"current_range_meters":24000,"station_id":"ce4bh292rcd13ifvqdf0","pricing_plan_id":"cebpf4jnsgd1na2vs0mg"},{"bike_id":"1ad77a20-2f60-43bc-b7d3-0447b03a352f","system_id":"levelo_inurba_marseille","lat":43.295194,"lon":5.39397,"is_reserved":false,"is_disabled":false,"rental_uris":{"android":"levelo://app?vid=1ad77a20-2f60-43bc-b7d3-0447b03a352f","ios":"levelo://app?vid=1ad77a20-2f60-43bc-b7d3-0447b03a352f"},"vehicle_type_id":"4","last_reported":1719000559,"current_range_meters":31200,"station_id":"ce4bh292rcd13ifvqdf0","pricing_plan_id":"cebpf4jnsgd1na2vs0mg"},{"bike_id":"32cd5108-1c92-4a1d-92d2-b7c90408ab0c","system_id":"levelo_inurba_marseille","lat":43.295196,"lon":5.39397,"is_reserved":false,"is_disabled":false,"rental_uris":{"android":"levelo://app?vid=32cd5108-1c92-4a1d-92d2-b7c90408ab0c","ios":"levelo://app?vid=32cd5108-1c92-4a1d-92d2-b7c90408ab0c"},"vehicle_type_id":"4","last_reported":1719000559,"current_range_meters":31200,"station_id":"ce4bh292rcd13ifvqdf0","pricing_plan_id":"cebpf4jnsgd1na2vs0mg"},{"bike_id":"f6ad8d1d-8bbe-4556-9728-c7b02b956d03","system_id":"levelo_inurba_marseille","lat":43.295194,"lon":5.39397,"is_reserved":false,"is_disabled":false,"rental_uris":{"android":"levelo://app?vid=f6ad8d1d-8bbe-4556-9728-c7b02b956d03","ios":"levelo://app?vid=f6ad8d1d-8bbe-4556-9728-c7b02b956d03"},"vehicle_type_id":"4","last_reported":1719000559,"current_range_meters":18000,"station_id":"ce4bh292rcd13ifvqdf0","pricing_plan_id":"cebpf4jnsgd1na2vs0mg"},{"bike_id":"14891047-b84a-4fcc-b147-ea0b05033974","system_id":"levelo_inurba_marseille","lat":43.295194,"lon":5.39397,"is_reserved":false,"is_disabled":false,"rental_uris":{"android":"levelo://app?vid=14891047-b84a-4fcc-b147-ea0b05033974","ios":"levelo://app?vid=14891047-b84a-4fcc-b147-ea0b05033974"},"vehicle_type_id":"4","last_reported":1719000559,"current_range_meters":31200,"station_id":"ce4bh292rcd13ifvqdf0","pricing_plan_id":"cebpf4jnsgd1na2vs0mg"},{"bike_id":"89a1118f-9172-4d0f-9209-dc886a8ab87a","system_id":"levelo_inurba_marseille","lat":43.290345,"lon":5.38646,"is_reserved":false,"is_disabled":false,"rental_uris":{"android":"levelo://app?vid=89a1118f-9172-4d0f-9209-dc886a8ab87a","ios":"levelo://app?vid=89a1118f-9172-4d0f-9209-dc886a8ab87a"},"vehicle_type_id":"4","last_reported":1719000559,"current_range_meters":26400,"station_id":"ce4bh4p2rcd13ifvqe0g","pricing_plan_id":"cebpf4jnsgd1na2vs0mg"},{"bike_id":"bc337bf6-e020-4207-bb18-fc11a6141ae0","system_id":"levelo_inurba_marseille","lat":43.289307,"lon":5.38406,"is_reserved":false,"is_disabled":false,"rental_uris":{"android":"levelo://app?vid=bc337bf6-e020-4207-bb18-fc11a6141ae0","ios":"levelo://app?vid=bc337bf6-e020-4207-bb18-fc11a6141ae0"},"vehicle_type_id":"4","last_reported":1719000559,"current_range_meters":16800,"station_id":"ce4bh612rcd13ifvqe6g","pricing_plan_id":"cebpf4jnsgd1na2vs0mg"},{"bike_id":"ef8cbc22-bd49-4c56-bcf3-432e8c84218a","system_id":"levelo_inurba_marseille","lat":43.28926,"lon":5.38397,"is_reserved":false,"is_disabled":false,"rental_uris":{"android":"levelo://app?vid=ef8cbc22-bd49-4c56-bcf3-432e8c84218a","ios":"levelo://app?vid=ef8cbc22-bd49-4c56-bcf3-432e8c84218a"},"vehicle_type_id":"4","last_reported":1719000559,"current_range_meters":16800,"station_id":"ce4bh612rcd13ifvqe6g","pricing_plan_id":"cebpf4jnsgd1na2vs0mg"},{"bike_id":"5e0dd7ef-7f77-4be0-8635-d24d18dbceb0","system_id":"levelo_inurba_marseille","lat":43.29027,"lon":5.38639,"is_reserved":false,"is_disabled":false,"rental_uris":{"android":"levelo://app?vid=5e0dd7ef-7f77-4be0-8635-d24d18dbceb0","ios":"levelo://app?vid=5e0dd7ef-7f77-4be0-8635-d24d18dbceb0"},"vehicle_type_id":"4","last_reported":1719000559,"current_range_meters":0,"station_id":"ce4bh4p2rcd13ifvqe0g","pricing_plan_id":"cebpf4jnsgd1na2vs0mg"},{"bike_id":"cf9e2428-c504-4b91-8444-3ec105933ae7","system_id":"levelo_inurba_marseille","lat":43.290336,"lon":5.386425,"is_reserved":false,"is_disabled":false,"rental_uris":{"android":"levelo://app?vid=cf9e2428-c504-4b91-8444-3ec105933ae7","ios":"levelo://app?vid=cf9e2428-c504-4b91-8444-3ec105933ae7"},"vehicle_type_id":"4","last_reported":1719000559,"current_range_meters":12800,"station_id":"ce4bh4p2rcd13ifvqe0g","pricing_plan_id":"cebpf4jnsgd1na2vs0mg"},{"bike_id":"404a78e7-f84c-41a9-bba8-f30d22779b59","system_id":"levelo_inurba_marseille","lat":43.29021,"lon":5.38643,"is_reserved":false,"is_disabled":false,"rental_uris":{"android":"levelo://app?vid=404a78e7-f84c-41a9-bba8-f30d22779b59","ios":"levelo://app?vid=404a78e7-f84c-41a9-bba8-f30d22779b59"},"vehicle_type_id":"4","last_reported":1719000559,"current_range_meters":10800,"station_id":"ce4bh4p2rcd13ifvqe0g","pricing_plan_id":"cebpf4jnsgd1na2vs0mg"},{"bike_id":"5e8d0e22-179f-4339-a961-6f565222fdda","system_id":"levelo_inurba_marseille","lat":43.290336,"lon":5.386425,"is_reserved":false,"is_disabled":false,"rental_uris":{"android":"levelo://app?vid=5e8d0e22-179f-4339-a961-6f565222fdda","ios":"levelo://app?vid=5e8d0e22-179f-4339-a961-6f565222fdda"},"vehicle_type_id":"4","last_reported":1719000559,"current_range_meters":27200,"station_id":"ce4bh4p2rcd13ifvqe0g","pricing_plan_id":"cebpf4jnsgd1na2vs0mg"},{"bike_id":"83e59a6d-62b2-4362-a172-9742d9147169","system_id":"levelo_inurba_marseille","lat":43.286039,"lon":5.370681,"is_reserved":false,"is_disabled":false,"rental_uris":{"android":"levelo://app?vid=83e59a6d-62b2-4362-a172-9742d9147169","ios":"levelo://app?vid=83e59a6d-62b2-4362-a172-9742d9147169"},"vehicle_type_id":"4","last_reported":1719000559,"current_range_meters":12400,"station_id":"ce4bht12rcd13ifvqi60","pricing_plan_id":"cebpf4jnsgd1na2vs0mg"},{"bike_id":"58cc2849-0457-404e-8153-32a30fc3649a","system_id":"levelo_inurba_marseille","lat":43.28726,"lon":5.37947,"is_reserved":false,"is_disabled":false,"rental_uris":{"android":"levelo://app?vid=58cc2849-0457-404e-8153-32a30fc3649a","ios":"levelo://app?vid=58cc2849-0457-404e-8153-32a30fc3649a"},"vehicle_type_id":"4","last_reported":1719000559,"current_range_meters":0,"station_id":"ce4bh9p2rcd13ifvqec0","pricing_plan_id":"cebpf4jnsgd1na2vs0mg"},{"bike_id":"b0b54d9d-8ee0-4aba-9349-40a67b36ba83","system_id":"levelo_inurba_marseille","lat":43.31692,"lon":5.40471,"is_reserved":false,"is_disabled":false,"rental_uris":{"android":"levelo://app?vid=b0b54d9d-8ee0-4aba-9349-40a67b36ba83","ios":"levelo://app?vid=b0b54d9d-8ee0-4aba-9349-40a67b36ba83"},"vehicle_type_id":"4","last_reported":1719000559,"current_range_meters":0,"station_id":"ce4bh012rcd13ifvqd00","pricing_plan_id":"cebpf4jnsgd1na2vs0mg"},{"bike_id":"7a51eb13-48fa-4f53-9228-ff1fb7ca70bf","system_id":"levelo_inurba_marseille","lat":43.31691,"lon":5.40472,"is_reserved":false,"is_disabled":false,"rental_uris":{"android":"levelo://app?vid=7a51eb13-48fa-4f53-9228-ff1fb7ca70bf","ios":"levelo://app?vid=7a51eb13-48fa-4f53-9228-ff1fb7ca70bf"},"vehicle_type_id":"4","last_reported":1719000559,"current_range_meters":0,"station_id":"ce4bh012rcd13ifvqd00","pricing_plan_id":"cebpf4jnsgd1na2vs0mg"},{"bike_id":"08a204a9-53e4-4a4c-8d40-ba16992aa2b4","system_id":"levelo_inurba_marseille","lat":43.29184,"lon":5.39316,"is_reserved":false,"is_disabled":false,"rental_uris":{"android":"levelo://app?vid=08a204a9-53e4-4a4c-8d40-ba16992aa2b4","ios":"levelo://app?vid=08a204a9-53e4-4a4c-8d40-ba16992aa2b4"},"vehicle_type_id":"4","last_reported":1719000559,"current_range_meters":17200,"station_id":"ce4bh192rcd13ifvqdd0","pricing_plan_id":"cebpf4jnsgd1na2vs0mg"},{"bike_id":"d5fa95e2-439e-4232-bdd3-85fd0bef51b5","system_id":"levelo_inurba_marseille","lat":43.290336,"lon":5.386425,"is_reserved":false,"is_disabled":false,"rental_uris":{"android":"levelo://app?vid=d5fa95e2-439e-4232-bdd3-85fd0bef51b5","ios":"levelo://app?vid=d5fa95e2-439e-4232-bdd3-85fd0bef51b5"},"vehicle_type_id":"4","last_reported":1719000559,"current_range_meters":28000,"station_id":"ce4bh4p2rcd13ifvqe0g","pricing_plan_id":"cebpf4jnsgd1na2vs0mg"},{"bike_id":"a9c0b233-1bc8-4e92-bb0d-ec00e286d98e","system_id":"levelo_inurba_marseille","lat":43.284534,"lon":5.358662,"is_reserved":false,"is_disabled":false,"rental_uris":{"android":"levelo://app?vid=a9c0b233-1bc8-4e92-bb0d-ec00e286d98e","ios":"levelo://app?vid=a9c0b233-1bc8-4e92-bb0d-ec00e286d98e"},"vehicle_type_id":"4","last_reported":1719000559,"current_range_meters":0,"station_id":"ce4bhah2rcd13ifvqei0","pricing_plan_id":"cebpf4jnsgd1na2vs0mg"},{"bike_id":"c2b92ada-05c3-492f-a780-f37bf94649b1","system_id":"levelo_inurba_marseille","lat":43.284538,"lon":5.358657,"is_reserved":false,"is_disabled":false,"rental_uris":{"android":"levelo://app?vid=c2b92ada-05c3-492f-a780-f37bf94649b1","ios":"levelo://app?vid=c2b92ada-05c3-492f-a780-f37bf94649b1"},"vehicle_type_id":"4","last_reported":1719000559,"current_range_meters":28400,"station_id":"ce4bhah2rcd13ifvqei0","pricing_plan_id":"cebpf4jnsgd1na2vs0mg"},{"bike_id":"9b34cdeb-ecf7-4a0a-b44c-001cf76c2031","system_id":"levelo_inurba_marseille","lat":43.28618,"lon":5.35103,"is_reserved":false,"is_disabled":false,"rental_uris":{"android":"levelo://app?vid=9b34cdeb-ecf7-4a0a-b44c-001cf76c2031","ios":"levelo://app?vid=9b34cdeb-ecf7-4a0a-b44c-001cf76c2031"},"vehicle_type_id":"4","last_reported":1719000559,"current_range_meters":0,"station_id":"ce4bhch2rcd13ifvqeug","pricing_plan_id":"cebpf4jnsgd1na2vs0mg"},{"bike_id":"3f49fce8-17c2-44b4-b9cf-0e956cce01dc","system_id":"levelo_inurba_marseille","lat":43.28614,"lon":5.35102,"is_reserved":false,"is_disabled":false,"rental_uris":{"android":"levelo://app?vid=3f49fce8-17c2-44b4-b9cf-0e956cce01dc","ios":"levelo://app?vid=3f49fce8-17c2-44b4-b9cf-0e956cce01dc"},"vehicle_type_id":"4","last_reported":1719000559,"current_range_meters":0,"station_id":"ce4bhch2rcd13ifvqeug","pricing_plan_id":"cebpf4jnsgd1na2vs0mg"},{"bike_id":"f5e7183b-c1e2-4b45-a734-77543fe3729f","system_id":"levelo_inurba_marseille","lat":43.29243,"lon":5.3954,"is_reserved":false,"is_disabled":false,"rental_uris":{"android":"levelo://app?vid=f5e7183b-c1e2-4b45-a734-77543fe3729f","ios":"levelo://app?vid=f5e7183b-c1e2-4b45-a734-77543fe3729f"},"vehicle_type_id":"4","last_reported":1719000559,"current_range_meters":0,"station_id":"","pricing_plan_id":"cebpf4jnsgd1na2vs0mg"},{"bike_id":"e5407f7b-b0db-45cd-83c3-72eef7497071","system_id":"levelo_inurba_marseille","lat":43.295713,"lon":5.399639,"is_reserved":false,"is_disabled":false,"rental_uris":{"android":"levelo://app?vid=e5407f7b-b0db-45cd-83c3-72eef7497071","ios":"levelo://app?vid=e5407f7b-b0db-45cd-83c3-72eef7497071"},"vehicle_type_id":"4","last_reported":1719000559,"current_range_meters":0,"station_id":"ce4bh312rcd13ifvqdj0","pricing_plan_id":"cebpf4jnsgd1na2vs0mg"},{"bike_id":"555a9bf3-3323-4832-b0ea-e64185309727","system_id":"levelo_inurba_marseille","lat":43.283998,"lon":5.375062,"is_reserved":false,"is_disabled":false,"rental_uris":{"android":"levelo://app?vid=555a9bf3-3323-4832-b0ea-e64185309727","ios":"levelo://app?vid=555a9bf3-3323-4832-b0ea-e64185309727"},"vehicle_type_id":"4","last_reported":1719000559,"current_range_meters":14400,"station_id":"ce4bh412rcd13ifvqds0","pricing_plan_id":"cebpf4jnsgd1na2vs0mg"},{"bike_id":"8b19b793-8e5a-41fa-ac3a-8c80c1cdceed","system_id":"levelo_inurba_marseille","lat":43.299572,"lon":5.403215,"is_reserved":false,"is_disabled":false,"rental_uris":{"android":"levelo://app?vid=8b19b793-8e5a-41fa-ac3a-8c80c1cdceed","ios":"levelo://app?vid=8b19b793-8e5a-41fa-ac3a-8c80c1cdceed"},