{"last_updated":1752527451,"ttl":60,"version":"2.2","data":{"bikes":[{"bike_id":"feb1ed1d-b0db-45cc-9e1b-7311a8d72058","system_id":"levelo_inurba_marseille","lat":43.33747,"lon":5.37463,"is_reserved":false,"is_disabled":false,"rental_uris":{"android":"levelo://app?vid=feb1ed1d-b0db-45cc-9e1b-7311a8d72058","ios":"levelo://app?vid=feb1ed1d-b0db-45cc-9e1b-7311a8d72058"},"vehicle_type_id":"1","last_reported":1752527451,"current_range_meters":36400,"station_id":"","pricing_plan_id":"cebpf4jnsgd1na2vs0mg"},{"bike_id":"18a9d4e0-f830-4d54-9e14-ce25a4359eb2","system_id":"levelo_inurba_marseille","lat":43.28611,"lon":5.37057,"is_reserved":false,"is_disabled":false,"rental_uris":{"android":"levelo://app?vid=18a9d4e0-f830-4d54-9e14-ce25a4359eb2","ios":"levelo://app?vid=18a9d4e0-f830-4d54-9e14-ce25a4359eb2"},"vehicle_type_id":"4","last_reported":1752527451,"current_range_meters":2800,"station_id":"ce4bht12rcd13ifvqi60","pricing_plan_id":"cebpf4jnsgd1na2vs0mg"},{"bike_id":"ed2da812-2e76-467c-beb2-8a83494203d2","system_id":"levelo_inurba_marseille","lat":43.28028,"lon":5.36959,"is_reserved":false,"is_disabled":false,"rental_uris":{"android":"levelo://app?vid=ed2da812-2e76-467c-beb2-8a83494203d2","ios":"levelo://app?vid=ed2da812-2e76-467c-beb2-8a83494203d2"},"vehicle_type_id":"4","last_reported":1752527451,"current_range_meters":2800,"station_id":"ce4bha12rcd13ifvqef0","pricing_plan_id":"cebpf4jnsgd1na2vs0mg"},{"bike_id":"6d93dbb4-4129-409b-9af3-13d5d4fb6917","system_id":"levelo_inurba_marseille","lat":43.2929,"lon":5.37159,"is_reserved":false,"is_disabled":false,"rental_uris":{"android":"levelo://app?vid=6d93dbb4-4129-409b-9af3-13d5d4fb6917","ios":"levelo://app?vid=6d93dbb4-4129-409b-9af3-13d5d4fb6917"},"vehicle_type_id":"4","last_reported":1752527451,"current_range_meters":2800,"station_id":"ce4bgh92rcd13ifvqb40","pricing_plan_id":"cebpf4jnsgd1na2vs0mg"},{"bike_id":"e2f7dc30-2101-45b4-9cb1-e85f368e52e2","system_id":"levelo_inurba_marseille","lat":43.29082,"lon":5.38116,"is_reserved":false,"is_disabled":false,"rental_uris":{"android":"levelo://app?vid=e2f7dc30-2101-45b4-9cb1-e85f368e52e2","ios":"levelo://app?vid=e2f7dc30-2101-45b4-9cb1-e85f368e52e2"},"vehicle_type_id":"4","last_reported":1752527451,"current_range_meters":2000,"station_id":"ce4bh512rcd13ifvqe2g","pricing_plan_id":"cebpf4jnsgd1na2vs0mg"},{"bike_id":"77794ff1-13f2-4ca2-a9a2-c9713305d70c","system_id":"levelo_inurba_marseille","lat":43.28605,"lon":5.3706,"is_reserved":false,"is_disabled":true,"rental_uris":{"android":"levelo://app?vid=77794ff1-13f2-4ca2-a9a2-c9713305d70c","ios":"levelo://app?vid=77794ff1-13f2-4ca2-a9a2-c9713305d70c"},"vehicle_type_id":"4","last_reported":1752527451,"current_range_meters":3200,"station_id":"ce4bht12rcd13ifvqi60","pricing_plan_id":"cebpf4jnsgd1na2vs0mg"},{"bike_id":"c5fe914d-a9c4-4784-aa86-5f55fad6ba5d","system_id":"levelo_inurba_marseille","lat":43.310726,"lon":5.38339,"is_reserved":false,"is_disabled":true,"rental_uris":{"android":"levelo://app?vid=c5fe914d-a9c4-4784-aa86-5f55fad6ba5d","ios":"levelo://app?vid=c5fe914d-a9c4-4784-aa86-5f55fad6ba5d"},"vehicle_type_id":"4","last_reported":1752527451,"current_range_meters":3200,"station_id":"ce4bgv92rcd13ifvqcr0","pricing_plan_id":"cebpf4jnsgd1na2vs0mg"},{"bike_id":"999b9d30-855b-489d-9de1-6a44f83d6385","system_id":"levelo_inurba_marseille","lat":43.211867,"lon":5.350687,"is_reserved":false,"is_disabled":false,"rental_uris":{"android":"levelo://app?vid=999b9d30-855b-489d-9de1-6a44f83d6385","ios":"levelo://app?vid=999b9d30-855b-489d-9de1-6a44f83d6385"},"vehicle_type_id":"4","last_reported":1752527451,"current_range_meters":3200,"station_id":"st_cvj6sg6p6f1abm77japg","pricing_plan_id":"cebpf4jnsgd1na2vs0mg"},{"bike_id":"1d903389-4942-4468-b9b7-a6e616e5a2f6","system_id":"levelo_inurba_marseille","lat":43.30788,"lon":5.37644,"is_reserved":false,"is_disabled":false,"rental_uris":{"android":"levelo://app?vid=1d903389-4942-4468-b9b7-a6e616e5a2f6","ios":"levelo://app?vid=1d903389-4942-4468-b9b7-a6e616e5a2f6"},"vehicle_type_id":"4","last_reported":1752527451,"current_range_meters":3600,"station_id":"ce4bgv92rcd13ifvqcq0","pricing_plan_id":"cebpf4jnsgd1na2vs0mg"},{"bike_id":"470d1e9d-8c05-40b8-a6b2-039f183b9f6a","system_id":"levelo_inurba_marseille","lat":43.23191,"lon":5.35558,"is_reserved":false,"is_disabled":true,"rental_uris":{"android":"levelo://app?vid=470d1e9d-8c05-40b8-a6b2-039f183b9f6a","ios":"levelo://app?vid=470d1e9d-8c05-40b8-a6b2-039f183b9f6a"},"vehicle_type_id":"4","last_reported":1752527451,"current_range_meters":3600,"station_id":"ce4bhu92rcd13ifvqi70","pricing_plan_id":"cebpf4jnsgd1na2vs0mg"},{"bike_id":"44dd919c-32df-4fe9-8b1c-c9988fb68d5b","system_id":"levelo_inurba_marseille","lat":43.2696,"lon":5.40299,"is_reserved":false,"is_disabled":true,"rental_uris":{"android":"levelo://app?vid=44dd919c-32df-4fe9-8b1c-c9988fb68d5b","ios":"levelo://app?vid=44dd919c-32df-4fe9-8b1c-c9988fb68d5b"},"vehicle_type_id":"4","last_reported":1752527451,"current_range_meters":4000,"station_id":"cjm6bp8fraef2m0cb0m0","pricing_plan_id":"cebpf4jnsgd1na2vs0mg"},{"bike_id":"6e0e2f23-6c02-4390-9409-f61e67d0abc9","system_id":"levelo_inurba_marseille","lat":43.28539,"lon":5.3714,"is_reserved":false,"is_disabled":false,"rental_uris":{"android":"levelo://app?vid=6e0e2f23-6c02-4390-9409-f61e67d0abc9","ios":"levelo://app?vid=6e0e2f23-6c02-4390-9409-f61e67d0abc9"},"vehicle_type_id":"4","last_reported":1752527451,"current_range_meters":4000,"station_id":"","pricing_plan_id":"cebpf4jnsgd1na2vs0mg"},{"bike_id":"9efb8360-8563-45b9-96b2-a06e314abdb2","system_id":"levelo_inurba_marseille","lat":43.2119,"lon":5.35067,"is_reserved":false,"is_disabled":false,"rental_uris":{"android":"levelo://app?vid=9efb8360-8563-45b9-96b2-a06e314abdb2","ios":"levelo://app?vid=9efb8360-8563-45b9-96b2-a06e314abdb2"},"vehicle_type_id":"4","last_reported":1752527451,"current_range_meters":4000,"station_id":"st_cvj6sg6p6f1abm77japg","pricing_plan_id":"cebpf4jnsgd1na2vs0mg"},{"bike_id":"28190c28-e0b2-4c63-b2bd-801ea6dfbdc1","system_id":"levelo_inurba_marseille","lat":43.28609,"lon":5.37066,"is_reserved":false,"is_disabled":false,"rental_uris":{"android":"levelo://app?vid=28190c28-e0b2-4c63-b2bd-801ea6dfbdc1","ios":"levelo://app?vid=28190c28-e0b2-4c63-b2bd-801ea6dfbdc1"},"vehicle_type_id":"4","last_reported":1752527451,"current_range_meters":4400,"station_id":"ce4bht12rcd13ifvqi60","pricing_plan_id":"cebpf4jnsgd1na2vs0mg"},{"bike_id":"53fa3204-82f3-47fd-8b2c-868295442e3c","system_id":"levelo_inurba_marseille","lat":43.28697,"lon":5.39981,"is_reserved":false,"is_disabled":false,"rental_uris":{"android":"levelo://app?vid=53fa3204-82f3-47fd-8b2c-868295442e3c","ios":"levelo://app?vid=53fa3204-82f3-47fd-8b2c-868295442e3c"},"vehicle_type_id":"4","last_reported":1752527451,"current_range_meters":4400,"station_id":"ce4bho92rcd13ifvqh3g","pricing_plan_id":"cebpf4jnsgd1na2vs0mg"},{"bike_id":"2220486a-db88-4530-8939-f53bc8a00863","system_id":"levelo_inurba_marseille","lat":43.28611,"lon":5.3706,"is_reserved":false,"is_disabled":false,"rental_uris":{"android":"levelo://app?vid=2220486a-db88-4530-8939-f53bc8a00863","ios":"levelo://app?vid=2220486a-db88-4530-8939-f53bc8a00863"},"vehicle_type_id":"4","last_reported":1752527451,"current_range_meters":4400,"station_id":"ce4bht12rcd13ifvqi60","pricing_plan_id":"cebpf4jnsgd1na2vs0mg"},{"bike_id":"f6c7a5fb-c58e-4e5e-afcb-96acd6c67947","system_id":"levelo_inurba_marseille","lat":43.284058,"lon":5.375108,"is_reserved":false,"is_disabled":false,"rental_uris":{"android":"levelo://app?vid=f6c7a5fb-c58e-4e5e-afcb-96acd6c67947","ios":"levelo://app?vid=f6c7a5fb-c58e-4e5e-afcb-96acd6c67947"},"vehicle_type_id":"4","last_reported":1752527451,"current_range_meters":4800,"station_id":"","pricing_plan_id":"cebpf4jnsgd1na2vs0mg"},{"bike_id":"c1201d0d-ed65-4bcf-9021-f418c457e17f","system_id":"levelo_inurba_marseille","lat":43.28609,"lon":5.37072,"is_reserved":false,"is_disabled":false,"rental_uris":{"android":"levelo://app?vid=c1201d0d-ed65-4bcf-9021-f418c457e17f","ios":"levelo://app?vid=c1201d0d-ed65-4bcf-9021-f418c457e17f"},"vehicle_type_id":"4","last_reported":1752527451,"current_range_meters":4800,"station_id":"ce4bht12rcd13ifvqi60","pricing_plan_id":"cebpf4jnsgd1na2vs0mg"},{"bike_id":"2725ad98-8b63-4cb7-b1d2-2e8487e500a8","system_id":"levelo_inurba_marseille","lat":43.29703,"lon":5.36602,"is_reserved":false,"is_disabled":false,"rental_uris":{"android":"levelo://app?vid=2725ad98-8b63-4cb7-b1d2-2e8487e500a8","ios":"levelo://app?vid=2725ad98-8b63-4cb7-b1d2-2e8487e500a8"},"vehicle_type_id":"4","last_reported":1752527451,"current_range_meters":4800,"station_id":"ce4bgn12rcd13ifvqbt0","pricing_plan_id":"cebpf4jnsgd1na2vs0mg"},{"bike_id":"1768fcfb-95e8-419d-b450-260f66caee42","system_id":"levelo_inurba_marseille","lat":43.291698,"lon":5.371618,"is_reserved":false,"is_disabled":false,"rental_uris":{"android":"levelo://app?vid=1768fcfb-95e8-419d-b450-260f66caee42","ios":"levelo://app?vid=1768fcfb-95e8-419d-b450-260f66caee42"},"vehicle_type_id":"4","last_reported":1752527451,"current_range_meters":4800,"station_id":"ce4bha92rcd13ifvqeh0","pricing_plan_id":"cebpf4jnsgd1na2vs0mg"},{"bike_id":"5f3d8f08-a918-4be8-aa85-f85de004107c","system_id":"levelo_inurba_marseille","lat":43.29294,"lon":5.37164,"is_reserved":false,"is_disabled":false,"rental_uris":{"android":"levelo://app?vid=5f3d8f08-a918-4be8-aa85-f85de004107c","ios":"levelo://app?vid=5f3d8f08-a918-4be8-aa85-f85de004107c"},"vehicle_type_id":"4","last_reported":1752527451,"current_range_meters":4800,"station_id":"ce4bgh92rcd13ifvqb40","pricing_plan_id":"cebpf4jnsgd1na2vs0mg"},{"bike_id":"3d0394a4-1232-401c-bb17-04fb09a29433","system_id":"levelo_inurba_marseille","lat":43.30084,"lon":5.39079,"is_reserved":false,"is_disabled":false,"rental_uris":{"android":"levelo://app?vid=3d0394a4-1232-401c-bb17-04fb09a29433","ios":"levelo://app?vid=3d0394a4-1232-401c-bb17-04fb09a29433"},"vehicle_type_id":"4","last_reported":1752527451,"current_range_meters":4800,"station_id":"ce4bh192rcd13ifvqdb0","pricing_plan_id":"cebpf4jnsgd1na2vs0mg"},{"bike_id":"d99f12e3-74ea-4f3d-ba0c-00877d4c3030","system_id":"levelo_inurba_marseille","lat":43.28262,"lon":5.37292,"is_reserved":false,"is_disabled":false,"rental_uris":{"android":"levelo://app?vid=d99f12e3-74ea-4f3d-ba0c-00877d4c3030","ios":"levelo://app?vid=d99f12e3-74ea-4f3d-ba0c-00877d4c3030"},"vehicle_type_id":"4","last_reported":1752527451,"current_range_meters":6000,"station_id":"","pricing_plan_id":"cebpf4jnsgd1na2vs0mg"},{"bike_id":"7c50f318-f346-497e-a041-c4a9395b1e9b","system_id":"levelo_inurba_marseille","lat":43.29515,"lon":5.37509,"is_reserved":false,"is_disabled":false,"rental_uris":{"android":"levelo://app?vid=7c50f318-f346-497e-a041-c4a9395b1e9b","ios":"levelo://app?vid=7c50f318-f346-497e-a041-c4a9395b1e9b"},"vehicle_type_id":"4","last_reported":1752527451,"current_range_meters":6000,"station_id":"ce4bgkp2rcd13ifvqbmg","pricing_plan_id":"cebpf4jnsgd1na2vs0mg"},{"bike_id":"e85619b9-2159-4c1a-b259-9d4f5b52532b","system_id":"levelo_inurba_marseille","lat":43.29257,"lon":5.4091,"is_reserved":false,"is_disabled":false,"rental_uris":{"android":"levelo://app?vid=e85619b9-2159-4c1a-b259-9d4f5b52532b","ios":"levelo://app?vid=e85619b9-2159-4c1a-b259-9d4f5b52532b"},"vehicle_type_id":"4","last_reported":1752527451,"current_range_meters":6400,"station_id":"ce4bh192rcd13ifvqdc0","pricing_plan_id":"cebpf4jnsgd1na2vs0mg"},{"bike_id":"544b7391-ff83-4505-94fa-2c7aca70cd5b","system_id":"levelo_inurba_marseille","lat":43.2917,"lon":5.37154,"is_reserved":false,"is_disabled":false,"rental_uris":{"android":"levelo://app?vid=544b7391-ff83-4505-94fa-2c7aca70cd5b","ios":"levelo://app?vid=544b7391-ff83-4505-94fa-2c7aca70cd5b"},"vehicle_type_id":"4","last_reported":1752527451,"current_range_meters":6400,"station_id":"ce4bha92rcd13ifvqeh0","pricing_plan_id":"cebpf4jnsgd1na2vs0mg"},{"bike_id":"60251d7b-518c-4794-86f6-585048affa5b","system_id":"levelo_inurba_marseille","lat":43.28933,"lon":5.36638,"is_reserved":false,"is_disabled":false,"rental_uris":{"android":"levelo://app?vid=60251d7b-518c-4794-86f6-585048affa5b","ios":"levelo://app?vid=60251d7b-518c-4794-86f6-585048affa5b"},"vehicle_type_id":"4","last_reported":1752527451,"current_range_meters":6800,"station_id":"ce4bhap2rcd13ifvqek0","pricing_plan_id":"cebpf4jnsgd1na2vs0mg"},{"bike_id":"223d7ee2-7fee-41f7-a253-558640c0f0ef","system_id":"levelo_inurba_marseille","lat":43.30278,"lon":5.37702,"is_reserved":false,"is_disabled":false,"rental_uris":{"android":"levelo://app?vid=223d7ee2-7fee-41f7-a253-558640c0f0ef","ios":"levelo://app?vid=223d7ee2-7fee-41f7-a253-558640c0f0ef"},"vehicle_type_id":"4","last_reported":1752527451,"current_range_meters":6800,"station_id":"ce4bguh2rcd13ifvqcj0","pricing_plan_id":"cebpf4jnsgd1na2vs0mg"},{"bike_id":"0f706233-3926-4721-a808-1613b66b1230","system_id":"levelo_inurba_marseille","lat":43.28417,"lon":5.37516,"is_reserved":false,"is_disabled":false,"rental_uris":{"android":"levelo://app?vid=0f706233-3926-4721-a808-1613b66b1230","ios":"levelo://app?vid=0f706233-3926-4721-a808-1613b66b1230"},"vehicle_type_id":"4","last_reported":1752527451,"current_range_meters":6800,"station_id":"ce4bh412rcd13ifvqds0","pricing_plan_id":"cebpf4jnsgd1na2vs0mg"},{"bike_id":"f23760ff-ab61-4853-aa67-28aac93822c1","system_id":"levelo_inurba_marseille","lat":43.337444,"lon":5.374475,"is_reserved":false,"is_disabled":false,"rental_uris":{"android":"levelo://app?vid=f23760ff-ab61-4853-aa67-28aac93822c1","ios":"levelo://app?vid=f23760ff-ab61-4853-aa67-28aac93822c1"},"vehicle_type_id":"4","last_reported":1752527451,"current_range_meters":6800,"station_id":"","pricing_plan_id":"cebpf4jnsgd1na2vs0mg"},{"bike_id":"101f6fee-6a81-48a4-8280-d36796ac4e37","system_id":"levelo_inurba_marseille","lat":43.29273,"lon":5.3762,"is_reserved":false,"is_disabled":false,"rental_uris":{"android":"levelo://app?vid=101f6fee-6a81-48a4-8280-d36796ac4e37","ios":"levelo://app?vid=101f6fee-6a81-48a4-8280-d36796ac4e37"},"vehicle_type_id":"4","last_reported":1752527451,"current_range_meters":7200,"station_id":"ce4bgi12rcd13ifvqb80","pricing_plan_id":"cebpf4jnsgd1na2vs0mg"},{"bike_id":"4bd5f92d-9e92-475f-8247-8494976bb1fe","system_id":"levelo_inurba_marseille","lat":43.29299,"lon":5.37464,"is_reserved":false,"is_disabled":false,"rental_uris":{"android":"levelo://app?vid=4bd5f92d-9e92-475f-8247-8494976bb1fe","ios":"levelo://app?vid=4bd5f92d-9e92-475f-8247-8494976bb1fe"},"vehicle_type_id":"4","last_reported":1752527451,"current_range_meters":7200,"station_id":"ce4bgi12rcd13ifvqb70","pricing_plan_id":"cebpf4jnsgd1na2vs0mg"},{"bike_id":"f4da7ccf-9342-4e90-87af-9107015ae7b4","system_id":"levelo_inurba_marseille","lat":43.28407,"lon":5.3751,"is_reserved":false,"is_disabled":false,"rental_uris":{"android":"levelo://app?vid=f4da7ccf-9342-4e90-87af-9107015ae7b4","ios":"levelo://app?vid=f4da7ccf-9342-4e90-87af-9107015ae7b4"},"vehicle_type_id":"4","last_reported":1752527451,"current_range_meters":8000,"station_id":"ce4bh412rcd13ifvqds0","pricing_plan_id":"cebpf4jnsgd1na2vs0mg"},{"bike_id":"b92532c7-103b-4e72-b4c6-e3168344213c","system_id":"levelo_inurba_marseille","lat":43.312985,"lon":5.396701,"is_reserved":false,"is_disabled":false,"rental_uris":{"android":"levelo://app?vid=b92532c7-103b-4e72-b4c6-e3168344213c","ios":"levelo://app?vid=b92532c7-103b-4e72-b4c6-e3168344213c"},"vehicle_type_id":"4","last_reported":1752527451,"current_range_meters":8000,"station_id":"ce4bgvp2rcd13ifvqcu0","pricing_plan_id":"cebpf4jnsgd1na2vs0mg"},{"bike_id":"7203c0d5-ea15-46c1-805c-8ecc9fe7f557","system_id":"levelo_inurba_marseille","lat":43.225037,"lon":5.347865,"is_reserved":false,"is_disabled":false,"rental_uris":{"android":"levelo://app?vid=7203c0d5-ea15-46c1-805c-8ecc9fe7f557","ios":"levelo://app?vid=7203c0d5-ea15-46c1-805c-8ecc9fe7f557"},"vehicle_type_id":"4","last_reported":1752527451,"current_range_meters":8000,"station_id":"st_cvj5dfep6f1abm77gieg","pricing_plan_id":"cebpf4jnsgd1na2vs0mg"},{"bike_id":"92bd95e2-a21e-4f39-bda9-6367fd3208ff","system_id":"levelo_inurba_marseille","lat":43.30431,"lon":5.3975,"is_reserved":false,"is_disabled":false,"rental_uris":{"android":"levelo://app?vid=92bd95e2-a21e-4f39-bda9-6367fd3208ff","ios":"levelo://app?vid=92bd95e2-a21e-4f39-bda9-6367fd3208ff"},"vehicle_type_id":"4","last_reported":1752527451,"current_range_meters":7200,"station_id":"ce4bh092rcd13ifvqd20","pricing_plan_id":"cebpf4jnsgd1na2vs0mg"},{"bike_id":"e8387f84-477e-43fd-bc3e-81749cf7af18","system_id":"levelo_inurba_marseille","lat":43.29072,"lon":5.37179,"is_reserved":false,"is_disabled":false,"rental_uris":{"android":"levelo://app?vid=e8387f84-477e-43fd-bc3e-81749cf7af18","ios":"levelo://app?vid=e8387f84-477e-43fd-bc3e-81749cf7af18"},"vehicle_type_id":"4","last_reported":1752527451,"current_range_meters":8000,"station_id":"ce4bh5p2rcd13ifvqe4g","pricing_plan_id":"cebpf4jnsgd1na2vs0mg"},{"bike_id":"699d251c-dad1-4b8f-b95f-ae66447bd5f6","system_id":"levelo_inurba_marseille","lat":43.29077,"lon":5.37181,"is_reserved":false,"is_disabled":false,"rental_uris":{"android":"levelo://app?vid=699d251c-dad1-4b8f-b95f-ae66447bd5f6","ios":"levelo://app?vid=699d251c-dad1-4b8f-b95f-ae66447bd5f6"},"vehicle_type_id":"4","last_reported":1752527451,"current_range_meters":8400,"station_id":"ce4bh5p2rcd13ifvqe4g","pricing_plan_id":"cebpf4jnsgd1na2vs0mg"},{"bike_id":"e3b686d1-f0b1-4887-9c05-4bc370c43021","system_id":"levelo_inurba_marseille","lat":43.27173,"lon":5.41022,"is_reserved":false,"is_disabled":true,"rental_uris":{"android":"levelo://app?vid=e3b686d1-f0b1-4887-9c05-4bc370c43021","ios":"levelo://app?vid=e3b686d1-f0b1-4887-9c05-4bc370c43021"},"vehicle_type_id":"4","last_reported":1752527451,"current_range_meters":8800,"station_id":"ce4bhl12rcd13ifvqgf0","pricing_plan_id":"cebpf4jnsgd1na2vs0mg"},{"bike_id":"1ae57bc0-de44-408c-99bc-efd47ccb373b","system_id":"levelo_inurba_marseille","lat":43.29288,"lon":5.37174,"is_reserved":false,"is_disabled":false,"rental_uris":{"android":"levelo://app?vid=1ae57bc0-de44-408c-99bc-efd47ccb373b","ios":"levelo://app?vid=1ae57bc0-de44-408c-99bc-efd47ccb373b"},"vehicle_type_id":"4","last_reported":1752527451,"current_range_meters":8800,"station_id":"ce4bgh92rcd13ifvqb40","pricing_plan_id":"cebpf4jnsgd1na2vs0mg"},{"bike_id":"093d88b0-c884-4b3d-9c85-70f15b88a520","system_id":"levelo_inurba_marseille","lat":43.28685,"lon":5.41262,"is_reserved":false,"is_disabled":true,"rental_uris":{"android":"levelo://app?vid=093d88b0-c884-4b3d-9c85-70f15b88a520","ios":"levelo://app?vid=093d88b0-c884-4b3d-9c85-70f15b88a520"},"vehicle_type_id":"4","last_reported":1752527451,"current_range_meters":8800,"station_id":"","pricing_plan_id":"cebpf4jnsgd1na2vs0mg"},{"bike_id":"66dc43eb-bfa4-40a5-bb08-a86f2205e7bc","system_id":"levelo_inurba_marseille","lat":43.28417,"lon":5.3752,"is_reserved":false,"is_disabled":false,"rental_uris":{"android":"levelo://app?vid=66dc43eb-bfa4-40a5-bb08-a86f2205e7bc","ios":"levelo://app?vid=66dc43eb-bfa4-40a5-bb08-a86f2205e7bc"},"vehicle_type_id":"4","last_reported":1752527451,"current_range_meters":8800,"station_id":"ce4bh412rcd13ifvqds0","pricing_plan_id":"cebpf4jnsgd1na2vs0mg"},{"bike_id":"6dc5897b-a8e8-4405-84c3-d7e8b0156d91","system_id":"levelo_inurba_marseille","lat":43.28938,"lon":5.36627,"is_reserved":false,"is_disabled":false,"rental_uris":{"android":"levelo://app?vid=6dc5897b-a8e8-4405-84c3-d7e8b0156d91","ios":"levelo://app?vid=6dc5897b-a8e8-4405-84c3-d7e8b0156d91"},"vehicle_type_id":"4","last_reported":1752527451,"current_range_meters":8800,"station_id":"ce4bhap2rcd13ifvqek0","pricing_plan_id":"cebpf4jnsgd1na2vs0mg"},{"bike_id":"6d52ca67-8bd2-4c8e-b94c-dcc08e441c0a","system_id":"levelo_inurba_marseille","lat":43.29306,"lon":5.37172,"is_reserved":false,"is_disabled":false,"rental_uris":{"android":"levelo://app?vid=6d52ca67-8bd2-4c8e-b94c-dcc08e441c0a","ios":"levelo://app?vid=6d52ca67-8bd2-4c8e-b94c-dcc08e441c0a"},"vehicle_type_id":"4","last_reported":1752527451,"current_range_meters":9200,"station_id":"ce4bgh92rcd13ifvqb40","pricing_plan_id":"cebpf4jnsgd1na2vs0mg"},{"bike_id":"6c28151a-b15f-4acc-9efc-89400b21dfe1","system_id":"levelo_inurba_marseille","lat":43.2603,"lon":5.37554,"is_reserved":false,"is_disabled":true,"rental_uris":{"android":"levelo://app?vid=6c28151a-b15f-4acc-9efc-89400b21dfe1","ios":"levelo://app?vid=6c28151a-b15f-4acc-9efc-89400b21dfe1"},"vehicle_type_id":"4","last_reported":1752527451,"current_range_meters":9200,"station_id":"ce4bhgh2rcd13ifvqfa0","pricing_plan_id":"cebpf4jnsgd1na2vs0mg"},{"bike_id":"07b80ba8-94f7-4006-b883-d44157aa02a8","system_id":"levelo_inurba_marseille","lat":43.2118,"lon":5.35081,"is_reserved":false,"is_disabled":false,"rental_uris":{"android":"levelo://app?vid=07b80ba8-94f7-4006-b883-d44157aa02a8","ios":"levelo://app?vid=07b80ba8-94f7-4006-b883-d44157aa02a8"},"vehicle_type_id":"4","last_reported":1752527451,"current_range_meters":9200,"station_id":"st_cvj6sg6p6f1abm77japg","pricing_plan_id":"cebpf4jnsgd1na2vs0mg"},{"bike_id":"1ba24ce0-768f-4aba-ba1a-b526340f8bdb","system_id":"levelo_inurba_marseille","lat":43.28611,"lon":5.37063,"is_reserved":false,"is_disabled":false,"rental_uris":{"android":"levelo://app?vid=1ba24ce0-768f-4aba-ba1a-b526340f8bdb","ios":"levelo://app?vid=1ba24ce0-768f-4aba-ba1a-b526340f8bdb"},"vehicle_type_id":"4","last_reported":1752527451,"current_range_meters":9200,"station_id":"ce4bht12rcd13ifvqi60","pricing_plan_id":"cebpf4jnsgd1na2vs0mg"},{"bike_id":"a95c6fdc-3c4d-46b1-8a87-d88e273d71b1","system_id":"levelo_inurba_marseille","lat":43.28939,"lon":5.36397,"is_reserved":false,"is_disabled":true,"rental_uris":{"android":"levelo://app?vid=a95c6fdc-3c4d-46b1-8a87-d88e273d71b1","ios":"levelo://app?vid=a95c6fdc-3c4d-46b1-8a87-d88e273d71b1"},"vehicle_type_id":"4","last_reported":1752527451,"current_range_meters":9200,"station_id":"ce4bhc92rcd13ifvqetg","pricing_plan_id":"cebpf4jnsgd1na2vs0mg"},{"bike_id":"58375fde-ca97-4dab-be52-59caf98323d3","system_id":"levelo_inurba_marseille","lat":43.26567,"lon":5.37272,"is_reserved":false,"is_disabled":true,"rental_uris":{"android":"levelo://app?vid=58375fde-ca97-4dab-be52-59caf98323d3","ios":"levelo://app?vid=58375fde-ca97-4dab-be52-59caf98323d3"},"vehicle_type_id":"4","last_reported":1752527451,"current_range_meters":9200,"station_id":"ce4bhg12rcd13ifvqf70","pricing_plan_id":"cebpf4jnsgd1na2vs0mg"},{"bike_id":"d270c5f8-933a-45c7-be3b-cb791f05493c","system_id":"levelo_inurba_marseille","lat":43.28596,"lon":5.37209,"is_reserved":false,"is_disabled":false,"rental_uris":{"android":"levelo://app?vid=d270c5f8-933a-45c7-be3b-cb791f05493c","ios":"levelo://app?vid=d270c5f8-933a-45c7-be3b-cb791f05493c"},"vehicle_type_id":"4","last_reported":1752527451,"current_range_meters":9200,"station_id":"ce4bht12rcd13ifvqi60","pricing_plan_id":"cebpf4jnsgd1na2vs0mg"},{"bike_id":"22110db9-456c-4b7c-ba31-81b2161277a7","system_id":"levelo_inurba_marseille","lat":43.29222,"lon":5.36059,"is_reserved":false,"is_disabled":false,"rental_uris":{"android":"levelo://app?vid=22110db9-456c-4b7c-ba31-81b2161277a7","ios":"levelo://app?vid=22110db9-456c-4b7c-ba31-81b2161277a7"},"vehicle_type_id":"4","last_reported":1752527451,"current_range_meters":9200,"station_id":"ce4bhbh2rcd13ifvqeqg","pricing_plan_id":"cebpf4jnsgd1na2vs0mg"},{"bike_id":"487f49d1-9213-4ea1-823a-d5c5bcadbd72","system_id":"levelo_inurba_marseille","lat":43.28611,"lon":5.37062,"is_reserved":false,"is_disabled":false,"rental_uris":{"android":"levelo://app?vid=487f49d1-9213-4ea1-823a-d5c5bcadbd72","ios":"levelo://app?vid=487f49d1-9213-4ea1-823a-d5c5bcadbd72"},"vehicle_type_id":"4","last_reported":1752527451,"current_range_meters":9200,"station_id":"ce4bht12rcd13ifvqi60","pricing_plan_id":"cebpf4jnsgd1na2vs0mg"},{"bike_id":"4de97a82-2ceb-40c7-a091-fa96b8dbb54f","system_id":"levelo_inurba_marseille","lat":43.295265,"lon":5.390369,"is_reserved":false,"is_disabled":false,"rental_uris":{"android":"levelo://app?vid=4de97a82-2ceb-40c7-a091-fa96b8dbb54f","ios":"levelo://app?vid=4de97a82-2ceb-40c7-a091-fa96b8dbb54f"},"vehicle_type_id":"4","last_reported":1752527451,"current_range_meters":9600,"station_id":"","pricing_plan_id":"cebpf4jnsgd1na2vs0mg"},{"bike_id":"ebc69638-ae05-4b0c-abe8-aca191877303","system_id":"levelo_inurba_marseille","lat":43.30588,"lon":5.39358,"is_reserved":false,"is_disabled":false,"rental_uris":{"android":"levelo://app?vid=ebc69638-ae05-4b0c-abe8-aca191877303","ios":"levelo://app?vid=ebc69638-ae05-4b0c-abe8-aca191877303"},"vehicle_type_id":"4","last_reported":1752527451,"current_range_meters":9600,"station_id":"ce4bh0p2rcd13ifvqd80","pricing_plan_id":"cebpf4jnsgd1na2vs0mg"},{"bike_id":"e735faf4-15ad-43d7-98b8-1a7c02552fae","system_id":"levelo_inurba_marseille","lat":43.291,"lon":5.38123,"is_reserved":false,"is_disabled":false,"rental_uris":{"android":"levelo://app?vid=e735faf4-15ad-43d7-98b8-1a7c02552fae","ios":"levelo://app?vid=e735faf4-15ad-43d7-98b8-1a7c02552fae"},"vehicle_type_id":"4","last_reported":1752527451,"current_range_meters":9600,"station_id":"ce4bh512rcd13ifvqe2g","pricing_plan_id":"cebpf4jnsgd1na2vs0mg"},{"bike_id":"f050706e-3c4c-4f46-866f-7d1214acedb5","system_id":"levelo_inurba_marseille","lat":43.28604,"lon":5.37071,"is_reserved":false,"is_disabled":false,"rental_uris":{"android":"levelo://app?vid=f050706e-3c4c-4f46-866f-7d1214acedb5","ios":"levelo://app?vid=f050706e-3c4c-4f46-866f-7d1214acedb5"},"vehicle_type_id":"4","last_reported":1752527451,"current_range_meters":9600,"station_id":"ce4bht12rcd13ifvqi60","pricing_plan_id":"cebpf4jnsgd1na2vs0mg"},{"bike_id":"28db6eef-3870-4972-b8a3-30f835ec6cb7","system_id":"levelo_inurba_marseille","lat":43.28618,"lon":5.37082,"is_reserved":false,"is_disabled":false,"rental_uris":{"android":"levelo://app?vid=28db6eef-3870-4972-b8a3-30f835ec6cb7","ios":"levelo://app?vid=28db6eef-3870-4972-b8a3-30f835ec6cb7"},"vehicle_type_id":"4","last_reported":1752527451,"current_range_meters":9600,"station_id":"ce4bht12rcd13ifvqi60","pricing_plan_id":"cebpf4jnsgd1na2vs0mg"},{"bike_id":"b030337a-5f82-4ae5-b1b3-5a632cc310e8","system_id":"levelo_inurba_marseille","lat":43.26819,"lon":5.40634,"is_reserved":false,"is_disabled":false,"rental_uris":{"android":"levelo://app?vid=b030337a-5f82-4ae5-b1b3-5a632cc310e8","ios":"levelo://app?vid=b030337a-5f82-4ae5-b1b3-5a632cc310e8"},"vehicle_type_id":"4","last_reported":1752527451,"current_range_meters":9600,"station_id":"","pricing_plan_id":"cebpf4jnsgd1na2vs0mg"},{"bike_id":"d916aace-830c-451e-a376-c1312f1fc6af","system_id":"levelo_inurba_marseille","lat":43.22474,"lon":5.34823,"is_reserved":false,"is_disabled":false,"rental_uris":{"android":"levelo://app?vid=d916aace-830c-451e-a376-c1312f1fc6af","ios":"levelo://app?vid=d916aace-830c-451e-a376-c1312f1fc6af"},"vehicle_type_id":"4","last_reported":1752527451,"current_range_meters":9600,"station_id":"","pricing_plan_id":"cebpf4jnsgd1na2vs0mg"},{"bike_id":"c000d002-e943-44da-9b03-466319073851","system_id":"levelo_inurba_marseille","lat":43.29169,"lon":5.37151,"is_reserved":false,"is_disabled":false,"rental_uris":{"android":"levelo://app?vid=c000d002-e943-44da-9b03-466319073851","ios":"levelo://app?vid=c000d002-e943-44da-9b03-466319073851"},"vehicle_type_id":"4","last_reported":1752527451,"current_range_meters":10000,"station_id":"ce4bha92rcd13ifvqeh0","pricing_plan_id":"cebpf4jnsgd1na2vs0mg"},{"bike_id":"1102cfad-3cca-42a9-a7c3-9c8326d26974","system_id":"levelo_inurba_marseille","lat":43.29068,"lon":5.37167,"is_reserved":false,"is_disabled":false,"rental_uris":{"android":"levelo://app?vid=1102cfad-3cca-42a9-a7c3-9c8326d26974","ios":"levelo://app?vid=1102cfad-3cca-42a9-a7c3-9c8326d26974"},"vehicle_type_id":"4","last_reported":1752527451,"current_range_meters":10000,"station_id":"ce4bh5p2rcd13ifvqe4g","pricing_plan_id":"cebpf4jnsgd1na2vs0mg"},{"bike_id":"a26215aa-9cdf-47e4-a0de-c2e5eb0d8d4c","system_id":"levelo_inurba_marseille","lat":43.284058,"lon":5.37508,"is_reserved":false,"is_disabled":false,"rental_uris":{"android":"levelo://app?vid=a26215aa-9cdf-47e4-a0de-c2e5eb0d8d4c","ios":"levelo://app?vid=a26215aa-9cdf-47e4-a0de-c2e5eb0d8d4c"},"vehicle_type_id":"4","last_reported":1752527451,"current_range_meters":10000,"station_id":"","pricing_plan_id":"cebpf4jnsgd1na2vs0mg"},{"bike_id":"3fb4e3be-8931-47e6-9e83-d7929aa2b24c","system_id":"levelo_inurba_marseille","lat":43.28408,"lon":5.37519,"is_reserved":false,"is_disabled":false,"rental_uris":{"android":"levelo://app?vid=3fb4e3be-8931-47e6-9e83-d7929aa2b24c","ios":"levelo://app?vid=3fb4e3be-8931-47e6-9e83-d7929aa2b24c"},"vehicle_type_id":"4","last_reported":1752527451,"current_range_meters":10000,"station_id":"ce4bh412rcd13ifvqds0","pricing_plan_id":"cebpf4jnsgd1na2vs0mg"},{"bike_id":"b5520f4e-68d0-4599-8c52-dde4b01e0e7e","system_id":"levelo_inurba_marseille","lat":43.28607,"lon":5.37079,"is_reserved":false,"is_disabled":false,"rental_uris":{"android":"levelo://app?vid=b5520f4e-68d0-4599-8c52-dde4b01e0e7e","ios":"levelo://app?vid=b5520f4e-68d0-4599-8c52-dde4b01e0e7e"},"vehicle_type_id":"4","last_reported":1752527451,"current_range_meters":10000,"station_id":"ce4bht12rcd13ifvqi60","pricing_plan_id":"cebpf4jnsgd1na2vs0mg"},{"bike_id":"b4daa6d1-04dc-4949-849a-64f1700992c8","system_id":"levelo_inurba_marseille","lat":43.29168,"lon":5.37151,"is_reserved":false,"is_disabled":false,"rental_uris":{"android":"levelo://app?vid=b4daa6d1-04dc-4949-849a-64f1700992c8","ios":"levelo://app?vid=b4daa6d1-04dc-4949-849a-64f1700992c8"},"vehicle_type_id":"4","last_reported":1752527451,"current_range_meters":10000,"station_id":"ce4bha92rcd13ifvqeh0","pricing_plan_id":"cebpf4jnsgd1na2vs0mg"},{"bike_id":"b88d01be-7c54-4a32-bf4c-b55a5b63dc4f","system_id":"levelo_inurba_marseille","lat":43.24545,"lon":5.39525,"is_reserved":false,"is_disabled":false,"rental_uris":{"android":"levelo://app?vid=b88d01be-7c54-4a32-bf4c-b55a5b63dc4f","ios":"levelo://app?vid=b88d01be-7c54-4a32-bf4c-b55a5b63dc4f"},"vehicle_type_id":"4","last_reported":1752527451,"current_range_meters":9600,"station_id":"ce4bhlp2rcd13ifvqgjg","pricing_plan_id":"cebpf4jnsgd1na2vs0mg"},{"bike_id":"1fbaf219-67be-45b8-aacc-64d6722df546","system_id":"levelo_inurba_marseille","lat":43.29028,"lon":5.38627,"is_reserved":false,"is_disabled":true,"rental_uris":{"android":"levelo://app?vid=1fbaf219-67be-45b8-aacc-64d6722df546","ios":"levelo://app?vid=1fbaf219-67be-45b8-aacc-64d6722df546"},"vehicle_type_id":"4","last_reported":1752527451,"current_range_meters":10800,"station_id":"ce4bh4p2rcd13ifvqe0g","pricing_plan_id":"cebpf4jnsgd1na2vs0mg"},{"bike_id":"953161f2-3fb7-4146-9f96-bf9122ea228e","system_id":"levelo_inurba_marseille","lat":43.287063,"lon":5.352123,"is_reserved":false,"is_disabled":false,"rental_uris":{"android":"levelo://app?vid=953161f2-3fb7-4146-9f96-bf9122ea228e","ios":"levelo://app?vid=953161f2-3fb7-4146-9f96-bf9122ea228e"},"vehicle_type_id":"4","last_reported":1752527451,"current_range_meters":10800,"station_id":"","pricing_plan_id":"cebpf4jnsgd1na2vs0mg"},{"bike_id":"c14947c2-7b5b-4c03-b04b-d7f22fccfd67","system_id":"levelo_inurba_marseille","lat":43.21211,"lon":5.35087,"is_reserved":false,"is_disabled":false,"rental_uris":{"android":"levelo://app?vid=c14947c2-7b5b-4c03-b04b-d7f22fccfd67","ios":"levelo://app?vid=c14947c2-7b5b-4c03-b04b-d7f22fccfd67"},"vehicle_type_id":"4","last_reported":1752527451,"current_range_meters":10800,"station_id":"st_cvj6sg6p6f1abm77japg","pricing_plan_id":"cebpf4jnsgd1na2vs0mg"},{"bike_id":"1eff8c0b-97fe-46f3-b4bc-3fb264e6746a","system_id":"levelo_inurba_marseille","lat":43.29266,"lon":5.38429,"is_reserved":false,"is_disabled":false,"rental_uris":{"android":"levelo://app?vid=1eff8c0b-97fe-46f3-b4bc-3fb264e6746a","ios":"levelo://app?vid=1eff8c0b-97fe-46f3-b4bc-3fb264e6746a"},"vehicle_type_id":"4","last_reported":1752527451,"current_range_meters":10800,"station_id":"ce4bh692rcd13ifvqea0","pricing_plan_id":"cebpf4jnsgd1na2vs0mg"},{"bike_id":"59a860e9-cc23-49cc-9147-79034be56af1","system_id":"levelo_inurba_marseille","lat":43.2929,"lon":5.37485,"is_reserved":false,"is_disabled":true,"rental_uris":{"android":"levelo://app?vid=59a860e9-cc23-49cc-9147-79034be56af1","ios":"levelo://app?vid=59a860e9-cc23-49cc-9147-79034be56af1"},"vehicle_type_id":"4","last_reported":1752527451,"current_range_meters":10800,"station_id":"ce4bgi12rcd13ifvqb70","pricing_plan_id":"cebpf4jnsgd1na2vs0mg"},{"bike_id":"f30e8bfb-6884-4198-bdc3-040900552614","system_id":"levelo_inurba_marseille","lat":43.29163,"lon":5.37157,"is_reserved":false,"is_disabled":false,"rental_uris":{"android":"levelo://app?vid=f30e8bfb-6884-4198-bdc3-040900552614","ios":"levelo://app?vid=f30e8bfb-6884-4198-bdc3-040900552614"},"vehicle_type_id":"4","last_reported":1752527451,"current_range_meters":10800,"station_id":"ce4bha92rcd13ifvqeh0","pricing_plan_id":"cebpf4jnsgd1na2vs0mg"},{"bike_id":"208acd77-3599-4736-9768-4d5881e77d59","system_id":"levelo_inurba_marseille","lat":43.29563,"lon":5.37503,"is_reserved":false,"is_disabled":false,"rental_uris":{"android":"levelo://app?vid=208acd77-3599-4736-9768-4d5881e77d59","ios":"levelo://app?vid=208acd77-3599-4736-9768-4d5881e77d59"},"vehicle_type_id":"4","last_reported":1752527451,"current_range_meters":10800,"station_id":"ce4bgh92rcd13ifvqb50","pricing_plan_id":"cebpf4jnsgd1na2vs0mg"},{"bike_id":"856f2d23-2d4b-4e7d-9b18-dff24c595dd3","system_id":"levelo_inurba_marseille","lat":43.26785,"lon":5.39427,"is_reserved":false,"is_disabled":true,"rental_uris":{"android":"levelo://app?vid=856f2d23-2d4b-4e7d-9b18-dff24c595dd3","ios":"levelo://app?vid=856f2d23-2d4b-4e7d-9b18-dff24c595dd3"},"vehicle_type_id":"4","last_reported":1752527451,"current_range_meters":10800,"station_id":"ce4bhh12rcd13ifvqfg0","pricing_plan_id":"cebpf4jnsgd1na2vs0mg"},{"bike_id":"5372e6a9-e472-49b6-ac20-c14c808f3201","system_id":"levelo_inurba_marseille","lat":43.29222,"lon":5.36067,"is_reserved":false,"is_disabled":false,"rental_uris":{"android":"levelo://app?vid=5372e6a9-e472-49b6-ac20-c14c808f3201","ios":"levelo://app?vid=5372e6a9-e472-49b6-ac20-c14c808f3201"},"vehicle_type_id":"4","last_reported":1752527451,"current_range_meters":10800,"station_id":"ce4bhbh2rcd13ifvqeqg","pricing_plan_id":"cebpf4jnsgd1na2vs0mg"},{"bike_id":"e54c06ff-12c3-46cd-930d-5d87269c5164","system_id":"levelo_inurba_marseille","lat":43.29579,"lon":5.37506,"is_reserved":false,"is_disabled":false,"rental_uris":{"android":"levelo://app?vid=e54c06ff-12c3-46cd-930d-5d87269c5164","ios":"levelo://app?vid=e54c06ff-12c3-46cd-930d-5d87269c5164"},"vehicle_type_id":"4","last_reported":1752527451,"current_range_meters":11200,"station_id":"ce4bgh92rcd13ifvqb50","pricing_plan_id":"cebpf4jnsgd1na2vs0mg"},{"bike_id":"d960247e-fcb0-4551-a66f-dd83895a31f6","system_id":"levelo_inurba_marseille","lat":43.32297,"lon":5.38289,"is_reserved":false,"is_disabled":true,"rental_uris":{"android":"levelo://app?vid=d960247e-fcb0-4551-a66f-dd83895a31f6","ios":"levelo://app?vid=d960247e-fcb0-4551-a66f-dd83895a31f6"},"vehicle_type_id":"4","last_reported":1752527451,"current_range_meters":11200,"station_id":"ce4bhr12rcd13ifvqhqg","pricing_plan_id":"cebpf4jnsgd1na2vs0mg"},{"bike_id":"63e2cb16-8f73-4965-8e2b-49f73eefa587","system_id":"levelo_inurba_marseille","lat":43.28928,"lon":5.36627,"is_reserved":false,"is_disabled":false,"rental_uris":{"android":"levelo://app?vid=63e2cb16-8f73-4965-8e2b-49f73eefa587","ios":"levelo://app?vid=63e2cb16-8f73-4965-8e2b-49f73eefa587"},"vehicle_type_id":"4","last_reported":1752527451,"current_range_meters":11200,"station_id":"ce4bhap2rcd13ifvqek0","pricing_plan_id":"cebpf4jnsgd1na2vs0mg"},{"bike_id":"b1a326e6-f87b-4f69-a355-1204cd6f0f8a","system_id":"levelo_inurba_marseille","lat":43.28415,"lon":5.37506,"is_reserved":false,"is_disabled":false,"rental_uris":{"android":"levelo://app?vid=b1a326e6-f87b-4f69-a355-1204cd6f0f8a","ios":"levelo://app?vid=b1a326e6-f87b-4f69-a355-1204cd6f0f8a"},"vehicle_type_id":"4","last_reported":1752527451,"current_range_meters":11200,"station_id":"ce4bh412rcd13ifvqds0","pricing_plan_id":"cebpf4jnsgd1na2vs0mg"},{"bike_id":"ffa5ccb4-905c-4e50-802b-1c1f9b2cbe03","system_id":"levelo_inurba_marseille","lat":43.21192,"lon":5.35068,"is_reserved":false,"is_disabled":false,"rental_uris":{"android":"levelo://app?vid=ffa5ccb4-905c-4e50-802b-1c1f9b2cbe03","ios":"levelo://app?vid=ffa5ccb4-905c-4e50-802b-1c1f9b2cbe03"},"vehicle_type_id":"4","last_reported":1752527451,"current_range_meters":11600,"station_id":"","pricing_plan_id":"cebpf4jnsgd1na2vs0mg"},{"bike_id":"4e7f1d1c-f18c-4f55-bee1-7884400ac29c","system_id":"levelo_inurba_marseille","lat":43.29714,"lon":5.36617,"is_reserved":false,"is_disabled":false,"rental_uris":{"android":"levelo://app?vid=4e7f1d1c-f18c-4f55-bee1-7884400ac29c","ios":"levelo://app?vid=4e7f1d1c-f18c-4f55-bee1-7884400ac29c"},"vehicle_type_id":"4","last_reported":1752527451,"current_range_meters":11600,"station_id":"ce4bgn12rcd13ifvqbt0","pricing_plan_id":"cebpf4jnsgd1na2vs0mg"},{"bike_id":"ff740445-ecf3-4f53-be13-efbfa3594892","system_id":"levelo_inurba_marseille","lat":43.28942,"lon":5.36637,"is_reserved":false,"is_disabled":false,"rental_uris":{"android":"levelo://app?vid=ff740445-ecf3-4f53-be13-efbfa3594892","ios":"levelo://app?vid=ff740445-ecf3-4f53-be13-efbfa3594892"},"vehicle_type_id":"4","last_reported":1752527451,"current_range_meters":11600,"station_id":"ce4bhap2rcd13ifvqek0","pricing_plan_id":"cebpf4jnsgd1na2vs0mg"},{"bike_id":"b2564a79-bcce-432a-87e6-efd94f562799","system_id":"levelo_inurba_marseille","lat":43.29314,"lon":5.37182,"is_reserved":false,"is_disabled":false,"rental_uris":{"android":"levelo://app?vid=b2564a79-bcce-432a-87e6-efd94f562799","ios":"levelo://app?vid=b2564a79-bcce-432a-87e6-efd94f562799"},"vehicle_type_id":"4","last_reported":1752527451,"current_range_meters":11600,"station_id":"ce4bgh92rcd13ifvqb40","pricing_plan_id":"cebpf4jnsgd1na2vs0mg"},{"bike_id":"e9b3efd3-34f3-4b3e-ba50-8aa3df771f40","system_id":"levelo_inurba_marseille","lat":43.28939,"lon":5.36652,"is_reserved":false,"is_disabled":false,"rental_uris":{"android":"levelo://app?vid=e9b3efd3-34f3-4b3e-ba50-8aa3df771f40","ios":"levelo://app?vid=e9b3efd3-34f3-4b3e-ba50-8aa3df771f40"},"vehicle_type_id":"4","last_reported":1752527451,"current_range_meters":11600,"station_id":"ce4bhap2rcd13ifvqek0","pricing_plan_id":"cebpf4jnsgd1na2vs0mg"},{"bike_id":"46da64a5-da4e-48a9-bec3-5cb1c43037a6","system_id":"levelo_inurba_marseille","lat":43.29067,"lon":5.3718,"is_reserved":false,"is_disabled":false,"rental_uris":{"android":"levelo://app?vid=46da64a5-da4e-48a9-bec3-5cb1c43037a6","ios":"levelo://app?vid=46da64a5-da4e-48a9-bec3-5cb1c43037a6"},"vehicle_type_id":"4","last_reported":1752527451,"current_range_meters":11600,"station_id":"ce4bh5p2rcd13ifvqe4g","pricing_plan_id":"cebpf4jnsgd1na2vs0mg"},{"bike_id":"e91ced2f-2041-4b38-8446-0d5d97adec95","system_id":"levelo_inurba_marseille","lat":43.25587,"lon":5.38242,"is_reserved":false,"is_disabled":true,"rental_uris":{"android":"levelo://app?vid=e91ced2f-2041-4b38-8446-0d5d97adec95","ios":"levelo://app?vid=e91ced2f-2041-4b38-8446-0d5d97adec95"},"vehicle_type_id":"4","last_reported":1752527451,"current_range_meters":11600,"station_id":"ce4bhih2rcd13ifvqfs0","pricing_plan_id":"cebpf4jnsgd1na2vs0mg"},{"bike_id":"cdc19ac3-388b-4d35-841d-b26e1a93eb03","system_id":"levelo_inurba_marseille","lat":43.29718,"lon":5.36636,"is_reserved":false,"is_disabled":false,"rental_uris":{"android":"levelo://app?vid=cdc19ac3-388b-4d35-841d-b26e1a93eb03","ios":"levelo://app?vid=cdc19ac3-388b-4d35-841d-b26e1a93eb03"},"vehicle_type_id":"4","last_reported":1752527451,"current_range_meters":11600,"station_id":"ce4bgn12rcd13ifvqbt0","pricing_plan_id":"cebpf4jnsgd1na2vs0mg"},{"bike_id":"8a01e88a-8371-4085-9838-47ae11897cd3","system_id":"levelo_inurba_marseille","lat":43.28144,"lon":5.42705,"is_reserved":false,"is_disabled":true,"rental_uris":{"android":"levelo://app?vid=8a01e88a-8371-4085-9838-47ae11897cd3","ios":"levelo://app?vid=8a01e88a-8371-4085-9838-47ae11897cd3"},"vehicle_type_id":"4","last_reported":1752527451,"current_range_meters":11600,"station_id":"ce4bhnh2rcd13ifvqgug","pricing_plan_id":"cebpf4jnsgd1na2vs0mg"},{"bike_id":"c8c4de1a-846f-4f5b-aace-9fb14bf7ad52","system_id":"levelo_inurba_marseille","lat":43.2119,"lon":5.35074,"is_reserved":false,"is_disabled":false,"rental_uris":{"android":"levelo://app?vid=c8c4de1a-846f-4f5b-aace-9fb14bf7ad52","ios":"levelo://app?vid=c8c4de1a-846f-4f5b-aace-9fb14bf7ad52"},"vehicle_type_id":"4","last_reported":1752527451,"current_range_meters":11600,"station_id":"st_cvj6sg6p6f1abm77japg","pricing_plan_id":"cebpf4jnsgd1na2vs0mg"},{"bike_id":"088e6b1d-8a81-47e0-9ad0-36233ed399c0","system_id":"levelo_inurba_marseille","lat":43.27914,"lon":5.3962,"is_reserved":false,"is_disabled":true,"rental_uris":{"android":"levelo://app?vid=088e6b1d-8a81-47e0-9ad0-36233ed399c0","ios":"levelo://app?vid=088e6b1d-8a81-47e0-9ad0-36233ed399c0"},"vehicle_type_id":"4","last_reported":1752527451,"current_range_meters":11600,"station_id":"ce4bhf92rcd13ifvqf40","pricing_plan_id":"cebpf4jnsgd1na2vs0mg"},{"bike_id":"9b1afee0-5d71-42b1-bfb3-0f11fa1e097d","system_id":"levelo_inurba_marseille","lat":43.292534,"lon":5.376396,"is_reserved":false,"is_disabled":false,"rental_uris":{"android":"levelo://app?vid=9b1afee0-5d71-42b1-bfb3-0f11fa1e097d","ios":"levelo://app?vid=9b1afee0-5d71-42b1-bfb3-0f11fa1e097d"},"vehicle_type_id":"4","last_reported":1752527451,"current_range_meters":12000,"station_id":"","pricing_plan_id":"cebpf4jnsgd1na2vs0mg"},{"bike_id":"749364c1-0dea-494e-b53c-648ee3eaa101","system_id":"levelo_inurba_marseille","lat":43.29621,"lon":5.3773,"is_reserved":false,"is_disabled":false,"rental_uris":{"android":"levelo://app?vid=749364c1-0dea-494e-b53c-648ee3eaa101","ios":"levelo://app?vid=749364c1-0dea-494e-b53c-648ee3eaa101"},"vehicle_type_id":"4","last_reported":1752527451,"current_range_meters":12000,"station_id":"ce4bgi92rcd13ifvqb90","pricing_plan_id":"cebpf4jnsgd1na2vs0mg"},{"bike_id":"f5a47db5-6fb2-46bd-a2de-efa4ad13bf60","system_id":"levelo_inurba_marseille","lat":43.21189,"lon":5.35076,"is_reserved":false,"is_disabled":false,"rental_uris":{"android":"levelo://app?vid=f5a47db5-6fb2-46bd-a2de-efa4ad13bf60","ios":"levelo://app?vid=f5a47db5-6fb2-46bd-a2de-efa4ad13bf60"},"vehicle_type_id":"4","last_reported":1752527451,"current_range_meters":12000,"station_id":"st_cvj6sg6p6f1abm77japg","pricing_plan_id":"cebpf4jnsgd1na2vs0mg"},{"bike_id":"9fa15599-730a-4879-b12e-0d80af7cd500","system_id":"levelo_inurba_marseille","lat":43.27057,"lon":5.40259,"is_reserved":false,"is_disabled":false,"rental_uris":{"android":"levelo://app?vid=9fa15599-730a-4879-b12e-0d80af7cd500","ios":"levelo://app?vid=9fa15599-730a-4879-b12e-0d80af7cd500"},"vehicle_type_id":"4","last_reported":1752527451,"current_range_meters":12000,"station_id":"ce4bhk92rcd13ifvqgc0","pricing_plan_id":"cebpf4jnsgd1na2vs0mg"},{"bike_id":"a4d07f45-19f9-4df9-9728-be6623530a64","system_id":"levelo_inurba_marseille","lat":43.23706,"lon":5.38874,"is_reserved":false,"is_disabled":false,"rental_uris":{"android":"levelo://app?vid=a4d07f45-19f9-4df9-9728-be6623530a64","ios":"levelo://app?vid=a4d07f45-19f9-4df9-9728-be6623530a64"},"vehicle_type_id":"4","last_reported":1752527451,"current_range_meters":12000,"station_id":"","pricing_plan_id":"cebpf4jnsgd1na2vs0mg"},{"bike_id":"0d005bc3-051c-4558-8de0-55ad0d18731f","system_id":"levelo_inurba_marseille","lat":43.28705,"lon":5.373779,"is_reserved":false,"is_disabled":false,"rental_uris":{"android":"levelo://app?vid=0d005bc3-051c-4558-8de0-55ad0d18731f","ios":"levelo://app?vid=0d005bc3-051c-4558-8de0-55ad0d18731f"},"vehicle_type_id":"4","last_reported":1752527451,"current_range_meters":12000,"station_id":"ce4bh3p2rcd13ifvqdq0","pricing_plan_id":"cebpf4jnsgd1na2vs0mg"},{"bike_id":"938b01d6-66e7-473c-aae3-3cdefb317ed3","system_id":"levelo_inurba_marseille","lat":43.29169,"lon":5.37191,"is_reserved":false,"is_disabled":false,"rental_uris":{"android":"levelo://app?vid=938b01d6-66e7-473c-aae3-3cdefb317ed3","ios":"levelo://app?vid=938b01d6-66e7-473c-aae3-3cdefb317ed3"},"vehicle_type_id":"4","last_reported":1752527451,"current_range_meters":12000,"station_id":"ce4bha92rcd13ifvqeh0","pricing_plan_id":"cebpf4jnsgd1na2vs0mg"},{"bike_id":"697d5fc4-b988-4a4e-8323-c1ce5ed61a61","system_id":"levelo_inurba_marseille","lat":43.21161,"lon":5.35098,"is_reserved":false,"is_disabled":false,"rental_uris":{"android":"levelo://app?vid=697d5fc4-b988-4a4e-8323-c1ce5ed61a61","ios":"levelo://app?vid=697d5fc4-b988-4a4e-8323-c1ce5ed61a61"},"vehicle_type_id":"4","last_reported":1752527451,"current_range_meters":12400,"station_id":"st_cvj6sg6p6f1abm77japg","pricing_plan_id":"cebpf4jnsgd1na2vs0mg"},{"bike_id":"4a19e4ee-cbbe-4fd8-9e6c-310afa6ee6c9","system_id":"levelo_inurba_marseille","lat":43.23182,"lon":5.40025,"is_reserved":false,"is_disabled":true,"rental_uris":{"android":"levelo://app?vid=4a19e4ee-cbbe-4fd8-9e6c-310afa6ee6c9","ios":"levelo://app?vid=4a19e4ee-cbbe-4fd8-9e6c-310afa6ee6c9"},"vehicle_type_id":"4","last_reported":1752527451,"current_range_meters":12400,"station_id":"ce4bhn12rcd13ifvqgqg","pricing_plan_id":"cebpf4jnsgd1na2vs0mg"},{"bike_id":"f0024ccf-5453-4f73-bd67-9dcc66e73f0b","system_id":"levelo_inurba_marseille","lat":43.29263,"lon":5.40918,"is_reserved":false,"is_disabled":false,"rental_uris":{"android":"levelo://app?vid=f0024ccf-5453-4f73-bd67-9dcc66e73f0b","ios":"levelo://app?vid=f0024ccf-5453-4f73-bd67-9dcc66e73f0b"},"vehicle_type_id":"4","last_reported":1752527451,"current_range_meters":12400,"station_id":"ce4bh192rcd13ifvqdc0","pricing_plan_id":"cebpf4jnsgd1na2vs0mg"},{"bike_id":"08dbf31c-b540-4ca6-b57d-3481ea73d97b","system_id":"levelo_inurba_marseille","lat":43.22498,"lon":5.3478,"is_reserved":false,"is_disabled":false,"rental_uris":{"android":"levelo://app?vid=08dbf31c-b540-4ca6-b57d-3481ea73d97b","ios":"levelo://app?vid=08dbf31c-b540-4ca6-b57d-3481ea73d97b"},"vehicle_type_id":"4","last_reported":1752527451,"current_range_meters":12400,"station_id":"st_cvj5dfep6f1abm77gieg","pricing_plan_id":"cebpf4jnsgd1na2vs0mg"},{"bike_id":"5f2eb0d0-bf7b-4daf-bca6-ead9755d559f","system_id":"levelo_inurba_marseille","lat":43.28402,"lon":5.37506,"is_reserved":false,"is_disabled":false,"rental_uris":{"android":"levelo://app?vid=5f2eb0d0-bf7b-4daf-bca6-ead9755d559f","ios":"levelo://app?vid=5f2eb0d0-bf7b-4daf-bca6-ead9755d559f"},"vehicle_type_id":"4","last_reported":1752527451,"current_range_meters":12400,"station_id":"ce4bh412rcd13ifvqds0","pricing_plan_id":"cebpf4jnsgd1na2vs0mg"},{"bike_id":"bb10e8d0-084f-464c-8a89-2e96c53cbe8e","system_id":"levelo_inurba_marseille","lat":43.29308,"lon":5.372,"is_reserved":false,"is_disabled":false,"rental_uris":{"android":"levelo://app?vid=bb10e8d0-084f-464c-8a89-2e96c53cbe8e","ios":"levelo://app?vid=bb10e8d0-084f-464c-8a89-2e96c53cbe8e"},"vehicle_type_id":"4","last_reported":1752527451,"current_range_meters":12400,"station_id":"ce4bgh92rcd13ifvqb40","pricing_plan_id":"cebpf4jnsgd1na2vs0mg"},{"bike_id":"9087edf9-6a90-464f-9ff2-b2ca328cd495","system_id":"levelo_inurba_marseille","lat":43.28846,"lon":5.39311,"is_reserved":false,"is_disabled":false,"rental_uris":{"android":"levelo://app?vid=9087edf9-6a90-464f-9ff2-b2ca328cd495","ios":"levelo://app?vid=9087edf9-6a90-464f-9ff2-b2ca328cd495"},"vehicle_type_id":"4","last_reported":1752527451,"current_range_meters":12400,"station_id":"ce4bh2p2rcd13ifvqdi0","pricing_plan_id":"cebpf4jnsgd1na2vs0mg"},{"bike_id":"df737b47-6e09-4542-8d35-f3681d0e6a4d","system_id":"levelo_inurba_marseille","lat":43.27617,"lon":5.361,"is_reserved":false,"is_disabled":true,"rental_uris":{"android":"levelo://app?vid=df737b47-6e09-4542-8d35-f3681d0e6a4d","ios":"levelo://app?vid=df737b47-6e09-4542-8d35-f3681d0e6a4d"},"vehicle_type_id":"4","last_reported":1752527451,"current_range_meters":12800,"station_id":"ce4bgj92rcd13ifvqbe0","pricing_plan_id":"cebpf4jnsgd1na2vs0mg"},{"bike_id":"e1442ff3-c767-4bb3-901d-e5f60873ad13","system_id":"levelo_inurba_marseille","lat":43.231945,"lon":5.39994,"is_reserved":false,"is_disabled":false,"rental_uris":{"android":"levelo://app?vid=e1442ff3-c767-4bb3-901d-e5f60873ad13","ios":"levelo://app?vid=e1442ff3-c767-4bb3-901d-e5f60873ad13"},"vehicle_type_id":"4","last_reported":1752527451,"current_range_meters":12800,"station_id":"","pricing_plan_id":"cebpf4jnsgd1na2vs0mg"},{"bike_id":"f85106ce-a1de-4a08-95c1-e77ff710699d","system_id":"levelo_inurba_marseille","lat":43.286117,"lon":5.370574,"is_reserved":false,"is_disabled":false,"rental_uris":{"android":"levelo://app?vid=f85106ce-a1de-4a08-95c1-e77ff710699d","ios":"levelo://app?vid=f85106ce-a1de-4a08-95c1-e77ff710699d"},"vehicle_type_id":"4","last_reported":1752527451,"current_range_meters":12800,"station_id":"","pricing_plan_id":"cebpf4jnsgd1na2vs0mg"},{"bike_id":"6ac174d4-75c5-4a9c-9699-97cd631c6e65","system_id":"levelo_inurba_marseille","lat":43.25459,"lon":5.39953,"is_reserved":false,"is_disabled":false,"rental_uris":{"android":"levelo://app?vid=6ac174d4-75c5-4a9c-9699-97cd631c6e65","ios":"levelo://app?vid=6ac174d4-75c5-4a9c-9699-97cd631c6e65"},"vehicle_type_id":"4","last_reported":1752527451,"current_range_meters":12800,"station_id":"","pricing_plan_id":"cebpf4jnsgd1na2vs0mg"},{"bike_id":"f8927b98-2df7-42ce-bfa9-aee7cc6ab96f","system_id":"levelo_inurba_marseille","lat":43.302164,"lon":5.394723,"is_reserved":false,"is_disabled":false,"rental_uris":{"android":"levelo://app?vid=f8927b98-2df7-42ce-bfa9-aee7cc6ab96f","ios":"levelo://app?vid=f8927b98-2df7-42ce-bfa9-aee7cc6ab96f"},"vehicle_type_id":"4","last_reported":1752527451,"current_range_meters":12800,"station_id":"ce4bh0p2rcd13ifvqd70","pricing_plan_id":"cebpf4jnsgd1na2vs0mg"},{"bike_id":"ecbeb90d-46ca-4ab2-ad6b-af9cf6e2e10c","system_id":"levelo_inurba_marseille","lat":43.29302,"lon":5.37453,"is_reserved":false,"is_disabled":false,"rental_uris":{"android":"levelo://app?vid=ecbeb90d-46ca-4ab2-ad6b-af9cf6e2e10c","ios":"levelo://app?vid=ecbeb90d-46ca-4ab2-ad6b-af9cf6e2e10c"},"vehicle_type_id":"4","last_reported":1752527451,"current_range_meters":12800,"station_id":"ce4bgi12rcd13ifvqb70","pricing_plan_id":"cebpf4jnsgd1na2vs0mg"},{"bike_id":"b8cd0d8f-49ce-4a9f-a4c1-863efb2e7fb2","system_id":"levelo_inurba_marseille","lat":43.2971,"lon":5.36615,"is_reserved":false,"is_disabled":false,"rental_uris":{"android":"levelo://app?vid=b8cd0d8f-49ce-4a9f-a4c1-863efb2e7fb2","ios":"levelo://app?vid=b8cd0d8f-49ce-4a9f-a4c1-863efb2e7fb2"},"vehicle_type_id":"4","last_reported":1752527451,"current_range_meters":13600,"station_id":"ce4bgn12rcd13ifvqbt0","pricing_plan_id":"cebpf4jnsgd1na2vs0mg"},{"bike_id":"37042534-5f36-4f1d-ba97-7a085b7dd498","system_id":"levelo_inurba_marseille","lat":43.28608,"lon":5.370568,"is_reserved":false,"is_disabled":false,"rental_uris":{"android":"levelo://app?vid=37042534-5f36-4f1d-ba97-7a085b7dd498","ios":"levelo://app?vid=37042534-5f36-4f1d-ba97-7a085b7dd498"},"vehicle_type_id":"4","last_reported":1752527451,"current_range_meters":13600,"station_id":"ce4bht12rcd13ifvqi60","pricing_plan_id":"cebpf4jnsgd1na2vs0mg"},{"bike_id":"360b15e9-0de1-4e9f-877c-e4bd792377f4","system_id":"levelo_inurba_marseille","lat":43.29307,"lon":5.37447,"is_reserved":false,"is_disabled":false,"rental_uris":{"android":"levelo://app?vid=360b15e9-0de1-4e9f-877c-e4bd792377f4","ios":"levelo://app?vid=360b15e9-0de1-4e9f-877c-e4bd792377f4"},"vehicle_type_id":"4","last_reported":1752527451,"current_range_meters":13600,"station_id":"ce4bgi12rcd13ifvqb70","pricing_plan_id":"cebpf4jnsgd1na2vs0mg"},{"bike_id":"30b626e1-5f22-491a-85d1-4f6dcb04362a","system_id":"levelo_inurba_marseille","lat":43.29228,"lon":5.36046,"is_reserved":false,"is_disabled":false,"rental_uris":{"android":"levelo://app?vid=30b626e1-5f22-491a-85d1-4f6dcb04362a","ios":"levelo://app?vid=30b626e1-5f22-491a-85d1-4f6dcb04362a"},"vehicle_type_id":"4","last_reported":1752527451,"current_range_meters":13600,"station_id":"ce4bhbh2rcd13ifvqeqg","pricing_plan_id":"cebpf4jnsgd1na2vs0mg"},{"bike_id":"ed74f810-226b-4edb-a7d8-2c9a86d071a4","system_id":"levelo_inurba_marseille","lat":43.21191,"lon":5.35073,"is_reserved":false,"is_disabled":false,"rental_uris":{"android":"levelo://app?vid=ed74f810-226b-4edb-a7d8-2c9a86d071a4","ios":"levelo://app?vid=ed74f810-226b-4edb-a7d8-2c9a86d071a4"},"vehicle_type_id":"4","last_reported":1752527451,"current_range_meters":13600,"station_id":"st_cvj6sg6p6f1abm77japg","pricing_plan_id":"cebpf4jnsgd1na2vs0mg"},{"bike_id":"eddc6edc-85da-4d72-b19e-99285dcf2559","system_id":"levelo_inurba_marseille","lat":43.29228,"lon":5.3606,"is_reserved":false,"is_disabled":false,"rental_uris":{"android":"levelo://app?vid=eddc6edc-85da-4d72-b19e-99285dcf2559","ios":"levelo://app?vid=eddc6edc-85da-4d72-b19e-99285dcf2559"},"vehicle_type_id":"4","last_reported":1752527451,"current_range_meters":13600,"station_id":"ce4bhbh2rcd13ifvqeqg","pricing_plan_id":"cebpf4jnsgd1na2vs0mg"},{"bike_id":"a3ec3b7b-cbe5-4b4c-b4a1-6535b4bb722e","system_id":"levelo_inurba_marseille","lat":43.286,"lon":5.37093,"is_reserved":false,"is_disabled":false,"rental_uris":{"android":"levelo://app?vid=a3ec3b7b-cbe5-4b4c-b4a1-6535b4bb722e","ios":"levelo://app?vid=a3ec3b7b-cbe5-4b4c-b4a1-6535b4bb722e"},"vehicle_type_id":"4","last_reported":1752527451,"current_range_meters":13600,"station_id":"ce4bht12rcd13ifvqi60","pricing_plan_id":"cebpf4jnsgd1na2vs0mg"},{"bike_id":"ed806781-e2f1-4364-aa57-a217f049025f","system_id":"levelo_inurba_marseille","lat":43.28927,"lon":5.3663,"is_reserved":false,"is_disabled":false,"rental_uris":{"android":"levelo://app?vid=ed806781-e2f1-4364-aa57-a217f049025f","ios":"levelo://app?vid=ed806781-e2f1-4364-aa57-a217f049025f"},"vehicle_type_id":"4","last_reported":1752527451,"current_range_meters":13600,"station_id":"ce4bhap2rcd13ifvqek0","pricing_plan_id":"cebpf4jnsgd1na2vs0mg"},{"bike_id":"9bb8be77-713d-4eb6-9381-f5ff9ebe964a","system_id":"levelo_inurba_marseille","lat":43.28394,"lon":5.37516,"is_reserved":false,"is_disabled":false,"rental_uris":{"android":"levelo://app?vid=9bb8be77-713d-4eb6-9381-f5ff9ebe964a","ios":"levelo://app?vid=9bb8be77-713d-4eb6-9381-f5ff9ebe964a"},"vehicle_type_id":"4","last_reported":1752527451,"current_range_meters":14000,"station_id":"ce4bh412rcd13ifvqds0","pricing_plan_id":"cebpf4jnsgd1na2vs0mg"},{"bike_id":"67b0aca0-406d-49b0-9f2e-cece50434512","system_id":"levelo_inurba_marseille","lat":43.28079,"lon":5.39665,"is_reserved":false,"is_disabled":false,"rental_uris":{"android":"levelo://app?vid=67b0aca0-406d-49b0-9f2e-cece50434512","ios":"levelo://app?vid=67b0aca0-406d-49b0-9f2e-cece50434512"},"vehicle_type_id":"4","last_reported":1752527451,"current_range_meters":14000,"station_id":"ce4bho12rcd13ifvqh2g","pricing_plan_id":"cebpf4jnsgd1na2vs0mg"},{"bike_id":"37cf8e09-e87a-4191-8687-e4c6c10aabb8","system_id":"levelo_inurba_marseille","lat":43.24834,"lon":5.37391,"is_reserved":false,"is_disabled":true,"rental_uris":{"android":"levelo://app?vid=37cf8e09-e87a-4191-8687-e4c6c10aabb8","ios":"levelo://app?vid=37cf8e09-e87a-4191-8687-e4c6c10aabb8"},"vehicle_type_id":"4","last_reported":1752527451,"current_range_meters":14000,"station_id":"","pricing_plan_id":"cebpf4jnsgd1na2vs0mg"},{"bike_id":"2ad02c85-ef7c-433f-bce6-a9b368589f55","system_id":"levelo_inurba_marseille","lat":43.30949,"lon":5.3905,"is_reserved":false,"is_disabled":false,"rental_uris":{"android":"levelo://app?vid=2ad02c85-ef7c-433f-bce6-a9b368589f55","ios":"levelo://app?vid=2ad02c85-ef7c-433f-bce6-a9b368589f55"},"vehicle_type_id":"4","last_reported":1752527451,"current_range_meters":14000,"station_id":"ce4bgup2rcd13ifvqco0","pricing_plan_id":"cebpf4jnsgd1na2vs0mg"},{"bike_id":"0ee1f114-6efb-457b-b55d-1f8e5e66c8bb","system_id":"levelo_inurba_marseille","lat":43.2922,"lon":5.36057,"is_reserved":false,"is_disabled":false,"rental_uris":{"android":"levelo://app?vid=0ee1f114-6efb-457b-b55d-1f8e5e66c8bb","ios":"levelo://app?vid=0ee1f114-6efb-457b-b55d-1f8e5e66c8bb"},"vehicle_type_id":"4","last_reported":1752527451,"current_range_meters":14000,"station_id":"ce4bhbh2rcd13ifvqeqg","pricing_plan_id":"cebpf4jnsgd1na2vs0mg"},{"bike_id":"278f479d-5887-4b9b-957c-622ab26363ee","system_id":"levelo_inurba_marseille","lat":43.30082,"lon":5.39071,"is_reserved":false,"is_disabled":false,"rental_uris":{"android":"levelo://app?vid=278f479d-5887-4b9b-957c-622ab26363ee","ios":"levelo://app?vid=278f479d-5887-4b9b-957c-622ab26363ee"},"vehicle_type_id":"4","last_reported":1752527451,"current_range_meters":14000,"station_id":"ce4bh192rcd13ifvqdb0","pricing_plan_id":"cebpf4jnsgd1na2vs0mg"},{"bike_id":"62c2a42f-6d72-42cd-9bd7-760a20f37939","system_id":"levelo_inurba_marseille","lat":43.29314,"lon":5.37189,"is_reserved":false,"is_disabled":false,"rental_uris":{"android":"levelo://app?vid=62c2a42f-6d72-42cd-9bd7-760a20f37939","ios":"levelo://app?vid=62c2a42f-6d72-42cd-9bd7-760a20f37939"},"vehicle_type_id":"4","last_reported":1752527451,"current_range_meters":14000,"station_id":"ce4bgh92rcd13ifvqb40","pricing_plan_id":"cebpf4jnsgd1na2vs0mg"},{"bike_id":"c7093130-c83f-445b-8157-2f7ad1a1f7eb","system_id":"levelo_inurba_marseille","lat":43.28946,"lon":5.36629,"is_reserved":false,"is_disabled":false,"rental_uris":{"android":"levelo://app?vid=c7093130-c83f-445b-8157-2f7ad1a1f7eb","ios":"levelo://app?vid=c7093130-c83f-445b-8157-2f7ad1a1f7eb"},"vehicle_type_id":"4","last_reported":1752527451,"current_range_meters":14400,"station_id":"ce4bhap2rcd13ifvqek0","pricing_plan_id":"cebpf4jnsgd1na2vs0mg"},{"bike_id":"be9c64de-59e2-4afd-aaa6-e6ec82cb54d8","system_id":"levelo_inurba_marseille","lat":43.2558,"lon":5.38227,"is_reserved":false,"is_disabled":false,"rental_uris":{"android":"levelo://app?vid=be9c64de-59e2-4afd-aaa6-e6ec82cb54d8","ios":"levelo://app?vid=be9c64de-59e2-4afd-aaa6-e6ec82cb54d8"},"vehicle_type_id":"4","last_reported":1752527451,"current_range_meters":14400,"station_id":"ce4bhih2rcd13ifvqfs0","pricing_plan_id":"cebpf4jnsgd1na2vs0mg"},{"bike_id":"93b44191-1f5a-4bac-b812-b4faad193dff","system_id":"levelo_inurba_marseille","lat":43.29905,"lon":5.3814,"is_reserved":false,"is_disabled":false,"rental_uris":{"android":"levelo://app?vid=93b44191-1f5a-4bac-b812-b4faad193dff","ios":"levelo://app?vid=93b44191-1f5a-4bac-b812-b4faad193dff"},"vehicle_type_id":"4","last_reported":1752527451,"current_range_meters":14400,"station_id":"ce4bgj12rcd13ifvqbc0","pricing_plan_id":"cebpf4jnsgd1na2vs0mg"},{"bike_id":"c7487efc-15d7-44b6-a943-c5a2c2e766bb","system_id":"levelo_inurba_marseille","lat":43.33021,"lon":5.3904,"is_reserved":false,"is_disabled":false,"rental_uris":{"android":"levelo://app?vid=c7487efc-15d7-44b6-a943-c5a2c2e766bb","ios":"levelo://app?vid=c7487efc-15d7-44b6-a943-c5a2c2e766bb"},"vehicle_type_id":"4","last_reported":1752527451,"current_range_meters":14800,"station_id":"ce4bhr92rcd13ifvqhrg","pricing_plan_id":"cebpf4jnsgd1na2vs0mg"},{"bike_id":"41e47ab4-31d6-4e54-b9bb-9741e0f94162","system_id":"levelo_inurba_marseille","lat":43.22928,"lon":5.35377,"is_reserved":false,"is_disabled":false,"rental_uris":{"android":"levelo://app?vid=41e47ab4-31d6-4e54-b9bb-9741e0f94162","ios":"levelo://app?vid=41e47ab4-31d6-4e54-b9bb-9741e0f94162"},"vehicle_type_id":"4","last_reported":1752527451,"current_range_meters":14800,"station_id":"cpo3532slgdg3j2ikp40","pricing_plan_id":"cebpf4jnsgd1na2vs0mg"},{"bike_id":"a2d7a336-0be6-496d-8cec-23d3c2054e9b","system_id":"levelo_inurba_marseille","lat":43.29188,"lon":5.35798,"is_reserved":false,"is_disabled":true,"rental_uris":{"android":"levelo://app?vid=a2d7a336-0be6-496d-8cec-23d3c2054e9b","ios":"levelo://app?vid=a2d7a336-0be6-496d-8cec-23d3c2054e9b"},"vehicle_type_id":"4","last_reported":1752527451,"current_range_meters":14800,"station_id":"ce4bhb12rcd13ifvqel0","pricing_plan_id":"cebpf4jnsgd1na2vs0mg"},{"bike_id":"4afc4454-136a-4e63-8e32-645a3459b4e6","system_id":"levelo_inurba_marseille","lat":43.28938,"lon":5.36703,"is_reserved":false,"is_disabled":false,"rental_uris":{"android":"levelo://app?vid=4afc4454-136a-4e63-8e32-645a3459b4e6","ios":"levelo://app?vid=4afc4454-136a-4e63-8e32-645a3459b4e6"},"vehicle_type_id":"4","last_reported":1752527451,"current_range_meters":14800,"station_id":"","pricing_plan_id":"cebpf4jnsgd1na2vs0mg"},{"bike_id":"c4394d8c-8102-4300-bdb5-758262918af2","system_id":"levelo_inurba_marseille","lat":43.30924,"lon":5.40158,"is_reserved":false,"is_disabled":true,"rental_uris":{"android":"levelo://app?vid=c4394d8c-8102-4300-bdb5-758262918af2","ios":"levelo://app?vid=c4394d8c-8102-4300-bdb5-758262918af2"},"vehicle_type_id":"4","last_reported":1752527451,"current_range_meters":14800,"station_id":"ce4bgvp2rcd13ifvqct0","pricing_plan_id":"cebpf4jnsgd1na2vs0mg"},{"bike_id":"96404d04-512d-4e45-b57c-350a79134d38","system_id":"levelo_inurba_marseille","lat":43.21202,"lon":5.35094,"is_reserved":false,"is_disabled":false,"rental_uris":{"android":"levelo://app?vid=96404d04-512d-4e45-b57c-350a79134d38","ios":"levelo://app?vid=96404d04-512d-4e45-b57c-350a79134d38"},"vehicle_type_id":"4","last_reported":1752527451,"current_range_meters":14800,"station_id":"st_cvj6sg6p6f1abm77japg","pricing_plan_id":"cebpf4jnsgd1na2vs0mg"},{"bike_id":"44e10618-e1b8-4569-bc24-980853c4bf04","system_id":"levelo_inurba_marseille","lat":43.22943,"lon":5.35418,"is_reserved":false,"is_disabled":true,"rental_uris":{"android":"levelo://app?vid=44e10618-e1b8-4569-bc24-980853c4bf04","ios":"levelo://app?vid=44e10618-e1b8-4569-bc24-980853c4bf04"},"vehicle_type_id":"4","last_reported":1752527451,"current_range_meters":15200,"station_id":"cpo3532slgdg3j2ikp40","pricing_plan_id":"cebpf4jnsgd1na2vs0mg"},{"bike_id":"b5e996ed-4145-4f8b-8547-5dd47c4e3bb7","system_id":"levelo_inurba_marseille","lat":43.29434,"lon":5.38608,"is_reserved":false,"is_disabled":false,"rental_uris":{"android":"levelo://app?vid=b5e996ed-4145-4f8b-8547-5dd47c4e3bb7","ios":"levelo://app?vid=b5e996ed-4145-4f8b-8547-5dd47c4e3bb7"},"vehicle_type_id":"4","last_reported":1752527451,"current_range_meters":15200,"station_id":"ce4bh2h2rcd13ifvqdh0","pricing_plan_id":"cebpf4jnsgd1na2vs0mg"},{"bike_id":"bbc1f65a-3036-4b1c-ba15-bda0d1ab43dd","system_id":"levelo_inurba_marseille","lat":43.28623,"lon":5.37077,"is_reserved":false,"is_disabled":false,"rental_uris":{"android":"levelo://app?vid=bbc1f65a-3036-4b1c-ba15-bda0d1ab43dd","ios":"levelo://app?vid=bbc1f65a-3036-4b1c-ba15-bda0d1ab43dd"},"vehicle_type_id":"4","last_reported":1752527451,"current_range_meters":15200,"station_id":"ce4bht12rcd13ifvqi60","pricing_plan_id":"cebpf4jnsgd1na2vs0mg"},{"bike_id":"fccd70b1-4be5-46e0-89fc-5c8736539790","system_id":"levelo_inurba_marseille","lat":43.29552,"lon":5.42296,"is_reserved":false,"is_disabled":false,"rental_uris":{"android":"levelo://app?vid=fccd70b1-4be5-46e0-89fc-5c8736539790","ios":"levelo://app?vid=fccd70b1-4be5-46e0-89fc-5c8736539790"},"vehicle_type_id":"4","last_reported":1752527451,"current_range_meters":15200,"station_id":"ce4bhph2rcd13ifvqhdg","pricing_plan_id":"cebpf4jnsgd1na2vs0mg"},{"bike_id":"18977eb5-4596-4be8-a6de-d29c04e6f3d1","system_id":"levelo_inurba_marseille","lat":43.28395,"lon":5.37513,"is_reserved":false,"is_disabled":false,"rental_uris":{"android":"levelo://app?vid=18977eb5-4596-4be8-a6de-d29c04e6f3d1","ios":"levelo://app?vid=18977eb5-4596-4be8-a6de-d29c04e6f3d1"},"vehicle_type_id":"4","last_reported":1752527451,"current_range_meters":15200,"station_id":"ce4bh412rcd13ifvqds0","pricing_plan_id":"cebpf4jnsgd1na2vs0mg"},{"bike_id":"ac4aa39f-1fff-4e40-8065-cc1749b612ec","system_id":"levelo_inurba_marseille","lat":43.286,"lon":5.37073,"is_reserved":false,"is_disabled":false,"rental_uris":{"android":"levelo://app?vid=ac4aa39f-1fff-4e40-8065-cc1749b612ec","ios":"levelo://app?vid=ac4aa39f-1fff-4e40-8065-cc1749b612ec"},"vehicle_type_id":"4","last_reported":1752527451,"current_range_meters":15200,"station_id":"ce4bht12rcd13ifvqi60","pricing_plan_id":"cebpf4jnsgd1na2vs0mg"},{"bike_id":"920eb17c-7f0c-48a7-bbbe-2d1082b64106","system_id":"levelo_inurba_marseille","lat":43.30373,"lon":5.42487,"is_reserved":false,"is_disabled":false,"rental_uris":{"android":"levelo://app?vid=920eb17c-7f0c-48a7-bbbe-2d1082b64106","ios":"levelo://app?vid=920eb17c-7f0c-48a7-bbbe-2d1082b64106"},"vehicle_type_id":"4","last_reported":1752527451,"current_range_meters":15200,"station_id":"ce4bhoh2rcd13ifvqh6g","pricing_plan_id":"cebpf4jnsgd1na2vs0mg"},{"bike_id":"2b5cb2d4-f197-4b99-9d99-849445c2a2e7","system_id":"levelo_inurba_marseille","lat":43.28606,"lon":5.37061,"is_reserved":false,"is_disabled":false,"rental_uris":{"android":"levelo://app?vid=2b5cb2d4-f197-4b99-9d99-849445c2a2e7","ios":"levelo://app?vid=2b5cb2d4-f197-4b99-9d99-849445c2a2e7"},"vehicle_type_id":"4","last_reported":1752527451,"current_range_meters":15200,"station_id":"ce4bht12rcd13ifvqi60","pricing_plan_id":"cebpf4jnsgd1na2vs0mg"},{"bike_id":"e23a6117-9cb7-4c40-8b12-fc2a6613ac6f","system_id":"levelo_inurba_marseille","lat":43.28618,"lon":5.37059,"is_reserved":false,"is_disabled":false,"rental_uris":{"android":"levelo://app?vid=e23a6117-9cb7-4c40-8b12-fc2a6613ac6f","ios":"levelo://app?vid=e23a6117-9cb7-4c40-8b12-fc2a6613ac6f"},"vehicle_type_id":"4","last_reported":1752527451,"current_range_meters":16000,"station_id":"ce4bht12rcd13ifvqi60","pricing_plan_id":"cebpf4jnsgd1na2vs0mg"},{"bike_id":"9bc1f4d5-a955-42b1-a6e4-741fc138dc97","system_id":"levelo_inurba_marseille","lat":43.28921,"lon":5.36636,"is_reserved":false,"is_disabled":false,"rental_uris":{"android":"levelo://app?vid=9bc1f4d5-a955-42b1-a6e4-741fc138dc97","ios":"levelo://app?vid=9bc1f4d5-a955-42b1-a6e4-741fc138dc97"},"vehicle_type_id":"4","last_reported":1752527451,"current_range_meters":16000,"station_id":"ce4bhap2rcd13ifvqek0","pricing_plan_id":"cebpf4jnsgd1na2vs0mg"},{"bike_id":"d0f90c24-dd03-411b-9731-55305f76b7c8","system_id":"levelo_inurba_marseille","lat":43.21178,"lon":5.35131,"is_reserved":false,"is_disabled":false,"rental_uris":{"android":"levelo://app?vid=d0f90c24-dd03-411b-9731-55305f76b7c8","ios":"levelo://app?vid=d0f90c24-dd03-411b-9731-55305f76b7c8"},"vehicle_type_id":"4","last_reported":1752527451,"current_range_meters":16000,"station_id":"st_cvj6sg6p6f1abm77japg","pricing_plan_id":"cebpf4jnsgd1na2vs0mg"},{"bike_id":"fcd528ca-1e9d-451b-bc38-af14e9b77d31","system_id":"levelo_inurba_marseille","lat":43.28942,"lon":5.36642,"is_reserved":false,"is_disabled":false,"rental_uris":{"android":"levelo://app?vid=fcd528ca-1e9d-451b-bc38-af14e9b77d31","ios":"levelo://app?vid=fcd528ca-1e9d-451b-bc38-af14e9b77d31"},"vehicle_type_id":"4","last_reported":1752527451,"current_range_meters":16000,"station_id":"ce4bhap2rcd13ifvqek0","pricing_plan_id":"cebpf4jnsgd1na2vs0mg"},{"bike_id":"b117bb48-a2b3-40d7-a08e-b32bdeb95a1e","system_id":"levelo_inurba_marseille","lat":43.29157,"lon":5.37186,"is_reserved":false,"is_disabled":false,"rental_uris":{"android":"levelo://app?vid=b117bb48-a2b3-40d7-a08e-b32bdeb95a1e","ios":"levelo://app?vid=b117bb48-a2b3-40d7-a08e-b32bdeb95a1e"},"vehicle_type_id":"4","last_reported":1752527451,"current_range_meters":16000,"station_id":"ce4bha92rcd13ifvqeh0","pricing_plan_id":"cebpf4jnsgd1na2vs0mg"},{"bike_id":"f10941ce-d19a-4475-b0ba-1c38d332727e","system_id":"levelo_inurba_marseille","lat":43.32135,"lon":5.38719,"is_reserved":false,"is_disabled":false,"rental_uris":{"android":"levelo://app?vid=f10941ce-d19a-4475-b0ba-1c38d332727e","ios":"levelo://app?vid=f10941ce-d19a-4475-b0ba-1c38d332727e"},"vehicle_type_id":"4","last_reported":1752527451,"current_range_meters":16000,"station_id":"","pricing_plan_id":"cebpf4jnsgd1na2vs0mg"},{"bike_id":"a9169505-65b5-4384-aac6-07a12936117d","system_id":"levelo_inurba_marseille","lat":43.29174,"lon":5.38451,"is_reserved":false,"is_disabled":false,"rental_uris":{"android":"levelo://app?vid=a9169505-65b5-4384-aac6-07a12936117d","ios":"levelo://app?vid=a9169505-65b5-4384-aac6-07a12936117d"},"vehicle_type_id":"4","last_reported":1752527451,"current_range_meters":16000,"station_id":"","pricing_plan_id":"cebpf4jnsgd1na2vs0mg"},{"bike_id":"cad1d8dc-9190-4ec4-9d93-661b53e7b17a","system_id":"levelo_inurba_marseille","lat":43.284134,"lon":5.375209,"is_reserved":false,"is_disabled":false,"rental_uris":{"android":"levelo://app?vid=cad1d8dc-9190-4ec4-9d93-661b53e7b17a","ios":"levelo://app?vid=cad1d8dc-9190-4ec4-9d93-661b53e7b17a"},"vehicle_type_id":"4","last_reported":1752527451,"current_range_meters":16000,"station_id":"ce4bh412rcd13ifvqds0","pricing_plan_id":"cebpf4jnsgd1na2vs0mg"},{"bike_id":"e604067d-3800-4ac2-9860-8fea46e837e8","system_id":"levelo_inurba_marseille","lat":43.26553,"lon":5.40364,"is_reserved":false,"is_disabled":true,"rental_uris":{"android":"levelo://app?vid=e604067d-3800-4ac2-9860-8fea46e837e8","ios":"levelo://app?vid=e604067d-3800-4ac2-9860-8fea46e837e8"},"vehicle_type_id":"4","last_reported":1752527451,"current_range_meters":16000,"station_id":"","pricing_plan_id":"cebpf4jnsgd1na2vs0mg"},{"bike_id":"403880bc-8bea-46f6-8a81-b7f6860118ac","system_id":"levelo_inurba_marseille","lat":43.292592,"lon":5.384278,"is_reserved":false,"is_disabled":true,"rental_uris":{"android":"levelo://app?vid=403880bc-8bea-46f6-8a81-b7f6860118ac","ios":"levelo://app?vid=403880bc-8bea-46f6-8a81-b7f6860118ac"},"vehicle_type_id":"4","last_reported":1752527451,"current_range_meters":16000,"station_id":"ce4bh692rcd13ifvqea0","pricing_plan_id":"cebpf4jnsgd1na2vs0mg"},{"bike_id":"e64dced5-65bc-4709-9967-52a655c923f9","system_id":"levelo_inurba_marseille","lat":43.29301,"lon":5.37446,"is_reserved":false,"is_disabled":false,"rental_uris":{"android":"levelo://app?vid=e64dced5-65bc-4709-9967-52a655c923f9","ios":"levelo://app?vid=e64dced5-65bc-4709-9967-52a655c923f9"},"vehicle_type_id":"4","last_reported":1752527451,"current_range_meters":16400,"station_id":"ce4bgi12rcd13ifvqb70","pricing_plan_id":"cebpf4jnsgd1na2vs0mg"},{"bike_id":"01beb3f2-c54f-4f68-af15-b28ae7c75196","system_id":"levelo_inurba_marseille","lat":43.30129,"lon":5.39896,"is_reserved":false,"is_disabled":true,"rental_uris":{"android":"levelo://app?vid=01beb3f2-c54f-4f68-af15-b28ae7c75196","ios":"levelo://app?vid=01beb3f2-c54f-4f68-af15-b28ae7c75196"},"vehicle_type_id":"4","last_reported":1752527451,"current_range_meters":16400,"station_id":"ce4bh0h2rcd13ifvqd40","pricing_plan_id":"cebpf4jnsgd1na2vs0mg"},{"bike_id":"07dfff57-911b-4fa5-b145-3d1928219e18","system_id":"levelo_inurba_marseille","lat":43.30929,"lon":5.40152,"is_reserved":false,"is_disabled":false,"rental_uris":{"android":"levelo://app?vid=07dfff57-911b-4fa5-b145-3d1928219e18","ios":"levelo://app?vid=07dfff57-911b-4fa5-b145-3d1928219e18"},"vehicle_type_id":"4","last_reported":1752527451,"current_range_meters":16400,"station_id":"ce4bgvp2rcd13ifvqct0","pricing_plan_id":"cebpf4jnsgd1na2vs0mg"},{"bike_id":"1f0cce64-f093-4cee-8a81-cdf4f731fc39","system_id":"levelo_inurba_marseille","lat":43.28604,"lon":5.37063,"is_reserved":false,"is_disabled":false,"rental_uris":{"android":"levelo://app?vid=1f0cce64-f093-4cee-8a81-cdf4f731fc39","ios":"levelo://app?vid=1f0cce64-f093-4cee-8a81-cdf4f731fc39"},"vehicle_type_id":"4","last_reported":1752527451,"current_range_meters":16400,"station_id":"ce4bht12rcd13ifvqi60","pricing_plan_id":"cebpf4jnsgd1na2vs0mg"},{"bike_id":"8123a459-9049-4fea-8920-1b991ea91f3f","system_id":"levelo_inurba_marseille","lat":43.296202,"lon":5.377282,"is_reserved":false,"is_disabled":false,"rental_uris":{"android":"levelo://app?vid=8123a459-9049-4fea-8920-1b991ea91f3f","ios":"levelo://app?vid=8123a459-9049-4fea-8920-1b991ea91f3f"},"vehicle_type_id":"4","last_reported":1752527451,"current_range_meters":16400,"station_id":"ce4bgi92rcd13ifvqb90","pricing_plan_id":"cebpf4jnsgd1na2vs0mg"},{"bike_id":"f1bfa319-f960-4b87-a8b7-bcf2378c66be","system_id":"levelo_inurba_marseille","lat":43.28935,"lon":5.36639,"is_reserved":false,"is_disabled":false,"rental_uris":{"android":"levelo://app?vid=f1bfa319-f960-4b87-a8b7-bcf2378c66be","ios":"levelo://app?vid=f1bfa319-f960-4b87-a8b7-bcf2378c66be"},"vehicle_type_id":"4","last_reported":1752527451,"current_range_meters":16400,"station_id":"ce4bhap2rcd13ifvqek0","pricing_plan_id":"cebpf4jnsgd1na2vs0mg"},{"bike_id":"143df5dd-e548-4fc2-8b5c-e4c8355703e7","system_id":"levelo_inurba_marseille","lat":43.28938,"lon":5.36627,"is_reserved":false,"is_disabled":false,"rental_uris":{"android":"levelo://app?vid=143df5dd-e548-4fc2-8b5c-e4c8355703e7","ios":"levelo://app?vid=143df5dd-e548-4fc2-8b5c-e4c8355703e7"},"vehicle_type_id":"4","last_reported":1752527451,"current_range_meters":16400,"station_id":"ce4bhap2rcd13ifvqek0","pricing_plan_id":"cebpf4jnsgd1na2vs0mg"},{"bike_id":"ec6c1a61-3b59-488c-b1c2-c418103973cb","system_id":"levelo_inurba_marseille","lat":43.28032,"lon":5.36962,"is_reserved":false,"is_disabled":false,"rental_uris":{"android":"levelo://app?vid=ec6c1a61-3b59-488c-b1c2-c418103973cb","ios":"levelo://app?vid=ec6c1a61-3b59-488c-b1c2-c418103973cb"},"vehicle_type_id":"4","last_reported":1752527451,"current_range_meters":16000,"station_id":"ce4bha12rcd13ifvqef0","pricing_plan_id":"cebpf4jnsgd1na2vs0mg"},{"bike_id":"6c6d4d9a-6141-481c-9c1a-8e61054bdc43","system_id":"levelo_inurba_marseille","lat":43.24777,"lon":5.41819,"is_reserved":false,"is_disabled":false,"rental_uris":{"android":"levelo://app?vid=6c6d4d9a-6141-481c-9c1a-8e61054bdc43","ios":"levelo://app?vid=6c6d4d9a-6141-481c-9c1a-8e61054bdc43"},"vehicle_type_id":"4","last_reported":1752527451,"current_range_meters":16400,"station_id":"","pricing_plan_id":"cebpf4jnsgd1na2vs0mg"},{"bike_id":"5852c301-80f0-417c-8869-84067acdb82f","system_id":"levelo_inurba_marseille","lat":43.28614,"lon":5.3706,"is_reserved":false,"is_disabled":false,"rental_uris":{"android":"levelo://app?vid=5852c301-80f0-417c-8869-84067acdb82f","ios":"levelo://app?vid=5852c301-80f0-417c-8869-84067acdb82f"},"vehicle_type_id":"4","last_reported":1752527451,"current_range_meters":16400,"station_id":"ce4bht12rcd13ifvqi60","pricing_plan_id":"cebpf4jnsgd1na2vs0mg"},{"bike_id":"aeeab1af-538a-4dd7-bb37-fd0b19da16e1","system_id":"levelo_inurba_marseille","lat":43.28407,"lon":5.37522,"is_reserved":false,"is_disabled":false,"rental_uris":{"android":"levelo://app?vid=aeeab1af-538a-4dd7-bb37-fd0b19da16e1","ios":"levelo://app?vid=aeeab1af-538a-4dd7-bb37-fd0b19da16e1"},"vehicle_type_id":"4","last_reported":1752527451,"current_range_meters":16400,"station_id":"ce4bh412rcd13ifvqds0","pricing_plan_id":"cebpf4jnsgd1na2vs0mg"},{"bike_id":"e1978fb0-6701-476c-bd60-95a7b262ac9b","system_id":"levelo_inurba_marseille","lat":43.29632,"lon":5.40597,"is_reserved":false,"is_disabled":false,"rental_uris":{"android":"levelo://app?vid=e1978fb0-6701-476c-bd60-95a7b262ac9b","ios":"levelo://app?vid=e1978fb0-6701-476c-bd60-95a7b262ac9b"},"vehicle_type_id":"4","last_reported":1752527451,"current_range_meters":16400,"station_id":"ce4bh0h2rcd13ifvqd60","pricing_plan_id":"cebpf4jnsgd1na2vs0mg"},{"bike_id":"48a72147-d63a-4fad-9403-9184689656c8","system_id":"levelo_inurba_marseille","lat":43.24396,"lon":5.37075,"is_reserved":false,"is_disabled":true,"rental_uris":{"android":"levelo://app?vid=48a72147-d63a-4fad-9403-9184689656c8","ios":"levelo://app?vid=48a72147-d63a-4fad-9403-9184689656c8"},"vehicle_type_id":"4","last_reported":1752527451,"current_range_meters":16400,"station_id":"ce4bhhh2rcd13ifvqfk0","pricing_plan_id":"cebpf4jnsgd1na2vs0mg"},{"bike_id":"2eabc579-6d0a-4435-903e-067aa5f37b40","system_id":"levelo_inurba_marseille","lat":43.29708,"lon":5.37285,"is_reserved":false,"is_disabled":false,"rental_uris":{"android":"levelo://app?vid=2eabc579-6d0a-4435-903e-067aa5f37b40","ios":"levelo://app?vid=2eabc579-6d0a-4435-903e-067aa5f37b40"},"vehicle_type_id":"4","last_reported":1752527451,"current_range_meters":16400,"station_id":"ce4bgk12rcd13ifvqbj0","pricing_plan_id":"cebpf4jnsgd1na2vs0mg"},{"bike_id":"bc7f0fd5-e8fc-4e2b-8b23-1a22f168cfb6","system_id":"levelo_inurba_marseille","lat":43.2931,"lon":5.37141,"is_reserved":false,"is_disabled":false,"rental_uris":{"android":"levelo://app?vid=bc7f0fd5-e8fc-4e2b-8b23-1a22f168cfb6","ios":"levelo://app?vid=bc7f0fd5-e8fc-4e2b-8b23-1a22f168cfb6"},"vehicle_type_id":"4","last_reported":1752527451,"current_range_meters":16400,"station_id":"ce4bgh92rcd13ifvqb40","pricing_plan_id":"cebpf4jnsgd1na2vs0mg"},{"bike_id":"5bf605c8-6bb4-4d44-9b30-29d291646879","system_id":"levelo_inurba_marseille","lat":43.28246,"lon":5.3862,"is_reserved":false,"is_disabled":false,"rental_uris":{"android":"levelo://app?vid=5bf605c8-6bb4-4d44-9b30-29d291646879","ios":"levelo://app?vid=5bf605c8-6bb4-4d44-9b30-29d291646879"},"vehicle_type_id":"4","last_reported":1752527451,"current_range_meters":16800,"station_id":"","pricing_plan_id":"cebpf4jnsgd1na2vs0mg"},{"bike_id":"323cc7bc-5fa1-4270-81d8-9f23804b8725","system_id":"levelo_inurba_marseille","lat":43.289734,"lon":5.366138,"is_reserved":false,"is_disabled":false,"rental_uris":{"android":"levelo://app?vid=323cc7bc-5fa1-4270-81d8-9f23804b8725","ios":"levelo://app?vid=323cc7bc-5fa1-4270-81d8-9f23804b8725"},"vehicle_type_id":"4","last_reported":1752527451,"current_range_meters":16800,"station_id":"","pricing_plan_id":"cebpf4jnsgd1na2vs0mg"},{"bike_id":"7c987472-d8b7-424e-8d76-8643330233a7","system_id":"levelo_inurba_marseille","lat":43.2963,"lon":5.3772,"is_reserved":false,"is_disabled":false,"rental_uris":{"android":"levelo://app?vid=7c987472-d8b7-424e-8d76-8643330233a7","ios":"levelo://app?vid=7c987472-d8b7-424e-8d76-8643330233a7"},"vehicle_type_id":"4","last_reported":1752527451,"current_range_meters":16800,"station_id":"ce4bgi92rcd13ifvqb90","pricing_plan_id":"cebpf4jnsgd1na2vs0mg"},{"bike_id":"2a74c118-5915-42ae-a5b6-acad51f5ceb5","system_id":"levelo_inurba_marseille","lat":43.27563,"lon":5.38427,"is_reserved":false,"is_disabled":true,"rental_uris":{"android":"levelo://app?vid=2a74c118-5915-42ae-a5b6-acad51f5ceb5","ios":"levelo://app?vid=2a74c118-5915-42ae-a5b6-acad51f5ceb5"},"vehicle_type_id":"4","last_reported":1752527451,"current_range_meters":16800,"station_id":"ce4bhh92rcd13ifvqfi0","pricing_plan_id":"cebpf4jnsgd1na2vs0mg"},{"bike_id":"e4cc9422-b66a-4b54-b535-b17a3b695b97","system_id":"levelo_inurba_marseille","lat":43.28394,"lon":5.37259,"is_reserved":false,"is_disabled":false,"rental_uris":{"android":"levelo://app?vid=e4cc9422-b66a-4b54-b535-b17a3b695b97","ios":"levelo://app?vid=e4cc9422-b66a-4b54-b535-b17a3b695b97"},"vehicle_type_id":"4","last_reported":1752527451,"current_range_meters":16800,"station_id":"","pricing_plan_id":"cebpf4jnsgd1na2vs0mg"},{"bike_id":"c3eb31c9-e106-4cd2-bb91-f2d0ee3e7a6f","system_id":"levelo_inurba_marseille","lat":43.24026,"lon":5.36271,"is_reserved":false,"is_disabled":false,"rental_uris":{"android":"levelo://app?vid=c3eb31c9-e106-4cd2-bb91-f2d0ee3e7a6f","ios":"levelo://app?vid=c3eb31c9-e106-4cd2-bb91-f2d0ee3e7a6f"},"vehicle_type_id":"4","last_reported":1752527451,"current_range_meters":16800,"station_id":"","pricing_plan_id":"cebpf4jnsgd1na2vs0mg"},{"bike_id":"3262537e-8c68-4085-90e6-f560d9bbe7b7","system_id":"levelo_inurba_marseille","lat":43.29167,"lon":5.37151,"is_reserved":false,"is_disabled":false,"rental_uris":{"android":"levelo://app?vid=3262537e-8c68-4085-90e6-f560d9bbe7b7","ios":"levelo://app?vid=3262537e-8c68-4085-90e6-f560d9bbe7b7"},"vehicle_type_id":"4","last_reported":1752527451,"current_range_meters":16800,"station_id":"ce4bha92rcd13ifvqeh0","pricing_plan_id":"cebpf4jnsgd1na2vs0mg"},{"bike_id":"d9055d59-9c68-418c-86fc-7f057e5e2bfa","system_id":"levelo_inurba_marseille","lat":43.28628,"lon":5.3707,"is_reserved":false,"is_disabled":false,"rental_uris":{"android":"levelo://app?vid=d9055d59-9c68-418c-86fc-7f057e5e2bfa","ios":"levelo://app?vid=d9055d59-9c68-418c-86fc-7f057e5e2bfa"},"vehicle_type_id":"4","last_reported":1752527451,"current_range_meters":16800,"station_id":"ce4bht12rcd13ifvqi60","pricing_plan_id":"cebpf4jnsgd1na2vs0mg"},{"bike_id":"d199b05c-bf49-40ff-8185-8d98f4140722","system_id":"levelo_inurba_marseille","lat":43.33147,"lon":5.38175,"is_reserved":false,"is_disabled":false,"rental_uris":{"android":"levelo://app?vid=d199b05c-bf49-40ff-8185-8d98f4140722","ios":"levelo://app?vid=d199b05c-bf49-40ff-8185-8d98f4140722"},"vehicle_type_id":"4","last_reported":1752527451,"current_range_meters":17200,"station_id":"","pricing_plan_id":"cebpf4jnsgd1na2vs0mg"},{"bike_id":"a000506a-75cd-4dc4-97a0-215f84d40dca","system_id":"levelo_inurba_marseille","lat":43.29558,"lon":5.42276,"is_reserved":false,"is_disabled":false,"rental_uris":{"android":"levelo://app?vid=a000506a-75cd-4dc4-97a0-215f84d40dca","ios":"levelo://app?vid=a000506a-75cd-4dc4-97a0-215f84d40dca"},"vehicle_type_id":"4","last_reported":1752527451,"current_range_meters":17200,"station_id":"ce4bhph2rcd13ifvqhdg","pricing_plan_id":"cebpf4jnsgd1na2vs0mg"},{"bike_id":"8c78ce1e-a4fb-4f06-a601-f5ae54ccc794","system_id":"levelo_inurba_marseille","lat":43.29169,"lon":5.37151,"is_reserved":false,"is_disabled":false,"rental_uris":{"android":"levelo://app?vid=8c78ce1e-a4fb-4f06-a601-f5ae54ccc794","ios":"levelo://app?vid=8c78ce1e-a4fb-4f06-a601-f5ae54ccc794"},"vehicle_type_id":"4","last_reported":1752527451,"current_range_meters":17200,"station_id":"ce4bha92rcd13ifvqeh0","pricing_plan_id":"cebpf4jnsgd1na2vs0mg"},{"bike_id":"7633c823-f2dc-41dd-b029-cb3884896e43","system_id":"levelo_inurba_marseille","lat":43.292969,"lon":5.374511,"is_reserved":false,"is_disabled":false,"rental_uris":{"android":"levelo://app?vid=7633c823-f2dc-41dd-b029-cb3884896e43","ios":"levelo://app?vid=7633c823-f2dc-41dd-b029-cb3884896e43"},"vehicle_type_id":"4","last_reported":1752527451,"current_range_meters":17200,"station_id":"ce4bgi12rcd13ifvqb70","pricing_plan_id":"cebpf4jnsgd1na2vs0mg"},{"bike_id":"d7159adf-94a3-498c-948b-458c9b026277","system_id":"levelo_inurba_marseille","lat":43.22541,"lon":5.34769,"is_reserved":false,"is_disabled":false,"rental_uris":{"android":"levelo://app?vid=d7159adf-94a3-498c-948b-458c9b026277","ios":"levelo://app?vid=d7159adf-94a3-498c-948b-458c9b026277"},"vehicle_type_id":"4","last_reported":1752527451,"current_range_meters":17200,"station_id":"","pricing_plan_id":"cebpf4jnsgd1na2vs0mg"},{"bike_id":"7fc9a57f-4342-4eac-a2f8-f7ee20ec8d24","system_id":"levelo_inurba_marseille","lat":43.28342,"lon":5.3811,"is_reserved":false,"is_disabled":false,"rental_uris":{"android":"levelo://app?vid=7fc9a57f-4342-4eac-a2f8-f7ee20ec8d24","ios":"levelo://app?vid=7fc9a57f-4342-4eac-a2f8-f7ee20ec8d24"},"vehicle_type_id":"4","last_reported":1752527451,"current_range_meters":17600,"station_id":"ce4bh412rcd13ifvqdr0","pricing_plan_id":"cebpf4jnsgd1na2vs0mg"},{"bike_id":"590e8a59-7dcc-42c4-80cd-31312d6a701b","system_id":"levelo_inurba_marseille","lat":43.23191,"lon":5.35545,"is_reserved":false,"is_disabled":true,"rental_uris":{"android":"levelo://app?vid=590e8a59-7dcc-42c4-80cd-31312d6a701b","ios":"levelo://app?vid=590e8a59-7dcc-42c4-80cd-31312d6a701b"},"vehicle_type_id":"4","last_reported":1752527451,"current_range_meters":17600,"station_id":"ce4bhu92rcd13ifvqi70","pricing_plan_id":"cebpf4jnsgd1na2vs0mg"},{"bike_id":"5e39bf5c-8a06-42d5-a288-53841dd85e68","system_id":"levelo_inurba_marseille","lat":43.29218,"lon":5.36087,"is_reserved":false,"is_disabled":false,"rental_uris":{"android":"levelo://app?vid=5e39bf5c-8a06-42d5-a288-53841dd85e68","ios":"levelo://app?vid=5e39bf5c-8a06-42d5-a288-53841dd85e68"},"vehicle_type_id":"4","last_reported":1752527451,"current_range_meters":17600,"station_id":"ce4bhbh2rcd13ifvqeqg","pricing_plan_id":"cebpf4jnsgd1na2vs0mg"},{"bike_id":"6ad96f84-b61e-40a1-b12a-0caf84cca1bc","system_id":"levelo_inurba_marseille","lat":43.30889,"lon":5.37192,"is_reserved":false,"is_disabled":false,"rental_uris":{"android":"levelo://app?vid=6ad96f84-b61e-40a1-b12a-0caf84cca1bc","ios":"levelo://app?vid=6ad96f84-b61e-40a1-b12a-0caf84cca1bc"},"vehicle_type_id":"4","last_reported":1752527451,"current_range_meters":17600,"station_id":"ce4bguh2rcd13ifvqckg","pricing_plan_id":"cebpf4jnsgd1na2vs0mg"},{"bike_id":"7bce7a34-5113-458d-9330-3d00164f4612","system_id":"levelo_inurba_marseille","lat":43.21209,"lon":5.35092,"is_reserved":false,"is_disabled":false,"rental_uris":{"android":"levelo://app?vid=7bce7a34-5113-458d-9330-3d00164f4612","ios":"levelo://app?vid=7bce7a34-5113-458d-9330-3d00164f4612"},"vehicle_type_id":"4","last_reported":1752527451,"current_range_meters":17600,"station_id":"st_cvj6sg6p6f1abm77japg","pricing_plan_id":"cebpf4jnsgd1na2vs0mg"},{"bike_id":"220e7a5b-d05f-459c-8c3a-c7af42fd9a60","system_id":"levelo_inurba_marseille","lat":43.290421,"lon":5.359118,"is_reserved":false,"is_disabled":false,"rental_uris":{"android":"levelo://app?vid=220e7a5b-d05f-459c-8c3a-c7af42fd9a60","ios":"levelo://app?vid=220e7a5b-d05f-459c-8c3a-c7af42fd9a60"},"vehicle_type_id":"4","last_reported":1752527451,"current_range_meters":17600,"station_id":"","pricing_plan_id":"cebpf4jnsgd1na2vs0mg"},{"bike_id":"6ea20d65-1413-4c20-a322-be0d7f4838c7","system_id":"levelo_inurba_marseille","lat":43.28607,"lon":5.37065,"is_reserved":false,"is_disabled":false,"rental_uris":{"android":"levelo://app?vid=6ea20d65-1413-4c20-a322-be0d7f4838c7","ios":"levelo://app?vid=6ea20d65-1413-4c20-a322-be0d7f4838c7"},"vehicle_type_id":"4","last_reported":1752527451,"current_range_meters":17600,"station_id":"ce4bht12rcd13ifvqi60","pricing_plan_id":"cebpf4jnsgd1na2vs0mg"},{"bike_id":"183abb6a-8659-4963-b677-ebabcd5c1850","system_id":"levelo_inurba_marseille","lat":43.28962,"lon":5.36674,"is_reserved":false,"is_disabled":false,"rental_uris":{"android":"levelo://app?vid=183abb6a-8659-4963-b677-ebabcd5c1850","ios":"levelo://app?vid=183abb6a-8659-4963-b677-ebabcd5c1850"},"vehicle_type_id":"4","last_reported":1752527451,"current_range_meters":17600,"station_id":"","pricing_plan_id":"cebpf4jnsgd1na2vs0mg"},{"bike_id":"fe38fcda-be18-4a6d-9386-5071ca1609b6","system_id":"levelo_inurba_marseille","lat":43.23183,"lon":5.3557,"is_reserved":false,"is_disabled":true,"rental_uris":{"android":"levelo://app?vid=fe38fcda-be18-4a6d-9386-5071ca1609b6","ios":"levelo://app?vid=fe38fcda-be18-4a6d-9386-5071ca1609b6"},"vehicle_type_id":"4","last_reported":1752527451,"current_range_meters":17600,"station_id":"ce4bhu92rcd13ifvqi70","pricing_plan_id":"cebpf4jnsgd1na2vs0mg"},{"bike_id":"de3c7479-ad03-448f-a78e-88898eddd51a","system_id":"levelo_inurba_marseille","lat":43.32963,"lon":5.39743,"is_reserved":false,"is_disabled":false,"rental_uris":{"android":"levelo://app?vid=de3c7479-ad03-448f-a78e-88898eddd51a","ios":"levelo://app?vid=de3c7479-ad03-448f-a78e-88898eddd51a"},"vehicle_type_id":"4","last_reported":1752527451,"current_range_meters":18000,"station_id":"","pricing_plan_id":"cebpf4jnsgd1na2vs0mg"},{"bike_id":"903197e4-3da2-471b-9537-d88bae7e31c4","system_id":"levelo_inurba_marseille","lat":43.26504,"lon":5.39542,"is_reserved":false,"is_disabled":true,"rental_uris":{"android":"levelo://app?vid=903197e4-3da2-471b-9537-d88bae7e31c4","ios":"levelo://app?vid=903197e4-3da2-471b-9537-d88bae7e31c4"},"vehicle_type_id":"4","last_reported":1752527451,"current_range_meters":18000,"station_id":"ce4bhi12rcd13ifvqfq0","pricing_plan_id":"cebpf4jnsgd1na2vs0mg"},{"bike_id":"ac928612-476b-4e4b-8c2b-a3f75e53d945","system_id":"levelo_inurba_marseille","lat":43.225098,"lon":5.34783,"is_reserved":false,"is_disabled":false,"rental_uris":{"android":"levelo://app?vid=ac928612-476b-4e4b-8c2b-a3f75e53d945","ios":"levelo://app?vid=ac928612-476b-4e4b-8c2b-a3f75e53d945"},"vehicle_type_id":"4","last_reported":1752527451,"current_range_meters":18000,"station_id":"st_cvj5dfep6f1abm77gieg","pricing_plan_id":"cebpf4jnsgd1na2vs0mg"},{"bike_id":"90d8578f-7619-4279-84b6-4ed88aa377e2","system_id":"levelo_inurba_marseille","lat":43.2119,"lon":5.35081,"is_reserved":false,"is_disabled":false,"rental_uris":{"android":"levelo://app?vid=90d8578f-7619-4279-84b6-4ed88aa377e2","ios":"levelo://app?vid=90d8578f-7619-4279-84b6-4ed88aa377e2"},"vehicle_type_id":"4","last_reported":1752527451,"current_range_meters":18000,"station_id":"st_cvj6sg6p6f1abm77japg","pricing_plan_id":"cebpf4jnsgd1na2vs0mg"},{"bike_id":"806874ce-2d23-48a2-a47c-3f52c15014af","system_id":"levelo_inurba_marseille","lat":43.29177,"lon":5.37146,"is_reserved":false,"is_disabled":false,"rental_uris":{"android":"levelo://app?vid=806874ce-2d23-48a2-a47c-3f52c15014af","ios":"levelo://app?vid=806874ce-2d23-48a2-a47c-3f52c15014af"},"vehicle_type_id":"4","last_reported":1752527451,"current_range_meters":18000,"station_id":"ce4bha92rcd13ifvqeh0","pricing_plan_id":"cebpf4jnsgd1na2vs0mg"},{"bike_id":"8a9f8ceb-0274-4ada-8a43-1bc35cd2deb7","system_id":"levelo_inurba_marseille","lat":43.28939,"lon":5.36617,"is_reserved":false,"is_disabled":true,"rental_uris":{"android":"levelo://app?vid=8a9f8ceb-0274-4ada-8a43-1bc35cd2deb7","ios":"levelo://app?vid=8a9f8ceb-0274-4ada-8a43-1bc35cd2deb7"},"vehicle_type_id":"4","last_reported":1752527451,"current_range_meters":18000,"station_id":"ce4bhap2rcd13ifvqek0","pricing_plan_id":"cebpf4jnsgd1na2vs0mg"},{"bike_id":"dd30fbfd-bf53-422b-8396-e3b0bd6195c4","system_id":"levelo_inurba_marseille","lat":43.29713,"lon":5.36611,"is_reserved":false,"is_disabled":false,"rental_uris":{"android":"levelo://app?vid=dd30fbfd-bf53-422b-8396-e3b0bd6195c4","ios":"levelo://app?vid=dd30fbfd-bf53-422b-8396-e3b0bd6195c4"},"vehicle_type_id":"4","last_reported":1752527451,"current_range_meters":18000,"station_id":"ce4bgn12rcd13ifvqbt0","pricing_plan_id":"cebpf4jnsgd1na2vs0mg"},{"bike_id":"c26b5803-1934-443f-a178-b5a6c19165be","system_id":"levelo_inurba_marseille","lat":43.29905,"lon":5.38144,"is_reserved":false,"is_disabled":true,"rental_uris":{"android":"levelo://app?vid=c26b5803-1934-443f-a178-b5a6c19165be","ios":"levelo://app?vid=c26b5803-1934-443f-a178-b5a6c19165be"},"vehicle_type_id":"4","last_reported":1752527451,"current_range_meters":18000,"station_id":"ce4bgj12rcd13ifvqbc0","pricing_plan_id":"cebpf4jnsgd1na2vs0mg"},{"bike_id":"4ae84852-a860-481f-8304-ced9645acfc8","system_id":"levelo_inurba_marseille","lat":43.280753,"lon":5.39663,"is_reserved":false,"is_disabled":false,"rental_uris":{"android":"levelo://app?vid=4ae84852-a860-481f-8304-ced9645acfc8","ios":"levelo://app?vid=4ae84852-a860-481f-8304-ced9645acfc8"},"vehicle_type_id":"4","last_reported":1752527451,"current_range_meters":18000,"station_id":"ce4bho12rcd13ifvqh2g","pricing_plan_id":"cebpf4jnsgd1na2vs0mg"},{"bike_id":"cbce233f-f171-44d6-a564-b384860da609","system_id":"levelo_inurba_marseille","lat":43.255036,"lon":5.376527,"is_reserved":false,"is_disabled":false,"rental_uris":{"android":"levelo://app?vid=cbce233f-f171-44d6-a564-b384860da609","ios":"levelo://app?vid=cbce233f-f171-44d6-a564-b384860da609"},"vehicle_type_id":"4","last_reported":1752527451,"current_range_meters":18000,"station_id":"ce4bhh12rcd13ifvqff0","pricing_plan_id":"cebpf4jnsgd1na2vs0mg"},{"bike_id":"2bcc0ed5-261b-4e84-bfe4-ce2479b810f6","system_id":"levelo_inurba_marseille","lat":43.2841,"lon":5.37527,"is_reserved":false,"is_disabled":true,"rental_uris":{"android":"levelo://app?vid=2bcc0ed5-261b-4e84-bfe4-ce2479b810f6","ios":"levelo://app?vid=2bcc0ed5-261b-4e84-bfe4-ce2479b810f6"},"vehicle_type_id":"4","last_reported":1752527451,"current_range_meters":18000,"station_id":"ce4bh412rcd13ifvqds0","pricing_plan_id":"cebpf4jnsgd1na2vs0mg"},{"bike_id":"2fa3f083-ce52-4dd5-90a2-e4632bc10de5","system_id":"levelo_inurba_marseille","lat":43.29306,"lon":5.37439,"is_reserved":false,"is_disabled":false,"rental_uris":{"android":"levelo://app?vid=2fa3f083-ce52-4dd5-90a2-e4632bc10de5","ios":"levelo://app?vid=2fa3f083-ce52-4dd5-90a2-e4632bc10de5"},"vehicle_type_id":"4","last_reported":1752527451,"current_range_meters":18000,"station_id":"ce4bgi12rcd13ifvqb70","pricing_plan_id":"cebpf4jnsgd1na2vs0mg"},{"bike_id":"f95020d0-6999-4898-aa2f-c25257aa3bfb","system_id":"levelo_inurba_marseille","lat":43.29564,"lon":5.37512,"is_reserved":false,"is_disabled":false,"rental_uris":{"android":"levelo://app?vid=f95020d0-6999-4898-aa2f-c25257aa3bfb","ios":"levelo://app?vid=f95020d0-6999-4898-aa2f-c25257aa3bfb"},"vehicle_type_id":"4","last_reported":1752527451,"current_range_meters":18000,"station_id":"ce4bgh92rcd13ifvqb50","pricing_plan_id":"cebpf4jnsgd1na2vs0mg"},{"bike_id":"e52a0a0f-9372-4622-adb3-4c3e9a501e61","system_id":"levelo_inurba_marseille","lat":43.28601,"lon":5.37097,"is_reserved":false,"is_disabled":false,"rental_uris":{"android":"levelo://app?vid=e52a0a0f-9372-4622-adb3-4c3e9a501e61","ios":"levelo://app?vid=e52a0a0f-9372-4622-adb3-4c3e9a501e61"},"vehicle_type_id":"4","last_reported":1752527451,"current_range_meters":18000,"station_id":"ce4bht12rcd13ifvqi60","pricing_plan_id":"cebpf4jnsgd1na2vs0mg"},{"bike_id":"a116e2be-d2fd-4ed0-9723-b75b5c07ed46","system_id":"levelo_inurba_marseille","lat":43.2842,"lon":5.37535,"is_reserved":false,"is_disabled":false,"rental_uris":{"android":"levelo://app?vid=a116e2be-d2fd-4ed0-9723-b75b5c07ed46","ios":"levelo://app?vid=a116e2be-d2fd-4ed0-9723-b75b5c07ed46"},"vehicle_type_id":"4","last_reported":1752527451,"current_range_meters":18000,"station_id":"ce4bh412rcd13ifvqds0","pricing_plan_id":"cebpf4jnsgd1na2vs0mg"},{"bike_id":"09a93a64-fbb1-49a9-be1f-f86a34310e71","system_id":"levelo_inurba_marseille","lat":43.21242,"lon":5.35092,"is_reserved":false,"is_disabled":false,"rental_uris":{"android":"levelo://app?vid=09a93a64-fbb1-49a9-be1f-f86a34310e71","ios":"levelo://app?vid=09a93a64-fbb1-49a9-be1f-f86a34310e71"},"vehicle_type_id":"4","last_reported":1752527451,"current_range_meters":18000,"station_id":"","pricing_plan_id":"cebpf4jnsgd1na2vs0mg"},{"bike_id":"69505453-5b19-4f66-806a-0e4d72156454","system_id":"levelo_inurba_marseille","lat":43.29176,"lon":5.37171,"is_reserved":false,"is_disabled":false,"rental_uris":{"android":"levelo://app?vid=69505453-5b19-4f66-806a-0e4d72156454","ios":"levelo://app?vid=69505453-5b19-4f66-806a-0e4d72156454"},"vehicle_type_id":"4","last_reported":1752527451,"current_range_meters":18800,"station_id":"ce4bha92rcd13ifvqeh0","pricing_plan_id":"cebpf4jnsgd1na2vs0mg"},{"bike_id":"74935e5f-e8ba-4bf0-a37c-1aa1f6f6f07c","system_id":"levelo_inurba_marseille","lat":43.29296,"lon":5.3715,"is_reserved":false,"is_disabled":false,"rental_uris":{"android":"levelo://app?vid=74935e5f-e8ba-4bf0-a37c-1aa1f6f6f07c","ios":"levelo://app?vid=74935e5f-e8ba-4bf0-a37c-1aa1f6f6f07c"},"vehicle_type_id":"4","last_reported":1752527451,"current_range_meters":18800,"station_id":"ce4bgh92rcd13ifvqb40","pricing_plan_id":"cebpf4jnsgd1na2vs0mg"},{"bike_id":"84db02a6-e78e-4eec-8ce4-fa84be0902f1","system_id":"levelo_inurba_marseille","lat":43.29788,"lon":5.37112,"is_reserved":false,"is_disabled":false,"rental_uris":{"android":"levelo://app?vid=84db02a6-e78e-4eec-8ce4-fa84be0902f1","ios":"levelo://app?vid=84db02a6-e78e-4eec-8ce4-fa84be0902f1"},"vehicle_type_id":"4","last_reported":1752527451,"current_range_meters":18800,"station_id":"ce4bgop2rcd13ifvqc1g","pricing_plan_id":"cebpf4jnsgd1na2vs0mg"},{"bike_id":"474d0eb6-38ba-4a3d-b185-eec1551078f4","system_id":"levelo_inurba_marseille","lat":43.27607,"lon":5.3611,"is_reserved":false,"is_disabled":true,"rental_uris":{"android":"levelo://app?vid=474d0eb6-38ba-4a3d-b185-eec1551078f4","ios":"levelo://app?vid=474d0eb6-38ba-4a3d-b185-eec1551078f4"},"vehicle_type_id":"4","last_reported":1752527451,"current_range_meters":18800,"station_id":"ce4bgj92rcd13ifvqbe0","pricing_plan_id":"cebpf4jnsgd1na2vs0mg"},{"bike_id":"ce23b02e-6d65-4c0d-9e4c-0269a519d803","system_id":"levelo_inurba_marseille","lat":43.2417,"lon":5.39726,"is_reserved":false,"is_disabled":false,"rental_uris":{"android":"levelo://app?vid=ce23b02e-6d65-4c0d-9e4c-0269a519d803","ios":"levelo://app?vid=ce23b02e-6d65-4c0d-9e4c-0269a519d803"},"vehicle_type_id":"4","last_reported":1752527451,"current_range_meters":18800,"station_id":"ce4bhn12rcd13ifvqgpg","pricing_plan_id":"cebpf4jnsgd1na2vs0mg"},{"bike_id":"43e4b01f-9a07-4fd6-9f91-30097a008386","system_id":"levelo_inurba_marseille","lat":43.292331,"lon":5.360638,"is_reserved":false,"is_disabled":false,"rental_uris":{"android":"levelo://app?vid=43e4b01f-9a07-4fd6-9f91-30097a008386","ios":"levelo://app?vid=43e4b01f-9a07-4fd6-9f91-30097a008386"},"vehicle_type_id":"4","last_reported":1752527451,"current_range_meters":18800,"station_id":"ce4bhbh2rcd13ifvqeqg","pricing_plan_id":"cebpf4jnsgd1na2vs0mg"},{"bike_id":"007ef90e-2af9-422b-94d9-f671e7391f42","system_id":"levelo_inurba_marseille","lat":43.260336,"lon":5.375487,"is_reserved":false,"is_disabled":false,"rental_uris":{"android":"levelo://app?vid=007ef90e-2af9-422b-94d9-f671e7391f42","ios":"levelo://app?vid=007ef90e-2af9-422b-94d9-f671e7391f42"},"vehicle_type_id":"4","last_reported":1752527451,"current_range_meters":18800,"station_id":"ce4bhgh2rcd13ifvqfa0","pricing_plan_id":"cebpf4jnsgd1na2vs0mg"},{"bike_id":"e564def5-2587-49b5-ae0e-977497f3736e","system_id":"levelo_inurba_marseille","lat":43.28038,"lon":5.36951,"is_reserved":false,"is_disabled":false,"rental_uris":{"android":"levelo://app?vid=e564def5-2587-49b5-ae0e-977497f3736e","ios":"levelo://app?vid=e564def5-2587-49b5-ae0e-977497f3736e"},"vehicle_type_id":"4","last_reported":1752527451,"current_range_meters":18800,"station_id":"ce4bha12rcd13ifvqef0","pricing_plan_id":"cebpf4jnsgd1na2vs0mg"},{"bike_id":"cdc14812-675d-4434-b7f3-dc81aa8f3584","system_id":"levelo_inurba_marseille","lat":43.306,"lon":5.37233,"is_reserved":false,"is_disabled":false,"rental_uris":{"android":"levelo://app?vid=cdc14812-675d-4434-b7f3-dc81aa8f3584","ios":"levelo://app?vid=cdc14812-675d-4434-b7f3-dc81aa8f3584"},"vehicle_type_id":"4","last_reported":1752527451,"current_range_meters":18800,"station_id":"ce4bgqh2rcd13ifvqc4g","pricing_plan_id":"cebpf4jnsgd1na2vs0mg"},{"bike_id":"ecaeb9d5-ae47-4550-a0ee-39355e2f5766","system_id":"levelo_inurba_marseille","lat":43.27178,"lon":5.40996,"is_reserved":false,"is_disabled":false,"rental_uris":{"android":"levelo://app?vid=ecaeb9d5-ae47-4550-a0ee-39355e2f5766","ios":"levelo://app?vid=ecaeb9d5-ae47-4550-a0ee-39355e2f5766"},"vehicle_type_id":"4","last_reported":1752527451,"current_range_meters":18000,"station_id":"ce4bhl12rcd13ifvqgf0","pricing_plan_id":"cebpf4jnsgd1na2vs0mg"},{"bike_id":"492a35a5-aa85-4b48-9133-f320d4fa82e1","system_id":"levelo_inurba_marseille","lat":43.28623,"lon":5.37055,"is_reserved":false,"is_disabled":false,"rental_uris":{"android":"levelo://app?vid=492a35a5-aa85-4b48-9133-f320d4fa82e1","ios":"levelo://app?vid=492a35a5-aa85-4b48-9133-f320d4fa82e1"},"vehicle_type_id":"4","last_reported":1752527451,"current_range_meters":18800,"station_id":"ce4bht12rcd13ifvqi60","pricing_plan_id":"cebpf4jnsgd1na2vs0mg"},{"bike_id":"cab9ee97-4007-4280-9048-8519715ec38c","system_id":"levelo_inurba_marseille","lat":43.29065,"lon":5.37166,"is_reserved":false,"is_disabled":false,"rental_uris":{"android":"levelo://app?vid=cab9ee97-4007-4280-9048-8519715ec38c","ios":"levelo://app?vid=cab9ee97-4007-4280-9048-8519715ec38c"},"vehicle_type_id":"4","last_reported":1752527451,"current_range_meters":19200,"station_id":"ce4bh5p2rcd13ifvqe4g","pricing_plan_id":"cebpf4jnsgd1na2vs0mg"},{"bike_id":"70f0cc2f-69f5-47c0-abdd-c0c2e8543a20","system_id":"levelo_inurba_marseille","lat":43.28691,"lon":5.37384,"is_reserved":false,"is_disabled":false,"rental_uris":{"android":"levelo://app?vid=70f0cc2f-69f5-47c0-abdd-c0c2e8543a20","ios":"levelo://app?vid=70f0cc2f-69f5-47c0-abdd-c0c2e8543a20"},"vehicle_type_id":"4","last_reported":1752527451,"current_range_meters":19200,"station_id":"ce4bh3p2rcd13ifvqdq0","pricing_plan_id":"cebpf4jnsgd1na2vs0mg"},{"bike_id":"da9c5884-26b5-4ba3-85b3-c0ad848ccaa4","system_id":"levelo_inurba_marseille","lat":43.28026,"lon":5.36948,"is_reserved":false,"is_disabled":false,"rental_uris":{"android":"levelo://app?vid=da9c5884-26b5-4ba3-85b3-c0ad848ccaa4","ios":"levelo://app?vid=da9c5884-26b5-4ba3-85b3-c0ad848ccaa4"},"vehicle_type_id":"4","last_reported":1752527451,"current_range_meters":19200,"station_id":"ce4bha12rcd13ifvqef0","pricing_plan_id":"cebpf4jnsgd1na2vs0mg"},{"bike_id":"202e7e2e-075f-420c-b3a2-8fce4649d1bc","system_id":"levelo_inurba_marseille","lat":43.28338,"lon":5.38114,"is_reserved":false,"is_disabled":true,"rental_uris":{"android":"levelo://app?vid=202e7e2e-075f-420c-b3a2-8fce4649d1bc","ios":"levelo://app?vid=202e7e2e-075f-420c-b3a2-8fce4649d1bc"},"vehicle_type_id":"4","last_reported":1752527451,"current_range_meters":19200,"station_id":"ce4bh412rcd13ifvqdr0","pricing_plan_id":"cebpf4jnsgd1na2vs0mg"},