{"last_updated":1703307985,"ttl":30,"version":"2.2","data":{"bikes":[{"bike_id":"115918ad-03be-4a9f-9e8b-13d77d784a34","system_id":"levelo_inurba_marseille","lat":43.313391,"lon":5.36706,"is_reserved":false,"is_disabled":false,"rental_uris":{"android":"levelo://app?vid=115918ad-03be-4a9f-9e8b-13d77d784a34","ios":"levelo://app?vid=115918ad-03be-4a9f-9e8b-13d77d784a34"},"vehicle_type_id":"4","last_reported":1703307985,"current_range_meters":28400,"station_id":"ce4bgr92rcd13ifvqc6g","pricing_plan_id":"free"},{"bike_id":"76cd6e01-c627-440e-928f-198583ab32f4","system_id":"levelo_inurba_marseille","lat":43.314811,"lon":5.373103,"is_reserved":false,"is_disabled":false,"rental_uris":{"android":"levelo://app?vid=76cd6e01-c627-440e-928f-198583ab32f4","ios":"levelo://app?vid=76cd6e01-c627-440e-928f-198583ab32f4"},"vehicle_type_id":"4","last_reported":1703307985,"current_range_meters":21200,"station_id":"ce4bgt12rcd13ifvqcd0","pricing_plan_id":"free"},{"bike_id":"9d8db9d4-b6f4-46d3-8619-672e6448567c","system_id":"levelo_inurba_marseille","lat":43.314811,"lon":5.373103,"is_reserved":false,"is_disabled":false,"rental_uris":{"android":"levelo://app?vid=9d8db9d4-b6f4-46d3-8619-672e6448567c","ios":"levelo://app?vid=9d8db9d4-b6f4-46d3-8619-672e6448567c"},"vehicle_type_id":"4","last_reported":1703307985,"current_range_meters":28800,"station_id":"ce4bgt12rcd13ifvqcd0","pricing_plan_id":"free"},{"bike_id":"554bec16-531e-499e-868f-0c09ac81bda8","system_id":"levelo_inurba_marseille","lat":43.314811,"lon":5.373104,"is_reserved":false,"is_disabled":false,"rental_uris":{"android":"levelo://app?vid=554bec16-531e-499e-868f-0c09ac81bda8","ios":"levelo://app?vid=554bec16-531e-499e-868f-0c09ac81bda8"},"vehicle_type_id":"4","last_reported":1703307985,"current_range_meters":30400,"station_id":"ce4bgt12rcd13ifvqcd0","pricing_plan_id":"free"},{"bike_id":"ec3214d1-0cbf-4d91-9c7b-1538d332cbaf","system_id":"levelo_inurba_marseille","lat":43.314811,"lon":5.373103,"is_reserved":false,"is_disabled":false,"rental_uris":{"android":"levelo://app?vid=ec3214d1-0cbf-4d91-9c7b-1538d332cbaf","ios":"levelo://app?vid=ec3214d1-0cbf-4d91-9c7b-1538d332cbaf"},"vehicle_type_id":"4","last_reported":1703307985,"current_range_meters":8400,"station_id":"ce4bgt12rcd13ifvqcd0","pricing_plan_id":"free"},{"bike_id":"d37d52c6-a1eb-4740-a5cc-e7935cd603f0","system_id":"levelo_inurba_marseille","lat":43.314811,"lon":5.373103,"is_reserved":false,"is_disabled":false,"rental_uris":{"android":"levelo://app?vid=d37d52c6-a1eb-4740-a5cc-e7935cd603f0","ios":"levelo://app?vid=d37d52c6-a1eb-4740-a5cc-e7935cd603f0"},"vehicle_type_id":"4","last_reported":1703307985,"current_range_meters":28400,"station_id":"ce4bgt12rcd13ifvqcd0","pricing_plan_id":"free"},{"bike_id":"ba80b7ba-6823-440b-94dc-c43a20b7702a","system_id":"levelo_inurba_marseille","lat":43.309039,"lon":5.371797,"is_reserved":false,"is_disabled":false,"rental_uris":{"android":"levelo://app?vid=ba80b7ba-6823-440b-94dc-c43a20b7702a","ios":"levelo://app?vid=ba80b7ba-6823-440b-94dc-c43a20b7702a"},"vehicle_type_id":"4","last_reported":1703307985,"current_range_meters":6400,"station_id":"ce4bguh2rcd13ifvqckg","pricing_plan_id":"free"},{"bike_id":"23cdca1a-aa66-4ec9-af35-bc12632f8dab","system_id":"levelo_inurba_marseille","lat":43.30536,"lon":5.36711,"is_reserved":false,"is_disabled":false,"rental_uris":{"android":"levelo://app?vid=23cdca1a-aa66-4ec9-af35-bc12632f8dab","ios":"levelo://app?vid=23cdca1a-aa66-4ec9-af35-bc12632f8dab"},"vehicle_type_id":"4","last_reported":1703307985,"current_range_meters":22000,"station_id":"ce4bgrp2rcd13ifvqc9g","pricing_plan_id":"free"},{"bike_id":"9fcc75de-7e72-4757-915c-fba3b60a19b5","system_id":"levelo_inurba_marseille","lat":43.305368,"lon":5.367343,"is_reserved":false,"is_disabled":false,"rental_uris":{"android":"levelo://app?vid=9fcc75de-7e72-4757-915c-fba3b60a19b5","ios":"levelo://app?vid=9fcc75de-7e72-4757-915c-fba3b60a19b5"},"vehicle_type_id":"4","last_reported":1703307985,"current_range_meters":12800,"station_id":"ce4bgrp2rcd13ifvqc9g","pricing_plan_id":"free"},{"bike_id":"75d62c3a-a73b-435f-86d1-5a1088daf589","system_id":"levelo_inurba_marseille","lat":43.305989,"lon":5.37225,"is_reserved":false,"is_disabled":false,"rental_uris":{"android":"levelo://app?vid=75d62c3a-a73b-435f-86d1-5a1088daf589","ios":"levelo://app?vid=75d62c3a-a73b-435f-86d1-5a1088daf589"},"vehicle_type_id":"4","last_reported":1703307985,"current_range_meters":26800,"station_id":"ce4bgqh2rcd13ifvqc4g","pricing_plan_id":"free"},{"bike_id":"56ded439-b352-4b08-8337-e3f7c0afa3d5","system_id":"levelo_inurba_marseille","lat":43.305989,"lon":5.37225,"is_reserved":false,"is_disabled":false,"rental_uris":{"android":"levelo://app?vid=56ded439-b352-4b08-8337-e3f7c0afa3d5","ios":"levelo://app?vid=56ded439-b352-4b08-8337-e3f7c0afa3d5"},"vehicle_type_id":"4","last_reported":1703307985,"current_range_meters":29200,"station_id":"ce4bgqh2rcd13ifvqc4g","pricing_plan_id":"free"},{"bike_id":"998b93c2-ad43-4345-8feb-a7bf91d1b163","system_id":"levelo_inurba_marseille","lat":43.30595,"lon":5.37218,"is_reserved":false,"is_disabled":false,"rental_uris":{"android":"levelo://app?vid=998b93c2-ad43-4345-8feb-a7bf91d1b163","ios":"levelo://app?vid=998b93c2-ad43-4345-8feb-a7bf91d1b163"},"vehicle_type_id":"4","last_reported":1703307985,"current_range_meters":14800,"station_id":"ce4bgqh2rcd13ifvqc4g","pricing_plan_id":"free"},{"bike_id":"6eb18d62-a0a6-4b63-82c6-3c46dfd461ca","system_id":"levelo_inurba_marseille","lat":43.307945,"lon":5.376487,"is_reserved":false,"is_disabled":false,"rental_uris":{"android":"levelo://app?vid=6eb18d62-a0a6-4b63-82c6-3c46dfd461ca","ios":"levelo://app?vid=6eb18d62-a0a6-4b63-82c6-3c46dfd461ca"},"vehicle_type_id":"4","last_reported":1703307985,"current_range_meters":31200,"station_id":"ce4bgv92rcd13ifvqcq0","pricing_plan_id":"free"},{"bike_id":"a63c1475-a7c8-463e-a9cb-3c1ddfd43140","system_id":"levelo_inurba_marseille","lat":43.30779,"lon":5.37655,"is_reserved":false,"is_disabled":false,"rental_uris":{"android":"levelo://app?vid=a63c1475-a7c8-463e-a9cb-3c1ddfd43140","ios":"levelo://app?vid=a63c1475-a7c8-463e-a9cb-3c1ddfd43140"},"vehicle_type_id":"4","last_reported":1703307985,"current_range_meters":400,"station_id":"ce4bgv92rcd13ifvqcq0","pricing_plan_id":"free"},{"bike_id":"31064d41-982a-4d68-957c-a6ab36a1327f","system_id":"levelo_inurba_marseille","lat":43.317075,"lon":5.377367,"is_reserved":false,"is_disabled":false,"rental_uris":{"android":"levelo://app?vid=31064d41-982a-4d68-957c-a6ab36a1327f","ios":"levelo://app?vid=31064d41-982a-4d68-957c-a6ab36a1327f"},"vehicle_type_id":"4","last_reported":1703307985,"current_range_meters":30000,"station_id":"ce4bgth2rcd13ifvqch0","pricing_plan_id":"free"},{"bike_id":"bc74c432-90ab-4b82-bc0b-9716a4ccf6b2","system_id":"levelo_inurba_marseille","lat":43.317075,"lon":5.377367,"is_reserved":false,"is_disabled":false,"rental_uris":{"android":"levelo://app?vid=bc74c432-90ab-4b82-bc0b-9716a4ccf6b2","ios":"levelo://app?vid=bc74c432-90ab-4b82-bc0b-9716a4ccf6b2"},"vehicle_type_id":"4","last_reported":1703307985,"current_range_meters":17200,"station_id":"ce4bgth2rcd13ifvqch0","pricing_plan_id":"free"},{"bike_id":"9c6ba88f-a5fd-4572-b320-404a21fd72f7","system_id":"levelo_inurba_marseille","lat":43.301939,"lon":5.366286,"is_reserved":false,"is_disabled":false,"rental_uris":{"android":"levelo://app?vid=9c6ba88f-a5fd-4572-b320-404a21fd72f7","ios":"levelo://app?vid=9c6ba88f-a5fd-4572-b320-404a21fd72f7"},"vehicle_type_id":"4","last_reported":1703307985,"current_range_meters":30400,"station_id":"ce4bgrh2rcd13ifvqc8g","pricing_plan_id":"free"},{"bike_id":"cf28ca03-6df3-4dbf-a190-bbac42653145","system_id":"levelo_inurba_marseille","lat":43.301939,"lon":5.366286,"is_reserved":false,"is_disabled":false,"rental_uris":{"android":"levelo://app?vid=cf28ca03-6df3-4dbf-a190-bbac42653145","ios":"levelo://app?vid=cf28ca03-6df3-4dbf-a190-bbac42653145"},"vehicle_type_id":"4","last_reported":1703307985,"current_range_meters":27200,"station_id":"ce4bgrh2rcd13ifvqc8g","pricing_plan_id":"free"},{"bike_id":"c4e22bb8-c1a8-479b-9354-a2aef6936c2b","system_id":"levelo_inurba_marseille","lat":43.308012,"lon":5.381511,"is_reserved":false,"is_disabled":false,"rental_uris":{"android":"levelo://app?vid=c4e22bb8-c1a8-479b-9354-a2aef6936c2b","ios":"levelo://app?vid=c4e22bb8-c1a8-479b-9354-a2aef6936c2b"},"vehicle_type_id":"4","last_reported":1703307985,"current_range_meters":29600,"station_id":"ce4bgt12rcd13ifvqce0","pricing_plan_id":"free"},{"bike_id":"93e3df6a-5fb6-401c-a19e-e3d9b65be1d8","system_id":"levelo_inurba_marseille","lat":43.308012,"lon":5.381511,"is_reserved":false,"is_disabled":false,"rental_uris":{"android":"levelo://app?vid=93e3df6a-5fb6-401c-a19e-e3d9b65be1d8","ios":"levelo://app?vid=93e3df6a-5fb6-401c-a19e-e3d9b65be1d8"},"vehicle_type_id":"4","last_reported":1703307985,"current_range_meters":31600,"station_id":"ce4bgt12rcd13ifvqce0","pricing_plan_id":"free"},{"bike_id":"0ff351a9-2c79-4320-8cf8-f4cd457a11b8","system_id":"levelo_inurba_marseille","lat":43.308012,"lon":5.381511,"is_reserved":false,"is_disabled":false,"rental_uris":{"android":"levelo://app?vid=0ff351a9-2c79-4320-8cf8-f4cd457a11b8","ios":"levelo://app?vid=0ff351a9-2c79-4320-8cf8-f4cd457a11b8"},"vehicle_type_id":"4","last_reported":1703307985,"current_range_meters":25600,"station_id":"ce4bgt12rcd13ifvqce0","pricing_plan_id":"free"},{"bike_id":"7d340939-7dae-4141-a6c1-6cf2f08bdbc8","system_id":"levelo_inurba_marseille","lat":43.304663,"lon":5.379013,"is_reserved":false,"is_disabled":false,"rental_uris":{"android":"levelo://app?vid=7d340939-7dae-4141-a6c1-6cf2f08bdbc8","ios":"levelo://app?vid=7d340939-7dae-4141-a6c1-6cf2f08bdbc8"},"vehicle_type_id":"4","last_reported":1703307985,"current_range_meters":13600,"station_id":"ce4bgup2rcd13ifvqcn0","pricing_plan_id":"free"},{"bike_id":"f954a88c-7243-4829-831c-baa7b6369ade","system_id":"levelo_inurba_marseille","lat":43.304606,"lon":5.379026,"is_reserved":false,"is_disabled":false,"rental_uris":{"android":"levelo://app?vid=f954a88c-7243-4829-831c-baa7b6369ade","ios":"levelo://app?vid=f954a88c-7243-4829-831c-baa7b6369ade"},"vehicle_type_id":"4","last_reported":1703307985,"current_range_meters":28400,"station_id":"ce4bgup2rcd13ifvqcn0","pricing_plan_id":"free"},{"bike_id":"76c78339-b62e-4966-ab5a-af817a9c8a8b","system_id":"levelo_inurba_marseille","lat":43.30459,"lon":5.37896,"is_reserved":false,"is_disabled":false,"rental_uris":{"android":"levelo://app?vid=76c78339-b62e-4966-ab5a-af817a9c8a8b","ios":"levelo://app?vid=76c78339-b62e-4966-ab5a-af817a9c8a8b"},"vehicle_type_id":"4","last_reported":1703307985,"current_range_meters":7200,"station_id":"ce4bgup2rcd13ifvqcn0","pricing_plan_id":"free"},{"bike_id":"1102813e-4f71-4010-b573-c4b4ca887822","system_id":"levelo_inurba_marseille","lat":43.30461,"lon":5.379,"is_reserved":false,"is_disabled":false,"rental_uris":{"android":"levelo://app?vid=1102813e-4f71-4010-b573-c4b4ca887822","ios":"levelo://app?vid=1102813e-4f71-4010-b573-c4b4ca887822"},"vehicle_type_id":"4","last_reported":1703307985,"current_range_meters":0,"station_id":"ce4bgup2rcd13ifvqcn0","pricing_plan_id":"free"},{"bike_id":"531b7470-9cd2-45d4-861e-0284af2b5c84","system_id":"levelo_inurba_marseille","lat":43.304606,"lon":5.379026,"is_reserved":false,"is_disabled":false,"rental_uris":{"android":"levelo://app?vid=531b7470-9cd2-45d4-861e-0284af2b5c84","ios":"levelo://app?vid=531b7470-9cd2-45d4-861e-0284af2b5c84"},"vehicle_type_id":"4","last_reported":1703307985,"current_range_meters":0,"station_id":"ce4bgup2rcd13ifvqcn0","pricing_plan_id":"free"},{"bike_id":"46f094f9-c316-45f6-ba53-202f0b77d2ed","system_id":"levelo_inurba_marseille","lat":43.3046,"lon":5.37902,"is_reserved":false,"is_disabled":false,"rental_uris":{"android":"levelo://app?vid=46f094f9-c316-45f6-ba53-202f0b77d2ed","ios":"levelo://app?vid=46f094f9-c316-45f6-ba53-202f0b77d2ed"},"vehicle_type_id":"4","last_reported":1703307985,"current_range_meters":4800,"station_id":"ce4bgup2rcd13ifvqcn0","pricing_plan_id":"free"},{"bike_id":"b81b309e-b5a4-4f2c-b4a4-acee5223d403","system_id":"levelo_inurba_marseille","lat":43.30459,"lon":5.37908,"is_reserved":false,"is_disabled":false,"rental_uris":{"android":"levelo://app?vid=b81b309e-b5a4-4f2c-b4a4-acee5223d403","ios":"levelo://app?vid=b81b309e-b5a4-4f2c-b4a4-acee5223d403"},"vehicle_type_id":"4","last_reported":1703307985,"current_range_meters":22400,"station_id":"ce4bgup2rcd13ifvqcn0","pricing_plan_id":"free"},{"bike_id":"9ba530d1-f1b5-44f3-9995-d195fc22ad4e","system_id":"levelo_inurba_marseille","lat":43.304568,"lon":5.379053,"is_reserved":false,"is_disabled":false,"rental_uris":{"android":"levelo://app?vid=9ba530d1-f1b5-44f3-9995-d195fc22ad4e","ios":"levelo://app?vid=9ba530d1-f1b5-44f3-9995-d195fc22ad4e"},"vehicle_type_id":"4","last_reported":1703307985,"current_range_meters":27200,"station_id":"ce4bgup2rcd13ifvqcn0","pricing_plan_id":"free"},{"bike_id":"cdceb0be-07e6-4553-9c37-55a78c51e2c8","system_id":"levelo_inurba_marseille","lat":43.30452,"lon":5.3791,"is_reserved":false,"is_disabled":false,"rental_uris":{"android":"levelo://app?vid=cdceb0be-07e6-4553-9c37-55a78c51e2c8","ios":"levelo://app?vid=cdceb0be-07e6-4553-9c37-55a78c51e2c8"},"vehicle_type_id":"4","last_reported":1703307985,"current_range_meters":12800,"station_id":"ce4bgup2rcd13ifvqcn0","pricing_plan_id":"free"},{"bike_id":"63ca6f18-ce5d-451b-b1d7-9e3f22efda1e","system_id":"levelo_inurba_marseille","lat":43.324771,"lon":5.36557,"is_reserved":false,"is_disabled":false,"rental_uris":{"android":"levelo://app?vid=63ca6f18-ce5d-451b-b1d7-9e3f22efda1e","ios":"levelo://app?vid=63ca6f18-ce5d-451b-b1d7-9e3f22efda1e"},"vehicle_type_id":"4","last_reported":1703307985,"current_range_meters":23200,"station_id":"ce4bhs12rcd13ifvqhvg","pricing_plan_id":"free"},{"bike_id":"4b176a2b-35a8-478e-93c2-e09cc8ed4702","system_id":"levelo_inurba_marseille","lat":43.302784,"lon":5.377158,"is_reserved":false,"is_disabled":false,"rental_uris":{"android":"levelo://app?vid=4b176a2b-35a8-478e-93c2-e09cc8ed4702","ios":"levelo://app?vid=4b176a2b-35a8-478e-93c2-e09cc8ed4702"},"vehicle_type_id":"4","last_reported":1703307985,"current_range_meters":400,"station_id":"ce4bguh2rcd13ifvqcj0","pricing_plan_id":"free"},{"bike_id":"69599836-e945-413a-a849-741769f44bc7","system_id":"levelo_inurba_marseille","lat":43.302784,"lon":5.377158,"is_reserved":false,"is_disabled":false,"rental_uris":{"android":"levelo://app?vid=69599836-e945-413a-a849-741769f44bc7","ios":"levelo://app?vid=69599836-e945-413a-a849-741769f44bc7"},"vehicle_type_id":"4","last_reported":1703307985,"current_range_meters":15200,"station_id":"ce4bguh2rcd13ifvqcj0","pricing_plan_id":"free"},{"bike_id":"84ff0b10-c257-4323-b98a-de8b16b89652","system_id":"levelo_inurba_marseille","lat":43.302784,"lon":5.377158,"is_reserved":false,"is_disabled":false,"rental_uris":{"android":"levelo://app?vid=84ff0b10-c257-4323-b98a-de8b16b89652","ios":"levelo://app?vid=84ff0b10-c257-4323-b98a-de8b16b89652"},"vehicle_type_id":"4","last_reported":1703307985,"current_range_meters":4800,"station_id":"ce4bguh2rcd13ifvqcj0","pricing_plan_id":"free"},{"bike_id":"a4d91f4c-0227-4bc9-a904-969806ef4ac5","system_id":"levelo_inurba_marseille","lat":43.319935,"lon":5.381699,"is_reserved":false,"is_disabled":false,"rental_uris":{"android":"levelo://app?vid=a4d91f4c-0227-4bc9-a904-969806ef4ac5","ios":"levelo://app?vid=a4d91f4c-0227-4bc9-a904-969806ef4ac5"},"vehicle_type_id":"4","last_reported":1703307985,"current_range_meters":19600,"station_id":"ce4bhr12rcd13ifvqhpg","pricing_plan_id":"free"},{"bike_id":"9c231161-337f-4eba-87d3-44d75eaa84aa","system_id":"levelo_inurba_marseille","lat":43.319935,"lon":5.381699,"is_reserved":false,"is_disabled":false,"rental_uris":{"android":"levelo://app?vid=9c231161-337f-4eba-87d3-44d75eaa84aa","ios":"levelo://app?vid=9c231161-337f-4eba-87d3-44d75eaa84aa"},"vehicle_type_id":"4","last_reported":1703307985,"current_range_meters":29200,"station_id":"ce4bhr12rcd13ifvqhpg","pricing_plan_id":"free"},{"bike_id":"82b7c1aa-506b-4cff-953c-bb835d7847c3","system_id":"levelo_inurba_marseille","lat":43.319935,"lon":5.381699,"is_reserved":false,"is_disabled":false,"rental_uris":{"android":"levelo://app?vid=82b7c1aa-506b-4cff-953c-bb835d7847c3","ios":"levelo://app?vid=82b7c1aa-506b-4cff-953c-bb835d7847c3"},"vehicle_type_id":"4","last_reported":1703307985,"current_range_meters":12400,"station_id":"ce4bhr12rcd13ifvqhpg","pricing_plan_id":"free"},{"bike_id":"965cf9c4-61d5-49c2-b8b1-76508d620af4","system_id":"levelo_inurba_marseille","lat":43.319935,"lon":5.381699,"is_reserved":false,"is_disabled":false,"rental_uris":{"android":"levelo://app?vid=965cf9c4-61d5-49c2-b8b1-76508d620af4","ios":"levelo://app?vid=965cf9c4-61d5-49c2-b8b1-76508d620af4"},"vehicle_type_id":"4","last_reported":1703307985,"current_range_meters":18400,"station_id":"ce4bhr12rcd13ifvqhpg","pricing_plan_id":"free"},{"bike_id":"c616a760-5d15-46bb-9d75-552ebc124cb7","system_id":"levelo_inurba_marseille","lat":43.319935,"lon":5.381699,"is_reserved":false,"is_disabled":false,"rental_uris":{"android":"levelo://app?vid=c616a760-5d15-46bb-9d75-552ebc124cb7","ios":"levelo://app?vid=c616a760-5d15-46bb-9d75-552ebc124cb7"},"vehicle_type_id":"4","last_reported":1703307985,"current_range_meters":17600,"station_id":"ce4bhr12rcd13ifvqhpg","pricing_plan_id":"free"},{"bike_id":"0660b770-dd60-4e90-8802-23f4be821afa","system_id":"levelo_inurba_marseille","lat":43.319935,"lon":5.381699,"is_reserved":false,"is_disabled":false,"rental_uris":{"android":"levelo://app?vid=0660b770-dd60-4e90-8802-23f4be821afa","ios":"levelo://app?vid=0660b770-dd60-4e90-8802-23f4be821afa"},"vehicle_type_id":"4","last_reported":1703307985,"current_range_meters":4400,"station_id":"ce4bhr12rcd13ifvqhpg","pricing_plan_id":"free"},{"bike_id":"dc0f6af5-c02c-4610-baea-e5c6ca16f530","system_id":"levelo_inurba_marseille","lat":43.319961,"lon":5.381506,"is_reserved":false,"is_disabled":false,"rental_uris":{"android":"levelo://app?vid=dc0f6af5-c02c-4610-baea-e5c6ca16f530","ios":"levelo://app?vid=dc0f6af5-c02c-4610-baea-e5c6ca16f530"},"vehicle_type_id":"4","last_reported":1703307985,"current_range_meters":26400,"station_id":"ce4bhr12rcd13ifvqhpg","pricing_plan_id":"free"},{"bike_id":"7f17d550-d32d-4490-8e9d-12fbd3d7571d","system_id":"levelo_inurba_marseille","lat":43.319935,"lon":5.381699,"is_reserved":false,"is_disabled":false,"rental_uris":{"android":"levelo://app?vid=7f17d550-d32d-4490-8e9d-12fbd3d7571d","ios":"levelo://app?vid=7f17d550-d32d-4490-8e9d-12fbd3d7571d"},"vehicle_type_id":"4","last_reported":1703307985,"current_range_meters":20000,"station_id":"ce4bhr12rcd13ifvqhpg","pricing_plan_id":"free"},{"bike_id":"ef8af028-1549-48a0-977e-4457f6b198f5","system_id":"levelo_inurba_marseille","lat":43.313571,"lon":5.384829,"is_reserved":false,"is_disabled":false,"rental_uris":{"android":"levelo://app?vid=ef8af028-1549-48a0-977e-4457f6b198f5","ios":"levelo://app?vid=ef8af028-1549-48a0-977e-4457f6b198f5"},"vehicle_type_id":"4","last_reported":1703307985,"current_range_meters":29200,"station_id":"ce4bgt92rcd13ifvqcf0","pricing_plan_id":"free"},{"bike_id":"b2298684-599c-482e-b07c-b5922fa63ab5","system_id":"levelo_inurba_marseille","lat":43.313571,"lon":5.384829,"is_reserved":false,"is_disabled":false,"rental_uris":{"android":"levelo://app?vid=b2298684-599c-482e-b07c-b5922fa63ab5","ios":"levelo://app?vid=b2298684-599c-482e-b07c-b5922fa63ab5"},"vehicle_type_id":"4","last_reported":1703307985,"current_range_meters":25600,"station_id":"ce4bgt92rcd13ifvqcf0","pricing_plan_id":"free"},{"bike_id":"ee321798-28cf-42d8-b778-539ba298faed","system_id":"levelo_inurba_marseille","lat":43.299222,"lon":5.365554,"is_reserved":false,"is_disabled":false,"rental_uris":{"android":"levelo://app?vid=ee321798-28cf-42d8-b778-539ba298faed","ios":"levelo://app?vid=ee321798-28cf-42d8-b778-539ba298faed"},"vehicle_type_id":"4","last_reported":1703307985,"current_range_meters":11600,"station_id":"ce4bgm92rcd13ifvqbr0","pricing_plan_id":"free"},{"bike_id":"b621ba55-00db-4085-a0db-544f404b7ec6","system_id":"levelo_inurba_marseille","lat":43.305364,"lon":5.384119,"is_reserved":false,"is_disabled":false,"rental_uris":{"android":"levelo://app?vid=b621ba55-00db-4085-a0db-544f404b7ec6","ios":"levelo://app?vid=b621ba55-00db-4085-a0db-544f404b7ec6"},"vehicle_type_id":"4","last_reported":1703307985,"current_range_meters":16400,"station_id":"ce4bgg92rcd13ifvqb30","pricing_plan_id":"free"},{"bike_id":"9970c10e-2018-44f8-8ebc-a7b426751cf0","system_id":"levelo_inurba_marseille","lat":43.305364,"lon":5.384119,"is_reserved":false,"is_disabled":false,"rental_uris":{"android":"levelo://app?vid=9970c10e-2018-44f8-8ebc-a7b426751cf0","ios":"levelo://app?vid=9970c10e-2018-44f8-8ebc-a7b426751cf0"},"vehicle_type_id":"4","last_reported":1703307985,"current_range_meters":3600,"station_id":"ce4bgg92rcd13ifvqb30","pricing_plan_id":"free"},{"bike_id":"39f0daf9-5d2a-4157-a9bf-21ba28fbcf18","system_id":"levelo_inurba_marseille","lat":43.311722,"lon":5.387247,"is_reserved":false,"is_disabled":false,"rental_uris":{"android":"levelo://app?vid=39f0daf9-5d2a-4157-a9bf-21ba28fbcf18","ios":"levelo://app?vid=39f0daf9-5d2a-4157-a9bf-21ba28fbcf18"},"vehicle_type_id":"4","last_reported":1703307985,"current_range_meters":31200,"station_id":"ce4bgv12rcd13ifvqcp0","pricing_plan_id":"free"},{"bike_id":"dd3cdca6-74f1-48ab-aaf2-b328e1b973f6","system_id":"levelo_inurba_marseille","lat":43.311722,"lon":5.387247,"is_reserved":false,"is_disabled":false,"rental_uris":{"android":"levelo://app?vid=dd3cdca6-74f1-48ab-aaf2-b328e1b973f6","ios":"levelo://app?vid=dd3cdca6-74f1-48ab-aaf2-b328e1b973f6"},"vehicle_type_id":"4","last_reported":1703307985,"current_range_meters":27200,"station_id":"ce4bgv12rcd13ifvqcp0","pricing_plan_id":"free"},{"bike_id":"a6c6690a-3451-4a22-87ec-2ff9102a6a4d","system_id":"levelo_inurba_marseille","lat":43.297794,"lon":5.370888,"is_reserved":false,"is_disabled":false,"rental_uris":{"android":"levelo://app?vid=a6c6690a-3451-4a22-87ec-2ff9102a6a4d","ios":"levelo://app?vid=a6c6690a-3451-4a22-87ec-2ff9102a6a4d"},"vehicle_type_id":"4","last_reported":1703307985,"current_range_meters":28400,"station_id":"ce4bgop2rcd13ifvqc1g","pricing_plan_id":"free"},{"bike_id":"6ef56fd5-1a7c-4c71-8bf8-33afeff899ef","system_id":"levelo_inurba_marseille","lat":43.322872,"lon":5.382756,"is_reserved":false,"is_disabled":false,"rental_uris":{"android":"levelo://app?vid=6ef56fd5-1a7c-4c71-8bf8-33afeff899ef","ios":"levelo://app?vid=6ef56fd5-1a7c-4c71-8bf8-33afeff899ef"},"vehicle_type_id":"4","last_reported":1703307985,"current_range_meters":18000,"station_id":"ce4bhr12rcd13ifvqhqg","pricing_plan_id":"free"},{"bike_id":"e4cf6f6e-7d8c-4b7e-ab01-7de3c446c970","system_id":"levelo_inurba_marseille","lat":43.322872,"lon":5.382756,"is_reserved":false,"is_disabled":false,"rental_uris":{"android":"levelo://app?vid=e4cf6f6e-7d8c-4b7e-ab01-7de3c446c970","ios":"levelo://app?vid=e4cf6f6e-7d8c-4b7e-ab01-7de3c446c970"},"vehicle_type_id":"4","last_reported":1703307985,"current_range_meters":31600,"station_id":"ce4bhr12rcd13ifvqhqg","pricing_plan_id":"free"},{"bike_id":"62a0e181-56c1-4aad-a05b-240ecf27baec","system_id":"levelo_inurba_marseille","lat":43.322872,"lon":5.382756,"is_reserved":false,"is_disabled":false,"rental_uris":{"android":"levelo://app?vid=62a0e181-56c1-4aad-a05b-240ecf27baec","ios":"levelo://app?vid=62a0e181-56c1-4aad-a05b-240ecf27baec"},"vehicle_type_id":"4","last_reported":1703307985,"current_range_meters":31600,"station_id":"ce4bhr12rcd13ifvqhqg","pricing_plan_id":"free"},{"bike_id":"f5987233-1d3e-4901-8b4d-56e1ca83344b","system_id":"levelo_inurba_marseille","lat":43.322872,"lon":5.382756,"is_reserved":false,"is_disabled":false,"rental_uris":{"android":"levelo://app?vid=f5987233-1d3e-4901-8b4d-56e1ca83344b","ios":"levelo://app?vid=f5987233-1d3e-4901-8b4d-56e1ca83344b"},"vehicle_type_id":"4","last_reported":1703307985,"current_range_meters":31600,"station_id":"ce4bhr12rcd13ifvqhqg","pricing_plan_id":"free"},{"bike_id":"d728a8b4-bece-4be0-a14a-8abb6b425cd7","system_id":"levelo_inurba_marseille","lat":43.328371,"lon":5.366909,"is_reserved":false,"is_disabled":false,"rental_uris":{"android":"levelo://app?vid=d728a8b4-bece-4be0-a14a-8abb6b425cd7","ios":"levelo://app?vid=d728a8b4-bece-4be0-a14a-8abb6b425cd7"},"vehicle_type_id":"4","last_reported":1703307985,"current_range_meters":14400,"station_id":"ce4bhs92rcd13ifvqi0g","pricing_plan_id":"free"},{"bike_id":"6cba446c-9ee9-4546-8c3c-626825b73b1e","system_id":"levelo_inurba_marseille","lat":43.328371,"lon":5.366909,"is_reserved":false,"is_disabled":false,"rental_uris":{"android":"levelo://app?vid=6cba446c-9ee9-4546-8c3c-626825b73b1e","ios":"levelo://app?vid=6cba446c-9ee9-4546-8c3c-626825b73b1e"},"vehicle_type_id":"4","last_reported":1703307985,"current_range_meters":4800,"station_id":"ce4bhs92rcd13ifvqi0g","pricing_plan_id":"free"},{"bike_id":"aa3fb6e4-1c03-44e5-96a0-f8edc6b5e34f","system_id":"levelo_inurba_marseille","lat":43.328371,"lon":5.366909,"is_reserved":false,"is_disabled":false,"rental_uris":{"android":"levelo://app?vid=aa3fb6e4-1c03-44e5-96a0-f8edc6b5e34f","ios":"levelo://app?vid=aa3fb6e4-1c03-44e5-96a0-f8edc6b5e34f"},"vehicle_type_id":"4","last_reported":1703307985,"current_range_meters":0,"station_id":"ce4bhs92rcd13ifvqi0g","pricing_plan_id":"free"},{"bike_id":"b2244d4b-5cac-47c6-abf7-da027fdb3f39","system_id":"levelo_inurba_marseille","lat":43.328371,"lon":5.366909,"is_reserved":false,"is_disabled":false,"rental_uris":{"android":"levelo://app?vid=b2244d4b-5cac-47c6-abf7-da027fdb3f39","ios":"levelo://app?vid=b2244d4b-5cac-47c6-abf7-da027fdb3f39"},"vehicle_type_id":"4","last_reported":1703307985,"current_range_meters":23200,"station_id":"ce4bhs92rcd13ifvqi0g","pricing_plan_id":"free"},{"bike_id":"d2be49f4-d512-450f-80de-370a6da97420","system_id":"levelo_inurba_marseille","lat":43.328371,"lon":5.366909,"is_reserved":false,"is_disabled":false,"rental_uris":{"android":"levelo://app?vid=d2be49f4-d512-450f-80de-370a6da97420","ios":"levelo://app?vid=d2be49f4-d512-450f-80de-370a6da97420"},"vehicle_type_id":"4","last_reported":1703307985,"current_range_meters":2000,"station_id":"ce4bhs92rcd13ifvqi0g","pricing_plan_id":"free"},{"bike_id":"525f6ec1-c089-48ad-8216-d8e073aa768d","system_id":"levelo_inurba_marseille","lat":43.32841,"lon":5.36677,"is_reserved":false,"is_disabled":false,"rental_uris":{"android":"levelo://app?vid=525f6ec1-c089-48ad-8216-d8e073aa768d","ios":"levelo://app?vid=525f6ec1-c089-48ad-8216-d8e073aa768d"},"vehicle_type_id":"4","last_reported":1703307985,"current_range_meters":2800,"station_id":"ce4bhs92rcd13ifvqi0g","pricing_plan_id":"free"},{"bike_id":"c8f05a78-0557-4696-af3d-97742651e2d4","system_id":"levelo_inurba_marseille","lat":43.299028,"lon":5.381509,"is_reserved":false,"is_disabled":false,"rental_uris":{"android":"levelo://app?vid=c8f05a78-0557-4696-af3d-97742651e2d4","ios":"levelo://app?vid=c8f05a78-0557-4696-af3d-97742651e2d4"},"vehicle_type_id":"4","last_reported":1703307985,"current_range_meters":15200,"station_id":"ce4bgj12rcd13ifvqbc0","pricing_plan_id":"free"},{"bike_id":"0eb456c9-b32c-41c1-9b31-d5728e3b8202","system_id":"levelo_inurba_marseille","lat":43.3095,"lon":5.39038,"is_reserved":false,"is_disabled":false,"rental_uris":{"android":"levelo://app?vid=0eb456c9-b32c-41c1-9b31-d5728e3b8202","ios":"levelo://app?vid=0eb456c9-b32c-41c1-9b31-d5728e3b8202"},"vehicle_type_id":"4","last_reported":1703307985,"current_range_meters":30400,"station_id":"ce4bgup2rcd13ifvqco0","pricing_plan_id":"free"},{"bike_id":"c8fb1772-b152-41b4-b416-0d39c46a6ebd","system_id":"levelo_inurba_marseille","lat":43.317557,"lon":5.390173,"is_reserved":false,"is_disabled":false,"rental_uris":{"android":"levelo://app?vid=c8fb1772-b152-41b4-b416-0d39c46a6ebd","ios":"levelo://app?vid=c8fb1772-b152-41b4-b416-0d39c46a6ebd"},"vehicle_type_id":"4","last_reported":1703307985,"current_range_meters":3200,"station_id":"ce4bhqp2rcd13ifvqhng","pricing_plan_id":"free"},{"bike_id":"765e810a-30ec-434e-9fc5-0dfa6a0faaaa","system_id":"levelo_inurba_marseille","lat":43.3175,"lon":5.39016,"is_reserved":false,"is_disabled":false,"rental_uris":{"android":"levelo://app?vid=765e810a-30ec-434e-9fc5-0dfa6a0faaaa","ios":"levelo://app?vid=765e810a-30ec-434e-9fc5-0dfa6a0faaaa"},"vehicle_type_id":"4","last_reported":1703307985,"current_range_meters":400,"station_id":"ce4bhqp2rcd13ifvqhng","pricing_plan_id":"free"},{"bike_id":"b3e69c1d-7e5a-4757-bef8-3569af454ae7","system_id":"levelo_inurba_marseille","lat":43.3175,"lon":5.39017,"is_reserved":false,"is_disabled":false,"rental_uris":{"android":"levelo://app?vid=b3e69c1d-7e5a-4757-bef8-3569af454ae7","ios":"levelo://app?vid=b3e69c1d-7e5a-4757-bef8-3569af454ae7"},"vehicle_type_id":"4","last_reported":1703307985,"current_range_meters":19200,"station_id":"ce4bhqp2rcd13ifvqhng","pricing_plan_id":"free"},{"bike_id":"62e22e3e-8174-4ec7-90f7-4445322daa77","system_id":"levelo_inurba_marseille","lat":43.317557,"lon":5.390173,"is_reserved":false,"is_disabled":false,"rental_uris":{"android":"levelo://app?vid=62e22e3e-8174-4ec7-90f7-4445322daa77","ios":"levelo://app?vid=62e22e3e-8174-4ec7-90f7-4445322daa77"},"vehicle_type_id":"4","last_reported":1703307985,"current_range_meters":24400,"station_id":"ce4bhqp2rcd13ifvqhng","pricing_plan_id":"free"},{"bike_id":"b9c8fefe-fcf2-4e1c-95c9-c0ffed42221d","system_id":"levelo_inurba_marseille","lat":43.317557,"lon":5.390173,"is_reserved":false,"is_disabled":false,"rental_uris":{"android":"levelo://app?vid=b9c8fefe-fcf2-4e1c-95c9-c0ffed42221d","ios":"levelo://app?vid=b9c8fefe-fcf2-4e1c-95c9-c0ffed42221d"},"vehicle_type_id":"4","last_reported":1703307985,"current_range_meters":31600,"station_id":"ce4bhqp2rcd13ifvqhng","pricing_plan_id":"free"},{"bike_id":"d39682ea-d8f1-45a4-b2b8-5a732fb091bc","system_id":"levelo_inurba_marseille","lat":43.317557,"lon":5.390173,"is_reserved":false,"is_disabled":false,"rental_uris":{"android":"levelo://app?vid=d39682ea-d8f1-45a4-b2b8-5a732fb091bc","ios":"levelo://app?vid=d39682ea-d8f1-45a4-b2b8-5a732fb091bc"},"vehicle_type_id":"4","last_reported":1703307985,"current_range_meters":31600,"station_id":"ce4bhqp2rcd13ifvqhng","pricing_plan_id":"free"},{"bike_id":"43855516-4c02-494d-aefa-3c215dbc6b85","system_id":"levelo_inurba_marseille","lat":43.317557,"lon":5.390173,"is_reserved":false,"is_disabled":false,"rental_uris":{"android":"levelo://app?vid=43855516-4c02-494d-aefa-3c215dbc6b85","ios":"levelo://app?vid=43855516-4c02-494d-aefa-3c215dbc6b85"},"vehicle_type_id":"4","last_reported":1703307985,"current_range_meters":0,"station_id":"ce4bhqp2rcd13ifvqhng","pricing_plan_id":"free"},{"bike_id":"cdb3d701-5381-4219-9cdd-c446bf2fa9ab","system_id":"levelo_inurba_marseille","lat":43.295344,"lon":5.361218,"is_reserved":false,"is_disabled":false,"rental_uris":{"android":"levelo://app?vid=cdb3d701-5381-4219-9cdd-c446bf2fa9ab","ios":"levelo://app?vid=cdb3d701-5381-4219-9cdd-c446bf2fa9ab"},"vehicle_type_id":"4","last_reported":1703307985,"current_range_meters":6800,"station_id":"","pricing_plan_id":"free"},{"bike_id":"eaa5e0c9-2b1c-4467-ab68-bbff3d6c2e68","system_id":"levelo_inurba_marseille","lat":43.32367,"lon":5.388836,"is_reserved":false,"is_disabled":false,"rental_uris":{"android":"levelo://app?vid=eaa5e0c9-2b1c-4467-ab68-bbff3d6c2e68","ios":"levelo://app?vid=eaa5e0c9-2b1c-4467-ab68-bbff3d6c2e68"},"vehicle_type_id":"4","last_reported":1703307985,"current_range_meters":19600,"station_id":"ce4bhqp2rcd13ifvqhog","pricing_plan_id":"free"},{"bike_id":"dc576f31-c21e-42d2-97a4-815b145b7f58","system_id":"levelo_inurba_marseille","lat":43.32367,"lon":5.388836,"is_reserved":false,"is_disabled":false,"rental_uris":{"android":"levelo://app?vid=dc576f31-c21e-42d2-97a4-815b145b7f58","ios":"levelo://app?vid=dc576f31-c21e-42d2-97a4-815b145b7f58"},"vehicle_type_id":"4","last_reported":1703307985,"current_range_meters":400,"station_id":"ce4bhqp2rcd13ifvqhog","pricing_plan_id":"free"},{"bike_id":"035ba96c-8560-4c70-973e-f7eb3e99c40c","system_id":"levelo_inurba_marseille","lat":43.32367,"lon":5.388836,"is_reserved":false,"is_disabled":false,"rental_uris":{"android":"levelo://app?vid=035ba96c-8560-4c70-973e-f7eb3e99c40c","ios":"levelo://app?vid=035ba96c-8560-4c70-973e-f7eb3e99c40c"},"vehicle_type_id":"4","last_reported":1703307985,"current_range_meters":18400,"station_id":"ce4bhqp2rcd13ifvqhog","pricing_plan_id":"free"},{"bike_id":"72d38d52-dc54-4223-abff-e8c043aba851","system_id":"levelo_inurba_marseille","lat":43.297942,"lon":5.38533,"is_reserved":false,"is_disabled":false,"rental_uris":{"android":"levelo://app?vid=72d38d52-dc54-4223-abff-e8c043aba851","ios":"levelo://app?vid=72d38d52-dc54-4223-abff-e8c043aba851"},"vehicle_type_id":"4","last_reported":1703307985,"current_range_meters":4800,"station_id":"","pricing_plan_id":"free"},{"bike_id":"ebadf509-8dc5-4336-bbb2-d6497292d2ec","system_id":"levelo_inurba_marseille","lat":43.300852,"lon":5.390859,"is_reserved":false,"is_disabled":false,"rental_uris":{"android":"levelo://app?vid=ebadf509-8dc5-4336-bbb2-d6497292d2ec","ios":"levelo://app?vid=ebadf509-8dc5-4336-bbb2-d6497292d2ec"},"vehicle_type_id":"4","last_reported":1703307985,"current_range_meters":21600,"station_id":"ce4bh192rcd13ifvqdb0","pricing_plan_id":"free"},{"bike_id":"c23d4d29-19f0-4ca1-80c0-8118d77a30aa","system_id":"levelo_inurba_marseille","lat":43.313291,"lon":5.396838,"is_reserved":false,"is_disabled":false,"rental_uris":{"android":"levelo://app?vid=c23d4d29-19f0-4ca1-80c0-8118d77a30aa","ios":"levelo://app?vid=c23d4d29-19f0-4ca1-80c0-8118d77a30aa"},"vehicle_type_id":"4","last_reported":1703307985,"current_range_meters":25600,"station_id":"ce4bgvp2rcd13ifvqcu0","pricing_plan_id":"free"},{"bike_id":"787a319f-9a79-4164-8fbf-55115fc93c14","system_id":"levelo_inurba_marseille","lat":43.292005,"lon":5.357875,"is_reserved":false,"is_disabled":false,"rental_uris":{"android":"levelo://app?vid=787a319f-9a79-4164-8fbf-55115fc93c14","ios":"levelo://app?vid=787a319f-9a79-4164-8fbf-55115fc93c14"},"vehicle_type_id":"4","last_reported":1703307985,"current_range_meters":0,"station_id":"ce4bhb12rcd13ifvqel0","pricing_plan_id":"free"},{"bike_id":"6b18bf16-2713-445d-a871-514ed4097ac6","system_id":"levelo_inurba_marseille","lat":43.309038,"lon":5.396546,"is_reserved":false,"is_disabled":false,"rental_uris":{"android":"levelo://app?vid=6b18bf16-2713-445d-a871-514ed4097ac6","ios":"levelo://app?vid=6b18bf16-2713-445d-a871-514ed4097ac6"},"vehicle_type_id":"4","last_reported":1703307985,"current_range_meters":24800,"station_id":"ce4bh012rcd13ifvqcv0","pricing_plan_id":"free"},{"bike_id":"89c8d67e-2c01-4fa3-8754-d919555d7b42","system_id":"levelo_inurba_marseille","lat":43.291994,"lon":5.357886,"is_reserved":false,"is_disabled":false,"rental_uris":{"android":"levelo://app?vid=89c8d67e-2c01-4fa3-8754-d919555d7b42","ios":"levelo://app?vid=89c8d67e-2c01-4fa3-8754-d919555d7b42"},"vehicle_type_id":"4","last_reported":1703307985,"current_range_meters":28000,"station_id":"ce4bhb12rcd13ifvqel0","pricing_plan_id":"free"},{"bike_id":"9900dbcc-2cc7-4281-a4db-abeb4da155e4","system_id":"levelo_inurba_marseille","lat":43.292005,"lon":5.357875,"is_reserved":false,"is_disabled":false,"rental_uris":{"android":"levelo://app?vid=9900dbcc-2cc7-4281-a4db-abeb4da155e4","ios":"levelo://app?vid=9900dbcc-2cc7-4281-a4db-abeb4da155e4"},"vehicle_type_id":"4","last_reported":1703307985,"current_range_meters":17200,"station_id":"ce4bhb12rcd13ifvqel0","pricing_plan_id":"free"},{"bike_id":"391fd59d-c17f-42ab-af5d-4958a8115fc0","system_id":"levelo_inurba_marseille","lat":43.309038,"lon":5.396546,"is_reserved":false,"is_disabled":false,"rental_uris":{"android":"levelo://app?vid=391fd59d-c17f-42ab-af5d-4958a8115fc0","ios":"levelo://app?vid=391fd59d-c17f-42ab-af5d-4958a8115fc0"},"vehicle_type_id":"4","last_reported":1703307985,"current_range_meters":31200,"station_id":"ce4bh012rcd13ifvqcv0","pricing_plan_id":"free"},{"bike_id":"d3cc02c2-2b0a-46f6-962c-8d5cf9b92e1d","system_id":"levelo_inurba_marseille","lat":43.313291,"lon":5.396838,"is_reserved":false,"is_disabled":false,"rental_uris":{"android":"levelo://app?vid=d3cc02c2-2b0a-46f6-962c-8d5cf9b92e1d","ios":"levelo://app?vid=d3cc02c2-2b0a-46f6-962c-8d5cf9b92e1d"},"vehicle_type_id":"4","last_reported":1703307985,"current_range_meters":12400,"station_id":"ce4bgvp2rcd13ifvqcu0","pricing_plan_id":"free"},{"bike_id":"38d8ffb9-ac7c-4e14-9721-daaee9d23c1a","system_id":"levelo_inurba_marseille","lat":43.313291,"lon":5.396838,"is_reserved":false,"is_disabled":false,"rental_uris":{"android":"levelo://app?vid=38d8ffb9-ac7c-4e14-9721-daaee9d23c1a","ios":"levelo://app?vid=38d8ffb9-ac7c-4e14-9721-daaee9d23c1a"},"vehicle_type_id":"4","last_reported":1703307985,"current_range_meters":31200,"station_id":"ce4bgvp2rcd13ifvqcu0","pricing_plan_id":"free"},{"bike_id":"365351fb-9dc0-4763-85db-886ebe3b10db","system_id":"levelo_inurba_marseille","lat":43.313291,"lon":5.396838,"is_reserved":false,"is_disabled":false,"rental_uris":{"android":"levelo://app?vid=365351fb-9dc0-4763-85db-886ebe3b10db","ios":"levelo://app?vid=365351fb-9dc0-4763-85db-886ebe3b10db"},"vehicle_type_id":"4","last_reported":1703307985,"current_range_meters":6400,"station_id":"ce4bgvp2rcd13ifvqcu0","pricing_plan_id":"free"},{"bike_id":"cbc62839-3c9d-4d9e-963f-bbabfe928114","system_id":"levelo_inurba_marseille","lat":43.313291,"lon":5.396838,"is_reserved":false,"is_disabled":false,"rental_uris":{"android":"levelo://app?vid=cbc62839-3c9d-4d9e-963f-bbabfe928114","ios":"levelo://app?vid=cbc62839-3c9d-4d9e-963f-bbabfe928114"},"vehicle_type_id":"4","last_reported":1703307985,"current_range_meters":29200,"station_id":"ce4bgvp2rcd13ifvqcu0","pricing_plan_id":"free"},{"bike_id":"fa38fcc7-ca87-4463-a289-03c7cd4e6723","system_id":"levelo_inurba_marseille","lat":43.313291,"lon":5.396838,"is_reserved":false,"is_disabled":false,"rental_uris":{"android":"levelo://app?vid=fa38fcc7-ca87-4463-a289-03c7cd4e6723","ios":"levelo://app?vid=fa38fcc7-ca87-4463-a289-03c7cd4e6723"},"vehicle_type_id":"4","last_reported":1703307985,"current_range_meters":31200,"station_id":"ce4bgvp2rcd13ifvqcu0","pricing_plan_id":"free"},{"bike_id":"c4b5c253-f844-42fd-82a6-50cb9b8a64cd","system_id":"levelo_inurba_marseille","lat":43.313291,"lon":5.396838,"is_reserved":false,"is_disabled":false,"rental_uris":{"android":"levelo://app?vid=c4b5c253-f844-42fd-82a6-50cb9b8a64cd","ios":"levelo://app?vid=c4b5c253-f844-42fd-82a6-50cb9b8a64cd"},"vehicle_type_id":"4","last_reported":1703307985,"current_range_meters":31200,"station_id":"ce4bgvp2rcd13ifvqcu0","pricing_plan_id":"free"},{"bike_id":"a90b8b83-e596-4fc1-8b62-b201f740b064","system_id":"levelo_inurba_marseille","lat":43.313291,"lon":5.396838,"is_reserved":false,"is_disabled":false,"rental_uris":{"android":"levelo://app?vid=a90b8b83-e596-4fc1-8b62-b201f740b064","ios":"levelo://app?vid=a90b8b83-e596-4fc1-8b62-b201f740b064"},"vehicle_type_id":"4","last_reported":1703307985,"current_range_meters":31200,"station_id":"ce4bgvp2rcd13ifvqcu0","pricing_plan_id":"free"},{"bike_id":"eceb5307-053e-422d-bbd0-9af032e873b8","system_id":"levelo_inurba_marseille","lat":43.313291,"lon":5.396838,"is_reserved":false,"is_disabled":false,"rental_uris":{"android":"levelo://app?vid=eceb5307-053e-422d-bbd0-9af032e873b8","ios":"levelo://app?vid=eceb5307-053e-422d-bbd0-9af032e873b8"},"vehicle_type_id":"4","last_reported":1703307985,"current_range_meters":31200,"station_id":"ce4bgvp2rcd13ifvqcu0","pricing_plan_id":"free"},{"bike_id":"9c4bd2fc-3d5e-46d7-a52e-17b1c35c085b","system_id":"levelo_inurba_marseille","lat":43.313291,"lon":5.396838,"is_reserved":false,"is_disabled":false,"rental_uris":{"android":"levelo://app?vid=9c4bd2fc-3d5e-46d7-a52e-17b1c35c085b","ios":"levelo://app?vid=9c4bd2fc-3d5e-46d7-a52e-17b1c35c085b"},"vehicle_type_id":"4","last_reported":1703307985,"current_range_meters":14000,"station_id":"ce4bgvp2rcd13ifvqcu0","pricing_plan_id":"free"},{"bike_id":"60de5ffc-41f6-43eb-b69f-c56cc8381207","system_id":"levelo_inurba_marseille","lat":43.313291,"lon":5.396838,"is_reserved":false,"is_disabled":false,"rental_uris":{"android":"levelo://app?vid=60de5ffc-41f6-43eb-b69f-c56cc8381207","ios":"levelo://app?vid=60de5ffc-41f6-43eb-b69f-c56cc8381207"},"vehicle_type_id":"4","last_reported":1703307985,"current_range_meters":28400,"station_id":"ce4bgvp2rcd13ifvqcu0","pricing_plan_id":"free"},{"bike_id":"1efe4517-81f6-49f2-baf3-b4f3bcf13a89","system_id":"levelo_inurba_marseille","lat":43.29529,"lon":5.385581,"is_reserved":false,"is_disabled":false,"rental_uris":{"android":"levelo://app?vid=1efe4517-81f6-49f2-baf3-b4f3bcf13a89","ios":"levelo://app?vid=1efe4517-81f6-49f2-baf3-b4f3bcf13a89"},"vehicle_type_id":"4","last_reported":1703307985,"current_range_meters":12400,"station_id":"ce4bgih2rcd13ifvqba0","pricing_plan_id":"free"},{"bike_id":"dd007d71-4a6c-403a-a1a0-ea0c10c811f9","system_id":"levelo_inurba_marseille","lat":43.290624,"lon":5.359245,"is_reserved":false,"is_disabled":false,"rental_uris":{"android":"levelo://app?vid=dd007d71-4a6c-403a-a1a0-ea0c10c811f9","ios":"levelo://app?vid=dd007d71-4a6c-403a-a1a0-ea0c10c811f9"},"vehicle_type_id":"4","last_reported":1703307985,"current_range_meters":31200,"station_id":"ce4bha92rcd13ifvqeg0","pricing_plan_id":"free"},{"bike_id":"a0b2aa76-e96f-479b-bb54-e412bfb088eb","system_id":"levelo_inurba_marseille","lat":43.290631,"lon":5.359244,"is_reserved":false,"is_disabled":false,"rental_uris":{"android":"levelo://app?vid=a0b2aa76-e96f-479b-bb54-e412bfb088eb","ios":"levelo://app?vid=a0b2aa76-e96f-479b-bb54-e412bfb088eb"},"vehicle_type_id":"4","last_reported":1703307985,"current_range_meters":30400,"station_id":"ce4bha92rcd13ifvqeg0","pricing_plan_id":"free"},{"bike_id":"81ecd235-69e4-434d-8b01-82b37874aab3","system_id":"levelo_inurba_marseille","lat":43.290631,"lon":5.359244,"is_reserved":false,"is_disabled":false,"rental_uris":{"android":"levelo://app?vid=81ecd235-69e4-434d-8b01-82b37874aab3","ios":"levelo://app?vid=81ecd235-69e4-434d-8b01-82b37874aab3"},"vehicle_type_id":"4","last_reported":1703307985,"current_range_meters":30800,"station_id":"ce4bha92rcd13ifvqeg0","pricing_plan_id":"free"},{"bike_id":"8dad4e37-2f92-4863-b9c7-c6a96b875ab5","system_id":"levelo_inurba_marseille","lat":43.289468,"lon":5.363719,"is_reserved":false,"is_disabled":false,"rental_uris":{"android":"levelo://app?vid=8dad4e37-2f92-4863-b9c7-c6a96b875ab5","ios":"levelo://app?vid=8dad4e37-2f92-4863-b9c7-c6a96b875ab5"},"vehicle_type_id":"4","last_reported":1703307985,"current_range_meters":30000,"station_id":"ce4bhc92rcd13ifvqetg","pricing_plan_id":"free"},{"bike_id":"da168997-13a1-4f8e-8594-a76db5041252","system_id":"levelo_inurba_marseille","lat":43.292644,"lon":5.384257,"is_reserved":false,"is_disabled":false,"rental_uris":{"android":"levelo://app?vid=da168997-13a1-4f8e-8594-a76db5041252","ios":"levelo://app?vid=da168997-13a1-4f8e-8594-a76db5041252"},"vehicle_type_id":"4","last_reported":1703307985,"current_range_meters":15600,"station_id":"ce4bh692rcd13ifvqea0","pricing_plan_id":"free"},{"bike_id":"cd6abb99-9829-46d6-8d05-81660d0496be","system_id":"levelo_inurba_marseille","lat":43.290104,"lon":5.356111,"is_reserved":false,"is_disabled":false,"rental_uris":{"android":"levelo://app?vid=cd6abb99-9829-46d6-8d05-81660d0496be","ios":"levelo://app?vid=cd6abb99-9829-46d6-8d05-81660d0496be"},"vehicle_type_id":"4","last_reported":1703307985,"current_range_meters":27200,"station_id":"ce4bhb92rcd13ifvqen0","pricing_plan_id":"free"},{"bike_id":"a217858c-904c-4927-86c0-6b271dfa38f8","system_id":"levelo_inurba_marseille","lat":43.290104,"lon":5.356111,"is_reserved":false,"is_disabled":false,"rental_uris":{"android":"levelo://app?vid=a217858c-904c-4927-86c0-6b271dfa38f8","ios":"levelo://app?vid=a217858c-904c-4927-86c0-6b271dfa38f8"},"vehicle_type_id":"4","last_reported":1703307985,"current_range_meters":23600,"station_id":"ce4bhb92rcd13ifvqen0","pricing_plan_id":"free"},{"bike_id":"5f476807-2cdf-4e90-95d4-5c969ff44176","system_id":"levelo_inurba_marseille","lat":43.297815,"lon":5.393548,"is_reserved":false,"is_disabled":false,"rental_uris":{"android":"levelo://app?vid=5f476807-2cdf-4e90-95d4-5c969ff44176","ios":"levelo://app?vid=5f476807-2cdf-4e90-95d4-5c969ff44176"},"vehicle_type_id":"4","last_reported":1703307985,"current_range_meters":27200,"station_id":"chh1huq6cuj3fo74tm60","pricing_plan_id":"free"},{"bike_id":"0e155c0e-5b61-4c1e-b428-7a4daeaeed51","system_id":"levelo_inurba_marseille","lat":43.28856,"lon":5.358371,"is_reserved":false,"is_disabled":false,"rental_uris":{"android":"levelo://app?vid=0e155c0e-5b61-4c1e-b428-7a4daeaeed51","ios":"levelo://app?vid=0e155c0e-5b61-4c1e-b428-7a4daeaeed51"},"vehicle_type_id":"4","last_reported":1703307985,"current_range_meters":6000,"station_id":"ce4bhb12rcd13ifvqem0","pricing_plan_id":"free"},{"bike_id":"8ef0b422-19f6-411f-94a3-e522ab90585c","system_id":"levelo_inurba_marseille","lat":43.28856,"lon":5.358371,"is_reserved":false,"is_disabled":false,"rental_uris":{"android":"levelo://app?vid=8ef0b422-19f6-411f-94a3-e522ab90585c","ios":"levelo://app?vid=8ef0b422-19f6-411f-94a3-e522ab90585c"},"vehicle_type_id":"4","last_reported":1703307985,"current_range_meters":0,"station_id":"ce4bhb12rcd13ifvqem0","pricing_plan_id":"free"},{"bike_id":"53e421d9-65d6-44cf-8edd-899c2cf616e6","system_id":"levelo_inurba_marseille","lat":43.312609,"lon":5.401662,"is_reserved":false,"is_disabled":false,"rental_uris":{"android":"levelo://app?vid=53e421d9-65d6-44cf-8edd-899c2cf616e6","ios":"levelo://app?vid=53e421d9-65d6-44cf-8edd-899c2cf616e6"},"vehicle_type_id":"4","last_reported":1703307985,"current_range_meters":20400,"station_id":"ce4bh092rcd13ifvqd30","pricing_plan_id":"free"},{"bike_id":"cb834f18-e533-4e4b-866a-78b5e9e89f81","system_id":"levelo_inurba_marseille","lat":43.312609,"lon":5.401662,"is_reserved":false,"is_disabled":false,"rental_uris":{"android":"levelo://app?vid=cb834f18-e533-4e4b-866a-78b5e9e89f81","ios":"levelo://app?vid=cb834f18-e533-4e4b-866a-78b5e9e89f81"},"vehicle_type_id":"4","last_reported":1703307985,"current_range_meters":5600,"station_id":"ce4bh092rcd13ifvqd30","pricing_plan_id":"free"},{"bike_id":"7549ac9b-d1ad-40eb-9cd5-33a56b7ad2fb","system_id":"levelo_inurba_marseille","lat":43.309371,"lon":5.401449,"is_reserved":false,"is_disabled":false,"rental_uris":{"android":"levelo://app?vid=7549ac9b-d1ad-40eb-9cd5-33a56b7ad2fb","ios":"levelo://app?vid=7549ac9b-d1ad-40eb-9cd5-33a56b7ad2fb"},"vehicle_type_id":"4","last_reported":1703307985,"current_range_meters":19600,"station_id":"ce4bgvp2rcd13ifvqct0","pricing_plan_id":"free"},{"bike_id":"9147d20d-052b-4f74-9a58-44d3a98b3237","system_id":"levelo_inurba_marseille","lat":43.30916,"lon":5.40137,"is_reserved":false,"is_disabled":false,"rental_uris":{"android":"levelo://app?vid=9147d20d-052b-4f74-9a58-44d3a98b3237","ios":"levelo://app?vid=9147d20d-052b-4f74-9a58-44d3a98b3237"},"vehicle_type_id":"4","last_reported":1703307985,"current_range_meters":5200,"station_id":"ce4bgvp2rcd13ifvqct0","pricing_plan_id":"free"},{"bike_id":"7c110479-4714-4504-a115-fa58983029c8","system_id":"levelo_inurba_marseille","lat":43.309309,"lon":5.401451,"is_reserved":false,"is_disabled":false,"rental_uris":{"android":"levelo://app?vid=7c110479-4714-4504-a115-fa58983029c8","ios":"levelo://app?vid=7c110479-4714-4504-a115-fa58983029c8"},"vehicle_type_id":"4","last_reported":1703307985,"current_range_meters":0,"station_id":"ce4bgvp2rcd13ifvqct0","pricing_plan_id":"free"},{"bike_id":"5442de4e-bff5-4457-9eff-f4bd8123b423","system_id":"levelo_inurba_marseille","lat":43.306412,"lon":5.401035,"is_reserved":false,"is_disabled":false,"rental_uris":{"android":"levelo://app?vid=5442de4e-bff5-4457-9eff-f4bd8123b423","ios":"levelo://app?vid=5442de4e-bff5-4457-9eff-f4bd8123b423"},"vehicle_type_id":"4","last_reported":1703307985,"current_range_meters":30000,"station_id":"ce4bh112rcd13ifvqda0","pricing_plan_id":"free"},{"bike_id":"fb80af67-0bd9-41bb-9332-628b36cf4a3e","system_id":"levelo_inurba_marseille","lat":43.30927,"lon":5.40158,"is_reserved":false,"is_disabled":false,"rental_uris":{"android":"levelo://app?vid=fb80af67-0bd9-41bb-9332-628b36cf4a3e","ios":"levelo://app?vid=fb80af67-0bd9-41bb-9332-628b36cf4a3e"},"vehicle_type_id":"4","last_reported":1703307985,"current_range_meters":18800,"station_id":"ce4bgvp2rcd13ifvqct0","pricing_plan_id":"free"},{"bike_id":"3ed64dd7-c2d9-4bda-8864-1f7290a836ec","system_id":"levelo_inurba_marseille","lat":43.30642,"lon":5.401031,"is_reserved":false,"is_disabled":false,"rental_uris":{"android":"levelo://app?vid=3ed64dd7-c2d9-4bda-8864-1f7290a836ec","ios":"levelo://app?vid=3ed64dd7-c2d9-4bda-8864-1f7290a836ec"},"vehicle_type_id":"4","last_reported":1703307985,"current_range_meters":6000,"station_id":"ce4bh112rcd13ifvqda0","pricing_plan_id":"free"},{"bike_id":"3abc8cee-8e03-4488-b000-a16727260e4b","system_id":"levelo_inurba_marseille","lat":43.301117,"lon":5.398795,"is_reserved":false,"is_disabled":false,"rental_uris":{"android":"levelo://app?vid=3abc8cee-8e03-4488-b000-a16727260e4b","ios":"levelo://app?vid=3abc8cee-8e03-4488-b000-a16727260e4b"},"vehicle_type_id":"4","last_reported":1703307985,"current_range_meters":27200,"station_id":"ce4bh0h2rcd13ifvqd40","pricing_plan_id":"free"},{"bike_id":"d9319860-de7a-4ba2-95a1-203c76321596","system_id":"levelo_inurba_marseille","lat":43.298676,"lon":5.397298,"is_reserved":false,"is_disabled":false,"rental_uris":{"android":"levelo://app?vid=d9319860-de7a-4ba2-95a1-203c76321596","ios":"levelo://app?vid=d9319860-de7a-4ba2-95a1-203c76321596"},"vehicle_type_id":"4","last_reported":1703307985,"current_range_meters":4800,"station_id":"ce4bh0h2rcd13ifvqd50","pricing_plan_id":"free"},{"bike_id":"60d8110f-a1df-414b-a30d-17d17f7c6dda","system_id":"levelo_inurba_marseille","lat":43.298681,"lon":5.397225,"is_reserved":false,"is_disabled":false,"rental_uris":{"android":"levelo://app?vid=60d8110f-a1df-414b-a30d-17d17f7c6dda","ios":"levelo://app?vid=60d8110f-a1df-414b-a30d-17d17f7c6dda"},"vehicle_type_id":"4","last_reported":1703307985,"current_range_meters":25200,"station_id":"ce4bh0h2rcd13ifvqd50","pricing_plan_id":"free"},{"bike_id":"3f6afa85-cff6-4d13-a0d3-9212c867d1d1","system_id":"levelo_inurba_marseille","lat":43.298584,"lon":5.397358,"is_reserved":false,"is_disabled":false,"rental_uris":{"android":"levelo://app?vid=3f6afa85-cff6-4d13-a0d3-9212c867d1d1","ios":"levelo://app?vid=3f6afa85-cff6-4d13-a0d3-9212c867d1d1"},"vehicle_type_id":"4","last_reported":1703307985,"current_range_meters":400,"station_id":"ce4bh0h2rcd13ifvqd50","pricing_plan_id":"free"},{"bike_id":"41721e82-4590-4234-bad2-44c662deb444","system_id":"levelo_inurba_marseille","lat":43.302549,"lon":5.400704,"is_reserved":false,"is_disabled":false,"rental_uris":{"android":"levelo://app?vid=41721e82-4590-4234-bad2-44c662deb444","ios":"levelo://app?vid=41721e82-4590-4234-bad2-44c662deb444"},"vehicle_type_id":"4","last_reported":1703307985,"current_range_meters":6800,"station_id":"ce4bgvh2rcd13ifvqcs0","pricing_plan_id":"free"},{"bike_id":"b269c749-19b3-457a-9f11-021ccc443c55","system_id":"levelo_inurba_marseille","lat":43.286039,"lon":5.370679,"is_reserved":false,"is_disabled":false,"rental_uris":{"android":"levelo://app?vid=b269c749-19b3-457a-9f11-021ccc443c55","ios":"levelo://app?vid=b269c749-19b3-457a-9f11-021ccc443c55"},"vehicle_type_id":"4","last_reported":1703307985,"current_range_meters":17200,"station_id":"ce4bht12rcd13ifvqi60","pricing_plan_id":"free"},{"bike_id":"07420774-1b3c-4f89-9962-d7fd0d94bc67","system_id":"levelo_inurba_marseille","lat":43.287184,"lon":5.37937,"is_reserved":false,"is_disabled":false,"rental_uris":{"android":"levelo://app?vid=07420774-1b3c-4f89-9962-d7fd0d94bc67","ios":"levelo://app?vid=07420774-1b3c-4f89-9962-d7fd0d94bc67"},"vehicle_type_id":"4","last_reported":1703307985,"current_range_meters":20800,"station_id":"ce4bh9p2rcd13ifvqec0","pricing_plan_id":"free"},{"bike_id":"8d7088d7-7e98-4530-8f59-682e05945221","system_id":"levelo_inurba_marseille","lat":43.316828,"lon":5.404723,"is_reserved":false,"is_disabled":false,"rental_uris":{"android":"levelo://app?vid=8d7088d7-7e98-4530-8f59-682e05945221","ios":"levelo://app?vid=8d7088d7-7e98-4530-8f59-682e05945221"},"vehicle_type_id":"4","last_reported":1703307985,"current_range_meters":7600,"station_id":"ce4bh012rcd13ifvqd00","pricing_plan_id":"free"},{"bike_id":"131cc08d-d375-40f4-a928-75f8b6843ec9","system_id":"levelo_inurba_marseille","lat":43.316828,"lon":5.404723,"is_reserved":false,"is_disabled":false,"rental_uris":{"android":"levelo://app?vid=131cc08d-d375-40f4-a928-75f8b6843ec9","ios":"levelo://app?vid=131cc08d-d375-40f4-a928-75f8b6843ec9"},"vehicle_type_id":"4","last_reported":1703307985,"current_range_meters":21600,"station_id":"ce4bh012rcd13ifvqd00","pricing_plan_id":"free"},{"bike_id":"e2adfa7c-882e-48a1-9ee4-b36e6186ebbf","system_id":"levelo_inurba_marseille","lat":43.330912,"lon":5.396935,"is_reserved":false,"is_disabled":false,"rental_uris":{"android":"levelo://app?vid=e2adfa7c-882e-48a1-9ee4-b36e6186ebbf","ios":"levelo://app?vid=e2adfa7c-882e-48a1-9ee4-b36e6186ebbf"},"vehicle_type_id":"4","last_reported":1703307985,"current_range_meters":16000,"station_id":"","pricing_plan_id":"free"},{"bike_id":"ce83a5c5-1b59-4268-ba3a-86cabe0b3ae5","system_id":"levelo_inurba_marseille","lat":43.284538,"lon":5.358657,"is_reserved":false,"is_disabled":false,"rental_uris":{"android":"levelo://app?vid=ce83a5c5-1b59-4268-ba3a-86cabe0b3ae5","ios":"levelo://app?vid=ce83a5c5-1b59-4268-ba3a-86cabe0b3ae5"},"vehicle_type_id":"4","last_reported":1703307985,"current_range_meters":28400,"station_id":"ce4bhah2rcd13ifvqei0","pricing_plan_id":"free"},{"bike_id":"6681f091-8cae-40db-82be-2afedc79afec","system_id":"levelo_inurba_marseille","lat":43.297974,"lon":5.400771,"is_reserved":false,"is_disabled":false,"rental_uris":{"android":"levelo://app?vid=6681f091-8cae-40db-82be-2afedc79afec","ios":"levelo://app?vid=6681f091-8cae-40db-82be-2afedc79afec"},"vehicle_type_id":"4","last_reported":1703307985,"current_range_meters":3200,"station_id":"","pricing_plan_id":"free"},{"bike_id":"c16cc541-06dd-4714-80b3-98b3d284a258","system_id":"levelo_inurba_marseille","lat":43.284538,"lon":5.358657,"is_reserved":false,"is_disabled":false,"rental_uris":{"android":"levelo://app?vid=c16cc541-06dd-4714-80b3-98b3d284a258","ios":"levelo://app?vid=c16cc541-06dd-4714-80b3-98b3d284a258"},"vehicle_type_id":"4","last_reported":1703307985,"current_range_meters":11200,"station_id":"ce4bhah2rcd13ifvqei0","pricing_plan_id":"free"},{"bike_id":"9b286649-dd17-4f6f-8f11-5ea7a55c74cd","system_id":"levelo_inurba_marseille","lat":43.284538,"lon":5.358657,"is_reserved":false,"is_disabled":false,"rental_uris":{"android":"levelo://app?vid=9b286649-dd17-4f6f-8f11-5ea7a55c74cd","ios":"levelo://app?vid=9b286649-dd17-4f6f-8f11-5ea7a55c74cd"},"vehicle_type_id":"4","last_reported":1703307985,"current_range_meters":24000,"station_id":"ce4bhah2rcd13ifvqei0","pricing_plan_id":"free"},{"bike_id":"cf9125ac-0535-4783-a319-869bdec2aa22","system_id":"levelo_inurba_marseille","lat":43.284538,"lon":5.358657,"is_reserved":false,"is_disabled":false,"rental_uris":{"android":"levelo://app?vid=cf9125ac-0535-4783-a319-869bdec2aa22","ios":"levelo://app?vid=cf9125ac-0535-4783-a319-869bdec2aa22"},"vehicle_type_id":"4","last_reported":1703307985,"current_range_meters":22000,"station_id":"ce4bhah2rcd13ifvqei0","pricing_plan_id":"free"},{"bike_id":"15760fcf-02fc-4f1e-878c-980218a83dd1","system_id":"levelo_inurba_marseille","lat":43.295713,"lon":5.399639,"is_reserved":false,"is_disabled":false,"rental_uris":{"android":"levelo://app?vid=15760fcf-02fc-4f1e-878c-980218a83dd1","ios":"levelo://app?vid=15760fcf-02fc-4f1e-878c-980218a83dd1"},"vehicle_type_id":"4","last_reported":1703307985,"current_range_meters":29600,"station_id":"ce4bh312rcd13ifvqdj0","pricing_plan_id":"free"},{"bike_id":"b7c71217-6fce-490c-9bd4-073ff8143718","system_id":"levelo_inurba_marseille","lat":43.33717,"lon":5.391857,"is_reserved":false,"is_disabled":false,"rental_uris":{"android":"levelo://app?vid=b7c71217-6fce-490c-9bd4-073ff8143718","ios":"levelo://app?vid=b7c71217-6fce-490c-9bd4-073ff8143718"},"vehicle_type_id":"4","last_reported":1703307985,"current_range_meters":31200,"station_id":"ce4bhr92rcd13ifvqhsg","pricing_plan_id":"free"},{"bike_id":"233eb238-e400-46e7-9601-45e4ec2edf9e","system_id":"levelo_inurba_marseille","lat":43.337168,"lon":5.391825,"is_reserved":false,"is_disabled":false,"rental_uris":{"android":"levelo://app?vid=233eb238-e400-46e7-9601-45e4ec2edf9e","ios":"levelo://app?vid=233eb238-e400-46e7-9601-45e4ec2edf9e"},"vehicle_type_id":"4","last_reported":1703307985,"current_range_meters":25600,"station_id":"ce4bhr92rcd13ifvqhsg","pricing_plan_id":"free"},{"bike_id":"3b7e3ec0-988e-4aeb-bcf3-3017c628b5d3","system_id":"levelo_inurba_marseille","lat":43.33717,"lon":5.391857,"is_reserved":false,"is_disabled":false,"rental_uris":{"android":"levelo://app?vid=3b7e3ec0-988e-4aeb-bcf3-3017c628b5d3","ios":"levelo://app?vid=3b7e3ec0-988e-4aeb-bcf3-3017c628b5d3"},"vehicle_type_id":"4","last_reported":1703307985,"current_range_meters":30000,"station_id":"ce4bhr92rcd13ifvqhsg","pricing_plan_id":"free"},{"bike_id":"b306bef3-61ce-4097-b249-eebc7da08ee6","system_id":"levelo_inurba_marseille","lat":43.323464,"lon":5.406297,"is_reserved":false,"is_disabled":false,"rental_uris":{"android":"levelo://app?vid=b306bef3-61ce-4097-b249-eebc7da08ee6","ios":"levelo://app?vid=b306bef3-61ce-4097-b249-eebc7da08ee6"},"vehicle_type_id":"4","last_reported":1703307985,"current_range_meters":27200,"station_id":"ce4bhq92rcd13ifvqhjg","pricing_plan_id":"free"},{"bike_id":"69a23a1c-70a2-4aea-9058-ccf2c18c7b58","system_id":"levelo_inurba_marseille","lat":43.33717,"lon":5.391857,"is_reserved":false,"is_disabled":false,"rental_uris":{"android":"levelo://app?vid=69a23a1c-70a2-4aea-9058-ccf2c18c7b58","ios":"levelo://app?vid=69a23a1c-70a2-4aea-9058-ccf2c18c7b58"},"vehicle_type_id":"4","last_reported":1703307985,"current_range_meters":30400,"station_id":"ce4bhr92rcd13ifvqhsg","pricing_plan_id":"free"},{"bike_id":"2bcc2b89-6952-4a7d-bea6-02a0b59867fc","system_id":"levelo_inurba_marseille","lat":43.323464,"lon":5.406297,"is_reserved":false,"is_disabled":false,"rental_uris":{"android":"levelo://app?vid=2bcc2b89-6952-4a7d-bea6-02a0b59867fc","ios":"levelo://app?vid=2bcc2b89-6952-4a7d-bea6-02a0b59867fc"},"vehicle_type_id":"4","last_reported":1703307985,"current_range_meters":29200,"station_id":"ce4bhq92rcd13ifvqhjg","pricing_plan_id":"free"},{"bike_id":"7eada8fb-8c59-41ea-ae15-1164bd9fc1af","system_id":"levelo_inurba_marseille","lat":43.329601,"lon":5.40223,"is_reserved":false,"is_disabled":false,"rental_uris":{"android":"levelo://app?vid=7eada8fb-8c59-41ea-ae15-1164bd9fc1af","ios":"levelo://app?vid=7eada8fb-8c59-41ea-ae15-1164bd9fc1af"},"vehicle_type_id":"4","last_reported":1703307985,"current_range_meters":30400,"station_id":"","pricing_plan_id":"free"},{"bike_id":"59011a2b-febb-42aa-8ad7-1259ad1712e3","system_id":"levelo_inurba_marseille","lat":43.288501,"lon":5.393087,"is_reserved":false,"is_disabled":false,"rental_uris":{"android":"levelo://app?vid=59011a2b-febb-42aa-8ad7-1259ad1712e3","ios":"levelo://app?vid=59011a2b-febb-42aa-8ad7-1259ad1712e3"},"vehicle_type_id":"4","last_reported":1703307985,"current_range_meters":29600,"station_id":"ce4bh2p2rcd13ifvqdi0","pricing_plan_id":"free"},{"bike_id":"b02feee7-8174-41b3-95be-62f87df2ecbb","system_id":"levelo_inurba_marseille","lat":43.283494,"lon":5.380945,"is_reserved":false,"is_disabled":false,"rental_uris":{"android":"levelo://app?vid=b02feee7-8174-41b3-95be-62f87df2ecbb","ios":"levelo://app?vid=b02feee7-8174-41b3-95be-62f87df2ecbb"},"vehicle_type_id":"4","last_reported":1703307985,"current_range_meters":31600,"station_id":"ce4bh412rcd13ifvqdr0","pricing_plan_id":"free"},{"bike_id":"3836b981-ce8c-4134-a5b7-097c6433e054","system_id":"levelo_inurba_marseille","lat":43.283498,"lon":5.380948,"is_reserved":false,"is_disabled":false,"rental_uris":{"android":"levelo://app?vid=3836b981-ce8c-4134-a5b7-097c6433e054","ios":"levelo://app?vid=3836b981-ce8c-4134-a5b7-097c6433e054"},"vehicle_type_id":"4","last_reported":1703307985,"current_range_meters":27200,"station_id":"ce4bh412rcd13ifvqdr0","pricing_plan_id":"free"},{"bike_id":"fd6583fe-bfb4-4eec-9c48-29450c69b4e5","system_id":"levelo_inurba_marseille","lat":43.283494,"lon":5.380945,"is_reserved":false,"is_disabled":false,"rental_uris":{"android":"levelo://app?vid=fd6583fe-bfb4-4eec-9c48-29450c69b4e5","ios":"levelo://app?vid=fd6583fe-bfb4-4eec-9c48-29450c69b4e5"},"vehicle_type_id":"4","last_reported":1703307985,"current_range_meters":23200,"station_id":"ce4bh412rcd13ifvqdr0","pricing_plan_id":"free"},{"bike_id":"b6f1f3de-4488-4b2c-932e-085734e4f1f1","system_id":"levelo_inurba_marseille","lat":43.284217,"lon":5.349697,"is_reserved":false,"is_disabled":false,"rental_uris":{"android":"levelo://app?vid=b6f1f3de-4488-4b2c-932e-085734e4f1f1","ios":"levelo://app?vid=b6f1f3de-4488-4b2c-932e-085734e4f1f1"},"vehicle_type_id":"4","last_reported":1703307985,"current_range_meters":27200,"station_id":"ce4bhbh2rcd13ifvqepg","pricing_plan_id":"free"},{"bike_id":"24938d4e-f4f3-448b-9652-49ca05eab011","system_id":"levelo_inurba_marseille","lat":43.289363,"lon":5.396322,"is_reserved":false,"is_disabled":false,"rental_uris":{"android":"levelo://app?vid=24938d4e-f4f3-448b-9652-49ca05eab011","ios":"levelo://app?vid=24938d4e-f4f3-448b-9652-49ca05eab011"},"vehicle_type_id":"4","last_reported":1703307985,"current_range_meters":26800,"station_id":"ce4bh3h2rcd13ifvqdn0","pricing_plan_id":"free"},{"bike_id":"97d250c0-e72a-41aa-ac38-1a94e4f1366e","system_id":"levelo_inurba_marseille","lat":43.292724,"lon":5.401131,"is_reserved":false,"is_disabled":false,"rental_uris":{"android":"levelo://app?vid=97d250c0-e72a-41aa-ac38-1a94e4f1366e","ios":"levelo://app?vid=97d250c0-e72a-41aa-ac38-1a94e4f1366e"},"vehicle_type_id":"4","last_reported":1703307985,"current_range_meters":0,"station_id":"ce4bh312rcd13ifvqdk0","pricing_plan_id":"free"},{"bike_id":"36325edf-eceb-42b9-87ae-10fd38db9a73","system_id":"levelo_inurba_marseille","lat":43.292724,"lon":5.401131,"is_reserved":false,"is_disabled":false,"rental_uris":{"android":"levelo://app?vid=36325edf-eceb-42b9-87ae-10fd38db9a73","ios":"levelo://app?vid=36325edf-eceb-42b9-87ae-10fd38db9a73"},"vehicle_type_id":"4","last_reported":1703307985,"current_range_meters":31200,"station_id":"ce4bh312rcd13ifvqdk0","pricing_plan_id":"free"},{"bike_id":"0c07039d-f042-4577-ad3b-2eb17b5732ec","system_id":"levelo_inurba_marseille","lat":43.282754,"lon":5.350737,"is_reserved":false,"is_disabled":false,"rental_uris":{"android":"levelo://app?vid=0c07039d-f042-4577-ad3b-2eb17b5732ec","ios":"levelo://app?vid=0c07039d-f042-4577-ad3b-2eb17b5732ec"},"vehicle_type_id":"4","last_reported":1703307985,"current_range_meters":8800,"station_id":"ce4bhbp2rcd13ifvqerg","pricing_plan_id":"free"},{"bike_id":"e4cfc497-fbed-435b-8e40-d54801b28e62","system_id":"levelo_inurba_marseille","lat":43.282754,"lon":5.350519,"is_reserved":false,"is_disabled":false,"rental_uris":{"android":"levelo://app?vid=e4cfc497-fbed-435b-8e40-d54801b28e62","ios":"levelo://app?vid=e4cfc497-fbed-435b-8e40-d54801b28e62"},"vehicle_type_id":"4","last_reported":1703307985,"current_range_meters":26800,"station_id":"ce4bhbp2rcd13ifvqerg","pricing_plan_id":"free"},{"bike_id":"1b26201c-d66a-4386-9421-943cb96302d6","system_id":"levelo_inurba_marseille","lat":43.282744,"lon":5.350533,"is_reserved":false,"is_disabled":false,"rental_uris":{"android":"levelo://app?vid=1b26201c-d66a-4386-9421-943cb96302d6","ios":"levelo://app?vid=1b26201c-d66a-4386-9421-943cb96302d6"},"vehicle_type_id":"4","last_reported":1703307985,"current_range_meters":30800,"station_id":"ce4bhbp2rcd13ifvqerg","pricing_plan_id":"free"},{"bike_id":"8d954b9b-7cc9-4db6-b465-bf95f174b85f","system_id":"levelo_inurba_marseille","lat":43.280382,"lon":5.369432,"is_reserved":false,"is_disabled":false,"rental_uris":{"android":"levelo://app?vid=8d954b9b-7cc9-4db6-b465-bf95f174b85f","ios":"levelo://app?vid=8d954b9b-7cc9-4db6-b465-bf95f174b85f"},"vehicle_type_id":"4","last_reported":1703307985,"current_range_meters":2400,"station_id":"ce4bha12rcd13ifvqef0","pricing_plan_id":"free"},{"bike_id":"289d2076-0005-417e-aaf4-5a60e1989df9","system_id":"levelo_inurba_marseille","lat":43.28039,"lon":5.369297,"is_reserved":false,"is_disabled":false,"rental_uris":{"android":"levelo://app?vid=289d2076-0005-417e-aaf4-5a60e1989df9","ios":"levelo://app?vid=289d2076-0005-417e-aaf4-5a60e1989df9"},"vehicle_type_id":"4","last_reported":1703307985,"current_range_meters":31600,"station_id":"ce4bha12rcd13ifvqef0","pricing_plan_id":"free"},{"bike_id":"2024a61b-7173-4785-8359-84679011d211","system_id":"levelo_inurba_marseille","lat":43.280382,"lon":5.369291,"is_reserved":false,"is_disabled":false,"rental_uris":{"android":"levelo://app?vid=2024a61b-7173-4785-8359-84679011d211","ios":"levelo://app?vid=2024a61b-7173-4785-8359-84679011d211"},"vehicle_type_id":"4","last_reported":1703307985,"current_range_meters":31600,"station_id":"ce4bha12rcd13ifvqef0","pricing_plan_id":"free"},{"bike_id":"86a968dc-f141-4fe8-a39b-55246f534eb4","system_id":"levelo_inurba_marseille","lat":43.28039,"lon":5.369297,"is_reserved":false,"is_disabled":false,"rental_uris":{"android":"levelo://app?vid=86a968dc-f141-4fe8-a39b-55246f534eb4","ios":"levelo://app?vid=86a968dc-f141-4fe8-a39b-55246f534eb4"},"vehicle_type_id":"4","last_reported":1703307985,"current_range_meters":18400,"station_id":"ce4bha12rcd13ifvqef0","pricing_plan_id":"free"},{"bike_id":"9ffafec3-6611-4556-9571-530e1d819b18","system_id":"levelo_inurba_marseille","lat":43.280382,"lon":5.369291,"is_reserved":false,"is_disabled":false,"rental_uris":{"android":"levelo://app?vid=9ffafec3-6611-4556-9571-530e1d819b18","ios":"levelo://app?vid=9ffafec3-6611-4556-9571-530e1d819b18"},"vehicle_type_id":"4","last_reported":1703307985,"current_range_meters":16000,"station_id":"ce4bha12rcd13ifvqef0","pricing_plan_id":"free"},{"bike_id":"ab54ffe8-6926-44a5-ad8d-6a56843b7da1","system_id":"levelo_inurba_marseille","lat":43.28039,"lon":5.369297,"is_reserved":false,"is_disabled":false,"rental_uris":{"android":"levelo://app?vid=ab54ffe8-6926-44a5-ad8d-6a56843b7da1","ios":"levelo://app?vid=ab54ffe8-6926-44a5-ad8d-6a56843b7da1"},"vehicle_type_id":"4","last_reported":1703307985,"current_range_meters":800,"station_id":"ce4bha12rcd13ifvqef0","pricing_plan_id":"free"},{"bike_id":"06197de1-47f7-4cb7-9a62-a0f13e3be420","system_id":"levelo_inurba_marseille","lat":43.280382,"lon":5.369291,"is_reserved":false,"is_disabled":false,"rental_uris":{"android":"levelo://app?vid=06197de1-47f7-4cb7-9a62-a0f13e3be420","ios":"levelo://app?vid=06197de1-47f7-4cb7-9a62-a0f13e3be420"},"vehicle_type_id":"4","last_reported":1703307985,"current_range_meters":22000,"station_id":"ce4bha12rcd13ifvqef0","pricing_plan_id":"free"},{"bike_id":"295a1f8e-902b-4f4f-824f-dff3e157680d","system_id":"levelo_inurba_marseille","lat":43.28105,"lon":5.37848,"is_reserved":false,"is_disabled":false,"rental_uris":{"android":"levelo://app?vid=295a1f8e-902b-4f4f-824f-dff3e157680d","ios":"levelo://app?vid=295a1f8e-902b-4f4f-824f-dff3e157680d"},"vehicle_type_id":"4","last_reported":1703307985,"current_range_meters":30000,"station_id":"ce4bha12rcd13ifvqee0","pricing_plan_id":"free"},{"bike_id":"4a7194a6-bdc2-4d67-a274-476a5cbc95aa","system_id":"levelo_inurba_marseille","lat":43.281044,"lon":5.378308,"is_reserved":false,"is_disabled":false,"rental_uris":{"android":"levelo://app?vid=4a7194a6-bdc2-4d67-a274-476a5cbc95aa","ios":"levelo://app?vid=4a7194a6-bdc2-4d67-a274-476a5cbc95aa"},"vehicle_type_id":"4","last_reported":1703307985,"current_range_meters":26800,"station_id":"ce4bha12rcd13ifvqee0","pricing_plan_id":"free"},{"bike_id":"4c43b076-ecab-4426-a7e6-d095a83b2ead","system_id":"levelo_inurba_marseille","lat":43.284462,"lon":5.392121,"is_reserved":false,"is_disabled":false,"rental_uris":{"android":"levelo://app?vid=4c43b076-ecab-4426-a7e6-d095a83b2ead","ios":"levelo://app?vid=4c43b076-ecab-4426-a7e6-d095a83b2ead"},"vehicle_type_id":"4","last_reported":1703307985,"current_range_meters":31200,"station_id":"ce4bhoh2rcd13ifvqh5g","pricing_plan_id":"free"},{"bike_id":"54a19b5f-c93d-48fc-8dbd-1a738c52f387","system_id":"levelo_inurba_marseille","lat":43.28573,"lon":5.394992,"is_reserved":false,"is_disabled":false,"rental_uris":{"android":"levelo://app?vid=54a19b5f-c93d-48fc-8dbd-1a738c52f387","ios":"levelo://app?vid=54a19b5f-c93d-48fc-8dbd-1a738c52f387"},"vehicle_type_id":"4","last_reported":1703307985,"current_range_meters":30000,"station_id":"ce4bh292rcd13ifvqdg0","pricing_plan_id":"free"},{"bike_id":"4c33b76c-4bbb-496b-a596-f3563dcc2cc8","system_id":"levelo_inurba_marseille","lat":43.285742,"lon":5.395004,"is_reserved":false,"is_disabled":false,"rental_uris":{"android":"levelo://app?vid=4c33b76c-4bbb-496b-a596-f3563dcc2cc8","ios":"levelo://app?vid=4c33b76c-4bbb-496b-a596-f3563dcc2cc8"},"vehicle_type_id":"4","last_reported":1703307985,"current_range_meters":30400,"station_id":"ce4bh292rcd13ifvqdg0","pricing_plan_id":"free"},{"bike_id":"921b424d-ad0d-4c7a-9d74-66e3a49bfa19","system_id":"levelo_inurba_marseille","lat":43.326605,"lon":5.409903,"is_reserved":false,"is_disabled":false,"rental_uris":{"android":"levelo://app?vid=921b424d-ad0d-4c7a-9d74-66e3a49bfa19","ios":"levelo://app?vid=921b424d-ad0d-4c7a-9d74-66e3a49bfa19"},"vehicle_type_id":"4","last_reported":1703307985,"current_range_meters":29200,"station_id":"ce4bhpp2rcd13ifvqhgg","pricing_plan_id":"free"},{"bike_id":"2dce41b4-f1e9-4565-979b-d206af37124f","system_id":"levelo_inurba_marseille","lat":43.326605,"lon":5.409903,"is_reserved":false,"is_disabled":false,"rental_uris":{"android":"levelo://app?vid=2dce41b4-f1e9-4565-979b-d206af37124f","ios":"levelo://app?vid=2dce41b4-f1e9-4565-979b-d206af37124f"},"vehicle_type_id":"4","last_reported":1703307985,"current_range_meters":31200,"station_id":"ce4bhpp2rcd13ifvqhgg","pricing_plan_id":"free"},{"bike_id":"49d73e02-e5c2-4882-b44f-d8c5e2af2b78","system_id":"levelo_inurba_marseille","lat":43.326605,"lon":5.409903,"is_reserved":false,"is_disabled":false,"rental_uris":{"android":"levelo://app?vid=49d73e02-e5c2-4882-b44f-d8c5e2af2b78","ios":"levelo://app?vid=49d73e02-e5c2-4882-b44f-d8c5e2af2b78"},"vehicle_type_id":"4","last_reported":1703307985,"current_range_meters":30000,"station_id":"ce4bhpp2rcd13ifvqhgg","pricing_plan_id":"free"},{"bike_id":"3facbe4d-388c-40d0-82e4-59c677c06a34","system_id":"levelo_inurba_marseille","lat":43.304217,"lon":5.4128,"is_reserved":false,"is_disabled":false,"rental_uris":{"android":"levelo://app?vid=3facbe4d-388c-40d0-82e4-59c677c06a34","ios":"levelo://app?vid=3facbe4d-388c-40d0-82e4-59c677c06a34"},"vehicle_type_id":"4","last_reported":1703307985,"current_range_meters":0,"station_id":"ce4bhop2rcd13ifvqh8g","pricing_plan_id":"free"},{"bike_id":"2994219f-f282-434d-a4a5-dcac2f9151e5","system_id":"levelo_inurba_marseille","lat":43.30417,"lon":5.41279,"is_reserved":false,"is_disabled":false,"rental_uris":{"android":"levelo://app?vid=2994219f-f282-434d-a4a5-dcac2f9151e5","ios":"levelo://app?vid=2994219f-f282-434d-a4a5-dcac2f9151e5"},"vehicle_type_id":"4","last_reported":1703307985,"current_range_meters":12800,"station_id":"ce4bhop2rcd13ifvqh8g","pricing_plan_id":"free"},{"bike_id":"f2a735b9-b183-4b03-acbe-8b823bd40b24","system_id":"levelo_inurba_marseille","lat":43.30416,"lon":5.412838,"is_reserved":false,"is_disabled":false,"rental_uris":{"android":"levelo://app?vid=f2a735b9-b183-4b03-acbe-8b823bd40b24","ios":"levelo://app?vid=f2a735b9-b183-4b03-acbe-8b823bd40b24"},"vehicle_type_id":"4","last_reported":1703307985,"current_range_meters":31200,"station_id":"ce4bhop2rcd13ifvqh8g","pricing_plan_id":"free"},{"bike_id":"7f89473b-4ee2-4ba8-86bf-bc53e18d4702","system_id":"levelo_inurba_marseille","lat":43.304191,"lon":5.412886,"is_reserved":false,"is_disabled":false,"rental_uris":{"android":"levelo://app?vid=7f89473b-4ee2-4ba8-86bf-bc53e18d4702","ios":"levelo://app?vid=7f89473b-4ee2-4ba8-86bf-bc53e18d4702"},"vehicle_type_id":"4","last_reported":1703307985,"current_range_meters":1600,"station_id":"ce4bhop2rcd13ifvqh8g","pricing_plan_id":"free"},{"bike_id":"5580da28-ece3-4ebd-b97a-6c4bbe169f57","system_id":"levelo_inurba_marseille","lat":43.304147,"lon":5.412898,"is_reserved":false,"is_disabled":false,"rental_uris":{"android":"levelo://app?vid=5580da28-ece3-4ebd-b97a-6c4bbe169f57","ios":"levelo://app?vid=5580da28-ece3-4ebd-b97a-6c4bbe169f57"},"vehicle_type_id":"4","last_reported":1703307985,"current_range_meters":0,"station_id":"ce4bhop2rcd13ifvqh8g","pricing_plan_id":"free"},{"bike_id":"03a8f128-97e5-40ae-9081-744f8ce83749","system_id":"levelo_inurba_marseille","lat":43.279087,"lon":5.380114,"is_reserved":false,"is_disabled":false,"rental_uris":{"android":"levelo://app?vid=03a8f128-97e5-40ae-9081-744f8ce83749","ios":"levelo://app?vid=03a8f128-97e5-40ae-9081-744f8ce83749"},"vehicle_type_id":"4","last_reported":1703307985,"current_range_meters":30000,"station_id":"ce4bhf92rcd13ifvqf50","pricing_plan_id":"free"},{"bike_id":"0607fcfe-033a-447c-9428-df4bb5a0f943","system_id":"levelo_inurba_marseille","lat":43.287154,"lon":5.399979,"is_reserved":false,"is_disabled":false,"rental_uris":{"android":"levelo://app?vid=0607fcfe-033a-447c-9428-df4bb5a0f943","ios":"levelo://app?vid=0607fcfe-033a-447c-9428-df4bb5a0f943"},"vehicle_type_id":"4","last_reported":1703307985,"current_range_meters":21600,"station_id":"ce4bho92rcd13ifvqh3g","pricing_plan_id":"free"},{"bike_id":"1db55c21-5b1c-4276-b8ff-c0616eb64739","system_id":"levelo_inurba_marseille","lat":43.287154,"lon":5.399979,"is_reserved":false,"is_disabled":false,"rental_uris":{"android":"levelo://app?vid=1db55c21-5b1c-4276-b8ff-c0616eb64739","ios":"levelo://app?vid=1db55c21-5b1c-4276-b8ff-c0616eb64739"},"vehicle_type_id":"4","last_reported":1703307985,"current_range_meters":30800,"station_id":"ce4bho92rcd13ifvqh3g","pricing_plan_id":"free"},{"bike_id":"96f14629-b755-441a-8208-5da987dcd170","system_id":"levelo_inurba_marseille","lat":43.287154,"lon":5.399979,"is_reserved":false,"is_disabled":false,"rental_uris":{"android":"levelo://app?vid=96f14629-b755-441a-8208-5da987dcd170","ios":"levelo://app?vid=96f14629-b755-441a-8208-5da987dcd170"},"vehicle_type_id":"4","last_reported":1703307985,"current_range_meters":22800,"station_id":"ce4bho92rcd13ifvqh3g","pricing_plan_id":"free"},{"bike_id":"3abf6371-b3c9-4f2e-92be-ad71562b6a11","system_id":"levelo_inurba_marseille","lat":43.28712,"lon":5.399935,"is_reserved":false,"is_disabled":false,"rental_uris":{"android":"levelo://app?vid=3abf6371-b3c9-4f2e-92be-ad71562b6a11","ios":"levelo://app?vid=3abf6371-b3c9-4f2e-92be-ad71562b6a11"},"vehicle_type_id":"4","last_reported":1703307985,"current_range_meters":6400,"station_id":"ce4bho92rcd13ifvqh3g","pricing_plan_id":"free"},{"bike_id":"48279459-055f-4ba5-908d-239be802e3b5","system_id":"levelo_inurba_marseille","lat":43.299577,"lon":5.413277,"is_reserved":false,"is_disabled":false,"rental_uris":{"android":"levelo://app?vid=48279459-055f-4ba5-908d-239be802e3b5","ios":"levelo://app?vid=48279459-055f-4ba5-908d-239be802e3b5"},"vehicle_type_id":"4","last_reported":1703307985,"current_range_meters":30000,"station_id":"ce4bhp12rcd13ifvqh9g","pricing_plan_id":"free"},{"bike_id":"1cfa3cc6-f088-4edb-8ef1-fca28c3b9fd7","system_id":"levelo_inurba_marseille","lat":43.320045,"lon":5.415048,"is_reserved":false,"is_disabled":false,"rental_uris":{"android":"levelo://app?vid=1cfa3cc6-f088-4edb-8ef1-fca28c3b9fd7","ios":"levelo://app?vid=1cfa3cc6-f088-4edb-8ef1-fca28c3b9fd7"},"vehicle_type_id":"4","last_reported":1703307985,"current_range_meters":20800,"station_id":"ce4bhq92rcd13ifvqhkg","pricing_plan_id":"free"},{"bike_id":"16a844c1-6100-4598-a2c7-1b96bf22fe28","system_id":"levelo_inurba_marseille","lat":43.279742,"lon":5.38744,"is_reserved":false,"is_disabled":false,"rental_uris":{"android":"levelo://app?vid=16a844c1-6100-4598-a2c7-1b96bf22fe28","ios":"levelo://app?vid=16a844c1-6100-4598-a2c7-1b96bf22fe28"},"vehicle_type_id":"4","last_reported":1703307985,"current_range_meters":26400,"station_id":"ce4bhg12rcd13ifvqf80","pricing_plan_id":"free"},{"bike_id":"6accb708-c47d-4b48-94f1-0040ee264493","system_id":"levelo_inurba_marseille","lat":43.279742,"lon":5.38744,"is_reserved":false,"is_disabled":false,"rental_uris":{"android":"levelo://app?vid=6accb708-c47d-4b48-94f1-0040ee264493","ios":"levelo://app?vid=6accb708-c47d-4b48-94f1-0040ee264493"},"vehicle_type_id":"4","last_reported":1703307985,"current_range_meters":24800,"station_id":"ce4bhg12rcd13ifvqf80","pricing_plan_id":"free"},{"bike_id":"130e8235-ad1e-4b74-9d58-03196052ac66","system_id":"levelo_inurba_marseille","lat":43.292569,"lon":5.409107,"is_reserved":false,"is_disabled":false,"rental_uris":{"android":"levelo://app?vid=130e8235-ad1e-4b74-9d58-03196052ac66","ios":"levelo://app?vid=130e8235-ad1e-4b74-9d58-03196052ac66"},"vehicle_type_id":"4","last_reported":1703307985,"current_range_meters":6000,"station_id":"ce4bh192rcd13ifvqdc0","pricing_plan_id":"free"},{"bike_id":"db263c9a-ad89-4ecf-bd68-f4565a0e9033","system_id":"levelo_inurba_marseille","lat":43.292569,"lon":5.409107,"is_reserved":false,"is_disabled":false,"rental_uris":{"android":"levelo://app?vid=db263c9a-ad89-4ecf-bd68-f4565a0e9033","ios":"levelo://app?vid=db263c9a-ad89-4ecf-bd68-f4565a0e9033"},"vehicle_type_id":"4","last_reported":1703307985,"current_range_meters":27200,"station_id":"ce4bh192rcd13ifvqdc0","pricing_plan_id":"free"},{"bike_id":"3c990e90-1eed-4343-9b72-6fb2ce5c8fda","system_id":"levelo_inurba_marseille","lat":43.27618,"lon":5.3612,"is_reserved":false,"is_disabled":false,"rental_uris":{"android":"levelo://app?vid=3c990e90-1eed-4343-9b72-6fb2ce5c8fda","ios":"levelo://app?vid=3c990e90-1eed-4343-9b72-6fb2ce5c8fda"},"vehicle_type_id":"4","last_reported":1703307985,"current_range_meters":1200,"station_id":"ce4bgj92rcd13ifvqbe0","pricing_plan_id":"free"},{"bike_id":"db2046b0-697a-4d2e-8814-6af0aeab90a8","system_id":"levelo_inurba_marseille","lat":43.276179,"lon":5.361009,"is_reserved":false,"is_disabled":false,"rental_uris":{"android":"levelo://app?vid=db2046b0-697a-4d2e-8814-6af0aeab90a8","ios":"levelo://app?vid=db2046b0-697a-4d2e-8814-6af0aeab90a8"},"vehicle_type_id":"4","last_reported":1703307985,"current_range_meters":5200,"station_id":"ce4bgj92rcd13ifvqbe0","pricing_plan_id":"free"},{"bike_id":"070405fa-eb96-4f42-a319-94624396ce09","system_id":"levelo_inurba_marseille","lat":43.280784,"lon":5.396622,"is_reserved":false,"is_disabled":false,"rental_uris":{"android":"levelo://app?vid=070405fa-eb96-4f42-a319-94624396ce09","ios":"levelo://app?vid=070405fa-eb96-4f42-a319-94624396ce09"},"vehicle_type_id":"4","last_reported":1703307985,"current_range_meters":16400,"station_id":"ce4bho12rcd13ifvqh2g","pricing_plan_id":"free"},{"bike_id":"93bfab9c-e028-499d-81c2-9238ac1d0f98","system_id":"levelo_inurba_marseille","lat":43.303837,"lon":5.418724,"is_reserved":false,"is_disabled":false,"rental_uris":{"android":"levelo://app?vid=93bfab9c-e028-499d-81c2-9238ac1d0f98","ios":"levelo://app?vid=93bfab9c-e028-499d-81c2-9238ac1d0f98"},"vehicle_type_id":"4","last_reported":1703307985,"current_range_meters":400,"station_id":"ce4bhop2rcd13ifvqh7g","pricing_plan_id":"free"},{"bike_id":"f6a29d14-aee7-4b91-a8c6-8625046948d6","system_id":"levelo_inurba_marseille","lat":43.278401,"lon":5.392152,"is_reserved":false,"is_disabled":false,"rental_uris":{"android":"levelo://app?vid=f6a29d14-aee7-4b91-a8c6-8625046948d6","ios":"levelo://app?vid=f6a29d14-aee7-4b91-a8c6-8625046948d6"},"vehicle_type_id":"4","last_reported":1703307985,"current_range_meters":24800,"station_id":"ce4bhjp2rcd13ifvqga0","pricing_plan_id":"free"},{"bike_id":"0683c0c5-5852-49fc-b705-36c54b228926","system_id":"levelo_inurba_marseille","lat":43.303837,"lon":5.418724,"is_reserved":false,"is_disabled":false,"rental_uris":{"android":"levelo://app?vid=0683c0c5-5852-49fc-b705-36c54b228926","ios":"levelo://app?vid=0683c0c5-5852-49fc-b705-36c54b228926"},"vehicle_type_id":"4","last_reported":1703307985,"current_range_meters":21200,"station_id":"ce4bhop2rcd13ifvqh7g","pricing_plan_id":"free"},{"bike_id":"85140b79-1d5c-4c1f-b734-02a48fa0e504","system_id":"levelo_inurba_marseille","lat":43.278401,"lon":5.392152,"is_reserved":false,"is_disabled":false,"rental_uris":{"android":"levelo://app?vid=85140b79-1d5c-4c1f-b734-02a48fa0e504","ios":"levelo://app?vid=85140b79-1d5c-4c1f-b734-02a48fa0e504"},"vehicle_type_id":"4","last_reported":1703307985,"current_range_meters":15200,"station_id":"ce4bhjp2rcd13ifvqga0","pricing_plan_id":"free"},{"bike_id":"1cf773da-d503-4f1b-8437-4a6b465d5f1a","system_id":"levelo_inurba_marseille","lat":43.27836,"lon":5.392033,"is_reserved":false,"is_disabled":false,"rental_uris":{"android":"levelo://app?vid=1cf773da-d503-4f1b-8437-4a6b465d5f1a","ios":"levelo://app?vid=1cf773da-d503-4f1b-8437-4a6b465d5f1a"},"vehicle_type_id":"4","last_reported":1703307985,"current_range_meters":0,"station_id":"ce4bhjp2rcd13ifvqga0","pricing_plan_id":"free"},{"bike_id":"48cb72d6-5769-46dd-a4f2-54dfd0bfb283","system_id":"levelo_inurba_marseille","lat":43.273613,"lon":5.362705,"is_reserved":false,"is_disabled":false,"rental_uris":{"android":"levelo://app?vid=48cb72d6-5769-46dd-a4f2-54dfd0bfb283","ios":"levelo://app?vid=48cb72d6-5769-46dd-a4f2-54dfd0bfb283"},"vehicle_type_id":"4","last_reported":1703307985,"current_range_meters":28800,"station_id":"ce4bhbh2rcd13ifvqeo0","pricing_plan_id":"free"},{"bike_id":"843de36b-095c-4afd-830d-de0e9d07ea09","system_id":"levelo_inurba_marseille","lat":43.273613,"lon":5.362705,"is_reserved":false,"is_disabled":false,"rental_uris":{"android":"levelo://app?vid=843de36b-095c-4afd-830d-de0e9d07ea09","ios":"levelo://app?vid=843de36b-095c-4afd-830d-de0e9d07ea09"},"vehicle_type_id":"4","last_reported":1703307985,"current_range_meters":30400,"station_id":"ce4bhbh2rcd13ifvqeo0","pricing_plan_id":"free"},{"bike_id":"e09a6d18-e62b-45bc-ba72-f8db6df2fcf5","system_id":"levelo_inurba_marseille","lat":43.273609,"lon":5.362708,"is_reserved":false,"is_disabled":false,"rental_uris":{"android":"levelo://app?vid=e09a6d18-e62b-45bc-ba72-f8db6df2fcf5","ios":"levelo://app?vid=e09a6d18-e62b-45bc-ba72-f8db6df2fcf5"},"vehicle_type_id":"4","last_reported":1703307985,"current_range_meters":30400,"station_id":"ce4bhbh2rcd13ifvqeo0","pricing_plan_id":"free"},{"bike_id":"152a647d-a927-4bfa-bff5-b3d31dec39b3","system_id":"levelo_inurba_marseille","lat":43.275625,"lon":5.384392,"is_reserved":false,"is_disabled":false,"rental_uris":{"android":"levelo://app?vid=152a647d-a927-4bfa-bff5-b3d31dec39b3","ios":"levelo://app?vid=152a647d-a927-4bfa-bff5-b3d31dec39b3"},"vehicle_type_id":"4","last_reported":1703307985,"current_range_meters":18800,"station_id":"ce4bhh92rcd13ifvqfi0","pricing_plan_id":"free"},{"bike_id":"e600a4cb-6a02-461c-a079-0de1a09bbcb2","system_id":"levelo_inurba_marseille","lat":43.275625,"lon":5.384392,"is_reserved":false,"is_disabled":false,"rental_uris":{"android":"levelo://app?vid=e600a4cb-6a02-461c-a079-0de1a09bbcb2","ios":"levelo://app?vid=e600a4cb-6a02-461c-a079-0de1a09bbcb2"},"vehicle_type_id":"4","last_reported":1703307985,"current_range_meters":27600,"station_id":"ce4bhh92rcd13ifvqfi0","pricing_plan_id":"free"},{"bike_id":"32a6f28e-d4f0-4af2-9fa0-7aaf56ff3f77","system_id":"levelo_inurba_marseille","lat":43.276785,"lon":5.38852,"is_reserved":false,"is_disabled":false,"rental_uris":{"android":"levelo://app?vid=32a6f28e-d4f0-4af2-9fa0-7aaf56ff3f77","ios":"levelo://app?vid=32a6f28e-d4f0-4af2-9fa0-7aaf56ff3f77"},"vehicle_type_id":"4","last_reported":1703307985,"current_range_meters":26800,"station_id":"ce4bhi12rcd13ifvqfo0","pricing_plan_id":"free"},{"bike_id":"107d35fb-f284-4514-99a6-11ba1e926114","system_id":"levelo_inurba_marseille","lat":43.276819,"lon":5.388833,"is_reserved":false,"is_disabled":false,"rental_uris":{"android":"levelo://app?vid=107d35fb-f284-4514-99a6-11ba1e926114","ios":"levelo://app?vid=107d35fb-f284-4514-99a6-11ba1e926114"},"vehicle_type_id":"4","last_reported":1703307985,"current_range_meters":12400,"station_id":"ce4bhi12rcd13ifvqfo0","pricing_plan_id":"free"},{"bike_id":"0eaedfa9-1ab3-4a2f-bf28-f8642f328c07","system_id":"levelo_inurba_marseille","lat":43.27684,"lon":5.38891,"is_reserved":false,"is_disabled":false,"rental_uris":{"android":"levelo://app?vid=0eaedfa9-1ab3-4a2f-bf28-f8642f328c07","ios":"levelo://app?vid=0eaedfa9-1ab3-4a2f-bf28-f8642f328c07"},"vehicle_type_id":"4","last_reported":1703307985,"current_range_meters":800,"station_id":"ce4bhi12rcd13ifvqfo0","pricing_plan_id":"free"},{"bike_id":"0eb99f76-9044-469e-b5cd-4c052b458bfb","system_id":"levelo_inurba_marseille","lat":43.276769,"lon":5.388787,"is_reserved":false,"is_disabled":false,"rental_uris":{"android":"levelo://app?vid=0eb99f76-9044-469e-b5cd-4c052b458bfb","ios":"levelo://app?vid=0eb99f76-9044-469e-b5cd-4c052b458bfb"},"vehicle_type_id":"4","last_reported":1703307985,"current_range_meters":26400,"station_id":"ce4bhi12rcd13ifvqfo0","pricing_plan_id":"free"},{"bike_id":"9e5c25e1-990c-4015-ba32-154357056fd9","system_id":"levelo_inurba_marseille","lat":43.276771,"lon":5.388799,"is_reserved":false,"is_disabled":false,"rental_uris":{"android":"levelo://app?vid=9e5c25e1-990c-4015-ba32-154357056fd9","ios":"levelo://app?vid=9e5c25e1-990c-4015-ba32-154357056fd9"},"vehicle_type_id":"4","last_reported":1703307985,"current_range_meters":27600,"station_id":"ce4bhi12rcd13ifvqfo0","pricing_plan_id":"free"},{"bike_id":"358230c6-2f53-4c94-bd58-3ab03d16e35d","system_id":"levelo_inurba_marseille","lat":43.276769,"lon":5.388787,"is_reserved":false,"is_disabled":false,"rental_uris":{"android":"levelo://app?vid=358230c6-2f53-4c94-bd58-3ab03d16e35d","ios":"levelo://app?vid=358230c6-2f53-4c94-bd58-3ab03d16e35d"},"vehicle_type_id":"4","last_reported":1703307985,"current_range_meters":19600,"station_id":"ce4bhi12rcd13ifvqfo0","pricing_plan_id":"free"},{"bike_id":"9d8a300c-7356-461f-8e60-7c138328974e","system_id":"levelo_inurba_marseille","lat":43.317121,"lon":5.423936,"is_reserved":false,"is_disabled":false,"rental_uris":{"android":"levelo://app?vid=9d8a300c-7356-461f-8e60-7c138328974e","ios":"levelo://app?vid=9d8a300c-7356-461f-8e60-7c138328974e"},"vehicle_type_id":"4","last_reported":1703307985,"current_range_meters":29200,"station_id":"ce4bhp92rcd13ifvqhbg","pricing_plan_id":"free"},{"bike_id":"7c92ac06-9f8b-4771-8927-7d3efcae43ac","system_id":"levelo_inurba_marseille","lat":43.310785,"lon":5.424305,"is_reserved":false,"is_disabled":false,"rental_uris":{"android":"levelo://app?vid=7c92ac06-9f8b-4771-8927-7d3efcae43ac","ios":"levelo://app?vid=7c92ac06-9f8b-4771-8927-7d3efcae43ac"},"vehicle_type_id":"4","last_reported":1703307985,"current_range_meters":19600,"station_id":"ce4bhp92rcd13ifvqhag","pricing_plan_id":"free"},{"bike_id":"03c66dac-183d-4ff1-8500-aedc025d3ffc","system_id":"levelo_inurba_marseille","lat":43.340804,"lon":5.410219,"is_reserved":false,"is_disabled":false,"rental_uris":{"android":"levelo://app?vid=03c66dac-183d-4ff1-8500-aedc025d3ffc","ios":"levelo://app?vid=03c66dac-183d-4ff1-8500-aedc025d3ffc"},"vehicle_type_id":"4","last_reported":1703307985,"current_range_meters":27600,"station_id":"ce4bhqh2rcd13ifvqhlg","pricing_plan_id":"free"},{"bike_id":"1b95f504-634c-4829-925a-735f94f57365","system_id":"levelo_inurba_marseille","lat":43.273129,"lon":5.390725,"is_reserved":false,"is_disabled":false,"rental_uris":{"android":"levelo://app?vid=1b95f504-634c-4829-925a-735f94f57365","ios":"levelo://app?vid=1b95f504-634c-4829-925a-735f94f57365"},"vehicle_type_id":"4","last_reported":1703307985,"current_range_meters":29600,"station_id":"ce4bhgp2rcd13ifvqfe0","pricing_plan_id":"free"},{"bike_id":"b2bae555-70b7-4476-bc50-e1d2a40076e2","system_id":"levelo_inurba_marseille","lat":43.295511,"lon":5.422926,"is_reserved":false,"is_disabled":false,"rental_uris":{"android":"levelo://app?vid=b2bae555-70b7-4476-bc50-e1d2a40076e2","ios":"levelo://app?vid=b2bae555-70b7-4476-bc50-e1d2a40076e2"},"vehicle_type_id":"4","last_reported":1703307985,"current_range_meters":25600,"station_id":"ce4bhph2rcd13ifvqhdg","pricing_plan_id":"free"},{"bike_id":"118452fb-df9a-4860-af0c-7b7f98e0224e","system_id":"levelo_inurba_marseille","lat":43.272124,"lon":5.391768,"is_reserved":false,"is_disabled":false,"rental_uris":{"android":"levelo://app?vid=118452fb-df9a-4860-af0c-7b7f98e0224e","ios":"levelo://app?vid=118452fb-df9a-4860-af0c-7b7f98e0224e"},"vehicle_type_id":"4","last_reported":1703307985,"current_range_meters":28400,"station_id":"ce4bhhp2rcd13ifvqfm0","pricing_plan_id":"free"},{"bike_id":"5bc9963f-35be-44f8-9d7f-7e7e8bd23790","system_id":"levelo_inurba_marseille","lat":43.272116,"lon":5.391763,"is_reserved":false,"is_disabled":false,"rental_uris":{"android":"levelo://app?vid=5bc9963f-35be-44f8-9d7f-7e7e8bd23790","ios":"levelo://app?vid=5bc9963f-35be-44f8-9d7f-7e7e8bd23790"},"vehicle_type_id":"4","last_reported":1703307985,"current_range_meters":14000,"station_id":"ce4bhhp2rcd13ifvqfm0","pricing_plan_id":"free"},{"bike_id":"122b6657-3126-49f2-8128-9c403fcfe05f","system_id":"levelo_inurba_marseille","lat":43.272116,"lon":5.391747,"is_reserved":false,"is_disabled":false,"rental_uris":{"android":"levelo://app?vid=122b6657-3126-49f2-8128-9c403fcfe05f","ios":"levelo://app?vid=122b6657-3126-49f2-8128-9c403fcfe05f"},"vehicle_type_id":"4","last_reported":1703307985,"current_range_meters":31600,"station_id":"ce4bhhp2rcd13ifvqfm0","pricing_plan_id":"free"},{"bike_id":"0565cd48-2c5a-4ccc-851f-4a0d0e8443b7","system_id":"levelo_inurba_marseille","lat":43.272116,"lon":5.391747,"is_reserved":false,"is_disabled":false,"rental_uris":{"android":"levelo://app?vid=0565cd48-2c5a-4ccc-851f-4a0d0e8443b7","ios":"levelo://app?vid=0565cd48-2c5a-4ccc-851f-4a0d0e8443b7"},"vehicle_type_id":"4","last_reported":1703307985,"current_range_meters":4000,"station_id":"ce4bhhp2rcd13ifvqfm0","pricing_plan_id":"free"},{"bike_id":"cd8d914d-98eb-426c-b050-b08cf07ab06b","system_id":"levelo_inurba_marseille","lat":43.272116,"lon":5.391747,"is_reserved":false,"is_disabled":false,"rental_uris":{"android":"levelo://app?vid=cd8d914d-98eb-426c-b050-b08cf07ab06b","ios":"levelo://app?vid=cd8d914d-98eb-426c-b050-b08cf07ab06b"},"vehicle_type_id":"4","last_reported":1703307985,"current_range_meters":26000,"station_id":"ce4bhhp2rcd13ifvqfm0","pricing_plan_id":"free"},{"bike_id":"af97c205-9600-4cf7-ae64-21d37e85c8a2","system_id":"levelo_inurba_marseille","lat":43.278128,"lon":5.407195,"is_reserved":false,"is_disabled":false,"rental_uris":{"android":"levelo://app?vid=af97c205-9600-4cf7-ae64-21d37e85c8a2","ios":"levelo://app?vid=af97c205-9600-4cf7-ae64-21d37e85c8a2"},"vehicle_type_id":"4","last_reported":1703307985,"current_range_meters":27600,"station_id":"ce4bhnh2rcd13ifvqgtg","pricing_plan_id":"free"},{"bike_id":"61eb82ec-2c75-446c-87b7-5541b962f95f","system_id":"levelo_inurba_marseille","lat":43.269467,"lon":5.386439,"is_reserved":false,"is_disabled":false,"rental_uris":{"android":"levelo://app?vid=61eb82ec-2c75-446c-87b7-5541b962f95f","ios":"levelo://app?vid=61eb82ec-2c75-446c-87b7-5541b962f95f"},"vehicle_type_id":"4","last_reported":1703307985,"current_range_meters":29200,"station_id":"ce4bhh92rcd13ifvqfh0","pricing_plan_id":"free"},{"bike_id":"5a5ac261-9383-48c6-aae2-bc4a8af2166e","system_id":"levelo_inurba_marseille","lat":43.279465,"lon":5.410561,"is_reserved":false,"is_disabled":false,"rental_uris":{"android":"levelo://app?vid=5a5ac261-9383-48c6-aae2-bc4a8af2166e","ios":"levelo://app?vid=5a5ac261-9383-48c6-aae2-bc4a8af2166e"},"vehicle_type_id":"4","last_reported":1703307985,"current_range_meters":27200,"station_id":"ce4bhnp2rcd13ifvqh0g","pricing_plan_id":"free"},{"bike_id":"d80d28d4-33ac-48bd-a703-0607e3c3611a","system_id":"levelo_inurba_marseille","lat":43.279465,"lon":5.410561,"is_reserved":false,"is_disabled":false,"rental_uris":{"android":"levelo://app?vid=d80d28d4-33ac-48bd-a703-0607e3c3611a","ios":"levelo://app?vid=d80d28d4-33ac-48bd-a703-0607e3c3611a"},"vehicle_type_id":"4","last_reported":1703307985,"current_range_meters":1200,"station_id":"ce4bhnp2rcd13ifvqh0g","pricing_plan_id":"free"},{"bike_id":"8030204b-84e1-4f67-82c1-8471ea1e1bb5","system_id":"levelo_inurba_marseille","lat":43.26681,"lon":5.382694,"is_reserved":false,"is_disabled":false,"rental_uris":{"android":"levelo://app?vid=8030204b-84e1-4f67-82c1-8471ea1e1bb5","ios":"levelo://app?vid=8030204b-84e1-4f67-82c1-8471ea1e1bb5"},"vehicle_type_id":"4","last_reported":1703307985,"current_range_meters":30000,"station_id":"ce4bhg92rcd13ifvqf90","pricing_plan_id":"free"},{"bike_id":"7eadc037-d475-4a82-a1e8-cae59da23a91","system_id":"levelo_inurba_marseille","lat":43.26681,"lon":5.382694,"is_reserved":false,"is_disabled":false,"rental_uris":{"android":"levelo://app?vid=7eadc037-d475-4a82-a1e8-cae59da23a91","ios":"levelo://app?vid=7eadc037-d475-4a82-a1e8-cae59da23a91"},"vehicle_type_id":"4","last_reported":1703307985,"current_range_meters":29200,"station_id":"ce4bhg92rcd13ifvqf90","pricing_plan_id":"free"},{"bike_id":"bf555dc5-2821-4d97-99ed-b8878df5474e","system_id":"levelo_inurba_marseille","lat":43.26559,"lon":5.37285,"is_reserved":false,"is_disabled":false,"rental_uris":{"android":"levelo://app?vid=bf555dc5-2821-4d97-99ed-b8878df5474e","ios":"levelo://app?vid=bf555dc5-2821-4d97-99ed-b8878df5474e"},"vehicle_type_id":"4","last_reported":1703307985,"current_range_meters":4400,"station_id":"ce4bhg12rcd13ifvqf70","pricing_plan_id":"free"},{"bike_id":"9f64aafd-c841-405b-aa4d-882e9d32084c","system_id":"levelo_inurba_marseille","lat":43.26552,"lon":5.37287,"is_reserved":false,"is_disabled":false,"rental_uris":{"android":"levelo://app?vid=9f64aafd-c841-405b-aa4d-882e9d32084c","ios":"levelo://app?vid=9f64aafd-c841-405b-aa4d-882e9d32084c"},"vehicle_type_id":"4","last_reported":1703307985,"current_range_meters":20400,"station_id":"ce4bhg12rcd13ifvqf70","pricing_plan_id":"free"},{"bike_id":"8a8118d2-1be5-4451-b2d9-0ba1321b8f2d","system_id":"levelo_inurba_marseille","lat":43.28002,"lon":5.41649,"is_reserved":false,"is_disabled":false,"rental_uris":{"android":"levelo://app?vid=8a8118d2-1be5-4451-b2d9-0ba1321b8f2d","ios":"levelo://app?vid=8a8118d2-1be5-4451-b2d9-0ba1321b8f2d"},"vehicle_type_id":"4","last_reported":1703307985,"current_range_meters":11200,"station_id":"ce4bho12rcd13ifvqh1g","pricing_plan_id":"free"},{"bike_id":"7dbab88e-f24e-4f52-9d01-769ec1c71328","system_id":"levelo_inurba_marseille","lat":43.308051,"lon":5.43527,"is_reserved":false,"is_disabled":false,"rental_uris":{"android":"levelo://app?vid=7dbab88e-f24e-4f52-9d01-769ec1c71328","ios":"levelo://app?vid=7dbab88e-f24e-4f52-9d01-769ec1c71328"},"vehicle_type_id":"4","last_reported":1703307985,"current_range_meters":27600,"station_id":"ce4bhph2rcd13ifvqheg","pricing_plan_id":"free"},{"bike_id":"d38811b9-6f75-40d6-9872-cea81a2c4d9e","system_id":"levelo_inurba_marseille","lat":43.26949,"lon":5.40262,"is_reserved":false,"is_disabled":false,"rental_uris":{"android":"levelo://app?vid=d38811b9-6f75-40d6-9872-cea81a2c4d9e","ios":"levelo://app?vid=d38811b9-6f75-40d6-9872-cea81a2c4d9e"},"vehicle_type_id":"4","last_reported":1703307985,"current_range_meters":28000,"station_id":"cjm6bp8fraef2m0cb0m0","pricing_plan_id":"free"},{"bike_id":"7fbe02a0-b05d-40e2-885a-21861b971e54","system_id":"levelo_inurba_marseille","lat":43.317104,"lon":5.436818,"is_reserved":false,"is_disabled":false,"rental_uris":{"android":"levelo://app?vid=7fbe02a0-b05d-40e2-885a-21861b971e54","ios":"levelo://app?vid=7fbe02a0-b05d-40e2-885a-21861b971e54"},"vehicle_type_id":"4","last_reported":1703307985,"current_range_meters":9200,"station_id":"ce4bhp92rcd13ifvqhcg","pricing_plan_id":"free"},{"bike_id":"a36e5938-cfe7-4a1e-b899-9e1c72d03485","system_id":"levelo_inurba_marseille","lat":43.317104,"lon":5.436818,"is_reserved":false,"is_disabled":false,"rental_uris":{"android":"levelo://app?vid=a36e5938-cfe7-4a1e-b899-9e1c72d03485","ios":"levelo://app?vid=a36e5938-cfe7-4a1e-b899-9e1c72d03485"},"vehicle_type_id":"4","last_reported":1703307985,"current_range_meters":6400,"station_id":"ce4bhp92rcd13ifvqhcg","pricing_plan_id":"free"},{"bike_id":"335681ec-9d1c-491b-ae06-a269e8d79a54","system_id":"levelo_inurba_marseille","lat":43.317104,"lon":5.436818,"is_reserved":false,"is_disabled":false,"rental_uris":{"android":"levelo://app?vid=335681ec-9d1c-491b-ae06-a269e8d79a54","ios":"levelo://app?vid=335681ec-9d1c-491b-ae06-a269e8d79a54"},"vehicle_type_id":"4","last_reported":1703307985,"current_range_meters":18400,"station_id":"ce4bhp92rcd13ifvqhcg","pricing_plan_id":"free"},{"bike_id":"9ae51110-6160-4830-8874-7193cd37da3a","system_id":"levelo_inurba_marseille","lat":43.261782,"lon":5.374515,"is_reserved":false,"is_disabled":false,"rental_uris":{"android":"levelo://app?vid=9ae51110-6160-4830-8874-7193cd37da3a","ios":"levelo://app?vid=9ae51110-6160-4830-8874-7193cd37da3a"},"vehicle_type_id":"4","last_reported":1703307985,"current_range_meters":22400,"station_id":"ce4bhgp2rcd13ifvqfc0","pricing_plan_id":"free"},{"bike_id":"9a22b759-cb02-4a9f-b32d-4de2997c4531","system_id":"levelo_inurba_marseille","lat":43.317104,"lon":5.436818,"is_reserved":false,"is_disabled":false,"rental_uris":{"android":"levelo://app?vid=9a22b759-cb02-4a9f-b32d-4de2997c4531","ios":"levelo://app?vid=9a22b759-cb02-4a9f-b32d-4de2997c4531"},"vehicle_type_id":"4","last_reported":1703307985,"current_range_meters":0,"station_id":"ce4bhp92rcd13ifvqhcg","pricing_plan_id":"free"},{"bike_id":"3c97a8a7-622c-4d01-a316-783cde5fc7f9","system_id":"levelo_inurba_marseille","lat":43.317104,"lon":5.436818,"is_reserved":false,"is_disabled":false,"rental_uris":{"android":"levelo://app?vid=3c97a8a7-622c-4d01-a316-783cde5fc7f9","ios":"levelo://app?vid=3c97a8a7-622c-4d01-a316-783cde5fc7f9"},"vehicle_type_id":"4","last_reported":1703307985,"current_range_meters":25600,"station_id":"ce4bhp92rcd13ifvqhcg","pricing_plan_id":"free"},{"bike_id":"ecded0b1-26e9-4178-868a-0ff40f1e2ee0","system_id":"levelo_inurba_marseille","lat":43.271388,"lon":5.409269,"is_reserved":false,"is_disabled":false,"rental_uris":{"android":"levelo://app?vid=ecded0b1-26e9-4178-868a-0ff40f1e2ee0","ios":"levelo://app?vid=ecded0b1-26e9-4178-868a-0ff40f1e2ee0"},"vehicle_type_id":"4","last_reported":1703307985,"current_range_meters":32000,"station_id":"ce4bhl12rcd13ifvqgf0","pricing_plan_id":"free"},{"bike_id":"4d826bbb-48ed-41d0-a8b7-11c02b0446ec","system_id":"levelo_inurba_marseille","lat":43.262012,"lon":5.379307,"is_reserved":false,"is_disabled":false,"rental_uris":{"android":"levelo://app?vid=4d826bbb-48ed-41d0-a8b7-11c02b0446ec","ios":"levelo://app?vid=4d826bbb-48ed-41d0-a8b7-11c02b0446ec"},"vehicle_type_id":"4","last_reported":1703307985,"current_range_meters":26800,"station_id":"ce4bhjp2rcd13ifvqg90","pricing_plan_id":"free"},{"bike_id":"cb3bedef-14c4-4d98-84e3-b4d224805958","system_id":"levelo_inurba_marseille","lat":43.271368,"lon":5.40928,"is_reserved":false,"is_disabled":false,"rental_uris":{"android":"levelo://app?vid=cb3bedef-14c4-4d98-84e3-b4d224805958","ios":"levelo://app?vid=cb3bedef-14c4-4d98-84e3-b4d224805958"},"vehicle_type_id":"4","last_reported":1703307985,"current_range_meters":27200,"station_id":"ce4bhl12rcd13ifvqgf0","pricing_plan_id":"free"},{"bike_id":"8907c7c1-fd53-481e-9d97-93bf60eb4dfe","system_id":"levelo_inurba_marseille","lat":43.271388,"lon":5.409269,"is_reserved":false,"is_disabled":false,"rental_uris":{"android":"levelo://app?vid=8907c7c1-fd53-481e-9d97-93bf60eb4dfe","ios":"levelo://app?vid=8907c7c1-fd53-481e-9d97-93bf60eb4dfe"},"vehicle_type_id":"4","last_reported":1703307985,"current_range_meters":24000,"station_id":"ce4bhl12rcd13ifvqgf0","pricing_plan_id":"free"},{"bike_id":"9a11cea6-5728-4fbd-9162-591fb81b9f95","system_id":"levelo_inurba_marseille","lat":43.267959,"lon":5.402687,"is_reserved":false,"is_disabled":false,"rental_uris":{"android":"levelo://app?vid=9a11cea6-5728-4fbd-9162-591fb81b9f95","ios":"levelo://app?vid=9a11cea6-5728-4fbd-9162-591fb81b9f95"},"vehicle_type_id":"4","last_reported":1703307985,"current_range_meters":28400,"station_id":"ce501612rcd8frsf0b60","pricing_plan_id":"free"},