{"last_updated":1769419481,"ttl":60,"version":"2.2","data":{"bikes":[{"bike_id":"d4e5a8bc-56ca-4b1e-9368-1c6ba53f48cb","system_id":"levelo_inurba_marseille","lat":43.2856,"lon":5.39511,"is_reserved":false,"is_disabled":true,"rental_uris":{"android":"levelo://app?vid=d4e5a8bc-56ca-4b1e-9368-1c6ba53f48cb","ios":"levelo://app?vid=d4e5a8bc-56ca-4b1e-9368-1c6ba53f48cb"},"vehicle_type_id":"4","last_reported":1769419482,"current_range_meters":2800,"station_id":"ce4bh292rcd13ifvqdg0","pricing_plan_id":"cebpf4jnsgd1na2vs0mg"},{"bike_id":"b7a5aef6-2f62-43c5-ba70-e00586f8e42c","system_id":"levelo_inurba_marseille","lat":43.28476,"lon":5.38417,"is_reserved":false,"is_disabled":false,"rental_uris":{"android":"levelo://app?vid=b7a5aef6-2f62-43c5-ba70-e00586f8e42c","ios":"levelo://app?vid=b7a5aef6-2f62-43c5-ba70-e00586f8e42c"},"vehicle_type_id":"4","last_reported":1769419482,"current_range_meters":2800,"station_id":"ce4bh512rcd13ifvqe3g","pricing_plan_id":"cebpf4jnsgd1na2vs0mg"},{"bike_id":"f8d6a6e0-1d68-4650-a94d-f633bf8c4370","system_id":"levelo_inurba_marseille","lat":43.2378,"lon":5.36644,"is_reserved":false,"is_disabled":false,"rental_uris":{"android":"levelo://app?vid=f8d6a6e0-1d68-4650-a94d-f633bf8c4370","ios":"levelo://app?vid=f8d6a6e0-1d68-4650-a94d-f633bf8c4370"},"vehicle_type_id":"4","last_reported":1769419482,"current_range_meters":2800,"station_id":"st_d3nk18o9ro0c73en2l3g","pricing_plan_id":"cebpf4jnsgd1na2vs0mg"},{"bike_id":"677ec20b-f7d8-44df-8a04-d7f0a2daa65b","system_id":"levelo_inurba_marseille","lat":43.288585,"lon":5.425097,"is_reserved":false,"is_disabled":false,"rental_uris":{"android":"levelo://app?vid=677ec20b-f7d8-44df-8a04-d7f0a2daa65b","ios":"levelo://app?vid=677ec20b-f7d8-44df-8a04-d7f0a2daa65b"},"vehicle_type_id":"4","last_reported":1769419482,"current_range_meters":2800,"station_id":"st_d3b462108ojc7389ooeg","pricing_plan_id":"cebpf4jnsgd1na2vs0mg"},{"bike_id":"500a807b-2dab-4995-a78d-d98aedb6eb89","system_id":"levelo_inurba_marseille","lat":43.27209,"lon":5.4098,"is_reserved":false,"is_disabled":false,"rental_uris":{"android":"levelo://app?vid=500a807b-2dab-4995-a78d-d98aedb6eb89","ios":"levelo://app?vid=500a807b-2dab-4995-a78d-d98aedb6eb89"},"vehicle_type_id":"4","last_reported":1769419482,"current_range_meters":2800,"station_id":"ce4bhl12rcd13ifvqgf0","pricing_plan_id":"cebpf4jnsgd1na2vs0mg"},{"bike_id":"3e56d42a-1487-4ba5-ba38-c651845fd6af","system_id":"levelo_inurba_marseille","lat":43.28978,"lon":5.37842,"is_reserved":false,"is_disabled":false,"rental_uris":{"android":"levelo://app?vid=3e56d42a-1487-4ba5-ba38-c651845fd6af","ios":"levelo://app?vid=3e56d42a-1487-4ba5-ba38-c651845fd6af"},"vehicle_type_id":"4","last_reported":1769419482,"current_range_meters":2800,"station_id":"ce4bh9p2rcd13ifvqed0","pricing_plan_id":"cebpf4jnsgd1na2vs0mg"},{"bike_id":"997b2d57-8691-45a1-a537-2a5cfd8dc59b","system_id":"levelo_inurba_marseille","lat":43.25946,"lon":5.40894,"is_reserved":false,"is_disabled":false,"rental_uris":{"android":"levelo://app?vid=997b2d57-8691-45a1-a537-2a5cfd8dc59b","ios":"levelo://app?vid=997b2d57-8691-45a1-a537-2a5cfd8dc59b"},"vehicle_type_id":"4","last_reported":1769419482,"current_range_meters":2800,"station_id":"ce4bhm92rcd13ifvqglg","pricing_plan_id":"cebpf4jnsgd1na2vs0mg"},{"bike_id":"7534e727-f5af-4bbd-b9f2-4c708bdb984e","system_id":"levelo_inurba_marseille","lat":43.24665,"lon":5.381718,"is_reserved":false,"is_disabled":false,"rental_uris":{"android":"levelo://app?vid=7534e727-f5af-4bbd-b9f2-4c708bdb984e","ios":"levelo://app?vid=7534e727-f5af-4bbd-b9f2-4c708bdb984e"},"vehicle_type_id":"4","last_reported":1769419482,"current_range_meters":2800,"station_id":"ce4bhih2rcd13ifvqfr0","pricing_plan_id":"cebpf4jnsgd1na2vs0mg"},{"bike_id":"3566fff8-45d9-4e65-81fc-9cea4983d71a","system_id":"levelo_inurba_marseille","lat":43.2779,"lon":5.40742,"is_reserved":false,"is_disabled":false,"rental_uris":{"android":"levelo://app?vid=3566fff8-45d9-4e65-81fc-9cea4983d71a","ios":"levelo://app?vid=3566fff8-45d9-4e65-81fc-9cea4983d71a"},"vehicle_type_id":"4","last_reported":1769419482,"current_range_meters":2800,"station_id":"ce4bhnh2rcd13ifvqgtg","pricing_plan_id":"cebpf4jnsgd1na2vs0mg"},{"bike_id":"95f94347-0c0c-4336-9c2d-7547b2343e14","system_id":"levelo_inurba_marseille","lat":43.25487,"lon":5.37649,"is_reserved":false,"is_disabled":false,"rental_uris":{"android":"levelo://app?vid=95f94347-0c0c-4336-9c2d-7547b2343e14","ios":"levelo://app?vid=95f94347-0c0c-4336-9c2d-7547b2343e14"},"vehicle_type_id":"4","last_reported":1769419482,"current_range_meters":3200,"station_id":"ce4bhh12rcd13ifvqff0","pricing_plan_id":"cebpf4jnsgd1na2vs0mg"},{"bike_id":"a31d4b1b-7a61-4655-ae18-d5254ed9b3a3","system_id":"levelo_inurba_marseille","lat":43.2857,"lon":5.44173,"is_reserved":false,"is_disabled":false,"rental_uris":{"android":"levelo://app?vid=a31d4b1b-7a61-4655-ae18-d5254ed9b3a3","ios":"levelo://app?vid=a31d4b1b-7a61-4655-ae18-d5254ed9b3a3"},"vehicle_type_id":"4","last_reported":1769419482,"current_range_meters":3200,"station_id":"","pricing_plan_id":"cebpf4jnsgd1na2vs0mg"},{"bike_id":"993c6494-f17c-4ae2-b2c9-33e36265140e","system_id":"levelo_inurba_marseille","lat":43.24396,"lon":5.37055,"is_reserved":false,"is_disabled":false,"rental_uris":{"android":"levelo://app?vid=993c6494-f17c-4ae2-b2c9-33e36265140e","ios":"levelo://app?vid=993c6494-f17c-4ae2-b2c9-33e36265140e"},"vehicle_type_id":"4","last_reported":1769419482,"current_range_meters":3200,"station_id":"ce4bhhh2rcd13ifvqfk0","pricing_plan_id":"cebpf4jnsgd1na2vs0mg"},{"bike_id":"c1aeaa10-dc7f-4501-b461-bb241314d426","system_id":"levelo_inurba_marseille","lat":43.231961,"lon":5.355514,"is_reserved":false,"is_disabled":false,"rental_uris":{"android":"levelo://app?vid=c1aeaa10-dc7f-4501-b461-bb241314d426","ios":"levelo://app?vid=c1aeaa10-dc7f-4501-b461-bb241314d426"},"vehicle_type_id":"4","last_reported":1769419482,"current_range_meters":3200,"station_id":"ce4bhu92rcd13ifvqi70","pricing_plan_id":"cebpf4jnsgd1na2vs0mg"},{"bike_id":"99338d76-4428-4400-844e-5055b8956c80","system_id":"levelo_inurba_marseille","lat":43.32481,"lon":5.36575,"is_reserved":false,"is_disabled":false,"rental_uris":{"android":"levelo://app?vid=99338d76-4428-4400-844e-5055b8956c80","ios":"levelo://app?vid=99338d76-4428-4400-844e-5055b8956c80"},"vehicle_type_id":"4","last_reported":1769419482,"current_range_meters":3200,"station_id":"ce4bhs12rcd13ifvqhvg","pricing_plan_id":"cebpf4jnsgd1na2vs0mg"},{"bike_id":"0c16fd9f-27e4-4df5-a3f5-66328c64053c","system_id":"levelo_inurba_marseille","lat":43.29901,"lon":5.37453,"is_reserved":false,"is_disabled":false,"rental_uris":{"android":"levelo://app?vid=0c16fd9f-27e4-4df5-a3f5-66328c64053c","ios":"levelo://app?vid=0c16fd9f-27e4-4df5-a3f5-66328c64053c"},"vehicle_type_id":"4","last_reported":1769419482,"current_range_meters":3200,"station_id":"ce4bgjh2rcd13ifvqbg0","pricing_plan_id":"cebpf4jnsgd1na2vs0mg"},{"bike_id":"84b093b2-d92c-4820-9da5-8963a2733a5c","system_id":"levelo_inurba_marseille","lat":43.24979,"lon":5.38969,"is_reserved":false,"is_disabled":false,"rental_uris":{"android":"levelo://app?vid=84b093b2-d92c-4820-9da5-8963a2733a5c","ios":"levelo://app?vid=84b093b2-d92c-4820-9da5-8963a2733a5c"},"vehicle_type_id":"4","last_reported":1769419482,"current_range_meters":3200,"station_id":"","pricing_plan_id":"cebpf4jnsgd1na2vs0mg"},{"bike_id":"858634e8-caac-4268-9742-18257acbe5ad","system_id":"levelo_inurba_marseille","lat":43.30964,"lon":5.39043,"is_reserved":false,"is_disabled":false,"rental_uris":{"android":"levelo://app?vid=858634e8-caac-4268-9742-18257acbe5ad","ios":"levelo://app?vid=858634e8-caac-4268-9742-18257acbe5ad"},"vehicle_type_id":"4","last_reported":1769419482,"current_range_meters":3200,"station_id":"ce4bgup2rcd13ifvqco0","pricing_plan_id":"cebpf4jnsgd1na2vs0mg"},{"bike_id":"052ca930-395f-40c3-b13c-a09b744c5dee","system_id":"levelo_inurba_marseille","lat":43.30423,"lon":5.38898,"is_reserved":false,"is_disabled":false,"rental_uris":{"android":"levelo://app?vid=052ca930-395f-40c3-b13c-a09b744c5dee","ios":"levelo://app?vid=052ca930-395f-40c3-b13c-a09b744c5dee"},"vehicle_type_id":"4","last_reported":1769419482,"current_range_meters":3200,"station_id":"ce4bgk12rcd13ifvqbi0","pricing_plan_id":"cebpf4jnsgd1na2vs0mg"},{"bike_id":"0554af7b-4d97-4b09-bc8a-ccbbde3b5abf","system_id":"levelo_inurba_marseille","lat":43.24078,"lon":5.37748,"is_reserved":false,"is_disabled":false,"rental_uris":{"android":"levelo://app?vid=0554af7b-4d97-4b09-bc8a-ccbbde3b5abf","ios":"levelo://app?vid=0554af7b-4d97-4b09-bc8a-ccbbde3b5abf"},"vehicle_type_id":"4","last_reported":1769419482,"current_range_meters":3200,"station_id":"ce4bhnp2rcd13ifvqgvg","pricing_plan_id":"cebpf4jnsgd1na2vs0mg"},{"bike_id":"4e8fb272-4881-4fd0-9f58-3796236a95e4","system_id":"levelo_inurba_marseille","lat":43.29578,"lon":5.37498,"is_reserved":false,"is_disabled":false,"rental_uris":{"android":"levelo://app?vid=4e8fb272-4881-4fd0-9f58-3796236a95e4","ios":"levelo://app?vid=4e8fb272-4881-4fd0-9f58-3796236a95e4"},"vehicle_type_id":"4","last_reported":1769419482,"current_range_meters":3200,"station_id":"ce4bgh92rcd13ifvqb50","pricing_plan_id":"cebpf4jnsgd1na2vs0mg"},{"bike_id":"9c93149d-b500-48e4-b40e-4ba87cc7adef","system_id":"levelo_inurba_marseille","lat":43.24073,"lon":5.37769,"is_reserved":false,"is_disabled":false,"rental_uris":{"android":"levelo://app?vid=9c93149d-b500-48e4-b40e-4ba87cc7adef","ios":"levelo://app?vid=9c93149d-b500-48e4-b40e-4ba87cc7adef"},"vehicle_type_id":"4","last_reported":1769419482,"current_range_meters":3200,"station_id":"ce4bhnp2rcd13ifvqgvg","pricing_plan_id":"cebpf4jnsgd1na2vs0mg"},{"bike_id":"d7503130-10c8-43b2-8297-d9e107b1270f","system_id":"levelo_inurba_marseille","lat":43.30531,"lon":5.36657,"is_reserved":false,"is_disabled":false,"rental_uris":{"android":"levelo://app?vid=d7503130-10c8-43b2-8297-d9e107b1270f","ios":"levelo://app?vid=d7503130-10c8-43b2-8297-d9e107b1270f"},"vehicle_type_id":"4","last_reported":1769419482,"current_range_meters":3200,"station_id":"ce4bgrp2rcd13ifvqc9g","pricing_plan_id":"cebpf4jnsgd1na2vs0mg"},{"bike_id":"5fc0beb5-4f31-4401-80db-196c9af2213a","system_id":"levelo_inurba_marseille","lat":43.27129,"lon":5.39238,"is_reserved":false,"is_disabled":true,"rental_uris":{"android":"levelo://app?vid=5fc0beb5-4f31-4401-80db-196c9af2213a","ios":"levelo://app?vid=5fc0beb5-4f31-4401-80db-196c9af2213a"},"vehicle_type_id":"4","last_reported":1769419482,"current_range_meters":3200,"station_id":"","pricing_plan_id":"cebpf4jnsgd1na2vs0mg"},{"bike_id":"ec7d0fa8-eb17-4f2d-be61-63808cd73be3","system_id":"levelo_inurba_marseille","lat":43.27329,"lon":5.39097,"is_reserved":false,"is_disabled":false,"rental_uris":{"android":"levelo://app?vid=ec7d0fa8-eb17-4f2d-be61-63808cd73be3","ios":"levelo://app?vid=ec7d0fa8-eb17-4f2d-be61-63808cd73be3"},"vehicle_type_id":"4","last_reported":1769419482,"current_range_meters":3600,"station_id":"ce4bhgp2rcd13ifvqfe0","pricing_plan_id":"cebpf4jnsgd1na2vs0mg"},{"bike_id":"fcbabd4d-42b7-4110-8fdd-8c487447a636","system_id":"levelo_inurba_marseille","lat":43.30132,"lon":5.38786,"is_reserved":false,"is_disabled":false,"rental_uris":{"android":"levelo://app?vid=fcbabd4d-42b7-4110-8fdd-8c487447a636","ios":"levelo://app?vid=fcbabd4d-42b7-4110-8fdd-8c487447a636"},"vehicle_type_id":"4","last_reported":1769419482,"current_range_meters":3600,"station_id":"ce4bghh2rcd13ifvqb60","pricing_plan_id":"cebpf4jnsgd1na2vs0mg"},{"bike_id":"deee5351-4723-42ee-bd80-9af191803937","system_id":"levelo_inurba_marseille","lat":43.29176,"lon":5.40899,"is_reserved":false,"is_disabled":false,"rental_uris":{"android":"levelo://app?vid=deee5351-4723-42ee-bd80-9af191803937","ios":"levelo://app?vid=deee5351-4723-42ee-bd80-9af191803937"},"vehicle_type_id":"4","last_reported":1769419482,"current_range_meters":3600,"station_id":"","pricing_plan_id":"cebpf4jnsgd1na2vs0mg"},{"bike_id":"d265852f-b11a-4050-b059-56c4bf37cd36","system_id":"levelo_inurba_marseille","lat":43.31027,"lon":5.37176,"is_reserved":false,"is_disabled":false,"rental_uris":{"android":"levelo://app?vid=d265852f-b11a-4050-b059-56c4bf37cd36","ios":"levelo://app?vid=d265852f-b11a-4050-b059-56c4bf37cd36"},"vehicle_type_id":"4","last_reported":1769419482,"current_range_meters":3600,"station_id":"st_d4kl2rp97mjs73e7tdfg","pricing_plan_id":"cebpf4jnsgd1na2vs0mg"},{"bike_id":"241471d4-ea22-4707-b9cb-9d7a28477cee","system_id":"levelo_inurba_marseille","lat":43.30548,"lon":5.36539,"is_reserved":false,"is_disabled":false,"rental_uris":{"android":"levelo://app?vid=241471d4-ea22-4707-b9cb-9d7a28477cee","ios":"levelo://app?vid=241471d4-ea22-4707-b9cb-9d7a28477cee"},"vehicle_type_id":"4","last_reported":1769419482,"current_range_meters":3600,"station_id":"ce4bgs12rcd13ifvqcag","pricing_plan_id":"cebpf4jnsgd1na2vs0mg"},{"bike_id":"0d136b10-6bc7-4235-855c-95e423a0d09e","system_id":"levelo_inurba_marseille","lat":43.28609,"lon":5.38216,"is_reserved":false,"is_disabled":false,"rental_uris":{"android":"levelo://app?vid=0d136b10-6bc7-4235-855c-95e423a0d09e","ios":"levelo://app?vid=0d136b10-6bc7-4235-855c-95e423a0d09e"},"vehicle_type_id":"4","last_reported":1769419482,"current_range_meters":3600,"station_id":"","pricing_plan_id":"cebpf4jnsgd1na2vs0mg"},{"bike_id":"57697407-eb86-4d8a-b266-5fb6cbc2e104","system_id":"levelo_inurba_marseille","lat":43.26394,"lon":5.41072,"is_reserved":false,"is_disabled":false,"rental_uris":{"android":"levelo://app?vid=57697407-eb86-4d8a-b266-5fb6cbc2e104","ios":"levelo://app?vid=57697407-eb86-4d8a-b266-5fb6cbc2e104"},"vehicle_type_id":"4","last_reported":1769419482,"current_range_meters":3600,"station_id":"st_d4e5ca6na9uc73bfl5fg","pricing_plan_id":"cebpf4jnsgd1na2vs0mg"},{"bike_id":"876ac817-c1de-4d59-a160-e12114ae46c0","system_id":"levelo_inurba_marseille","lat":43.31381,"lon":5.36753,"is_reserved":false,"is_disabled":false,"rental_uris":{"android":"levelo://app?vid=876ac817-c1de-4d59-a160-e12114ae46c0","ios":"levelo://app?vid=876ac817-c1de-4d59-a160-e12114ae46c0"},"vehicle_type_id":"4","last_reported":1769419482,"current_range_meters":3600,"station_id":"","pricing_plan_id":"cebpf4jnsgd1na2vs0mg"},{"bike_id":"43ace758-19e2-45f5-81d3-4d0e67cb2c4e","system_id":"levelo_inurba_marseille","lat":43.23778,"lon":5.36651,"is_reserved":false,"is_disabled":false,"rental_uris":{"android":"levelo://app?vid=43ace758-19e2-45f5-81d3-4d0e67cb2c4e","ios":"levelo://app?vid=43ace758-19e2-45f5-81d3-4d0e67cb2c4e"},"vehicle_type_id":"4","last_reported":1769419482,"current_range_meters":3600,"station_id":"st_d3nk18o9ro0c73en2l3g","pricing_plan_id":"cebpf4jnsgd1na2vs0mg"},{"bike_id":"2aa273aa-7e61-4de5-b7a7-03a2cd33a84f","system_id":"levelo_inurba_marseille","lat":43.24941,"lon":5.40503,"is_reserved":false,"is_disabled":true,"rental_uris":{"android":"levelo://app?vid=2aa273aa-7e61-4de5-b7a7-03a2cd33a84f","ios":"levelo://app?vid=2aa273aa-7e61-4de5-b7a7-03a2cd33a84f"},"vehicle_type_id":"4","last_reported":1769419482,"current_range_meters":3600,"station_id":"st_d2ngiaodas8pm72gd1h0","pricing_plan_id":"cebpf4jnsgd1na2vs0mg"},{"bike_id":"ba76e5c4-a7e9-42f3-b906-39834ce38819","system_id":"levelo_inurba_marseille","lat":43.23964,"lon":5.36638,"is_reserved":false,"is_disabled":false,"rental_uris":{"android":"levelo://app?vid=ba76e5c4-a7e9-42f3-b906-39834ce38819","ios":"levelo://app?vid=ba76e5c4-a7e9-42f3-b906-39834ce38819"},"vehicle_type_id":"4","last_reported":1769419482,"current_range_meters":3600,"station_id":"ce4bhi12rcd13ifvqfp0","pricing_plan_id":"cebpf4jnsgd1na2vs0mg"},{"bike_id":"9b3b2477-0806-43ba-a18d-a151879803c3","system_id":"levelo_inurba_marseille","lat":43.26023,"lon":5.37549,"is_reserved":false,"is_disabled":false,"rental_uris":{"android":"levelo://app?vid=9b3b2477-0806-43ba-a18d-a151879803c3","ios":"levelo://app?vid=9b3b2477-0806-43ba-a18d-a151879803c3"},"vehicle_type_id":"4","last_reported":1769419482,"current_range_meters":3600,"station_id":"ce4bhgh2rcd13ifvqfa0","pricing_plan_id":"cebpf4jnsgd1na2vs0mg"},{"bike_id":"b7b68940-6e50-4a74-9685-2e0e8b628270","system_id":"levelo_inurba_marseille","lat":43.30589,"lon":5.36584,"is_reserved":false,"is_disabled":false,"rental_uris":{"android":"levelo://app?vid=b7b68940-6e50-4a74-9685-2e0e8b628270","ios":"levelo://app?vid=b7b68940-6e50-4a74-9685-2e0e8b628270"},"vehicle_type_id":"4","last_reported":1769419482,"current_range_meters":3600,"station_id":"ce4bgs12rcd13ifvqcag","pricing_plan_id":"cebpf4jnsgd1na2vs0mg"},{"bike_id":"414937c3-22ca-4ac8-a6d1-0b2223c3f608","system_id":"levelo_inurba_marseille","lat":43.25849,"lon":5.39421,"is_reserved":false,"is_disabled":false,"rental_uris":{"android":"levelo://app?vid=414937c3-22ca-4ac8-a6d1-0b2223c3f608","ios":"levelo://app?vid=414937c3-22ca-4ac8-a6d1-0b2223c3f608"},"vehicle_type_id":"4","last_reported":1769419482,"current_range_meters":4000,"station_id":"ce4bhip2rcd13ifvqft0","pricing_plan_id":"cebpf4jnsgd1na2vs0mg"},{"bike_id":"4f125d6e-3515-402b-81a3-b217ba02ff1e","system_id":"levelo_inurba_marseille","lat":43.298684,"lon":5.397314,"is_reserved":false,"is_disabled":false,"rental_uris":{"android":"levelo://app?vid=4f125d6e-3515-402b-81a3-b217ba02ff1e","ios":"levelo://app?vid=4f125d6e-3515-402b-81a3-b217ba02ff1e"},"vehicle_type_id":"4","last_reported":1769419482,"current_range_meters":4000,"station_id":"ce4bh0h2rcd13ifvqd50","pricing_plan_id":"cebpf4jnsgd1na2vs0mg"},{"bike_id":"77a8d6f7-8520-4e5a-a0e7-89573d4a6a77","system_id":"levelo_inurba_marseille","lat":43.23764,"lon":5.36652,"is_reserved":false,"is_disabled":false,"rental_uris":{"android":"levelo://app?vid=77a8d6f7-8520-4e5a-a0e7-89573d4a6a77","ios":"levelo://app?vid=77a8d6f7-8520-4e5a-a0e7-89573d4a6a77"},"vehicle_type_id":"4","last_reported":1769419482,"current_range_meters":4000,"station_id":"st_d3nk18o9ro0c73en2l3g","pricing_plan_id":"cebpf4jnsgd1na2vs0mg"},{"bike_id":"b075d711-d93d-4120-85f9-64fa0a4a9a99","system_id":"levelo_inurba_marseille","lat":43.22556,"lon":5.41651,"is_reserved":false,"is_disabled":false,"rental_uris":{"android":"levelo://app?vid=b075d711-d93d-4120-85f9-64fa0a4a9a99","ios":"levelo://app?vid=b075d711-d93d-4120-85f9-64fa0a4a9a99"},"vehicle_type_id":"4","last_reported":1769419482,"current_range_meters":4000,"station_id":"st_d2o4gvlbi1j2169b742g","pricing_plan_id":"cebpf4jnsgd1na2vs0mg"},{"bike_id":"b9a85f81-db86-411f-bbb7-33e92cde08f2","system_id":"levelo_inurba_marseille","lat":43.309,"lon":5.40329,"is_reserved":false,"is_disabled":false,"rental_uris":{"android":"levelo://app?vid=b9a85f81-db86-411f-bbb7-33e92cde08f2","ios":"levelo://app?vid=b9a85f81-db86-411f-bbb7-33e92cde08f2"},"vehicle_type_id":"4","last_reported":1769419482,"current_range_meters":4000,"station_id":"ce4bgvp2rcd13ifvqct0","pricing_plan_id":"cebpf4jnsgd1na2vs0mg"},{"bike_id":"cefc0408-08b4-45e0-8592-a44786197f49","system_id":"levelo_inurba_marseille","lat":43.22562,"lon":5.41634,"is_reserved":false,"is_disabled":false,"rental_uris":{"android":"levelo://app?vid=cefc0408-08b4-45e0-8592-a44786197f49","ios":"levelo://app?vid=cefc0408-08b4-45e0-8592-a44786197f49"},"vehicle_type_id":"4","last_reported":1769419482,"current_range_meters":4000,"station_id":"st_d2o4gvlbi1j2169b742g","pricing_plan_id":"cebpf4jnsgd1na2vs0mg"},{"bike_id":"9596f630-a277-4b6a-a9aa-2677d5cc298d","system_id":"levelo_inurba_marseille","lat":43.24169,"lon":5.39739,"is_reserved":false,"is_disabled":false,"rental_uris":{"android":"levelo://app?vid=9596f630-a277-4b6a-a9aa-2677d5cc298d","ios":"levelo://app?vid=9596f630-a277-4b6a-a9aa-2677d5cc298d"},"vehicle_type_id":"4","last_reported":1769419482,"current_range_meters":4000,"station_id":"ce4bhn12rcd13ifvqgpg","pricing_plan_id":"cebpf4jnsgd1na2vs0mg"},{"bike_id":"ad575e34-9700-47fe-85fd-58d08c795ba9","system_id":"levelo_inurba_marseille","lat":43.24645,"lon":5.38895,"is_reserved":false,"is_disabled":false,"rental_uris":{"android":"levelo://app?vid=ad575e34-9700-47fe-85fd-58d08c795ba9","ios":"levelo://app?vid=ad575e34-9700-47fe-85fd-58d08c795ba9"},"vehicle_type_id":"4","last_reported":1769419482,"current_range_meters":4000,"station_id":"ce4bhg12rcd13ifvqf60","pricing_plan_id":"cebpf4jnsgd1na2vs0mg"},{"bike_id":"e19418ad-aa76-4b1d-a53d-977a549e82e9","system_id":"levelo_inurba_marseille","lat":43.23179,"lon":5.35574,"is_reserved":false,"is_disabled":false,"rental_uris":{"android":"levelo://app?vid=e19418ad-aa76-4b1d-a53d-977a549e82e9","ios":"levelo://app?vid=e19418ad-aa76-4b1d-a53d-977a549e82e9"},"vehicle_type_id":"4","last_reported":1769419482,"current_range_meters":4000,"station_id":"ce4bhu92rcd13ifvqi70","pricing_plan_id":"cebpf4jnsgd1na2vs0mg"},{"bike_id":"3505f8b1-8fc5-4e81-ad99-9adf10bd1de1","system_id":"levelo_inurba_marseille","lat":43.24617,"lon":5.43146,"is_reserved":false,"is_disabled":false,"rental_uris":{"android":"levelo://app?vid=3505f8b1-8fc5-4e81-ad99-9adf10bd1de1","ios":"levelo://app?vid=3505f8b1-8fc5-4e81-ad99-9adf10bd1de1"},"vehicle_type_id":"4","last_reported":1769419482,"current_range_meters":4000,"station_id":"st_d2m6c4gdas8pm72e190g","pricing_plan_id":"cebpf4jnsgd1na2vs0mg"},{"bike_id":"d75ab507-0c26-4010-a05b-c40c476fb01f","system_id":"levelo_inurba_marseille","lat":43.30419,"lon":5.39761,"is_reserved":false,"is_disabled":false,"rental_uris":{"android":"levelo://app?vid=d75ab507-0c26-4010-a05b-c40c476fb01f","ios":"levelo://app?vid=d75ab507-0c26-4010-a05b-c40c476fb01f"},"vehicle_type_id":"4","last_reported":1769419482,"current_range_meters":4000,"station_id":"ce4bh092rcd13ifvqd20","pricing_plan_id":"cebpf4jnsgd1na2vs0mg"},{"bike_id":"b9917ecd-02a8-40e9-a0d0-4758759eb040","system_id":"levelo_inurba_marseille","lat":43.24571,"lon":5.37342,"is_reserved":false,"is_disabled":false,"rental_uris":{"android":"levelo://app?vid=b9917ecd-02a8-40e9-a0d0-4758759eb040","ios":"levelo://app?vid=b9917ecd-02a8-40e9-a0d0-4758759eb040"},"vehicle_type_id":"4","last_reported":1769419482,"current_range_meters":4000,"station_id":"","pricing_plan_id":"cebpf4jnsgd1na2vs0mg"},{"bike_id":"f67fb717-6122-4b54-b29e-4ff195ebfe07","system_id":"levelo_inurba_marseille","lat":43.2594,"lon":5.40897,"is_reserved":false,"is_disabled":false,"rental_uris":{"android":"levelo://app?vid=f67fb717-6122-4b54-b29e-4ff195ebfe07","ios":"levelo://app?vid=f67fb717-6122-4b54-b29e-4ff195ebfe07"},"vehicle_type_id":"4","last_reported":1769419482,"current_range_meters":4000,"station_id":"ce4bhm92rcd13ifvqglg","pricing_plan_id":"cebpf4jnsgd1na2vs0mg"},{"bike_id":"ffb6a194-260f-4933-8da9-320ddd27531e","system_id":"levelo_inurba_marseille","lat":43.25085,"lon":5.39532,"is_reserved":false,"is_disabled":false,"rental_uris":{"android":"levelo://app?vid=ffb6a194-260f-4933-8da9-320ddd27531e","ios":"levelo://app?vid=ffb6a194-260f-4933-8da9-320ddd27531e"},"vehicle_type_id":"4","last_reported":1769419482,"current_range_meters":4000,"station_id":"ce4bhm12rcd13ifvqgkg","pricing_plan_id":"cebpf4jnsgd1na2vs0mg"},{"bike_id":"7e036456-a386-4efb-94df-0183fba99584","system_id":"levelo_inurba_marseille","lat":43.24687,"lon":5.38136,"is_reserved":false,"is_disabled":false,"rental_uris":{"android":"levelo://app?vid=7e036456-a386-4efb-94df-0183fba99584","ios":"levelo://app?vid=7e036456-a386-4efb-94df-0183fba99584"},"vehicle_type_id":"4","last_reported":1769419482,"current_range_meters":4000,"station_id":"ce4bhih2rcd13ifvqfr0","pricing_plan_id":"cebpf4jnsgd1na2vs0mg"},{"bike_id":"b1d59cca-e28a-4678-b838-1155b378cd48","system_id":"levelo_inurba_marseille","lat":43.33542,"lon":5.37471,"is_reserved":false,"is_disabled":false,"rental_uris":{"android":"levelo://app?vid=b1d59cca-e28a-4678-b838-1155b378cd48","ios":"levelo://app?vid=b1d59cca-e28a-4678-b838-1155b378cd48"},"vehicle_type_id":"4","last_reported":1769419482,"current_range_meters":4400,"station_id":"st_d46tts09ee8s73dlu43g","pricing_plan_id":"cebpf4jnsgd1na2vs0mg"},{"bike_id":"50006eb5-7e2d-4eec-b7db-04ba6e598980","system_id":"levelo_inurba_marseille","lat":43.33147,"lon":5.37696,"is_reserved":false,"is_disabled":false,"rental_uris":{"android":"levelo://app?vid=50006eb5-7e2d-4eec-b7db-04ba6e598980","ios":"levelo://app?vid=50006eb5-7e2d-4eec-b7db-04ba6e598980"},"vehicle_type_id":"4","last_reported":1769419482,"current_range_meters":4400,"station_id":"st_d46cu089ee8s73dldbu0","pricing_plan_id":"cebpf4jnsgd1na2vs0mg"},{"bike_id":"d7504a6d-9595-4dc3-a2ba-509c3d293f59","system_id":"levelo_inurba_marseille","lat":43.29665,"lon":5.37292,"is_reserved":false,"is_disabled":false,"rental_uris":{"android":"levelo://app?vid=d7504a6d-9595-4dc3-a2ba-509c3d293f59","ios":"levelo://app?vid=d7504a6d-9595-4dc3-a2ba-509c3d293f59"},"vehicle_type_id":"4","last_reported":1769419482,"current_range_meters":4400,"station_id":"ce4bgk12rcd13ifvqbj0","pricing_plan_id":"cebpf4jnsgd1na2vs0mg"},{"bike_id":"be45021b-19b2-44e0-b573-b2a00f7d009c","system_id":"levelo_inurba_marseille","lat":43.25004,"lon":5.38931,"is_reserved":false,"is_disabled":false,"rental_uris":{"android":"levelo://app?vid=be45021b-19b2-44e0-b573-b2a00f7d009c","ios":"levelo://app?vid=be45021b-19b2-44e0-b573-b2a00f7d009c"},"vehicle_type_id":"4","last_reported":1769419482,"current_range_meters":4400,"station_id":"ce4bhgp2rcd13ifvqfd0","pricing_plan_id":"cebpf4jnsgd1na2vs0mg"},{"bike_id":"ca006b1c-64f2-4772-acb4-e94321165aec","system_id":"levelo_inurba_marseille","lat":43.305489,"lon":5.367403,"is_reserved":false,"is_disabled":false,"rental_uris":{"android":"levelo://app?vid=ca006b1c-64f2-4772-acb4-e94321165aec","ios":"levelo://app?vid=ca006b1c-64f2-4772-acb4-e94321165aec"},"vehicle_type_id":"4","last_reported":1769419482,"current_range_meters":4400,"station_id":"ce4bgn92rcd13ifvqbvg","pricing_plan_id":"cebpf4jnsgd1na2vs0mg"},{"bike_id":"94f0e610-db77-4234-9107-d4f7aa303985","system_id":"levelo_inurba_marseille","lat":43.29842,"lon":5.36257,"is_reserved":false,"is_disabled":false,"rental_uris":{"android":"levelo://app?vid=94f0e610-db77-4234-9107-d4f7aa303985","ios":"levelo://app?vid=94f0e610-db77-4234-9107-d4f7aa303985"},"vehicle_type_id":"4","last_reported":1769419482,"current_range_meters":4400,"station_id":"ce4bgpp2rcd13ifvqc3g","pricing_plan_id":"cebpf4jnsgd1na2vs0mg"},{"bike_id":"3930536c-8c51-42dc-98c5-b22dbf71406e","system_id":"levelo_inurba_marseille","lat":43.26658,"lon":5.38294,"is_reserved":false,"is_disabled":false,"rental_uris":{"android":"levelo://app?vid=3930536c-8c51-42dc-98c5-b22dbf71406e","ios":"levelo://app?vid=3930536c-8c51-42dc-98c5-b22dbf71406e"},"vehicle_type_id":"4","last_reported":1769419482,"current_range_meters":4400,"station_id":"ce4bhg92rcd13ifvqf90","pricing_plan_id":"cebpf4jnsgd1na2vs0mg"},{"bike_id":"c0117a5d-7bba-4599-bcc0-ee8506deb526","system_id":"levelo_inurba_marseille","lat":43.23957,"lon":5.36652,"is_reserved":false,"is_disabled":false,"rental_uris":{"android":"levelo://app?vid=c0117a5d-7bba-4599-bcc0-ee8506deb526","ios":"levelo://app?vid=c0117a5d-7bba-4599-bcc0-ee8506deb526"},"vehicle_type_id":"4","last_reported":1769419482,"current_range_meters":4400,"station_id":"ce4bhi12rcd13ifvqfp0","pricing_plan_id":"cebpf4jnsgd1na2vs0mg"},{"bike_id":"ab9ec677-d886-4d37-bc8f-9d1e1db67f60","system_id":"levelo_inurba_marseille","lat":43.254873,"lon":5.376445,"is_reserved":false,"is_disabled":false,"rental_uris":{"android":"levelo://app?vid=ab9ec677-d886-4d37-bc8f-9d1e1db67f60","ios":"levelo://app?vid=ab9ec677-d886-4d37-bc8f-9d1e1db67f60"},"vehicle_type_id":"4","last_reported":1769419482,"current_range_meters":4400,"station_id":"","pricing_plan_id":"cebpf4jnsgd1na2vs0mg"},{"bike_id":"995a6bb6-d88d-4735-8ea2-c72889b441e7","system_id":"levelo_inurba_marseille","lat":43.26222,"lon":5.37933,"is_reserved":false,"is_disabled":false,"rental_uris":{"android":"levelo://app?vid=995a6bb6-d88d-4735-8ea2-c72889b441e7","ios":"levelo://app?vid=995a6bb6-d88d-4735-8ea2-c72889b441e7"},"vehicle_type_id":"4","last_reported":1769419482,"current_range_meters":4400,"station_id":"ce4bhjp2rcd13ifvqg90","pricing_plan_id":"cebpf4jnsgd1na2vs0mg"},{"bike_id":"c101c5e7-a92c-4262-9de4-730cf3520d3e","system_id":"levelo_inurba_marseille","lat":43.24404,"lon":5.3707,"is_reserved":false,"is_disabled":false,"rental_uris":{"android":"levelo://app?vid=c101c5e7-a92c-4262-9de4-730cf3520d3e","ios":"levelo://app?vid=c101c5e7-a92c-4262-9de4-730cf3520d3e"},"vehicle_type_id":"4","last_reported":1769419482,"current_range_meters":4800,"station_id":"ce4bhhh2rcd13ifvqfk0","pricing_plan_id":"cebpf4jnsgd1na2vs0mg"},{"bike_id":"0de5032e-148a-468e-969e-fb644458ceae","system_id":"levelo_inurba_marseille","lat":43.25106,"lon":5.40475,"is_reserved":false,"is_disabled":false,"rental_uris":{"android":"levelo://app?vid=0de5032e-148a-468e-969e-fb644458ceae","ios":"levelo://app?vid=0de5032e-148a-468e-969e-fb644458ceae"},"vehicle_type_id":"4","last_reported":1769419482,"current_range_meters":4800,"station_id":"","pricing_plan_id":"cebpf4jnsgd1na2vs0mg"},{"bike_id":"5cfd7260-21a3-4346-b554-3744fc7c6072","system_id":"levelo_inurba_marseille","lat":43.29542,"lon":5.42248,"is_reserved":false,"is_disabled":false,"rental_uris":{"android":"levelo://app?vid=5cfd7260-21a3-4346-b554-3744fc7c6072","ios":"levelo://app?vid=5cfd7260-21a3-4346-b554-3744fc7c6072"},"vehicle_type_id":"4","last_reported":1769419482,"current_range_meters":4800,"station_id":"ce4bhph2rcd13ifvqhdg","pricing_plan_id":"cebpf4jnsgd1na2vs0mg"},{"bike_id":"6252b5bc-7f21-4a5c-90b2-fb54de33b122","system_id":"levelo_inurba_marseille","lat":43.24369,"lon":5.37112,"is_reserved":false,"is_disabled":false,"rental_uris":{"android":"levelo://app?vid=6252b5bc-7f21-4a5c-90b2-fb54de33b122","ios":"levelo://app?vid=6252b5bc-7f21-4a5c-90b2-fb54de33b122"},"vehicle_type_id":"4","last_reported":1769419482,"current_range_meters":4800,"station_id":"ce4bhhh2rcd13ifvqfk0","pricing_plan_id":"cebpf4jnsgd1na2vs0mg"},{"bike_id":"0a9315ef-49dd-4e1c-90ba-9ac1028ca5d9","system_id":"levelo_inurba_marseille","lat":43.321092,"lon":5.36766,"is_reserved":false,"is_disabled":false,"rental_uris":{"android":"levelo://app?vid=0a9315ef-49dd-4e1c-90ba-9ac1028ca5d9","ios":"levelo://app?vid=0a9315ef-49dd-4e1c-90ba-9ac1028ca5d9"},"vehicle_type_id":"4","last_reported":1769419482,"current_range_meters":4800,"station_id":"ce4bhrh2rcd13ifvqhug","pricing_plan_id":"cebpf4jnsgd1na2vs0mg"},{"bike_id":"8f2bfe4e-cf9c-446f-839b-8cbb79b0acb4","system_id":"levelo_inurba_marseille","lat":43.2923,"lon":5.36056,"is_reserved":false,"is_disabled":false,"rental_uris":{"android":"levelo://app?vid=8f2bfe4e-cf9c-446f-839b-8cbb79b0acb4","ios":"levelo://app?vid=8f2bfe4e-cf9c-446f-839b-8cbb79b0acb4"},"vehicle_type_id":"4","last_reported":1769419482,"current_range_meters":4800,"station_id":"ce4bhbh2rcd13ifvqeqg","pricing_plan_id":"cebpf4jnsgd1na2vs0mg"},{"bike_id":"a4aafa8d-a01c-4642-9e94-a5564c7bcce4","system_id":"levelo_inurba_marseille","lat":43.31113,"lon":5.37705,"is_reserved":false,"is_disabled":false,"rental_uris":{"android":"levelo://app?vid=a4aafa8d-a01c-4642-9e94-a5564c7bcce4","ios":"levelo://app?vid=a4aafa8d-a01c-4642-9e94-a5564c7bcce4"},"vehicle_type_id":"4","last_reported":1769419482,"current_range_meters":4800,"station_id":"ce4bgt92rcd13ifvqcg0","pricing_plan_id":"cebpf4jnsgd1na2vs0mg"},{"bike_id":"5d411b85-7b12-4358-9445-6cfeeebcda1f","system_id":"levelo_inurba_marseille","lat":43.27601,"lon":5.36135,"is_reserved":false,"is_disabled":false,"rental_uris":{"android":"levelo://app?vid=5d411b85-7b12-4358-9445-6cfeeebcda1f","ios":"levelo://app?vid=5d411b85-7b12-4358-9445-6cfeeebcda1f"},"vehicle_type_id":"4","last_reported":1769419482,"current_range_meters":4800,"station_id":"ce4bgj92rcd13ifvqbe0","pricing_plan_id":"cebpf4jnsgd1na2vs0mg"},{"bike_id":"ea53cb96-b018-4a32-8207-3b5118a7a50d","system_id":"levelo_inurba_marseille","lat":43.321066,"lon":5.367752,"is_reserved":false,"is_disabled":false,"rental_uris":{"android":"levelo://app?vid=ea53cb96-b018-4a32-8207-3b5118a7a50d","ios":"levelo://app?vid=ea53cb96-b018-4a32-8207-3b5118a7a50d"},"vehicle_type_id":"4","last_reported":1769419482,"current_range_meters":4800,"station_id":"ce4bhrh2rcd13ifvqhug","pricing_plan_id":"cebpf4jnsgd1na2vs0mg"},{"bike_id":"76242551-1b05-40ac-a7fd-938c60f142d2","system_id":"levelo_inurba_marseille","lat":43.29922,"lon":5.36546,"is_reserved":false,"is_disabled":false,"rental_uris":{"android":"levelo://app?vid=76242551-1b05-40ac-a7fd-938c60f142d2","ios":"levelo://app?vid=76242551-1b05-40ac-a7fd-938c60f142d2"},"vehicle_type_id":"4","last_reported":1769419482,"current_range_meters":4800,"station_id":"ce4bgm92rcd13ifvqbr0","pricing_plan_id":"cebpf4jnsgd1na2vs0mg"},{"bike_id":"0c11bc30-1254-4e35-b530-31f7fd6a4b39","system_id":"levelo_inurba_marseille","lat":43.30005,"lon":5.3737,"is_reserved":false,"is_disabled":false,"rental_uris":{"android":"levelo://app?vid=0c11bc30-1254-4e35-b530-31f7fd6a4b39","ios":"levelo://app?vid=0c11bc30-1254-4e35-b530-31f7fd6a4b39"},"vehicle_type_id":"4","last_reported":1769419482,"current_range_meters":4800,"station_id":"","pricing_plan_id":"cebpf4jnsgd1na2vs0mg"},{"bike_id":"fe8f16c0-7c2c-4db5-9830-9c506d68052e","system_id":"levelo_inurba_marseille","lat":43.25129,"lon":5.40321,"is_reserved":false,"is_disabled":false,"rental_uris":{"android":"levelo://app?vid=fe8f16c0-7c2c-4db5-9830-9c506d68052e","ios":"levelo://app?vid=fe8f16c0-7c2c-4db5-9830-9c506d68052e"},"vehicle_type_id":"4","last_reported":1769419482,"current_range_meters":5600,"station_id":"ce4bhlh2rcd13ifvqgig","pricing_plan_id":"cebpf4jnsgd1na2vs0mg"},{"bike_id":"a7d2959e-278b-41d6-9192-a644114b55de","system_id":"levelo_inurba_marseille","lat":43.23765,"lon":5.36645,"is_reserved":false,"is_disabled":false,"rental_uris":{"android":"levelo://app?vid=a7d2959e-278b-41d6-9192-a644114b55de","ios":"levelo://app?vid=a7d2959e-278b-41d6-9192-a644114b55de"},"vehicle_type_id":"4","last_reported":1769419482,"current_range_meters":5600,"station_id":"st_d3nk18o9ro0c73en2l3g","pricing_plan_id":"cebpf4jnsgd1na2vs0mg"},{"bike_id":"916dd940-69ea-458f-9349-3fb90adc28d8","system_id":"levelo_inurba_marseille","lat":43.30117,"lon":5.38796,"is_reserved":false,"is_disabled":false,"rental_uris":{"android":"levelo://app?vid=916dd940-69ea-458f-9349-3fb90adc28d8","ios":"levelo://app?vid=916dd940-69ea-458f-9349-3fb90adc28d8"},"vehicle_type_id":"4","last_reported":1769419482,"current_range_meters":5600,"station_id":"ce4bghh2rcd13ifvqb60","pricing_plan_id":"cebpf4jnsgd1na2vs0mg"},{"bike_id":"10387f82-2301-4057-96f6-08df2a5bdb3c","system_id":"levelo_inurba_marseille","lat":43.26773,"lon":5.4028,"is_reserved":false,"is_disabled":false,"rental_uris":{"android":"levelo://app?vid=10387f82-2301-4057-96f6-08df2a5bdb3c","ios":"levelo://app?vid=10387f82-2301-4057-96f6-08df2a5bdb3c"},"vehicle_type_id":"4","last_reported":1769419482,"current_range_meters":5600,"station_id":"ce501612rcd8frsf0b60","pricing_plan_id":"cebpf4jnsgd1na2vs0mg"},{"bike_id":"5620fd0b-568e-406e-8104-b0555da61e8a","system_id":"levelo_inurba_marseille","lat":43.28478,"lon":5.484036,"is_reserved":false,"is_disabled":false,"rental_uris":{"android":"levelo://app?vid=5620fd0b-568e-406e-8104-b0555da61e8a","ios":"levelo://app?vid=5620fd0b-568e-406e-8104-b0555da61e8a"},"vehicle_type_id":"4","last_reported":1769419482,"current_range_meters":5600,"station_id":"","pricing_plan_id":"cebpf4jnsgd1na2vs0mg"},{"bike_id":"b48ee151-3ed1-4e10-984a-1bdd1de5d934","system_id":"levelo_inurba_marseille","lat":43.26743,"lon":5.38887,"is_reserved":false,"is_disabled":false,"rental_uris":{"android":"levelo://app?vid=b48ee151-3ed1-4e10-984a-1bdd1de5d934","ios":"levelo://app?vid=b48ee151-3ed1-4e10-984a-1bdd1de5d934"},"vehicle_type_id":"4","last_reported":1769419482,"current_range_meters":5600,"station_id":"","pricing_plan_id":"cebpf4jnsgd1na2vs0mg"},{"bike_id":"367a6bfa-022d-4ac7-9a7a-fafdb9ad5966","system_id":"levelo_inurba_marseille","lat":43.23182,"lon":5.40042,"is_reserved":false,"is_disabled":true,"rental_uris":{"android":"levelo://app?vid=367a6bfa-022d-4ac7-9a7a-fafdb9ad5966","ios":"levelo://app?vid=367a6bfa-022d-4ac7-9a7a-fafdb9ad5966"},"vehicle_type_id":"4","last_reported":1769419482,"current_range_meters":6000,"station_id":"ce4bhn12rcd13ifvqgqg","pricing_plan_id":"cebpf4jnsgd1na2vs0mg"},{"bike_id":"b41ba2a0-1343-49eb-803d-f14eb8b0ccdf","system_id":"levelo_inurba_marseille","lat":43.26701,"lon":5.39242,"is_reserved":false,"is_disabled":false,"rental_uris":{"android":"levelo://app?vid=b41ba2a0-1343-49eb-803d-f14eb8b0ccdf","ios":"levelo://app?vid=b41ba2a0-1343-49eb-803d-f14eb8b0ccdf"},"vehicle_type_id":"4","last_reported":1769419482,"current_range_meters":6000,"station_id":"","pricing_plan_id":"cebpf4jnsgd1na2vs0mg"},{"bike_id":"70b373ec-c3e9-4acd-ad55-8386d0981035","system_id":"levelo_inurba_marseille","lat":43.23161,"lon":5.43709,"is_reserved":false,"is_disabled":false,"rental_uris":{"android":"levelo://app?vid=70b373ec-c3e9-4acd-ad55-8386d0981035","ios":"levelo://app?vid=70b373ec-c3e9-4acd-ad55-8386d0981035"},"vehicle_type_id":"4","last_reported":1769419482,"current_range_meters":6000,"station_id":"ce4bhmp2rcd13ifvqgog","pricing_plan_id":"cebpf4jnsgd1na2vs0mg"},{"bike_id":"09a5d1ab-035a-4dc3-bfa2-fcc95b884751","system_id":"levelo_inurba_marseille","lat":43.26924,"lon":5.38934,"is_reserved":false,"is_disabled":false,"rental_uris":{"android":"levelo://app?vid=09a5d1ab-035a-4dc3-bfa2-fcc95b884751","ios":"levelo://app?vid=09a5d1ab-035a-4dc3-bfa2-fcc95b884751"},"vehicle_type_id":"4","last_reported":1769419482,"current_range_meters":6000,"station_id":"ce4bhhh2rcd13ifvqfl0","pricing_plan_id":"cebpf4jnsgd1na2vs0mg"},{"bike_id":"d550e710-b8ba-4023-896b-8cb7aaa3a8cd","system_id":"levelo_inurba_marseille","lat":43.29042,"lon":5.39963,"is_reserved":false,"is_disabled":false,"rental_uris":{"android":"levelo://app?vid=d550e710-b8ba-4023-896b-8cb7aaa3a8cd","ios":"levelo://app?vid=d550e710-b8ba-4023-896b-8cb7aaa3a8cd"},"vehicle_type_id":"4","last_reported":1769419482,"current_range_meters":6000,"station_id":"ce4bh392rcd13ifvqdm0","pricing_plan_id":"cebpf4jnsgd1na2vs0mg"},{"bike_id":"5e529a5d-b2ca-40f2-848b-027e979b3e6d","system_id":"levelo_inurba_marseille","lat":43.3187,"lon":5.43568,"is_reserved":false,"is_disabled":false,"rental_uris":{"android":"levelo://app?vid=5e529a5d-b2ca-40f2-848b-027e979b3e6d","ios":"levelo://app?vid=5e529a5d-b2ca-40f2-848b-027e979b3e6d"},"vehicle_type_id":"4","last_reported":1769419482,"current_range_meters":6000,"station_id":"","pricing_plan_id":"cebpf4jnsgd1na2vs0mg"},{"bike_id":"4655293e-1e40-4eeb-a9e9-46bd44b618a4","system_id":"levelo_inurba_marseille","lat":43.29028,"lon":5.38142,"is_reserved":false,"is_disabled":false,"rental_uris":{"android":"levelo://app?vid=4655293e-1e40-4eeb-a9e9-46bd44b618a4","ios":"levelo://app?vid=4655293e-1e40-4eeb-a9e9-46bd44b618a4"},"vehicle_type_id":"4","last_reported":1769419482,"current_range_meters":6000,"station_id":"ce4bh4p2rcd13ifvqe1g","pricing_plan_id":"cebpf4jnsgd1na2vs0mg"},{"bike_id":"c0313abf-12fb-419d-943d-7cc5fd78e7ca","system_id":"levelo_inurba_marseille","lat":43.31233,"lon":5.36653,"is_reserved":false,"is_disabled":false,"rental_uris":{"android":"levelo://app?vid=c0313abf-12fb-419d-943d-7cc5fd78e7ca","ios":"levelo://app?vid=c0313abf-12fb-419d-943d-7cc5fd78e7ca"},"vehicle_type_id":"4","last_reported":1769419482,"current_range_meters":6000,"station_id":"","pricing_plan_id":"cebpf4jnsgd1na2vs0mg"},{"bike_id":"6b03ada9-beb1-4397-aab8-27781ac0b0d3","system_id":"levelo_inurba_marseille","lat":43.251146,"lon":5.403179,"is_reserved":false,"is_disabled":false,"rental_uris":{"android":"levelo://app?vid=6b03ada9-beb1-4397-aab8-27781ac0b0d3","ios":"levelo://app?vid=6b03ada9-beb1-4397-aab8-27781ac0b0d3"},"vehicle_type_id":"4","last_reported":1769419482,"current_range_meters":6000,"station_id":"ce4bhlh2rcd13ifvqgig","pricing_plan_id":"cebpf4jnsgd1na2vs0mg"},{"bike_id":"3e1c87a6-ff7d-4226-9651-d78e2427eb41","system_id":"levelo_inurba_marseille","lat":43.24056,"lon":5.37756,"is_reserved":false,"is_disabled":false,"rental_uris":{"android":"levelo://app?vid=3e1c87a6-ff7d-4226-9651-d78e2427eb41","ios":"levelo://app?vid=3e1c87a6-ff7d-4226-9651-d78e2427eb41"},"vehicle_type_id":"4","last_reported":1769419482,"current_range_meters":6000,"station_id":"ce4bhnp2rcd13ifvqgvg","pricing_plan_id":"cebpf4jnsgd1na2vs0mg"},{"bike_id":"84bf2db5-2780-4777-bc60-2f59dc7a0326","system_id":"levelo_inurba_marseille","lat":43.2454,"lon":5.39545,"is_reserved":false,"is_disabled":false,"rental_uris":{"android":"levelo://app?vid=84bf2db5-2780-4777-bc60-2f59dc7a0326","ios":"levelo://app?vid=84bf2db5-2780-4777-bc60-2f59dc7a0326"},"vehicle_type_id":"4","last_reported":1769419482,"current_range_meters":6000,"station_id":"ce4bhlp2rcd13ifvqgjg","pricing_plan_id":"cebpf4jnsgd1na2vs0mg"},{"bike_id":"23e8e2b5-e425-472a-bc08-b0b79ef75ac3","system_id":"levelo_inurba_marseille","lat":43.28524,"lon":5.44127,"is_reserved":false,"is_disabled":false,"rental_uris":{"android":"levelo://app?vid=23e8e2b5-e425-472a-bc08-b0b79ef75ac3","ios":"levelo://app?vid=23e8e2b5-e425-472a-bc08-b0b79ef75ac3"},"vehicle_type_id":"4","last_reported":1769419482,"current_range_meters":6000,"station_id":"st_d3j3df2ikq2c7380ej80","pricing_plan_id":"cebpf4jnsgd1na2vs0mg"},{"bike_id":"76f15ad4-d2a1-4e04-beac-26f7234bdc21","system_id":"levelo_inurba_marseille","lat":43.3028,"lon":5.36751,"is_reserved":false,"is_disabled":false,"rental_uris":{"android":"levelo://app?vid=76f15ad4-d2a1-4e04-beac-26f7234bdc21","ios":"levelo://app?vid=76f15ad4-d2a1-4e04-beac-26f7234bdc21"},"vehicle_type_id":"4","last_reported":1769419482,"current_range_meters":6000,"station_id":"","pricing_plan_id":"cebpf4jnsgd1na2vs0mg"},{"bike_id":"8b6b7265-308f-473e-8ba3-35ac746ae5ec","system_id":"levelo_inurba_marseille","lat":43.29736,"lon":5.37695,"is_reserved":false,"is_disabled":false,"rental_uris":{"android":"levelo://app?vid=8b6b7265-308f-473e-8ba3-35ac746ae5ec","ios":"levelo://app?vid=8b6b7265-308f-473e-8ba3-35ac746ae5ec"},"vehicle_type_id":"4","last_reported":1769419482,"current_range_meters":6000,"station_id":"ce4bgkh2rcd13ifvqbl0","pricing_plan_id":"cebpf4jnsgd1na2vs0mg"},{"bike_id":"872ca787-ea41-43ac-9081-3181ff9b1e3b","system_id":"levelo_inurba_marseille","lat":43.27376,"lon":5.3625,"is_reserved":false,"is_disabled":false,"rental_uris":{"android":"levelo://app?vid=872ca787-ea41-43ac-9081-3181ff9b1e3b","ios":"levelo://app?vid=872ca787-ea41-43ac-9081-3181ff9b1e3b"},"vehicle_type_id":"4","last_reported":1769419482,"current_range_meters":6000,"station_id":"ce4bhbh2rcd13ifvqeo0","pricing_plan_id":"cebpf4jnsgd1na2vs0mg"},{"bike_id":"99bc9e46-2a2d-4354-b606-97e38b1b91d7","system_id":"levelo_inurba_marseille","lat":43.23947,"lon":5.37595,"is_reserved":false,"is_disabled":false,"rental_uris":{"android":"levelo://app?vid=99bc9e46-2a2d-4354-b606-97e38b1b91d7","ios":"levelo://app?vid=99bc9e46-2a2d-4354-b606-97e38b1b91d7"},"vehicle_type_id":"4","last_reported":1769419482,"current_range_meters":6000,"station_id":"","pricing_plan_id":"cebpf4jnsgd1na2vs0mg"},{"bike_id":"dde8922d-6a09-4764-9a20-72b82f86b44c","system_id":"levelo_inurba_marseille","lat":43.29744,"lon":5.42758,"is_reserved":false,"is_disabled":false,"rental_uris":{"android":"levelo://app?vid=dde8922d-6a09-4764-9a20-72b82f86b44c","ios":"levelo://app?vid=dde8922d-6a09-4764-9a20-72b82f86b44c"},"vehicle_type_id":"4","last_reported":1769419482,"current_range_meters":6400,"station_id":"st_d3md5207bmas73dh9klg","pricing_plan_id":"cebpf4jnsgd1na2vs0mg"},{"bike_id":"5a924aa5-a60a-459f-9ce9-4aee6291d40d","system_id":"levelo_inurba_marseille","lat":43.24184,"lon":5.36352,"is_reserved":false,"is_disabled":false,"rental_uris":{"android":"levelo://app?vid=5a924aa5-a60a-459f-9ce9-4aee6291d40d","ios":"levelo://app?vid=5a924aa5-a60a-459f-9ce9-4aee6291d40d"},"vehicle_type_id":"4","last_reported":1769419482,"current_range_meters":6400,"station_id":"cpo36qri1sfpv3e86is0","pricing_plan_id":"cebpf4jnsgd1na2vs0mg"},{"bike_id":"76a1dac6-4b91-4c24-98e2-a51653f759db","system_id":"levelo_inurba_marseille","lat":43.23785,"lon":5.36614,"is_reserved":false,"is_disabled":false,"rental_uris":{"android":"levelo://app?vid=76a1dac6-4b91-4c24-98e2-a51653f759db","ios":"levelo://app?vid=76a1dac6-4b91-4c24-98e2-a51653f759db"},"vehicle_type_id":"4","last_reported":1769419482,"current_range_meters":6400,"station_id":"st_d3nk18o9ro0c73en2l3g","pricing_plan_id":"cebpf4jnsgd1na2vs0mg"},{"bike_id":"220c418b-28b6-4540-8ffd-c0aa175c1092","system_id":"levelo_inurba_marseille","lat":43.279889,"lon":5.416875,"is_reserved":false,"is_disabled":false,"rental_uris":{"android":"levelo://app?vid=220c418b-28b6-4540-8ffd-c0aa175c1092","ios":"levelo://app?vid=220c418b-28b6-4540-8ffd-c0aa175c1092"},"vehicle_type_id":"4","last_reported":1769419482,"current_range_meters":6400,"station_id":"ce4bho12rcd13ifvqh1g","pricing_plan_id":"cebpf4jnsgd1na2vs0mg"},{"bike_id":"af1a3621-d057-4ad0-b71e-c2bbcd71736a","system_id":"levelo_inurba_marseille","lat":43.30173,"lon":5.36629,"is_reserved":false,"is_disabled":true,"rental_uris":{"android":"levelo://app?vid=af1a3621-d057-4ad0-b71e-c2bbcd71736a","ios":"levelo://app?vid=af1a3621-d057-4ad0-b71e-c2bbcd71736a"},"vehicle_type_id":"4","last_reported":1769419482,"current_range_meters":6400,"station_id":"ce4bgrh2rcd13ifvqc8g","pricing_plan_id":"cebpf4jnsgd1na2vs0mg"},{"bike_id":"47492743-489d-45ae-8cd5-a690ce98ece0","system_id":"levelo_inurba_marseille","lat":43.25544,"lon":5.38306,"is_reserved":false,"is_disabled":false,"rental_uris":{"android":"levelo://app?vid=47492743-489d-45ae-8cd5-a690ce98ece0","ios":"levelo://app?vid=47492743-489d-45ae-8cd5-a690ce98ece0"},"vehicle_type_id":"4","last_reported":1769419482,"current_range_meters":6400,"station_id":"","pricing_plan_id":"cebpf4jnsgd1na2vs0mg"},{"bike_id":"2e7dad9e-9695-44d6-bc96-ef3eee5dfbfa","system_id":"levelo_inurba_marseille","lat":43.31359,"lon":5.36707,"is_reserved":false,"is_disabled":false,"rental_uris":{"android":"levelo://app?vid=2e7dad9e-9695-44d6-bc96-ef3eee5dfbfa","ios":"levelo://app?vid=2e7dad9e-9695-44d6-bc96-ef3eee5dfbfa"},"vehicle_type_id":"4","last_reported":1769419482,"current_range_meters":6400,"station_id":"ce4bgr92rcd13ifvqc6g","pricing_plan_id":"cebpf4jnsgd1na2vs0mg"},{"bike_id":"35de4117-1885-471d-ae81-ebbd7b148d3a","system_id":"levelo_inurba_marseille","lat":43.28156,"lon":5.42618,"is_reserved":false,"is_disabled":false,"rental_uris":{"android":"levelo://app?vid=35de4117-1885-471d-ae81-ebbd7b148d3a","ios":"levelo://app?vid=35de4117-1885-471d-ae81-ebbd7b148d3a"},"vehicle_type_id":"4","last_reported":1769419482,"current_range_meters":6400,"station_id":"ce4bhnh2rcd13ifvqgug","pricing_plan_id":"cebpf4jnsgd1na2vs0mg"},{"bike_id":"a15856db-9ac7-49b1-8876-30be7c45105f","system_id":"levelo_inurba_marseille","lat":43.24994,"lon":5.38946,"is_reserved":false,"is_disabled":false,"rental_uris":{"android":"levelo://app?vid=a15856db-9ac7-49b1-8876-30be7c45105f","ios":"levelo://app?vid=a15856db-9ac7-49b1-8876-30be7c45105f"},"vehicle_type_id":"4","last_reported":1769419482,"current_range_meters":6400,"station_id":"ce4bhgp2rcd13ifvqfd0","pricing_plan_id":"cebpf4jnsgd1na2vs0mg"},{"bike_id":"fdd9efc7-53e9-441d-b99b-586302834715","system_id":"levelo_inurba_marseille","lat":43.29636,"lon":5.37291,"is_reserved":false,"is_disabled":true,"rental_uris":{"android":"levelo://app?vid=fdd9efc7-53e9-441d-b99b-586302834715","ios":"levelo://app?vid=fdd9efc7-53e9-441d-b99b-586302834715"},"vehicle_type_id":"4","last_reported":1769419482,"current_range_meters":6400,"station_id":"ce4bgk12rcd13ifvqbj0","pricing_plan_id":"cebpf4jnsgd1na2vs0mg"},{"bike_id":"7ab42a37-5fa3-40b0-99e7-5c9a7643d3cf","system_id":"levelo_inurba_marseille","lat":43.26194,"lon":5.3745,"is_reserved":false,"is_disabled":false,"rental_uris":{"android":"levelo://app?vid=7ab42a37-5fa3-40b0-99e7-5c9a7643d3cf","ios":"levelo://app?vid=7ab42a37-5fa3-40b0-99e7-5c9a7643d3cf"},"vehicle_type_id":"4","last_reported":1769419482,"current_range_meters":6400,"station_id":"ce4bhgp2rcd13ifvqfc0","pricing_plan_id":"cebpf4jnsgd1na2vs0mg"},{"bike_id":"9536a92a-01ab-4017-8488-26a8fa6880af","system_id":"levelo_inurba_marseille","lat":43.25921,"lon":5.40929,"is_reserved":false,"is_disabled":false,"rental_uris":{"android":"levelo://app?vid=9536a92a-01ab-4017-8488-26a8fa6880af","ios":"levelo://app?vid=9536a92a-01ab-4017-8488-26a8fa6880af"},"vehicle_type_id":"4","last_reported":1769419482,"current_range_meters":6400,"station_id":"ce4bhm92rcd13ifvqglg","pricing_plan_id":"cebpf4jnsgd1na2vs0mg"},{"bike_id":"d40cec95-2910-45e3-9746-103f4a99c664","system_id":"levelo_inurba_marseille","lat":43.305328,"lon":5.365527,"is_reserved":false,"is_disabled":false,"rental_uris":{"android":"levelo://app?vid=d40cec95-2910-45e3-9746-103f4a99c664","ios":"levelo://app?vid=d40cec95-2910-45e3-9746-103f4a99c664"},"vehicle_type_id":"4","last_reported":1769419482,"current_range_meters":6400,"station_id":"ce4bgs12rcd13ifvqcag","pricing_plan_id":"cebpf4jnsgd1na2vs0mg"},{"bike_id":"82f5d7cf-2c6e-4174-ab24-1fb4015f0fcf","system_id":"levelo_inurba_marseille","lat":43.231348,"lon":5.437561,"is_reserved":false,"is_disabled":false,"rental_uris":{"android":"levelo://app?vid=82f5d7cf-2c6e-4174-ab24-1fb4015f0fcf","ios":"levelo://app?vid=82f5d7cf-2c6e-4174-ab24-1fb4015f0fcf"},"vehicle_type_id":"4","last_reported":1769419482,"current_range_meters":6400,"station_id":"ce4bhmp2rcd13ifvqgog","pricing_plan_id":"cebpf4jnsgd1na2vs0mg"},{"bike_id":"ccf326ac-ae0a-4ffb-a071-520b4c6f402c","system_id":"levelo_inurba_marseille","lat":43.33271,"lon":5.37967,"is_reserved":false,"is_disabled":false,"rental_uris":{"android":"levelo://app?vid=ccf326ac-ae0a-4ffb-a071-520b4c6f402c","ios":"levelo://app?vid=ccf326ac-ae0a-4ffb-a071-520b4c6f402c"},"vehicle_type_id":"4","last_reported":1769419482,"current_range_meters":6400,"station_id":"","pricing_plan_id":"cebpf4jnsgd1na2vs0mg"},{"bike_id":"cac33b0d-1253-4f9c-ad4d-38fa4aa09390","system_id":"levelo_inurba_marseille","lat":43.292014,"lon":5.393183,"is_reserved":false,"is_disabled":false,"rental_uris":{"android":"levelo://app?vid=cac33b0d-1253-4f9c-ad4d-38fa4aa09390","ios":"levelo://app?vid=cac33b0d-1253-4f9c-ad4d-38fa4aa09390"},"vehicle_type_id":"4","last_reported":1769419482,"current_range_meters":6400,"station_id":"ce4bh192rcd13ifvqdd0","pricing_plan_id":"cebpf4jnsgd1na2vs0mg"},{"bike_id":"6ca833bc-eb2d-4968-a64f-dee268a3783e","system_id":"levelo_inurba_marseille","lat":43.23139,"lon":5.43726,"is_reserved":false,"is_disabled":false,"rental_uris":{"android":"levelo://app?vid=6ca833bc-eb2d-4968-a64f-dee268a3783e","ios":"levelo://app?vid=6ca833bc-eb2d-4968-a64f-dee268a3783e"},"vehicle_type_id":"4","last_reported":1769419482,"current_range_meters":6400,"station_id":"ce4bhmp2rcd13ifvqgog","pricing_plan_id":"cebpf4jnsgd1na2vs0mg"},{"bike_id":"34cffd8e-2f46-4dd8-8d27-cdda152fb2da","system_id":"levelo_inurba_marseille","lat":43.240806,"lon":5.377523,"is_reserved":false,"is_disabled":false,"rental_uris":{"android":"levelo://app?vid=34cffd8e-2f46-4dd8-8d27-cdda152fb2da","ios":"levelo://app?vid=34cffd8e-2f46-4dd8-8d27-cdda152fb2da"},"vehicle_type_id":"4","last_reported":1769419482,"current_range_meters":6400,"station_id":"ce4bhnp2rcd13ifvqgvg","pricing_plan_id":"cebpf4jnsgd1na2vs0mg"},{"bike_id":"85e2d763-a451-4954-9de0-7bebd96f38df","system_id":"levelo_inurba_marseille","lat":43.337444,"lon":5.374475,"is_reserved":false,"is_disabled":false,"rental_uris":{"android":"levelo://app?vid=85e2d763-a451-4954-9de0-7bebd96f38df","ios":"levelo://app?vid=85e2d763-a451-4954-9de0-7bebd96f38df"},"vehicle_type_id":"4","last_reported":1769419482,"current_range_meters":6400,"station_id":"ce4bhl92rcd13ifvqghg","pricing_plan_id":"cebpf4jnsgd1na2vs0mg"},{"bike_id":"281c13db-7575-4f01-8cb4-ab2b2ff0bb6c","system_id":"levelo_inurba_marseille","lat":43.23053,"lon":5.35501,"is_reserved":false,"is_disabled":false,"rental_uris":{"android":"levelo://app?vid=281c13db-7575-4f01-8cb4-ab2b2ff0bb6c","ios":"levelo://app?vid=281c13db-7575-4f01-8cb4-ab2b2ff0bb6c"},"vehicle_type_id":"4","last_reported":1769419482,"current_range_meters":6400,"station_id":"cpo3342slgdg3j2ifvpg","pricing_plan_id":"cebpf4jnsgd1na2vs0mg"},{"bike_id":"b3068d89-6006-49fd-8f19-f1ab3b5f066c","system_id":"levelo_inurba_marseille","lat":43.33599,"lon":5.41013,"is_reserved":false,"is_disabled":false,"rental_uris":{"android":"levelo://app?vid=b3068d89-6006-49fd-8f19-f1ab3b5f066c","ios":"levelo://app?vid=b3068d89-6006-49fd-8f19-f1ab3b5f066c"},"vehicle_type_id":"4","last_reported":1769419482,"current_range_meters":6400,"station_id":"ce4bhqh2rcd13ifvqhmg","pricing_plan_id":"cebpf4jnsgd1na2vs0mg"},{"bike_id":"1f42ead9-558b-488e-9a30-95f563011506","system_id":"levelo_inurba_marseille","lat":43.28594,"lon":5.37077,"is_reserved":false,"is_disabled":false,"rental_uris":{"android":"levelo://app?vid=1f42ead9-558b-488e-9a30-95f563011506","ios":"levelo://app?vid=1f42ead9-558b-488e-9a30-95f563011506"},"vehicle_type_id":"4","last_reported":1769419482,"current_range_meters":6400,"station_id":"ce4bht12rcd13ifvqi60","pricing_plan_id":"cebpf4jnsgd1na2vs0mg"},{"bike_id":"dcc795f5-34a5-4b33-89a8-38509adc68cb","system_id":"levelo_inurba_marseille","lat":43.31341,"lon":5.36777,"is_reserved":false,"is_disabled":false,"rental_uris":{"android":"levelo://app?vid=dcc795f5-34a5-4b33-89a8-38509adc68cb","ios":"levelo://app?vid=dcc795f5-34a5-4b33-89a8-38509adc68cb"},"vehicle_type_id":"4","last_reported":1769419482,"current_range_meters":6800,"station_id":"","pricing_plan_id":"cebpf4jnsgd1na2vs0mg"},{"bike_id":"c2440be3-03a2-4f32-9c17-7dea1419af4c","system_id":"levelo_inurba_marseille","lat":43.29935,"lon":5.36538,"is_reserved":false,"is_disabled":false,"rental_uris":{"android":"levelo://app?vid=c2440be3-03a2-4f32-9c17-7dea1419af4c","ios":"levelo://app?vid=c2440be3-03a2-4f32-9c17-7dea1419af4c"},"vehicle_type_id":"4","last_reported":1769419482,"current_range_meters":6800,"station_id":"ce4bgm92rcd13ifvqbr0","pricing_plan_id":"cebpf4jnsgd1na2vs0mg"},{"bike_id":"b681f863-0f3d-4d17-bb27-830d59083782","system_id":"levelo_inurba_marseille","lat":43.23159,"lon":5.43702,"is_reserved":false,"is_disabled":false,"rental_uris":{"android":"levelo://app?vid=b681f863-0f3d-4d17-bb27-830d59083782","ios":"levelo://app?vid=b681f863-0f3d-4d17-bb27-830d59083782"},"vehicle_type_id":"4","last_reported":1769419482,"current_range_meters":6800,"station_id":"ce4bhmp2rcd13ifvqgog","pricing_plan_id":"cebpf4jnsgd1na2vs0mg"},{"bike_id":"bb6bbf44-2d20-4d66-acf9-a244f73a09c0","system_id":"levelo_inurba_marseille","lat":43.31312,"lon":5.36741,"is_reserved":false,"is_disabled":false,"rental_uris":{"android":"levelo://app?vid=bb6bbf44-2d20-4d66-acf9-a244f73a09c0","ios":"levelo://app?vid=bb6bbf44-2d20-4d66-acf9-a244f73a09c0"},"vehicle_type_id":"4","last_reported":1769419482,"current_range_meters":6800,"station_id":"ce4bgr92rcd13ifvqc6g","pricing_plan_id":"cebpf4jnsgd1na2vs0mg"},{"bike_id":"6e26fc8c-448e-43cd-b37f-f4be03989230","system_id":"levelo_inurba_marseille","lat":43.32357,"lon":5.36741,"is_reserved":false,"is_disabled":false,"rental_uris":{"android":"levelo://app?vid=6e26fc8c-448e-43cd-b37f-f4be03989230","ios":"levelo://app?vid=6e26fc8c-448e-43cd-b37f-f4be03989230"},"vehicle_type_id":"4","last_reported":1769419482,"current_range_meters":6800,"station_id":"ce4bhsh2rcd13ifvqi2g","pricing_plan_id":"cebpf4jnsgd1na2vs0mg"},{"bike_id":"399ac81d-4eef-4dd6-9d3c-75f658e814f0","system_id":"levelo_inurba_marseille","lat":43.23183,"lon":5.35558,"is_reserved":false,"is_disabled":false,"rental_uris":{"android":"levelo://app?vid=399ac81d-4eef-4dd6-9d3c-75f658e814f0","ios":"levelo://app?vid=399ac81d-4eef-4dd6-9d3c-75f658e814f0"},"vehicle_type_id":"4","last_reported":1769419482,"current_range_meters":6800,"station_id":"ce4bhu92rcd13ifvqi70","pricing_plan_id":"cebpf4jnsgd1na2vs0mg"},{"bike_id":"2aaad497-2970-4001-adae-6482dc071a49","system_id":"levelo_inurba_marseille","lat":43.273652,"lon":5.36239,"is_reserved":false,"is_disabled":false,"rental_uris":{"android":"levelo://app?vid=2aaad497-2970-4001-adae-6482dc071a49","ios":"levelo://app?vid=2aaad497-2970-4001-adae-6482dc071a49"},"vehicle_type_id":"4","last_reported":1769419482,"current_range_meters":6800,"station_id":"ce4bhbh2rcd13ifvqeo0","pricing_plan_id":"cebpf4jnsgd1na2vs0mg"},{"bike_id":"2c3aca49-eec2-4aa1-8600-8b4c60855852","system_id":"levelo_inurba_marseille","lat":43.2494,"lon":5.40501,"is_reserved":false,"is_disabled":false,"rental_uris":{"android":"levelo://app?vid=2c3aca49-eec2-4aa1-8600-8b4c60855852","ios":"levelo://app?vid=2c3aca49-eec2-4aa1-8600-8b4c60855852"},"vehicle_type_id":"4","last_reported":1769419482,"current_range_meters":6800,"station_id":"st_d2ngiaodas8pm72gd1h0","pricing_plan_id":"cebpf4jnsgd1na2vs0mg"},{"bike_id":"b8b10137-8c02-488c-ac38-a06db031ad26","system_id":"levelo_inurba_marseille","lat":43.28519,"lon":5.44138,"is_reserved":false,"is_disabled":false,"rental_uris":{"android":"levelo://app?vid=b8b10137-8c02-488c-ac38-a06db031ad26","ios":"levelo://app?vid=b8b10137-8c02-488c-ac38-a06db031ad26"},"vehicle_type_id":"4","last_reported":1769419482,"current_range_meters":6800,"station_id":"st_d3j3df2ikq2c7380ej80","pricing_plan_id":"cebpf4jnsgd1na2vs0mg"},{"bike_id":"cdc9682b-4029-4c8f-8fd6-490c87d327bf","system_id":"levelo_inurba_marseille","lat":43.30536,"lon":5.36589,"is_reserved":false,"is_disabled":false,"rental_uris":{"android":"levelo://app?vid=cdc9682b-4029-4c8f-8fd6-490c87d327bf","ios":"levelo://app?vid=cdc9682b-4029-4c8f-8fd6-490c87d327bf"},"vehicle_type_id":"4","last_reported":1769419482,"current_range_meters":6800,"station_id":"ce4bgs12rcd13ifvqcag","pricing_plan_id":"cebpf4jnsgd1na2vs0mg"},{"bike_id":"4493373c-f94e-4639-b5cd-651171ec2379","system_id":"levelo_inurba_marseille","lat":43.24386,"lon":5.37066,"is_reserved":false,"is_disabled":false,"rental_uris":{"android":"levelo://app?vid=4493373c-f94e-4639-b5cd-651171ec2379","ios":"levelo://app?vid=4493373c-f94e-4639-b5cd-651171ec2379"},"vehicle_type_id":"4","last_reported":1769419482,"current_range_meters":6800,"station_id":"ce4bhhh2rcd13ifvqfk0","pricing_plan_id":"cebpf4jnsgd1na2vs0mg"},{"bike_id":"7f3e5c0b-c06f-4356-b8cb-68c8424b7076","system_id":"levelo_inurba_marseille","lat":43.332139,"lon":5.412665,"is_reserved":false,"is_disabled":false,"rental_uris":{"android":"levelo://app?vid=7f3e5c0b-c06f-4356-b8cb-68c8424b7076","ios":"levelo://app?vid=7f3e5c0b-c06f-4356-b8cb-68c8424b7076"},"vehicle_type_id":"4","last_reported":1769419482,"current_range_meters":6800,"station_id":"","pricing_plan_id":"cebpf4jnsgd1na2vs0mg"},{"bike_id":"74569f7c-cc69-46a8-bfc3-5872e37ff412","system_id":"levelo_inurba_marseille","lat":43.29034,"lon":5.3994,"is_reserved":false,"is_disabled":false,"rental_uris":{"android":"levelo://app?vid=74569f7c-cc69-46a8-bfc3-5872e37ff412","ios":"levelo://app?vid=74569f7c-cc69-46a8-bfc3-5872e37ff412"},"vehicle_type_id":"4","last_reported":1769419482,"current_range_meters":7200,"station_id":"ce4bh392rcd13ifvqdm0","pricing_plan_id":"cebpf4jnsgd1na2vs0mg"},{"bike_id":"6aa3c96a-1fc4-494f-a1dc-4b7100c57c13","system_id":"levelo_inurba_marseille","lat":43.30958,"lon":5.39066,"is_reserved":false,"is_disabled":false,"rental_uris":{"android":"levelo://app?vid=6aa3c96a-1fc4-494f-a1dc-4b7100c57c13","ios":"levelo://app?vid=6aa3c96a-1fc4-494f-a1dc-4b7100c57c13"},"vehicle_type_id":"4","last_reported":1769419482,"current_range_meters":7200,"station_id":"ce4bgup2rcd13ifvqco0","pricing_plan_id":"cebpf4jnsgd1na2vs0mg"},{"bike_id":"2a90b32b-f550-4685-9b26-0ed6251ae886","system_id":"levelo_inurba_marseille","lat":43.26213,"lon":5.40475,"is_reserved":false,"is_disabled":false,"rental_uris":{"android":"levelo://app?vid=2a90b32b-f550-4685-9b26-0ed6251ae886","ios":"levelo://app?vid=2a90b32b-f550-4685-9b26-0ed6251ae886"},"vehicle_type_id":"4","last_reported":1769419482,"current_range_meters":7200,"station_id":"ce4bhmh2rcd13ifvqgmg","pricing_plan_id":"cebpf4jnsgd1na2vs0mg"},{"bike_id":"9713f383-b08e-4426-b8eb-983d4865231f","system_id":"levelo_inurba_marseille","lat":43.24396,"lon":5.37062,"is_reserved":false,"is_disabled":false,"rental_uris":{"android":"levelo://app?vid=9713f383-b08e-4426-b8eb-983d4865231f","ios":"levelo://app?vid=9713f383-b08e-4426-b8eb-983d4865231f"},"vehicle_type_id":"4","last_reported":1769419482,"current_range_meters":7200,"station_id":"ce4bhhh2rcd13ifvqfk0","pricing_plan_id":"cebpf4jnsgd1na2vs0mg"},{"bike_id":"59a32110-ff6b-4156-94b4-62186bc46249","system_id":"levelo_inurba_marseille","lat":43.23143,"lon":5.43724,"is_reserved":false,"is_disabled":false,"rental_uris":{"android":"levelo://app?vid=59a32110-ff6b-4156-94b4-62186bc46249","ios":"levelo://app?vid=59a32110-ff6b-4156-94b4-62186bc46249"},"vehicle_type_id":"4","last_reported":1769419482,"current_range_meters":7200,"station_id":"ce4bhmp2rcd13ifvqgog","pricing_plan_id":"cebpf4jnsgd1na2vs0mg"},{"bike_id":"b633e966-5653-4f4f-933b-143a8d470829","system_id":"levelo_inurba_marseille","lat":43.26064,"lon":5.37296,"is_reserved":false,"is_disabled":false,"rental_uris":{"android":"levelo://app?vid=b633e966-5653-4f4f-933b-143a8d470829","ios":"levelo://app?vid=b633e966-5653-4f4f-933b-143a8d470829"},"vehicle_type_id":"4","last_reported":1769419482,"current_range_meters":7200,"station_id":"","pricing_plan_id":"cebpf4jnsgd1na2vs0mg"},{"bike_id":"43fe3bc6-8793-41a7-a6a2-cec6d1cfdc81","system_id":"levelo_inurba_marseille","lat":43.310595,"lon":5.371782,"is_reserved":false,"is_disabled":false,"rental_uris":{"android":"levelo://app?vid=43fe3bc6-8793-41a7-a6a2-cec6d1cfdc81","ios":"levelo://app?vid=43fe3bc6-8793-41a7-a6a2-cec6d1cfdc81"},"vehicle_type_id":"4","last_reported":1769419482,"current_range_meters":7200,"station_id":"st_d4kl2rp97mjs73e7tdfg","pricing_plan_id":"cebpf4jnsgd1na2vs0mg"},{"bike_id":"fd001706-12fa-4e7c-83bf-349bf2fcad2c","system_id":"levelo_inurba_marseille","lat":43.29197,"lon":5.36081,"is_reserved":false,"is_disabled":false,"rental_uris":{"android":"levelo://app?vid=fd001706-12fa-4e7c-83bf-349bf2fcad2c","ios":"levelo://app?vid=fd001706-12fa-4e7c-83bf-349bf2fcad2c"},"vehicle_type_id":"4","last_reported":1769419482,"current_range_meters":7200,"station_id":"ce4bhbh2rcd13ifvqeqg","pricing_plan_id":"cebpf4jnsgd1na2vs0mg"},{"bike_id":"b400c73d-f93e-44ed-92d4-7d8d4deb58d6","system_id":"levelo_inurba_marseille","lat":43.24073,"lon":5.37767,"is_reserved":false,"is_disabled":false,"rental_uris":{"android":"levelo://app?vid=b400c73d-f93e-44ed-92d4-7d8d4deb58d6","ios":"levelo://app?vid=b400c73d-f93e-44ed-92d4-7d8d4deb58d6"},"vehicle_type_id":"4","last_reported":1769419482,"current_range_meters":7200,"station_id":"ce4bhnp2rcd13ifvqgvg","pricing_plan_id":"cebpf4jnsgd1na2vs0mg"},{"bike_id":"b720ed75-152c-43b5-90a8-06e6820f5618","system_id":"levelo_inurba_marseille","lat":43.30113,"lon":5.37427,"is_reserved":false,"is_disabled":false,"rental_uris":{"android":"levelo://app?vid=b720ed75-152c-43b5-90a8-06e6820f5618","ios":"levelo://app?vid=b720ed75-152c-43b5-90a8-06e6820f5618"},"vehicle_type_id":"4","last_reported":1769419482,"current_range_meters":7200,"station_id":"ce4bgs92rcd13ifvqcc0","pricing_plan_id":"cebpf4jnsgd1na2vs0mg"},{"bike_id":"4f9646d0-e890-4075-9fb7-8871574ea59d","system_id":"levelo_inurba_marseille","lat":43.25033,"lon":5.38956,"is_reserved":false,"is_disabled":false,"rental_uris":{"android":"levelo://app?vid=4f9646d0-e890-4075-9fb7-8871574ea59d","ios":"levelo://app?vid=4f9646d0-e890-4075-9fb7-8871574ea59d"},"vehicle_type_id":"4","last_reported":1769419482,"current_range_meters":7200,"station_id":"ce4bhgp2rcd13ifvqfd0","pricing_plan_id":"cebpf4jnsgd1na2vs0mg"},{"bike_id":"41a31331-98fe-418f-9f13-cbbdf271d4a7","system_id":"levelo_inurba_marseille","lat":43.29604,"lon":5.37727,"is_reserved":false,"is_disabled":false,"rental_uris":{"android":"levelo://app?vid=41a31331-98fe-418f-9f13-cbbdf271d4a7","ios":"levelo://app?vid=41a31331-98fe-418f-9f13-cbbdf271d4a7"},"vehicle_type_id":"4","last_reported":1769419482,"current_range_meters":7200,"station_id":"ce4bgi92rcd13ifvqb90","pricing_plan_id":"cebpf4jnsgd1na2vs0mg"},{"bike_id":"1365c07a-5084-4a71-9038-9a5ac45e16d4","system_id":"levelo_inurba_marseille","lat":43.30454,"lon":5.37908,"is_reserved":false,"is_disabled":false,"rental_uris":{"android":"levelo://app?vid=1365c07a-5084-4a71-9038-9a5ac45e16d4","ios":"levelo://app?vid=1365c07a-5084-4a71-9038-9a5ac45e16d4"},"vehicle_type_id":"4","last_reported":1769419482,"current_range_meters":7200,"station_id":"ce4bgup2rcd13ifvqcn0","pricing_plan_id":"cebpf4jnsgd1na2vs0mg"},{"bike_id":"45e07959-74ee-4a53-b95d-b4b3dff2ce2f","system_id":"levelo_inurba_marseille","lat":43.23778,"lon":5.36636,"is_reserved":false,"is_disabled":false,"rental_uris":{"android":"levelo://app?vid=45e07959-74ee-4a53-b95d-b4b3dff2ce2f","ios":"levelo://app?vid=45e07959-74ee-4a53-b95d-b4b3dff2ce2f"},"vehicle_type_id":"4","last_reported":1769419482,"current_range_meters":7200,"station_id":"st_d3nk18o9ro0c73en2l3g","pricing_plan_id":"cebpf4jnsgd1na2vs0mg"},{"bike_id":"b0d2c80e-ed15-4930-af0a-5bfc09a11396","system_id":"levelo_inurba_marseille","lat":43.22929,"lon":5.35386,"is_reserved":false,"is_disabled":false,"rental_uris":{"android":"levelo://app?vid=b0d2c80e-ed15-4930-af0a-5bfc09a11396","ios":"levelo://app?vid=b0d2c80e-ed15-4930-af0a-5bfc09a11396"},"vehicle_type_id":"4","last_reported":1769419482,"current_range_meters":7200,"station_id":"cpo3532slgdg3j2ikp40","pricing_plan_id":"cebpf4jnsgd1na2vs0mg"},{"bike_id":"3b5a4c25-8fd0-4c8d-9794-315ef613a5a9","system_id":"levelo_inurba_marseille","lat":43.30304,"lon":5.36934,"is_reserved":false,"is_disabled":false,"rental_uris":{"android":"levelo://app?vid=3b5a4c25-8fd0-4c8d-9794-315ef613a5a9","ios":"levelo://app?vid=3b5a4c25-8fd0-4c8d-9794-315ef613a5a9"},"vehicle_type_id":"4","last_reported":1769419482,"current_range_meters":7200,"station_id":"ce4bgqh2rcd13ifvqc5g","pricing_plan_id":"cebpf4jnsgd1na2vs0mg"},{"bike_id":"1d825dae-dae9-4109-8795-05229a129ed7","system_id":"levelo_inurba_marseille","lat":43.281567,"lon":5.426371,"is_reserved":false,"is_disabled":false,"rental_uris":{"android":"levelo://app?vid=1d825dae-dae9-4109-8795-05229a129ed7","ios":"levelo://app?vid=1d825dae-dae9-4109-8795-05229a129ed7"},"vehicle_type_id":"4","last_reported":1769419482,"current_range_meters":7200,"station_id":"ce4bhnh2rcd13ifvqgug","pricing_plan_id":"cebpf4jnsgd1na2vs0mg"},{"bike_id":"b08818eb-680c-4311-a8af-2cb6fd29700d","system_id":"levelo_inurba_marseille","lat":43.30884,"lon":5.38317,"is_reserved":false,"is_disabled":false,"rental_uris":{"android":"levelo://app?vid=b08818eb-680c-4311-a8af-2cb6fd29700d","ios":"levelo://app?vid=b08818eb-680c-4311-a8af-2cb6fd29700d"},"vehicle_type_id":"4","last_reported":1769419482,"current_range_meters":7200,"station_id":"","pricing_plan_id":"cebpf4jnsgd1na2vs0mg"},{"bike_id":"6db36212-a9a7-44a8-ba96-7da5d230ef85","system_id":"levelo_inurba_marseille","lat":43.24677,"lon":5.38143,"is_reserved":false,"is_disabled":false,"rental_uris":{"android":"levelo://app?vid=6db36212-a9a7-44a8-ba96-7da5d230ef85","ios":"levelo://app?vid=6db36212-a9a7-44a8-ba96-7da5d230ef85"},"vehicle_type_id":"4","last_reported":1769419482,"current_range_meters":7200,"station_id":"ce4bhih2rcd13ifvqfr0","pricing_plan_id":"cebpf4jnsgd1na2vs0mg"},{"bike_id":"37c3f561-4ae3-4405-b9d1-0c2e91fbee87","system_id":"levelo_inurba_marseille","lat":43.28469,"lon":5.48401,"is_reserved":false,"is_disabled":false,"rental_uris":{"android":"levelo://app?vid=37c3f561-4ae3-4405-b9d1-0c2e91fbee87","ios":"levelo://app?vid=37c3f561-4ae3-4405-b9d1-0c2e91fbee87"},"vehicle_type_id":"4","last_reported":1769419482,"current_range_meters":7200,"station_id":"st_d3svhcjqgbts73a3dn0g","pricing_plan_id":"cebpf4jnsgd1na2vs0mg"},{"bike_id":"884eb14a-73d9-49d6-824c-7c8943ec9a21","system_id":"levelo_inurba_marseille","lat":43.31753,"lon":5.3902,"is_reserved":false,"is_disabled":false,"rental_uris":{"android":"levelo://app?vid=884eb14a-73d9-49d6-824c-7c8943ec9a21","ios":"levelo://app?vid=884eb14a-73d9-49d6-824c-7c8943ec9a21"},"vehicle_type_id":"4","last_reported":1769419482,"current_range_meters":7200,"station_id":"ce4bhqp2rcd13ifvqhng","pricing_plan_id":"cebpf4jnsgd1na2vs0mg"},{"bike_id":"2d78c52a-e821-423c-8912-3c0fcf451046","system_id":"levelo_inurba_marseille","lat":43.241648,"lon":5.364072,"is_reserved":false,"is_disabled":false,"rental_uris":{"android":"levelo://app?vid=2d78c52a-e821-423c-8912-3c0fcf451046","ios":"levelo://app?vid=2d78c52a-e821-423c-8912-3c0fcf451046"},"vehicle_type_id":"4","last_reported":1769419482,"current_range_meters":7200,"station_id":"cpo36qri1sfpv3e86is0","pricing_plan_id":"cebpf4jnsgd1na2vs0mg"},{"bike_id":"1d64597d-9aab-4864-8716-3d19fa5cdb9d","system_id":"levelo_inurba_marseille","lat":43.29813,"lon":5.44079,"is_reserved":false,"is_disabled":false,"rental_uris":{"android":"levelo://app?vid=1d64597d-9aab-4864-8716-3d19fa5cdb9d","ios":"levelo://app?vid=1d64597d-9aab-4864-8716-3d19fa5cdb9d"},"vehicle_type_id":"4","last_reported":1769419482,"current_range_meters":7200,"station_id":"st_d3jp68qikq2c7381ktn0","pricing_plan_id":"cebpf4jnsgd1na2vs0mg"},{"bike_id":"d63ed78d-eca7-4700-aaa5-48377a2e3e4e","system_id":"levelo_inurba_marseille","lat":43.26366,"lon":5.41119,"is_reserved":false,"is_disabled":true,"rental_uris":{"android":"levelo://app?vid=d63ed78d-eca7-4700-aaa5-48377a2e3e4e","ios":"levelo://app?vid=d63ed78d-eca7-4700-aaa5-48377a2e3e4e"},"vehicle_type_id":"4","last_reported":1769419482,"current_range_meters":7200,"station_id":"st_d4e5ca6na9uc73bfl5fg","pricing_plan_id":"cebpf4jnsgd1na2vs0mg"},{"bike_id":"52b8c7d6-eb67-4988-8592-b8a88c8c4ce1","system_id":"levelo_inurba_marseille","lat":43.298,"lon":5.3812,"is_reserved":false,"is_disabled":false,"rental_uris":{"android":"levelo://app?vid=52b8c7d6-eb67-4988-8592-b8a88c8c4ce1","ios":"levelo://app?vid=52b8c7d6-eb67-4988-8592-b8a88c8c4ce1"},"vehicle_type_id":"4","last_reported":1769419482,"current_range_meters":7200,"station_id":"ce4bgip2rcd13ifvqbb0","pricing_plan_id":"cebpf4jnsgd1na2vs0mg"},{"bike_id":"5e4893e0-7e86-482d-a767-2dc95c5fbe1a","system_id":"levelo_inurba_marseille","lat":43.281057,"lon":5.410638,"is_reserved":false,"is_disabled":false,"rental_uris":{"android":"levelo://app?vid=5e4893e0-7e86-482d-a767-2dc95c5fbe1a","ios":"levelo://app?vid=5e4893e0-7e86-482d-a767-2dc95c5fbe1a"},"vehicle_type_id":"4","last_reported":1769419482,"current_range_meters":8000,"station_id":"","pricing_plan_id":"cebpf4jnsgd1na2vs0mg"},{"bike_id":"79b6158d-49ea-4914-8da1-643529c2d44f","system_id":"levelo_inurba_marseille","lat":43.24649,"lon":5.38887,"is_reserved":false,"is_disabled":false,"rental_uris":{"android":"levelo://app?vid=79b6158d-49ea-4914-8da1-643529c2d44f","ios":"levelo://app?vid=79b6158d-49ea-4914-8da1-643529c2d44f"},"vehicle_type_id":"4","last_reported":1769419482,"current_range_meters":8000,"station_id":"ce4bhg12rcd13ifvqf60","pricing_plan_id":"cebpf4jnsgd1na2vs0mg"},{"bike_id":"8fcc7dfb-9afa-4b40-8aed-c00c1dd819d8","system_id":"levelo_inurba_marseille","lat":43.31108,"lon":5.37826,"is_reserved":false,"is_disabled":false,"rental_uris":{"android":"levelo://app?vid=8fcc7dfb-9afa-4b40-8aed-c00c1dd819d8","ios":"levelo://app?vid=8fcc7dfb-9afa-4b40-8aed-c00c1dd819d8"},"vehicle_type_id":"4","last_reported":1769419482,"current_range_meters":8000,"station_id":"ce4bgt92rcd13ifvqcg0","pricing_plan_id":"cebpf4jnsgd1na2vs0mg"},{"bike_id":"c3edd199-705c-4309-a8b9-4419712c3f01","system_id":"levelo_inurba_marseille","lat":43.337444,"lon":5.374475,"is_reserved":false,"is_disabled":false,"rental_uris":{"android":"levelo://app?vid=c3edd199-705c-4309-a8b9-4419712c3f01","ios":"levelo://app?vid=c3edd199-705c-4309-a8b9-4419712c3f01"},"vehicle_type_id":"4","last_reported":1769419482,"current_range_meters":8000,"station_id":"ce4bhb12rcd13ifvqem0","pricing_plan_id":"cebpf4jnsgd1na2vs0mg"},{"bike_id":"67ff9a75-4fe8-45e7-914d-fc416a457597","system_id":"levelo_inurba_marseille","lat":43.321122,"lon":5.36768,"is_reserved":false,"is_disabled":false,"rental_uris":{"android":"levelo://app?vid=67ff9a75-4fe8-45e7-914d-fc416a457597","ios":"levelo://app?vid=67ff9a75-4fe8-45e7-914d-fc416a457597"},"vehicle_type_id":"4","last_reported":1769419482,"current_range_meters":8000,"station_id":"ce4bhrh2rcd13ifvqhug","pricing_plan_id":"cebpf4jnsgd1na2vs0mg"},{"bike_id":"860d4648-96bb-41c6-990b-e19b394bde4c","system_id":"levelo_inurba_marseille","lat":43.29483,"lon":5.43316,"is_reserved":false,"is_disabled":false,"rental_uris":{"android":"levelo://app?vid=860d4648-96bb-41c6-990b-e19b394bde4c","ios":"levelo://app?vid=860d4648-96bb-41c6-990b-e19b394bde4c"},"vehicle_type_id":"4","last_reported":1769419482,"current_range_meters":8000,"station_id":"st_d3j5ugp08ojc73fj9d10","pricing_plan_id":"cebpf4jnsgd1na2vs0mg"},{"bike_id":"a412b551-de48-49a2-a43e-b0193ba01773","system_id":"levelo_inurba_marseille","lat":43.29222,"lon":5.39301,"is_reserved":false,"is_disabled":true,"rental_uris":{"android":"levelo://app?vid=a412b551-de48-49a2-a43e-b0193ba01773","ios":"levelo://app?vid=a412b551-de48-49a2-a43e-b0193ba01773"},"vehicle_type_id":"4","last_reported":1769419482,"current_range_meters":8000,"station_id":"ce4bh192rcd13ifvqdd0","pricing_plan_id":"cebpf4jnsgd1na2vs0mg"},{"bike_id":"aeb4cc61-129c-4f69-a2a4-8c1cdbb3353c","system_id":"levelo_inurba_marseille","lat":43.24086,"lon":5.37706,"is_reserved":false,"is_disabled":false,"rental_uris":{"android":"levelo://app?vid=aeb4cc61-129c-4f69-a2a4-8c1cdbb3353c","ios":"levelo://app?vid=aeb4cc61-129c-4f69-a2a4-8c1cdbb3353c"},"vehicle_type_id":"4","last_reported":1769419482,"current_range_meters":8000,"station_id":"ce4bhnp2rcd13ifvqgvg","pricing_plan_id":"cebpf4jnsgd1na2vs0mg"},{"bike_id":"589eebb0-c0cf-4d19-afe3-eff9c648d5c0","system_id":"levelo_inurba_marseille","lat":43.26212,"lon":5.40416,"is_reserved":false,"is_disabled":false,"rental_uris":{"android":"levelo://app?vid=589eebb0-c0cf-4d19-afe3-eff9c648d5c0","ios":"levelo://app?vid=589eebb0-c0cf-4d19-afe3-eff9c648d5c0"},"vehicle_type_id":"4","last_reported":1769419482,"current_range_meters":8000,"station_id":"ce4bhmh2rcd13ifvqgmg","pricing_plan_id":"cebpf4jnsgd1na2vs0mg"},{"bike_id":"4241e7c1-162d-4ace-a947-4a0587651fef","system_id":"levelo_inurba_marseille","lat":43.31202,"lon":5.36816,"is_reserved":false,"is_disabled":false,"rental_uris":{"android":"levelo://app?vid=4241e7c1-162d-4ace-a947-4a0587651fef","ios":"levelo://app?vid=4241e7c1-162d-4ace-a947-4a0587651fef"},"vehicle_type_id":"4","last_reported":1769419482,"current_range_meters":8000,"station_id":"ce4bgl92rcd13ifvqbq0","pricing_plan_id":"cebpf4jnsgd1na2vs0mg"},{"bike_id":"3ea061e6-3522-4acc-948f-9e8a2f88b026","system_id":"levelo_inurba_marseille","lat":43.23143,"lon":5.43712,"is_reserved":false,"is_disabled":false,"rental_uris":{"android":"levelo://app?vid=3ea061e6-3522-4acc-948f-9e8a2f88b026","ios":"levelo://app?vid=3ea061e6-3522-4acc-948f-9e8a2f88b026"},"vehicle_type_id":"4","last_reported":1769419482,"current_range_meters":8000,"station_id":"ce4bhmp2rcd13ifvqgog","pricing_plan_id":"cebpf4jnsgd1na2vs0mg"},{"bike_id":"898169fa-29c0-4349-a185-41ab96475b8a","system_id":"levelo_inurba_marseille","lat":43.25016,"lon":5.38921,"is_reserved":false,"is_disabled":false,"rental_uris":{"android":"levelo://app?vid=898169fa-29c0-4349-a185-41ab96475b8a","ios":"levelo://app?vid=898169fa-29c0-4349-a185-41ab96475b8a"},"vehicle_type_id":"4","last_reported":1769419482,"current_range_meters":8000,"station_id":"ce4bhgp2rcd13ifvqfd0","pricing_plan_id":"cebpf4jnsgd1na2vs0mg"},{"bike_id":"94565390-ccd1-4637-87ae-137afb92daa1","system_id":"levelo_inurba_marseille","lat":43.26487,"lon":5.39549,"is_reserved":false,"is_disabled":false,"rental_uris":{"android":"levelo://app?vid=94565390-ccd1-4637-87ae-137afb92daa1","ios":"levelo://app?vid=94565390-ccd1-4637-87ae-137afb92daa1"},"vehicle_type_id":"4","last_reported":1769419482,"current_range_meters":8000,"station_id":"ce4bhi12rcd13ifvqfq0","pricing_plan_id":"cebpf4jnsgd1na2vs0mg"},{"bike_id":"72037e2c-baa7-4484-adaa-ffd8349c8b15","system_id":"levelo_inurba_marseille","lat":43.28995,"lon":5.3562,"is_reserved":false,"is_disabled":false,"rental_uris":{"android":"levelo://app?vid=72037e2c-baa7-4484-adaa-ffd8349c8b15","ios":"levelo://app?vid=72037e2c-baa7-4484-adaa-ffd8349c8b15"},"vehicle_type_id":"4","last_reported":1769419482,"current_range_meters":8000,"station_id":"ce4bhb92rcd13ifvqen0","pricing_plan_id":"cebpf4jnsgd1na2vs0mg"},{"bike_id":"736929a0-d6a8-4f12-8769-fcb0d31195b2","system_id":"levelo_inurba_marseille","lat":43.2785,"lon":5.40375,"is_reserved":false,"is_disabled":false,"rental_uris":{"android":"levelo://app?vid=736929a0-d6a8-4f12-8769-fcb0d31195b2","ios":"levelo://app?vid=736929a0-d6a8-4f12-8769-fcb0d31195b2"},"vehicle_type_id":"4","last_reported":1769419482,"current_range_meters":8000,"station_id":"","pricing_plan_id":"cebpf4jnsgd1na2vs0mg"},{"bike_id":"824e48f9-4323-4fb0-bb91-58a5b75b7c5f","system_id":"levelo_inurba_marseille","lat":43.28264,"lon":5.37248,"is_reserved":false,"is_disabled":false,"rental_uris":{"android":"levelo://app?vid=824e48f9-4323-4fb0-bb91-58a5b75b7c5f","ios":"levelo://app?vid=824e48f9-4323-4fb0-bb91-58a5b75b7c5f"},"vehicle_type_id":"4","last_reported":1769419482,"current_range_meters":8000,"station_id":"","pricing_plan_id":"cebpf4jnsgd1na2vs0mg"},{"bike_id":"5777293f-b66a-4a6f-8081-966890dd397a","system_id":"levelo_inurba_marseille","lat":43.321167,"lon":5.367613,"is_reserved":false,"is_disabled":false,"rental_uris":{"android":"levelo://app?vid=5777293f-b66a-4a6f-8081-966890dd397a","ios":"levelo://app?vid=5777293f-b66a-4a6f-8081-966890dd397a"},"vehicle_type_id":"4","last_reported":1769419482,"current_range_meters":8000,"station_id":"ce4bhrh2rcd13ifvqhug","pricing_plan_id":"cebpf4jnsgd1na2vs0mg"},{"bike_id":"e73f1781-62f4-4a23-b153-6815bc29f05e","system_id":"levelo_inurba_marseille","lat":43.29297,"lon":5.41216,"is_reserved":false,"is_disabled":false,"rental_uris":{"android":"levelo://app?vid=e73f1781-62f4-4a23-b153-6815bc29f05e","ios":"levelo://app?vid=e73f1781-62f4-4a23-b153-6815bc29f05e"},"vehicle_type_id":"4","last_reported":1769419482,"current_range_meters":8000,"station_id":"","pricing_plan_id":"cebpf4jnsgd1na2vs0mg"},{"bike_id":"a31c88fe-eab3-4a9e-bb85-de943818a780","system_id":"levelo_inurba_marseille","lat":43.23775,"lon":5.3664,"is_reserved":false,"is_disabled":false,"rental_uris":{"android":"levelo://app?vid=a31c88fe-eab3-4a9e-bb85-de943818a780","ios":"levelo://app?vid=a31c88fe-eab3-4a9e-bb85-de943818a780"},"vehicle_type_id":"4","last_reported":1769419482,"current_range_meters":8400,"station_id":"st_d3nk18o9ro0c73en2l3g","pricing_plan_id":"cebpf4jnsgd1na2vs0mg"},{"bike_id":"4ecf6c12-33e8-4135-b4a4-e6c4ddb448fc","system_id":"levelo_inurba_marseille","lat":43.24059,"lon":5.3779,"is_reserved":false,"is_disabled":false,"rental_uris":{"android":"levelo://app?vid=4ecf6c12-33e8-4135-b4a4-e6c4ddb448fc","ios":"levelo://app?vid=4ecf6c12-33e8-4135-b4a4-e6c4ddb448fc"},"vehicle_type_id":"4","last_reported":1769419482,"current_range_meters":8400,"station_id":"ce4bhnp2rcd13ifvqgvg","pricing_plan_id":"cebpf4jnsgd1na2vs0mg"},{"bike_id":"93c7ca3c-2e02-4311-a0d1-b461f66e2ced","system_id":"levelo_inurba_marseille","lat":43.314982,"lon":5.373115,"is_reserved":false,"is_disabled":false,"rental_uris":{"android":"levelo://app?vid=93c7ca3c-2e02-4311-a0d1-b461f66e2ced","ios":"levelo://app?vid=93c7ca3c-2e02-4311-a0d1-b461f66e2ced"},"vehicle_type_id":"4","last_reported":1769419482,"current_range_meters":8400,"station_id":"","pricing_plan_id":"cebpf4jnsgd1na2vs0mg"},{"bike_id":"156c8bce-3281-45dc-a6f2-9d1a25826506","system_id":"levelo_inurba_marseille","lat":43.2315,"lon":5.43711,"is_reserved":false,"is_disabled":false,"rental_uris":{"android":"levelo://app?vid=156c8bce-3281-45dc-a6f2-9d1a25826506","ios":"levelo://app?vid=156c8bce-3281-45dc-a6f2-9d1a25826506"},"vehicle_type_id":"4","last_reported":1769419482,"current_range_meters":8400,"station_id":"ce4bhmp2rcd13ifvqgog","pricing_plan_id":"cebpf4jnsgd1na2vs0mg"},{"bike_id":"35a7406f-c3d7-4ad8-baa5-77e0b1066dfe","system_id":"levelo_inurba_marseille","lat":43.28148,"lon":5.4266,"is_reserved":false,"is_disabled":false,"rental_uris":{"android":"levelo://app?vid=35a7406f-c3d7-4ad8-baa5-77e0b1066dfe","ios":"levelo://app?vid=35a7406f-c3d7-4ad8-baa5-77e0b1066dfe"},"vehicle_type_id":"4","last_reported":1769419482,"current_range_meters":8400,"station_id":"ce4bhnh2rcd13ifvqgug","pricing_plan_id":"cebpf4jnsgd1na2vs0mg"},{"bike_id":"4300228c-a74d-4d37-940c-46e3542698e2","system_id":"levelo_inurba_marseille","lat":43.27423,"lon":5.39406,"is_reserved":false,"is_disabled":false,"rental_uris":{"android":"levelo://app?vid=4300228c-a74d-4d37-940c-46e3542698e2","ios":"levelo://app?vid=4300228c-a74d-4d37-940c-46e3542698e2"},"vehicle_type_id":"4","last_reported":1769419482,"current_range_meters":8400,"station_id":"ce4bhdp2rcd13ifvqf20","pricing_plan_id":"cebpf4jnsgd1na2vs0mg"},{"bike_id":"a85c4dff-4d0e-447f-be35-ab46b7400fe4","system_id":"levelo_inurba_marseille","lat":43.24799,"lon":5.37459,"is_reserved":false,"is_disabled":false,"rental_uris":{"android":"levelo://app?vid=a85c4dff-4d0e-447f-be35-ab46b7400fe4","ios":"levelo://app?vid=a85c4dff-4d0e-447f-be35-ab46b7400fe4"},"vehicle_type_id":"4","last_reported":1769419482,"current_range_meters":8400,"station_id":"ce4bhgh2rcd13ifvqfb0","pricing_plan_id":"cebpf4jnsgd1na2vs0mg"},{"bike_id":"bda8d170-c411-43f2-99e3-22f10d72b0e6","system_id":"levelo_inurba_marseille","lat":43.23151,"lon":5.43714,"is_reserved":false,"is_disabled":false,"rental_uris":{"android":"levelo://app?vid=bda8d170-c411-43f2-99e3-22f10d72b0e6","ios":"levelo://app?vid=bda8d170-c411-43f2-99e3-22f10d72b0e6"},"vehicle_type_id":"4","last_reported":1769419482,"current_range_meters":8400,"station_id":"ce4bhmp2rcd13ifvqgog","pricing_plan_id":"cebpf4jnsgd1na2vs0mg"},{"bike_id":"03628ce2-f90f-4215-9e8f-4d1a2c153b49","system_id":"levelo_inurba_marseille","lat":43.24553,"lon":5.37314,"is_reserved":false,"is_disabled":false,"rental_uris":{"android":"levelo://app?vid=03628ce2-f90f-4215-9e8f-4d1a2c153b49","ios":"levelo://app?vid=03628ce2-f90f-4215-9e8f-4d1a2c153b49"},"vehicle_type_id":"4","last_reported":1769419482,"current_range_meters":8400,"station_id":"","pricing_plan_id":"cebpf4jnsgd1na2vs0mg"},{"bike_id":"d0d3dda1-eafb-40d7-b14b-46599c7ec30d","system_id":"levelo_inurba_marseille","lat":43.3092,"lon":5.36854,"is_reserved":false,"is_disabled":false,"rental_uris":{"android":"levelo://app?vid=d0d3dda1-eafb-40d7-b14b-46599c7ec30d","ios":"levelo://app?vid=d0d3dda1-eafb-40d7-b14b-46599c7ec30d"},"vehicle_type_id":"4","last_reported":1769419482,"current_range_meters":8400,"station_id":"ce4bgn92rcd13ifvqbvg","pricing_plan_id":"cebpf4jnsgd1na2vs0mg"},{"bike_id":"d71141cf-6b2b-4705-95de-e5efad96fdab","system_id":"levelo_inurba_marseille","lat":43.24614,"lon":5.43122,"is_reserved":false,"is_disabled":false,"rental_uris":{"android":"levelo://app?vid=d71141cf-6b2b-4705-95de-e5efad96fdab","ios":"levelo://app?vid=d71141cf-6b2b-4705-95de-e5efad96fdab"},"vehicle_type_id":"4","last_reported":1769419482,"current_range_meters":8400,"station_id":"st_d2m6c4gdas8pm72e190g","pricing_plan_id":"cebpf4jnsgd1na2vs0mg"},{"bike_id":"61f9b512-dfe2-4c6f-b9eb-0a539aacc6ab","system_id":"levelo_inurba_marseille","lat":43.29894,"lon":5.43666,"is_reserved":false,"is_disabled":false,"rental_uris":{"android":"levelo://app?vid=61f9b512-dfe2-4c6f-b9eb-0a539aacc6ab","ios":"levelo://app?vid=61f9b512-dfe2-4c6f-b9eb-0a539aacc6ab"},"vehicle_type_id":"4","last_reported":1769419482,"current_range_meters":8400,"station_id":"ce4bhpp2rcd13ifvqhfg","pricing_plan_id":"cebpf4jnsgd1na2vs0mg"},{"bike_id":"9e02e5de-eacb-4b0e-8638-9f63bf26c0dd","system_id":"levelo_inurba_marseille","lat":43.28481,"lon":5.38425,"is_reserved":false,"is_disabled":false,"rental_uris":{"android":"levelo://app?vid=9e02e5de-eacb-4b0e-8638-9f63bf26c0dd","ios":"levelo://app?vid=9e02e5de-eacb-4b0e-8638-9f63bf26c0dd"},"vehicle_type_id":"4","last_reported":1769419482,"current_range_meters":8400,"station_id":"ce4bh512rcd13ifvqe3g","pricing_plan_id":"cebpf4jnsgd1na2vs0mg"},{"bike_id":"92592a06-0990-4c2f-82f0-42b005d09c8b","system_id":"levelo_inurba_marseille","lat":43.29461,"lon":5.43318,"is_reserved":false,"is_disabled":false,"rental_uris":{"android":"levelo://app?vid=92592a06-0990-4c2f-82f0-42b005d09c8b","ios":"levelo://app?vid=92592a06-0990-4c2f-82f0-42b005d09c8b"},"vehicle_type_id":"4","last_reported":1769419482,"current_range_meters":8400,"station_id":"st_d3j5ugp08ojc73fj9d10","pricing_plan_id":"cebpf4jnsgd1na2vs0mg"},{"bike_id":"b41b0cf3-784b-4b23-ac5c-34b4e01491fd","system_id":"levelo_inurba_marseille","lat":43.30967,"lon":5.39044,"is_reserved":false,"is_disabled":false,"rental_uris":{"android":"levelo://app?vid=b41b0cf3-784b-4b23-ac5c-34b4e01491fd","ios":"levelo://app?vid=b41b0cf3-784b-4b23-ac5c-34b4e01491fd"},"vehicle_type_id":"4","last_reported":1769419482,"current_range_meters":8400,"station_id":"ce4bgup2rcd13ifvqco0","pricing_plan_id":"cebpf4jnsgd1na2vs0mg"},{"bike_id":"42452bdb-f6c9-4dff-89c2-c512c7b0659c","system_id":"levelo_inurba_marseille","lat":43.29907,"lon":5.37199,"is_reserved":false,"is_disabled":false,"rental_uris":{"android":"levelo://app?vid=42452bdb-f6c9-4dff-89c2-c512c7b0659c","ios":"levelo://app?vid=42452bdb-f6c9-4dff-89c2-c512c7b0659c"},"vehicle_type_id":"4","last_reported":1769419482,"current_range_meters":8400,"station_id":"ce4bgr92rcd13ifvqc7g","pricing_plan_id":"cebpf4jnsgd1na2vs0mg"},{"bike_id":"b93b378b-7ee8-4d28-b1c7-f407f76fd0e5","system_id":"levelo_inurba_marseille","lat":43.273,"lon":5.3913,"is_reserved":false,"is_disabled":false,"rental_uris":{"android":"levelo://app?vid=b93b378b-7ee8-4d28-b1c7-f407f76fd0e5","ios":"levelo://app?vid=b93b378b-7ee8-4d28-b1c7-f407f76fd0e5"},"vehicle_type_id":"4","last_reported":1769419482,"current_range_meters":8400,"station_id":"ce4bhgp2rcd13ifvqfe0","pricing_plan_id":"cebpf4jnsgd1na2vs0mg"},{"bike_id":"c060f6fe-9c22-4601-a3d6-b324dc7e883d","system_id":"levelo_inurba_marseille","lat":43.22926,"lon":5.3538,"is_reserved":false,"is_disabled":false,"rental_uris":{"android":"levelo://app?vid=c060f6fe-9c22-4601-a3d6-b324dc7e883d","ios":"levelo://app?vid=c060f6fe-9c22-4601-a3d6-b324dc7e883d"},"vehicle_type_id":"4","last_reported":1769419482,"current_range_meters":8400,"station_id":"cpo3532slgdg3j2ikp40","pricing_plan_id":"cebpf4jnsgd1na2vs0mg"},{"bike_id":"cf1c8a54-0712-4cbf-b496-062868929476","system_id":"levelo_inurba_marseille","lat":43.30145,"lon":5.3741,"is_reserved":false,"is_disabled":false,"rental_uris":{"android":"levelo://app?vid=cf1c8a54-0712-4cbf-b496-062868929476","ios":"levelo://app?vid=cf1c8a54-0712-4cbf-b496-062868929476"},"vehicle_type_id":"4","last_reported":1769419482,"current_range_meters":8400,"station_id":"ce4bgs92rcd13ifvqcc0","pricing_plan_id":"cebpf4jnsgd1na2vs0mg"},{"bike_id":"2ea93c3a-0d0a-472b-b231-85dc213d24b7","system_id":"levelo_inurba_marseille","lat":43.250026,"lon":5.389257,"is_reserved":false,"is_disabled":false,"rental_uris":{"android":"levelo://app?vid=2ea93c3a-0d0a-472b-b231-85dc213d24b7","ios":"levelo://app?vid=2ea93c3a-0d0a-472b-b231-85dc213d24b7"},"vehicle_type_id":"4","last_reported":1769419482,"current_range_meters":8400,"station_id":"ce4bhgp2rcd13ifvqfd0","pricing_plan_id":"cebpf4jnsgd1na2vs0mg"},{"bike_id":"5c18bca9-46cd-42a4-bd07-ba7493ce75f5","system_id":"levelo_inurba_marseille","lat":43.24634,"lon":5.4316,"is_reserved":false,"is_disabled":false,"rental_uris":{"android":"levelo://app?vid=5c18bca9-46cd-42a4-bd07-ba7493ce75f5","ios":"levelo://app?vid=5c18bca9-46cd-42a4-bd07-ba7493ce75f5"},"vehicle_type_id":"4","last_reported":1769419482,"current_range_meters":8400,"station_id":"st_d2m6c4gdas8pm72e190g","pricing_plan_id":"cebpf4jnsgd1na2vs0mg"},{"bike_id":"ac5add71-2765-40e5-8faa-ea1f70141290","system_id":"levelo_inurba_marseille","lat":43.22919,"lon":5.35384,"is_reserved":false,"is_disabled":false,"rental_uris":{"android":"levelo://app?vid=ac5add71-2765-40e5-8faa-ea1f70141290","ios":"levelo://app?vid=ac5add71-2765-40e5-8faa-ea1f70141290"},"vehicle_type_id":"4","last_reported":1769419482,"current_range_meters":8400,"station_id":"cpo3532slgdg3j2ikp40","pricing_plan_id":"cebpf4jnsgd1na2vs0mg"},{"bike_id":"58287c8f-a0fc-4092-b914-92a84c7259d5","system_id":"levelo_inurba_marseille","lat":43.24637,"lon":5.38897,"is_reserved":false,"is_disabled":false,"rental_uris":{"android":"levelo://app?vid=58287c8f-a0fc-4092-b914-92a84c7259d5","ios":"levelo://app?vid=58287c8f-a0fc-4092-b914-92a84c7259d5"},"vehicle_type_id":"4","last_reported":1769419482,"current_range_meters":8400,"station_id":"ce4bhg12rcd13ifvqf60","pricing_plan_id":"cebpf4jnsgd1na2vs0mg"},{"bike_id":"280a13b4-0510-4b91-ba26-ba42712332a8","system_id":"levelo_inurba_marseille","lat":43.29939,"lon":5.37452,"is_reserved":false,"is_disabled":false,"rental_uris":{"android":"levelo://app?vid=280a13b4-0510-4b91-ba26-ba42712332a8","ios":"levelo://app?vid=280a13b4-0510-4b91-ba26-ba42712332a8"},"vehicle_type_id":"4","last_reported":1769419482,"current_range_meters":8400,"station_id":"ce4bgjh2rcd13ifvqbg0","pricing_plan_id":"cebpf4jnsgd1na2vs0mg"},{"bike_id":"f09c06aa-a05d-4b00-b228-d8bee2b62b4f","system_id":"levelo_inurba_marseille","lat":43.32363,"lon":5.36767,"is_reserved":false,"is_disabled":false,"rental_uris":{"android":"levelo://app?vid=f09c06aa-a05d-4b00-b228-d8bee2b62b4f","ios":"levelo://app?vid=f09c06aa-a05d-4b00-b228-d8bee2b62b4f"},"vehicle_type_id":"4","last_reported":1769419482,"current_range_meters":8800,"station_id":"ce4bhsh2rcd13ifvqi2g","pricing_plan_id":"cebpf4jnsgd1na2vs0mg"},{"bike_id":"476fffc4-e48d-4c5f-b8d8-f007a167adcb","system_id":"levelo_inurba_marseille","lat":43.26222,"lon":5.38819,"is_reserved":false,"is_disabled":false,"rental_uris":{"android":"levelo://app?vid=476fffc4-e48d-4c5f-b8d8-f007a167adcb","ios":"levelo://app?vid=476fffc4-e48d-4c5f-b8d8-f007a167adcb"},"vehicle_type_id":"4","last_reported":1769419482,"current_range_meters":8800,"station_id":"","pricing_plan_id":"cebpf4jnsgd1na2vs0mg"},{"bike_id":"908b886e-cc4b-4226-b372-446a0d3f1b77","system_id":"levelo_inurba_marseille","lat":43.23191,"lon":5.35568,"is_reserved":false,"is_disabled":false,"rental_uris":{"android":"levelo://app?vid=908b886e-cc4b-4226-b372-446a0d3f1b77","ios":"levelo://app?vid=908b886e-cc4b-4226-b372-446a0d3f1b77"},"vehicle_type_id":"4","last_reported":1769419482,"current_range_meters":8800,"station_id":"ce4bhu92rcd13ifvqi70","pricing_plan_id":"cebpf4jnsgd1na2vs0mg"},{"bike_id":"c33116af-6475-4731-8424-4d7e5005cbf0","system_id":"levelo_inurba_marseille","lat":43.30543,"lon":5.36714,"is_reserved":false,"is_disabled":false,"rental_uris":{"android":"levelo://app?vid=c33116af-6475-4731-8424-4d7e5005cbf0","ios":"levelo://app?vid=c33116af-6475-4731-8424-4d7e5005cbf0"},"vehicle_type_id":"4","last_reported":1769419482,"current_range_meters":8800,"station_id":"ce4bgrp2rcd13ifvqc9g","pricing_plan_id":"cebpf4jnsgd1na2vs0mg"},{"bike_id":"0bd3fd33-ca42-4b1b-b0cd-6ec4b1ecd569","system_id":"levelo_inurba_marseille","lat":43.32585,"lon":5.37886,"is_reserved":false,"is_disabled":false,"rental_uris":{"android":"levelo://app?vid=0bd3fd33-ca42-4b1b-b0cd-6ec4b1ecd569","ios":"levelo://app?vid=0bd3fd33-ca42-4b1b-b0cd-6ec4b1ecd569"},"vehicle_type_id":"4","last_reported":1769419482,"current_range_meters":8800,"station_id":"","pricing_plan_id":"cebpf4jnsgd1na2vs0mg"},{"bike_id":"5b91b93d-b3ae-4751-8498-b1dabc506a1f","system_id":"levelo_inurba_marseille","lat":43.24474,"lon":5.42539,"is_reserved":false,"is_disabled":false,"rental_uris":{"android":"levelo://app?vid=5b91b93d-b3ae-4751-8498-b1dabc506a1f","ios":"levelo://app?vid=5b91b93d-b3ae-4751-8498-b1dabc506a1f"},"vehicle_type_id":"4","last_reported":1769419482,"current_range_meters":8800,"station_id":"st_d4a3vfp97mjs738cd8kg","pricing_plan_id":"cebpf4jnsgd1na2vs0mg"},{"bike_id":"28820609-d4f9-4f12-ae32-2cb1905ac29b","system_id":"levelo_inurba_marseille","lat":43.24384,"lon":5.37089,"is_reserved":false,"is_disabled":false,"rental_uris":{"android":"levelo://app?vid=28820609-d4f9-4f12-ae32-2cb1905ac29b","ios":"levelo://app?vid=28820609-d4f9-4f12-ae32-2cb1905ac29b"},"vehicle_type_id":"4","last_reported":1769419482,"current_range_meters":8800,"station_id":"ce4bhhh2rcd13ifvqfk0","pricing_plan_id":"cebpf4jnsgd1na2vs0mg"},{"bike_id":"a57ac1b9-36db-4721-8a5f-8013a4daf2e4","system_id":"levelo_inurba_marseille","lat":43.28547,"lon":5.44098,"is_reserved":false,"is_disabled":false,"rental_uris":{"android":"levelo://app?vid=a57ac1b9-36db-4721-8a5f-8013a4daf2e4","ios":"levelo://app?vid=a57ac1b9-36db-4721-8a5f-8013a4daf2e4"},"vehicle_type_id":"4","last_reported":1769419482,"current_range_meters":8800,"station_id":"st_d3j3df2ikq2c7380ej80","pricing_plan_id":"cebpf4jnsgd1na2vs0mg"},{"bike_id":"4c5e84a3-878b-4e80-a848-d4891b4199bc","system_id":"levelo_inurba_marseille","lat":43.32356,"lon":5.36769,"is_reserved":false,"is_disabled":false,"rental_uris":{"android":"levelo://app?vid=4c5e84a3-878b-4e80-a848-d4891b4199bc","ios":"levelo://app?vid=4c5e84a3-878b-4e80-a848-d4891b4199bc"},"vehicle_type_id":"4","last_reported":1769419482,"current_range_meters":8800,"station_id":"ce4bhsh2rcd13ifvqi2g","pricing_plan_id":"cebpf4jnsgd1na2vs0mg"},{"bike_id":"c12b1cb8-7a6b-4288-a3c0-935481d86450","system_id":"levelo_inurba_marseille","lat":43.32484,"lon":5.36581,"is_reserved":false,"is_disabled":false,"rental_uris":{"android":"levelo://app?vid=c12b1cb8-7a6b-4288-a3c0-935481d86450","ios":"levelo://app?vid=c12b1cb8-7a6b-4288-a3c0-935481d86450"},"vehicle_type_id":"4","last_reported":1769419482,"current_range_meters":8800,"station_id":"ce4bhs12rcd13ifvqhvg","pricing_plan_id":"cebpf4jnsgd1na2vs0mg"},{"bike_id":"5be68105-477a-4926-9923-7b5ffbb88956","system_id":"levelo_inurba_marseille","lat":43.28523,"lon":5.44116,"is_reserved":false,"is_disabled":false,"rental_uris":{"android":"levelo://app?vid=5be68105-477a-4926-9923-7b5ffbb88956","ios":"levelo://app?vid=5be68105-477a-4926-9923-7b5ffbb88956"},"vehicle_type_id":"4","last_reported":1769419482,"current_range_meters":8800,"station_id":"st_d3j3df2ikq2c7380ej80","pricing_plan_id":"cebpf4jnsgd1na2vs0mg"},{"bike_id":"87b293e5-58a4-49e9-94f1-7e73bf5e1554","system_id":"levelo_inurba_marseille","lat":43.28852,"lon":5.42519,"is_reserved":false,"is_disabled":false,"rental_uris":{"android":"levelo://app?vid=87b293e5-58a4-49e9-94f1-7e73bf5e1554","ios":"levelo://app?vid=87b293e5-58a4-49e9-94f1-7e73bf5e1554"},"vehicle_type_id":"4","last_reported":1769419482,"current_range_meters":8800,"station_id":"st_d3b462108ojc7389ooeg","pricing_plan_id":"cebpf4jnsgd1na2vs0mg"},{"bike_id":"942cf772-799e-4446-93c7-7868c7549133","system_id":"levelo_inurba_marseille","lat":43.29602,"lon":5.37721,"is_reserved":false,"is_disabled":false,"rental_uris":{"android":"levelo://app?vid=942cf772-799e-4446-93c7-7868c7549133","ios":"levelo://app?vid=942cf772-799e-4446-93c7-7868c7549133"},"vehicle_type_id":"4","last_reported":1769419482,"current_range_meters":8800,"station_id":"ce4bgi92rcd13ifvqb90","pricing_plan_id":"cebpf4jnsgd1na2vs0mg"},{"bike_id":"539af392-7350-492a-86ff-031e626096d7","system_id":"levelo_inurba_marseille","lat":43.32351,"lon":5.36741,"is_reserved":false,"is_disabled":false,"rental_uris":{"android":"levelo://app?vid=539af392-7350-492a-86ff-031e626096d7","ios":"levelo://app?vid=539af392-7350-492a-86ff-031e626096d7"},"vehicle_type_id":"4","last_reported":1769419482,"current_range_meters":9200,"station_id":"ce4bhsh2rcd13ifvqi2g","pricing_plan_id":"cebpf4jnsgd1na2vs0mg"},{"bike_id":"20ce1705-6529-4fbc-ae1b-de3e323a7166","system_id":"levelo_inurba_marseille","lat":43.29848,"lon":5.36258,"is_reserved":false,"is_disabled":false,"rental_uris":{"android":"levelo://app?vid=20ce1705-6529-4fbc-ae1b-de3e323a7166","ios":"levelo://app?vid=20ce1705-6529-4fbc-ae1b-de3e323a7166"},"vehicle_type_id":"4","last_reported":1769419482,"current_range_meters":9200,"station_id":"ce4bgpp2rcd13ifvqc3g","pricing_plan_id":"cebpf4jnsgd1na2vs0mg"},{"bike_id":"22b57ffe-6432-4cb1-bb4b-adaef906b37f","system_id":"levelo_inurba_marseille","lat":43.32433,"lon":5.3655,"is_reserved":false,"is_disabled":false,"rental_uris":{"android":"levelo://app?vid=22b57ffe-6432-4cb1-bb4b-adaef906b37f","ios":"levelo://app?vid=22b57ffe-6432-4cb1-bb4b-adaef906b37f"},"vehicle_type_id":"4","last_reported":1769419482,"current_range_meters":9200,"station_id":"ce4bhs12rcd13ifvqhvg","pricing_plan_id":"cebpf4jnsgd1na2vs0mg"},{"bike_id":"97d1eda0-a9af-4c4a-9c8b-3b1301d74ec8","system_id":"levelo_inurba_marseille","lat":43.22933,"lon":5.35393,"is_reserved":false,"is_disabled":false,"rental_uris":{"android":"levelo://app?vid=97d1eda0-a9af-4c4a-9c8b-3b1301d74ec8","ios":"levelo://app?vid=97d1eda0-a9af-4c4a-9c8b-3b1301d74ec8"},"vehicle_type_id":"4","last_reported":1769419482,"current_range_meters":9200,"station_id":"cpo3532slgdg3j2ikp40","pricing_plan_id":"cebpf4jnsgd1na2vs0mg"},{"bike_id":"8f786e1a-e433-4a4d-a2dc-4f60de0161dc","system_id":"levelo_inurba_marseille","lat":43.2501,"lon":5.3893,"is_reserved":false,"is_disabled":false,"rental_uris":{"android":"levelo://app?vid=8f786e1a-e433-4a4d-a2dc-4f60de0161dc","ios":"levelo://app?vid=8f786e1a-e433-4a4d-a2dc-4f60de0161dc"},"vehicle_type_id":"4","last_reported":1769419482,"current_range_meters":9200,"station_id":"ce4bhgp2rcd13ifvqfd0","pricing_plan_id":"cebpf4jnsgd1na2vs0mg"},{"bike_id":"77985e8e-10d2-4b44-bb3e-f21b858698bc","system_id":"levelo_inurba_marseille","lat":43.299222,"lon":5.374735,"is_reserved":false,"is_disabled":false,"rental_uris":{"android":"levelo://app?vid=77985e8e-10d2-4b44-bb3e-f21b858698bc","ios":"levelo://app?vid=77985e8e-10d2-4b44-bb3e-f21b858698bc"},"vehicle_type_id":"4","last_reported":1769419482,"current_range_meters":9200,"station_id":"ce4bgjh2rcd13ifvqbg0","pricing_plan_id":"cebpf4jnsgd1na2vs0mg"},{"bike_id":"aaf68de7-a8ba-4f2c-b543-643a8694a695","system_id":"levelo_inurba_marseille","lat":43.24811,"lon":5.37452,"is_reserved":false,"is_disabled":false,"rental_uris":{"android":"levelo://app?vid=aaf68de7-a8ba-4f2c-b543-643a8694a695","ios":"levelo://app?vid=aaf68de7-a8ba-4f2c-b543-643a8694a695"},"vehicle_type_id":"4","last_reported":1769419482,"current_range_meters":9200,"station_id":"ce4bhgh2rcd13ifvqfb0","pricing_plan_id":"cebpf4jnsgd1na2vs0mg"},{"bike_id":"e6e61470-5308-4cc0-a5b6-5d7cd3541145","system_id":"levelo_inurba_marseille","lat":43.2495,"lon":5.40534,"is_reserved":false,"is_disabled":false,"rental_uris":{"android":"levelo://app?vid=e6e61470-5308-4cc0-a5b6-5d7cd3541145","ios":"levelo://app?vid=e6e61470-5308-4cc0-a5b6-5d7cd3541145"},"vehicle_type_id":"4","last_reported":1769419482,"current_range_meters":9200,"station_id":"st_d2ngiaodas8pm72gd1h0","pricing_plan_id":"cebpf4jnsgd1na2vs0mg"},{"bike_id":"628d1d29-948b-4815-bc3f-a0ef2ac1c781","system_id":"levelo_inurba_marseille","lat":43.24169,"lon":5.36379,"is_reserved":false,"is_disabled":false,"rental_uris":{"android":"levelo://app?vid=628d1d29-948b-4815-bc3f-a0ef2ac1c781","ios":"levelo://app?vid=628d1d29-948b-4815-bc3f-a0ef2ac1c781"},"vehicle_type_id":"4","last_reported":1769419482,"current_range_meters":9200,"station_id":"cpo36qri1sfpv3e86is0","pricing_plan_id":"cebpf4jnsgd1na2vs0mg"},{"bike_id":"858709b7-6d30-4729-85a5-b7674a1ae0c6","system_id":"levelo_inurba_marseille","lat":43.27313,"lon":5.39078,"is_reserved":false,"is_disabled":false,"rental_uris":{"android":"levelo://app?vid=858709b7-6d30-4729-85a5-b7674a1ae0c6","ios":"levelo://app?vid=858709b7-6d30-4729-85a5-b7674a1ae0c6"},"vehicle_type_id":"4","last_reported":1769419482,"current_range_meters":9200,"station_id":"","pricing_plan_id":"cebpf4jnsgd1na2vs0mg"},{"bike_id":"7bd6d805-b68f-46a2-8696-18247a4b8c1e","system_id":"levelo_inurba_marseille","lat":43.3234,"lon":5.36766,"is_reserved":false,"is_disabled":false,"rental_uris":{"android":"levelo://app?vid=7bd6d805-b68f-46a2-8696-18247a4b8c1e","ios":"levelo://app?vid=7bd6d805-b68f-46a2-8696-18247a4b8c1e"},"vehicle_type_id":"4","last_reported":1769419482,"current_range_meters":9200,"station_id":"ce4bhsh2rcd13ifvqi2g","pricing_plan_id":"cebpf4jnsgd1na2vs0mg"},{"bike_id":"1e6ae573-7b0d-4ca7-8d21-23950df7df4a","system_id":"levelo_inurba_marseille","lat":43.28537,"lon":5.44126,"is_reserved":false,"is_disabled":false,"rental_uris":{"android":"levelo://app?vid=1e6ae573-7b0d-4ca7-8d21-23950df7df4a","ios":"levelo://app?vid=1e6ae573-7b0d-4ca7-8d21-23950df7df4a"},"vehicle_type_id":"4","last_reported":1769419482,"current_range_meters":9200,"station_id":"st_d3j3df2ikq2c7380ej80","pricing_plan_id":"cebpf4jnsgd1na2vs0mg"},