{"last_updated":1747912164,"ttl":60,"version":"2.2","data":{"bikes":[{"bike_id":"c0b9fd4f-e181-46ce-b0bf-f5119973334f","system_id":"levelo_inurba_marseille","lat":43.33771,"lon":5.37424,"is_reserved":false,"is_disabled":true,"rental_uris":{"android":"levelo://app?vid=c0b9fd4f-e181-46ce-b0bf-f5119973334f","ios":"levelo://app?vid=c0b9fd4f-e181-46ce-b0bf-f5119973334f"},"vehicle_type_id":"4","last_reported":1747912165,"current_range_meters":0,"station_id":"","pricing_plan_id":"cebpf4jnsgd1na2vs0mg"},{"bike_id":"99f73d8c-ff21-451c-8082-80384eaeabfc","system_id":"levelo_inurba_marseille","lat":43.305589,"lon":5.401609,"is_reserved":false,"is_disabled":true,"rental_uris":{"android":"levelo://app?vid=99f73d8c-ff21-451c-8082-80384eaeabfc","ios":"levelo://app?vid=99f73d8c-ff21-451c-8082-80384eaeabfc"},"vehicle_type_id":"4","last_reported":1747912165,"current_range_meters":0,"station_id":"","pricing_plan_id":"cebpf4jnsgd1na2vs0mg"},{"bike_id":"c306fa7d-481e-4ae3-9585-ff4c1f5ddcb9","system_id":"levelo_inurba_marseille","lat":43.34991,"lon":5.379413,"is_reserved":false,"is_disabled":true,"rental_uris":{"android":"levelo://app?vid=c306fa7d-481e-4ae3-9585-ff4c1f5ddcb9","ios":"levelo://app?vid=c306fa7d-481e-4ae3-9585-ff4c1f5ddcb9"},"vehicle_type_id":"4","last_reported":1747912165,"current_range_meters":0,"station_id":"","pricing_plan_id":"cebpf4jnsgd1na2vs0mg"},{"bike_id":"c2b4a03e-0b64-4ca0-8ea3-612bc6668100","system_id":"levelo_inurba_marseille","lat":43.314856,"lon":5.373125,"is_reserved":false,"is_disabled":true,"rental_uris":{"android":"levelo://app?vid=c2b4a03e-0b64-4ca0-8ea3-612bc6668100","ios":"levelo://app?vid=c2b4a03e-0b64-4ca0-8ea3-612bc6668100"},"vehicle_type_id":"4","last_reported":1747912165,"current_range_meters":0,"station_id":"","pricing_plan_id":"cebpf4jnsgd1na2vs0mg"},{"bike_id":"8f0f531d-6a65-4647-8a6f-baa3d982f42f","system_id":"levelo_inurba_marseille","lat":43.28117,"lon":5.42562,"is_reserved":false,"is_disabled":true,"rental_uris":{"android":"levelo://app?vid=8f0f531d-6a65-4647-8a6f-baa3d982f42f","ios":"levelo://app?vid=8f0f531d-6a65-4647-8a6f-baa3d982f42f"},"vehicle_type_id":"4","last_reported":1747912165,"current_range_meters":0,"station_id":"","pricing_plan_id":"cebpf4jnsgd1na2vs0mg"},{"bike_id":"a5bcf3ab-5daa-4dec-898b-27b2e944e103","system_id":"levelo_inurba_marseille","lat":43.27284,"lon":5.41037,"is_reserved":false,"is_disabled":true,"rental_uris":{"android":"levelo://app?vid=a5bcf3ab-5daa-4dec-898b-27b2e944e103","ios":"levelo://app?vid=a5bcf3ab-5daa-4dec-898b-27b2e944e103"},"vehicle_type_id":"4","last_reported":1747912165,"current_range_meters":0,"station_id":"","pricing_plan_id":"cebpf4jnsgd1na2vs0mg"},{"bike_id":"85eaca89-9437-48d0-9bca-a254337b88db","system_id":"levelo_inurba_marseille","lat":43.27456,"lon":5.40957,"is_reserved":false,"is_disabled":true,"rental_uris":{"android":"levelo://app?vid=85eaca89-9437-48d0-9bca-a254337b88db","ios":"levelo://app?vid=85eaca89-9437-48d0-9bca-a254337b88db"},"vehicle_type_id":"4","last_reported":1747912165,"current_range_meters":0,"station_id":"","pricing_plan_id":"cebpf4jnsgd1na2vs0mg"},{"bike_id":"e9dd3aa4-b5e7-4480-926d-d7f537719bfa","system_id":"levelo_inurba_marseille","lat":43.230331,"lon":5.401847,"is_reserved":false,"is_disabled":true,"rental_uris":{"android":"levelo://app?vid=e9dd3aa4-b5e7-4480-926d-d7f537719bfa","ios":"levelo://app?vid=e9dd3aa4-b5e7-4480-926d-d7f537719bfa"},"vehicle_type_id":"4","last_reported":1747912165,"current_range_meters":0,"station_id":"","pricing_plan_id":"cebpf4jnsgd1na2vs0mg"},{"bike_id":"14603e41-b2dd-4757-a53c-2e366aa4f983","system_id":"levelo_inurba_marseille","lat":43.269968,"lon":5.428127,"is_reserved":false,"is_disabled":true,"rental_uris":{"android":"levelo://app?vid=14603e41-b2dd-4757-a53c-2e366aa4f983","ios":"levelo://app?vid=14603e41-b2dd-4757-a53c-2e366aa4f983"},"vehicle_type_id":"4","last_reported":1747912165,"current_range_meters":0,"station_id":"","pricing_plan_id":"cebpf4jnsgd1na2vs0mg"},{"bike_id":"bf9a47c3-1332-47d3-9f10-1c6263f4cc25","system_id":"levelo_inurba_marseille","lat":43.30955,"lon":5.39033,"is_reserved":false,"is_disabled":true,"rental_uris":{"android":"levelo://app?vid=bf9a47c3-1332-47d3-9f10-1c6263f4cc25","ios":"levelo://app?vid=bf9a47c3-1332-47d3-9f10-1c6263f4cc25"},"vehicle_type_id":"4","last_reported":1747912165,"current_range_meters":0,"station_id":"ce4bgup2rcd13ifvqco0","pricing_plan_id":"cebpf4jnsgd1na2vs0mg"},{"bike_id":"e1ab9806-d42d-49e5-99e1-d42b04f706dc","system_id":"levelo_inurba_marseille","lat":43.28667,"lon":5.38652,"is_reserved":false,"is_disabled":true,"rental_uris":{"android":"levelo://app?vid=e1ab9806-d42d-49e5-99e1-d42b04f706dc","ios":"levelo://app?vid=e1ab9806-d42d-49e5-99e1-d42b04f706dc"},"vehicle_type_id":"4","last_reported":1747912165,"current_range_meters":0,"station_id":"ce4bh492rcd13ifvqdug","pricing_plan_id":"cebpf4jnsgd1na2vs0mg"},{"bike_id":"c3067668-6d9b-4f3f-a6fe-67f8f193d20d","system_id":"levelo_inurba_marseille","lat":43.28355,"lon":5.38632,"is_reserved":false,"is_disabled":true,"rental_uris":{"android":"levelo://app?vid=c3067668-6d9b-4f3f-a6fe-67f8f193d20d","ios":"levelo://app?vid=c3067668-6d9b-4f3f-a6fe-67f8f193d20d"},"vehicle_type_id":"4","last_reported":1747912165,"current_range_meters":0,"station_id":"ce4bh492rcd13ifvqdvg","pricing_plan_id":"cebpf4jnsgd1na2vs0mg"},{"bike_id":"28f5641c-3b88-45e6-8a4e-c4db2aff452a","system_id":"levelo_inurba_marseille","lat":43.2802,"lon":5.36938,"is_reserved":false,"is_disabled":true,"rental_uris":{"android":"levelo://app?vid=28f5641c-3b88-45e6-8a4e-c4db2aff452a","ios":"levelo://app?vid=28f5641c-3b88-45e6-8a4e-c4db2aff452a"},"vehicle_type_id":"4","last_reported":1747912165,"current_range_meters":0,"station_id":"ce4bha12rcd13ifvqef0","pricing_plan_id":"cebpf4jnsgd1na2vs0mg"},{"bike_id":"ec48a712-deed-40d6-8f8e-8e8b2eb226c1","system_id":"levelo_inurba_marseille","lat":43.24391,"lon":5.37058,"is_reserved":false,"is_disabled":true,"rental_uris":{"android":"levelo://app?vid=ec48a712-deed-40d6-8f8e-8e8b2eb226c1","ios":"levelo://app?vid=ec48a712-deed-40d6-8f8e-8e8b2eb226c1"},"vehicle_type_id":"4","last_reported":1747912165,"current_range_meters":0,"station_id":"ce4bhhh2rcd13ifvqfk0","pricing_plan_id":"cebpf4jnsgd1na2vs0mg"},{"bike_id":"70c5c5ad-5e66-4a49-9450-c4d67d96b788","system_id":"levelo_inurba_marseille","lat":43.27098,"lon":5.42712,"is_reserved":false,"is_disabled":true,"rental_uris":{"android":"levelo://app?vid=70c5c5ad-5e66-4a49-9450-c4d67d96b788","ios":"levelo://app?vid=70c5c5ad-5e66-4a49-9450-c4d67d96b788"},"vehicle_type_id":"4","last_reported":1747912165,"current_range_meters":400,"station_id":"","pricing_plan_id":"cebpf4jnsgd1na2vs0mg"},{"bike_id":"9583e5cb-dbbc-4d4a-afc8-6c32fda59108","system_id":"levelo_inurba_marseille","lat":43.31212,"lon":5.36828,"is_reserved":false,"is_disabled":true,"rental_uris":{"android":"levelo://app?vid=9583e5cb-dbbc-4d4a-afc8-6c32fda59108","ios":"levelo://app?vid=9583e5cb-dbbc-4d4a-afc8-6c32fda59108"},"vehicle_type_id":"4","last_reported":1747912165,"current_range_meters":400,"station_id":"ce4bgl92rcd13ifvqbq0","pricing_plan_id":"cebpf4jnsgd1na2vs0mg"},{"bike_id":"01a0f807-90c1-494f-b97b-4a6dd422fa13","system_id":"levelo_inurba_marseille","lat":43.244993,"lon":5.395467,"is_reserved":false,"is_disabled":true,"rental_uris":{"android":"levelo://app?vid=01a0f807-90c1-494f-b97b-4a6dd422fa13","ios":"levelo://app?vid=01a0f807-90c1-494f-b97b-4a6dd422fa13"},"vehicle_type_id":"4","last_reported":1747912165,"current_range_meters":400,"station_id":"ce4bhn12rcd13ifvqgpg","pricing_plan_id":"cebpf4jnsgd1na2vs0mg"},{"bike_id":"31475a92-108d-4126-b9fa-23e91db7e0f9","system_id":"levelo_inurba_marseille","lat":43.240777,"lon":5.377568,"is_reserved":false,"is_disabled":true,"rental_uris":{"android":"levelo://app?vid=31475a92-108d-4126-b9fa-23e91db7e0f9","ios":"levelo://app?vid=31475a92-108d-4126-b9fa-23e91db7e0f9"},"vehicle_type_id":"4","last_reported":1747912165,"current_range_meters":400,"station_id":"ce4bhnp2rcd13ifvqgvg","pricing_plan_id":"cebpf4jnsgd1na2vs0mg"},{"bike_id":"6e4a2686-13db-4f09-9bcf-77ad0c1e5df6","system_id":"levelo_inurba_marseille","lat":43.28275,"lon":5.35069,"is_reserved":false,"is_disabled":false,"rental_uris":{"android":"levelo://app?vid=6e4a2686-13db-4f09-9bcf-77ad0c1e5df6","ios":"levelo://app?vid=6e4a2686-13db-4f09-9bcf-77ad0c1e5df6"},"vehicle_type_id":"4","last_reported":1747912165,"current_range_meters":800,"station_id":"ce4bhbp2rcd13ifvqerg","pricing_plan_id":"cebpf4jnsgd1na2vs0mg"},{"bike_id":"14f97d43-57eb-4172-9d2d-4a8dc88b73a0","system_id":"levelo_inurba_marseille","lat":43.27819,"lon":5.40705,"is_reserved":false,"is_disabled":true,"rental_uris":{"android":"levelo://app?vid=14f97d43-57eb-4172-9d2d-4a8dc88b73a0","ios":"levelo://app?vid=14f97d43-57eb-4172-9d2d-4a8dc88b73a0"},"vehicle_type_id":"4","last_reported":1747912165,"current_range_meters":800,"station_id":"ce4bhnh2rcd13ifvqgtg","pricing_plan_id":"cebpf4jnsgd1na2vs0mg"},{"bike_id":"2e826d5d-5d25-4993-854a-107b67a93705","system_id":"levelo_inurba_marseille","lat":43.33595,"lon":5.41034,"is_reserved":false,"is_disabled":true,"rental_uris":{"android":"levelo://app?vid=2e826d5d-5d25-4993-854a-107b67a93705","ios":"levelo://app?vid=2e826d5d-5d25-4993-854a-107b67a93705"},"vehicle_type_id":"4","last_reported":1747912165,"current_range_meters":800,"station_id":"ce4bhqh2rcd13ifvqhmg","pricing_plan_id":"cebpf4jnsgd1na2vs0mg"},{"bike_id":"15dcdbbd-a41e-43eb-9ed6-26ec15ce7a50","system_id":"levelo_inurba_marseille","lat":43.21409,"lon":5.34113,"is_reserved":false,"is_disabled":true,"rental_uris":{"android":"levelo://app?vid=15dcdbbd-a41e-43eb-9ed6-26ec15ce7a50","ios":"levelo://app?vid=15dcdbbd-a41e-43eb-9ed6-26ec15ce7a50"},"vehicle_type_id":"4","last_reported":1747912165,"current_range_meters":1200,"station_id":"","pricing_plan_id":"cebpf4jnsgd1na2vs0mg"},{"bike_id":"fe282bd5-68b3-4304-8328-db759ac881db","system_id":"levelo_inurba_marseille","lat":43.28442,"lon":5.35869,"is_reserved":false,"is_disabled":true,"rental_uris":{"android":"levelo://app?vid=fe282bd5-68b3-4304-8328-db759ac881db","ios":"levelo://app?vid=fe282bd5-68b3-4304-8328-db759ac881db"},"vehicle_type_id":"4","last_reported":1747912165,"current_range_meters":1200,"station_id":"ce4bhah2rcd13ifvqei0","pricing_plan_id":"cebpf4jnsgd1na2vs0mg"},{"bike_id":"ea77c07f-9af6-43f2-bf5d-3d2169c64b46","system_id":"levelo_inurba_marseille","lat":43.24168,"lon":5.36396,"is_reserved":false,"is_disabled":true,"rental_uris":{"android":"levelo://app?vid=ea77c07f-9af6-43f2-bf5d-3d2169c64b46","ios":"levelo://app?vid=ea77c07f-9af6-43f2-bf5d-3d2169c64b46"},"vehicle_type_id":"4","last_reported":1747912165,"current_range_meters":1200,"station_id":"cpo36qri1sfpv3e86is0","pricing_plan_id":"cebpf4jnsgd1na2vs0mg"},{"bike_id":"3d1e4e9a-c99a-4008-a77d-416895b1f654","system_id":"levelo_inurba_marseille","lat":43.31229,"lon":5.3689,"is_reserved":false,"is_disabled":true,"rental_uris":{"android":"levelo://app?vid=3d1e4e9a-c99a-4008-a77d-416895b1f654","ios":"levelo://app?vid=3d1e4e9a-c99a-4008-a77d-416895b1f654"},"vehicle_type_id":"4","last_reported":1747912165,"current_range_meters":1600,"station_id":"ce4bgl92rcd13ifvqbq0","pricing_plan_id":"cebpf4jnsgd1na2vs0mg"},{"bike_id":"b39b5564-25b6-482c-a8ed-75595ba2f676","system_id":"levelo_inurba_marseille","lat":43.270663,"lon":5.42281,"is_reserved":false,"is_disabled":true,"rental_uris":{"android":"levelo://app?vid=b39b5564-25b6-482c-a8ed-75595ba2f676","ios":"levelo://app?vid=b39b5564-25b6-482c-a8ed-75595ba2f676"},"vehicle_type_id":"4","last_reported":1747912165,"current_range_meters":1600,"station_id":"ce4bhk92rcd13ifvqgb0","pricing_plan_id":"cebpf4jnsgd1na2vs0mg"},{"bike_id":"5281ff50-15a3-4882-a775-51088d6a98cc","system_id":"levelo_inurba_marseille","lat":43.31492,"lon":5.37279,"is_reserved":false,"is_disabled":true,"rental_uris":{"android":"levelo://app?vid=5281ff50-15a3-4882-a775-51088d6a98cc","ios":"levelo://app?vid=5281ff50-15a3-4882-a775-51088d6a98cc"},"vehicle_type_id":"4","last_reported":1747912165,"current_range_meters":2000,"station_id":"ce4bgt12rcd13ifvqcd0","pricing_plan_id":"cebpf4jnsgd1na2vs0mg"},{"bike_id":"94deffea-6ae7-46c4-84c3-c2d77df0befb","system_id":"levelo_inurba_marseille","lat":43.31683,"lon":5.40472,"is_reserved":false,"is_disabled":true,"rental_uris":{"android":"levelo://app?vid=94deffea-6ae7-46c4-84c3-c2d77df0befb","ios":"levelo://app?vid=94deffea-6ae7-46c4-84c3-c2d77df0befb"},"vehicle_type_id":"4","last_reported":1747912165,"current_range_meters":2000,"station_id":"ce4bh012rcd13ifvqd00","pricing_plan_id":"cebpf4jnsgd1na2vs0mg"},{"bike_id":"aaa6f3f5-67b4-4ad0-a92e-c4cf164d36c4","system_id":"levelo_inurba_marseille","lat":43.25124,"lon":5.4032,"is_reserved":false,"is_disabled":true,"rental_uris":{"android":"levelo://app?vid=aaa6f3f5-67b4-4ad0-a92e-c4cf164d36c4","ios":"levelo://app?vid=aaa6f3f5-67b4-4ad0-a92e-c4cf164d36c4"},"vehicle_type_id":"4","last_reported":1747912165,"current_range_meters":2000,"station_id":"ce4bhlh2rcd13ifvqgig","pricing_plan_id":"cebpf4jnsgd1na2vs0mg"},{"bike_id":"04266b37-7f30-4280-b532-4035d1b2ae5e","system_id":"levelo_inurba_marseille","lat":43.29973,"lon":5.38509,"is_reserved":false,"is_disabled":false,"rental_uris":{"android":"levelo://app?vid=04266b37-7f30-4280-b532-4035d1b2ae5e","ios":"levelo://app?vid=04266b37-7f30-4280-b532-4035d1b2ae5e"},"vehicle_type_id":"4","last_reported":1747912165,"current_range_meters":2800,"station_id":"ce4bgj92rcd13ifvqbd0","pricing_plan_id":"cebpf4jnsgd1na2vs0mg"},{"bike_id":"3dc3478b-7366-4a3d-a716-3318b9d9bb80","system_id":"levelo_inurba_marseille","lat":43.30973,"lon":5.39024,"is_reserved":false,"is_disabled":false,"rental_uris":{"android":"levelo://app?vid=3dc3478b-7366-4a3d-a716-3318b9d9bb80","ios":"levelo://app?vid=3dc3478b-7366-4a3d-a716-3318b9d9bb80"},"vehicle_type_id":"4","last_reported":1747912165,"current_range_meters":2800,"station_id":"ce4bgup2rcd13ifvqco0","pricing_plan_id":"cebpf4jnsgd1na2vs0mg"},{"bike_id":"addacb63-eaa1-4b88-b2d5-f495030c26ce","system_id":"levelo_inurba_marseille","lat":43.23151,"lon":5.43717,"is_reserved":false,"is_disabled":false,"rental_uris":{"android":"levelo://app?vid=addacb63-eaa1-4b88-b2d5-f495030c26ce","ios":"levelo://app?vid=addacb63-eaa1-4b88-b2d5-f495030c26ce"},"vehicle_type_id":"4","last_reported":1747912165,"current_range_meters":2800,"station_id":"ce4bhmp2rcd13ifvqgog","pricing_plan_id":"cebpf4jnsgd1na2vs0mg"},{"bike_id":"ca1ef42c-a88e-4a5c-bdc1-61570156b583","system_id":"levelo_inurba_marseille","lat":43.23152,"lon":5.43725,"is_reserved":false,"is_disabled":false,"rental_uris":{"android":"levelo://app?vid=ca1ef42c-a88e-4a5c-bdc1-61570156b583","ios":"levelo://app?vid=ca1ef42c-a88e-4a5c-bdc1-61570156b583"},"vehicle_type_id":"4","last_reported":1747912165,"current_range_meters":2800,"station_id":"ce4bhmp2rcd13ifvqgog","pricing_plan_id":"cebpf4jnsgd1na2vs0mg"},{"bike_id":"c2574211-d2d3-4e1f-af62-49d410ca38b7","system_id":"levelo_inurba_marseille","lat":43.28717,"lon":5.39992,"is_reserved":false,"is_disabled":false,"rental_uris":{"android":"levelo://app?vid=c2574211-d2d3-4e1f-af62-49d410ca38b7","ios":"levelo://app?vid=c2574211-d2d3-4e1f-af62-49d410ca38b7"},"vehicle_type_id":"4","last_reported":1747912165,"current_range_meters":2800,"station_id":"ce4bho92rcd13ifvqh3g","pricing_plan_id":"cebpf4jnsgd1na2vs0mg"},{"bike_id":"5c68561c-28de-40ad-a285-2f59f9116211","system_id":"levelo_inurba_marseille","lat":43.336084,"lon":5.41018,"is_reserved":false,"is_disabled":false,"rental_uris":{"android":"levelo://app?vid=5c68561c-28de-40ad-a285-2f59f9116211","ios":"levelo://app?vid=5c68561c-28de-40ad-a285-2f59f9116211"},"vehicle_type_id":"4","last_reported":1747912165,"current_range_meters":2800,"station_id":"ce4bhqh2rcd13ifvqhmg","pricing_plan_id":"cebpf4jnsgd1na2vs0mg"},{"bike_id":"1b55dacb-c3d4-4781-ba10-3232f98bf9ae","system_id":"levelo_inurba_marseille","lat":43.33585,"lon":5.41005,"is_reserved":false,"is_disabled":false,"rental_uris":{"android":"levelo://app?vid=1b55dacb-c3d4-4781-ba10-3232f98bf9ae","ios":"levelo://app?vid=1b55dacb-c3d4-4781-ba10-3232f98bf9ae"},"vehicle_type_id":"4","last_reported":1747912165,"current_range_meters":2800,"station_id":"ce4bhqh2rcd13ifvqhmg","pricing_plan_id":"cebpf4jnsgd1na2vs0mg"},{"bike_id":"f59358dd-8069-4dd4-b094-3ee016c20e17","system_id":"levelo_inurba_marseille","lat":43.30193,"lon":5.36619,"is_reserved":false,"is_disabled":false,"rental_uris":{"android":"levelo://app?vid=f59358dd-8069-4dd4-b094-3ee016c20e17","ios":"levelo://app?vid=f59358dd-8069-4dd4-b094-3ee016c20e17"},"vehicle_type_id":"4","last_reported":1747912165,"current_range_meters":3200,"station_id":"ce4bgrh2rcd13ifvqc8g","pricing_plan_id":"cebpf4jnsgd1na2vs0mg"},{"bike_id":"538b94d2-9a3e-4acc-9dbd-505954b85ed7","system_id":"levelo_inurba_marseille","lat":43.30961,"lon":5.3904,"is_reserved":false,"is_disabled":false,"rental_uris":{"android":"levelo://app?vid=538b94d2-9a3e-4acc-9dbd-505954b85ed7","ios":"levelo://app?vid=538b94d2-9a3e-4acc-9dbd-505954b85ed7"},"vehicle_type_id":"4","last_reported":1747912165,"current_range_meters":3200,"station_id":"ce4bgup2rcd13ifvqco0","pricing_plan_id":"cebpf4jnsgd1na2vs0mg"},{"bike_id":"243e9120-6a93-417d-86c4-ce57e4cf96e8","system_id":"levelo_inurba_marseille","lat":43.27986,"lon":5.38743,"is_reserved":false,"is_disabled":false,"rental_uris":{"android":"levelo://app?vid=243e9120-6a93-417d-86c4-ce57e4cf96e8","ios":"levelo://app?vid=243e9120-6a93-417d-86c4-ce57e4cf96e8"},"vehicle_type_id":"4","last_reported":1747912165,"current_range_meters":3200,"station_id":"ce4bhg12rcd13ifvqf80","pricing_plan_id":"cebpf4jnsgd1na2vs0mg"},{"bike_id":"10f3d683-89d0-4675-8b4b-54eae689c9bb","system_id":"levelo_inurba_marseille","lat":43.28699,"lon":5.39985,"is_reserved":false,"is_disabled":false,"rental_uris":{"android":"levelo://app?vid=10f3d683-89d0-4675-8b4b-54eae689c9bb","ios":"levelo://app?vid=10f3d683-89d0-4675-8b4b-54eae689c9bb"},"vehicle_type_id":"4","last_reported":1747912165,"current_range_meters":3200,"station_id":"ce4bho92rcd13ifvqh3g","pricing_plan_id":"cebpf4jnsgd1na2vs0mg"},{"bike_id":"b8b511c7-6f48-45be-97af-1e0036b54cc5","system_id":"levelo_inurba_marseille","lat":43.273628,"lon":5.424056,"is_reserved":false,"is_disabled":false,"rental_uris":{"android":"levelo://app?vid=b8b511c7-6f48-45be-97af-1e0036b54cc5","ios":"levelo://app?vid=b8b511c7-6f48-45be-97af-1e0036b54cc5"},"vehicle_type_id":"4","last_reported":1747912165,"current_range_meters":3600,"station_id":"","pricing_plan_id":"cebpf4jnsgd1na2vs0mg"},{"bike_id":"414b1072-1fc5-4c98-9010-0595391368f7","system_id":"levelo_inurba_marseille","lat":43.27661,"lon":5.38891,"is_reserved":false,"is_disabled":false,"rental_uris":{"android":"levelo://app?vid=414b1072-1fc5-4c98-9010-0595391368f7","ios":"levelo://app?vid=414b1072-1fc5-4c98-9010-0595391368f7"},"vehicle_type_id":"4","last_reported":1747912165,"current_range_meters":3600,"station_id":"ce4bhi12rcd13ifvqfo0","pricing_plan_id":"cebpf4jnsgd1na2vs0mg"},{"bike_id":"e8162579-a5ad-485f-ad83-fec8a2ebe7e1","system_id":"levelo_inurba_marseille","lat":43.26826,"lon":5.39099,"is_reserved":false,"is_disabled":false,"rental_uris":{"android":"levelo://app?vid=e8162579-a5ad-485f-ad83-fec8a2ebe7e1","ios":"levelo://app?vid=e8162579-a5ad-485f-ad83-fec8a2ebe7e1"},"vehicle_type_id":"4","last_reported":1747912165,"current_range_meters":4000,"station_id":"","pricing_plan_id":"cebpf4jnsgd1na2vs0mg"},{"bike_id":"3552fbf2-b43a-446f-93f5-d695fc251b73","system_id":"levelo_inurba_marseille","lat":43.252654,"lon":5.374855,"is_reserved":false,"is_disabled":false,"rental_uris":{"android":"levelo://app?vid=3552fbf2-b43a-446f-93f5-d695fc251b73","ios":"levelo://app?vid=3552fbf2-b43a-446f-93f5-d695fc251b73"},"vehicle_type_id":"4","last_reported":1747912165,"current_range_meters":4000,"station_id":"","pricing_plan_id":"cebpf4jnsgd1na2vs0mg"},{"bike_id":"1ff4dd87-bf56-4ab1-8365-aad71fcb827c","system_id":"levelo_inurba_marseille","lat":43.32573,"lon":5.4273,"is_reserved":false,"is_disabled":false,"rental_uris":{"android":"levelo://app?vid=1ff4dd87-bf56-4ab1-8365-aad71fcb827c","ios":"levelo://app?vid=1ff4dd87-bf56-4ab1-8365-aad71fcb827c"},"vehicle_type_id":"4","last_reported":1747912165,"current_range_meters":4400,"station_id":"","pricing_plan_id":"cebpf4jnsgd1na2vs0mg"},{"bike_id":"d4c92d40-d700-4c58-928b-20967650b2fd","system_id":"levelo_inurba_marseille","lat":43.29909,"lon":5.38133,"is_reserved":false,"is_disabled":false,"rental_uris":{"android":"levelo://app?vid=d4c92d40-d700-4c58-928b-20967650b2fd","ios":"levelo://app?vid=d4c92d40-d700-4c58-928b-20967650b2fd"},"vehicle_type_id":"4","last_reported":1747912165,"current_range_meters":4400,"station_id":"ce4bgj12rcd13ifvqbc0","pricing_plan_id":"cebpf4jnsgd1na2vs0mg"},{"bike_id":"56e1ca5e-fd0c-4c55-b968-d3df782b9c57","system_id":"levelo_inurba_marseille","lat":43.299855,"lon":5.371822,"is_reserved":false,"is_disabled":false,"rental_uris":{"android":"levelo://app?vid=56e1ca5e-fd0c-4c55-b968-d3df782b9c57","ios":"levelo://app?vid=56e1ca5e-fd0c-4c55-b968-d3df782b9c57"},"vehicle_type_id":"4","last_reported":1747912165,"current_range_meters":4400,"station_id":"ce4bgr92rcd13ifvqc7g","pricing_plan_id":"cebpf4jnsgd1na2vs0mg"},{"bike_id":"fed288ac-74fd-4449-bee0-27790621a6b7","system_id":"levelo_inurba_marseille","lat":43.30124,"lon":5.39899,"is_reserved":false,"is_disabled":false,"rental_uris":{"android":"levelo://app?vid=fed288ac-74fd-4449-bee0-27790621a6b7","ios":"levelo://app?vid=fed288ac-74fd-4449-bee0-27790621a6b7"},"vehicle_type_id":"4","last_reported":1747912165,"current_range_meters":4400,"station_id":"ce4bh0h2rcd13ifvqd40","pricing_plan_id":"cebpf4jnsgd1na2vs0mg"},{"bike_id":"223587d6-ff6d-4773-bc53-9aa0a60dcc29","system_id":"levelo_inurba_marseille","lat":43.29874,"lon":5.39722,"is_reserved":false,"is_disabled":false,"rental_uris":{"android":"levelo://app?vid=223587d6-ff6d-4773-bc53-9aa0a60dcc29","ios":"levelo://app?vid=223587d6-ff6d-4773-bc53-9aa0a60dcc29"},"vehicle_type_id":"4","last_reported":1747912165,"current_range_meters":4400,"station_id":"ce4bh0h2rcd13ifvqd50","pricing_plan_id":"cebpf4jnsgd1na2vs0mg"},{"bike_id":"17ceee92-183b-4805-accd-9fa7b3ae325d","system_id":"levelo_inurba_marseille","lat":43.29025,"lon":5.38653,"is_reserved":false,"is_disabled":false,"rental_uris":{"android":"levelo://app?vid=17ceee92-183b-4805-accd-9fa7b3ae325d","ios":"levelo://app?vid=17ceee92-183b-4805-accd-9fa7b3ae325d"},"vehicle_type_id":"4","last_reported":1747912165,"current_range_meters":4400,"station_id":"ce4bh4p2rcd13ifvqe0g","pricing_plan_id":"cebpf4jnsgd1na2vs0mg"},{"bike_id":"7b19ae3d-375f-484a-ac22-3d52f30e632f","system_id":"levelo_inurba_marseille","lat":43.23192,"lon":5.39978,"is_reserved":false,"is_disabled":false,"rental_uris":{"android":"levelo://app?vid=7b19ae3d-375f-484a-ac22-3d52f30e632f","ios":"levelo://app?vid=7b19ae3d-375f-484a-ac22-3d52f30e632f"},"vehicle_type_id":"4","last_reported":1747912165,"current_range_meters":4400,"station_id":"ce4bhn12rcd13ifvqgqg","pricing_plan_id":"cebpf4jnsgd1na2vs0mg"},{"bike_id":"f21b2c89-45e5-4647-9c85-901bc74e551d","system_id":"levelo_inurba_marseille","lat":43.28941,"lon":5.39633,"is_reserved":false,"is_disabled":false,"rental_uris":{"android":"levelo://app?vid=f21b2c89-45e5-4647-9c85-901bc74e551d","ios":"levelo://app?vid=f21b2c89-45e5-4647-9c85-901bc74e551d"},"vehicle_type_id":"4","last_reported":1747912165,"current_range_meters":4800,"station_id":"ce4bh3h2rcd13ifvqdn0","pricing_plan_id":"cebpf4jnsgd1na2vs0mg"},{"bike_id":"1fa570b1-6086-4e19-911b-0454d38ddb01","system_id":"levelo_inurba_marseille","lat":43.29007,"lon":5.35617,"is_reserved":false,"is_disabled":false,"rental_uris":{"android":"levelo://app?vid=1fa570b1-6086-4e19-911b-0454d38ddb01","ios":"levelo://app?vid=1fa570b1-6086-4e19-911b-0454d38ddb01"},"vehicle_type_id":"4","last_reported":1747912165,"current_range_meters":4800,"station_id":"ce4bhb92rcd13ifvqen0","pricing_plan_id":"cebpf4jnsgd1na2vs0mg"},{"bike_id":"4e600890-7a0a-4504-89a8-047524a1f649","system_id":"levelo_inurba_marseille","lat":43.32481,"lon":5.36569,"is_reserved":false,"is_disabled":false,"rental_uris":{"android":"levelo://app?vid=4e600890-7a0a-4504-89a8-047524a1f649","ios":"levelo://app?vid=4e600890-7a0a-4504-89a8-047524a1f649"},"vehicle_type_id":"4","last_reported":1747912165,"current_range_meters":5600,"station_id":"","pricing_plan_id":"cebpf4jnsgd1na2vs0mg"},{"bike_id":"e1bab6b6-c3c1-4328-ada6-1fcd61233cb9","system_id":"levelo_inurba_marseille","lat":43.28715,"lon":5.37929,"is_reserved":false,"is_disabled":false,"rental_uris":{"android":"levelo://app?vid=e1bab6b6-c3c1-4328-ada6-1fcd61233cb9","ios":"levelo://app?vid=e1bab6b6-c3c1-4328-ada6-1fcd61233cb9"},"vehicle_type_id":"4","last_reported":1747912165,"current_range_meters":6000,"station_id":"ce4bh9p2rcd13ifvqec0","pricing_plan_id":"cebpf4jnsgd1na2vs0mg"},{"bike_id":"1e2627a3-89c8-41aa-bd7e-6fccf3610f6b","system_id":"levelo_inurba_marseille","lat":43.272124,"lon":5.391928,"is_reserved":false,"is_disabled":false,"rental_uris":{"android":"levelo://app?vid=1e2627a3-89c8-41aa-bd7e-6fccf3610f6b","ios":"levelo://app?vid=1e2627a3-89c8-41aa-bd7e-6fccf3610f6b"},"vehicle_type_id":"4","last_reported":1747912165,"current_range_meters":6000,"station_id":"ce4bhhp2rcd13ifvqfm0","pricing_plan_id":"cebpf4jnsgd1na2vs0mg"},{"bike_id":"82d9224e-c124-406b-bd49-1d2e39a4165e","system_id":"levelo_inurba_marseille","lat":43.23208,"lon":5.39967,"is_reserved":false,"is_disabled":false,"rental_uris":{"android":"levelo://app?vid=82d9224e-c124-406b-bd49-1d2e39a4165e","ios":"levelo://app?vid=82d9224e-c124-406b-bd49-1d2e39a4165e"},"vehicle_type_id":"4","last_reported":1747912165,"current_range_meters":6000,"station_id":"ce4bhn12rcd13ifvqgqg","pricing_plan_id":"cebpf4jnsgd1na2vs0mg"},{"bike_id":"47c68b3e-66f9-4e8c-9820-ab039038b62e","system_id":"levelo_inurba_marseille","lat":43.267807,"lon":5.3942,"is_reserved":false,"is_disabled":false,"rental_uris":{"android":"levelo://app?vid=47c68b3e-66f9-4e8c-9820-ab039038b62e","ios":"levelo://app?vid=47c68b3e-66f9-4e8c-9820-ab039038b62e"},"vehicle_type_id":"4","last_reported":1747912165,"current_range_meters":6400,"station_id":"","pricing_plan_id":"cebpf4jnsgd1na2vs0mg"},{"bike_id":"e1bf9493-6ca9-46b5-9a1b-baa049ddeba0","system_id":"levelo_inurba_marseille","lat":43.34139,"lon":5.40903,"is_reserved":false,"is_disabled":false,"rental_uris":{"android":"levelo://app?vid=e1bf9493-6ca9-46b5-9a1b-baa049ddeba0","ios":"levelo://app?vid=e1bf9493-6ca9-46b5-9a1b-baa049ddeba0"},"vehicle_type_id":"4","last_reported":1747912165,"current_range_meters":6400,"station_id":"ce4bhqh2rcd13ifvqhlg","pricing_plan_id":"cebpf4jnsgd1na2vs0mg"},{"bike_id":"df106770-a124-4ecf-95cd-288da587773b","system_id":"levelo_inurba_marseille","lat":43.28645,"lon":5.38287,"is_reserved":false,"is_disabled":false,"rental_uris":{"android":"levelo://app?vid=df106770-a124-4ecf-95cd-288da587773b","ios":"levelo://app?vid=df106770-a124-4ecf-95cd-288da587773b"},"vehicle_type_id":"4","last_reported":1747912165,"current_range_meters":6800,"station_id":"","pricing_plan_id":"cebpf4jnsgd1na2vs0mg"},{"bike_id":"7bdff893-0314-4aa0-90ca-ef7d39aeb30d","system_id":"levelo_inurba_marseille","lat":43.29846,"lon":5.36276,"is_reserved":false,"is_disabled":false,"rental_uris":{"android":"levelo://app?vid=7bdff893-0314-4aa0-90ca-ef7d39aeb30d","ios":"levelo://app?vid=7bdff893-0314-4aa0-90ca-ef7d39aeb30d"},"vehicle_type_id":"4","last_reported":1747912165,"current_range_meters":6800,"station_id":"ce4bgpp2rcd13ifvqc3g","pricing_plan_id":"cebpf4jnsgd1na2vs0mg"},{"bike_id":"b007d260-d838-4bd2-8fd7-a60ffde2f7b4","system_id":"levelo_inurba_marseille","lat":43.31494,"lon":5.37291,"is_reserved":false,"is_disabled":false,"rental_uris":{"android":"levelo://app?vid=b007d260-d838-4bd2-8fd7-a60ffde2f7b4","ios":"levelo://app?vid=b007d260-d838-4bd2-8fd7-a60ffde2f7b4"},"vehicle_type_id":"4","last_reported":1747912165,"current_range_meters":6800,"station_id":"ce4bgt12rcd13ifvqcd0","pricing_plan_id":"cebpf4jnsgd1na2vs0mg"},{"bike_id":"3794907a-e963-4733-a7bc-f526881e79c4","system_id":"levelo_inurba_marseille","lat":43.28976,"lon":5.37837,"is_reserved":false,"is_disabled":false,"rental_uris":{"android":"levelo://app?vid=3794907a-e963-4733-a7bc-f526881e79c4","ios":"levelo://app?vid=3794907a-e963-4733-a7bc-f526881e79c4"},"vehicle_type_id":"4","last_reported":1747912165,"current_range_meters":6800,"station_id":"ce4bh9p2rcd13ifvqed0","pricing_plan_id":"cebpf4jnsgd1na2vs0mg"},{"bike_id":"a2cf77dd-d42f-4f4b-a0f2-dccc0717a3af","system_id":"levelo_inurba_marseille","lat":43.24802,"lon":5.37491,"is_reserved":false,"is_disabled":false,"rental_uris":{"android":"levelo://app?vid=a2cf77dd-d42f-4f4b-a0f2-dccc0717a3af","ios":"levelo://app?vid=a2cf77dd-d42f-4f4b-a0f2-dccc0717a3af"},"vehicle_type_id":"4","last_reported":1747912165,"current_range_meters":6800,"station_id":"ce4bhgh2rcd13ifvqfb0","pricing_plan_id":"cebpf4jnsgd1na2vs0mg"},{"bike_id":"c6853edf-3580-498f-90c2-47e651fd16ce","system_id":"levelo_inurba_marseille","lat":43.25719,"lon":5.41109,"is_reserved":false,"is_disabled":false,"rental_uris":{"android":"levelo://app?vid=c6853edf-3580-498f-90c2-47e651fd16ce","ios":"levelo://app?vid=c6853edf-3580-498f-90c2-47e651fd16ce"},"vehicle_type_id":"4","last_reported":1747912165,"current_range_meters":6800,"station_id":"ce4bhkp2rcd13ifvqgd0","pricing_plan_id":"cebpf4jnsgd1na2vs0mg"},{"bike_id":"8ea6434c-dc18-4de8-9a6c-f543a6df71a8","system_id":"levelo_inurba_marseille","lat":43.23172,"lon":5.43683,"is_reserved":false,"is_disabled":false,"rental_uris":{"android":"levelo://app?vid=8ea6434c-dc18-4de8-9a6c-f543a6df71a8","ios":"levelo://app?vid=8ea6434c-dc18-4de8-9a6c-f543a6df71a8"},"vehicle_type_id":"4","last_reported":1747912165,"current_range_meters":6800,"station_id":"ce4bhmp2rcd13ifvqgog","pricing_plan_id":"cebpf4jnsgd1na2vs0mg"},{"bike_id":"c172b8b2-6068-4ecd-9788-1fbcc3584e8e","system_id":"levelo_inurba_marseille","lat":43.28209,"lon":5.3906,"is_reserved":false,"is_disabled":false,"rental_uris":{"android":"levelo://app?vid=c172b8b2-6068-4ecd-9788-1fbcc3584e8e","ios":"levelo://app?vid=c172b8b2-6068-4ecd-9788-1fbcc3584e8e"},"vehicle_type_id":"4","last_reported":1747912165,"current_range_meters":7200,"station_id":"","pricing_plan_id":"cebpf4jnsgd1na2vs0mg"},{"bike_id":"817ed181-8f56-4634-bafc-240de83dfcb6","system_id":"levelo_inurba_marseille","lat":43.30599,"lon":5.37189,"is_reserved":false,"is_disabled":false,"rental_uris":{"android":"levelo://app?vid=817ed181-8f56-4634-bafc-240de83dfcb6","ios":"levelo://app?vid=817ed181-8f56-4634-bafc-240de83dfcb6"},"vehicle_type_id":"4","last_reported":1747912165,"current_range_meters":7200,"station_id":"ce4bgqh2rcd13ifvqc4g","pricing_plan_id":"cebpf4jnsgd1na2vs0mg"},{"bike_id":"0f94b375-b9c0-470f-bfe5-b7b55655b58e","system_id":"levelo_inurba_marseille","lat":43.309557,"lon":5.390486,"is_reserved":false,"is_disabled":false,"rental_uris":{"android":"levelo://app?vid=0f94b375-b9c0-470f-bfe5-b7b55655b58e","ios":"levelo://app?vid=0f94b375-b9c0-470f-bfe5-b7b55655b58e"},"vehicle_type_id":"4","last_reported":1747912165,"current_range_meters":7200,"station_id":"ce4bgup2rcd13ifvqco0","pricing_plan_id":"cebpf4jnsgd1na2vs0mg"},{"bike_id":"c81c7eb3-1189-45ef-bd71-997d4e3431e2","system_id":"levelo_inurba_marseille","lat":43.30327,"lon":5.40425,"is_reserved":false,"is_disabled":false,"rental_uris":{"android":"levelo://app?vid=c81c7eb3-1189-45ef-bd71-997d4e3431e2","ios":"levelo://app?vid=c81c7eb3-1189-45ef-bd71-997d4e3431e2"},"vehicle_type_id":"4","last_reported":1747912165,"current_range_meters":7200,"station_id":"ce4bh012rcd13ifvqd10","pricing_plan_id":"cebpf4jnsgd1na2vs0mg"},{"bike_id":"87c37c14-8780-451e-bf3f-8825721121e6","system_id":"levelo_inurba_marseille","lat":43.26955,"lon":5.38634,"is_reserved":false,"is_disabled":false,"rental_uris":{"android":"levelo://app?vid=87c37c14-8780-451e-bf3f-8825721121e6","ios":"levelo://app?vid=87c37c14-8780-451e-bf3f-8825721121e6"},"vehicle_type_id":"4","last_reported":1747912165,"current_range_meters":7200,"station_id":"ce4bhh92rcd13ifvqfh0","pricing_plan_id":"cebpf4jnsgd1na2vs0mg"},{"bike_id":"8f55b03b-0e2f-42ce-8c8e-3a98af37a7d5","system_id":"levelo_inurba_marseille","lat":43.270741,"lon":5.422842,"is_reserved":false,"is_disabled":false,"rental_uris":{"android":"levelo://app?vid=8f55b03b-0e2f-42ce-8c8e-3a98af37a7d5","ios":"levelo://app?vid=8f55b03b-0e2f-42ce-8c8e-3a98af37a7d5"},"vehicle_type_id":"4","last_reported":1747912165,"current_range_meters":7200,"station_id":"ce4bhk92rcd13ifvqgb0","pricing_plan_id":"cebpf4jnsgd1na2vs0mg"},{"bike_id":"ea8bb74f-fa3a-45fd-983d-39f9b76348ed","system_id":"levelo_inurba_marseille","lat":43.25111,"lon":5.40316,"is_reserved":false,"is_disabled":false,"rental_uris":{"android":"levelo://app?vid=ea8bb74f-fa3a-45fd-983d-39f9b76348ed","ios":"levelo://app?vid=ea8bb74f-fa3a-45fd-983d-39f9b76348ed"},"vehicle_type_id":"4","last_reported":1747912165,"current_range_meters":7200,"station_id":"ce4bhlh2rcd13ifvqgig","pricing_plan_id":"cebpf4jnsgd1na2vs0mg"},{"bike_id":"c48345e1-43dd-4a08-bbd5-11142242a160","system_id":"levelo_inurba_marseille","lat":43.27995,"lon":5.40017,"is_reserved":false,"is_disabled":false,"rental_uris":{"android":"levelo://app?vid=c48345e1-43dd-4a08-bbd5-11142242a160","ios":"levelo://app?vid=c48345e1-43dd-4a08-bbd5-11142242a160"},"vehicle_type_id":"4","last_reported":1747912165,"current_range_meters":7200,"station_id":"ce4bho92rcd13ifvqh4g","pricing_plan_id":"cebpf4jnsgd1na2vs0mg"},{"bike_id":"c59660a7-f300-4b9b-a58b-f2bc724bb7a8","system_id":"levelo_inurba_marseille","lat":43.32117,"lon":5.36763,"is_reserved":false,"is_disabled":false,"rental_uris":{"android":"levelo://app?vid=c59660a7-f300-4b9b-a58b-f2bc724bb7a8","ios":"levelo://app?vid=c59660a7-f300-4b9b-a58b-f2bc724bb7a8"},"vehicle_type_id":"4","last_reported":1747912165,"current_range_meters":7200,"station_id":"ce4bhrh2rcd13ifvqhug","pricing_plan_id":"cebpf4jnsgd1na2vs0mg"},{"bike_id":"4f975191-c870-4fcd-8be1-0565e3c514fd","system_id":"levelo_inurba_marseille","lat":43.29372,"lon":5.37843,"is_reserved":false,"is_disabled":false,"rental_uris":{"android":"levelo://app?vid=4f975191-c870-4fcd-8be1-0565e3c514fd","ios":"levelo://app?vid=4f975191-c870-4fcd-8be1-0565e3c514fd"},"vehicle_type_id":"4","last_reported":1747912165,"current_range_meters":8000,"station_id":"ce4bgjh2rcd13ifvqbf0","pricing_plan_id":"cebpf4jnsgd1na2vs0mg"},{"bike_id":"47dbc28a-028c-4ec9-87a9-d021e489788b","system_id":"levelo_inurba_marseille","lat":43.30464,"lon":5.37911,"is_reserved":false,"is_disabled":false,"rental_uris":{"android":"levelo://app?vid=47dbc28a-028c-4ec9-87a9-d021e489788b","ios":"levelo://app?vid=47dbc28a-028c-4ec9-87a9-d021e489788b"},"vehicle_type_id":"4","last_reported":1747912165,"current_range_meters":8000,"station_id":"ce4bgup2rcd13ifvqcn0","pricing_plan_id":"cebpf4jnsgd1na2vs0mg"},{"bike_id":"38865ef4-c67b-4762-8e95-023d76f8f1c2","system_id":"levelo_inurba_marseille","lat":43.29255,"lon":5.40914,"is_reserved":false,"is_disabled":false,"rental_uris":{"android":"levelo://app?vid=38865ef4-c67b-4762-8e95-023d76f8f1c2","ios":"levelo://app?vid=38865ef4-c67b-4762-8e95-023d76f8f1c2"},"vehicle_type_id":"4","last_reported":1747912165,"current_range_meters":8000,"station_id":"ce4bh192rcd13ifvqdc0","pricing_plan_id":"cebpf4jnsgd1na2vs0mg"},{"bike_id":"90871573-0091-4d09-b36a-3b7c677f7d35","system_id":"levelo_inurba_marseille","lat":43.27067,"lon":5.42299,"is_reserved":false,"is_disabled":false,"rental_uris":{"android":"levelo://app?vid=90871573-0091-4d09-b36a-3b7c677f7d35","ios":"levelo://app?vid=90871573-0091-4d09-b36a-3b7c677f7d35"},"vehicle_type_id":"4","last_reported":1747912165,"current_range_meters":8000,"station_id":"ce4bhk92rcd13ifvqgb0","pricing_plan_id":"cebpf4jnsgd1na2vs0mg"},{"bike_id":"3fe3d6c4-138a-47df-b6b4-e6f19e8f7d46","system_id":"levelo_inurba_marseille","lat":43.21429,"lon":5.34123,"is_reserved":false,"is_disabled":false,"rental_uris":{"android":"levelo://app?vid=3fe3d6c4-138a-47df-b6b4-e6f19e8f7d46","ios":"levelo://app?vid=3fe3d6c4-138a-47df-b6b4-e6f19e8f7d46"},"vehicle_type_id":"4","last_reported":1747912165,"current_range_meters":8400,"station_id":"","pricing_plan_id":"cebpf4jnsgd1na2vs0mg"},{"bike_id":"57f119c9-f74f-4f1c-96d5-e5625c0ecb47","system_id":"levelo_inurba_marseille","lat":43.30542,"lon":5.36549,"is_reserved":false,"is_disabled":false,"rental_uris":{"android":"levelo://app?vid=57f119c9-f74f-4f1c-96d5-e5625c0ecb47","ios":"levelo://app?vid=57f119c9-f74f-4f1c-96d5-e5625c0ecb47"},"vehicle_type_id":"4","last_reported":1747912165,"current_range_meters":8400,"station_id":"ce4bgs12rcd13ifvqcag","pricing_plan_id":"cebpf4jnsgd1na2vs0mg"},{"bike_id":"e02b4940-efa1-432c-addd-20c48c7f1fd5","system_id":"levelo_inurba_marseille","lat":43.29033,"lon":5.38649,"is_reserved":false,"is_disabled":false,"rental_uris":{"android":"levelo://app?vid=e02b4940-efa1-432c-addd-20c48c7f1fd5","ios":"levelo://app?vid=e02b4940-efa1-432c-addd-20c48c7f1fd5"},"vehicle_type_id":"4","last_reported":1747912165,"current_range_meters":8400,"station_id":"ce4bh4p2rcd13ifvqe0g","pricing_plan_id":"cebpf4jnsgd1na2vs0mg"},{"bike_id":"d08c902e-f6f8-4ad9-b326-a640e0918ca7","system_id":"levelo_inurba_marseille","lat":43.24185,"lon":5.39722,"is_reserved":false,"is_disabled":false,"rental_uris":{"android":"levelo://app?vid=d08c902e-f6f8-4ad9-b326-a640e0918ca7","ios":"levelo://app?vid=d08c902e-f6f8-4ad9-b326-a640e0918ca7"},"vehicle_type_id":"4","last_reported":1747912165,"current_range_meters":8400,"station_id":"ce4bhn12rcd13ifvqgpg","pricing_plan_id":"cebpf4jnsgd1na2vs0mg"},{"bike_id":"2f34c329-54fe-438b-a307-b47c6ac8481c","system_id":"levelo_inurba_marseille","lat":43.29889,"lon":5.43652,"is_reserved":false,"is_disabled":false,"rental_uris":{"android":"levelo://app?vid=2f34c329-54fe-438b-a307-b47c6ac8481c","ios":"levelo://app?vid=2f34c329-54fe-438b-a307-b47c6ac8481c"},"vehicle_type_id":"4","last_reported":1747912165,"current_range_meters":8400,"station_id":"ce4bhpp2rcd13ifvqhfg","pricing_plan_id":"cebpf4jnsgd1na2vs0mg"},{"bike_id":"c4829c6c-b0d3-491b-b293-dae1f41ac5fb","system_id":"levelo_inurba_marseille","lat":43.30637,"lon":5.40092,"is_reserved":false,"is_disabled":false,"rental_uris":{"android":"levelo://app?vid=c4829c6c-b0d3-491b-b293-dae1f41ac5fb","ios":"levelo://app?vid=c4829c6c-b0d3-491b-b293-dae1f41ac5fb"},"vehicle_type_id":"4","last_reported":1747912165,"current_range_meters":9200,"station_id":"ce4bh112rcd13ifvqda0","pricing_plan_id":"cebpf4jnsgd1na2vs0mg"},{"bike_id":"0102d23a-7fd6-4e11-8356-4195e5b7eb47","system_id":"levelo_inurba_marseille","lat":43.28571,"lon":5.39496,"is_reserved":false,"is_disabled":false,"rental_uris":{"android":"levelo://app?vid=0102d23a-7fd6-4e11-8356-4195e5b7eb47","ios":"levelo://app?vid=0102d23a-7fd6-4e11-8356-4195e5b7eb47"},"vehicle_type_id":"4","last_reported":1747912165,"current_range_meters":9200,"station_id":"ce4bh292rcd13ifvqdg0","pricing_plan_id":"cebpf4jnsgd1na2vs0mg"},{"bike_id":"e0e21798-4f46-49d8-a591-6654f37ccf88","system_id":"levelo_inurba_marseille","lat":43.29446,"lon":5.39751,"is_reserved":false,"is_disabled":false,"rental_uris":{"android":"levelo://app?vid=e0e21798-4f46-49d8-a591-6654f37ccf88","ios":"levelo://app?vid=e0e21798-4f46-49d8-a591-6654f37ccf88"},"vehicle_type_id":"4","last_reported":1747912165,"current_range_meters":9200,"station_id":"ce4bh3h2rcd13ifvqdo0","pricing_plan_id":"cebpf4jnsgd1na2vs0mg"},{"bike_id":"4d220435-47a8-4d82-80db-a1284cf3e4c5","system_id":"levelo_inurba_marseille","lat":43.28646,"lon":5.38729,"is_reserved":false,"is_disabled":false,"rental_uris":{"android":"levelo://app?vid=4d220435-47a8-4d82-80db-a1284cf3e4c5","ios":"levelo://app?vid=4d220435-47a8-4d82-80db-a1284cf3e4c5"},"vehicle_type_id":"4","last_reported":1747912165,"current_range_meters":9200,"station_id":"ce4bh492rcd13ifvqdug","pricing_plan_id":"cebpf4jnsgd1na2vs0mg"},{"bike_id":"14feda73-7baf-4b64-8ae9-79f4fe7d4a5f","system_id":"levelo_inurba_marseille","lat":43.323666,"lon":5.367566,"is_reserved":false,"is_disabled":false,"rental_uris":{"android":"levelo://app?vid=14feda73-7baf-4b64-8ae9-79f4fe7d4a5f","ios":"levelo://app?vid=14feda73-7baf-4b64-8ae9-79f4fe7d4a5f"},"vehicle_type_id":"4","last_reported":1747912165,"current_range_meters":9200,"station_id":"ce4bhsh2rcd13ifvqi2g","pricing_plan_id":"cebpf4jnsgd1na2vs0mg"},{"bike_id":"971c8a5c-db56-48ea-b476-188519cb0562","system_id":"levelo_inurba_marseille","lat":43.30327,"lon":5.40295,"is_reserved":false,"is_disabled":false,"rental_uris":{"android":"levelo://app?vid=971c8a5c-db56-48ea-b476-188519cb0562","ios":"levelo://app?vid=971c8a5c-db56-48ea-b476-188519cb0562"},"vehicle_type_id":"4","last_reported":1747912165,"current_range_meters":9600,"station_id":"","pricing_plan_id":"cebpf4jnsgd1na2vs0mg"},{"bike_id":"e556f496-5a3c-4193-8a6e-47c89f34776d","system_id":"levelo_inurba_marseille","lat":43.2891,"lon":5.37822,"is_reserved":false,"is_disabled":false,"rental_uris":{"android":"levelo://app?vid=e556f496-5a3c-4193-8a6e-47c89f34776d","ios":"levelo://app?vid=e556f496-5a3c-4193-8a6e-47c89f34776d"},"vehicle_type_id":"4","last_reported":1747912165,"current_range_meters":9600,"station_id":"","pricing_plan_id":"cebpf4jnsgd1na2vs0mg"},{"bike_id":"e92be74d-c33a-452e-b249-c44f1fffa42a","system_id":"levelo_inurba_marseille","lat":43.29792,"lon":5.38115,"is_reserved":false,"is_disabled":false,"rental_uris":{"android":"levelo://app?vid=e92be74d-c33a-452e-b249-c44f1fffa42a","ios":"levelo://app?vid=e92be74d-c33a-452e-b249-c44f1fffa42a"},"vehicle_type_id":"4","last_reported":1747912165,"current_range_meters":9600,"station_id":"ce4bgip2rcd13ifvqbb0","pricing_plan_id":"cebpf4jnsgd1na2vs0mg"},{"bike_id":"0406f1cf-087f-4a1d-93de-92107081d540","system_id":"levelo_inurba_marseille","lat":43.299711,"lon":5.384954,"is_reserved":false,"is_disabled":false,"rental_uris":{"android":"levelo://app?vid=0406f1cf-087f-4a1d-93de-92107081d540","ios":"levelo://app?vid=0406f1cf-087f-4a1d-93de-92107081d540"},"vehicle_type_id":"4","last_reported":1747912165,"current_range_meters":9600,"station_id":"ce4bgj92rcd13ifvqbd0","pricing_plan_id":"cebpf4jnsgd1na2vs0mg"},{"bike_id":"e0095350-7aca-4403-b75e-a8b1f8586bae","system_id":"levelo_inurba_marseille","lat":43.3043,"lon":5.38878,"is_reserved":false,"is_disabled":false,"rental_uris":{"android":"levelo://app?vid=e0095350-7aca-4403-b75e-a8b1f8586bae","ios":"levelo://app?vid=e0095350-7aca-4403-b75e-a8b1f8586bae"},"vehicle_type_id":"4","last_reported":1747912165,"current_range_meters":9600,"station_id":"ce4bgk12rcd13ifvqbi0","pricing_plan_id":"cebpf4jnsgd1na2vs0mg"},{"bike_id":"cee47d55-14c4-41f8-970a-7c56acba9805","system_id":"levelo_inurba_marseille","lat":43.29937,"lon":5.36549,"is_reserved":false,"is_disabled":false,"rental_uris":{"android":"levelo://app?vid=cee47d55-14c4-41f8-970a-7c56acba9805","ios":"levelo://app?vid=cee47d55-14c4-41f8-970a-7c56acba9805"},"vehicle_type_id":"4","last_reported":1747912165,"current_range_meters":9600,"station_id":"ce4bgm92rcd13ifvqbr0","pricing_plan_id":"cebpf4jnsgd1na2vs0mg"},{"bike_id":"95cafc23-dcd8-4c41-bf1a-8e9f49a1bb06","system_id":"levelo_inurba_marseille","lat":43.25687,"lon":5.41095,"is_reserved":false,"is_disabled":false,"rental_uris":{"android":"levelo://app?vid=95cafc23-dcd8-4c41-bf1a-8e9f49a1bb06","ios":"levelo://app?vid=95cafc23-dcd8-4c41-bf1a-8e9f49a1bb06"},"vehicle_type_id":"4","last_reported":1747912165,"current_range_meters":9600,"station_id":"ce4bhkp2rcd13ifvqgd0","pricing_plan_id":"cebpf4jnsgd1na2vs0mg"},{"bike_id":"40082cca-a7a2-4d69-9727-bd72824c6c32","system_id":"levelo_inurba_marseille","lat":43.27199,"lon":5.40972,"is_reserved":false,"is_disabled":false,"rental_uris":{"android":"levelo://app?vid=40082cca-a7a2-4d69-9727-bd72824c6c32","ios":"levelo://app?vid=40082cca-a7a2-4d69-9727-bd72824c6c32"},"vehicle_type_id":"4","last_reported":1747912165,"current_range_meters":9600,"station_id":"ce4bhl12rcd13ifvqgf0","pricing_plan_id":"cebpf4jnsgd1na2vs0mg"},{"bike_id":"19ad6a04-9891-49cf-8d05-7dde295fdcc2","system_id":"levelo_inurba_marseille","lat":43.27995,"lon":5.40013,"is_reserved":false,"is_disabled":false,"rental_uris":{"android":"levelo://app?vid=19ad6a04-9891-49cf-8d05-7dde295fdcc2","ios":"levelo://app?vid=19ad6a04-9891-49cf-8d05-7dde295fdcc2"},"vehicle_type_id":"4","last_reported":1747912165,"current_range_meters":9600,"station_id":"ce4bho92rcd13ifvqh4g","pricing_plan_id":"cebpf4jnsgd1na2vs0mg"},{"bike_id":"f9a98e54-93fe-41a9-855a-73eba522667f","system_id":"levelo_inurba_marseille","lat":43.2306,"lon":5.3549,"is_reserved":false,"is_disabled":false,"rental_uris":{"android":"levelo://app?vid=f9a98e54-93fe-41a9-855a-73eba522667f","ios":"levelo://app?vid=f9a98e54-93fe-41a9-855a-73eba522667f"},"vehicle_type_id":"4","last_reported":1747912165,"current_range_meters":9600,"station_id":"cpo3342slgdg3j2ifvpg","pricing_plan_id":"cebpf4jnsgd1na2vs0mg"},{"bike_id":"f9fb40c0-1fcd-48cb-8e26-3f2dc0fb2451","system_id":"levelo_inurba_marseille","lat":43.33751,"lon":5.37509,"is_reserved":false,"is_disabled":false,"rental_uris":{"android":"levelo://app?vid=f9fb40c0-1fcd-48cb-8e26-3f2dc0fb2451","ios":"levelo://app?vid=f9fb40c0-1fcd-48cb-8e26-3f2dc0fb2451"},"vehicle_type_id":"4","last_reported":1747912165,"current_range_meters":10000,"station_id":"","pricing_plan_id":"cebpf4jnsgd1na2vs0mg"},{"bike_id":"27653dcd-dec9-4f13-b172-8968c20c1725","system_id":"levelo_inurba_marseille","lat":43.23844,"lon":5.43081,"is_reserved":false,"is_disabled":false,"rental_uris":{"android":"levelo://app?vid=27653dcd-dec9-4f13-b172-8968c20c1725","ios":"levelo://app?vid=27653dcd-dec9-4f13-b172-8968c20c1725"},"vehicle_type_id":"4","last_reported":1747912165,"current_range_meters":10000,"station_id":"","pricing_plan_id":"cebpf4jnsgd1na2vs0mg"},{"bike_id":"2ff04dba-0563-444a-91be-22b5e2226165","system_id":"levelo_inurba_marseille","lat":43.31229,"lon":5.36871,"is_reserved":false,"is_disabled":false,"rental_uris":{"android":"levelo://app?vid=2ff04dba-0563-444a-91be-22b5e2226165","ios":"levelo://app?vid=2ff04dba-0563-444a-91be-22b5e2226165"},"vehicle_type_id":"4","last_reported":1747912165,"current_range_meters":10000,"station_id":"ce4bgl92rcd13ifvqbq0","pricing_plan_id":"cebpf4jnsgd1na2vs0mg"},{"bike_id":"4f27566e-374a-41ac-b11b-d178b867393a","system_id":"levelo_inurba_marseille","lat":43.31685,"lon":5.40476,"is_reserved":false,"is_disabled":false,"rental_uris":{"android":"levelo://app?vid=4f27566e-374a-41ac-b11b-d178b867393a","ios":"levelo://app?vid=4f27566e-374a-41ac-b11b-d178b867393a"},"vehicle_type_id":"4","last_reported":1747912165,"current_range_meters":10000,"station_id":"ce4bh012rcd13ifvqd00","pricing_plan_id":"cebpf4jnsgd1na2vs0mg"},{"bike_id":"fce99fc9-87d6-4554-a296-1a9ea30dfd16","system_id":"levelo_inurba_marseille","lat":43.257,"lon":5.41111,"is_reserved":false,"is_disabled":false,"rental_uris":{"android":"levelo://app?vid=fce99fc9-87d6-4554-a296-1a9ea30dfd16","ios":"levelo://app?vid=fce99fc9-87d6-4554-a296-1a9ea30dfd16"},"vehicle_type_id":"4","last_reported":1747912165,"current_range_meters":10000,"station_id":"ce4bhkp2rcd13ifvqgd0","pricing_plan_id":"cebpf4jnsgd1na2vs0mg"},{"bike_id":"c6a24704-d8c2-4667-929a-c248606119fd","system_id":"levelo_inurba_marseille","lat":43.25713,"lon":5.41129,"is_reserved":false,"is_disabled":false,"rental_uris":{"android":"levelo://app?vid=c6a24704-d8c2-4667-929a-c248606119fd","ios":"levelo://app?vid=c6a24704-d8c2-4667-929a-c248606119fd"},"vehicle_type_id":"4","last_reported":1747912165,"current_range_meters":10000,"station_id":"ce4bhkp2rcd13ifvqgd0","pricing_plan_id":"cebpf4jnsgd1na2vs0mg"},{"bike_id":"8132eb19-17ba-4103-8ae2-89937a2d2be2","system_id":"levelo_inurba_marseille","lat":43.335884,"lon":5.409584,"is_reserved":false,"is_disabled":false,"rental_uris":{"android":"levelo://app?vid=8132eb19-17ba-4103-8ae2-89937a2d2be2","ios":"levelo://app?vid=8132eb19-17ba-4103-8ae2-89937a2d2be2"},"vehicle_type_id":"4","last_reported":1747912165,"current_range_meters":10800,"station_id":"","pricing_plan_id":"cebpf4jnsgd1na2vs0mg"},{"bike_id":"c87f2817-7f53-435a-9b2c-9985876a283f","system_id":"levelo_inurba_marseille","lat":43.29296,"lon":5.37436,"is_reserved":false,"is_disabled":false,"rental_uris":{"android":"levelo://app?vid=c87f2817-7f53-435a-9b2c-9985876a283f","ios":"levelo://app?vid=c87f2817-7f53-435a-9b2c-9985876a283f"},"vehicle_type_id":"4","last_reported":1747912165,"current_range_meters":10800,"station_id":"ce4bgi12rcd13ifvqb70","pricing_plan_id":"cebpf4jnsgd1na2vs0mg"},{"bike_id":"ac8c7c81-6a0e-49a4-a65a-c88eba9d251a","system_id":"levelo_inurba_marseille","lat":43.29848,"lon":5.36287,"is_reserved":false,"is_disabled":false,"rental_uris":{"android":"levelo://app?vid=ac8c7c81-6a0e-49a4-a65a-c88eba9d251a","ios":"levelo://app?vid=ac8c7c81-6a0e-49a4-a65a-c88eba9d251a"},"vehicle_type_id":"4","last_reported":1747912165,"current_range_meters":10800,"station_id":"ce4bgpp2rcd13ifvqc3g","pricing_plan_id":"cebpf4jnsgd1na2vs0mg"},{"bike_id":"a6f17b8c-fa52-44f8-8960-9e597bf50c0e","system_id":"levelo_inurba_marseille","lat":43.28617,"lon":5.35108,"is_reserved":false,"is_disabled":false,"rental_uris":{"android":"levelo://app?vid=a6f17b8c-fa52-44f8-8960-9e597bf50c0e","ios":"levelo://app?vid=a6f17b8c-fa52-44f8-8960-9e597bf50c0e"},"vehicle_type_id":"4","last_reported":1747912165,"current_range_meters":10800,"station_id":"ce4bhch2rcd13ifvqeug","pricing_plan_id":"cebpf4jnsgd1na2vs0mg"},{"bike_id":"19391bed-1a26-4034-92df-973e836b81a1","system_id":"levelo_inurba_marseille","lat":43.26684,"lon":5.38277,"is_reserved":false,"is_disabled":false,"rental_uris":{"android":"levelo://app?vid=19391bed-1a26-4034-92df-973e836b81a1","ios":"levelo://app?vid=19391bed-1a26-4034-92df-973e836b81a1"},"vehicle_type_id":"4","last_reported":1747912165,"current_range_meters":10800,"station_id":"ce4bhg92rcd13ifvqf90","pricing_plan_id":"cebpf4jnsgd1na2vs0mg"},{"bike_id":"4ad770ab-f129-4de2-889c-7fa4bb24a833","system_id":"levelo_inurba_marseille","lat":43.26947,"lon":5.38642,"is_reserved":false,"is_disabled":false,"rental_uris":{"android":"levelo://app?vid=4ad770ab-f129-4de2-889c-7fa4bb24a833","ios":"levelo://app?vid=4ad770ab-f129-4de2-889c-7fa4bb24a833"},"vehicle_type_id":"4","last_reported":1747912165,"current_range_meters":10800,"station_id":"ce4bhh92rcd13ifvqfh0","pricing_plan_id":"cebpf4jnsgd1na2vs0mg"},{"bike_id":"dc61c065-6ed1-487e-9ecf-5a93a8f61ca7","system_id":"levelo_inurba_marseille","lat":43.231924,"lon":5.399734,"is_reserved":false,"is_disabled":false,"rental_uris":{"android":"levelo://app?vid=dc61c065-6ed1-487e-9ecf-5a93a8f61ca7","ios":"levelo://app?vid=dc61c065-6ed1-487e-9ecf-5a93a8f61ca7"},"vehicle_type_id":"4","last_reported":1747912165,"current_range_meters":10800,"station_id":"ce4bhn12rcd13ifvqgqg","pricing_plan_id":"cebpf4jnsgd1na2vs0mg"},{"bike_id":"7dfdfdc8-9c79-46b6-9a4b-924773b53f29","system_id":"levelo_inurba_marseille","lat":43.26854,"lon":5.391611,"is_reserved":false,"is_disabled":false,"rental_uris":{"android":"levelo://app?vid=7dfdfdc8-9c79-46b6-9a4b-924773b53f29","ios":"levelo://app?vid=7dfdfdc8-9c79-46b6-9a4b-924773b53f29"},"vehicle_type_id":"4","last_reported":1747912165,"current_range_meters":11200,"station_id":"","pricing_plan_id":"cebpf4jnsgd1na2vs0mg"},{"bike_id":"5b4a8d35-9d6b-43f9-85c3-4b754f85f812","system_id":"levelo_inurba_marseille","lat":43.31327,"lon":5.39688,"is_reserved":false,"is_disabled":false,"rental_uris":{"android":"levelo://app?vid=5b4a8d35-9d6b-43f9-85c3-4b754f85f812","ios":"levelo://app?vid=5b4a8d35-9d6b-43f9-85c3-4b754f85f812"},"vehicle_type_id":"4","last_reported":1747912165,"current_range_meters":11200,"station_id":"ce4bgvp2rcd13ifvqcu0","pricing_plan_id":"cebpf4jnsgd1na2vs0mg"},{"bike_id":"b25b2444-c654-4c54-aabb-eb86a51dd2c7","system_id":"levelo_inurba_marseille","lat":43.2606,"lon":5.39381,"is_reserved":false,"is_disabled":false,"rental_uris":{"android":"levelo://app?vid=b25b2444-c654-4c54-aabb-eb86a51dd2c7","ios":"levelo://app?vid=b25b2444-c654-4c54-aabb-eb86a51dd2c7"},"vehicle_type_id":"4","last_reported":1747912165,"current_range_meters":11200,"station_id":"ce4bhh92rcd13ifvqfj0","pricing_plan_id":"cebpf4jnsgd1na2vs0mg"},{"bike_id":"1aa405fb-5b9d-48c8-8bad-9ac8ce771daf","system_id":"levelo_inurba_marseille","lat":43.2783,"lon":5.40719,"is_reserved":false,"is_disabled":false,"rental_uris":{"android":"levelo://app?vid=1aa405fb-5b9d-48c8-8bad-9ac8ce771daf","ios":"levelo://app?vid=1aa405fb-5b9d-48c8-8bad-9ac8ce771daf"},"vehicle_type_id":"4","last_reported":1747912165,"current_range_meters":11200,"station_id":"ce4bhnh2rcd13ifvqgtg","pricing_plan_id":"cebpf4jnsgd1na2vs0mg"},{"bike_id":"a2ce3a6d-78e6-4ff4-9e3f-2abce4f4e26a","system_id":"levelo_inurba_marseille","lat":43.31483,"lon":5.3731,"is_reserved":false,"is_disabled":false,"rental_uris":{"android":"levelo://app?vid=a2ce3a6d-78e6-4ff4-9e3f-2abce4f4e26a","ios":"levelo://app?vid=a2ce3a6d-78e6-4ff4-9e3f-2abce4f4e26a"},"vehicle_type_id":"4","last_reported":1747912165,"current_range_meters":11600,"station_id":"ce4bgt12rcd13ifvqcd0","pricing_plan_id":"cebpf4jnsgd1na2vs0mg"},{"bike_id":"ae9de707-a6ad-4a43-8b5a-1fdf361fa85c","system_id":"levelo_inurba_marseille","lat":43.30786,"lon":5.37664,"is_reserved":false,"is_disabled":false,"rental_uris":{"android":"levelo://app?vid=ae9de707-a6ad-4a43-8b5a-1fdf361fa85c","ios":"levelo://app?vid=ae9de707-a6ad-4a43-8b5a-1fdf361fa85c"},"vehicle_type_id":"4","last_reported":1747912165,"current_range_meters":11600,"station_id":"ce4bgv92rcd13ifvqcq0","pricing_plan_id":"cebpf4jnsgd1na2vs0mg"},{"bike_id":"bb534ed4-d73c-41f9-8af1-5d93027ec84e","system_id":"levelo_inurba_marseille","lat":43.28618,"lon":5.35106,"is_reserved":false,"is_disabled":false,"rental_uris":{"android":"levelo://app?vid=bb534ed4-d73c-41f9-8af1-5d93027ec84e","ios":"levelo://app?vid=bb534ed4-d73c-41f9-8af1-5d93027ec84e"},"vehicle_type_id":"4","last_reported":1747912165,"current_range_meters":11600,"station_id":"ce4bhch2rcd13ifvqeug","pricing_plan_id":"cebpf4jnsgd1na2vs0mg"},{"bike_id":"d59efff3-67ed-4f4d-93df-b04b3557f011","system_id":"levelo_inurba_marseille","lat":43.26568,"lon":5.39031,"is_reserved":false,"is_disabled":false,"rental_uris":{"android":"levelo://app?vid=d59efff3-67ed-4f4d-93df-b04b3557f011","ios":"levelo://app?vid=d59efff3-67ed-4f4d-93df-b04b3557f011"},"vehicle_type_id":"4","last_reported":1747912165,"current_range_meters":11600,"station_id":"ce4bhe12rcd13ifvqf30","pricing_plan_id":"cebpf4jnsgd1na2vs0mg"},{"bike_id":"db3c6044-8bc1-4050-bddb-e2949863524b","system_id":"levelo_inurba_marseille","lat":43.23181,"lon":5.39987,"is_reserved":false,"is_disabled":false,"rental_uris":{"android":"levelo://app?vid=db3c6044-8bc1-4050-bddb-e2949863524b","ios":"levelo://app?vid=db3c6044-8bc1-4050-bddb-e2949863524b"},"vehicle_type_id":"4","last_reported":1747912165,"current_range_meters":11600,"station_id":"ce4bhn12rcd13ifvqgqg","pricing_plan_id":"cebpf4jnsgd1na2vs0mg"},{"bike_id":"4801d8d8-a7d2-47b5-b5c3-542cdd34b3b5","system_id":"levelo_inurba_marseille","lat":43.27995,"lon":5.41662,"is_reserved":false,"is_disabled":false,"rental_uris":{"android":"levelo://app?vid=4801d8d8-a7d2-47b5-b5c3-542cdd34b3b5","ios":"levelo://app?vid=4801d8d8-a7d2-47b5-b5c3-542cdd34b3b5"},"vehicle_type_id":"4","last_reported":1747912165,"current_range_meters":11600,"station_id":"ce4bho12rcd13ifvqh1g","pricing_plan_id":"cebpf4jnsgd1na2vs0mg"},{"bike_id":"a360d39e-821b-4c0a-ab12-712bec24ad2f","system_id":"levelo_inurba_marseille","lat":43.31165,"lon":5.38727,"is_reserved":false,"is_disabled":false,"rental_uris":{"android":"levelo://app?vid=a360d39e-821b-4c0a-ab12-712bec24ad2f","ios":"levelo://app?vid=a360d39e-821b-4c0a-ab12-712bec24ad2f"},"vehicle_type_id":"4","last_reported":1747912165,"current_range_meters":12000,"station_id":"ce4bgv12rcd13ifvqcp0","pricing_plan_id":"cebpf4jnsgd1na2vs0mg"},{"bike_id":"a44a5ccb-3d58-417c-9bc9-618f4d03cb1d","system_id":"levelo_inurba_marseille","lat":43.27496,"lon":5.42445,"is_reserved":false,"is_disabled":false,"rental_uris":{"android":"levelo://app?vid=a44a5ccb-3d58-417c-9bc9-618f4d03cb1d","ios":"levelo://app?vid=a44a5ccb-3d58-417c-9bc9-618f4d03cb1d"},"vehicle_type_id":"4","last_reported":1747912165,"current_range_meters":12000,"station_id":"ce4bhn92rcd13ifvqgrg","pricing_plan_id":"cebpf4jnsgd1na2vs0mg"},{"bike_id":"e75389f6-919f-4165-ae31-bdd131757190","system_id":"levelo_inurba_marseille","lat":43.307366,"lon":5.424358,"is_reserved":false,"is_disabled":false,"rental_uris":{"android":"levelo://app?vid=e75389f6-919f-4165-ae31-bdd131757190","ios":"levelo://app?vid=e75389f6-919f-4165-ae31-bdd131757190"},"vehicle_type_id":"4","last_reported":1747912165,"current_range_meters":12000,"station_id":"st_cvj6ca6bvosntc0bfgr0","pricing_plan_id":"cebpf4jnsgd1na2vs0mg"},{"bike_id":"92154f76-5dda-464c-9b83-3345e0a4b5c7","system_id":"levelo_inurba_marseille","lat":43.298446,"lon":5.362769,"is_reserved":false,"is_disabled":false,"rental_uris":{"android":"levelo://app?vid=92154f76-5dda-464c-9b83-3345e0a4b5c7","ios":"levelo://app?vid=92154f76-5dda-464c-9b83-3345e0a4b5c7"},"vehicle_type_id":"4","last_reported":1747912165,"current_range_meters":12400,"station_id":"ce4bgpp2rcd13ifvqc3g","pricing_plan_id":"cebpf4jnsgd1na2vs0mg"},{"bike_id":"de0fb914-815f-496e-b265-257c322a0437","system_id":"levelo_inurba_marseille","lat":43.26553,"lon":5.37286,"is_reserved":false,"is_disabled":false,"rental_uris":{"android":"levelo://app?vid=de0fb914-815f-496e-b265-257c322a0437","ios":"levelo://app?vid=de0fb914-815f-496e-b265-257c322a0437"},"vehicle_type_id":"4","last_reported":1747912165,"current_range_meters":12400,"station_id":"ce4bhg12rcd13ifvqf70","pricing_plan_id":"cebpf4jnsgd1na2vs0mg"},{"bike_id":"c65de6e6-f5cb-4f1f-9cdc-61d9c6ffe562","system_id":"levelo_inurba_marseille","lat":43.26955,"lon":5.38641,"is_reserved":false,"is_disabled":false,"rental_uris":{"android":"levelo://app?vid=c65de6e6-f5cb-4f1f-9cdc-61d9c6ffe562","ios":"levelo://app?vid=c65de6e6-f5cb-4f1f-9cdc-61d9c6ffe562"},"vehicle_type_id":"4","last_reported":1747912165,"current_range_meters":12400,"station_id":"ce4bhh92rcd13ifvqfh0","pricing_plan_id":"cebpf4jnsgd1na2vs0mg"},{"bike_id":"8a9416d3-2a37-4312-9622-494ce1845d80","system_id":"levelo_inurba_marseille","lat":43.32363,"lon":5.36757,"is_reserved":false,"is_disabled":false,"rental_uris":{"android":"levelo://app?vid=8a9416d3-2a37-4312-9622-494ce1845d80","ios":"levelo://app?vid=8a9416d3-2a37-4312-9622-494ce1845d80"},"vehicle_type_id":"4","last_reported":1747912165,"current_range_meters":12400,"station_id":"ce4bhsh2rcd13ifvqi2g","pricing_plan_id":"cebpf4jnsgd1na2vs0mg"},{"bike_id":"454fe956-8c5a-4a46-a4f6-74fe6bf33c90","system_id":"levelo_inurba_marseille","lat":43.26803,"lon":5.40256,"is_reserved":false,"is_disabled":false,"rental_uris":{"android":"levelo://app?vid=454fe956-8c5a-4a46-a4f6-74fe6bf33c90","ios":"levelo://app?vid=454fe956-8c5a-4a46-a4f6-74fe6bf33c90"},"vehicle_type_id":"4","last_reported":1747912165,"current_range_meters":12400,"station_id":"ce501612rcd8frsf0b60","pricing_plan_id":"cebpf4jnsgd1na2vs0mg"},{"bike_id":"d8ef93ab-6594-4205-bec9-cbf07e2aa23e","system_id":"levelo_inurba_marseille","lat":43.24167,"lon":5.36396,"is_reserved":false,"is_disabled":false,"rental_uris":{"android":"levelo://app?vid=d8ef93ab-6594-4205-bec9-cbf07e2aa23e","ios":"levelo://app?vid=d8ef93ab-6594-4205-bec9-cbf07e2aa23e"},"vehicle_type_id":"4","last_reported":1747912165,"current_range_meters":12400,"station_id":"cpo36qri1sfpv3e86is0","pricing_plan_id":"cebpf4jnsgd1na2vs0mg"},{"bike_id":"e9613de6-7c57-4a98-a934-bb3a18456afb","system_id":"levelo_inurba_marseille","lat":43.297128,"lon":5.37698,"is_reserved":false,"is_disabled":false,"rental_uris":{"android":"levelo://app?vid=e9613de6-7c57-4a98-a934-bb3a18456afb","ios":"levelo://app?vid=e9613de6-7c57-4a98-a934-bb3a18456afb"},"vehicle_type_id":"4","last_reported":1747912165,"current_range_meters":12800,"station_id":"ce4bgkh2rcd13ifvqbl0","pricing_plan_id":"cebpf4jnsgd1na2vs0mg"},{"bike_id":"dabcd225-11f4-4f19-9d1a-051841ae455f","system_id":"levelo_inurba_marseille","lat":43.29966,"lon":5.37162,"is_reserved":false,"is_disabled":false,"rental_uris":{"android":"levelo://app?vid=dabcd225-11f4-4f19-9d1a-051841ae455f","ios":"levelo://app?vid=dabcd225-11f4-4f19-9d1a-051841ae455f"},"vehicle_type_id":"4","last_reported":1747912165,"current_range_meters":12800,"station_id":"ce4bgr92rcd13ifvqc7g","pricing_plan_id":"cebpf4jnsgd1na2vs0mg"},{"bike_id":"3dd36d69-f771-407c-95bd-f2efff5b7ec0","system_id":"levelo_inurba_marseille","lat":43.30536,"lon":5.36517,"is_reserved":false,"is_disabled":false,"rental_uris":{"android":"levelo://app?vid=3dd36d69-f771-407c-95bd-f2efff5b7ec0","ios":"levelo://app?vid=3dd36d69-f771-407c-95bd-f2efff5b7ec0"},"vehicle_type_id":"4","last_reported":1747912165,"current_range_meters":12800,"station_id":"ce4bgs12rcd13ifvqcag","pricing_plan_id":"cebpf4jnsgd1na2vs0mg"},{"bike_id":"fe8c6f9a-dfd6-4c0a-b297-d089d3f318a9","system_id":"levelo_inurba_marseille","lat":43.30208,"lon":5.39474,"is_reserved":false,"is_disabled":false,"rental_uris":{"android":"levelo://app?vid=fe8c6f9a-dfd6-4c0a-b297-d089d3f318a9","ios":"levelo://app?vid=fe8c6f9a-dfd6-4c0a-b297-d089d3f318a9"},"vehicle_type_id":"4","last_reported":1747912165,"current_range_meters":12800,"station_id":"ce4bh0p2rcd13ifvqd70","pricing_plan_id":"cebpf4jnsgd1na2vs0mg"},{"bike_id":"5c5de4e5-c172-4f04-a206-9cdf8f8752a7","system_id":"levelo_inurba_marseille","lat":43.30463,"lon":5.3791,"is_reserved":false,"is_disabled":false,"rental_uris":{"android":"levelo://app?vid=5c5de4e5-c172-4f04-a206-9cdf8f8752a7","ios":"levelo://app?vid=5c5de4e5-c172-4f04-a206-9cdf8f8752a7"},"vehicle_type_id":"4","last_reported":1747912165,"current_range_meters":13600,"station_id":"ce4bgup2rcd13ifvqcn0","pricing_plan_id":"cebpf4jnsgd1na2vs0mg"},{"bike_id":"f9223343-51dd-4eb0-a255-7d7bd8e5d0ef","system_id":"levelo_inurba_marseille","lat":43.31173,"lon":5.40155,"is_reserved":false,"is_disabled":false,"rental_uris":{"android":"levelo://app?vid=f9223343-51dd-4eb0-a255-7d7bd8e5d0ef","ios":"levelo://app?vid=f9223343-51dd-4eb0-a255-7d7bd8e5d0ef"},"vehicle_type_id":"4","last_reported":1747912165,"current_range_meters":14000,"station_id":"","pricing_plan_id":"cebpf4jnsgd1na2vs0mg"},{"bike_id":"3e99b3f9-e1a1-44c3-9a7a-3becf99d29d6","system_id":"levelo_inurba_marseille","lat":43.29973,"lon":5.38493,"is_reserved":false,"is_disabled":false,"rental_uris":{"android":"levelo://app?vid=3e99b3f9-e1a1-44c3-9a7a-3becf99d29d6","ios":"levelo://app?vid=3e99b3f9-e1a1-44c3-9a7a-3becf99d29d6"},"vehicle_type_id":"4","last_reported":1747912165,"current_range_meters":14000,"station_id":"ce4bgj92rcd13ifvqbd0","pricing_plan_id":"cebpf4jnsgd1na2vs0mg"},{"bike_id":"e1fae40e-4fbd-49fc-a296-4b34fc7fd0eb","system_id":"levelo_inurba_marseille","lat":43.30463,"lon":5.37907,"is_reserved":false,"is_disabled":false,"rental_uris":{"android":"levelo://app?vid=e1fae40e-4fbd-49fc-a296-4b34fc7fd0eb","ios":"levelo://app?vid=e1fae40e-4fbd-49fc-a296-4b34fc7fd0eb"},"vehicle_type_id":"4","last_reported":1747912165,"current_range_meters":14000,"station_id":"ce4bgup2rcd13ifvqcn0","pricing_plan_id":"cebpf4jnsgd1na2vs0mg"},{"bike_id":"87a2a2c3-d887-4b95-89dc-6afebab4b0e6","system_id":"levelo_inurba_marseille","lat":43.27175,"lon":5.40992,"is_reserved":false,"is_disabled":false,"rental_uris":{"android":"levelo://app?vid=87a2a2c3-d887-4b95-89dc-6afebab4b0e6","ios":"levelo://app?vid=87a2a2c3-d887-4b95-89dc-6afebab4b0e6"},"vehicle_type_id":"4","last_reported":1747912165,"current_range_meters":14000,"station_id":"ce4bhl12rcd13ifvqgf0","pricing_plan_id":"cebpf4jnsgd1na2vs0mg"},{"bike_id":"6991faf2-2513-4589-bf91-2084b131c03d","system_id":"levelo_inurba_marseille","lat":43.25112,"lon":5.40329,"is_reserved":false,"is_disabled":false,"rental_uris":{"android":"levelo://app?vid=6991faf2-2513-4589-bf91-2084b131c03d","ios":"levelo://app?vid=6991faf2-2513-4589-bf91-2084b131c03d"},"vehicle_type_id":"4","last_reported":1747912165,"current_range_meters":14000,"station_id":"ce4bhlh2rcd13ifvqgig","pricing_plan_id":"cebpf4jnsgd1na2vs0mg"},{"bike_id":"48ea8974-3fb9-4bda-b3eb-3f3919ec67a2","system_id":"levelo_inurba_marseille","lat":43.26796,"lon":5.40271,"is_reserved":false,"is_disabled":false,"rental_uris":{"android":"levelo://app?vid=48ea8974-3fb9-4bda-b3eb-3f3919ec67a2","ios":"levelo://app?vid=48ea8974-3fb9-4bda-b3eb-3f3919ec67a2"},"vehicle_type_id":"4","last_reported":1747912165,"current_range_meters":14000,"station_id":"ce501612rcd8frsf0b60","pricing_plan_id":"cebpf4jnsgd1na2vs0mg"},{"bike_id":"316171f9-708a-4aa3-841f-d81ac3dff38d","system_id":"levelo_inurba_marseille","lat":43.30187,"lon":5.36623,"is_reserved":false,"is_disabled":false,"rental_uris":{"android":"levelo://app?vid=316171f9-708a-4aa3-841f-d81ac3dff38d","ios":"levelo://app?vid=316171f9-708a-4aa3-841f-d81ac3dff38d"},"vehicle_type_id":"4","last_reported":1747912165,"current_range_meters":14400,"station_id":"ce4bgrh2rcd13ifvqc8g","pricing_plan_id":"cebpf4jnsgd1na2vs0mg"},{"bike_id":"fbc28b11-1d2d-416a-8cad-1b7566d12481","system_id":"levelo_inurba_marseille","lat":43.30534,"lon":5.36535,"is_reserved":false,"is_disabled":false,"rental_uris":{"android":"levelo://app?vid=fbc28b11-1d2d-416a-8cad-1b7566d12481","ios":"levelo://app?vid=fbc28b11-1d2d-416a-8cad-1b7566d12481"},"vehicle_type_id":"4","last_reported":1747912165,"current_range_meters":14400,"station_id":"ce4bgs12rcd13ifvqcag","pricing_plan_id":"cebpf4jnsgd1na2vs0mg"},{"bike_id":"6777b959-9cf4-49f0-991a-e522241590c2","system_id":"levelo_inurba_marseille","lat":43.26555,"lon":5.37283,"is_reserved":false,"is_disabled":false,"rental_uris":{"android":"levelo://app?vid=6777b959-9cf4-49f0-991a-e522241590c2","ios":"levelo://app?vid=6777b959-9cf4-49f0-991a-e522241590c2"},"vehicle_type_id":"4","last_reported":1747912165,"current_range_meters":14400,"station_id":"ce4bhg12rcd13ifvqf70","pricing_plan_id":"cebpf4jnsgd1na2vs0mg"},{"bike_id":"1c565939-385f-452f-a1f9-02b75b4eacbd","system_id":"levelo_inurba_marseille","lat":43.26942,"lon":5.40252,"is_reserved":false,"is_disabled":false,"rental_uris":{"android":"levelo://app?vid=1c565939-385f-452f-a1f9-02b75b4eacbd","ios":"levelo://app?vid=1c565939-385f-452f-a1f9-02b75b4eacbd"},"vehicle_type_id":"4","last_reported":1747912165,"current_range_meters":14400,"station_id":"cjm6bp8fraef2m0cb0m0","pricing_plan_id":"cebpf4jnsgd1na2vs0mg"},{"bike_id":"7da06f34-e019-4b18-921d-8f77e54cc2f1","system_id":"levelo_inurba_marseille","lat":43.24903,"lon":5.394,"is_reserved":false,"is_disabled":false,"rental_uris":{"android":"levelo://app?vid=7da06f34-e019-4b18-921d-8f77e54cc2f1","ios":"levelo://app?vid=7da06f34-e019-4b18-921d-8f77e54cc2f1"},"vehicle_type_id":"4","last_reported":1747912165,"current_range_meters":14800,"station_id":"","pricing_plan_id":"cebpf4jnsgd1na2vs0mg"},{"bike_id":"6ee1d625-776e-485f-8890-7f368f118394","system_id":"levelo_inurba_marseille","lat":43.29581,"lon":5.36741,"is_reserved":false,"is_disabled":false,"rental_uris":{"android":"levelo://app?vid=6ee1d625-776e-485f-8890-7f368f118394","ios":"levelo://app?vid=6ee1d625-776e-485f-8890-7f368f118394"},"vehicle_type_id":"4","last_reported":1747912165,"current_range_meters":14800,"station_id":"ce4bgph2rcd13ifvqc2g","pricing_plan_id":"cebpf4jnsgd1na2vs0mg"},{"bike_id":"05b2827c-9a32-4032-ba9e-7a9b671b11e2","system_id":"levelo_inurba_marseille","lat":43.30551,"lon":5.36538,"is_reserved":false,"is_disabled":false,"rental_uris":{"android":"levelo://app?vid=05b2827c-9a32-4032-ba9e-7a9b671b11e2","ios":"levelo://app?vid=05b2827c-9a32-4032-ba9e-7a9b671b11e2"},"vehicle_type_id":"4","last_reported":1747912165,"current_range_meters":14800,"station_id":"ce4bgs12rcd13ifvqcag","pricing_plan_id":"cebpf4jnsgd1na2vs0mg"},{"bike_id":"360e5ec9-ddd1-44ef-9da4-98accbd65283","system_id":"levelo_inurba_marseille","lat":43.27326,"lon":5.3908,"is_reserved":false,"is_disabled":false,"rental_uris":{"android":"levelo://app?vid=360e5ec9-ddd1-44ef-9da4-98accbd65283","ios":"levelo://app?vid=360e5ec9-ddd1-44ef-9da4-98accbd65283"},"vehicle_type_id":"4","last_reported":1747912165,"current_range_meters":14800,"station_id":"ce4bhgp2rcd13ifvqfe0","pricing_plan_id":"cebpf4jnsgd1na2vs0mg"},{"bike_id":"87457297-3545-4b08-9db3-7149b3c4a655","system_id":"levelo_inurba_marseille","lat":43.26927,"lon":5.38919,"is_reserved":false,"is_disabled":false,"rental_uris":{"android":"levelo://app?vid=87457297-3545-4b08-9db3-7149b3c4a655","ios":"levelo://app?vid=87457297-3545-4b08-9db3-7149b3c4a655"},"vehicle_type_id":"4","last_reported":1747912165,"current_range_meters":14800,"station_id":"ce4bhhh2rcd13ifvqfl0","pricing_plan_id":"cebpf4jnsgd1na2vs0mg"},{"bike_id":"714a5f60-151f-4a9e-b7c5-040c2b9c1810","system_id":"levelo_inurba_marseille","lat":43.28155,"lon":5.42642,"is_reserved":false,"is_disabled":false,"rental_uris":{"android":"levelo://app?vid=714a5f60-151f-4a9e-b7c5-040c2b9c1810","ios":"levelo://app?vid=714a5f60-151f-4a9e-b7c5-040c2b9c1810"},"vehicle_type_id":"4","last_reported":1747912165,"current_range_meters":14800,"station_id":"ce4bhnh2rcd13ifvqgug","pricing_plan_id":"cebpf4jnsgd1na2vs0mg"},{"bike_id":"84f00b51-2429-41be-8a43-83978d7764de","system_id":"levelo_inurba_marseille","lat":43.27992,"lon":5.40028,"is_reserved":false,"is_disabled":false,"rental_uris":{"android":"levelo://app?vid=84f00b51-2429-41be-8a43-83978d7764de","ios":"levelo://app?vid=84f00b51-2429-41be-8a43-83978d7764de"},"vehicle_type_id":"4","last_reported":1747912165,"current_range_meters":14800,"station_id":"ce4bho92rcd13ifvqh4g","pricing_plan_id":"cebpf4jnsgd1na2vs0mg"},{"bike_id":"bfa5a104-d251-4111-ad8e-5875abd9e03f","system_id":"levelo_inurba_marseille","lat":43.2821,"lon":5.39068,"is_reserved":false,"is_disabled":false,"rental_uris":{"android":"levelo://app?vid=bfa5a104-d251-4111-ad8e-5875abd9e03f","ios":"levelo://app?vid=bfa5a104-d251-4111-ad8e-5875abd9e03f"},"vehicle_type_id":"4","last_reported":1747912165,"current_range_meters":15200,"station_id":"","pricing_plan_id":"cebpf4jnsgd1na2vs0mg"},{"bike_id":"dc39210b-ef4a-43c0-b07f-d2a8afc34298","system_id":"levelo_inurba_marseille","lat":43.28033,"lon":5.36946,"is_reserved":false,"is_disabled":false,"rental_uris":{"android":"levelo://app?vid=dc39210b-ef4a-43c0-b07f-d2a8afc34298","ios":"levelo://app?vid=dc39210b-ef4a-43c0-b07f-d2a8afc34298"},"vehicle_type_id":"4","last_reported":1747912165,"current_range_meters":15200,"station_id":"ce4bha12rcd13ifvqef0","pricing_plan_id":"cebpf4jnsgd1na2vs0mg"},{"bike_id":"e3e19b90-9823-4b53-b8a7-4c599b3176c2","system_id":"levelo_inurba_marseille","lat":43.251124,"lon":5.403245,"is_reserved":false,"is_disabled":false,"rental_uris":{"android":"levelo://app?vid=e3e19b90-9823-4b53-b8a7-4c599b3176c2","ios":"levelo://app?vid=e3e19b90-9823-4b53-b8a7-4c599b3176c2"},"vehicle_type_id":"4","last_reported":1747912165,"current_range_meters":15200,"station_id":"ce4bhlh2rcd13ifvqgig","pricing_plan_id":"cebpf4jnsgd1na2vs0mg"},{"bike_id":"e7b07fe3-1259-4ba8-b352-5842bd7b4a41","system_id":"levelo_inurba_marseille","lat":43.295131,"lon":5.390351,"is_reserved":false,"is_disabled":false,"rental_uris":{"android":"levelo://app?vid=e7b07fe3-1259-4ba8-b352-5842bd7b4a41","ios":"levelo://app?vid=e7b07fe3-1259-4ba8-b352-5842bd7b4a41"},"vehicle_type_id":"4","last_reported":1747912165,"current_range_meters":16000,"station_id":"ce4bh3p2rcd13ifvqdp0","pricing_plan_id":"cebpf4jnsgd1na2vs0mg"},{"bike_id":"c96388aa-f14f-4d51-8224-65b76087755c","system_id":"levelo_inurba_marseille","lat":43.262093,"lon":5.374477,"is_reserved":false,"is_disabled":false,"rental_uris":{"android":"levelo://app?vid=c96388aa-f14f-4d51-8224-65b76087755c","ios":"levelo://app?vid=c96388aa-f14f-4d51-8224-65b76087755c"},"vehicle_type_id":"4","last_reported":1747912165,"current_range_meters":16000,"station_id":"ce4bhgp2rcd13ifvqfc0","pricing_plan_id":"cebpf4jnsgd1na2vs0mg"},{"bike_id":"40497ba9-7842-4863-98e4-8053d2175f0a","system_id":"levelo_inurba_marseille","lat":43.24178,"lon":5.39731,"is_reserved":false,"is_disabled":false,"rental_uris":{"android":"levelo://app?vid=40497ba9-7842-4863-98e4-8053d2175f0a","ios":"levelo://app?vid=40497ba9-7842-4863-98e4-8053d2175f0a"},"vehicle_type_id":"4","last_reported":1747912165,"current_range_meters":16000,"station_id":"ce4bhn12rcd13ifvqgpg","pricing_plan_id":"cebpf4jnsgd1na2vs0mg"},{"bike_id":"029d6d37-dff9-4fe2-9e58-698ef34557e1","system_id":"levelo_inurba_marseille","lat":43.31759,"lon":5.39013,"is_reserved":false,"is_disabled":false,"rental_uris":{"android":"levelo://app?vid=029d6d37-dff9-4fe2-9e58-698ef34557e1","ios":"levelo://app?vid=029d6d37-dff9-4fe2-9e58-698ef34557e1"},"vehicle_type_id":"4","last_reported":1747912165,"current_range_meters":16000,"station_id":"ce4bhqp2rcd13ifvqhng","pricing_plan_id":"cebpf4jnsgd1na2vs0mg"},{"bike_id":"64e8d141-7d8b-48cf-90b9-b154ac715691","system_id":"levelo_inurba_marseille","lat":43.29737,"lon":5.3809,"is_reserved":false,"is_disabled":false,"rental_uris":{"android":"levelo://app?vid=64e8d141-7d8b-48cf-90b9-b154ac715691","ios":"levelo://app?vid=64e8d141-7d8b-48cf-90b9-b154ac715691"},"vehicle_type_id":"4","last_reported":1747912165,"current_range_meters":16400,"station_id":"","pricing_plan_id":"cebpf4jnsgd1na2vs0mg"},{"bike_id":"eeaba9d7-a642-4cc0-804b-2318da749cde","system_id":"levelo_inurba_marseille","lat":43.28356,"lon":5.38106,"is_reserved":false,"is_disabled":false,"rental_uris":{"android":"levelo://app?vid=eeaba9d7-a642-4cc0-804b-2318da749cde","ios":"levelo://app?vid=eeaba9d7-a642-4cc0-804b-2318da749cde"},"vehicle_type_id":"4","last_reported":1747912165,"current_range_meters":16400,"station_id":"ce4bh412rcd13ifvqdr0","pricing_plan_id":"cebpf4jnsgd1na2vs0mg"},{"bike_id":"7eb22305-d1a6-453d-8892-ea9b1325c1ed","system_id":"levelo_inurba_marseille","lat":43.28405,"lon":5.37524,"is_reserved":false,"is_disabled":false,"rental_uris":{"android":"levelo://app?vid=7eb22305-d1a6-453d-8892-ea9b1325c1ed","ios":"levelo://app?vid=7eb22305-d1a6-453d-8892-ea9b1325c1ed"},"vehicle_type_id":"4","last_reported":1747912165,"current_range_meters":16400,"station_id":"ce4bh412rcd13ifvqds0","pricing_plan_id":"cebpf4jnsgd1na2vs0mg"},{"bike_id":"504baffc-ad18-42f1-ba3c-e8815f65a9f8","system_id":"levelo_inurba_marseille","lat":43.26565,"lon":5.39045,"is_reserved":false,"is_disabled":false,"rental_uris":{"android":"levelo://app?vid=504baffc-ad18-42f1-ba3c-e8815f65a9f8","ios":"levelo://app?vid=504baffc-ad18-42f1-ba3c-e8815f65a9f8"},"vehicle_type_id":"4","last_reported":1747912165,"current_range_meters":16400,"station_id":"ce4bhe12rcd13ifvqf30","pricing_plan_id":"cebpf4jnsgd1na2vs0mg"},{"bike_id":"84565c1c-8813-4a48-ab05-f4ad31598370","system_id":"levelo_inurba_marseille","lat":43.26794,"lon":5.39411,"is_reserved":false,"is_disabled":false,"rental_uris":{"android":"levelo://app?vid=84565c1c-8813-4a48-ab05-f4ad31598370","ios":"levelo://app?vid=84565c1c-8813-4a48-ab05-f4ad31598370"},"vehicle_type_id":"4","last_reported":1747912165,"current_range_meters":16400,"station_id":"ce4bhh12rcd13ifvqfg0","pricing_plan_id":"cebpf4jnsgd1na2vs0mg"},{"bike_id":"605be4bf-deee-4b33-a4cb-0294e9797557","system_id":"levelo_inurba_marseille","lat":43.230589,"lon":5.354903,"is_reserved":false,"is_disabled":false,"rental_uris":{"android":"levelo://app?vid=605be4bf-deee-4b33-a4cb-0294e9797557","ios":"levelo://app?vid=605be4bf-deee-4b33-a4cb-0294e9797557"},"vehicle_type_id":"4","last_reported":1747912165,"current_range_meters":16400,"station_id":"cpo3342slgdg3j2ifvpg","pricing_plan_id":"cebpf4jnsgd1na2vs0mg"},{"bike_id":"41bef200-0210-46a9-afd1-c001d345c4b0","system_id":"levelo_inurba_marseille","lat":43.33639,"lon":5.37843,"is_reserved":false,"is_disabled":false,"rental_uris":{"android":"levelo://app?vid=41bef200-0210-46a9-afd1-c001d345c4b0","ios":"levelo://app?vid=41bef200-0210-46a9-afd1-c001d345c4b0"},"vehicle_type_id":"4","last_reported":1747912165,"current_range_meters":16800,"station_id":"","pricing_plan_id":"cebpf4jnsgd1na2vs0mg"},{"bike_id":"3e02962e-ad43-4b92-98a6-0d6f6852a494","system_id":"levelo_inurba_marseille","lat":43.2606,"lon":5.41867,"is_reserved":false,"is_disabled":false,"rental_uris":{"android":"levelo://app?vid=3e02962e-ad43-4b92-98a6-0d6f6852a494","ios":"levelo://app?vid=3e02962e-ad43-4b92-98a6-0d6f6852a494"},"vehicle_type_id":"4","last_reported":1747912165,"current_range_meters":16800,"station_id":"","pricing_plan_id":"cebpf4jnsgd1na2vs0mg"},{"bike_id":"d5c22bd8-bd85-4efe-9877-d80e379dde93","system_id":"levelo_inurba_marseille","lat":43.33767,"lon":5.37375,"is_reserved":false,"is_disabled":false,"rental_uris":{"android":"levelo://app?vid=d5c22bd8-bd85-4efe-9877-d80e379dde93","ios":"levelo://app?vid=d5c22bd8-bd85-4efe-9877-d80e379dde93"},"vehicle_type_id":"4","last_reported":1747912165,"current_range_meters":16800,"station_id":"","pricing_plan_id":"cebpf4jnsgd1na2vs0mg"},{"bike_id":"50b2229c-39da-488c-8613-7a6e1003d957","system_id":"levelo_inurba_marseille","lat":43.30535,"lon":5.36572,"is_reserved":false,"is_disabled":false,"rental_uris":{"android":"levelo://app?vid=50b2229c-39da-488c-8613-7a6e1003d957","ios":"levelo://app?vid=50b2229c-39da-488c-8613-7a6e1003d957"},"vehicle_type_id":"4","last_reported":1747912165,"current_range_meters":16800,"station_id":"ce4bgs12rcd13ifvqcag","pricing_plan_id":"cebpf4jnsgd1na2vs0mg"},{"bike_id":"dee19f16-dc1c-43a0-a7e6-f62d171e520b","system_id":"levelo_inurba_marseille","lat":43.30471,"lon":5.37899,"is_reserved":false,"is_disabled":false,"rental_uris":{"android":"levelo://app?vid=dee19f16-dc1c-43a0-a7e6-f62d171e520b","ios":"levelo://app?vid=dee19f16-dc1c-43a0-a7e6-f62d171e520b"},"vehicle_type_id":"4","last_reported":1747912165,"current_range_meters":16800,"station_id":"ce4bgup2rcd13ifvqcn0","pricing_plan_id":"cebpf4jnsgd1na2vs0mg"},{"bike_id":"bf6964c8-56a1-4921-bc60-f9010ef74c70","system_id":"levelo_inurba_marseille","lat":43.29561,"lon":5.39973,"is_reserved":false,"is_disabled":false,"rental_uris":{"android":"levelo://app?vid=bf6964c8-56a1-4921-bc60-f9010ef74c70","ios":"levelo://app?vid=bf6964c8-56a1-4921-bc60-f9010ef74c70"},"vehicle_type_id":"4","last_reported":1747912165,"current_range_meters":16800,"station_id":"ce4bh312rcd13ifvqdj0","pricing_plan_id":"cebpf4jnsgd1na2vs0mg"},{"bike_id":"e7c8cc89-f1fd-4b27-ae8c-206dbef44dff","system_id":"levelo_inurba_marseille","lat":43.26558,"lon":5.37282,"is_reserved":false,"is_disabled":false,"rental_uris":{"android":"levelo://app?vid=e7c8cc89-f1fd-4b27-ae8c-206dbef44dff","ios":"levelo://app?vid=e7c8cc89-f1fd-4b27-ae8c-206dbef44dff"},"vehicle_type_id":"4","last_reported":1747912165,"current_range_meters":16800,"station_id":"ce4bhg12rcd13ifvqf70","pricing_plan_id":"cebpf4jnsgd1na2vs0mg"},{"bike_id":"800a4ee9-8078-4ad6-8ded-b296a93ca9bc","system_id":"levelo_inurba_marseille","lat":43.24678,"lon":5.38155,"is_reserved":false,"is_disabled":false,"rental_uris":{"android":"levelo://app?vid=800a4ee9-8078-4ad6-8ded-b296a93ca9bc","ios":"levelo://app?vid=800a4ee9-8078-4ad6-8ded-b296a93ca9bc"},"vehicle_type_id":"4","last_reported":1747912165,"current_range_meters":16800,"station_id":"ce4bhih2rcd13ifvqfr0","pricing_plan_id":"cebpf4jnsgd1na2vs0mg"},{"bike_id":"93de0502-d353-47e0-9a51-14ee1e59465b","system_id":"levelo_inurba_marseille","lat":43.23149,"lon":5.43703,"is_reserved":false,"is_disabled":false,"rental_uris":{"android":"levelo://app?vid=93de0502-d353-47e0-9a51-14ee1e59465b","ios":"levelo://app?vid=93de0502-d353-47e0-9a51-14ee1e59465b"},"vehicle_type_id":"4","last_reported":1747912165,"current_range_meters":16800,"station_id":"ce4bhmp2rcd13ifvqgog","pricing_plan_id":"cebpf4jnsgd1na2vs0mg"},{"bike_id":"91e6433b-f858-4998-a178-633dadddfce1","system_id":"levelo_inurba_marseille","lat":43.30309,"lon":5.39205,"is_reserved":false,"is_disabled":false,"rental_uris":{"android":"levelo://app?vid=91e6433b-f858-4998-a178-633dadddfce1","ios":"levelo://app?vid=91e6433b-f858-4998-a178-633dadddfce1"},"vehicle_type_id":"4","last_reported":1747912165,"current_range_meters":17200,"station_id":"ce4bgkh2rcd13ifvqbk0","pricing_plan_id":"cebpf4jnsgd1na2vs0mg"},{"bike_id":"ee56ee7c-9d16-4de7-a131-0d94308624f8","system_id":"levelo_inurba_marseille","lat":43.26566,"lon":5.39017,"is_reserved":false,"is_disabled":false,"rental_uris":{"android":"levelo://app?vid=ee56ee7c-9d16-4de7-a131-0d94308624f8","ios":"levelo://app?vid=ee56ee7c-9d16-4de7-a131-0d94308624f8"},"vehicle_type_id":"4","last_reported":1747912165,"current_range_meters":17200,"station_id":"ce4bhe12rcd13ifvqf30","pricing_plan_id":"cebpf4jnsgd1na2vs0mg"},{"bike_id":"9241d1a5-4bb6-4f35-afca-6efaa0076822","system_id":"levelo_inurba_marseille","lat":43.26799,"lon":5.3941,"is_reserved":false,"is_disabled":false,"rental_uris":{"android":"levelo://app?vid=9241d1a5-4bb6-4f35-afca-6efaa0076822","ios":"levelo://app?vid=9241d1a5-4bb6-4f35-afca-6efaa0076822"},"vehicle_type_id":"4","last_reported":1747912165,"current_range_meters":17200,"station_id":"ce4bhh12rcd13ifvqfg0","pricing_plan_id":"cebpf4jnsgd1na2vs0mg"},{"bike_id":"e5e94367-a52e-4db2-9b83-8db365660e30","system_id":"levelo_inurba_marseille","lat":43.25908,"lon":5.4095,"is_reserved":false,"is_disabled":false,"rental_uris":{"android":"levelo://app?vid=e5e94367-a52e-4db2-9b83-8db365660e30","ios":"levelo://app?vid=e5e94367-a52e-4db2-9b83-8db365660e30"},"vehicle_type_id":"4","last_reported":1747912165,"current_range_meters":17200,"station_id":"ce4bhm92rcd13ifvqglg","pricing_plan_id":"cebpf4jnsgd1na2vs0mg"},{"bike_id":"d30cb24d-2670-4794-bb1e-ce3fa0441112","system_id":"levelo_inurba_marseille","lat":43.31716,"lon":5.42395,"is_reserved":false,"is_disabled":false,"rental_uris":{"android":"levelo://app?vid=d30cb24d-2670-4794-bb1e-ce3fa0441112","ios":"levelo://app?vid=d30cb24d-2670-4794-bb1e-ce3fa0441112"},"vehicle_type_id":"4","last_reported":1747912165,"current_range_meters":17200,"station_id":"ce4bhp92rcd13ifvqhbg","pricing_plan_id":"cebpf4jnsgd1na2vs0mg"},{"bike_id":"56c8d25f-d952-40d3-88ed-c24304daee4b","system_id":"levelo_inurba_marseille","lat":43.33723,"lon":5.39189,"is_reserved":false,"is_disabled":false,"rental_uris":{"android":"levelo://app?vid=56c8d25f-d952-40d3-88ed-c24304daee4b","ios":"levelo://app?vid=56c8d25f-d952-40d3-88ed-c24304daee4b"},"vehicle_type_id":"4","last_reported":1747912165,"current_range_meters":17200,"station_id":"ce4bhr92rcd13ifvqhsg","pricing_plan_id":"cebpf4jnsgd1na2vs0mg"},{"bike_id":"6dde22b3-be2c-4353-838d-05c85608e4d3","system_id":"levelo_inurba_marseille","lat":43.323559,"lon":5.367634,"is_reserved":false,"is_disabled":false,"rental_uris":{"android":"levelo://app?vid=6dde22b3-be2c-4353-838d-05c85608e4d3","ios":"levelo://app?vid=6dde22b3-be2c-4353-838d-05c85608e4d3"},"vehicle_type_id":"4","last_reported":1747912165,"current_range_meters":17200,"station_id":"ce4bhsh2rcd13ifvqi2g","pricing_plan_id":"cebpf4jnsgd1na2vs0mg"},{"bike_id":"c0a363d1-3bb5-4d7a-a4e8-50a1272c1a00","system_id":"levelo_inurba_marseille","lat":43.23189,"lon":5.35542,"is_reserved":false,"is_disabled":false,"rental_uris":{"android":"levelo://app?vid=c0a363d1-3bb5-4d7a-a4e8-50a1272c1a00","ios":"levelo://app?vid=c0a363d1-3bb5-4d7a-a4e8-50a1272c1a00"},"vehicle_type_id":"4","last_reported":1747912165,"current_range_meters":17200,"station_id":"ce4bhu92rcd13ifvqi70","pricing_plan_id":"cebpf4jnsgd1na2vs0mg"},{"bike_id":"37844bcf-e6b5-4f86-9cc0-88711b06431d","system_id":"levelo_inurba_marseille","lat":43.30281,"lon":5.37295,"is_reserved":false,"is_disabled":false,"rental_uris":{"android":"levelo://app?vid=37844bcf-e6b5-4f86-9cc0-88711b06431d","ios":"levelo://app?vid=37844bcf-e6b5-4f86-9cc0-88711b06431d"},"vehicle_type_id":"4","last_reported":1747912165,"current_range_meters":17600,"station_id":"","pricing_plan_id":"cebpf4jnsgd1na2vs0mg"},{"bike_id":"9b4af3c1-9b57-4c48-a4c0-6037a1b4a081","system_id":"levelo_inurba_marseille","lat":43.32488,"lon":5.36586,"is_reserved":false,"is_disabled":false,"rental_uris":{"android":"levelo://app?vid=9b4af3c1-9b57-4c48-a4c0-6037a1b4a081","ios":"levelo://app?vid=9b4af3c1-9b57-4c48-a4c0-6037a1b4a081"},"vehicle_type_id":"4","last_reported":1747912165,"current_range_meters":17600,"station_id":"","pricing_plan_id":"cebpf4jnsgd1na2vs0mg"},{"bike_id":"f4936d7f-0e91-48d4-a855-def8d8e00918","system_id":"levelo_inurba_marseille","lat":43.30538,"lon":5.38424,"is_reserved":false,"is_disabled":false,"rental_uris":{"android":"levelo://app?vid=f4936d7f-0e91-48d4-a855-def8d8e00918","ios":"levelo://app?vid=f4936d7f-0e91-48d4-a855-def8d8e00918"},"vehicle_type_id":"4","last_reported":1747912165,"current_range_meters":17600,"station_id":"ce4bgg92rcd13ifvqb30","pricing_plan_id":"cebpf4jnsgd1na2vs0mg"},{"bike_id":"8cbf1614-2d53-4678-857d-d03337570520","system_id":"levelo_inurba_marseille","lat":43.29585,"lon":5.36747,"is_reserved":false,"is_disabled":false,"rental_uris":{"android":"levelo://app?vid=8cbf1614-2d53-4678-857d-d03337570520","ios":"levelo://app?vid=8cbf1614-2d53-4678-857d-d03337570520"},"vehicle_type_id":"4","last_reported":1747912165,"current_range_meters":17600,"station_id":"ce4bgph2rcd13ifvqc2g","pricing_plan_id":"cebpf4jnsgd1na2vs0mg"},{"bike_id":"0e81d7d5-1d06-48e3-8278-e8b0ba786610","system_id":"levelo_inurba_marseille","lat":43.30537,"lon":5.3669,"is_reserved":false,"is_disabled":false,"rental_uris":{"android":"levelo://app?vid=0e81d7d5-1d06-48e3-8278-e8b0ba786610","ios":"levelo://app?vid=0e81d7d5-1d06-48e3-8278-e8b0ba786610"},"vehicle_type_id":"4","last_reported":1747912165,"current_range_meters":17600,"station_id":"ce4bgrp2rcd13ifvqc9g","pricing_plan_id":"cebpf4jnsgd1na2vs0mg"},{"bike_id":"850b6522-fe66-4cf6-9a15-071984be067c","system_id":"levelo_inurba_marseille","lat":43.29796,"lon":5.40398,"is_reserved":false,"is_disabled":false,"rental_uris":{"android":"levelo://app?vid=850b6522-fe66-4cf6-9a15-071984be067c","ios":"levelo://app?vid=850b6522-fe66-4cf6-9a15-071984be067c"},"vehicle_type_id":"4","last_reported":1747912165,"current_range_meters":17600,"station_id":"ce4bh112rcd13ifvqd90","pricing_plan_id":"cebpf4jnsgd1na2vs0mg"},{"bike_id":"5a348438-1a44-49e2-b68b-135d234ae8c9","system_id":"levelo_inurba_marseille","lat":43.28858,"lon":5.35844,"is_reserved":false,"is_disabled":false,"rental_uris":{"android":"levelo://app?vid=5a348438-1a44-49e2-b68b-135d234ae8c9","ios":"levelo://app?vid=5a348438-1a44-49e2-b68b-135d234ae8c9"},"vehicle_type_id":"4","last_reported":1747912165,"current_range_meters":17600,"station_id":"ce4bhb12rcd13ifvqem0","pricing_plan_id":"cebpf4jnsgd1na2vs0mg"},{"bike_id":"12312cb8-e991-4b6e-9e36-5053a5e49a80","system_id":"levelo_inurba_marseille","lat":43.2669,"lon":5.38276,"is_reserved":false,"is_disabled":false,"rental_uris":{"android":"levelo://app?vid=12312cb8-e991-4b6e-9e36-5053a5e49a80","ios":"levelo://app?vid=12312cb8-e991-4b6e-9e36-5053a5e49a80"},"vehicle_type_id":"4","last_reported":1747912165,"current_range_meters":17600,"station_id":"ce4bhg92rcd13ifvqf90","pricing_plan_id":"cebpf4jnsgd1na2vs0mg"},{"bike_id":"7a174cf0-49bb-442b-9787-ed977ba34ca4","system_id":"levelo_inurba_marseille","lat":43.241793,"lon":5.397325,"is_reserved":false,"is_disabled":false,"rental_uris":{"android":"levelo://app?vid=7a174cf0-49bb-442b-9787-ed977ba34ca4","ios":"levelo://app?vid=7a174cf0-49bb-442b-9787-ed977ba34ca4"},"vehicle_type_id":"4","last_reported":1747912165,"current_range_meters":17600,"station_id":"ce4bhn12rcd13ifvqgpg","pricing_plan_id":"cebpf4jnsgd1na2vs0mg"},{"bike_id":"f4648ce6-c5b1-4587-a93c-251bdac71402","system_id":"levelo_inurba_marseille","lat":43.28445,"lon":5.39205,"is_reserved":false,"is_disabled":false,"rental_uris":{"android":"levelo://app?vid=f4648ce6-c5b1-4587-a93c-251bdac71402","ios":"levelo://app?vid=f4648ce6-c5b1-4587-a93c-251bdac71402"},"vehicle_type_id":"4","last_reported":1747912165,"current_range_meters":17600,"station_id":"ce4bhoh2rcd13ifvqh5g","pricing_plan_id":"cebpf4jnsgd1na2vs0mg"},{"bike_id":"1a340bac-8012-4c7c-b50a-247d19f083a9","system_id":"levelo_inurba_marseille","lat":43.22494,"lon":5.34784,"is_reserved":false,"is_disabled":false,"rental_uris":{"android":"levelo://app?vid=1a340bac-8012-4c7c-b50a-247d19f083a9","ios":"levelo://app?vid=1a340bac-8012-4c7c-b50a-247d19f083a9"},"vehicle_type_id":"4","last_reported":1747912165,"current_range_meters":17600,"station_id":"st_cvj5dfep6f1abm77gieg","pricing_plan_id":"cebpf4jnsgd1na2vs0mg"},{"bike_id":"beb93ece-8a2b-401d-b7e3-ad77b01ce941","system_id":"levelo_inurba_marseille","lat":43.217633,"lon":5.345837,"is_reserved":false,"is_disabled":false,"rental_uris":{"android":"levelo://app?vid=beb93ece-8a2b-401d-b7e3-ad77b01ce941","ios":"levelo://app?vid=beb93ece-8a2b-401d-b7e3-ad77b01ce941"},"vehicle_type_id":"4","last_reported":1747912165,"current_range_meters":17600,"station_id":"st_cvj6r9ubvosntc0bgbag","pricing_plan_id":"cebpf4jnsgd1na2vs0mg"},{"bike_id":"67a258f1-f4aa-4721-9218-a4c809cc48ce","system_id":"levelo_inurba_marseille","lat":43.299236,"lon":5.385091,"is_reserved":false,"is_disabled":false,"rental_uris":{"android":"levelo://app?vid=67a258f1-f4aa-4721-9218-a4c809cc48ce","ios":"levelo://app?vid=67a258f1-f4aa-4721-9218-a4c809cc48ce"},"vehicle_type_id":"4","last_reported":1747912165,"current_range_meters":18000,"station_id":"ce4bgj92rcd13ifvqbd0","pricing_plan_id":"cebpf4jnsgd1na2vs0mg"},{"bike_id":"73484a7a-b2dd-4f11-b8a5-0bf4cca8e9ff","system_id":"levelo_inurba_marseille","lat":43.29736,"lon":5.37679,"is_reserved":false,"is_disabled":false,"rental_uris":{"android":"levelo://app?vid=73484a7a-b2dd-4f11-b8a5-0bf4cca8e9ff","ios":"levelo://app?vid=73484a7a-b2dd-4f11-b8a5-0bf4cca8e9ff"},"vehicle_type_id":"4","last_reported":1747912165,"current_range_meters":18000,"station_id":"ce4bgkh2rcd13ifvqbl0","pricing_plan_id":"cebpf4jnsgd1na2vs0mg"},{"bike_id":"d0347e0b-030d-4fc5-94a1-bcbfc9fc576a","system_id":"levelo_inurba_marseille","lat":43.29927,"lon":5.36522,"is_reserved":false,"is_disabled":false,"rental_uris":{"android":"levelo://app?vid=d0347e0b-030d-4fc5-94a1-bcbfc9fc576a","ios":"levelo://app?vid=d0347e0b-030d-4fc5-94a1-bcbfc9fc576a"},"vehicle_type_id":"4","last_reported":1747912165,"current_range_meters":18000,"station_id":"ce4bgm92rcd13ifvqbr0","pricing_plan_id":"cebpf4jnsgd1na2vs0mg"},{"bike_id":"1616ef09-bcd4-41ea-ab5f-edf78d5cee5b","system_id":"levelo_inurba_marseille","lat":43.2962,"lon":5.37154,"is_reserved":false,"is_disabled":false,"rental_uris":{"android":"levelo://app?vid=1616ef09-bcd4-41ea-ab5f-edf78d5cee5b","ios":"levelo://app?vid=1616ef09-bcd4-41ea-ab5f-edf78d5cee5b"},"vehicle_type_id":"4","last_reported":1747912165,"current_range_meters":18000,"station_id":"ce4bgnh2rcd13ifvqc0g","pricing_plan_id":"cebpf4jnsgd1na2vs0mg"},{"bike_id":"2871627a-1a53-4f3e-b8ce-82fe1d019c6a","system_id":"levelo_inurba_marseille","lat":43.30544,"lon":5.36558,"is_reserved":false,"is_disabled":false,"rental_uris":{"android":"levelo://app?vid=2871627a-1a53-4f3e-b8ce-82fe1d019c6a","ios":"levelo://app?vid=2871627a-1a53-4f3e-b8ce-82fe1d019c6a"},"vehicle_type_id":"4","last_reported":1747912165,"current_range_meters":18000,"station_id":"ce4bgs12rcd13ifvqcag","pricing_plan_id":"cebpf4jnsgd1na2vs0mg"},{"bike_id":"015ad6c9-1ed3-420e-b491-b2e79eaee213","system_id":"levelo_inurba_marseille","lat":43.31486,"lon":5.37304,"is_reserved":false,"is_disabled":false,"rental_uris":{"android":"levelo://app?vid=015ad6c9-1ed3-420e-b491-b2e79eaee213","ios":"levelo://app?vid=015ad6c9-1ed3-420e-b491-b2e79eaee213"},"vehicle_type_id":"4","last_reported":1747912165,"current_range_meters":18000,"station_id":"ce4bgt12rcd13ifvqcd0","pricing_plan_id":"cebpf4jnsgd1na2vs0mg"},{"bike_id":"876bf508-f37b-4c95-a793-302583edff5e","system_id":"levelo_inurba_marseille","lat":43.29882,"lon":5.3892,"is_reserved":false,"is_disabled":false,"rental_uris":{"android":"levelo://app?vid=876bf508-f37b-4c95-a793-302583edff5e","ios":"levelo://app?vid=876bf508-f37b-4c95-a793-302583edff5e"},"vehicle_type_id":"4","last_reported":1747912165,"current_range_meters":18000,"station_id":"ce4bh392rcd13ifvqdl0","pricing_plan_id":"cebpf4jnsgd1na2vs0mg"},{"bike_id":"03c812a5-62e2-43ea-8462-7667c3c90999","system_id":"levelo_inurba_marseille","lat":43.26949,"lon":5.38659,"is_reserved":false,"is_disabled":false,"rental_uris":{"android":"levelo://app?vid=03c812a5-62e2-43ea-8462-7667c3c90999","ios":"levelo://app?vid=03c812a5-62e2-43ea-8462-7667c3c90999"},"vehicle_type_id":"4","last_reported":1747912165,"current_range_meters":18000,"station_id":"ce4bhh92rcd13ifvqfh0","pricing_plan_id":"cebpf4jnsgd1na2vs0mg"},{"bike_id":"d5a731ad-b258-4d96-8cdb-eb8d320eae5a","system_id":"levelo_inurba_marseille","lat":43.28132,"lon":5.42638,"is_reserved":false,"is_disabled":false,"rental_uris":{"android":"levelo://app?vid=d5a731ad-b258-4d96-8cdb-eb8d320eae5a","ios":"levelo://app?vid=d5a731ad-b258-4d96-8cdb-eb8d320eae5a"},"vehicle_type_id":"4","last_reported":1747912165,"current_range_meters":18000,"station_id":"ce4bhnh2rcd13ifvqgug","pricing_plan_id":"cebpf4jnsgd1na2vs0mg"},{"bike_id":"d23d4610-deeb-4f2e-bc09-d71d2507bfc1","system_id":"levelo_inurba_marseille","lat":43.31077,"lon":5.42434,"is_reserved":false,"is_disabled":false,"rental_uris":{"android":"levelo://app?vid=d23d4610-deeb-4f2e-bc09-d71d2507bfc1","ios":"levelo://app?vid=d23d4610-deeb-4f2e-bc09-d71d2507bfc1"},"vehicle_type_id":"4","last_reported":1747912165,"current_range_meters":18000,"station_id":"ce4bhp92rcd13ifvqhag","pricing_plan_id":"cebpf4jnsgd1na2vs0mg"},{"bike_id":"fb37c12e-72aa-4e9a-8b92-5c6606bf83ba","system_id":"levelo_inurba_marseille","lat":43.32538,"lon":5.41447,"is_reserved":false,"is_disabled":false,"rental_uris":{"android":"levelo://app?vid=fb37c12e-72aa-4e9a-8b92-5c6606bf83ba","ios":"levelo://app?vid=fb37c12e-72aa-4e9a-8b92-5c6606bf83ba"},"vehicle_type_id":"4","last_reported":1747912165,"current_range_meters":18000,"station_id":"ce4bhq12rcd13ifvqhhg","pricing_plan_id":"cebpf4jnsgd1na2vs0mg"},{"bike_id":"0e27a530-5aca-4bdb-bcfe-2711f03311f8","system_id":"levelo_inurba_marseille","lat":43.21753,"lon":5.34596,"is_reserved":false,"is_disabled":false,"rental_uris":{"android":"levelo://app?vid=0e27a530-5aca-4bdb-bcfe-2711f03311f8","ios":"levelo://app?vid=0e27a530-5aca-4bdb-bcfe-2711f03311f8"},"vehicle_type_id":"4","last_reported":1747912165,"current_range_meters":18000,"station_id":"st_cvj6r9ubvosntc0bgbag","pricing_plan_id":"cebpf4jnsgd1na2vs0mg"},{"bike_id":"8facb1cb-4a30-47c0-93e6-35f9dd0b6f7c","system_id":"levelo_inurba_marseille","lat":43.2593,"lon":5.40898,"is_reserved":false,"is_disabled":false,"rental_uris":{"android":"levelo://app?vid=8facb1cb-4a30-47c0-93e6-35f9dd0b6f7c","ios":"levelo://app?vid=8facb1cb-4a30-47c0-93e6-35f9dd0b6f7c"},"vehicle_type_id":"4","last_reported":1747912165,"current_range_meters":18800,"station_id":"ce4bhm92rcd13ifvqglg","pricing_plan_id":"cebpf4jnsgd1na2vs0mg"},{"bike_id":"87e9996f-5f1d-44f5-8662-35bdaa1952f1","system_id":"levelo_inurba_marseille","lat":43.25932,"lon":5.408948,"is_reserved":false,"is_disabled":false,"rental_uris":{"android":"levelo://app?vid=87e9996f-5f1d-44f5-8662-35bdaa1952f1","ios":"levelo://app?vid=87e9996f-5f1d-44f5-8662-35bdaa1952f1"},"vehicle_type_id":"4","last_reported":1747912165,"current_range_meters":18800,"station_id":"ce4bhm92rcd13ifvqglg","pricing_plan_id":"cebpf4jnsgd1na2vs0mg"},{"bike_id":"e3938353-cdc7-4649-ae91-1dd94b0253b5","system_id":"levelo_inurba_marseille","lat":43.26231,"lon":5.40455,"is_reserved":false,"is_disabled":false,"rental_uris":{"android":"levelo://app?vid=e3938353-cdc7-4649-ae91-1dd94b0253b5","ios":"levelo://app?vid=e3938353-cdc7-4649-ae91-1dd94b0253b5"},"vehicle_type_id":"4","last_reported":1747912165,"current_range_meters":18800,"station_id":"ce4bhmh2rcd13ifvqgmg","pricing_plan_id":"cebpf4jnsgd1na2vs0mg"},{"bike_id":"c6bf2e46-fb2f-4485-b1e5-f93500b0678b","system_id":"levelo_inurba_marseille","lat":43.23062,"lon":5.35494,"is_reserved":false,"is_disabled":false,"rental_uris":{"android":"levelo://app?vid=c6bf2e46-fb2f-4485-b1e5-f93500b0678b","ios":"levelo://app?vid=c6bf2e46-fb2f-4485-b1e5-f93500b0678b"},"vehicle_type_id":"4","last_reported":1747912165,"current_range_meters":18800,"station_id":"cpo3342slgdg3j2ifvpg","pricing_plan_id":"cebpf4jnsgd1na2vs0mg"},{"bike_id":"0fc0b079-c425-47dd-9286-85489c778492","system_id":"levelo_inurba_marseille","lat":43.29935,"lon":5.36518,"is_reserved":false,"is_disabled":false,"rental_uris":{"android":"levelo://app?vid=0fc0b079-c425-47dd-9286-85489c778492","ios":"levelo://app?vid=0fc0b079-c425-47dd-9286-85489c778492"},"vehicle_type_id":"4","last_reported":1747912165,"current_range_meters":19200,"station_id":"ce4bgm92rcd13ifvqbr0","pricing_plan_id":"cebpf4jnsgd1na2vs0mg"},{"bike_id":"572bb481-66fb-46c7-9bcf-71b2f368bdb4","system_id":"levelo_inurba_marseille","lat":43.29841,"lon":5.36284,"is_reserved":false,"is_disabled":false,"rental_uris":{"android":"levelo://app?vid=572bb481-66fb-46c7-9bcf-71b2f368bdb4","ios":"levelo://app?vid=572bb481-66fb-46c7-9bcf-71b2f368bdb4"},"vehicle_type_id":"4","last_reported":1747912165,"current_range_meters":19200,"station_id":"ce4bgpp2rcd13ifvqc3g","pricing_plan_id":"cebpf4jnsgd1na2vs0mg"},{"bike_id":"f0553e32-db53-453c-815c-2b9184521581","system_id":"levelo_inurba_marseille","lat":43.287082,"lon":5.374007,"is_reserved":false,"is_disabled":false,"rental_uris":{"android":"levelo://app?vid=f0553e32-db53-453c-815c-2b9184521581","ios":"levelo://app?vid=f0553e32-db53-453c-815c-2b9184521581"},"vehicle_type_id":"4","last_reported":1747912165,"current_range_meters":19200,"station_id":"ce4bh3p2rcd13ifvqdq0","pricing_plan_id":"cebpf4jnsgd1na2vs0mg"},{"bike_id":"d1b49d6a-5805-4c23-885c-227cfc45bfc1","system_id":"levelo_inurba_marseille","lat":43.27078,"lon":5.42282,"is_reserved":false,"is_disabled":false,"rental_uris":{"android":"levelo://app?vid=d1b49d6a-5805-4c23-885c-227cfc45bfc1","ios":"levelo://app?vid=d1b49d6a-5805-4c23-885c-227cfc45bfc1"},"vehicle_type_id":"4","last_reported":1747912165,"current_range_meters":19200,"station_id":"ce4bhk92rcd13ifvqgb0","pricing_plan_id":"cebpf4jnsgd1na2vs0mg"},{"bike_id":"6b42e4b4-ce0f-4621-8b89-ff1f32e1ddd6","system_id":"levelo_inurba_marseille","lat":43.32042,"lon":5.41546,"is_reserved":false,"is_disabled":false,"rental_uris":{"android":"levelo://app?vid=6b42e4b4-ce0f-4621-8b89-ff1f32e1ddd6","ios":"levelo://app?vid=6b42e4b4-ce0f-4621-8b89-ff1f32e1ddd6"},"vehicle_type_id":"4","last_reported":1747912165,"current_range_meters":19200,"station_id":"ce4bhq92rcd13ifvqhkg","pricing_plan_id":"cebpf4jnsgd1na2vs0mg"},{"bike_id":"ae870755-e71f-42e9-b384-dac3fc3d579b","system_id":"levelo_inurba_marseille","lat":43.3019,"lon":5.36626,"is_reserved":false,"is_disabled":false,"rental_uris":{"android":"levelo://app?vid=ae870755-e71f-42e9-b384-dac3fc3d579b","ios":"levelo://app?vid=ae870755-e71f-42e9-b384-dac3fc3d579b"},"vehicle_type_id":"4","last_reported":1747912165,"current_range_meters":19600,"station_id":"ce4bgrh2rcd13ifvqc8g","pricing_plan_id":"cebpf4jnsgd1na2vs0mg"},{"bike_id":"3c929545-9228-44d1-bcbb-bc0507e68b00","system_id":"levelo_inurba_marseille","lat":43.26193,"lon":5.37461,"is_reserved":false,"is_disabled":false,"rental_uris":{"android":"levelo://app?vid=3c929545-9228-44d1-bcbb-bc0507e68b00","ios":"levelo://app?vid=3c929545-9228-44d1-bcbb-bc0507e68b00"},"vehicle_type_id":"4","last_reported":1747912165,"current_range_meters":19600,"station_id":"ce4bhgp2rcd13ifvqfc0","pricing_plan_id":"cebpf4jnsgd1na2vs0mg"},{"bike_id":"4434de19-4951-45ee-95d0-b54a6b05a1b3","system_id":"levelo_inurba_marseille","lat":43.26957,"lon":5.38638,"is_reserved":false,"is_disabled":false,"rental_uris":{"android":"levelo://app?vid=4434de19-4951-45ee-95d0-b54a6b05a1b3","ios":"levelo://app?vid=4434de19-4951-45ee-95d0-b54a6b05a1b3"},"vehicle_type_id":"4","last_reported":1747912165,"current_range_meters":19600,"station_id":"ce4bhh92rcd13ifvqfh0","pricing_plan_id":"cebpf4jnsgd1na2vs0mg"},{"bike_id":"17880693-f0d5-464d-8b36-084e8c1d7cb9","system_id":"levelo_inurba_marseille","lat":43.251185,"lon":5.403249,"is_reserved":false,"is_disabled":false,"rental_uris":{"android":"levelo://app?vid=17880693-f0d5-464d-8b36-084e8c1d7cb9","ios":"levelo://app?vid=17880693-f0d5-464d-8b36-084e8c1d7cb9"},"vehicle_type_id":"4","last_reported":1747912165,"current_range_meters":19600,"station_id":"ce4bhlh2rcd13ifvqgig","pricing_plan_id":"cebpf4jnsgd1na2vs0mg"},