{"last_updated":1702227927,"ttl":30,"version":"2.2","data":{"bikes":[{"bike_id":"8d8356c6-d83f-4327-9dd9-df149e242fc6","system_id":"levelo_inurba_marseille","lat":43.31341,"lon":5.367098,"is_reserved":false,"is_disabled":false,"rental_uris":{"android":"levelo://app?vid=8d8356c6-d83f-4327-9dd9-df149e242fc6","ios":"levelo://app?vid=8d8356c6-d83f-4327-9dd9-df149e242fc6"},"vehicle_type_id":"4","last_reported":1702227927,"current_range_meters":8000,"station_id":"ce4bgr92rcd13ifvqc6g","pricing_plan_id":"free"},{"bike_id":"7b43bb06-df89-44cd-a9f3-8a223583036b","system_id":"levelo_inurba_marseille","lat":43.312239,"lon":5.368562,"is_reserved":false,"is_disabled":false,"rental_uris":{"android":"levelo://app?vid=7b43bb06-df89-44cd-a9f3-8a223583036b","ios":"levelo://app?vid=7b43bb06-df89-44cd-a9f3-8a223583036b"},"vehicle_type_id":"4","last_reported":1702227927,"current_range_meters":19600,"station_id":"ce4bgl92rcd13ifvqbq0","pricing_plan_id":"free"},{"bike_id":"a04220c3-9145-4cf7-87ff-1fd8658df688","system_id":"levelo_inurba_marseille","lat":43.312239,"lon":5.368562,"is_reserved":false,"is_disabled":false,"rental_uris":{"android":"levelo://app?vid=a04220c3-9145-4cf7-87ff-1fd8658df688","ios":"levelo://app?vid=a04220c3-9145-4cf7-87ff-1fd8658df688"},"vehicle_type_id":"4","last_reported":1702227927,"current_range_meters":28000,"station_id":"ce4bgl92rcd13ifvqbq0","pricing_plan_id":"free"},{"bike_id":"adff1d54-38e0-4e1a-b7cb-801621b6863f","system_id":"levelo_inurba_marseille","lat":43.309076,"lon":5.368465,"is_reserved":false,"is_disabled":false,"rental_uris":{"android":"levelo://app?vid=adff1d54-38e0-4e1a-b7cb-801621b6863f","ios":"levelo://app?vid=adff1d54-38e0-4e1a-b7cb-801621b6863f"},"vehicle_type_id":"4","last_reported":1702227927,"current_range_meters":18800,"station_id":"ce4bgn92rcd13ifvqbvg","pricing_plan_id":"free"},{"bike_id":"77a6c46d-d898-4e4f-8846-efa91689c7f0","system_id":"levelo_inurba_marseille","lat":43.30628,"lon":5.366,"is_reserved":false,"is_disabled":false,"rental_uris":{"android":"levelo://app?vid=77a6c46d-d898-4e4f-8846-efa91689c7f0","ios":"levelo://app?vid=77a6c46d-d898-4e4f-8846-efa91689c7f0"},"vehicle_type_id":"4","last_reported":1702227927,"current_range_meters":0,"station_id":"","pricing_plan_id":"free"},{"bike_id":"95656ba1-99a3-4f9b-8eca-aaa4817536cc","system_id":"levelo_inurba_marseille","lat":43.305989,"lon":5.37225,"is_reserved":false,"is_disabled":false,"rental_uris":{"android":"levelo://app?vid=95656ba1-99a3-4f9b-8eca-aaa4817536cc","ios":"levelo://app?vid=95656ba1-99a3-4f9b-8eca-aaa4817536cc"},"vehicle_type_id":"4","last_reported":1702227927,"current_range_meters":16800,"station_id":"ce4bgqh2rcd13ifvqc4g","pricing_plan_id":"free"},{"bike_id":"81316bd8-0ff8-418d-af8e-95caa1be0098","system_id":"levelo_inurba_marseille","lat":43.305989,"lon":5.37225,"is_reserved":false,"is_disabled":false,"rental_uris":{"android":"levelo://app?vid=81316bd8-0ff8-418d-af8e-95caa1be0098","ios":"levelo://app?vid=81316bd8-0ff8-418d-af8e-95caa1be0098"},"vehicle_type_id":"4","last_reported":1702227927,"current_range_meters":4000,"station_id":"ce4bgqh2rcd13ifvqc4g","pricing_plan_id":"free"},{"bike_id":"611abe8e-2998-4a5f-bd3c-5974aef2c162","system_id":"levelo_inurba_marseille","lat":43.30803,"lon":5.38152,"is_reserved":false,"is_disabled":false,"rental_uris":{"android":"levelo://app?vid=611abe8e-2998-4a5f-bd3c-5974aef2c162","ios":"levelo://app?vid=611abe8e-2998-4a5f-bd3c-5974aef2c162"},"vehicle_type_id":"4","last_reported":1702227927,"current_range_meters":6000,"station_id":"ce4bgt12rcd13ifvqce0","pricing_plan_id":"free"},{"bike_id":"d8be298e-f4c0-4479-a66b-e307c680d7cc","system_id":"levelo_inurba_marseille","lat":43.31356,"lon":5.38493,"is_reserved":false,"is_disabled":false,"rental_uris":{"android":"levelo://app?vid=d8be298e-f4c0-4479-a66b-e307c680d7cc","ios":"levelo://app?vid=d8be298e-f4c0-4479-a66b-e307c680d7cc"},"vehicle_type_id":"4","last_reported":1702227927,"current_range_meters":19600,"station_id":"ce4bgt92rcd13ifvqcf0","pricing_plan_id":"free"},{"bike_id":"6098a389-9573-41ae-b1d1-0cfeaf77229a","system_id":"levelo_inurba_marseille","lat":43.299724,"lon":5.371829,"is_reserved":false,"is_disabled":false,"rental_uris":{"android":"levelo://app?vid=6098a389-9573-41ae-b1d1-0cfeaf77229a","ios":"levelo://app?vid=6098a389-9573-41ae-b1d1-0cfeaf77229a"},"vehicle_type_id":"4","last_reported":1702227927,"current_range_meters":2000,"station_id":"ce4bgr92rcd13ifvqc7g","pricing_plan_id":"free"},{"bike_id":"41f6f808-929b-45c2-b161-b254542f7cc9","system_id":"levelo_inurba_marseille","lat":43.311722,"lon":5.387247,"is_reserved":false,"is_disabled":false,"rental_uris":{"android":"levelo://app?vid=41f6f808-929b-45c2-b161-b254542f7cc9","ios":"levelo://app?vid=41f6f808-929b-45c2-b161-b254542f7cc9"},"vehicle_type_id":"4","last_reported":1702227927,"current_range_meters":18000,"station_id":"ce4bgv12rcd13ifvqcp0","pricing_plan_id":"free"},{"bike_id":"ccd4fbf7-a0c2-498b-8ecc-15a67004cff0","system_id":"levelo_inurba_marseille","lat":43.322872,"lon":5.382756,"is_reserved":false,"is_disabled":false,"rental_uris":{"android":"levelo://app?vid=ccd4fbf7-a0c2-498b-8ecc-15a67004cff0","ios":"levelo://app?vid=ccd4fbf7-a0c2-498b-8ecc-15a67004cff0"},"vehicle_type_id":"4","last_reported":1702227927,"current_range_meters":28000,"station_id":"ce4bhr12rcd13ifvqhqg","pricing_plan_id":"free"},{"bike_id":"6ac675f1-e0be-498c-ad2f-b742a949d4b0","system_id":"levelo_inurba_marseille","lat":43.298218,"lon":5.374416,"is_reserved":false,"is_disabled":false,"rental_uris":{"android":"levelo://app?vid=6ac675f1-e0be-498c-ad2f-b742a949d4b0","ios":"levelo://app?vid=6ac675f1-e0be-498c-ad2f-b742a949d4b0"},"vehicle_type_id":"4","last_reported":1702227927,"current_range_meters":0,"station_id":"","pricing_plan_id":"free"},{"bike_id":"53ce9a5c-7083-4855-850e-d386fd44f816","system_id":"levelo_inurba_marseille","lat":43.2968,"lon":5.37291,"is_reserved":false,"is_disabled":false,"rental_uris":{"android":"levelo://app?vid=53ce9a5c-7083-4855-850e-d386fd44f816","ios":"levelo://app?vid=53ce9a5c-7083-4855-850e-d386fd44f816"},"vehicle_type_id":"4","last_reported":1702227927,"current_range_meters":20000,"station_id":"ce4bgk12rcd13ifvqbj0","pricing_plan_id":"free"},{"bike_id":"92dc65d6-6823-4de3-93d4-056f738f090c","system_id":"levelo_inurba_marseille","lat":43.316538,"lon":5.38954,"is_reserved":false,"is_disabled":false,"rental_uris":{"android":"levelo://app?vid=92dc65d6-6823-4de3-93d4-056f738f090c","ios":"levelo://app?vid=92dc65d6-6823-4de3-93d4-056f738f090c"},"vehicle_type_id":"4","last_reported":1702227927,"current_range_meters":0,"station_id":"","pricing_plan_id":"free"},{"bike_id":"587cb203-8e4d-444f-9209-e40ac3e543cd","system_id":"levelo_inurba_marseille","lat":43.29618,"lon":5.37149,"is_reserved":false,"is_disabled":false,"rental_uris":{"android":"levelo://app?vid=587cb203-8e4d-444f-9209-e40ac3e543cd","ios":"levelo://app?vid=587cb203-8e4d-444f-9209-e40ac3e543cd"},"vehicle_type_id":"4","last_reported":1702227927,"current_range_meters":0,"station_id":"ce4bgnh2rcd13ifvqc0g","pricing_plan_id":"free"},{"bike_id":"d6446d0e-0b88-478d-8db1-38ba45107b01","system_id":"levelo_inurba_marseille","lat":43.296129,"lon":5.370777,"is_reserved":false,"is_disabled":false,"rental_uris":{"android":"levelo://app?vid=d6446d0e-0b88-478d-8db1-38ba45107b01","ios":"levelo://app?vid=d6446d0e-0b88-478d-8db1-38ba45107b01"},"vehicle_type_id":"4","last_reported":1702227927,"current_range_meters":21600,"station_id":"ce4bgnh2rcd13ifvqc0g","pricing_plan_id":"free"},{"bike_id":"7aac4cbf-1c69-43e3-a3cc-5da43ae9f1b4","system_id":"levelo_inurba_marseille","lat":43.304274,"lon":5.388873,"is_reserved":false,"is_disabled":false,"rental_uris":{"android":"levelo://app?vid=7aac4cbf-1c69-43e3-a3cc-5da43ae9f1b4","ios":"levelo://app?vid=7aac4cbf-1c69-43e3-a3cc-5da43ae9f1b4"},"vehicle_type_id":"4","last_reported":1702227927,"current_range_meters":1200,"station_id":"ce4bgk12rcd13ifvqbi0","pricing_plan_id":"free"},{"bike_id":"d12df71f-9390-4529-a821-ff1373f1e723","system_id":"levelo_inurba_marseille","lat":43.298037,"lon":5.381066,"is_reserved":false,"is_disabled":false,"rental_uris":{"android":"levelo://app?vid=d12df71f-9390-4529-a821-ff1373f1e723","ios":"levelo://app?vid=d12df71f-9390-4529-a821-ff1373f1e723"},"vehicle_type_id":"4","last_reported":1702227927,"current_range_meters":19200,"station_id":"ce4bgip2rcd13ifvqbb0","pricing_plan_id":"free"},{"bike_id":"55617f08-a125-4edb-82e3-074c508477fe","system_id":"levelo_inurba_marseille","lat":43.295748,"lon":5.37522,"is_reserved":false,"is_disabled":false,"rental_uris":{"android":"levelo://app?vid=55617f08-a125-4edb-82e3-074c508477fe","ios":"levelo://app?vid=55617f08-a125-4edb-82e3-074c508477fe"},"vehicle_type_id":"4","last_reported":1702227927,"current_range_meters":0,"station_id":"ce4bgh92rcd13ifvqb50","pricing_plan_id":"free"},{"bike_id":"2cc40eb5-5d5e-475a-8c82-9353fe6f24c8","system_id":"levelo_inurba_marseille","lat":43.2968,"lon":5.37291,"is_reserved":false,"is_disabled":false,"rental_uris":{"android":"levelo://app?vid=2cc40eb5-5d5e-475a-8c82-9353fe6f24c8","ios":"levelo://app?vid=2cc40eb5-5d5e-475a-8c82-9353fe6f24c8"},"vehicle_type_id":"4","last_reported":1702227927,"current_range_meters":26800,"station_id":"ce4bgk12rcd13ifvqbj0","pricing_plan_id":"free"},{"bike_id":"944f993e-454a-4bc3-be8c-c96b0d7f08d7","system_id":"levelo_inurba_marseille","lat":43.299735,"lon":5.3849,"is_reserved":false,"is_disabled":false,"rental_uris":{"android":"levelo://app?vid=944f993e-454a-4bc3-be8c-c96b0d7f08d7","ios":"levelo://app?vid=944f993e-454a-4bc3-be8c-c96b0d7f08d7"},"vehicle_type_id":"4","last_reported":1702227927,"current_range_meters":0,"station_id":"ce4bgj92rcd13ifvqbd0","pricing_plan_id":"free"},{"bike_id":"aa6eeaff-f0ab-4722-91df-5deaaea9be9e","system_id":"levelo_inurba_marseille","lat":43.32367,"lon":5.388836,"is_reserved":false,"is_disabled":false,"rental_uris":{"android":"levelo://app?vid=aa6eeaff-f0ab-4722-91df-5deaaea9be9e","ios":"levelo://app?vid=aa6eeaff-f0ab-4722-91df-5deaaea9be9e"},"vehicle_type_id":"4","last_reported":1702227927,"current_range_meters":2000,"station_id":"ce4bhqp2rcd13ifvqhog","pricing_plan_id":"free"},{"bike_id":"72640f30-70a5-4fd7-9c7e-fa4d84ce881d","system_id":"levelo_inurba_marseille","lat":43.32367,"lon":5.38887,"is_reserved":false,"is_disabled":false,"rental_uris":{"android":"levelo://app?vid=72640f30-70a5-4fd7-9c7e-fa4d84ce881d","ios":"levelo://app?vid=72640f30-70a5-4fd7-9c7e-fa4d84ce881d"},"vehicle_type_id":"4","last_reported":1702227927,"current_range_meters":17600,"station_id":"ce4bhqp2rcd13ifvqhog","pricing_plan_id":"free"},{"bike_id":"7d43bc59-fc31-4ccb-b016-c49d265e8a49","system_id":"levelo_inurba_marseille","lat":43.29603,"lon":5.38107,"is_reserved":false,"is_disabled":false,"rental_uris":{"android":"levelo://app?vid=7d43bc59-fc31-4ccb-b016-c49d265e8a49","ios":"levelo://app?vid=7d43bc59-fc31-4ccb-b016-c49d265e8a49"},"vehicle_type_id":"4","last_reported":1702227927,"current_range_meters":0,"station_id":"ce4bgl12rcd13ifvqbo0","pricing_plan_id":"free"},{"bike_id":"69b45cda-306c-46d2-9c64-c1d871e8b5fa","system_id":"levelo_inurba_marseille","lat":43.293259,"lon":5.371586,"is_reserved":false,"is_disabled":false,"rental_uris":{"android":"levelo://app?vid=69b45cda-306c-46d2-9c64-c1d871e8b5fa","ios":"levelo://app?vid=69b45cda-306c-46d2-9c64-c1d871e8b5fa"},"vehicle_type_id":"4","last_reported":1702227927,"current_range_meters":3200,"station_id":"ce4bgh92rcd13ifvqb40","pricing_plan_id":"free"},{"bike_id":"1d6982d9-1427-499c-ab3e-6168fe2e3c21","system_id":"levelo_inurba_marseille","lat":43.305994,"lon":5.393687,"is_reserved":false,"is_disabled":false,"rental_uris":{"android":"levelo://app?vid=1d6982d9-1427-499c-ab3e-6168fe2e3c21","ios":"levelo://app?vid=1d6982d9-1427-499c-ab3e-6168fe2e3c21"},"vehicle_type_id":"4","last_reported":1702227927,"current_range_meters":14000,"station_id":"ce4bh0p2rcd13ifvqd80","pricing_plan_id":"free"},{"bike_id":"6c7db12f-4edd-4f22-ac65-7064e7fbb09a","system_id":"levelo_inurba_marseille","lat":43.292311,"lon":5.360731,"is_reserved":false,"is_disabled":false,"rental_uris":{"android":"levelo://app?vid=6c7db12f-4edd-4f22-ac65-7064e7fbb09a","ios":"levelo://app?vid=6c7db12f-4edd-4f22-ac65-7064e7fbb09a"},"vehicle_type_id":"4","last_reported":1702227927,"current_range_meters":22000,"station_id":"ce4bhbh2rcd13ifvqeqg","pricing_plan_id":"free"},{"bike_id":"842fc054-7d47-4feb-94bd-c0f4951d90d2","system_id":"levelo_inurba_marseille","lat":43.29156,"lon":5.37155,"is_reserved":false,"is_disabled":false,"rental_uris":{"android":"levelo://app?vid=842fc054-7d47-4feb-94bd-c0f4951d90d2","ios":"levelo://app?vid=842fc054-7d47-4feb-94bd-c0f4951d90d2"},"vehicle_type_id":"4","last_reported":1702227927,"current_range_meters":5600,"station_id":"ce4bha92rcd13ifvqeh0","pricing_plan_id":"free"},{"bike_id":"004aa5e1-24ca-41aa-bd37-5e96c4993abd","system_id":"levelo_inurba_marseille","lat":43.309038,"lon":5.396546,"is_reserved":false,"is_disabled":false,"rental_uris":{"android":"levelo://app?vid=004aa5e1-24ca-41aa-bd37-5e96c4993abd","ios":"levelo://app?vid=004aa5e1-24ca-41aa-bd37-5e96c4993abd"},"vehicle_type_id":"4","last_reported":1702227927,"current_range_meters":4000,"station_id":"ce4bh012rcd13ifvqcv0","pricing_plan_id":"free"},{"bike_id":"034b96f2-ae95-4fc7-b8a5-7ef559cb7d0a","system_id":"levelo_inurba_marseille","lat":43.290779,"lon":5.371482,"is_reserved":false,"is_disabled":false,"rental_uris":{"android":"levelo://app?vid=034b96f2-ae95-4fc7-b8a5-7ef559cb7d0a","ios":"levelo://app?vid=034b96f2-ae95-4fc7-b8a5-7ef559cb7d0a"},"vehicle_type_id":"4","last_reported":1702227927,"current_range_meters":20400,"station_id":"ce4bh5p2rcd13ifvqe4g","pricing_plan_id":"free"},{"bike_id":"a3d3920a-459d-4ba9-ad4c-9faa42acc218","system_id":"levelo_inurba_marseille","lat":43.302008,"lon":5.394694,"is_reserved":false,"is_disabled":false,"rental_uris":{"android":"levelo://app?vid=a3d3920a-459d-4ba9-ad4c-9faa42acc218","ios":"levelo://app?vid=a3d3920a-459d-4ba9-ad4c-9faa42acc218"},"vehicle_type_id":"4","last_reported":1702227927,"current_range_meters":0,"station_id":"ce4bh0p2rcd13ifvqd70","pricing_plan_id":"free"},{"bike_id":"4a43f0d6-ef02-4ab0-b816-7696e8d3bd28","system_id":"levelo_inurba_marseille","lat":43.294153,"lon":5.386305,"is_reserved":false,"is_disabled":false,"rental_uris":{"android":"levelo://app?vid=4a43f0d6-ef02-4ab0-b816-7696e8d3bd28","ios":"levelo://app?vid=4a43f0d6-ef02-4ab0-b816-7696e8d3bd28"},"vehicle_type_id":"4","last_reported":1702227927,"current_range_meters":0,"station_id":"ce4bh2h2rcd13ifvqdh0","pricing_plan_id":"free"},{"bike_id":"0d55287e-6324-4a21-96f1-2aa124f5d1a5","system_id":"levelo_inurba_marseille","lat":43.290161,"lon":5.375651,"is_reserved":false,"is_disabled":false,"rental_uris":{"android":"levelo://app?vid=0d55287e-6324-4a21-96f1-2aa124f5d1a5","ios":"levelo://app?vid=0d55287e-6324-4a21-96f1-2aa124f5d1a5"},"vehicle_type_id":"4","last_reported":1702227927,"current_range_meters":8800,"station_id":"","pricing_plan_id":"free"},{"bike_id":"a02a1b20-1fb1-4951-988a-77389649024d","system_id":"levelo_inurba_marseille","lat":43.289259,"lon":5.366364,"is_reserved":false,"is_disabled":false,"rental_uris":{"android":"levelo://app?vid=a02a1b20-1fb1-4951-988a-77389649024d","ios":"levelo://app?vid=a02a1b20-1fb1-4951-988a-77389649024d"},"vehicle_type_id":"4","last_reported":1702227927,"current_range_meters":7600,"station_id":"","pricing_plan_id":"free"},{"bike_id":"55022c6f-edc3-4193-8bc0-0ad3d167c7fd","system_id":"levelo_inurba_marseille","lat":43.292644,"lon":5.384257,"is_reserved":false,"is_disabled":false,"rental_uris":{"android":"levelo://app?vid=55022c6f-edc3-4193-8bc0-0ad3d167c7fd","ios":"levelo://app?vid=55022c6f-edc3-4193-8bc0-0ad3d167c7fd"},"vehicle_type_id":"4","last_reported":1702227927,"current_range_meters":2400,"station_id":"ce4bh692rcd13ifvqea0","pricing_plan_id":"free"},{"bike_id":"2c0d1386-3245-48a3-b9f4-cc0786521689","system_id":"levelo_inurba_marseille","lat":43.29259,"lon":5.38451,"is_reserved":false,"is_disabled":false,"rental_uris":{"android":"levelo://app?vid=2c0d1386-3245-48a3-b9f4-cc0786521689","ios":"levelo://app?vid=2c0d1386-3245-48a3-b9f4-cc0786521689"},"vehicle_type_id":"4","last_reported":1702227927,"current_range_meters":0,"station_id":"ce4bh692rcd13ifvqea0","pricing_plan_id":"free"},{"bike_id":"49fed072-ab32-46c6-ba7a-a5ebf33b305f","system_id":"levelo_inurba_marseille","lat":43.330442,"lon":5.389148,"is_reserved":false,"is_disabled":false,"rental_uris":{"android":"levelo://app?vid=49fed072-ab32-46c6-ba7a-a5ebf33b305f","ios":"levelo://app?vid=49fed072-ab32-46c6-ba7a-a5ebf33b305f"},"vehicle_type_id":"4","last_reported":1702227927,"current_range_meters":23600,"station_id":"ce4bhr92rcd13ifvqhrg","pricing_plan_id":"free"},{"bike_id":"a9950627-da31-4e90-9c61-273b5d7f2fbc","system_id":"levelo_inurba_marseille","lat":43.29088,"lon":5.381467,"is_reserved":false,"is_disabled":false,"rental_uris":{"android":"levelo://app?vid=a9950627-da31-4e90-9c61-273b5d7f2fbc","ios":"levelo://app?vid=a9950627-da31-4e90-9c61-273b5d7f2fbc"},"vehicle_type_id":"4","last_reported":1702227927,"current_range_meters":0,"station_id":"ce4bh512rcd13ifvqe2g","pricing_plan_id":"free"},{"bike_id":"a2792fe8-125d-4ca3-b1fb-48b4ecc31289","system_id":"levelo_inurba_marseille","lat":43.297704,"lon":5.393426,"is_reserved":false,"is_disabled":false,"rental_uris":{"android":"levelo://app?vid=a2792fe8-125d-4ca3-b1fb-48b4ecc31289","ios":"levelo://app?vid=a2792fe8-125d-4ca3-b1fb-48b4ecc31289"},"vehicle_type_id":"4","last_reported":1702227927,"current_range_meters":18800,"station_id":"","pricing_plan_id":"free"},{"bike_id":"4a3e0be9-e3ff-4aeb-b97e-3a7f3d4e7b91","system_id":"levelo_inurba_marseille","lat":43.29513,"lon":5.39036,"is_reserved":false,"is_disabled":false,"rental_uris":{"android":"levelo://app?vid=4a3e0be9-e3ff-4aeb-b97e-3a7f3d4e7b91","ios":"levelo://app?vid=4a3e0be9-e3ff-4aeb-b97e-3a7f3d4e7b91"},"vehicle_type_id":"4","last_reported":1702227927,"current_range_meters":0,"station_id":"ce4bh3p2rcd13ifvqdp0","pricing_plan_id":"free"},{"bike_id":"780679fb-5e62-4e21-be94-42d135f108ae","system_id":"levelo_inurba_marseille","lat":43.30642,"lon":5.401031,"is_reserved":false,"is_disabled":false,"rental_uris":{"android":"levelo://app?vid=780679fb-5e62-4e21-be94-42d135f108ae","ios":"levelo://app?vid=780679fb-5e62-4e21-be94-42d135f108ae"},"vehicle_type_id":"4","last_reported":1702227927,"current_range_meters":0,"station_id":"ce4bh112rcd13ifvqda0","pricing_plan_id":"free"},{"bike_id":"57379eda-0138-44ac-9e8c-b02ba3e503d2","system_id":"levelo_inurba_marseille","lat":43.30642,"lon":5.401031,"is_reserved":false,"is_disabled":false,"rental_uris":{"android":"levelo://app?vid=57379eda-0138-44ac-9e8c-b02ba3e503d2","ios":"levelo://app?vid=57379eda-0138-44ac-9e8c-b02ba3e503d2"},"vehicle_type_id":"4","last_reported":1702227927,"current_range_meters":20000,"station_id":"ce4bh112rcd13ifvqda0","pricing_plan_id":"free"},{"bike_id":"b7a0a989-fa0f-4b2a-8301-9472e5479880","system_id":"levelo_inurba_marseille","lat":43.296921,"lon":5.376579,"is_reserved":false,"is_disabled":false,"rental_uris":{"android":"levelo://app?vid=b7a0a989-fa0f-4b2a-8301-9472e5479880","ios":"levelo://app?vid=b7a0a989-fa0f-4b2a-8301-9472e5479880"},"vehicle_type_id":"4","last_reported":1702227927,"current_range_meters":20000,"station_id":"ce4bgkh2rcd13ifvqbl0","pricing_plan_id":"free"},{"bike_id":"750e762c-97d0-4063-9aad-9196c69149ca","system_id":"levelo_inurba_marseille","lat":43.286961,"lon":5.373785,"is_reserved":false,"is_disabled":false,"rental_uris":{"android":"levelo://app?vid=750e762c-97d0-4063-9aad-9196c69149ca","ios":"levelo://app?vid=750e762c-97d0-4063-9aad-9196c69149ca"},"vehicle_type_id":"4","last_reported":1702227927,"current_range_meters":18000,"station_id":"ce4bh3p2rcd13ifvqdq0","pricing_plan_id":"free"},{"bike_id":"743c9578-b8f3-4e30-9547-3f47d37efa14","system_id":"levelo_inurba_marseille","lat":43.286591,"lon":5.363346,"is_reserved":false,"is_disabled":false,"rental_uris":{"android":"levelo://app?vid=743c9578-b8f3-4e30-9547-3f47d37efa14","ios":"levelo://app?vid=743c9578-b8f3-4e30-9547-3f47d37efa14"},"vehicle_type_id":"4","last_reported":1702227927,"current_range_meters":21200,"station_id":"ce4bhah2rcd13ifvqej0","pricing_plan_id":"free"},{"bike_id":"633cd8b8-71f4-40ff-8a2f-0d8dba52aefb","system_id":"levelo_inurba_marseille","lat":43.286961,"lon":5.373785,"is_reserved":false,"is_disabled":false,"rental_uris":{"android":"levelo://app?vid=633cd8b8-71f4-40ff-8a2f-0d8dba52aefb","ios":"levelo://app?vid=633cd8b8-71f4-40ff-8a2f-0d8dba52aefb"},"vehicle_type_id":"4","last_reported":1702227927,"current_range_meters":12000,"station_id":"ce4bh3p2rcd13ifvqdq0","pricing_plan_id":"free"},{"bike_id":"54eca29a-728b-41f2-b50a-77a0d433362e","system_id":"levelo_inurba_marseille","lat":43.28458,"lon":5.35889,"is_reserved":false,"is_disabled":false,"rental_uris":{"android":"levelo://app?vid=54eca29a-728b-41f2-b50a-77a0d433362e","ios":"levelo://app?vid=54eca29a-728b-41f2-b50a-77a0d433362e"},"vehicle_type_id":"4","last_reported":1702227927,"current_range_meters":20000,"station_id":"ce4bhah2rcd13ifvqei0","pricing_plan_id":"free"},{"bike_id":"3f8e14cd-3867-434e-9465-ac73c9cfc25f","system_id":"levelo_inurba_marseille","lat":43.28457,"lon":5.35888,"is_reserved":false,"is_disabled":false,"rental_uris":{"android":"levelo://app?vid=3f8e14cd-3867-434e-9465-ac73c9cfc25f","ios":"levelo://app?vid=3f8e14cd-3867-434e-9465-ac73c9cfc25f"},"vehicle_type_id":"4","last_reported":1702227927,"current_range_meters":5200,"station_id":"ce4bhah2rcd13ifvqei0","pricing_plan_id":"free"},{"bike_id":"25abb136-3c34-4966-a7ae-66a1e6ac7379","system_id":"levelo_inurba_marseille","lat":43.284538,"lon":5.358657,"is_reserved":false,"is_disabled":false,"rental_uris":{"android":"levelo://app?vid=25abb136-3c34-4966-a7ae-66a1e6ac7379","ios":"levelo://app?vid=25abb136-3c34-4966-a7ae-66a1e6ac7379"},"vehicle_type_id":"4","last_reported":1702227927,"current_range_meters":17600,"station_id":"ce4bhah2rcd13ifvqei0","pricing_plan_id":"free"},{"bike_id":"119ee8e3-fa65-44d6-bb3b-11d0d77085d3","system_id":"levelo_inurba_marseille","lat":43.28455,"lon":5.35893,"is_reserved":false,"is_disabled":false,"rental_uris":{"android":"levelo://app?vid=119ee8e3-fa65-44d6-bb3b-11d0d77085d3","ios":"levelo://app?vid=119ee8e3-fa65-44d6-bb3b-11d0d77085d3"},"vehicle_type_id":"4","last_reported":1702227927,"current_range_meters":18800,"station_id":"ce4bhah2rcd13ifvqei0","pricing_plan_id":"free"},{"bike_id":"64fe99bf-1064-4561-a3b5-f86a9f6b520a","system_id":"levelo_inurba_marseille","lat":43.28454,"lon":5.35898,"is_reserved":false,"is_disabled":false,"rental_uris":{"android":"levelo://app?vid=64fe99bf-1064-4561-a3b5-f86a9f6b520a","ios":"levelo://app?vid=64fe99bf-1064-4561-a3b5-f86a9f6b520a"},"vehicle_type_id":"4","last_reported":1702227927,"current_range_meters":4000,"station_id":"ce4bhah2rcd13ifvqei0","pricing_plan_id":"free"},{"bike_id":"ee45295d-d2ac-4bad-b547-2e77e282c6d5","system_id":"levelo_inurba_marseille","lat":43.284538,"lon":5.358657,"is_reserved":false,"is_disabled":false,"rental_uris":{"android":"levelo://app?vid=ee45295d-d2ac-4bad-b547-2e77e282c6d5","ios":"levelo://app?vid=ee45295d-d2ac-4bad-b547-2e77e282c6d5"},"vehicle_type_id":"4","last_reported":1702227927,"current_range_meters":12800,"station_id":"ce4bhah2rcd13ifvqei0","pricing_plan_id":"free"},{"bike_id":"785c37c5-b843-4aab-9969-4591f6fc52ec","system_id":"levelo_inurba_marseille","lat":43.28455,"lon":5.35889,"is_reserved":false,"is_disabled":false,"rental_uris":{"android":"levelo://app?vid=785c37c5-b843-4aab-9969-4591f6fc52ec","ios":"levelo://app?vid=785c37c5-b843-4aab-9969-4591f6fc52ec"},"vehicle_type_id":"4","last_reported":1702227927,"current_range_meters":0,"station_id":"ce4bhah2rcd13ifvqei0","pricing_plan_id":"free"},{"bike_id":"7e6adb79-d0a0-4bfc-8bc7-d73d960440e0","system_id":"levelo_inurba_marseille","lat":43.28453,"lon":5.35891,"is_reserved":false,"is_disabled":false,"rental_uris":{"android":"levelo://app?vid=7e6adb79-d0a0-4bfc-8bc7-d73d960440e0","ios":"levelo://app?vid=7e6adb79-d0a0-4bfc-8bc7-d73d960440e0"},"vehicle_type_id":"4","last_reported":1702227927,"current_range_meters":22000,"station_id":"ce4bhah2rcd13ifvqei0","pricing_plan_id":"free"},{"bike_id":"c9bdfd9d-659c-41a7-9d9b-4c86251ef96c","system_id":"levelo_inurba_marseille","lat":43.284533,"lon":5.358857,"is_reserved":false,"is_disabled":false,"rental_uris":{"android":"levelo://app?vid=c9bdfd9d-659c-41a7-9d9b-4c86251ef96c","ios":"levelo://app?vid=c9bdfd9d-659c-41a7-9d9b-4c86251ef96c"},"vehicle_type_id":"4","last_reported":1702227927,"current_range_meters":20000,"station_id":"ce4bhah2rcd13ifvqei0","pricing_plan_id":"free"},{"bike_id":"f1b5cdb2-7df3-4e18-9ce9-10081cd786b8","system_id":"levelo_inurba_marseille","lat":43.284152,"lon":5.375892,"is_reserved":false,"is_disabled":false,"rental_uris":{"android":"levelo://app?vid=f1b5cdb2-7df3-4e18-9ce9-10081cd786b8","ios":"levelo://app?vid=f1b5cdb2-7df3-4e18-9ce9-10081cd786b8"},"vehicle_type_id":"4","last_reported":1702227927,"current_range_meters":0,"station_id":"","pricing_plan_id":"free"},{"bike_id":"edb3f466-fd60-4571-9d45-b82060a6cdf7","system_id":"levelo_inurba_marseille","lat":43.283998,"lon":5.375062,"is_reserved":false,"is_disabled":false,"rental_uris":{"android":"levelo://app?vid=edb3f466-fd60-4571-9d45-b82060a6cdf7","ios":"levelo://app?vid=edb3f466-fd60-4571-9d45-b82060a6cdf7"},"vehicle_type_id":"4","last_reported":1702227927,"current_range_meters":400,"station_id":"ce4bh412rcd13ifvqds0","pricing_plan_id":"free"},{"bike_id":"0a675db9-5b44-4c9b-879a-3c672eb082f9","system_id":"levelo_inurba_marseille","lat":43.323464,"lon":5.406297,"is_reserved":false,"is_disabled":false,"rental_uris":{"android":"levelo://app?vid=0a675db9-5b44-4c9b-879a-3c672eb082f9","ios":"levelo://app?vid=0a675db9-5b44-4c9b-879a-3c672eb082f9"},"vehicle_type_id":"4","last_reported":1702227927,"current_range_meters":14000,"station_id":"ce4bhq92rcd13ifvqhjg","pricing_plan_id":"free"},{"bike_id":"e1f5d934-3626-46f0-8188-a2c894b61eb2","system_id":"levelo_inurba_marseille","lat":43.29797,"lon":5.4041,"is_reserved":false,"is_disabled":false,"rental_uris":{"android":"levelo://app?vid=e1f5d934-3626-46f0-8188-a2c894b61eb2","ios":"levelo://app?vid=e1f5d934-3626-46f0-8188-a2c894b61eb2"},"vehicle_type_id":"4","last_reported":1702227927,"current_range_meters":0,"station_id":"ce4bh112rcd13ifvqd90","pricing_plan_id":"free"},{"bike_id":"6f4a7abd-88dd-47af-aa5a-4ff8fad07159","system_id":"levelo_inurba_marseille","lat":43.292724,"lon":5.401131,"is_reserved":false,"is_disabled":false,"rental_uris":{"android":"levelo://app?vid=6f4a7abd-88dd-47af-aa5a-4ff8fad07159","ios":"levelo://app?vid=6f4a7abd-88dd-47af-aa5a-4ff8fad07159"},"vehicle_type_id":"4","last_reported":1702227927,"current_range_meters":12400,"station_id":"ce4bh312rcd13ifvqdk0","pricing_plan_id":"free"},{"bike_id":"c82ecc99-9517-4ea6-9d05-264fdb8da014","system_id":"levelo_inurba_marseille","lat":43.282754,"lon":5.350519,"is_reserved":false,"is_disabled":false,"rental_uris":{"android":"levelo://app?vid=c82ecc99-9517-4ea6-9d05-264fdb8da014","ios":"levelo://app?vid=c82ecc99-9517-4ea6-9d05-264fdb8da014"},"vehicle_type_id":"4","last_reported":1702227927,"current_range_meters":5600,"station_id":"ce4bhbp2rcd13ifvqerg","pricing_plan_id":"free"},{"bike_id":"b4e42f59-4f93-453a-8a55-ef66c6cc8e69","system_id":"levelo_inurba_marseille","lat":43.282754,"lon":5.350519,"is_reserved":false,"is_disabled":false,"rental_uris":{"android":"levelo://app?vid=b4e42f59-4f93-453a-8a55-ef66c6cc8e69","ios":"levelo://app?vid=b4e42f59-4f93-453a-8a55-ef66c6cc8e69"},"vehicle_type_id":"4","last_reported":1702227927,"current_range_meters":20800,"station_id":"ce4bhbp2rcd13ifvqerg","pricing_plan_id":"free"},{"bike_id":"eec56870-9a62-41e6-ac60-2575abe11d23","system_id":"levelo_inurba_marseille","lat":43.28035,"lon":5.3694,"is_reserved":false,"is_disabled":false,"rental_uris":{"android":"levelo://app?vid=eec56870-9a62-41e6-ac60-2575abe11d23","ios":"levelo://app?vid=eec56870-9a62-41e6-ac60-2575abe11d23"},"vehicle_type_id":"4","last_reported":1702227927,"current_range_meters":400,"station_id":"ce4bha12rcd13ifvqef0","pricing_plan_id":"free"},{"bike_id":"48a4d9fe-fdc0-4cd0-9ac0-baf0bd45d62b","system_id":"levelo_inurba_marseille","lat":43.28033,"lon":5.36938,"is_reserved":false,"is_disabled":false,"rental_uris":{"android":"levelo://app?vid=48a4d9fe-fdc0-4cd0-9ac0-baf0bd45d62b","ios":"levelo://app?vid=48a4d9fe-fdc0-4cd0-9ac0-baf0bd45d62b"},"vehicle_type_id":"4","last_reported":1702227927,"current_range_meters":4000,"station_id":"ce4bha12rcd13ifvqef0","pricing_plan_id":"free"},{"bike_id":"1f179636-828d-4c08-8bc9-3ac17120a317","system_id":"levelo_inurba_marseille","lat":43.281044,"lon":5.378308,"is_reserved":false,"is_disabled":false,"rental_uris":{"android":"levelo://app?vid=1f179636-828d-4c08-8bc9-3ac17120a317","ios":"levelo://app?vid=1f179636-828d-4c08-8bc9-3ac17120a317"},"vehicle_type_id":"4","last_reported":1702227927,"current_range_meters":19600,"station_id":"ce4bha12rcd13ifvqee0","pricing_plan_id":"free"},{"bike_id":"abcda9e3-1980-418d-992a-1140197b04df","system_id":"levelo_inurba_marseille","lat":43.28337,"lon":5.386783,"is_reserved":false,"is_disabled":false,"rental_uris":{"android":"levelo://app?vid=abcda9e3-1980-418d-992a-1140197b04df","ios":"levelo://app?vid=abcda9e3-1980-418d-992a-1140197b04df"},"vehicle_type_id":"4","last_reported":1702227927,"current_range_meters":0,"station_id":"ce4bh492rcd13ifvqdvg","pricing_plan_id":"free"},{"bike_id":"cd3e57de-ebbd-4aa0-ba70-9cc9a840c9c4","system_id":"levelo_inurba_marseille","lat":43.27908,"lon":5.38026,"is_reserved":false,"is_disabled":false,"rental_uris":{"android":"levelo://app?vid=cd3e57de-ebbd-4aa0-ba70-9cc9a840c9c4","ios":"levelo://app?vid=cd3e57de-ebbd-4aa0-ba70-9cc9a840c9c4"},"vehicle_type_id":"4","last_reported":1702227927,"current_range_meters":0,"station_id":"ce4bhf92rcd13ifvqf50","pricing_plan_id":"free"},{"bike_id":"6da20e4a-29d3-46f6-9d42-34f66f2f25f0","system_id":"levelo_inurba_marseille","lat":43.299577,"lon":5.413277,"is_reserved":false,"is_disabled":false,"rental_uris":{"android":"levelo://app?vid=6da20e4a-29d3-46f6-9d42-34f66f2f25f0","ios":"levelo://app?vid=6da20e4a-29d3-46f6-9d42-34f66f2f25f0"},"vehicle_type_id":"4","last_reported":1702227927,"current_range_meters":12800,"station_id":"ce4bhp12rcd13ifvqh9g","pricing_plan_id":"free"},{"bike_id":"9fde6258-c5e4-4f34-8b45-3ff5a2693cbd","system_id":"levelo_inurba_marseille","lat":43.275625,"lon":5.384392,"is_reserved":false,"is_disabled":false,"rental_uris":{"android":"levelo://app?vid=9fde6258-c5e4-4f34-8b45-3ff5a2693cbd","ios":"levelo://app?vid=9fde6258-c5e4-4f34-8b45-3ff5a2693cbd"},"vehicle_type_id":"4","last_reported":1702227927,"current_range_meters":3200,"station_id":"ce4bhh92rcd13ifvqfi0","pricing_plan_id":"free"},{"bike_id":"63133364-316e-458e-b234-bbd4926c63fc","system_id":"levelo_inurba_marseille","lat":43.27583,"lon":5.39474,"is_reserved":false,"is_disabled":false,"rental_uris":{"android":"levelo://app?vid=63133364-316e-458e-b234-bbd4926c63fc","ios":"levelo://app?vid=63133364-316e-458e-b234-bbd4926c63fc"},"vehicle_type_id":"4","last_reported":1702227927,"current_range_meters":2800,"station_id":"","pricing_plan_id":"free"},{"bike_id":"c7d407e1-a6f6-4293-906a-14d413d3dcec","system_id":"levelo_inurba_marseille","lat":43.274103,"lon":5.394016,"is_reserved":false,"is_disabled":false,"rental_uris":{"android":"levelo://app?vid=c7d407e1-a6f6-4293-906a-14d413d3dcec","ios":"levelo://app?vid=c7d407e1-a6f6-4293-906a-14d413d3dcec"},"vehicle_type_id":"4","last_reported":1702227927,"current_range_meters":12800,"station_id":"ce4bhdp2rcd13ifvqf20","pricing_plan_id":"free"},{"bike_id":"8d7773eb-8cfa-4695-aadd-d81486eca834","system_id":"levelo_inurba_marseille","lat":43.295523,"lon":5.422926,"is_reserved":false,"is_disabled":false,"rental_uris":{"android":"levelo://app?vid=8d7773eb-8cfa-4695-aadd-d81486eca834","ios":"levelo://app?vid=8d7773eb-8cfa-4695-aadd-d81486eca834"},"vehicle_type_id":"4","last_reported":1702227927,"current_range_meters":23200,"station_id":"ce4bhph2rcd13ifvqhdg","pricing_plan_id":"free"},{"bike_id":"73be8de9-0dde-4ef6-815b-5a26699c3c87","system_id":"levelo_inurba_marseille","lat":43.295511,"lon":5.422926,"is_reserved":false,"is_disabled":false,"rental_uris":{"android":"levelo://app?vid=73be8de9-0dde-4ef6-815b-5a26699c3c87","ios":"levelo://app?vid=73be8de9-0dde-4ef6-815b-5a26699c3c87"},"vehicle_type_id":"4","last_reported":1702227927,"current_range_meters":16400,"station_id":"ce4bhph2rcd13ifvqhdg","pricing_plan_id":"free"},{"bike_id":"bfd0cc1b-2b54-4d7d-b741-5bf0ab2d620a","system_id":"levelo_inurba_marseille","lat":43.295523,"lon":5.422926,"is_reserved":false,"is_disabled":false,"rental_uris":{"android":"levelo://app?vid=bfd0cc1b-2b54-4d7d-b741-5bf0ab2d620a","ios":"levelo://app?vid=bfd0cc1b-2b54-4d7d-b741-5bf0ab2d620a"},"vehicle_type_id":"4","last_reported":1702227927,"current_range_meters":23600,"station_id":"ce4bhph2rcd13ifvqhdg","pricing_plan_id":"free"},{"bike_id":"31efd396-9a91-49a8-80ea-be32c490e79f","system_id":"levelo_inurba_marseille","lat":43.295511,"lon":5.422926,"is_reserved":false,"is_disabled":false,"rental_uris":{"android":"levelo://app?vid=31efd396-9a91-49a8-80ea-be32c490e79f","ios":"levelo://app?vid=31efd396-9a91-49a8-80ea-be32c490e79f"},"vehicle_type_id":"4","last_reported":1702227927,"current_range_meters":2400,"station_id":"ce4bhph2rcd13ifvqhdg","pricing_plan_id":"free"},{"bike_id":"83a116eb-3aa9-43b4-976f-1773a90f6122","system_id":"levelo_inurba_marseille","lat":43.278128,"lon":5.407195,"is_reserved":false,"is_disabled":false,"rental_uris":{"android":"levelo://app?vid=83a116eb-3aa9-43b4-976f-1773a90f6122","ios":"levelo://app?vid=83a116eb-3aa9-43b4-976f-1773a90f6122"},"vehicle_type_id":"4","last_reported":1702227927,"current_range_meters":6400,"station_id":"ce4bhnh2rcd13ifvqgtg","pricing_plan_id":"free"},{"bike_id":"b97b56e0-6c5f-4636-9523-78734a8d3e3e","system_id":"levelo_inurba_marseille","lat":43.278128,"lon":5.407195,"is_reserved":false,"is_disabled":false,"rental_uris":{"android":"levelo://app?vid=b97b56e0-6c5f-4636-9523-78734a8d3e3e","ios":"levelo://app?vid=b97b56e0-6c5f-4636-9523-78734a8d3e3e"},"vehicle_type_id":"4","last_reported":1702227927,"current_range_meters":20400,"station_id":"ce4bhnh2rcd13ifvqgtg","pricing_plan_id":"free"},{"bike_id":"c4c349fe-8cce-4b11-8385-1ea68d709ef6","system_id":"levelo_inurba_marseille","lat":43.269467,"lon":5.386439,"is_reserved":false,"is_disabled":false,"rental_uris":{"android":"levelo://app?vid=c4c349fe-8cce-4b11-8385-1ea68d709ef6","ios":"levelo://app?vid=c4c349fe-8cce-4b11-8385-1ea68d709ef6"},"vehicle_type_id":"4","last_reported":1702227927,"current_range_meters":6800,"station_id":"ce4bhh92rcd13ifvqfh0","pricing_plan_id":"free"},{"bike_id":"cde12109-f6d8-453d-8ac2-6b2d6298625f","system_id":"levelo_inurba_marseille","lat":43.269467,"lon":5.386439,"is_reserved":false,"is_disabled":false,"rental_uris":{"android":"levelo://app?vid=cde12109-f6d8-453d-8ac2-6b2d6298625f","ios":"levelo://app?vid=cde12109-f6d8-453d-8ac2-6b2d6298625f"},"vehicle_type_id":"4","last_reported":1702227927,"current_range_meters":0,"station_id":"ce4bhh92rcd13ifvqfh0","pricing_plan_id":"free"},{"bike_id":"6ffcc772-936a-4fc7-a69a-97673de7cb75","system_id":"levelo_inurba_marseille","lat":43.26923,"lon":5.38919,"is_reserved":false,"is_disabled":false,"rental_uris":{"android":"levelo://app?vid=6ffcc772-936a-4fc7-a69a-97673de7cb75","ios":"levelo://app?vid=6ffcc772-936a-4fc7-a69a-97673de7cb75"},"vehicle_type_id":"4","last_reported":1702227927,"current_range_meters":6000,"station_id":"ce4bhhh2rcd13ifvqfl0","pricing_plan_id":"free"},{"bike_id":"b49195d1-5252-4b63-9ddd-c39017071e00","system_id":"levelo_inurba_marseille","lat":43.2766,"lon":5.40884,"is_reserved":false,"is_disabled":false,"rental_uris":{"android":"levelo://app?vid=b49195d1-5252-4b63-9ddd-c39017071e00","ios":"levelo://app?vid=b49195d1-5252-4b63-9ddd-c39017071e00"},"vehicle_type_id":"4","last_reported":1702227927,"current_range_meters":19600,"station_id":"","pricing_plan_id":"free"},{"bike_id":"01efca6b-3026-4da7-99e8-6bb331930a7c","system_id":"levelo_inurba_marseille","lat":43.265714,"lon":5.372891,"is_reserved":false,"is_disabled":false,"rental_uris":{"android":"levelo://app?vid=01efca6b-3026-4da7-99e8-6bb331930a7c","ios":"levelo://app?vid=01efca6b-3026-4da7-99e8-6bb331930a7c"},"vehicle_type_id":"4","last_reported":1702227927,"current_range_meters":22000,"station_id":"ce4bhg12rcd13ifvqf70","pricing_plan_id":"free"},{"bike_id":"2a50d73a-7ce1-4289-a36b-85a217203085","system_id":"levelo_inurba_marseille","lat":43.265714,"lon":5.372891,"is_reserved":false,"is_disabled":false,"rental_uris":{"android":"levelo://app?vid=2a50d73a-7ce1-4289-a36b-85a217203085","ios":"levelo://app?vid=2a50d73a-7ce1-4289-a36b-85a217203085"},"vehicle_type_id":"4","last_reported":1702227927,"current_range_meters":26000,"station_id":"ce4bhg12rcd13ifvqf70","pricing_plan_id":"free"},{"bike_id":"34072cad-d058-40b4-bf9e-d9fd4cc23114","system_id":"levelo_inurba_marseille","lat":43.267966,"lon":5.393976,"is_reserved":false,"is_disabled":false,"rental_uris":{"android":"levelo://app?vid=34072cad-d058-40b4-bf9e-d9fd4cc23114","ios":"levelo://app?vid=34072cad-d058-40b4-bf9e-d9fd4cc23114"},"vehicle_type_id":"4","last_reported":1702227927,"current_range_meters":6800,"station_id":"ce4bhh12rcd13ifvqfg0","pricing_plan_id":"free"},{"bike_id":"21509f5d-ab9a-4d0f-ba30-bc81e0791751","system_id":"levelo_inurba_marseille","lat":43.265714,"lon":5.372891,"is_reserved":false,"is_disabled":false,"rental_uris":{"android":"levelo://app?vid=21509f5d-ab9a-4d0f-ba30-bc81e0791751","ios":"levelo://app?vid=21509f5d-ab9a-4d0f-ba30-bc81e0791751"},"vehicle_type_id":"4","last_reported":1702227927,"current_range_meters":3600,"station_id":"ce4bhg12rcd13ifvqf70","pricing_plan_id":"free"},{"bike_id":"6541afb9-7aa9-40b3-9870-99428645670e","system_id":"levelo_inurba_marseille","lat":43.26778,"lon":5.3942,"is_reserved":false,"is_disabled":false,"rental_uris":{"android":"levelo://app?vid=6541afb9-7aa9-40b3-9870-99428645670e","ios":"levelo://app?vid=6541afb9-7aa9-40b3-9870-99428645670e"},"vehicle_type_id":"4","last_reported":1702227927,"current_range_meters":400,"station_id":"ce4bhh12rcd13ifvqfg0","pricing_plan_id":"free"},{"bike_id":"287e9254-f263-4a4d-afd9-500f2b256a68","system_id":"levelo_inurba_marseille","lat":43.2616,"lon":5.37423,"is_reserved":false,"is_disabled":false,"rental_uris":{"android":"levelo://app?vid=287e9254-f263-4a4d-afd9-500f2b256a68","ios":"levelo://app?vid=287e9254-f263-4a4d-afd9-500f2b256a68"},"vehicle_type_id":"4","last_reported":1702227927,"current_range_meters":26800,"station_id":"ce4bhgp2rcd13ifvqfc0","pricing_plan_id":"free"},{"bike_id":"af902864-16ab-412d-ac7d-2a99df461b39","system_id":"levelo_inurba_marseille","lat":43.271388,"lon":5.409269,"is_reserved":false,"is_disabled":false,"rental_uris":{"android":"levelo://app?vid=af902864-16ab-412d-ac7d-2a99df461b39","ios":"levelo://app?vid=af902864-16ab-412d-ac7d-2a99df461b39"},"vehicle_type_id":"4","last_reported":1702227927,"current_range_meters":28000,"station_id":"ce4bhl12rcd13ifvqgf0","pricing_plan_id":"free"},{"bike_id":"cdf271ea-e8d2-43ae-b3e1-e939dd5bf0b5","system_id":"levelo_inurba_marseille","lat":43.271368,"lon":5.40928,"is_reserved":false,"is_disabled":false,"rental_uris":{"android":"levelo://app?vid=cdf271ea-e8d2-43ae-b3e1-e939dd5bf0b5","ios":"levelo://app?vid=cdf271ea-e8d2-43ae-b3e1-e939dd5bf0b5"},"vehicle_type_id":"4","last_reported":1702227927,"current_range_meters":27600,"station_id":"ce4bhl12rcd13ifvqgf0","pricing_plan_id":"free"},{"bike_id":"b415c3f6-eff2-4aa1-901a-3aa510fe5885","system_id":"levelo_inurba_marseille","lat":43.271368,"lon":5.40928,"is_reserved":false,"is_disabled":false,"rental_uris":{"android":"levelo://app?vid=b415c3f6-eff2-4aa1-901a-3aa510fe5885","ios":"levelo://app?vid=b415c3f6-eff2-4aa1-901a-3aa510fe5885"},"vehicle_type_id":"4","last_reported":1702227927,"current_range_meters":0,"station_id":"ce4bhl12rcd13ifvqgf0","pricing_plan_id":"free"},{"bike_id":"3de0a6a1-4453-486c-a1ba-fc284c4c0e2c","system_id":"levelo_inurba_marseille","lat":43.298768,"lon":5.43643,"is_reserved":false,"is_disabled":false,"rental_uris":{"android":"levelo://app?vid=3de0a6a1-4453-486c-a1ba-fc284c4c0e2c","ios":"levelo://app?vid=3de0a6a1-4453-486c-a1ba-fc284c4c0e2c"},"vehicle_type_id":"4","last_reported":1702227927,"current_range_meters":15200,"station_id":"ce4bhpp2rcd13ifvqhfg","pricing_plan_id":"free"},{"bike_id":"bba8858e-2565-4fb8-b7f5-1043d9f538d1","system_id":"levelo_inurba_marseille","lat":43.298768,"lon":5.43643,"is_reserved":false,"is_disabled":false,"rental_uris":{"android":"levelo://app?vid=bba8858e-2565-4fb8-b7f5-1043d9f538d1","ios":"levelo://app?vid=bba8858e-2565-4fb8-b7f5-1043d9f538d1"},"vehicle_type_id":"4","last_reported":1702227927,"current_range_meters":19600,"station_id":"ce4bhpp2rcd13ifvqhfg","pricing_plan_id":"free"},{"bike_id":"f27e0bd7-83d0-4ffe-abf9-72533762b06d","system_id":"levelo_inurba_marseille","lat":43.2607,"lon":5.393983,"is_reserved":false,"is_disabled":false,"rental_uris":{"android":"levelo://app?vid=f27e0bd7-83d0-4ffe-abf9-72533762b06d","ios":"levelo://app?vid=f27e0bd7-83d0-4ffe-abf9-72533762b06d"},"vehicle_type_id":"4","last_reported":1702227927,"current_range_meters":10800,"station_id":"ce4bhh92rcd13ifvqfj0","pricing_plan_id":"free"},{"bike_id":"ff8e3e71-72c1-40ad-bab8-62d6a15318b0","system_id":"levelo_inurba_marseille","lat":43.2607,"lon":5.393983,"is_reserved":false,"is_disabled":false,"rental_uris":{"android":"levelo://app?vid=ff8e3e71-72c1-40ad-bab8-62d6a15318b0","ios":"levelo://app?vid=ff8e3e71-72c1-40ad-bab8-62d6a15318b0"},"vehicle_type_id":"4","last_reported":1702227927,"current_range_meters":23600,"station_id":"ce4bhh92rcd13ifvqfj0","pricing_plan_id":"free"},{"bike_id":"6c7a4d38-e522-47d3-9eef-64a42f5cb103","system_id":"levelo_inurba_marseille","lat":43.258224,"lon":5.394369,"is_reserved":false,"is_disabled":false,"rental_uris":{"android":"levelo://app?vid=6c7a4d38-e522-47d3-9eef-64a42f5cb103","ios":"levelo://app?vid=6c7a4d38-e522-47d3-9eef-64a42f5cb103"},"vehicle_type_id":"4","last_reported":1702227927,"current_range_meters":29200,"station_id":"ce4bhip2rcd13ifvqft0","pricing_plan_id":"free"},{"bike_id":"12fc138c-0ddb-4238-ae53-2ec64c980af3","system_id":"levelo_inurba_marseille","lat":43.258658,"lon":5.398935,"is_reserved":false,"is_disabled":false,"rental_uris":{"android":"levelo://app?vid=12fc138c-0ddb-4238-ae53-2ec64c980af3","ios":"levelo://app?vid=12fc138c-0ddb-4238-ae53-2ec64c980af3"},"vehicle_type_id":"4","last_reported":1702227927,"current_range_meters":28000,"station_id":"ce4bhl92rcd13ifvqghg","pricing_plan_id":"free"},{"bike_id":"6d5fde86-ed5d-4075-80bf-bb30ce6e88cf","system_id":"levelo_inurba_marseille","lat":43.25862,"lon":5.39902,"is_reserved":false,"is_disabled":false,"rental_uris":{"android":"levelo://app?vid=6d5fde86-ed5d-4075-80bf-bb30ce6e88cf","ios":"levelo://app?vid=6d5fde86-ed5d-4075-80bf-bb30ce6e88cf"},"vehicle_type_id":"4","last_reported":1702227927,"current_range_meters":15200,"station_id":"ce4bhl92rcd13ifvqghg","pricing_plan_id":"free"},{"bike_id":"1e2aa039-02b4-44c7-afcd-27c83847a729","system_id":"levelo_inurba_marseille","lat":43.257079,"lon":5.411051,"is_reserved":false,"is_disabled":false,"rental_uris":{"android":"levelo://app?vid=1e2aa039-02b4-44c7-afcd-27c83847a729","ios":"levelo://app?vid=1e2aa039-02b4-44c7-afcd-27c83847a729"},"vehicle_type_id":"4","last_reported":1702227927,"current_range_meters":27200,"station_id":"ce4bhkp2rcd13ifvqgd0","pricing_plan_id":"free"},{"bike_id":"00a5b07a-b2a0-4584-b6c3-5aa7c74e4aa3","system_id":"levelo_inurba_marseille","lat":43.250009,"lon":5.389195,"is_reserved":false,"is_disabled":false,"rental_uris":{"android":"levelo://app?vid=00a5b07a-b2a0-4584-b6c3-5aa7c74e4aa3","ios":"levelo://app?vid=00a5b07a-b2a0-4584-b6c3-5aa7c74e4aa3"},"vehicle_type_id":"4","last_reported":1702227927,"current_range_meters":19200,"station_id":"ce4bhgp2rcd13ifvqfd0","pricing_plan_id":"free"},{"bike_id":"b6d29e15-32d0-4519-a753-2fc45bc029aa","system_id":"levelo_inurba_marseille","lat":43.2479,"lon":5.374457,"is_reserved":false,"is_disabled":false,"rental_uris":{"android":"levelo://app?vid=b6d29e15-32d0-4519-a753-2fc45bc029aa","ios":"levelo://app?vid=b6d29e15-32d0-4519-a753-2fc45bc029aa"},"vehicle_type_id":"4","last_reported":1702227927,"current_range_meters":8400,"station_id":"ce4bhgh2rcd13ifvqfb0","pricing_plan_id":"free"},{"bike_id":"18a72596-bb7d-4ec2-b0d8-efbae5632ce0","system_id":"levelo_inurba_marseille","lat":43.250023,"lon":5.38919,"is_reserved":false,"is_disabled":false,"rental_uris":{"android":"levelo://app?vid=18a72596-bb7d-4ec2-b0d8-efbae5632ce0","ios":"levelo://app?vid=18a72596-bb7d-4ec2-b0d8-efbae5632ce0"},"vehicle_type_id":"4","last_reported":1702227927,"current_range_meters":18000,"station_id":"ce4bhgp2rcd13ifvqfd0","pricing_plan_id":"free"},{"bike_id":"c56a97e7-d0a8-40bc-9cc3-b3ae396026be","system_id":"levelo_inurba_marseille","lat":43.2479,"lon":5.374457,"is_reserved":false,"is_disabled":false,"rental_uris":{"android":"levelo://app?vid=c56a97e7-d0a8-40bc-9cc3-b3ae396026be","ios":"levelo://app?vid=c56a97e7-d0a8-40bc-9cc3-b3ae396026be"},"vehicle_type_id":"4","last_reported":1702227927,"current_range_meters":6400,"station_id":"ce4bhgh2rcd13ifvqfb0","pricing_plan_id":"free"},{"bike_id":"0809c324-058c-4263-978c-55d2f9fcb194","system_id":"levelo_inurba_marseille","lat":43.24075,"lon":5.377636,"is_reserved":false,"is_disabled":false,"rental_uris":{"android":"levelo://app?vid=0809c324-058c-4263-978c-55d2f9fcb194","ios":"levelo://app?vid=0809c324-058c-4263-978c-55d2f9fcb194"},"vehicle_type_id":"4","last_reported":1702227927,"current_range_meters":20400,"station_id":"","pricing_plan_id":"free"},{"bike_id":"07e94e5d-294c-48fc-a9d7-3043712a08f2","system_id":"levelo_inurba_marseille","lat":43.240623,"lon":5.377642,"is_reserved":false,"is_disabled":false,"rental_uris":{"android":"levelo://app?vid=07e94e5d-294c-48fc-a9d7-3043712a08f2","ios":"levelo://app?vid=07e94e5d-294c-48fc-a9d7-3043712a08f2"},"vehicle_type_id":"4","last_reported":1702227927,"current_range_meters":7200,"station_id":"ce4bhnp2rcd13ifvqgvg","pricing_plan_id":"free"},{"bike_id":"d65965c1-e0fd-4ba9-9ea1-c5168d1a44d9","system_id":"levelo_inurba_marseille","lat":43.239588,"lon":5.366238,"is_reserved":false,"is_disabled":false,"rental_uris":{"android":"levelo://app?vid=d65965c1-e0fd-4ba9-9ea1-c5168d1a44d9","ios":"levelo://app?vid=d65965c1-e0fd-4ba9-9ea1-c5168d1a44d9"},"vehicle_type_id":"4","last_reported":1702227927,"current_range_meters":8000,"station_id":"ce4bhi12rcd13ifvqfp0","pricing_plan_id":"free"},{"bike_id":"8d4f1f56-ba7c-4870-8950-9739cd5ee6a0","system_id":"levelo_inurba_marseille","lat":43.239588,"lon":5.366238,"is_reserved":false,"is_disabled":false,"rental_uris":{"android":"levelo://app?vid=8d4f1f56-ba7c-4870-8950-9739cd5ee6a0","ios":"levelo://app?vid=8d4f1f56-ba7c-4870-8950-9739cd5ee6a0"},"vehicle_type_id":"4","last_reported":1702227927,"current_range_meters":22000,"station_id":"ce4bhi12rcd13ifvqfp0","pricing_plan_id":"free"},{"bike_id":"a0f23852-3841-4254-bc87-29c4cfb0d6ef","system_id":"levelo_inurba_marseille","lat":43.241782,"lon":5.397261,"is_reserved":false,"is_disabled":false,"rental_uris":{"android":"levelo://app?vid=a0f23852-3841-4254-bc87-29c4cfb0d6ef","ios":"levelo://app?vid=a0f23852-3841-4254-bc87-29c4cfb0d6ef"},"vehicle_type_id":"4","last_reported":1702227927,"current_range_meters":18000,"station_id":"ce4bhn12rcd13ifvqgpg","pricing_plan_id":"free"},{"bike_id":"b6a776ce-13b2-4208-b2f0-5e3aa91df954","system_id":"levelo_inurba_marseille","lat":43.241782,"lon":5.397261,"is_reserved":false,"is_disabled":false,"rental_uris":{"android":"levelo://app?vid=b6a776ce-13b2-4208-b2f0-5e3aa91df954","ios":"levelo://app?vid=b6a776ce-13b2-4208-b2f0-5e3aa91df954"},"vehicle_type_id":"4","last_reported":1702227927,"current_range_meters":19200,"station_id":"ce4bhn12rcd13ifvqgpg","pricing_plan_id":"free"},{"bike_id":"38e6a031-f1b7-4433-8bcc-92fc4e312363","system_id":"levelo_inurba_marseille","lat":43.231794,"lon":5.400052,"is_reserved":false,"is_disabled":false,"rental_uris":{"android":"levelo://app?vid=38e6a031-f1b7-4433-8bcc-92fc4e312363","ios":"levelo://app?vid=38e6a031-f1b7-4433-8bcc-92fc4e312363"},"vehicle_type_id":"4","last_reported":1702227927,"current_range_meters":2800,"station_id":"ce4bhn12rcd13ifvqgqg","pricing_plan_id":"free"}]}}