{"last_updated":1784722827,"ttl":60,"version":"2.2","data":{"bikes":[{"bike_id":"7ef36254-6bb3-448c-8d77-979d957d54b6","system_id":"levelo_inurba_marseille","lat":43.337444,"lon":5.374475,"is_reserved":false,"is_disabled":false,"rental_uris":{"android":"levelo://app?vid=7ef36254-6bb3-448c-8d77-979d957d54b6","ios":"levelo://app?vid=7ef36254-6bb3-448c-8d77-979d957d54b6"},"vehicle_type_id":"4","last_reported":1784722828,"current_range_meters":0,"station_id":"","pricing_plan_id":"cebpf4jnsgd1na2vs0mg"},{"bike_id":"21fe2e98-0432-4b40-a81f-10dd00b0f57d","system_id":"levelo_inurba_marseille","lat":43.337444,"lon":5.374475,"is_reserved":false,"is_disabled":false,"rental_uris":{"android":"levelo://app?vid=21fe2e98-0432-4b40-a81f-10dd00b0f57d","ios":"levelo://app?vid=21fe2e98-0432-4b40-a81f-10dd00b0f57d"},"vehicle_type_id":"4","last_reported":1784722828,"current_range_meters":0,"station_id":"","pricing_plan_id":"cebpf4jnsgd1na2vs0mg"},{"bike_id":"a005102a-45c6-430f-8cd7-a0a69490bbf0","system_id":"levelo_inurba_marseille","lat":43.33539,"lon":5.37462,"is_reserved":false,"is_disabled":false,"rental_uris":{"android":"levelo://app?vid=a005102a-45c6-430f-8cd7-a0a69490bbf0","ios":"levelo://app?vid=a005102a-45c6-430f-8cd7-a0a69490bbf0"},"vehicle_type_id":"4","last_reported":1784722828,"current_range_meters":35200,"station_id":"st_d46tts09ee8s73dlu43g","pricing_plan_id":"cebpf4jnsgd1na2vs0mg"},{"bike_id":"e35a7b3d-d6be-4e45-8bf8-f140e099eb23","system_id":"levelo_inurba_marseille","lat":43.27059,"lon":5.40263,"is_reserved":false,"is_disabled":false,"rental_uris":{"android":"levelo://app?vid=e35a7b3d-d6be-4e45-8bf8-f140e099eb23","ios":"levelo://app?vid=e35a7b3d-d6be-4e45-8bf8-f140e099eb23"},"vehicle_type_id":"4","last_reported":1784722828,"current_range_meters":39200,"station_id":"ce4bhk92rcd13ifvqgc0","pricing_plan_id":"cebpf4jnsgd1na2vs0mg"},{"bike_id":"ba0c9333-04c3-4488-b824-540f4f16b898","system_id":"levelo_inurba_marseille","lat":43.28823,"lon":5.35893,"is_reserved":false,"is_disabled":true,"rental_uris":{"android":"levelo://app?vid=ba0c9333-04c3-4488-b824-540f4f16b898","ios":"levelo://app?vid=ba0c9333-04c3-4488-b824-540f4f16b898"},"vehicle_type_id":"4","last_reported":1784722828,"current_range_meters":1200,"station_id":"ce4bhb12rcd13ifvqem0","pricing_plan_id":"cebpf4jnsgd1na2vs0mg"},{"bike_id":"910edd9b-3f88-46ff-af53-0deba1c167b6","system_id":"levelo_inurba_marseille","lat":43.23961,"lon":5.3663,"is_reserved":false,"is_disabled":false,"rental_uris":{"android":"levelo://app?vid=910edd9b-3f88-46ff-af53-0deba1c167b6","ios":"levelo://app?vid=910edd9b-3f88-46ff-af53-0deba1c167b6"},"vehicle_type_id":"4","last_reported":1784722828,"current_range_meters":38800,"station_id":"ce4bhi12rcd13ifvqfp0","pricing_plan_id":"cebpf4jnsgd1na2vs0mg"},{"bike_id":"f7c3760a-0e96-4b8d-babc-6fc4b09f3747","system_id":"levelo_inurba_marseille","lat":43.28409,"lon":5.37509,"is_reserved":false,"is_disabled":false,"rental_uris":{"android":"levelo://app?vid=f7c3760a-0e96-4b8d-babc-6fc4b09f3747","ios":"levelo://app?vid=f7c3760a-0e96-4b8d-babc-6fc4b09f3747"},"vehicle_type_id":"4","last_reported":1784722828,"current_range_meters":38000,"station_id":"ce4bh412rcd13ifvqds0","pricing_plan_id":"cebpf4jnsgd1na2vs0mg"},{"bike_id":"75d6362f-fe0a-4519-b436-357232361612","system_id":"levelo_inurba_marseille","lat":43.26932,"lon":5.40248,"is_reserved":false,"is_disabled":false,"rental_uris":{"android":"levelo://app?vid=75d6362f-fe0a-4519-b436-357232361612","ios":"levelo://app?vid=75d6362f-fe0a-4519-b436-357232361612"},"vehicle_type_id":"4","last_reported":1784722828,"current_range_meters":38400,"station_id":"cjm6bp8fraef2m0cb0m0","pricing_plan_id":"cebpf4jnsgd1na2vs0mg"},{"bike_id":"f2c26268-2002-48c9-a2f8-8f76ed8a8540","system_id":"levelo_inurba_marseille","lat":43.23888,"lon":5.3747,"is_reserved":false,"is_disabled":false,"rental_uris":{"android":"levelo://app?vid=f2c26268-2002-48c9-a2f8-8f76ed8a8540","ios":"levelo://app?vid=f2c26268-2002-48c9-a2f8-8f76ed8a8540"},"vehicle_type_id":"4","last_reported":1784722828,"current_range_meters":39200,"station_id":"st_d6sm7csbq4hs73f8fpjg","pricing_plan_id":"cebpf4jnsgd1na2vs0mg"},{"bike_id":"de30ddd4-669b-4767-a1ab-c402c79ef9a5","system_id":"levelo_inurba_marseille","lat":43.28704,"lon":5.37412,"is_reserved":false,"is_disabled":true,"rental_uris":{"android":"levelo://app?vid=de30ddd4-669b-4767-a1ab-c402c79ef9a5","ios":"levelo://app?vid=de30ddd4-669b-4767-a1ab-c402c79ef9a5"},"vehicle_type_id":"4","last_reported":1784722828,"current_range_meters":800,"station_id":"ce4bh3p2rcd13ifvqdq0","pricing_plan_id":"cebpf4jnsgd1na2vs0mg"},{"bike_id":"72706276-fb69-4388-946e-2b4fb06a5929","system_id":"levelo_inurba_marseille","lat":43.33033,"lon":5.39091,"is_reserved":false,"is_disabled":false,"rental_uris":{"android":"levelo://app?vid=72706276-fb69-4388-946e-2b4fb06a5929","ios":"levelo://app?vid=72706276-fb69-4388-946e-2b4fb06a5929"},"vehicle_type_id":"4","last_reported":1784722828,"current_range_meters":6800,"station_id":"ce4bhr92rcd13ifvqhrg","pricing_plan_id":"cebpf4jnsgd1na2vs0mg"},{"bike_id":"02d5b560-d9fd-4517-8d13-aefbc3f751a8","system_id":"levelo_inurba_marseille","lat":43.29218,"lon":5.36051,"is_reserved":false,"is_disabled":false,"rental_uris":{"android":"levelo://app?vid=02d5b560-d9fd-4517-8d13-aefbc3f751a8","ios":"levelo://app?vid=02d5b560-d9fd-4517-8d13-aefbc3f751a8"},"vehicle_type_id":"4","last_reported":1784722828,"current_range_meters":39200,"station_id":"","pricing_plan_id":"cebpf4jnsgd1na2vs0mg"},{"bike_id":"10ad0a9f-3c3b-45c2-8514-d34f29e37fe1","system_id":"levelo_inurba_marseille","lat":43.24385,"lon":5.37045,"is_reserved":false,"is_disabled":false,"rental_uris":{"android":"levelo://app?vid=10ad0a9f-3c3b-45c2-8514-d34f29e37fe1","ios":"levelo://app?vid=10ad0a9f-3c3b-45c2-8514-d34f29e37fe1"},"vehicle_type_id":"4","last_reported":1784722828,"current_range_meters":35600,"station_id":"ce4bhhh2rcd13ifvqfk0","pricing_plan_id":"cebpf4jnsgd1na2vs0mg"},{"bike_id":"07e84ac4-bfa3-498f-9ea2-6987ce4780d4","system_id":"levelo_inurba_marseille","lat":43.29712,"lon":5.36628,"is_reserved":false,"is_disabled":false,"rental_uris":{"android":"levelo://app?vid=07e84ac4-bfa3-498f-9ea2-6987ce4780d4","ios":"levelo://app?vid=07e84ac4-bfa3-498f-9ea2-6987ce4780d4"},"vehicle_type_id":"4","last_reported":1784722828,"current_range_meters":39200,"station_id":"ce4bgn12rcd13ifvqbt0","pricing_plan_id":"cebpf4jnsgd1na2vs0mg"},{"bike_id":"e7dcaf7b-9751-4df8-97c8-58c10a250eef","system_id":"levelo_inurba_marseille","lat":43.30735,"lon":5.4244,"is_reserved":false,"is_disabled":false,"rental_uris":{"android":"levelo://app?vid=e7dcaf7b-9751-4df8-97c8-58c10a250eef","ios":"levelo://app?vid=e7dcaf7b-9751-4df8-97c8-58c10a250eef"},"vehicle_type_id":"4","last_reported":1784722828,"current_range_meters":38000,"station_id":"st_cvj6ca6bvosntc0bfgr0","pricing_plan_id":"cebpf4jnsgd1na2vs0mg"},{"bike_id":"7219b5d1-4410-4fc8-9519-1ca61e3e373b","system_id":"levelo_inurba_marseille","lat":43.27065,"lon":5.42286,"is_reserved":false,"is_disabled":false,"rental_uris":{"android":"levelo://app?vid=7219b5d1-4410-4fc8-9519-1ca61e3e373b","ios":"levelo://app?vid=7219b5d1-4410-4fc8-9519-1ca61e3e373b"},"vehicle_type_id":"4","last_reported":1784722828,"current_range_meters":19200,"station_id":"ce4bhk92rcd13ifvqgb0","pricing_plan_id":"cebpf4jnsgd1na2vs0mg"},{"bike_id":"0e7c77f5-7ef9-4bac-b7f5-0449befded8f","system_id":"levelo_inurba_marseille","lat":43.295278,"lon":5.375018,"is_reserved":false,"is_disabled":false,"rental_uris":{"android":"levelo://app?vid=0e7c77f5-7ef9-4bac-b7f5-0449befded8f","ios":"levelo://app?vid=0e7c77f5-7ef9-4bac-b7f5-0449befded8f"},"vehicle_type_id":"4","last_reported":1784722828,"current_range_meters":23200,"station_id":"ce4bgkp2rcd13ifvqbmg","pricing_plan_id":"cebpf4jnsgd1na2vs0mg"},{"bike_id":"45c49d7a-ce5a-4cef-92b3-a6a99f7ffcbc","system_id":"levelo_inurba_marseille","lat":43.31743,"lon":5.39029,"is_reserved":false,"is_disabled":false,"rental_uris":{"android":"levelo://app?vid=45c49d7a-ce5a-4cef-92b3-a6a99f7ffcbc","ios":"levelo://app?vid=45c49d7a-ce5a-4cef-92b3-a6a99f7ffcbc"},"vehicle_type_id":"4","last_reported":1784722828,"current_range_meters":16400,"station_id":"ce4bhqp2rcd13ifvqhng","pricing_plan_id":"cebpf4jnsgd1na2vs0mg"},{"bike_id":"c9b29176-e012-4a78-813b-ba1ffc01fb69","system_id":"levelo_inurba_marseille","lat":43.28616,"lon":5.35105,"is_reserved":false,"is_disabled":false,"rental_uris":{"android":"levelo://app?vid=c9b29176-e012-4a78-813b-ba1ffc01fb69","ios":"levelo://app?vid=c9b29176-e012-4a78-813b-ba1ffc01fb69"},"vehicle_type_id":"4","last_reported":1784722828,"current_range_meters":14400,"station_id":"ce4bhch2rcd13ifvqeug","pricing_plan_id":"cebpf4jnsgd1na2vs0mg"},{"bike_id":"f1270771-e3a1-4dbc-b46a-68c916f6e148","system_id":"levelo_inurba_marseille","lat":43.28636,"lon":5.38486,"is_reserved":false,"is_disabled":false,"rental_uris":{"android":"levelo://app?vid=f1270771-e3a1-4dbc-b46a-68c916f6e148","ios":"levelo://app?vid=f1270771-e3a1-4dbc-b46a-68c916f6e148"},"vehicle_type_id":"4","last_reported":1784722828,"current_range_meters":15200,"station_id":"","pricing_plan_id":"cebpf4jnsgd1na2vs0mg"},{"bike_id":"0334278a-f526-4865-9991-40008fe349be","system_id":"levelo_inurba_marseille","lat":43.2809,"lon":5.39664,"is_reserved":false,"is_disabled":true,"rental_uris":{"android":"levelo://app?vid=0334278a-f526-4865-9991-40008fe349be","ios":"levelo://app?vid=0334278a-f526-4865-9991-40008fe349be"},"vehicle_type_id":"4","last_reported":1784722828,"current_range_meters":38000,"station_id":"ce4bho12rcd13ifvqh2g","pricing_plan_id":"cebpf4jnsgd1na2vs0mg"},{"bike_id":"4103d901-47b2-49b4-9a28-9e60d43d4813","system_id":"levelo_inurba_marseille","lat":43.30779,"lon":5.37652,"is_reserved":false,"is_disabled":false,"rental_uris":{"android":"levelo://app?vid=4103d901-47b2-49b4-9a28-9e60d43d4813","ios":"levelo://app?vid=4103d901-47b2-49b4-9a28-9e60d43d4813"},"vehicle_type_id":"4","last_reported":1784722828,"current_range_meters":40000,"station_id":"ce4bgv92rcd13ifvqcq0","pricing_plan_id":"cebpf4jnsgd1na2vs0mg"},{"bike_id":"bf720be3-207c-41aa-bdb2-2d086f76cbcd","system_id":"levelo_inurba_marseille","lat":43.26569,"lon":5.40317,"is_reserved":false,"is_disabled":false,"rental_uris":{"android":"levelo://app?vid=bf720be3-207c-41aa-bdb2-2d086f76cbcd","ios":"levelo://app?vid=bf720be3-207c-41aa-bdb2-2d086f76cbcd"},"vehicle_type_id":"4","last_reported":1784722828,"current_range_meters":7200,"station_id":"ce4bhmp2rcd13ifvqgng","pricing_plan_id":"cebpf4jnsgd1na2vs0mg"},{"bike_id":"7b893c3a-f50d-4ab1-b4e5-684f550fde57","system_id":"levelo_inurba_marseille","lat":43.314986,"lon":5.373118,"is_reserved":false,"is_disabled":true,"rental_uris":{"android":"levelo://app?vid=7b893c3a-f50d-4ab1-b4e5-684f550fde57","ios":"levelo://app?vid=7b893c3a-f50d-4ab1-b4e5-684f550fde57"},"vehicle_type_id":"4","last_reported":1784722828,"current_range_meters":8400,"station_id":"ce4bgt12rcd13ifvqcd0","pricing_plan_id":"cebpf4jnsgd1na2vs0mg"},{"bike_id":"7e14b548-fd51-4e37-a9d9-0c6ab38717e3","system_id":"levelo_inurba_marseille","lat":43.29515,"lon":5.39405,"is_reserved":false,"is_disabled":false,"rental_uris":{"android":"levelo://app?vid=7e14b548-fd51-4e37-a9d9-0c6ab38717e3","ios":"levelo://app?vid=7e14b548-fd51-4e37-a9d9-0c6ab38717e3"},"vehicle_type_id":"4","last_reported":1784722828,"current_range_meters":32000,"station_id":"ce4bh292rcd13ifvqdf0","pricing_plan_id":"cebpf4jnsgd1na2vs0mg"},{"bike_id":"51c9d168-94e4-41e0-90a4-bc83f1a86ce9","system_id":"levelo_inurba_marseille","lat":43.27356,"lon":5.3625,"is_reserved":false,"is_disabled":false,"rental_uris":{"android":"levelo://app?vid=51c9d168-94e4-41e0-90a4-bc83f1a86ce9","ios":"levelo://app?vid=51c9d168-94e4-41e0-90a4-bc83f1a86ce9"},"vehicle_type_id":"4","last_reported":1784722828,"current_range_meters":11200,"station_id":"ce4bhbh2rcd13ifvqeo0","pricing_plan_id":"cebpf4jnsgd1na2vs0mg"},{"bike_id":"0407e939-5161-4ca2-abca-2b876d384dfc","system_id":"levelo_inurba_marseille","lat":43.30916,"lon":5.36859,"is_reserved":false,"is_disabled":false,"rental_uris":{"android":"levelo://app?vid=0407e939-5161-4ca2-abca-2b876d384dfc","ios":"levelo://app?vid=0407e939-5161-4ca2-abca-2b876d384dfc"},"vehicle_type_id":"4","last_reported":1784722828,"current_range_meters":28000,"station_id":"ce4bgn92rcd13ifvqbvg","pricing_plan_id":"cebpf4jnsgd1na2vs0mg"},{"bike_id":"f9c65922-483e-4914-92f4-f7524b9a110d","system_id":"levelo_inurba_marseille","lat":43.32347,"lon":5.36745,"is_reserved":false,"is_disabled":false,"rental_uris":{"android":"levelo://app?vid=f9c65922-483e-4914-92f4-f7524b9a110d","ios":"levelo://app?vid=f9c65922-483e-4914-92f4-f7524b9a110d"},"vehicle_type_id":"4","last_reported":1784722828,"current_range_meters":3600,"station_id":"ce4bhsh2rcd13ifvqi2g","pricing_plan_id":"cebpf4jnsgd1na2vs0mg"},{"bike_id":"0a9d078e-3429-462d-834a-3dff6387bd27","system_id":"levelo_inurba_marseille","lat":43.31381,"lon":5.36677,"is_reserved":false,"is_disabled":false,"rental_uris":{"android":"levelo://app?vid=0a9d078e-3429-462d-834a-3dff6387bd27","ios":"levelo://app?vid=0a9d078e-3429-462d-834a-3dff6387bd27"},"vehicle_type_id":"4","last_reported":1784722828,"current_range_meters":30400,"station_id":"","pricing_plan_id":"cebpf4jnsgd1na2vs0mg"},{"bike_id":"e28e8428-aee3-41aa-8d54-985aca6c735f","system_id":"levelo_inurba_marseille","lat":43.25526,"lon":5.37645,"is_reserved":false,"is_disabled":false,"rental_uris":{"android":"levelo://app?vid=e28e8428-aee3-41aa-8d54-985aca6c735f","ios":"levelo://app?vid=e28e8428-aee3-41aa-8d54-985aca6c735f"},"vehicle_type_id":"4","last_reported":1784722828,"current_range_meters":31200,"station_id":"ce4bhh12rcd13ifvqff0","pricing_plan_id":"cebpf4jnsgd1na2vs0mg"},{"bike_id":"13dbc7d3-70ce-472e-870f-4ec98b201099","system_id":"levelo_inurba_marseille","lat":43.29109,"lon":5.38132,"is_reserved":false,"is_disabled":false,"rental_uris":{"android":"levelo://app?vid=13dbc7d3-70ce-472e-870f-4ec98b201099","ios":"levelo://app?vid=13dbc7d3-70ce-472e-870f-4ec98b201099"},"vehicle_type_id":"4","last_reported":1784722828,"current_range_meters":36800,"station_id":"ce4bh512rcd13ifvqe2g","pricing_plan_id":"cebpf4jnsgd1na2vs0mg"},{"bike_id":"505068a9-ce29-4a07-bf25-e9268fc31d6c","system_id":"levelo_inurba_marseille","lat":43.3111,"lon":5.37781,"is_reserved":false,"is_disabled":false,"rental_uris":{"android":"levelo://app?vid=505068a9-ce29-4a07-bf25-e9268fc31d6c","ios":"levelo://app?vid=505068a9-ce29-4a07-bf25-e9268fc31d6c"},"vehicle_type_id":"4","last_reported":1784722828,"current_range_meters":32000,"station_id":"ce4bgt92rcd13ifvqcg0","pricing_plan_id":"cebpf4jnsgd1na2vs0mg"},{"bike_id":"a338cea5-f797-4d31-b718-3121663ee29c","system_id":"levelo_inurba_marseille","lat":43.30385,"lon":5.37841,"is_reserved":false,"is_disabled":false,"rental_uris":{"android":"levelo://app?vid=a338cea5-f797-4d31-b718-3121663ee29c","ios":"levelo://app?vid=a338cea5-f797-4d31-b718-3121663ee29c"},"vehicle_type_id":"4","last_reported":1784722828,"current_range_meters":34000,"station_id":"","pricing_plan_id":"cebpf4jnsgd1na2vs0mg"},{"bike_id":"4f36e699-e321-4385-bebf-a5379c2419da","system_id":"levelo_inurba_marseille","lat":43.29272,"lon":5.36863,"is_reserved":false,"is_disabled":false,"rental_uris":{"android":"levelo://app?vid=4f36e699-e321-4385-bebf-a5379c2419da","ios":"levelo://app?vid=4f36e699-e321-4385-bebf-a5379c2419da"},"vehicle_type_id":"4","last_reported":1784722828,"current_range_meters":37600,"station_id":"","pricing_plan_id":"cebpf4jnsgd1na2vs0mg"},{"bike_id":"bf6bb86b-42f5-48a4-a80d-6ce92f6a7466","system_id":"levelo_inurba_marseille","lat":43.28661,"lon":5.3635,"is_reserved":false,"is_disabled":false,"rental_uris":{"android":"levelo://app?vid=bf6bb86b-42f5-48a4-a80d-6ce92f6a7466","ios":"levelo://app?vid=bf6bb86b-42f5-48a4-a80d-6ce92f6a7466"},"vehicle_type_id":"4","last_reported":1784722828,"current_range_meters":38800,"station_id":"ce4bhah2rcd13ifvqej0","pricing_plan_id":"cebpf4jnsgd1na2vs0mg"},{"bike_id":"68f9759d-31b0-4c35-bc93-d18e666e6d46","system_id":"levelo_inurba_marseille","lat":43.30929,"lon":5.36823,"is_reserved":false,"is_disabled":false,"rental_uris":{"android":"levelo://app?vid=68f9759d-31b0-4c35-bc93-d18e666e6d46","ios":"levelo://app?vid=68f9759d-31b0-4c35-bc93-d18e666e6d46"},"vehicle_type_id":"4","last_reported":1784722828,"current_range_meters":36800,"station_id":"ce4bgn92rcd13ifvqbvg","pricing_plan_id":"cebpf4jnsgd1na2vs0mg"},{"bike_id":"a7c9489a-3c37-4218-bc38-92c335aa3a8a","system_id":"levelo_inurba_marseille","lat":43.28483,"lon":5.48384,"is_reserved":false,"is_disabled":false,"rental_uris":{"android":"levelo://app?vid=a7c9489a-3c37-4218-bc38-92c335aa3a8a","ios":"levelo://app?vid=a7c9489a-3c37-4218-bc38-92c335aa3a8a"},"vehicle_type_id":"4","last_reported":1784722828,"current_range_meters":5600,"station_id":"st_d3svhcjqgbts73a3dn0g","pricing_plan_id":"cebpf4jnsgd1na2vs0mg"},{"bike_id":"d9bce63f-f3d1-49fb-aed3-9636eacc0c6f","system_id":"levelo_inurba_marseille","lat":43.30891,"lon":5.37197,"is_reserved":false,"is_disabled":false,"rental_uris":{"android":"levelo://app?vid=d9bce63f-f3d1-49fb-aed3-9636eacc0c6f","ios":"levelo://app?vid=d9bce63f-f3d1-49fb-aed3-9636eacc0c6f"},"vehicle_type_id":"4","last_reported":1784722828,"current_range_meters":23200,"station_id":"ce4bguh2rcd13ifvqckg","pricing_plan_id":"cebpf4jnsgd1na2vs0mg"},{"bike_id":"63e17dc8-4384-484d-b3f7-26b9416ff97c","system_id":"levelo_inurba_marseille","lat":43.31347,"lon":5.38502,"is_reserved":false,"is_disabled":false,"rental_uris":{"android":"levelo://app?vid=63e17dc8-4384-484d-b3f7-26b9416ff97c","ios":"levelo://app?vid=63e17dc8-4384-484d-b3f7-26b9416ff97c"},"vehicle_type_id":"4","last_reported":1784722828,"current_range_meters":30400,"station_id":"ce4bgt92rcd13ifvqcf0","pricing_plan_id":"cebpf4jnsgd1na2vs0mg"},{"bike_id":"8c2b8dd6-969f-486f-b6db-89345624d380","system_id":"levelo_inurba_marseille","lat":43.31334,"lon":5.36747,"is_reserved":false,"is_disabled":false,"rental_uris":{"android":"levelo://app?vid=8c2b8dd6-969f-486f-b6db-89345624d380","ios":"levelo://app?vid=8c2b8dd6-969f-486f-b6db-89345624d380"},"vehicle_type_id":"4","last_reported":1784722828,"current_range_meters":18800,"station_id":"ce4bgr92rcd13ifvqc6g","pricing_plan_id":"cebpf4jnsgd1na2vs0mg"},{"bike_id":"5aa3ca14-34f8-4cf6-bf98-84664ad40ed9","system_id":"levelo_inurba_marseille","lat":43.32344,"lon":5.38883,"is_reserved":false,"is_disabled":false,"rental_uris":{"android":"levelo://app?vid=5aa3ca14-34f8-4cf6-bf98-84664ad40ed9","ios":"levelo://app?vid=5aa3ca14-34f8-4cf6-bf98-84664ad40ed9"},"vehicle_type_id":"4","last_reported":1784722828,"current_range_meters":37600,"station_id":"ce4bhqp2rcd13ifvqhog","pricing_plan_id":"cebpf4jnsgd1na2vs0mg"},{"bike_id":"febaaedf-9b37-469c-af42-9b12d1add498","system_id":"levelo_inurba_marseille","lat":43.2593,"lon":5.40873,"is_reserved":false,"is_disabled":false,"rental_uris":{"android":"levelo://app?vid=febaaedf-9b37-469c-af42-9b12d1add498","ios":"levelo://app?vid=febaaedf-9b37-469c-af42-9b12d1add498"},"vehicle_type_id":"4","last_reported":1784722828,"current_range_meters":13600,"station_id":"ce4bhm92rcd13ifvqglg","pricing_plan_id":"cebpf4jnsgd1na2vs0mg"},{"bike_id":"183c7711-f220-4e72-8568-eaad7eb51afa","system_id":"levelo_inurba_marseille","lat":43.29088,"lon":5.3812,"is_reserved":false,"is_disabled":false,"rental_uris":{"android":"levelo://app?vid=183c7711-f220-4e72-8568-eaad7eb51afa","ios":"levelo://app?vid=183c7711-f220-4e72-8568-eaad7eb51afa"},"vehicle_type_id":"4","last_reported":1784722828,"current_range_meters":38800,"station_id":"ce4bh512rcd13ifvqe2g","pricing_plan_id":"cebpf4jnsgd1na2vs0mg"},{"bike_id":"0547f557-b090-4345-9140-124bc0c4fa4e","system_id":"levelo_inurba_marseille","lat":43.33131,"lon":5.37696,"is_reserved":false,"is_disabled":false,"rental_uris":{"android":"levelo://app?vid=0547f557-b090-4345-9140-124bc0c4fa4e","ios":"levelo://app?vid=0547f557-b090-4345-9140-124bc0c4fa4e"},"vehicle_type_id":"4","last_reported":1784722828,"current_range_meters":33200,"station_id":"st_d46cu089ee8s73dldbu0","pricing_plan_id":"cebpf4jnsgd1na2vs0mg"},{"bike_id":"8b48f329-937d-4f33-bc8e-cc3992c67190","system_id":"levelo_inurba_marseille","lat":43.2959,"lon":5.37187,"is_reserved":false,"is_disabled":true,"rental_uris":{"android":"levelo://app?vid=8b48f329-937d-4f33-bc8e-cc3992c67190","ios":"levelo://app?vid=8b48f329-937d-4f33-bc8e-cc3992c67190"},"vehicle_type_id":"4","last_reported":1784722828,"current_range_meters":36400,"station_id":"","pricing_plan_id":"cebpf4jnsgd1na2vs0mg"},{"bike_id":"ff2ab3eb-4c5e-4a40-a93c-9164a9c4b860","system_id":"levelo_inurba_marseille","lat":43.29747,"lon":5.38751,"is_reserved":false,"is_disabled":false,"rental_uris":{"android":"levelo://app?vid=ff2ab3eb-4c5e-4a40-a93c-9164a9c4b860","ios":"levelo://app?vid=ff2ab3eb-4c5e-4a40-a93c-9164a9c4b860"},"vehicle_type_id":"4","last_reported":1784722828,"current_range_meters":7200,"station_id":"","pricing_plan_id":"cebpf4jnsgd1na2vs0mg"},{"bike_id":"bdb3550d-1615-4b07-aca7-4160c4e39c88","system_id":"levelo_inurba_marseille","lat":43.27056,"lon":5.40254,"is_reserved":false,"is_disabled":false,"rental_uris":{"android":"levelo://app?vid=bdb3550d-1615-4b07-aca7-4160c4e39c88","ios":"levelo://app?vid=bdb3550d-1615-4b07-aca7-4160c4e39c88"},"vehicle_type_id":"4","last_reported":1784722828,"current_range_meters":20400,"station_id":"ce4bhk92rcd13ifvqgc0","pricing_plan_id":"cebpf4jnsgd1na2vs0mg"},{"bike_id":"d5f15b89-300c-48ce-868a-694a93770e8e","system_id":"levelo_inurba_marseille","lat":43.24073,"lon":5.37736,"is_reserved":false,"is_disabled":false,"rental_uris":{"android":"levelo://app?vid=d5f15b89-300c-48ce-868a-694a93770e8e","ios":"levelo://app?vid=d5f15b89-300c-48ce-868a-694a93770e8e"},"vehicle_type_id":"4","last_reported":1784722828,"current_range_meters":15200,"station_id":"ce4bhnp2rcd13ifvqgvg","pricing_plan_id":"cebpf4jnsgd1na2vs0mg"},{"bike_id":"a6983f6b-d3a7-48f9-8075-f5a2f5f99593","system_id":"levelo_inurba_marseille","lat":43.29071,"lon":5.3815,"is_reserved":false,"is_disabled":false,"rental_uris":{"android":"levelo://app?vid=a6983f6b-d3a7-48f9-8075-f5a2f5f99593","ios":"levelo://app?vid=a6983f6b-d3a7-48f9-8075-f5a2f5f99593"},"vehicle_type_id":"4","last_reported":1784722828,"current_range_meters":38400,"station_id":"ce4bh512rcd13ifvqe2g","pricing_plan_id":"cebpf4jnsgd1na2vs0mg"},{"bike_id":"53d0f6b7-260d-4c8a-add4-bafac305600d","system_id":"levelo_inurba_marseille","lat":43.259,"lon":5.40884,"is_reserved":false,"is_disabled":false,"rental_uris":{"android":"levelo://app?vid=53d0f6b7-260d-4c8a-add4-bafac305600d","ios":"levelo://app?vid=53d0f6b7-260d-4c8a-add4-bafac305600d"},"vehicle_type_id":"4","last_reported":1784722828,"current_range_meters":38800,"station_id":"ce4bhm92rcd13ifvqglg","pricing_plan_id":"cebpf4jnsgd1na2vs0mg"},{"bike_id":"06195112-6882-4fb6-b232-8620d1008b12","system_id":"levelo_inurba_marseille","lat":43.29273,"lon":5.36843,"is_reserved":false,"is_disabled":false,"rental_uris":{"android":"levelo://app?vid=06195112-6882-4fb6-b232-8620d1008b12","ios":"levelo://app?vid=06195112-6882-4fb6-b232-8620d1008b12"},"vehicle_type_id":"4","last_reported":1784722828,"current_range_meters":38000,"station_id":"","pricing_plan_id":"cebpf4jnsgd1na2vs0mg"},{"bike_id":"aa0c2d9b-f4e0-477a-9fa2-18fd1e9e7acb","system_id":"levelo_inurba_marseille","lat":43.28704,"lon":5.46681,"is_reserved":false,"is_disabled":false,"rental_uris":{"android":"levelo://app?vid=aa0c2d9b-f4e0-477a-9fa2-18fd1e9e7acb","ios":"levelo://app?vid=aa0c2d9b-f4e0-477a-9fa2-18fd1e9e7acb"},"vehicle_type_id":"4","last_reported":1784722828,"current_range_meters":28400,"station_id":"st_d6tc3vkotcvc738tfjhg","pricing_plan_id":"cebpf4jnsgd1na2vs0mg"},{"bike_id":"7b1a34a9-9772-429a-ac81-dbcf3805788e","system_id":"levelo_inurba_marseille","lat":43.27869,"lon":5.35544,"is_reserved":false,"is_disabled":false,"rental_uris":{"android":"levelo://app?vid=7b1a34a9-9772-429a-ac81-dbcf3805788e","ios":"levelo://app?vid=7b1a34a9-9772-429a-ac81-dbcf3805788e"},"vehicle_type_id":"4","last_reported":1784722828,"current_range_meters":17600,"station_id":"","pricing_plan_id":"cebpf4jnsgd1na2vs0mg"},{"bike_id":"4db6516d-1119-4cfb-a3d2-ff26f2594f17","system_id":"levelo_inurba_marseille","lat":43.290153,"lon":5.386206,"is_reserved":false,"is_disabled":false,"rental_uris":{"android":"levelo://app?vid=4db6516d-1119-4cfb-a3d2-ff26f2594f17","ios":"levelo://app?vid=4db6516d-1119-4cfb-a3d2-ff26f2594f17"},"vehicle_type_id":"4","last_reported":1784722828,"current_range_meters":22400,"station_id":"ce4bh4p2rcd13ifvqe0g","pricing_plan_id":"cebpf4jnsgd1na2vs0mg"},{"bike_id":"b3615f38-9ae4-47b3-be0f-27da959fb130","system_id":"levelo_inurba_marseille","lat":43.26522,"lon":5.39632,"is_reserved":false,"is_disabled":false,"rental_uris":{"android":"levelo://app?vid=b3615f38-9ae4-47b3-be0f-27da959fb130","ios":"levelo://app?vid=b3615f38-9ae4-47b3-be0f-27da959fb130"},"vehicle_type_id":"4","last_reported":1784722828,"current_range_meters":15200,"station_id":"","pricing_plan_id":"cebpf4jnsgd1na2vs0mg"},{"bike_id":"143b0326-bcc2-41fe-ac94-ce3903ac509a","system_id":"levelo_inurba_marseille","lat":43.3085,"lon":5.4043,"is_reserved":false,"is_disabled":true,"rental_uris":{"android":"levelo://app?vid=143b0326-bcc2-41fe-ac94-ce3903ac509a","ios":"levelo://app?vid=143b0326-bcc2-41fe-ac94-ce3903ac509a"},"vehicle_type_id":"4","last_reported":1784722828,"current_range_meters":1600,"station_id":"","pricing_plan_id":"cebpf4jnsgd1na2vs0mg"},{"bike_id":"58dc365e-57ad-4619-9121-e2ad08afeca6","system_id":"levelo_inurba_marseille","lat":43.27969,"lon":5.38729,"is_reserved":false,"is_disabled":false,"rental_uris":{"android":"levelo://app?vid=58dc365e-57ad-4619-9121-e2ad08afeca6","ios":"levelo://app?vid=58dc365e-57ad-4619-9121-e2ad08afeca6"},"vehicle_type_id":"4","last_reported":1784722828,"current_range_meters":39200,"station_id":"ce4bhg12rcd13ifvqf80","pricing_plan_id":"cebpf4jnsgd1na2vs0mg"},{"bike_id":"01d9a676-01f3-4b98-beb9-e0a1a490c722","system_id":"levelo_inurba_marseille","lat":43.28124,"lon":5.42659,"is_reserved":false,"is_disabled":false,"rental_uris":{"android":"levelo://app?vid=01d9a676-01f3-4b98-beb9-e0a1a490c722","ios":"levelo://app?vid=01d9a676-01f3-4b98-beb9-e0a1a490c722"},"vehicle_type_id":"4","last_reported":1784722828,"current_range_meters":28800,"station_id":"ce4bhnh2rcd13ifvqgug","pricing_plan_id":"cebpf4jnsgd1na2vs0mg"},{"bike_id":"f765bc46-853b-4f5f-a0cf-13f9a2c85881","system_id":"levelo_inurba_marseille","lat":43.32096,"lon":5.36803,"is_reserved":false,"is_disabled":false,"rental_uris":{"android":"levelo://app?vid=f765bc46-853b-4f5f-a0cf-13f9a2c85881","ios":"levelo://app?vid=f765bc46-853b-4f5f-a0cf-13f9a2c85881"},"vehicle_type_id":"4","last_reported":1784722828,"current_range_meters":33600,"station_id":"ce4bhrh2rcd13ifvqhug","pricing_plan_id":"cebpf4jnsgd1na2vs0mg"},{"bike_id":"04721d6d-f2e1-428f-ba6e-71ff1286f01b","system_id":"levelo_inurba_marseille","lat":43.24073,"lon":5.3776,"is_reserved":false,"is_disabled":false,"rental_uris":{"android":"levelo://app?vid=04721d6d-f2e1-428f-ba6e-71ff1286f01b","ios":"levelo://app?vid=04721d6d-f2e1-428f-ba6e-71ff1286f01b"},"vehicle_type_id":"4","last_reported":1784722828,"current_range_meters":38400,"station_id":"ce4bhnp2rcd13ifvqgvg","pricing_plan_id":"cebpf4jnsgd1na2vs0mg"},{"bike_id":"3ab46e4a-b9d6-458c-8f1a-3060296f87a3","system_id":"levelo_inurba_marseille","lat":43.25859,"lon":5.39907,"is_reserved":false,"is_disabled":false,"rental_uris":{"android":"levelo://app?vid=3ab46e4a-b9d6-458c-8f1a-3060296f87a3","ios":"levelo://app?vid=3ab46e4a-b9d6-458c-8f1a-3060296f87a3"},"vehicle_type_id":"4","last_reported":1784722828,"current_range_meters":27200,"station_id":"ce4bhl92rcd13ifvqghg","pricing_plan_id":"cebpf4jnsgd1na2vs0mg"},{"bike_id":"ba93309a-7b94-4ff9-87bd-2b00d2fbd9d0","system_id":"levelo_inurba_marseille","lat":43.31183,"lon":5.36842,"is_reserved":false,"is_disabled":false,"rental_uris":{"android":"levelo://app?vid=ba93309a-7b94-4ff9-87bd-2b00d2fbd9d0","ios":"levelo://app?vid=ba93309a-7b94-4ff9-87bd-2b00d2fbd9d0"},"vehicle_type_id":"4","last_reported":1784722828,"current_range_meters":31200,"station_id":"ce4bgl92rcd13ifvqbq0","pricing_plan_id":"cebpf4jnsgd1na2vs0mg"},{"bike_id":"a13e16e4-e177-431d-8bef-33b38f696e96","system_id":"levelo_inurba_marseille","lat":43.26752,"lon":5.39981,"is_reserved":false,"is_disabled":false,"rental_uris":{"android":"levelo://app?vid=a13e16e4-e177-431d-8bef-33b38f696e96","ios":"levelo://app?vid=a13e16e4-e177-431d-8bef-33b38f696e96"},"vehicle_type_id":"4","last_reported":1784722828,"current_range_meters":25600,"station_id":"","pricing_plan_id":"cebpf4jnsgd1na2vs0mg"},{"bike_id":"305a6368-2301-449a-8bce-aa50232a4dd3","system_id":"levelo_inurba_marseille","lat":43.3058,"lon":5.36449,"is_reserved":false,"is_disabled":false,"rental_uris":{"android":"levelo://app?vid=305a6368-2301-449a-8bce-aa50232a4dd3","ios":"levelo://app?vid=305a6368-2301-449a-8bce-aa50232a4dd3"},"vehicle_type_id":"4","last_reported":1784722828,"current_range_meters":27600,"station_id":"","pricing_plan_id":"cebpf4jnsgd1na2vs0mg"},{"bike_id":"d923fd64-c32b-4ff8-9ab6-7ad87f400b45","system_id":"levelo_inurba_marseille","lat":43.21737,"lon":5.34605,"is_reserved":false,"is_disabled":false,"rental_uris":{"android":"levelo://app?vid=d923fd64-c32b-4ff8-9ab6-7ad87f400b45","ios":"levelo://app?vid=d923fd64-c32b-4ff8-9ab6-7ad87f400b45"},"vehicle_type_id":"4","last_reported":1784722828,"current_range_meters":30400,"station_id":"st_cvj6r9ubvosntc0bgbag","pricing_plan_id":"cebpf4jnsgd1na2vs0mg"},{"bike_id":"e3050c7c-ee0d-45a7-83f4-e56d564a4317","system_id":"levelo_inurba_marseille","lat":43.26543,"lon":5.39022,"is_reserved":false,"is_disabled":false,"rental_uris":{"android":"levelo://app?vid=e3050c7c-ee0d-45a7-83f4-e56d564a4317","ios":"levelo://app?vid=e3050c7c-ee0d-45a7-83f4-e56d564a4317"},"vehicle_type_id":"4","last_reported":1784722828,"current_range_meters":25200,"station_id":"ce4bhe12rcd13ifvqf30","pricing_plan_id":"cebpf4jnsgd1na2vs0mg"},{"bike_id":"47cf6f92-e61c-4aab-ad78-eebc0950c3b8","system_id":"levelo_inurba_marseille","lat":43.21183,"lon":5.35068,"is_reserved":false,"is_disabled":false,"rental_uris":{"android":"levelo://app?vid=47cf6f92-e61c-4aab-ad78-eebc0950c3b8","ios":"levelo://app?vid=47cf6f92-e61c-4aab-ad78-eebc0950c3b8"},"vehicle_type_id":"4","last_reported":1784722828,"current_range_meters":2800,"station_id":"st_cvj6sg6p6f1abm77japg","pricing_plan_id":"cebpf4jnsgd1na2vs0mg"},{"bike_id":"1d9d1c87-69ec-4a29-95b6-c52937f6faa8","system_id":"levelo_inurba_marseille","lat":43.26519,"lon":5.39543,"is_reserved":false,"is_disabled":false,"rental_uris":{"android":"levelo://app?vid=1d9d1c87-69ec-4a29-95b6-c52937f6faa8","ios":"levelo://app?vid=1d9d1c87-69ec-4a29-95b6-c52937f6faa8"},"vehicle_type_id":"4","last_reported":1784722828,"current_range_meters":35600,"station_id":"ce4bhi12rcd13ifvqfq0","pricing_plan_id":"cebpf4jnsgd1na2vs0mg"},{"bike_id":"50d7506c-406d-4288-a673-b2239b010d08","system_id":"levelo_inurba_marseille","lat":43.2843,"lon":5.42387,"is_reserved":false,"is_disabled":true,"rental_uris":{"android":"levelo://app?vid=50d7506c-406d-4288-a673-b2239b010d08","ios":"levelo://app?vid=50d7506c-406d-4288-a673-b2239b010d08"},"vehicle_type_id":"4","last_reported":1784722828,"current_range_meters":0,"station_id":"","pricing_plan_id":"cebpf4jnsgd1na2vs0mg"},{"bike_id":"01804220-cb37-490c-ab32-259aab12cc74","system_id":"levelo_inurba_marseille","lat":43.24659,"lon":5.38884,"is_reserved":false,"is_disabled":false,"rental_uris":{"android":"levelo://app?vid=01804220-cb37-490c-ab32-259aab12cc74","ios":"levelo://app?vid=01804220-cb37-490c-ab32-259aab12cc74"},"vehicle_type_id":"4","last_reported":1784722828,"current_range_meters":35200,"station_id":"ce4bhg12rcd13ifvqf60","pricing_plan_id":"cebpf4jnsgd1na2vs0mg"},{"bike_id":"63ac71b9-4e91-4156-b2f4-760c36b35208","system_id":"levelo_inurba_marseille","lat":43.29033,"lon":5.35925,"is_reserved":false,"is_disabled":false,"rental_uris":{"android":"levelo://app?vid=63ac71b9-4e91-4156-b2f4-760c36b35208","ios":"levelo://app?vid=63ac71b9-4e91-4156-b2f4-760c36b35208"},"vehicle_type_id":"4","last_reported":1784722828,"current_range_meters":35200,"station_id":"ce4bha92rcd13ifvqeg0","pricing_plan_id":"cebpf4jnsgd1na2vs0mg"},{"bike_id":"9b283179-210a-4336-a14d-ac3412104c48","system_id":"levelo_inurba_marseille","lat":43.32467,"lon":5.36574,"is_reserved":false,"is_disabled":false,"rental_uris":{"android":"levelo://app?vid=9b283179-210a-4336-a14d-ac3412104c48","ios":"levelo://app?vid=9b283179-210a-4336-a14d-ac3412104c48"},"vehicle_type_id":"4","last_reported":1784722828,"current_range_meters":32800,"station_id":"ce4bhs12rcd13ifvqhvg","pricing_plan_id":"cebpf4jnsgd1na2vs0mg"},{"bike_id":"b93e16e6-a64a-41eb-9cf0-03132a1fff99","system_id":"levelo_inurba_marseille","lat":43.29598,"lon":5.37729,"is_reserved":false,"is_disabled":false,"rental_uris":{"android":"levelo://app?vid=b93e16e6-a64a-41eb-9cf0-03132a1fff99","ios":"levelo://app?vid=b93e16e6-a64a-41eb-9cf0-03132a1fff99"},"vehicle_type_id":"4","last_reported":1784722828,"current_range_meters":29600,"station_id":"ce4bgi92rcd13ifvqb90","pricing_plan_id":"cebpf4jnsgd1na2vs0mg"},{"bike_id":"06a47a70-c4aa-4b09-8775-c059e958d2f4","system_id":"levelo_inurba_marseille","lat":43.284051,"lon":5.375093,"is_reserved":false,"is_disabled":false,"rental_uris":{"android":"levelo://app?vid=06a47a70-c4aa-4b09-8775-c059e958d2f4","ios":"levelo://app?vid=06a47a70-c4aa-4b09-8775-c059e958d2f4"},"vehicle_type_id":"4","last_reported":1784722828,"current_range_meters":25200,"station_id":"ce4bh412rcd13ifvqds0","pricing_plan_id":"cebpf4jnsgd1na2vs0mg"},{"bike_id":"8b980fe2-831a-474f-9257-aac80a862f21","system_id":"levelo_inurba_marseille","lat":43.32347,"lon":5.36743,"is_reserved":false,"is_disabled":false,"rental_uris":{"android":"levelo://app?vid=8b980fe2-831a-474f-9257-aac80a862f21","ios":"levelo://app?vid=8b980fe2-831a-474f-9257-aac80a862f21"},"vehicle_type_id":"4","last_reported":1784722828,"current_range_meters":39200,"station_id":"ce4bhsh2rcd13ifvqi2g","pricing_plan_id":"cebpf4jnsgd1na2vs0mg"},{"bike_id":"9c24dfc9-a9f6-48fe-9987-84002be90209","system_id":"levelo_inurba_marseille","lat":43.27666,"lon":5.38901,"is_reserved":false,"is_disabled":false,"rental_uris":{"android":"levelo://app?vid=9c24dfc9-a9f6-48fe-9987-84002be90209","ios":"levelo://app?vid=9c24dfc9-a9f6-48fe-9987-84002be90209"},"vehicle_type_id":"4","last_reported":1784722828,"current_range_meters":36800,"station_id":"ce4bhi12rcd13ifvqfo0","pricing_plan_id":"cebpf4jnsgd1na2vs0mg"},{"bike_id":"602348b5-0ec3-410d-8b93-57596fc7f6ae","system_id":"levelo_inurba_marseille","lat":43.29728,"lon":5.37683,"is_reserved":false,"is_disabled":false,"rental_uris":{"android":"levelo://app?vid=602348b5-0ec3-410d-8b93-57596fc7f6ae","ios":"levelo://app?vid=602348b5-0ec3-410d-8b93-57596fc7f6ae"},"vehicle_type_id":"4","last_reported":1784722828,"current_range_meters":23200,"station_id":"ce4bgkh2rcd13ifvqbl0","pricing_plan_id":"cebpf4jnsgd1na2vs0mg"},{"bike_id":"3cff31ea-c3fd-4a9e-aa7d-f699c19fe715","system_id":"levelo_inurba_marseille","lat":43.28535,"lon":5.44089,"is_reserved":false,"is_disabled":false,"rental_uris":{"android":"levelo://app?vid=3cff31ea-c3fd-4a9e-aa7d-f699c19fe715","ios":"levelo://app?vid=3cff31ea-c3fd-4a9e-aa7d-f699c19fe715"},"vehicle_type_id":"4","last_reported":1784722828,"current_range_meters":30800,"station_id":"st_d3j3df2ikq2c7380ej80","pricing_plan_id":"cebpf4jnsgd1na2vs0mg"},{"bike_id":"1ffd6e8d-c4af-44c4-b5ee-8153d663260f","system_id":"levelo_inurba_marseille","lat":43.29198,"lon":5.39332,"is_reserved":false,"is_disabled":true,"rental_uris":{"android":"levelo://app?vid=1ffd6e8d-c4af-44c4-b5ee-8153d663260f","ios":"levelo://app?vid=1ffd6e8d-c4af-44c4-b5ee-8153d663260f"},"vehicle_type_id":"4","last_reported":1784722828,"current_range_meters":24000,"station_id":"ce4bh192rcd13ifvqdd0","pricing_plan_id":"cebpf4jnsgd1na2vs0mg"},{"bike_id":"dde2705b-6eb9-428f-80ef-ad2d8c87331b","system_id":"levelo_inurba_marseille","lat":43.28469,"lon":5.35868,"is_reserved":false,"is_disabled":false,"rental_uris":{"android":"levelo://app?vid=dde2705b-6eb9-428f-80ef-ad2d8c87331b","ios":"levelo://app?vid=dde2705b-6eb9-428f-80ef-ad2d8c87331b"},"vehicle_type_id":"4","last_reported":1784722828,"current_range_meters":35600,"station_id":"ce4bhah2rcd13ifvqei0","pricing_plan_id":"cebpf4jnsgd1na2vs0mg"},{"bike_id":"1e99efe8-5a96-48dd-977a-856215117710","system_id":"levelo_inurba_marseille","lat":43.30468,"lon":5.37899,"is_reserved":false,"is_disabled":false,"rental_uris":{"android":"levelo://app?vid=1e99efe8-5a96-48dd-977a-856215117710","ios":"levelo://app?vid=1e99efe8-5a96-48dd-977a-856215117710"},"vehicle_type_id":"4","last_reported":1784722828,"current_range_meters":14400,"station_id":"ce4bgup2rcd13ifvqcn0","pricing_plan_id":"cebpf4jnsgd1na2vs0mg"},{"bike_id":"3077410f-c275-47ff-9a76-a03e6375e951","system_id":"levelo_inurba_marseille","lat":43.28683,"lon":5.3698,"is_reserved":false,"is_disabled":false,"rental_uris":{"android":"levelo://app?vid=3077410f-c275-47ff-9a76-a03e6375e951","ios":"levelo://app?vid=3077410f-c275-47ff-9a76-a03e6375e951"},"vehicle_type_id":"4","last_reported":1784722828,"current_range_meters":38400,"station_id":"","pricing_plan_id":"cebpf4jnsgd1na2vs0mg"},{"bike_id":"ea65f945-5804-4f4c-a343-1c5b9664c0e2","system_id":"levelo_inurba_marseille","lat":43.30949,"lon":5.39028,"is_reserved":false,"is_disabled":false,"rental_uris":{"android":"levelo://app?vid=ea65f945-5804-4f4c-a343-1c5b9664c0e2","ios":"levelo://app?vid=ea65f945-5804-4f4c-a343-1c5b9664c0e2"},"vehicle_type_id":"4","last_reported":1784722828,"current_range_meters":36800,"station_id":"ce4bgup2rcd13ifvqco0","pricing_plan_id":"cebpf4jnsgd1na2vs0mg"},{"bike_id":"e5f50cc2-0bc0-46ed-9c8e-877e9e71cf5e","system_id":"levelo_inurba_marseille","lat":43.28204,"lon":5.39063,"is_reserved":false,"is_disabled":false,"rental_uris":{"android":"levelo://app?vid=e5f50cc2-0bc0-46ed-9c8e-877e9e71cf5e","ios":"levelo://app?vid=e5f50cc2-0bc0-46ed-9c8e-877e9e71cf5e"},"vehicle_type_id":"4","last_reported":1784722828,"current_range_meters":8000,"station_id":"ce4bhn92rcd13ifvqgsg","pricing_plan_id":"cebpf4jnsgd1na2vs0mg"},{"bike_id":"238398fc-83d7-4dbe-918b-1e8e7bd4a603","system_id":"levelo_inurba_marseille","lat":43.3122,"lon":5.39015,"is_reserved":false,"is_disabled":false,"rental_uris":{"android":"levelo://app?vid=238398fc-83d7-4dbe-918b-1e8e7bd4a603","ios":"levelo://app?vid=238398fc-83d7-4dbe-918b-1e8e7bd4a603"},"vehicle_type_id":"4","last_reported":1784722828,"current_range_meters":23200,"station_id":"","pricing_plan_id":"cebpf4jnsgd1na2vs0mg"},{"bike_id":"460e271e-5f61-45cc-9e70-9b705355b705","system_id":"levelo_inurba_marseille","lat":43.29094,"lon":5.38144,"is_reserved":false,"is_disabled":false,"rental_uris":{"android":"levelo://app?vid=460e271e-5f61-45cc-9e70-9b705355b705","ios":"levelo://app?vid=460e271e-5f61-45cc-9e70-9b705355b705"},"vehicle_type_id":"4","last_reported":1784722828,"current_range_meters":30000,"station_id":"ce4bh512rcd13ifvqe2g","pricing_plan_id":"cebpf4jnsgd1na2vs0mg"},{"bike_id":"78e7e967-a8d7-4345-8d31-93c9d317e74b","system_id":"levelo_inurba_marseille","lat":43.30456,"lon":5.40853,"is_reserved":false,"is_disabled":false,"rental_uris":{"android":"levelo://app?vid=78e7e967-a8d7-4345-8d31-93c9d317e74b","ios":"levelo://app?vid=78e7e967-a8d7-4345-8d31-93c9d317e74b"},"vehicle_type_id":"4","last_reported":1784722828,"current_range_meters":25200,"station_id":"","pricing_plan_id":"cebpf4jnsgd1na2vs0mg"},{"bike_id":"f1288106-a8c3-4624-ad2a-44299213b3e2","system_id":"levelo_inurba_marseille","lat":43.295801,"lon":5.36746,"is_reserved":false,"is_disabled":true,"rental_uris":{"android":"levelo://app?vid=f1288106-a8c3-4624-ad2a-44299213b3e2","ios":"levelo://app?vid=f1288106-a8c3-4624-ad2a-44299213b3e2"},"vehicle_type_id":"4","last_reported":1784722828,"current_range_meters":3600,"station_id":"","pricing_plan_id":"cebpf4jnsgd1na2vs0mg"},{"bike_id":"ab52afa5-a3f8-4d43-abb5-6d3bdce56e41","system_id":"levelo_inurba_marseille","lat":43.29847,"lon":5.376757,"is_reserved":false,"is_disabled":false,"rental_uris":{"android":"levelo://app?vid=ab52afa5-a3f8-4d43-abb5-6d3bdce56e41","ios":"levelo://app?vid=ab52afa5-a3f8-4d43-abb5-6d3bdce56e41"},"vehicle_type_id":"4","last_reported":1784722828,"current_range_meters":25200,"station_id":"ce4bgjh2rcd13ifvqbg0","pricing_plan_id":"cebpf4jnsgd1na2vs0mg"},{"bike_id":"ab907c16-2123-44c2-912f-95e0f2737c03","system_id":"levelo_inurba_marseille","lat":43.30379,"lon":5.42726,"is_reserved":false,"is_disabled":true,"rental_uris":{"android":"levelo://app?vid=ab907c16-2123-44c2-912f-95e0f2737c03","ios":"levelo://app?vid=ab907c16-2123-44c2-912f-95e0f2737c03"},"vehicle_type_id":"4","last_reported":1784722828,"current_range_meters":24000,"station_id":"","pricing_plan_id":"cebpf4jnsgd1na2vs0mg"},{"bike_id":"9958bf3e-9f9b-4b76-97c7-d14660691215","system_id":"levelo_inurba_marseille","lat":43.27994,"lon":5.38696,"is_reserved":false,"is_disabled":false,"rental_uris":{"android":"levelo://app?vid=9958bf3e-9f9b-4b76-97c7-d14660691215","ios":"levelo://app?vid=9958bf3e-9f9b-4b76-97c7-d14660691215"},"vehicle_type_id":"4","last_reported":1784722828,"current_range_meters":20000,"station_id":"ce4bhg12rcd13ifvqf80","pricing_plan_id":"cebpf4jnsgd1na2vs0mg"},{"bike_id":"dfee7efb-895a-48ea-b82d-10465457f9f7","system_id":"levelo_inurba_marseille","lat":43.29846,"lon":5.36275,"is_reserved":false,"is_disabled":false,"rental_uris":{"android":"levelo://app?vid=dfee7efb-895a-48ea-b82d-10465457f9f7","ios":"levelo://app?vid=dfee7efb-895a-48ea-b82d-10465457f9f7"},"vehicle_type_id":"4","last_reported":1784722828,"current_range_meters":32000,"station_id":"ce4bgpp2rcd13ifvqc3g","pricing_plan_id":"cebpf4jnsgd1na2vs0mg"},{"bike_id":"def8c373-7641-42dd-9974-e44012237799","system_id":"levelo_inurba_marseille","lat":43.31652,"lon":5.3879,"is_reserved":false,"is_disabled":false,"rental_uris":{"android":"levelo://app?vid=def8c373-7641-42dd-9974-e44012237799","ios":"levelo://app?vid=def8c373-7641-42dd-9974-e44012237799"},"vehicle_type_id":"4","last_reported":1784722828,"current_range_meters":37600,"station_id":"","pricing_plan_id":"cebpf4jnsgd1na2vs0mg"},{"bike_id":"993fba94-638a-40b6-937f-a01639394e6f","system_id":"levelo_inurba_marseille","lat":43.29303,"lon":5.37189,"is_reserved":false,"is_disabled":false,"rental_uris":{"android":"levelo://app?vid=993fba94-638a-40b6-937f-a01639394e6f","ios":"levelo://app?vid=993fba94-638a-40b6-937f-a01639394e6f"},"vehicle_type_id":"4","last_reported":1784722828,"current_range_meters":8400,"station_id":"ce4bgh92rcd13ifvqb40","pricing_plan_id":"cebpf4jnsgd1na2vs0mg"},{"bike_id":"3974ce33-e026-4d6e-8d56-19641ff6fefc","system_id":"levelo_inurba_marseille","lat":43.31874,"lon":5.3999,"is_reserved":false,"is_disabled":false,"rental_uris":{"android":"levelo://app?vid=3974ce33-e026-4d6e-8d56-19641ff6fefc","ios":"levelo://app?vid=3974ce33-e026-4d6e-8d56-19641ff6fefc"},"vehicle_type_id":"4","last_reported":1784722828,"current_range_meters":16000,"station_id":"","pricing_plan_id":"cebpf4jnsgd1na2vs0mg"},{"bike_id":"c520161e-c250-4161-a55a-6b287776d8da","system_id":"levelo_inurba_marseille","lat":43.28469,"lon":5.48413,"is_reserved":false,"is_disabled":false,"rental_uris":{"android":"levelo://app?vid=c520161e-c250-4161-a55a-6b287776d8da","ios":"levelo://app?vid=c520161e-c250-4161-a55a-6b287776d8da"},"vehicle_type_id":"4","last_reported":1784722828,"current_range_meters":27600,"station_id":"st_d3svhcjqgbts73a3dn0g","pricing_plan_id":"cebpf4jnsgd1na2vs0mg"},{"bike_id":"5326a61d-4052-4baf-bbd3-97dda62fe6d7","system_id":"levelo_inurba_marseille","lat":43.28529,"lon":5.4409,"is_reserved":false,"is_disabled":false,"rental_uris":{"android":"levelo://app?vid=5326a61d-4052-4baf-bbd3-97dda62fe6d7","ios":"levelo://app?vid=5326a61d-4052-4baf-bbd3-97dda62fe6d7"},"vehicle_type_id":"4","last_reported":1784722828,"current_range_meters":25600,"station_id":"st_d3j3df2ikq2c7380ej80","pricing_plan_id":"cebpf4jnsgd1na2vs0mg"},{"bike_id":"a073733e-9315-4957-baee-cd765ff21b4e","system_id":"levelo_inurba_marseille","lat":43.29922,"lon":5.37481,"is_reserved":false,"is_disabled":false,"rental_uris":{"android":"levelo://app?vid=a073733e-9315-4957-baee-cd765ff21b4e","ios":"levelo://app?vid=a073733e-9315-4957-baee-cd765ff21b4e"},"vehicle_type_id":"4","last_reported":1784722828,"current_range_meters":25200,"station_id":"ce4bgjh2rcd13ifvqbg0","pricing_plan_id":"cebpf4jnsgd1na2vs0mg"},{"bike_id":"cfb12b3d-1052-4d2e-b3cf-0abfb94fabe8","system_id":"levelo_inurba_marseille","lat":43.29607,"lon":5.37711,"is_reserved":false,"is_disabled":false,"rental_uris":{"android":"levelo://app?vid=cfb12b3d-1052-4d2e-b3cf-0abfb94fabe8","ios":"levelo://app?vid=cfb12b3d-1052-4d2e-b3cf-0abfb94fabe8"},"vehicle_type_id":"4","last_reported":1784722828,"current_range_meters":35600,"station_id":"ce4bgi92rcd13ifvqb90","pricing_plan_id":"cebpf4jnsgd1na2vs0mg"},{"bike_id":"b053f004-91b5-4396-8e04-277f5a6d0d96","system_id":"levelo_inurba_marseille","lat":43.3149,"lon":5.37292,"is_reserved":false,"is_disabled":false,"rental_uris":{"android":"levelo://app?vid=b053f004-91b5-4396-8e04-277f5a6d0d96","ios":"levelo://app?vid=b053f004-91b5-4396-8e04-277f5a6d0d96"},"vehicle_type_id":"4","last_reported":1784722828,"current_range_meters":39200,"station_id":"ce4bgt12rcd13ifvqcd0","pricing_plan_id":"cebpf4jnsgd1na2vs0mg"},{"bike_id":"3c152ce7-b1e3-46b6-9481-1d5804cf459e","system_id":"levelo_inurba_marseille","lat":43.26189,"lon":5.37455,"is_reserved":false,"is_disabled":false,"rental_uris":{"android":"levelo://app?vid=3c152ce7-b1e3-46b6-9481-1d5804cf459e","ios":"levelo://app?vid=3c152ce7-b1e3-46b6-9481-1d5804cf459e"},"vehicle_type_id":"4","last_reported":1784722828,"current_range_meters":35600,"station_id":"ce4bhgp2rcd13ifvqfc0","pricing_plan_id":"cebpf4jnsgd1na2vs0mg"},{"bike_id":"e6f28fed-2e2d-4610-9cbe-6e0c0bfdc579","system_id":"levelo_inurba_marseille","lat":43.25502,"lon":5.37646,"is_reserved":false,"is_disabled":false,"rental_uris":{"android":"levelo://app?vid=e6f28fed-2e2d-4610-9cbe-6e0c0bfdc579","ios":"levelo://app?vid=e6f28fed-2e2d-4610-9cbe-6e0c0bfdc579"},"vehicle_type_id":"4","last_reported":1784722828,"current_range_meters":30400,"station_id":"ce4bhh12rcd13ifvqff0","pricing_plan_id":"cebpf4jnsgd1na2vs0mg"},{"bike_id":"08b86f9d-3a67-42e7-a41b-1723e770b453","system_id":"levelo_inurba_marseille","lat":43.26687,"lon":5.38268,"is_reserved":false,"is_disabled":false,"rental_uris":{"android":"levelo://app?vid=08b86f9d-3a67-42e7-a41b-1723e770b453","ios":"levelo://app?vid=08b86f9d-3a67-42e7-a41b-1723e770b453"},"vehicle_type_id":"4","last_reported":1784722828,"current_range_meters":19600,"station_id":"ce4bhg92rcd13ifvqf90","pricing_plan_id":"cebpf4jnsgd1na2vs0mg"},{"bike_id":"53a3744c-e7f3-4e70-811f-c5ac1bb56b9f","system_id":"levelo_inurba_marseille","lat":43.26487,"lon":5.39544,"is_reserved":false,"is_disabled":false,"rental_uris":{"android":"levelo://app?vid=53a3744c-e7f3-4e70-811f-c5ac1bb56b9f","ios":"levelo://app?vid=53a3744c-e7f3-4e70-811f-c5ac1bb56b9f"},"vehicle_type_id":"4","last_reported":1784722828,"current_range_meters":19600,"station_id":"ce4bhi12rcd13ifvqfq0","pricing_plan_id":"cebpf4jnsgd1na2vs0mg"},{"bike_id":"c9517488-1214-41f7-8c87-36f0f8598c38","system_id":"levelo_inurba_marseille","lat":43.29652,"lon":5.40606,"is_reserved":false,"is_disabled":false,"rental_uris":{"android":"levelo://app?vid=c9517488-1214-41f7-8c87-36f0f8598c38","ios":"levelo://app?vid=c9517488-1214-41f7-8c87-36f0f8598c38"},"vehicle_type_id":"4","last_reported":1784722828,"current_range_meters":22400,"station_id":"ce4bh0h2rcd13ifvqd60","pricing_plan_id":"cebpf4jnsgd1na2vs0mg"},{"bike_id":"0ddf1b55-087c-49ca-9aca-eeb8adf8b227","system_id":"levelo_inurba_marseille","lat":43.29306,"lon":5.37167,"is_reserved":false,"is_disabled":false,"rental_uris":{"android":"levelo://app?vid=0ddf1b55-087c-49ca-9aca-eeb8adf8b227","ios":"levelo://app?vid=0ddf1b55-087c-49ca-9aca-eeb8adf8b227"},"vehicle_type_id":"4","last_reported":1784722828,"current_range_meters":39200,"station_id":"ce4bgh92rcd13ifvqb40","pricing_plan_id":"cebpf4jnsgd1na2vs0mg"},{"bike_id":"3a34f52e-1e5b-45cf-b1c8-7a76d3f0220c","system_id":"levelo_inurba_marseille","lat":43.29235,"lon":5.41765,"is_reserved":false,"is_disabled":false,"rental_uris":{"android":"levelo://app?vid=3a34f52e-1e5b-45cf-b1c8-7a76d3f0220c","ios":"levelo://app?vid=3a34f52e-1e5b-45cf-b1c8-7a76d3f0220c"},"vehicle_type_id":"4","last_reported":1784722828,"current_range_meters":31200,"station_id":"","pricing_plan_id":"cebpf4jnsgd1na2vs0mg"},{"bike_id":"084515e2-0152-4b76-85fc-a782086915cd","system_id":"levelo_inurba_marseille","lat":43.28077,"lon":5.39654,"is_reserved":false,"is_disabled":false,"rental_uris":{"android":"levelo://app?vid=084515e2-0152-4b76-85fc-a782086915cd","ios":"levelo://app?vid=084515e2-0152-4b76-85fc-a782086915cd"},"vehicle_type_id":"4","last_reported":1784722828,"current_range_meters":39200,"station_id":"ce4bho12rcd13ifvqh2g","pricing_plan_id":"cebpf4jnsgd1na2vs0mg"},{"bike_id":"b8e43a89-3bb1-4279-9cee-f7b093c9b703","system_id":"levelo_inurba_marseille","lat":43.33718,"lon":5.37415,"is_reserved":false,"is_disabled":false,"rental_uris":{"android":"levelo://app?vid=b8e43a89-3bb1-4279-9cee-f7b093c9b703","ios":"levelo://app?vid=b8e43a89-3bb1-4279-9cee-f7b093c9b703"},"vehicle_type_id":"4","last_reported":1784722828,"current_range_meters":14800,"station_id":"","pricing_plan_id":"cebpf4jnsgd1na2vs0mg"},{"bike_id":"41eca03f-63f8-4f3b-bdbb-6c1adc53c24e","system_id":"levelo_inurba_marseille","lat":43.26548,"lon":5.40334,"is_reserved":false,"is_disabled":false,"rental_uris":{"android":"levelo://app?vid=41eca03f-63f8-4f3b-bdbb-6c1adc53c24e","ios":"levelo://app?vid=41eca03f-63f8-4f3b-bdbb-6c1adc53c24e"},"vehicle_type_id":"4","last_reported":1784722828,"current_range_meters":38000,"station_id":"ce4bhmp2rcd13ifvqgng","pricing_plan_id":"cebpf4jnsgd1na2vs0mg"},{"bike_id":"17ec69e9-f82e-42b7-8fd3-de92d2bea59d","system_id":"levelo_inurba_marseille","lat":43.25343,"lon":5.42174,"is_reserved":false,"is_disabled":false,"rental_uris":{"android":"levelo://app?vid=17ec69e9-f82e-42b7-8fd3-de92d2bea59d","ios":"levelo://app?vid=17ec69e9-f82e-42b7-8fd3-de92d2bea59d"},"vehicle_type_id":"4","last_reported":1784722828,"current_range_meters":24000,"station_id":"st_d2m65c5bi1j21697t3ng","pricing_plan_id":"cebpf4jnsgd1na2vs0mg"},{"bike_id":"02392a76-7963-41b1-8c55-0486b506f8fc","system_id":"levelo_inurba_marseille","lat":43.25851,"lon":5.39925,"is_reserved":false,"is_disabled":false,"rental_uris":{"android":"levelo://app?vid=02392a76-7963-41b1-8c55-0486b506f8fc","ios":"levelo://app?vid=02392a76-7963-41b1-8c55-0486b506f8fc"},"vehicle_type_id":"4","last_reported":1784722828,"current_range_meters":39200,"station_id":"ce4bhl92rcd13ifvqghg","pricing_plan_id":"cebpf4jnsgd1na2vs0mg"},{"bike_id":"36492bc5-2875-4f0e-a4fe-78fa7ca5489a","system_id":"levelo_inurba_marseille","lat":43.26949,"lon":5.38639,"is_reserved":false,"is_disabled":false,"rental_uris":{"android":"levelo://app?vid=36492bc5-2875-4f0e-a4fe-78fa7ca5489a","ios":"levelo://app?vid=36492bc5-2875-4f0e-a4fe-78fa7ca5489a"},"vehicle_type_id":"4","last_reported":1784722828,"current_range_meters":38400,"station_id":"ce4bhh92rcd13ifvqfh0","pricing_plan_id":"cebpf4jnsgd1na2vs0mg"},{"bike_id":"5783761d-f3a8-46b4-8c26-9812d8d66703","system_id":"levelo_inurba_marseille","lat":43.22535,"lon":5.34838,"is_reserved":false,"is_disabled":false,"rental_uris":{"android":"levelo://app?vid=5783761d-f3a8-46b4-8c26-9812d8d66703","ios":"levelo://app?vid=5783761d-f3a8-46b4-8c26-9812d8d66703"},"vehicle_type_id":"4","last_reported":1784722828,"current_range_meters":20400,"station_id":"st_cvj5dfep6f1abm77gieg","pricing_plan_id":"cebpf4jnsgd1na2vs0mg"},{"bike_id":"ecc0c49e-743e-4f55-adc9-6a00ca031429","system_id":"levelo_inurba_marseille","lat":43.29083,"lon":5.38142,"is_reserved":false,"is_disabled":false,"rental_uris":{"android":"levelo://app?vid=ecc0c49e-743e-4f55-adc9-6a00ca031429","ios":"levelo://app?vid=ecc0c49e-743e-4f55-adc9-6a00ca031429"},"vehicle_type_id":"4","last_reported":1784722828,"current_range_meters":11600,"station_id":"ce4bh512rcd13ifvqe2g","pricing_plan_id":"cebpf4jnsgd1na2vs0mg"},{"bike_id":"8b9767ec-06a6-4019-bc56-28c3ae875343","system_id":"levelo_inurba_marseille","lat":43.2991,"lon":5.37437,"is_reserved":false,"is_disabled":false,"rental_uris":{"android":"levelo://app?vid=8b9767ec-06a6-4019-bc56-28c3ae875343","ios":"levelo://app?vid=8b9767ec-06a6-4019-bc56-28c3ae875343"},"vehicle_type_id":"4","last_reported":1784722828,"current_range_meters":16800,"station_id":"ce4bgjh2rcd13ifvqbg0","pricing_plan_id":"cebpf4jnsgd1na2vs0mg"},{"bike_id":"ed561fd9-a97f-4b5d-a877-fb337381b6be","system_id":"levelo_inurba_marseille","lat":43.31403,"lon":5.36674,"is_reserved":false,"is_disabled":false,"rental_uris":{"android":"levelo://app?vid=ed561fd9-a97f-4b5d-a877-fb337381b6be","ios":"levelo://app?vid=ed561fd9-a97f-4b5d-a877-fb337381b6be"},"vehicle_type_id":"4","last_reported":1784722828,"current_range_meters":21600,"station_id":"","pricing_plan_id":"cebpf4jnsgd1na2vs0mg"},{"bike_id":"2cae3625-7b95-4b34-bae3-704533e26362","system_id":"levelo_inurba_marseille","lat":43.27909,"lon":5.39588,"is_reserved":false,"is_disabled":false,"rental_uris":{"android":"levelo://app?vid=2cae3625-7b95-4b34-bae3-704533e26362","ios":"levelo://app?vid=2cae3625-7b95-4b34-bae3-704533e26362"},"vehicle_type_id":"4","last_reported":1784722828,"current_range_meters":22400,"station_id":"ce4bhf92rcd13ifvqf40","pricing_plan_id":"cebpf4jnsgd1na2vs0mg"},{"bike_id":"13bbfe3b-874b-44d7-9abb-922c8de23c11","system_id":"levelo_inurba_marseille","lat":43.23269,"lon":5.35384,"is_reserved":false,"is_disabled":false,"rental_uris":{"android":"levelo://app?vid=13bbfe3b-874b-44d7-9abb-922c8de23c11","ios":"levelo://app?vid=13bbfe3b-874b-44d7-9abb-922c8de23c11"},"vehicle_type_id":"4","last_reported":1784722828,"current_range_meters":22400,"station_id":"","pricing_plan_id":"cebpf4jnsgd1na2vs0mg"},{"bike_id":"6208ab1c-3bf1-428f-8ea8-b7fae25caf46","system_id":"levelo_inurba_marseille","lat":43.29528,"lon":5.37511,"is_reserved":false,"is_disabled":false,"rental_uris":{"android":"levelo://app?vid=6208ab1c-3bf1-428f-8ea8-b7fae25caf46","ios":"levelo://app?vid=6208ab1c-3bf1-428f-8ea8-b7fae25caf46"},"vehicle_type_id":"4","last_reported":1784722828,"current_range_meters":20000,"station_id":"ce4bgkp2rcd13ifvqbmg","pricing_plan_id":"cebpf4jnsgd1na2vs0mg"},{"bike_id":"fce27f18-8500-4a5d-a4a6-107a599c9591","system_id":"levelo_inurba_marseille","lat":43.23185,"lon":5.35563,"is_reserved":false,"is_disabled":false,"rental_uris":{"android":"levelo://app?vid=fce27f18-8500-4a5d-a4a6-107a599c9591","ios":"levelo://app?vid=fce27f18-8500-4a5d-a4a6-107a599c9591"},"vehicle_type_id":"4","last_reported":1784722828,"current_range_meters":28800,"station_id":"ce4bhu92rcd13ifvqi70","pricing_plan_id":"cebpf4jnsgd1na2vs0mg"},{"bike_id":"6ed5f8c3-6da8-4cec-bfad-13253a432d70","system_id":"levelo_inurba_marseille","lat":43.29406,"lon":5.38598,"is_reserved":false,"is_disabled":true,"rental_uris":{"android":"levelo://app?vid=6ed5f8c3-6da8-4cec-bfad-13253a432d70","ios":"levelo://app?vid=6ed5f8c3-6da8-4cec-bfad-13253a432d70"},"vehicle_type_id":"4","last_reported":1784722828,"current_range_meters":32400,"station_id":"","pricing_plan_id":"cebpf4jnsgd1na2vs0mg"},{"bike_id":"4674463f-7189-45e7-9644-099b2d5a4c26","system_id":"levelo_inurba_marseille","lat":43.30891,"lon":5.37185,"is_reserved":false,"is_disabled":false,"rental_uris":{"android":"levelo://app?vid=4674463f-7189-45e7-9644-099b2d5a4c26","ios":"levelo://app?vid=4674463f-7189-45e7-9644-099b2d5a4c26"},"vehicle_type_id":"4","last_reported":1784722828,"current_range_meters":4400,"station_id":"ce4bguh2rcd13ifvqckg","pricing_plan_id":"cebpf4jnsgd1na2vs0mg"},{"bike_id":"0dee0085-d5a5-4c48-b3f1-a323bb744f3d","system_id":"levelo_inurba_marseille","lat":43.22548,"lon":5.41639,"is_reserved":false,"is_disabled":false,"rental_uris":{"android":"levelo://app?vid=0dee0085-d5a5-4c48-b3f1-a323bb744f3d","ios":"levelo://app?vid=0dee0085-d5a5-4c48-b3f1-a323bb744f3d"},"vehicle_type_id":"4","last_reported":1784722828,"current_range_meters":32000,"station_id":"st_d2o4gvlbi1j2169b742g","pricing_plan_id":"cebpf4jnsgd1na2vs0mg"},{"bike_id":"0869e9a4-d497-496b-a5d1-ac1e3af6221c","system_id":"levelo_inurba_marseille","lat":43.28601,"lon":5.37051,"is_reserved":false,"is_disabled":false,"rental_uris":{"android":"levelo://app?vid=0869e9a4-d497-496b-a5d1-ac1e3af6221c","ios":"levelo://app?vid=0869e9a4-d497-496b-a5d1-ac1e3af6221c"},"vehicle_type_id":"4","last_reported":1784722828,"current_range_meters":34800,"station_id":"","pricing_plan_id":"cebpf4jnsgd1na2vs0mg"},{"bike_id":"bd2ed3e6-046c-4471-b65e-764914f10bf1","system_id":"levelo_inurba_marseille","lat":43.30134,"lon":5.37421,"is_reserved":false,"is_disabled":false,"rental_uris":{"android":"levelo://app?vid=bd2ed3e6-046c-4471-b65e-764914f10bf1","ios":"levelo://app?vid=bd2ed3e6-046c-4471-b65e-764914f10bf1"},"vehicle_type_id":"4","last_reported":1784722828,"current_range_meters":25600,"station_id":"ce4bgs92rcd13ifvqcc0","pricing_plan_id":"cebpf4jnsgd1na2vs0mg"},{"bike_id":"0b2c45f2-fdaa-45fe-9511-e6426cab85f6","system_id":"levelo_inurba_marseille","lat":43.27483,"lon":5.42455,"is_reserved":false,"is_disabled":false,"rental_uris":{"android":"levelo://app?vid=0b2c45f2-fdaa-45fe-9511-e6426cab85f6","ios":"levelo://app?vid=0b2c45f2-fdaa-45fe-9511-e6426cab85f6"},"vehicle_type_id":"4","last_reported":1784722828,"current_range_meters":19200,"station_id":"ce4bhn92rcd13ifvqgrg","pricing_plan_id":"cebpf4jnsgd1na2vs0mg"},{"bike_id":"30860ffd-ec21-4a88-a40f-00c5476d440a","system_id":"levelo_inurba_marseille","lat":43.26671,"lon":5.38281,"is_reserved":false,"is_disabled":false,"rental_uris":{"android":"levelo://app?vid=30860ffd-ec21-4a88-a40f-00c5476d440a","ios":"levelo://app?vid=30860ffd-ec21-4a88-a40f-00c5476d440a"},"vehicle_type_id":"4","last_reported":1784722828,"current_range_meters":23200,"station_id":"ce4bhg92rcd13ifvqf90","pricing_plan_id":"cebpf4jnsgd1na2vs0mg"},{"bike_id":"f20fcdc5-f0b9-4328-be94-61548e2c19cd","system_id":"levelo_inurba_marseille","lat":43.24951,"lon":5.40492,"is_reserved":false,"is_disabled":false,"rental_uris":{"android":"levelo://app?vid=f20fcdc5-f0b9-4328-be94-61548e2c19cd","ios":"levelo://app?vid=f20fcdc5-f0b9-4328-be94-61548e2c19cd"},"vehicle_type_id":"4","last_reported":1784722828,"current_range_meters":6000,"station_id":"st_d2ngiaodas8pm72gd1h0","pricing_plan_id":"cebpf4jnsgd1na2vs0mg"},{"bike_id":"7d8c055e-9157-431b-993d-f8058bfdd33f","system_id":"levelo_inurba_marseille","lat":43.29728,"lon":5.3768,"is_reserved":false,"is_disabled":false,"rental_uris":{"android":"levelo://app?vid=7d8c055e-9157-431b-993d-f8058bfdd33f","ios":"levelo://app?vid=7d8c055e-9157-431b-993d-f8058bfdd33f"},"vehicle_type_id":"4","last_reported":1784722828,"current_range_meters":30000,"station_id":"ce4bgkh2rcd13ifvqbl0","pricing_plan_id":"cebpf4jnsgd1na2vs0mg"},{"bike_id":"dad5eff3-cb3a-4459-ba39-741abe4a6c6c","system_id":"levelo_inurba_marseille","lat":43.32104,"lon":5.36769,"is_reserved":false,"is_disabled":false,"rental_uris":{"android":"levelo://app?vid=dad5eff3-cb3a-4459-ba39-741abe4a6c6c","ios":"levelo://app?vid=dad5eff3-cb3a-4459-ba39-741abe4a6c6c"},"vehicle_type_id":"4","last_reported":1784722828,"current_range_meters":8400,"station_id":"ce4bhrh2rcd13ifvqhug","pricing_plan_id":"cebpf4jnsgd1na2vs0mg"},{"bike_id":"39c8f94e-10d8-484e-94e2-aca6feb826f6","system_id":"levelo_inurba_marseille","lat":43.28126,"lon":5.42644,"is_reserved":false,"is_disabled":false,"rental_uris":{"android":"levelo://app?vid=39c8f94e-10d8-484e-94e2-aca6feb826f6","ios":"levelo://app?vid=39c8f94e-10d8-484e-94e2-aca6feb826f6"},"vehicle_type_id":"4","last_reported":1784722828,"current_range_meters":32400,"station_id":"ce4bhnh2rcd13ifvqgug","pricing_plan_id":"cebpf4jnsgd1na2vs0mg"},{"bike_id":"0d8e99b7-c5a3-4f24-bc7d-5780221345b0","system_id":"levelo_inurba_marseille","lat":43.28007,"lon":5.40001,"is_reserved":false,"is_disabled":false,"rental_uris":{"android":"levelo://app?vid=0d8e99b7-c5a3-4f24-bc7d-5780221345b0","ios":"levelo://app?vid=0d8e99b7-c5a3-4f24-bc7d-5780221345b0"},"vehicle_type_id":"4","last_reported":1784722828,"current_range_meters":40000,"station_id":"ce4bho92rcd13ifvqh4g","pricing_plan_id":"cebpf4jnsgd1na2vs0mg"},{"bike_id":"a5551c5d-bed7-49e5-a83a-8da2b64da0c4","system_id":"levelo_inurba_marseille","lat":43.309,"lon":5.36833,"is_reserved":false,"is_disabled":false,"rental_uris":{"android":"levelo://app?vid=a5551c5d-bed7-49e5-a83a-8da2b64da0c4","ios":"levelo://app?vid=a5551c5d-bed7-49e5-a83a-8da2b64da0c4"},"vehicle_type_id":"4","last_reported":1784722828,"current_range_meters":40000,"station_id":"ce4bgn92rcd13ifvqbvg","pricing_plan_id":"cebpf4jnsgd1na2vs0mg"},{"bike_id":"e2a7024c-7996-4d5b-8595-fc0df99c43db","system_id":"levelo_inurba_marseille","lat":43.27068,"lon":5.42284,"is_reserved":false,"is_disabled":false,"rental_uris":{"android":"levelo://app?vid=e2a7024c-7996-4d5b-8595-fc0df99c43db","ios":"levelo://app?vid=e2a7024c-7996-4d5b-8595-fc0df99c43db"},"vehicle_type_id":"4","last_reported":1784722828,"current_range_meters":33200,"station_id":"ce4bhk92rcd13ifvqgb0","pricing_plan_id":"cebpf4jnsgd1na2vs0mg"},{"bike_id":"8d8673aa-a69c-4d74-931d-06b8f35221f4","system_id":"levelo_inurba_marseille","lat":43.26703,"lon":5.41975,"is_reserved":false,"is_disabled":false,"rental_uris":{"android":"levelo://app?vid=8d8673aa-a69c-4d74-931d-06b8f35221f4","ios":"levelo://app?vid=8d8673aa-a69c-4d74-931d-06b8f35221f4"},"vehicle_type_id":"4","last_reported":1784722828,"current_range_meters":26800,"station_id":"","pricing_plan_id":"cebpf4jnsgd1na2vs0mg"},{"bike_id":"f58df845-ff43-4aae-8a5a-744f4e47f5d7","system_id":"levelo_inurba_marseille","lat":43.29072,"lon":5.38142,"is_reserved":false,"is_disabled":false,"rental_uris":{"android":"levelo://app?vid=f58df845-ff43-4aae-8a5a-744f4e47f5d7","ios":"levelo://app?vid=f58df845-ff43-4aae-8a5a-744f4e47f5d7"},"vehicle_type_id":"4","last_reported":1784722828,"current_range_meters":36800,"station_id":"ce4bh512rcd13ifvqe2g","pricing_plan_id":"cebpf4jnsgd1na2vs0mg"},{"bike_id":"bb6c1d94-b8a1-4d7e-8e26-2628675f7e1d","system_id":"levelo_inurba_marseille","lat":43.2959,"lon":5.37729,"is_reserved":false,"is_disabled":true,"rental_uris":{"android":"levelo://app?vid=bb6c1d94-b8a1-4d7e-8e26-2628675f7e1d","ios":"levelo://app?vid=bb6c1d94-b8a1-4d7e-8e26-2628675f7e1d"},"vehicle_type_id":"4","last_reported":1784722828,"current_range_meters":21600,"station_id":"ce4bgi92rcd13ifvqb90","pricing_plan_id":"cebpf4jnsgd1na2vs0mg"},{"bike_id":"b4d7c551-5126-4abd-9ca5-5b3e2ee7483d","system_id":"levelo_inurba_marseille","lat":43.27366,"lon":5.36254,"is_reserved":false,"is_disabled":false,"rental_uris":{"android":"levelo://app?vid=b4d7c551-5126-4abd-9ca5-5b3e2ee7483d","ios":"levelo://app?vid=b4d7c551-5126-4abd-9ca5-5b3e2ee7483d"},"vehicle_type_id":"4","last_reported":1784722828,"current_range_meters":6400,"station_id":"ce4bhbh2rcd13ifvqeo0","pricing_plan_id":"cebpf4jnsgd1na2vs0mg"},{"bike_id":"a8d558f7-f6c9-460e-8c57-eb92c7ff4ad2","system_id":"levelo_inurba_marseille","lat":43.31178,"lon":5.3683,"is_reserved":false,"is_disabled":false,"rental_uris":{"android":"levelo://app?vid=a8d558f7-f6c9-460e-8c57-eb92c7ff4ad2","ios":"levelo://app?vid=a8d558f7-f6c9-460e-8c57-eb92c7ff4ad2"},"vehicle_type_id":"4","last_reported":1784722828,"current_range_meters":32400,"station_id":"","pricing_plan_id":"cebpf4jnsgd1na2vs0mg"},{"bike_id":"1f5d690e-ec61-49f6-987c-1b19bb5fd774","system_id":"levelo_inurba_marseille","lat":43.32332,"lon":5.38896,"is_reserved":false,"is_disabled":false,"rental_uris":{"android":"levelo://app?vid=1f5d690e-ec61-49f6-987c-1b19bb5fd774","ios":"levelo://app?vid=1f5d690e-ec61-49f6-987c-1b19bb5fd774"},"vehicle_type_id":"4","last_reported":1784722828,"current_range_meters":38400,"station_id":"ce4bhqp2rcd13ifvqhog","pricing_plan_id":"cebpf4jnsgd1na2vs0mg"},{"bike_id":"1fade11d-8e73-4748-8586-d9741ca55ced","system_id":"levelo_inurba_marseille","lat":43.317152,"lon":5.437034,"is_reserved":false,"is_disabled":false,"rental_uris":{"android":"levelo://app?vid=1fade11d-8e73-4748-8586-d9741ca55ced","ios":"levelo://app?vid=1fade11d-8e73-4748-8586-d9741ca55ced"},"vehicle_type_id":"4","last_reported":1784722828,"current_range_meters":31200,"station_id":"ce4bhp92rcd13ifvqhcg","pricing_plan_id":"cebpf4jnsgd1na2vs0mg"},{"bike_id":"7a68b0e5-75a6-404f-a915-4832fc74dfdb","system_id":"levelo_inurba_marseille","lat":43.25925,"lon":5.40898,"is_reserved":false,"is_disabled":false,"rental_uris":{"android":"levelo://app?vid=7a68b0e5-75a6-404f-a915-4832fc74dfdb","ios":"levelo://app?vid=7a68b0e5-75a6-404f-a915-4832fc74dfdb"},"vehicle_type_id":"4","last_reported":1784722828,"current_range_meters":39200,"station_id":"ce4bhm92rcd13ifvqglg","pricing_plan_id":"cebpf4jnsgd1na2vs0mg"},{"bike_id":"5dacfa33-6566-4940-8cce-a1363da48e1b","system_id":"levelo_inurba_marseille","lat":43.27997,"lon":5.40007,"is_reserved":false,"is_disabled":false,"rental_uris":{"android":"levelo://app?vid=5dacfa33-6566-4940-8cce-a1363da48e1b","ios":"levelo://app?vid=5dacfa33-6566-4940-8cce-a1363da48e1b"},"vehicle_type_id":"4","last_reported":1784722828,"current_range_meters":39200,"station_id":"ce4bho92rcd13ifvqh4g","pricing_plan_id":"cebpf4jnsgd1na2vs0mg"},{"bike_id":"1c2352d3-3810-4529-b252-583943f31c2a","system_id":"levelo_inurba_marseille","lat":43.24218,"lon":5.36373,"is_reserved":false,"is_disabled":false,"rental_uris":{"android":"levelo://app?vid=1c2352d3-3810-4529-b252-583943f31c2a","ios":"levelo://app?vid=1c2352d3-3810-4529-b252-583943f31c2a"},"vehicle_type_id":"4","last_reported":1784722828,"current_range_meters":20400,"station_id":"cpo36qri1sfpv3e86is0","pricing_plan_id":"cebpf4jnsgd1na2vs0mg"},{"bike_id":"63a56c07-5d6f-412d-84a7-24ea5e8b27d1","system_id":"levelo_inurba_marseille","lat":43.2501,"lon":5.38926,"is_reserved":false,"is_disabled":false,"rental_uris":{"android":"levelo://app?vid=63a56c07-5d6f-412d-84a7-24ea5e8b27d1","ios":"levelo://app?vid=63a56c07-5d6f-412d-84a7-24ea5e8b27d1"},"vehicle_type_id":"4","last_reported":1784722828,"current_range_meters":27600,"station_id":"ce4bhgp2rcd13ifvqfd0","pricing_plan_id":"cebpf4jnsgd1na2vs0mg"},{"bike_id":"946a403c-0af4-48df-96dc-42a2f438327c","system_id":"levelo_inurba_marseille","lat":43.29176,"lon":5.3714,"is_reserved":false,"is_disabled":true,"rental_uris":{"android":"levelo://app?vid=946a403c-0af4-48df-96dc-42a2f438327c","ios":"levelo://app?vid=946a403c-0af4-48df-96dc-42a2f438327c"},"vehicle_type_id":"4","last_reported":1784722828,"current_range_meters":17600,"station_id":"ce4bha92rcd13ifvqeh0","pricing_plan_id":"cebpf4jnsgd1na2vs0mg"},{"bike_id":"36f797d9-5b95-4843-b50e-7f80ed979ebf","system_id":"levelo_inurba_marseille","lat":43.25579,"lon":5.38294,"is_reserved":false,"is_disabled":false,"rental_uris":{"android":"levelo://app?vid=36f797d9-5b95-4843-b50e-7f80ed979ebf","ios":"levelo://app?vid=36f797d9-5b95-4843-b50e-7f80ed979ebf"},"vehicle_type_id":"4","last_reported":1784722828,"current_range_meters":26000,"station_id":"","pricing_plan_id":"cebpf4jnsgd1na2vs0mg"},{"bike_id":"a31cea0c-4cff-4f6d-8f93-36842670158b","system_id":"levelo_inurba_marseille","lat":43.29703,"lon":5.36629,"is_reserved":false,"is_disabled":true,"rental_uris":{"android":"levelo://app?vid=a31cea0c-4cff-4f6d-8f93-36842670158b","ios":"levelo://app?vid=a31cea0c-4cff-4f6d-8f93-36842670158b"},"vehicle_type_id":"4","last_reported":1784722828,"current_range_meters":39200,"station_id":"ce4bgn12rcd13ifvqbt0","pricing_plan_id":"cebpf4jnsgd1na2vs0mg"},{"bike_id":"4a7529a1-fd80-491a-b4fd-887bd4ff6c99","system_id":"levelo_inurba_marseille","lat":43.25007,"lon":5.38912,"is_reserved":false,"is_disabled":true,"rental_uris":{"android":"levelo://app?vid=4a7529a1-fd80-491a-b4fd-887bd4ff6c99","ios":"levelo://app?vid=4a7529a1-fd80-491a-b4fd-887bd4ff6c99"},"vehicle_type_id":"4","last_reported":1784722828,"current_range_meters":1600,"station_id":"ce4bhgp2rcd13ifvqfd0","pricing_plan_id":"cebpf4jnsgd1na2vs0mg"},{"bike_id":"e8e76fdb-2435-48b2-aa84-a6718b0c1249","system_id":"levelo_inurba_marseille","lat":43.26551,"lon":5.37352,"is_reserved":false,"is_disabled":false,"rental_uris":{"android":"levelo://app?vid=e8e76fdb-2435-48b2-aa84-a6718b0c1249","ios":"levelo://app?vid=e8e76fdb-2435-48b2-aa84-a6718b0c1249"},"vehicle_type_id":"4","last_reported":1784722828,"current_range_meters":38400,"station_id":"","pricing_plan_id":"cebpf4jnsgd1na2vs0mg"},{"bike_id":"6d609200-2c64-463b-bd0e-70a61a4731c2","system_id":"levelo_inurba_marseille","lat":43.24074,"lon":5.37755,"is_reserved":false,"is_disabled":false,"rental_uris":{"android":"levelo://app?vid=6d609200-2c64-463b-bd0e-70a61a4731c2","ios":"levelo://app?vid=6d609200-2c64-463b-bd0e-70a61a4731c2"},"vehicle_type_id":"4","last_reported":1784722828,"current_range_meters":36800,"station_id":"ce4bhnp2rcd13ifvqgvg","pricing_plan_id":"cebpf4jnsgd1na2vs0mg"},{"bike_id":"747d888c-b833-4d91-8098-768070d4079e","system_id":"levelo_inurba_marseille","lat":43.3054,"lon":5.382,"is_reserved":false,"is_disabled":false,"rental_uris":{"android":"levelo://app?vid=747d888c-b833-4d91-8098-768070d4079e","ios":"levelo://app?vid=747d888c-b833-4d91-8098-768070d4079e"},"vehicle_type_id":"4","last_reported":1784722828,"current_range_meters":37600,"station_id":"","pricing_plan_id":"cebpf4jnsgd1na2vs0mg"},{"bike_id":"425cee52-7ff4-408d-b63f-f1bb20a33257","system_id":"levelo_inurba_marseille","lat":43.27488,"lon":5.42547,"is_reserved":false,"is_disabled":false,"rental_uris":{"android":"levelo://app?vid=425cee52-7ff4-408d-b63f-f1bb20a33257","ios":"levelo://app?vid=425cee52-7ff4-408d-b63f-f1bb20a33257"},"vehicle_type_id":"4","last_reported":1784722828,"current_range_meters":38000,"station_id":"st_d8t4bh7nbrqs73arha60","pricing_plan_id":"cebpf4jnsgd1na2vs0mg"},{"bike_id":"acb6c310-64e8-4ffb-9d0e-3645b38213aa","system_id":"levelo_inurba_marseille","lat":43.22561,"lon":5.41632,"is_reserved":false,"is_disabled":false,"rental_uris":{"android":"levelo://app?vid=acb6c310-64e8-4ffb-9d0e-3645b38213aa","ios":"levelo://app?vid=acb6c310-64e8-4ffb-9d0e-3645b38213aa"},"vehicle_type_id":"4","last_reported":1784722828,"current_range_meters":9200,"station_id":"st_d2o4gvlbi1j2169b742g","pricing_plan_id":"cebpf4jnsgd1na2vs0mg"},{"bike_id":"3c8596e2-1d5e-49b5-9ff7-ae897a69659c","system_id":"levelo_inurba_marseille","lat":43.28417,"lon":5.34966,"is_reserved":false,"is_disabled":false,"rental_uris":{"android":"levelo://app?vid=3c8596e2-1d5e-49b5-9ff7-ae897a69659c","ios":"levelo://app?vid=3c8596e2-1d5e-49b5-9ff7-ae897a69659c"},"vehicle_type_id":"4","last_reported":1784722828,"current_range_meters":32000,"station_id":"ce4bhbh2rcd13ifvqepg","pricing_plan_id":"cebpf4jnsgd1na2vs0mg"},{"bike_id":"1f7a99a9-00fb-4a3d-8a2a-ddb818cd8c26","system_id":"levelo_inurba_marseille","lat":43.27309,"lon":5.39113,"is_reserved":false,"is_disabled":false,"rental_uris":{"android":"levelo://app?vid=1f7a99a9-00fb-4a3d-8a2a-ddb818cd8c26","ios":"levelo://app?vid=1f7a99a9-00fb-4a3d-8a2a-ddb818cd8c26"},"vehicle_type_id":"4","last_reported":1784722828,"current_range_meters":22400,"station_id":"ce4bhgp2rcd13ifvqfe0","pricing_plan_id":"cebpf4jnsgd1na2vs0mg"},{"bike_id":"2b2d5806-a98a-4b6d-8666-219c96826a65","system_id":"levelo_inurba_marseille","lat":43.33043,"lon":5.3903,"is_reserved":false,"is_disabled":false,"rental_uris":{"android":"levelo://app?vid=2b2d5806-a98a-4b6d-8666-219c96826a65","ios":"levelo://app?vid=2b2d5806-a98a-4b6d-8666-219c96826a65"},"vehicle_type_id":"4","last_reported":1784722828,"current_range_meters":9600,"station_id":"ce4bhr92rcd13ifvqhrg","pricing_plan_id":"cebpf4jnsgd1na2vs0mg"},{"bike_id":"f0a0492a-d50f-4478-b16d-d8c7c6cc2993","system_id":"levelo_inurba_marseille","lat":43.27211,"lon":5.39158,"is_reserved":false,"is_disabled":false,"rental_uris":{"android":"levelo://app?vid=f0a0492a-d50f-4478-b16d-d8c7c6cc2993","ios":"levelo://app?vid=f0a0492a-d50f-4478-b16d-d8c7c6cc2993"},"vehicle_type_id":"4","last_reported":1784722828,"current_range_meters":39200,"station_id":"ce4bhhp2rcd13ifvqfm0","pricing_plan_id":"cebpf4jnsgd1na2vs0mg"},{"bike_id":"181332b6-2863-4b1e-bf88-2657e7a7b338","system_id":"levelo_inurba_marseille","lat":43.32656,"lon":5.40996,"is_reserved":false,"is_disabled":false,"rental_uris":{"android":"levelo://app?vid=181332b6-2863-4b1e-bf88-2657e7a7b338","ios":"levelo://app?vid=181332b6-2863-4b1e-bf88-2657e7a7b338"},"vehicle_type_id":"4","last_reported":1784722828,"current_range_meters":7200,"station_id":"ce4bhpp2rcd13ifvqhgg","pricing_plan_id":"cebpf4jnsgd1na2vs0mg"},{"bike_id":"b2844a55-25be-4862-94a3-e1408ff80564","system_id":"levelo_inurba_marseille","lat":43.23661,"lon":5.3735,"is_reserved":false,"is_disabled":false,"rental_uris":{"android":"levelo://app?vid=b2844a55-25be-4862-94a3-e1408ff80564","ios":"levelo://app?vid=b2844a55-25be-4862-94a3-e1408ff80564"},"vehicle_type_id":"4","last_reported":1784722828,"current_range_meters":35200,"station_id":"","pricing_plan_id":"cebpf4jnsgd1na2vs0mg"},{"bike_id":"550d52cf-f2da-49d7-9241-7e04a849abf7","system_id":"levelo_inurba_marseille","lat":43.26561,"lon":5.40323,"is_reserved":false,"is_disabled":false,"rental_uris":{"android":"levelo://app?vid=550d52cf-f2da-49d7-9241-7e04a849abf7","ios":"levelo://app?vid=550d52cf-f2da-49d7-9241-7e04a849abf7"},"vehicle_type_id":"4","last_reported":1784722828,"current_range_meters":39200,"station_id":"ce4bhmp2rcd13ifvqgng","pricing_plan_id":"cebpf4jnsgd1na2vs0mg"},{"bike_id":"a4828c84-71b2-466a-86c7-f4ed01408282","system_id":"levelo_inurba_marseille","lat":43.301463,"lon":5.38072,"is_reserved":false,"is_disabled":false,"rental_uris":{"android":"levelo://app?vid=a4828c84-71b2-466a-86c7-f4ed01408282","ios":"levelo://app?vid=a4828c84-71b2-466a-86c7-f4ed01408282"},"vehicle_type_id":"4","last_reported":1784722828,"current_range_meters":33200,"station_id":"","pricing_plan_id":"cebpf4jnsgd1na2vs0mg"},{"bike_id":"aee2475a-fb2d-4bb0-a551-1145de4b2b3a","system_id":"levelo_inurba_marseille","lat":43.23203,"lon":5.35551,"is_reserved":false,"is_disabled":false,"rental_uris":{"android":"levelo://app?vid=aee2475a-fb2d-4bb0-a551-1145de4b2b3a","ios":"levelo://app?vid=aee2475a-fb2d-4bb0-a551-1145de4b2b3a"},"vehicle_type_id":"4","last_reported":1784722828,"current_range_meters":38000,"station_id":"ce4bhu92rcd13ifvqi70","pricing_plan_id":"cebpf4jnsgd1na2vs0mg"},{"bike_id":"39bbaaad-b745-4286-8114-27ebd2023511","system_id":"levelo_inurba_marseille","lat":43.28671,"lon":5.38672,"is_reserved":false,"is_disabled":false,"rental_uris":{"android":"levelo://app?vid=39bbaaad-b745-4286-8114-27ebd2023511","ios":"levelo://app?vid=39bbaaad-b745-4286-8114-27ebd2023511"},"vehicle_type_id":"4","last_reported":1784722828,"current_range_meters":30400,"station_id":"ce4bh492rcd13ifvqdug","pricing_plan_id":"cebpf4jnsgd1na2vs0mg"},{"bike_id":"852376dd-f04f-4afc-82a9-1351bd20ef1f","system_id":"levelo_inurba_marseille","lat":43.23064,"lon":5.35483,"is_reserved":false,"is_disabled":false,"rental_uris":{"android":"levelo://app?vid=852376dd-f04f-4afc-82a9-1351bd20ef1f","ios":"levelo://app?vid=852376dd-f04f-4afc-82a9-1351bd20ef1f"},"vehicle_type_id":"4","last_reported":1784722828,"current_range_meters":40000,"station_id":"cpo3342slgdg3j2ifvpg","pricing_plan_id":"cebpf4jnsgd1na2vs0mg"},{"bike_id":"47ff0f9f-308b-4144-bd8b-574e9767fcd6","system_id":"levelo_inurba_marseille","lat":43.23052,"lon":5.35489,"is_reserved":false,"is_disabled":false,"rental_uris":{"android":"levelo://app?vid=47ff0f9f-308b-4144-bd8b-574e9767fcd6","ios":"levelo://app?vid=47ff0f9f-308b-4144-bd8b-574e9767fcd6"},"vehicle_type_id":"4","last_reported":1784722828,"current_range_meters":32000,"station_id":"cpo3342slgdg3j2ifvpg","pricing_plan_id":"cebpf4jnsgd1na2vs0mg"},{"bike_id":"bace381c-6258-4d80-80f1-070c343af026","system_id":"levelo_inurba_marseille","lat":43.33157,"lon":5.37697,"is_reserved":false,"is_disabled":false,"rental_uris":{"android":"levelo://app?vid=bace381c-6258-4d80-80f1-070c343af026","ios":"levelo://app?vid=bace381c-6258-4d80-80f1-070c343af026"},"vehicle_type_id":"4","last_reported":1784722828,"current_range_meters":10000,"station_id":"st_d46cu089ee8s73dldbu0","pricing_plan_id":"cebpf4jnsgd1na2vs0mg"},{"bike_id":"78fe8861-1675-43d6-a7e3-b96619cd5ecb","system_id":"levelo_inurba_marseille","lat":43.29291,"lon":5.37153,"is_reserved":false,"is_disabled":false,"rental_uris":{"android":"levelo://app?vid=78fe8861-1675-43d6-a7e3-b96619cd5ecb","ios":"levelo://app?vid=78fe8861-1675-43d6-a7e3-b96619cd5ecb"},"vehicle_type_id":"4","last_reported":1784722828,"current_range_meters":28000,"station_id":"ce4bgh92rcd13ifvqb40","pricing_plan_id":"cebpf4jnsgd1na2vs0mg"},{"bike_id":"0ace04cd-5177-47fd-97e4-42d5db466a97","system_id":"levelo_inurba_marseille","lat":43.29904,"lon":5.38145,"is_reserved":false,"is_disabled":true,"rental_uris":{"android":"levelo://app?vid=0ace04cd-5177-47fd-97e4-42d5db466a97","ios":"levelo://app?vid=0ace04cd-5177-47fd-97e4-42d5db466a97"},"vehicle_type_id":"4","last_reported":1784722828,"current_range_meters":1200,"station_id":"ce4bgj12rcd13ifvqbc0","pricing_plan_id":"cebpf4jnsgd1na2vs0mg"},{"bike_id":"e9e543b0-8ca5-47a6-998c-4902ea53cdd4","system_id":"levelo_inurba_marseille","lat":43.25189,"lon":5.37312,"is_reserved":false,"is_disabled":true,"rental_uris":{"android":"levelo://app?vid=e9e543b0-8ca5-47a6-998c-4902ea53cdd4","ios":"levelo://app?vid=e9e543b0-8ca5-47a6-998c-4902ea53cdd4"},"vehicle_type_id":"4","last_reported":1784722828,"current_range_meters":11600,"station_id":"","pricing_plan_id":"cebpf4jnsgd1na2vs0mg"},{"bike_id":"7b994b50-d1d9-4795-96d3-24bdfc1e5a92","system_id":"levelo_inurba_marseille","lat":43.231574,"lon":5.437026,"is_reserved":false,"is_disabled":false,"rental_uris":{"android":"levelo://app?vid=7b994b50-d1d9-4795-96d3-24bdfc1e5a92","ios":"levelo://app?vid=7b994b50-d1d9-4795-96d3-24bdfc1e5a92"},"vehicle_type_id":"4","last_reported":1784722828,"current_range_meters":22000,"station_id":"","pricing_plan_id":"cebpf4jnsgd1na2vs0mg"},{"bike_id":"7bb6d49d-d134-4596-9672-75dc41be671b","system_id":"levelo_inurba_marseille","lat":43.29275,"lon":5.36849,"is_reserved":false,"is_disabled":false,"rental_uris":{"android":"levelo://app?vid=7bb6d49d-d134-4596-9672-75dc41be671b","ios":"levelo://app?vid=7bb6d49d-d134-4596-9672-75dc41be671b"},"vehicle_type_id":"4","last_reported":1784722828,"current_range_meters":22800,"station_id":"","pricing_plan_id":"cebpf4jnsgd1na2vs0mg"},{"bike_id":"82078e25-9538-4aea-b1a9-3ec869fe4d8d","system_id":"levelo_inurba_marseille","lat":43.26066,"lon":5.39389,"is_reserved":false,"is_disabled":false,"rental_uris":{"android":"levelo://app?vid=82078e25-9538-4aea-b1a9-3ec869fe4d8d","ios":"levelo://app?vid=82078e25-9538-4aea-b1a9-3ec869fe4d8d"},"vehicle_type_id":"4","last_reported":1784722828,"current_range_meters":36000,"station_id":"ce4bhh92rcd13ifvqfj0","pricing_plan_id":"cebpf4jnsgd1na2vs0mg"},{"bike_id":"8f31f3af-0aa6-4421-8e2c-a77a880bef79","system_id":"levelo_inurba_marseille","lat":43.273726,"lon":5.398294,"is_reserved":false,"is_disabled":true,"rental_uris":{"android":"levelo://app?vid=8f31f3af-0aa6-4421-8e2c-a77a880bef79","ios":"levelo://app?vid=8f31f3af-0aa6-4421-8e2c-a77a880bef79"},"vehicle_type_id":"4","last_reported":1784722828,"current_range_meters":7200,"station_id":"","pricing_plan_id":"cebpf4jnsgd1na2vs0mg"},{"bike_id":"285820f9-9811-40a5-87b0-0491a6035481","system_id":"levelo_inurba_marseille","lat":43.27152,"lon":5.41013,"is_reserved":false,"is_disabled":false,"rental_uris":{"android":"levelo://app?vid=285820f9-9811-40a5-87b0-0491a6035481","ios":"levelo://app?vid=285820f9-9811-40a5-87b0-0491a6035481"},"vehicle_type_id":"4","last_reported":1784722828,"current_range_meters":32800,"station_id":"ce4bhl12rcd13ifvqgf0","pricing_plan_id":"cebpf4jnsgd1na2vs0mg"},{"bike_id":"83925a5d-2fdb-4961-87af-9524cc4451ad","system_id":"levelo_inurba_marseille","lat":43.30938,"lon":5.39072,"is_reserved":false,"is_disabled":false,"rental_uris":{"android":"levelo://app?vid=83925a5d-2fdb-4961-87af-9524cc4451ad","ios":"levelo://app?vid=83925a5d-2fdb-4961-87af-9524cc4451ad"},"vehicle_type_id":"4","last_reported":1784722828,"current_range_meters":40000,"station_id":"ce4bgup2rcd13ifvqco0","pricing_plan_id":"cebpf4jnsgd1na2vs0mg"},{"bike_id":"1a8f7e32-5d47-4694-89a5-a9089b244299","system_id":"levelo_inurba_marseille","lat":43.28082,"lon":5.38512,"is_reserved":false,"is_disabled":false,"rental_uris":{"android":"levelo://app?vid=1a8f7e32-5d47-4694-89a5-a9089b244299","ios":"levelo://app?vid=1a8f7e32-5d47-4694-89a5-a9089b244299"},"vehicle_type_id":"4","last_reported":1784722828,"current_range_meters":5600,"station_id":"","pricing_plan_id":"cebpf4jnsgd1na2vs0mg"},{"bike_id":"bb96650a-3021-4a12-aa1c-45954489ce0e","system_id":"levelo_inurba_marseille","lat":43.34134,"lon":5.40902,"is_reserved":false,"is_disabled":false,"rental_uris":{"android":"levelo://app?vid=bb96650a-3021-4a12-aa1c-45954489ce0e","ios":"levelo://app?vid=bb96650a-3021-4a12-aa1c-45954489ce0e"},"vehicle_type_id":"4","last_reported":1784722828,"current_range_meters":36800,"station_id":"ce4bhqh2rcd13ifvqhlg","pricing_plan_id":"cebpf4jnsgd1na2vs0mg"},{"bike_id":"a2c9fd6e-925c-4795-ba3f-b9c641931695","system_id":"levelo_inurba_marseille","lat":43.29605,"lon":5.37735,"is_reserved":false,"is_disabled":true,"rental_uris":{"android":"levelo://app?vid=a2c9fd6e-925c-4795-ba3f-b9c641931695","ios":"levelo://app?vid=a2c9fd6e-925c-4795-ba3f-b9c641931695"},"vehicle_type_id":"4","last_reported":1784722828,"current_range_meters":25600,"station_id":"ce4bgi92rcd13ifvqb90","pricing_plan_id":"cebpf4jnsgd1na2vs0mg"},{"bike_id":"55905200-eaa2-4ede-b0e7-e8e4672cccac","system_id":"levelo_inurba_marseille","lat":43.30122,"lon":5.43127,"is_reserved":false,"is_disabled":false,"rental_uris":{"android":"levelo://app?vid=55905200-eaa2-4ede-b0e7-e8e4672cccac","ios":"levelo://app?vid=55905200-eaa2-4ede-b0e7-e8e4672cccac"},"vehicle_type_id":"4","last_reported":1784722828,"current_range_meters":18000,"station_id":"st_d3js3co5814s73ftftug","pricing_plan_id":"cebpf4jnsgd1na2vs0mg"},{"bike_id":"7b7c350c-7fa0-4260-b6c2-812c00fe7727","system_id":"levelo_inurba_marseille","lat":43.32097,"lon":5.36779,"is_reserved":false,"is_disabled":false,"rental_uris":{"android":"levelo://app?vid=7b7c350c-7fa0-4260-b6c2-812c00fe7727","ios":"levelo://app?vid=7b7c350c-7fa0-4260-b6c2-812c00fe7727"},"vehicle_type_id":"4","last_reported":1784722828,"current_range_meters":27600,"station_id":"ce4bhrh2rcd13ifvqhug","pricing_plan_id":"cebpf4jnsgd1na2vs0mg"},{"bike_id":"002b6de9-4906-4900-bd53-a26437451aab","system_id":"levelo_inurba_marseille","lat":43.33256,"lon":5.35892,"is_reserved":false,"is_disabled":false,"rental_uris":{"android":"levelo://app?vid=002b6de9-4906-4900-bd53-a26437451aab","ios":"levelo://app?vid=002b6de9-4906-4900-bd53-a26437451aab"},"vehicle_type_id":"4","last_reported":1784722828,"current_range_meters":12800,"station_id":"","pricing_plan_id":"cebpf4jnsgd1na2vs0mg"},{"bike_id":"ae4d8230-91d6-494c-8f79-2d710589d93c","system_id":"levelo_inurba_marseille","lat":43.29906,"lon":5.37472,"is_reserved":false,"is_disabled":false,"rental_uris":{"android":"levelo://app?vid=ae4d8230-91d6-494c-8f79-2d710589d93c","ios":"levelo://app?vid=ae4d8230-91d6-494c-8f79-2d710589d93c"},"vehicle_type_id":"4","last_reported":1784722828,"current_range_meters":32000,"station_id":"ce4bgjh2rcd13ifvqbg0","pricing_plan_id":"cebpf4jnsgd1na2vs0mg"},{"bike_id":"94f1b0ad-aaa9-4b51-806c-9eae39355e9b","system_id":"levelo_inurba_marseille","lat":43.27376,"lon":5.36256,"is_reserved":false,"is_disabled":true,"rental_uris":{"android":"levelo://app?vid=94f1b0ad-aaa9-4b51-806c-9eae39355e9b","ios":"levelo://app?vid=94f1b0ad-aaa9-4b51-806c-9eae39355e9b"},"vehicle_type_id":"4","last_reported":1784722828,"current_range_meters":29600,"station_id":"ce4bhbh2rcd13ifvqeo0","pricing_plan_id":"cebpf4jnsgd1na2vs0mg"},{"bike_id":"01eb238c-e3e6-4d22-bd10-686d896b8aba","system_id":"levelo_inurba_marseille","lat":43.26936,"lon":5.40251,"is_reserved":false,"is_disabled":false,"rental_uris":{"android":"levelo://app?vid=01eb238c-e3e6-4d22-bd10-686d896b8aba","ios":"levelo://app?vid=01eb238c-e3e6-4d22-bd10-686d896b8aba"},"vehicle_type_id":"4","last_reported":1784722828,"current_range_meters":36800,"station_id":"cjm6bp8fraef2m0cb0m0","pricing_plan_id":"cebpf4jnsgd1na2vs0mg"},{"bike_id":"3d185dea-3134-4b35-9cee-49aed1f0c978","system_id":"levelo_inurba_marseille","lat":43.24692,"lon":5.38148,"is_reserved":false,"is_disabled":true,"rental_uris":{"android":"levelo://app?vid=3d185dea-3134-4b35-9cee-49aed1f0c978","ios":"levelo://app?vid=3d185dea-3134-4b35-9cee-49aed1f0c978"},"vehicle_type_id":"4","last_reported":1784722828,"current_range_meters":36800,"station_id":"ce4bhih2rcd13ifvqfr0","pricing_plan_id":"cebpf4jnsgd1na2vs0mg"},{"bike_id":"d59836fa-cc94-4caa-8c24-e346fea64424","system_id":"levelo_inurba_marseille","lat":43.299722,"lon":5.38481,"is_reserved":false,"is_disabled":true,"rental_uris":{"android":"levelo://app?vid=d59836fa-cc94-4caa-8c24-e346fea64424","ios":"levelo://app?vid=d59836fa-cc94-4caa-8c24-e346fea64424"},"vehicle_type_id":"4","last_reported":1784722828,"current_range_meters":11200,"station_id":"ce4bgj92rcd13ifvqbd0","pricing_plan_id":"cebpf4jnsgd1na2vs0mg"},{"bike_id":"ba8332a1-4488-4cf4-9483-e0497d9712ec","system_id":"levelo_inurba_marseille","lat":43.28915,"lon":5.3641,"is_reserved":false,"is_disabled":true,"rental_uris":{"android":"levelo://app?vid=ba8332a1-4488-4cf4-9483-e0497d9712ec","ios":"levelo://app?vid=ba8332a1-4488-4cf4-9483-e0497d9712ec"},"vehicle_type_id":"4","last_reported":1784722828,"current_range_meters":38800,"station_id":"ce4bhc92rcd13ifvqetg","pricing_plan_id":"cebpf4jnsgd1na2vs0mg"},{"bike_id":"c80bdbb8-e563-4721-8eae-91e1daa651c2","system_id":"levelo_inurba_marseille","lat":43.255,"lon":5.3765,"is_reserved":false,"is_disabled":false,"rental_uris":{"android":"levelo://app?vid=c80bdbb8-e563-4721-8eae-91e1daa651c2","ios":"levelo://app?vid=c80bdbb8-e563-4721-8eae-91e1daa651c2"},"vehicle_type_id":"4","last_reported":1784722828,"current_range_meters":9600,"station_id":"ce4bhh12rcd13ifvqff0","pricing_plan_id":"cebpf4jnsgd1na2vs0mg"},{"bike_id":"1981d3ef-d7ae-460e-a247-e2f1120f8322","system_id":"levelo_inurba_marseille","lat":43.24575,"lon":5.4197,"is_reserved":false,"is_disabled":false,"rental_uris":{"android":"levelo://app?vid=1981d3ef-d7ae-460e-a247-e2f1120f8322","ios":"levelo://app?vid=1981d3ef-d7ae-460e-a247-e2f1120f8322"},"vehicle_type_id":"4","last_reported":1784722828,"current_range_meters":17600,"station_id":"","pricing_plan_id":"cebpf4jnsgd1na2vs0mg"},{"bike_id":"3c569060-d479-48bf-b4c2-a473fec79471","system_id":"levelo_inurba_marseille","lat":43.2833,"lon":5.3812,"is_reserved":false,"is_disabled":false,"rental_uris":{"android":"levelo://app?vid=3c569060-d479-48bf-b4c2-a473fec79471","ios":"levelo://app?vid=3c569060-d479-48bf-b4c2-a473fec79471"},"vehicle_type_id":"4","last_reported":1784722828,"current_range_meters":9600,"station_id":"ce4bh412rcd13ifvqdr0","pricing_plan_id":"cebpf4jnsgd1na2vs0mg"},{"bike_id":"bbb6d84d-52b2-4523-b78b-60cb354411ef","system_id":"levelo_inurba_marseille","lat":43.31991,"lon":5.36775,"is_reserved":false,"is_disabled":false,"rental_uris":{"android":"levelo://app?vid=bbb6d84d-52b2-4523-b78b-60cb354411ef","ios":"levelo://app?vid=bbb6d84d-52b2-4523-b78b-60cb354411ef"},"vehicle_type_id":"4","last_reported":1784722828,"current_range_meters":36400,"station_id":"","pricing_plan_id":"cebpf4jnsgd1na2vs0mg"},{"bike_id":"90ea02a9-5a25-44ca-86d4-2a29b49bf101","system_id":"levelo_inurba_marseille","lat":43.27675,"lon":5.38935,"is_reserved":false,"is_disabled":false,"rental_uris":{"android":"levelo://app?vid=90ea02a9-5a25-44ca-86d4-2a29b49bf101","ios":"levelo://app?vid=90ea02a9-5a25-44ca-86d4-2a29b49bf101"},"vehicle_type_id":"4","last_reported":1784722828,"current_range_meters":12800,"station_id":"ce4bhi12rcd13ifvqfo0","pricing_plan_id":"cebpf4jnsgd1na2vs0mg"},{"bike_id":"16332643-4459-4f19-814e-47b6b5ca06b7","system_id":"levelo_inurba_marseille","lat":43.27815,"lon":5.40733,"is_reserved":false,"is_disabled":false,"rental_uris":{"android":"levelo://app?vid=16332643-4459-4f19-814e-47b6b5ca06b7","ios":"levelo://app?vid=16332643-4459-4f19-814e-47b6b5ca06b7"},"vehicle_type_id":"4","last_reported":1784722828,"current_range_meters":39200,"station_id":"ce4bhnh2rcd13ifvqgtg","pricing_plan_id":"cebpf4jnsgd1na2vs0mg"},{"bike_id":"a9863fcb-8ca0-4220-b083-cb27e96475fe","system_id":"levelo_inurba_marseille","lat":43.23183,"lon":5.35564,"is_reserved":false,"is_disabled":false,"rental_uris":{"android":"levelo://app?vid=a9863fcb-8ca0-4220-b083-cb27e96475fe","ios":"levelo://app?vid=a9863fcb-8ca0-4220-b083-cb27e96475fe"},"vehicle_type_id":"4","last_reported":1784722828,"current_range_meters":8800,"station_id":"ce4bhu92rcd13ifvqi70","pricing_plan_id":"cebpf4jnsgd1na2vs0mg"},{"bike_id":"497040b1-a999-4fce-aba0-7e94bbf2a204","system_id":"levelo_inurba_marseille","lat":43.24401,"lon":5.3705,"is_reserved":false,"is_disabled":false,"rental_uris":{"android":"levelo://app?vid=497040b1-a999-4fce-aba0-7e94bbf2a204","ios":"levelo://app?vid=497040b1-a999-4fce-aba0-7e94bbf2a204"},"vehicle_type_id":"4","last_reported":1784722828,"current_range_meters":23200,"station_id":"ce4bhhh2rcd13ifvqfk0","pricing_plan_id":"cebpf4jnsgd1na2vs0mg"},{"bike_id":"38ddc388-e49a-4663-ba1e-3314cf8be4f9","system_id":"levelo_inurba_marseille","lat":43.29097,"lon":5.38155,"is_reserved":false,"is_disabled":false,"rental_uris":{"android":"levelo://app?vid=38ddc388-e49a-4663-ba1e-3314cf8be4f9","ios":"levelo://app?vid=38ddc388-e49a-4663-ba1e-3314cf8be4f9"},"vehicle_type_id":"4","last_reported":1784722828,"current_range_meters":37600,"station_id":"ce4bh512rcd13ifvqe2g","pricing_plan_id":"cebpf4jnsgd1na2vs0mg"},{"bike_id":"a8da38aa-f94e-4c2e-80f0-e41e78a1c855","system_id":"levelo_inurba_marseille","lat":43.29796,"lon":5.38088,"is_reserved":false,"is_disabled":true,"rental_uris":{"android":"levelo://app?vid=a8da38aa-f94e-4c2e-80f0-e41e78a1c855","ios":"levelo://app?vid=a8da38aa-f94e-4c2e-80f0-e41e78a1c855"},"vehicle_type_id":"4","last_reported":1784722828,"current_range_meters":38400,"station_id":"ce4bgip2rcd13ifvqbb0","pricing_plan_id":"cebpf4jnsgd1na2vs0mg"},{"bike_id":"e194fbb0-bc81-4444-b407-bf005b5be095","system_id":"levelo_inurba_marseille","lat":43.31162,"lon":5.36933,"is_reserved":false,"is_disabled":false,"rental_uris":{"android":"levelo://app?vid=e194fbb0-bc81-4444-b407-bf005b5be095","ios":"levelo://app?vid=e194fbb0-bc81-4444-b407-bf005b5be095"},"vehicle_type_id":"4","last_reported":1784722828,"current_range_meters":28000,"station_id":"","pricing_plan_id":"cebpf4jnsgd1na2vs0mg"},{"bike_id":"98a36529-34c8-4700-875e-0444dc97e21f","system_id":"levelo_inurba_marseille","lat":43.2744,"lon":5.39397,"is_reserved":false,"is_disabled":false,"rental_uris":{"android":"levelo://app?vid=98a36529-34c8-4700-875e-0444dc97e21f","ios":"levelo://app?vid=98a36529-34c8-4700-875e-0444dc97e21f"},"vehicle_type_id":"4","last_reported":1784722828,"current_range_meters":40000,"station_id":"ce4bhdp2rcd13ifvqf20","pricing_plan_id":"cebpf4jnsgd1na2vs0mg"},{"bike_id":"354a079f-ed28-41a7-a06b-85ab194fda38","system_id":"levelo_inurba_marseille","lat":43.29445,"lon":5.39763,"is_reserved":false,"is_disabled":true,"rental_uris":{"android":"levelo://app?vid=354a079f-ed28-41a7-a06b-85ab194fda38","ios":"levelo://app?vid=354a079f-ed28-41a7-a06b-85ab194fda38"},"vehicle_type_id":"4","last_reported":1784722828,"current_range_meters":4400,"station_id":"ce4bh3h2rcd13ifvqdo0","pricing_plan_id":"cebpf4jnsgd1na2vs0mg"},{"bike_id":"c32e2869-9fc6-44ad-8f99-c13e6eac9be4","system_id":"levelo_inurba_marseille","lat":43.3316,"lon":5.37679,"is_reserved":false,"is_disabled":true,"rental_uris":{"android":"levelo://app?vid=c32e2869-9fc6-44ad-8f99-c13e6eac9be4","ios":"levelo://app?vid=c32e2869-9fc6-44ad-8f99-c13e6eac9be4"},"vehicle_type_id":"4","last_reported":1784722828,"current_range_meters":0,"station_id":"st_d46cu089ee8s73dldbu0","pricing_plan_id":"cebpf4jnsgd1na2vs0mg"},{"bike_id":"d6637dfc-304b-4938-88a3-2f97b12f3876","system_id":"levelo_inurba_marseille","lat":43.30335,"lon":5.369,"is_reserved":false,"is_disabled":false,"rental_uris":{"android":"levelo://app?vid=d6637dfc-304b-4938-88a3-2f97b12f3876","ios":"levelo://app?vid=d6637dfc-304b-4938-88a3-2f97b12f3876"},"vehicle_type_id":"4","last_reported":1784722828,"current_range_meters":39200,"station_id":"ce4bgqh2rcd13ifvqc5g","pricing_plan_id":"cebpf4jnsgd1na2vs0mg"},{"bike_id":"490c5d9c-d53d-4ba9-aad9-6533bccec48f","system_id":"levelo_inurba_marseille","lat":43.30295,"lon":5.37709,"is_reserved":false,"is_disabled":false,"rental_uris":{"android":"levelo://app?vid=490c5d9c-d53d-4ba9-aad9-6533bccec48f","ios":"levelo://app?vid=490c5d9c-d53d-4ba9-aad9-6533bccec48f"},"vehicle_type_id":"4","last_reported":1784722828,"current_range_meters":9200,"station_id":"ce4bguh2rcd13ifvqcj0","pricing_plan_id":"cebpf4jnsgd1na2vs0mg"},{"bike_id":"f8d90c4e-4908-4f03-845e-3c10c53cb1f4","system_id":"levelo_inurba_marseille","lat":43.30037,"lon":5.40937,"is_reserved":false,"is_disabled":false,"rental_uris":{"android":"levelo://app?vid=f8d90c4e-4908-4f03-845e-3c10c53cb1f4","ios":"levelo://app?vid=f8d90c4e-4908-4f03-845e-3c10c53cb1f4"},"vehicle_type_id":"4","last_reported":1784722828,"current_range_meters":23200,"station_id":"","pricing_plan_id":"cebpf4jnsgd1na2vs0mg"},{"bike_id":"27e1e4c5-a07c-4ba9-9e46-007cc925fb39","system_id":"levelo_inurba_marseille","lat":43.25469,"lon":5.41531,"is_reserved":false,"is_disabled":false,"rental_uris":{"android":"levelo://app?vid=27e1e4c5-a07c-4ba9-9e46-007cc925fb39","ios":"levelo://app?vid=27e1e4c5-a07c-4ba9-9e46-007cc925fb39"},"vehicle_type_id":"4","last_reported":1784722828,"current_range_meters":10800,"station_id":"","pricing_plan_id":"cebpf4jnsgd1na2vs0mg"},{"bike_id":"93295dce-78e3-4760-be36-f8045591201c","system_id":"levelo_inurba_marseille","lat":43.28723,"lon":5.3794,"is_reserved":false,"is_disabled":true,"rental_uris":{"android":"levelo://app?vid=93295dce-78e3-4760-be36-f8045591201c","ios":"levelo://app?vid=93295dce-78e3-4760-be36-f8045591201c"},"vehicle_type_id":"4","last_reported":1784722828,"current_range_meters":800,"station_id":"ce4bh9p2rcd13ifvqec0","pricing_plan_id":"cebpf4jnsgd1na2vs0mg"},{"bike_id":"60c5571f-38c3-43f7-b923-a52cf203667f","system_id":"levelo_inurba_marseille","lat":43.33017,"lon":5.39041,"is_reserved":false,"is_disabled":false,"rental_uris":{"android":"levelo://app?vid=60c5571f-38c3-43f7-b923-a52cf203667f","ios":"levelo://app?vid=60c5571f-38c3-43f7-b923-a52cf203667f"},"vehicle_type_id":"4","last_reported":1784722828,"current_range_meters":24000,"station_id":"ce4bhr92rcd13ifvqhrg","pricing_plan_id":"cebpf4jnsgd1na2vs0mg"},{"bike_id":"81e7c5e6-77f0-465b-b5ec-673fad2c2b6b","system_id":"levelo_inurba_marseille","lat":43.265733,"lon":5.390373,"is_reserved":false,"is_disabled":false,"rental_uris":{"android":"levelo://app?vid=81e7c5e6-77f0-465b-b5ec-673fad2c2b6b","ios":"levelo://app?vid=81e7c5e6-77f0-465b-b5ec-673fad2c2b6b"},"vehicle_type_id":"4","last_reported":1784722828,"current_range_meters":38400,"station_id":"cpo3532slgdg3j2ikp40","pricing_plan_id":"cebpf4jnsgd1na2vs0mg"},{"bike_id":"5a87d78f-bce0-4026-a623-b63371d564c6","system_id":"levelo_inurba_marseille","lat":43.29179,"lon":5.35786,"is_reserved":false,"is_disabled":true,"rental_uris":{"android":"levelo://app?vid=5a87d78f-bce0-4026-a623-b63371d564c6","ios":"levelo://app?vid=5a87d78f-bce0-4026-a623-b63371d564c6"},"vehicle_type_id":"4","last_reported":1784722828,"current_range_meters":36800,"station_id":"ce4bhb12rcd13ifvqel0","pricing_plan_id":"cebpf4jnsgd1na2vs0mg"},{"bike_id":"081c7c77-de6d-424b-ac53-15a24f512dc4","system_id":"levelo_inurba_marseille","lat":43.309,"lon":5.36832,"is_reserved":false,"is_disabled":false,"rental_uris":{"android":"levelo://app?vid=081c7c77-de6d-424b-ac53-15a24f512dc4","ios":"levelo://app?vid=081c7c77-de6d-424b-ac53-15a24f512dc4"},"vehicle_type_id":"4","last_reported":1784722828,"current_range_meters":22800,"station_id":"ce4bgn92rcd13ifvqbvg","pricing_plan_id":"cebpf4jnsgd1na2vs0mg"},{"bike_id":"28dafd1e-b352-4536-b972-96ddffcb9c40","system_id":"levelo_inurba_marseille","lat":43.30754,"lon":5.42429,"is_reserved":false,"is_disabled":false,"rental_uris":{"android":"levelo://app?vid=28dafd1e-b352-4536-b972-96ddffcb9c40","ios":"levelo://app?vid=28dafd1e-b352-4536-b972-96ddffcb9c40"},"vehicle_type_id":"4","last_reported":1784722828,"current_range_meters":35600,"station_id":"st_cvj6ca6bvosntc0bfgr0","pricing_plan_id":"cebpf4jnsgd1na2vs0mg"},{"bike_id":"9dec629b-7361-4f3e-aba8-797fb116016d","system_id":"levelo_inurba_marseille","lat":43.30894,"lon":5.36865,"is_reserved":false,"is_disabled":false,"rental_uris":{"android":"levelo://app?vid=9dec629b-7361-4f3e-aba8-797fb116016d","ios":"levelo://app?vid=9dec629b-7361-4f3e-aba8-797fb116016d"},"vehicle_type_id":"4","last_reported":1784722828,"current_range_meters":38800,"station_id":"ce4bgn92rcd13ifvqbvg","pricing_plan_id":"cebpf4jnsgd1na2vs0mg"},{"bike_id":"9100f690-6f00-4cc3-868f-2ddb790bdb54","system_id":"levelo_inurba_marseille","lat":43.30989,"lon":5.39079,"is_reserved":false,"is_disabled":false,"rental_uris":{"android":"levelo://app?vid=9100f690-6f00-4cc3-868f-2ddb790bdb54","ios":"levelo://app?vid=9100f690-6f00-4cc3-868f-2ddb790bdb54"},"vehicle_type_id":"4","last_reported":1784722828,"current_range_meters":39200,"station_id":"ce4bgup2rcd13ifvqco0","pricing_plan_id":"cebpf4jnsgd1na2vs0mg"},{"bike_id":"b19a51e8-41c5-4d7a-b049-0febc88706e6","system_id":"levelo_inurba_marseille","lat":43.29099,"lon":5.38124,"is_reserved":false,"is_disabled":false,"rental_uris":{"android":"levelo://app?vid=b19a51e8-41c5-4d7a-b049-0febc88706e6","ios":"levelo://app?vid=b19a51e8-41c5-4d7a-b049-0febc88706e6"},"vehicle_type_id":"4","last_reported":1784722828,"current_range_meters":36800,"station_id":"ce4bh512rcd13ifvqe2g","pricing_plan_id":"cebpf4jnsgd1na2vs0mg"},{"bike_id":"1ae20384-5ccd-4145-9a1d-f626b16c7a9e","system_id":"levelo_inurba_marseille","lat":43.31133,"lon":5.46437,"is_reserved":false,"is_disabled":false,"rental_uris":{"android":"levelo://app?vid=1ae20384-5ccd-4145-9a1d-f626b16c7a9e","ios":"levelo://app?vid=1ae20384-5ccd-4145-9a1d-f626b16c7a9e"},"vehicle_type_id":"4","last_reported":1784722828,"current_range_meters":2800,"station_id":"","pricing_plan_id":"cebpf4jnsgd1na2vs0mg"},{"bike_id":"c5032ade-04c2-4ad9-acd6-0c757f219d04","system_id":"levelo_inurba_marseille","lat":43.3189,"lon":5.36809,"is_reserved":false,"is_disabled":false,"rental_uris":{"android":"levelo://app?vid=c5032ade-04c2-4ad9-acd6-0c757f219d04","ios":"levelo://app?vid=c5032ade-04c2-4ad9-acd6-0c757f219d04"},"vehicle_type_id":"4","last_reported":1784722828,"current_range_meters":11600,"station_id":"st_d6o2h0d0559c73evc1b0","pricing_plan_id":"cebpf4jnsgd1na2vs0mg"},{"bike_id":"479a25b1-c1db-4e38-9802-13b8f5b183f0","system_id":"levelo_inurba_marseille","lat":43.28474,"lon":5.48398,"is_reserved":false,"is_disabled":false,"rental_uris":{"android":"levelo://app?vid=479a25b1-c1db-4e38-9802-13b8f5b183f0","ios":"levelo://app?vid=479a25b1-c1db-4e38-9802-13b8f5b183f0"},"vehicle_type_id":"4","last_reported":1784722828,"current_range_meters":29600,"station_id":"st_d3svhcjqgbts73a3dn0g","pricing_plan_id":"cebpf4jnsgd1na2vs0mg"},{"bike_id":"5ba3de10-889b-4152-aef4-4bff1e010d26","system_id":"levelo_inurba_marseille","lat":43.32112,"lon":5.3677,"is_reserved":false,"is_disabled":false,"rental_uris":{"android":"levelo://app?vid=5ba3de10-889b-4152-aef4-4bff1e010d26","ios":"levelo://app?vid=5ba3de10-889b-4152-aef4-4bff1e010d26"},"vehicle_type_id":"4","last_reported":1784722828,"current_range_meters":12000,"station_id":"ce4bhrh2rcd13ifvqhug","pricing_plan_id":"cebpf4jnsgd1na2vs0mg"},{"bike_id":"4a44625a-98e7-4ffe-9d7a-43dbdd22c4d2","system_id":"levelo_inurba_marseille","lat":43.30288,"lon":5.36909,"is_reserved":false,"is_disabled":false,"rental_uris":{"android":"levelo://app?vid=4a44625a-98e7-4ffe-9d7a-43dbdd22c4d2","ios":"levelo://app?vid=4a44625a-98e7-4ffe-9d7a-43dbdd22c4d2"},