{"last_updated":1698707186,"ttl":30,"version":"2.2","data":{"bikes":[{"bike_id":"6d54e52a-1192-48b2-b946-9afb9667521f","system_id":"levelo_inurba_marseille","lat":43.31341,"lon":5.367098,"is_reserved":false,"is_disabled":false,"rental_uris":{"android":"levelo://app?vid=6d54e52a-1192-48b2-b946-9afb9667521f","ios":"levelo://app?vid=6d54e52a-1192-48b2-b946-9afb9667521f"},"vehicle_type_id":"4","last_reported":1698707186,"current_range_meters":28400,"station_id":"ce4bgr92rcd13ifvqc6g","pricing_plan_id":"free"},{"bike_id":"81291cc8-9182-4d4d-a624-526942ef1ac6","system_id":"levelo_inurba_marseille","lat":43.312204,"lon":5.368471,"is_reserved":false,"is_disabled":false,"rental_uris":{"android":"levelo://app?vid=81291cc8-9182-4d4d-a624-526942ef1ac6","ios":"levelo://app?vid=81291cc8-9182-4d4d-a624-526942ef1ac6"},"vehicle_type_id":"4","last_reported":1698707186,"current_range_meters":30400,"station_id":"ce4bgl92rcd13ifvqbq0","pricing_plan_id":"free"},{"bike_id":"fd375d05-fa18-43c7-ad6b-aa8c6eefb442","system_id":"levelo_inurba_marseille","lat":43.309076,"lon":5.368465,"is_reserved":false,"is_disabled":false,"rental_uris":{"android":"levelo://app?vid=fd375d05-fa18-43c7-ad6b-aa8c6eefb442","ios":"levelo://app?vid=fd375d05-fa18-43c7-ad6b-aa8c6eefb442"},"vehicle_type_id":"4","last_reported":1698707186,"current_range_meters":29200,"station_id":"ce4bgn92rcd13ifvqbvg","pricing_plan_id":"free"},{"bike_id":"b1cb48cb-22d4-4cd4-97b0-038c1cf723b7","system_id":"levelo_inurba_marseille","lat":43.315186,"lon":5.371432,"is_reserved":false,"is_disabled":false,"rental_uris":{"android":"levelo://app?vid=b1cb48cb-22d4-4cd4-97b0-038c1cf723b7","ios":"levelo://app?vid=b1cb48cb-22d4-4cd4-97b0-038c1cf723b7"},"vehicle_type_id":"4","last_reported":1698707186,"current_range_meters":10000,"station_id":"","pricing_plan_id":"free"},{"bike_id":"8a8cd891-6ef4-426d-8036-bf87b358097e","system_id":"levelo_inurba_marseille","lat":43.314811,"lon":5.373103,"is_reserved":false,"is_disabled":false,"rental_uris":{"android":"levelo://app?vid=8a8cd891-6ef4-426d-8036-bf87b358097e","ios":"levelo://app?vid=8a8cd891-6ef4-426d-8036-bf87b358097e"},"vehicle_type_id":"4","last_reported":1698707186,"current_range_meters":28000,"station_id":"ce4bgt12rcd13ifvqcd0","pricing_plan_id":"free"},{"bike_id":"d47c609a-7b3d-4d6d-9e54-a93badd33c2e","system_id":"levelo_inurba_marseille","lat":43.31583,"lon":5.37247,"is_reserved":false,"is_disabled":false,"rental_uris":{"android":"levelo://app?vid=d47c609a-7b3d-4d6d-9e54-a93badd33c2e","ios":"levelo://app?vid=d47c609a-7b3d-4d6d-9e54-a93badd33c2e"},"vehicle_type_id":"4","last_reported":1698707186,"current_range_meters":18000,"station_id":"","pricing_plan_id":"free"},{"bike_id":"edf13610-a386-4fe9-933d-ed40ee1a760a","system_id":"levelo_inurba_marseille","lat":43.315785,"lon":5.372585,"is_reserved":false,"is_disabled":false,"rental_uris":{"android":"levelo://app?vid=edf13610-a386-4fe9-933d-ed40ee1a760a","ios":"levelo://app?vid=edf13610-a386-4fe9-933d-ed40ee1a760a"},"vehicle_type_id":"4","last_reported":1698707186,"current_range_meters":28800,"station_id":"ce4bgrp2rcd13ifvqc9g","pricing_plan_id":"free"},{"bike_id":"e79a71f5-8d15-49ed-a12a-4d1f1aeddeb7","system_id":"levelo_inurba_marseille","lat":43.309039,"lon":5.371797,"is_reserved":false,"is_disabled":false,"rental_uris":{"android":"levelo://app?vid=e79a71f5-8d15-49ed-a12a-4d1f1aeddeb7","ios":"levelo://app?vid=e79a71f5-8d15-49ed-a12a-4d1f1aeddeb7"},"vehicle_type_id":"4","last_reported":1698707186,"current_range_meters":30000,"station_id":"ce4bguh2rcd13ifvqckg","pricing_plan_id":"free"},{"bike_id":"ea0bf3c2-b613-4409-baed-dcd1fe4550d2","system_id":"levelo_inurba_marseille","lat":43.309039,"lon":5.371797,"is_reserved":false,"is_disabled":false,"rental_uris":{"android":"levelo://app?vid=ea0bf3c2-b613-4409-baed-dcd1fe4550d2","ios":"levelo://app?vid=ea0bf3c2-b613-4409-baed-dcd1fe4550d2"},"vehicle_type_id":"4","last_reported":1698707186,"current_range_meters":10000,"station_id":"ce4bguh2rcd13ifvqckg","pricing_plan_id":"free"},{"bike_id":"29cbe666-717a-41a6-ac0a-f30e2d6aecc8","system_id":"levelo_inurba_marseille","lat":43.309039,"lon":5.371797,"is_reserved":false,"is_disabled":false,"rental_uris":{"android":"levelo://app?vid=29cbe666-717a-41a6-ac0a-f30e2d6aecc8","ios":"levelo://app?vid=29cbe666-717a-41a6-ac0a-f30e2d6aecc8"},"vehicle_type_id":"4","last_reported":1698707186,"current_range_meters":28800,"station_id":"ce4bguh2rcd13ifvqckg","pricing_plan_id":"free"},{"bike_id":"b083c25e-8aee-4acb-b24d-524c92a9fb97","system_id":"levelo_inurba_marseille","lat":43.314056,"lon":5.375598,"is_reserved":false,"is_disabled":false,"rental_uris":{"android":"levelo://app?vid=b083c25e-8aee-4acb-b24d-524c92a9fb97","ios":"levelo://app?vid=b083c25e-8aee-4acb-b24d-524c92a9fb97"},"vehicle_type_id":"4","last_reported":1698707186,"current_range_meters":4000,"station_id":"","pricing_plan_id":"free"},{"bike_id":"07f56112-1748-4d50-99f8-39bc6196f9b8","system_id":"levelo_inurba_marseille","lat":43.3061,"lon":5.36587,"is_reserved":false,"is_disabled":false,"rental_uris":{"android":"levelo://app?vid=07f56112-1748-4d50-99f8-39bc6196f9b8","ios":"levelo://app?vid=07f56112-1748-4d50-99f8-39bc6196f9b8"},"vehicle_type_id":"4","last_reported":1698707186,"current_range_meters":4400,"station_id":"","pricing_plan_id":"free"},{"bike_id":"cd9c55be-d755-4e10-9f29-c4434de946b8","system_id":"levelo_inurba_marseille","lat":43.305489,"lon":5.36711,"is_reserved":false,"is_disabled":false,"rental_uris":{"android":"levelo://app?vid=cd9c55be-d755-4e10-9f29-c4434de946b8","ios":"levelo://app?vid=cd9c55be-d755-4e10-9f29-c4434de946b8"},"vehicle_type_id":"4","last_reported":1698707186,"current_range_meters":0,"station_id":"ce4bgrp2rcd13ifvqc9g","pricing_plan_id":"free"},{"bike_id":"f252b071-dddd-4e5f-ad07-506846af6d1a","system_id":"levelo_inurba_marseille","lat":43.30548,"lon":5.36533,"is_reserved":false,"is_disabled":false,"rental_uris":{"android":"levelo://app?vid=f252b071-dddd-4e5f-ad07-506846af6d1a","ios":"levelo://app?vid=f252b071-dddd-4e5f-ad07-506846af6d1a"},"vehicle_type_id":"4","last_reported":1698707186,"current_range_meters":26400,"station_id":"ce4bgs12rcd13ifvqcag","pricing_plan_id":"free"},{"bike_id":"d47a8040-d804-4c1c-b6c2-d252b970ede0","system_id":"levelo_inurba_marseille","lat":43.305989,"lon":5.37225,"is_reserved":false,"is_disabled":false,"rental_uris":{"android":"levelo://app?vid=d47a8040-d804-4c1c-b6c2-d252b970ede0","ios":"levelo://app?vid=d47a8040-d804-4c1c-b6c2-d252b970ede0"},"vehicle_type_id":"4","last_reported":1698707186,"current_range_meters":27600,"station_id":"ce4bgqh2rcd13ifvqc4g","pricing_plan_id":"free"},{"bike_id":"b6ca1fce-538e-40b0-84be-fb3fe91cbd42","system_id":"levelo_inurba_marseille","lat":43.305989,"lon":5.37225,"is_reserved":false,"is_disabled":false,"rental_uris":{"android":"levelo://app?vid=b6ca1fce-538e-40b0-84be-fb3fe91cbd42","ios":"levelo://app?vid=b6ca1fce-538e-40b0-84be-fb3fe91cbd42"},"vehicle_type_id":"4","last_reported":1698707186,"current_range_meters":11600,"station_id":"ce4bgqh2rcd13ifvqc4g","pricing_plan_id":"free"},{"bike_id":"a5068b7c-cd59-412e-8f23-354579f5c22c","system_id":"levelo_inurba_marseille","lat":43.311131,"lon":5.377651,"is_reserved":false,"is_disabled":false,"rental_uris":{"android":"levelo://app?vid=a5068b7c-cd59-412e-8f23-354579f5c22c","ios":"levelo://app?vid=a5068b7c-cd59-412e-8f23-354579f5c22c"},"vehicle_type_id":"4","last_reported":1698707186,"current_range_meters":26000,"station_id":"ce4bgt92rcd13ifvqcg0","pricing_plan_id":"free"},{"bike_id":"5bf9ccac-c98f-4446-99f7-bcdf8ab1b089","system_id":"levelo_inurba_marseille","lat":43.311131,"lon":5.377651,"is_reserved":false,"is_disabled":false,"rental_uris":{"android":"levelo://app?vid=5bf9ccac-c98f-4446-99f7-bcdf8ab1b089","ios":"levelo://app?vid=5bf9ccac-c98f-4446-99f7-bcdf8ab1b089"},"vehicle_type_id":"4","last_reported":1698707186,"current_range_meters":14400,"station_id":"ce4bgt92rcd13ifvqcg0","pricing_plan_id":"free"},{"bike_id":"4be438cb-9f99-4ef6-b792-a4ab3686c70d","system_id":"levelo_inurba_marseille","lat":43.311131,"lon":5.377651,"is_reserved":false,"is_disabled":false,"rental_uris":{"android":"levelo://app?vid=4be438cb-9f99-4ef6-b792-a4ab3686c70d","ios":"levelo://app?vid=4be438cb-9f99-4ef6-b792-a4ab3686c70d"},"vehicle_type_id":"4","last_reported":1698707186,"current_range_meters":27200,"station_id":"ce4bgt92rcd13ifvqcg0","pricing_plan_id":"free"},{"bike_id":"fa8ae9af-9976-42c7-b019-9ac4a449f258","system_id":"levelo_inurba_marseille","lat":43.311131,"lon":5.377651,"is_reserved":false,"is_disabled":false,"rental_uris":{"android":"levelo://app?vid=fa8ae9af-9976-42c7-b019-9ac4a449f258","ios":"levelo://app?vid=fa8ae9af-9976-42c7-b019-9ac4a449f258"},"vehicle_type_id":"4","last_reported":1698707186,"current_range_meters":31200,"station_id":"ce4bgt92rcd13ifvqcg0","pricing_plan_id":"free"},{"bike_id":"64973aae-651e-405e-a672-75a995509e3f","system_id":"levelo_inurba_marseille","lat":43.30791,"lon":5.37646,"is_reserved":false,"is_disabled":false,"rental_uris":{"android":"levelo://app?vid=64973aae-651e-405e-a672-75a995509e3f","ios":"levelo://app?vid=64973aae-651e-405e-a672-75a995509e3f"},"vehicle_type_id":"4","last_reported":1698707186,"current_range_meters":5600,"station_id":"ce4bgv92rcd13ifvqcq0","pricing_plan_id":"free"},{"bike_id":"700c7e1b-3095-43f2-8364-c2c213e38eec","system_id":"levelo_inurba_marseille","lat":43.30789,"lon":5.3765,"is_reserved":false,"is_disabled":false,"rental_uris":{"android":"levelo://app?vid=700c7e1b-3095-43f2-8364-c2c213e38eec","ios":"levelo://app?vid=700c7e1b-3095-43f2-8364-c2c213e38eec"},"vehicle_type_id":"4","last_reported":1698707186,"current_range_meters":6000,"station_id":"ce4bgv92rcd13ifvqcq0","pricing_plan_id":"free"},{"bike_id":"4bf1dbe7-2eb0-44d1-92d2-a086361cfbf8","system_id":"levelo_inurba_marseille","lat":43.307945,"lon":5.376487,"is_reserved":false,"is_disabled":false,"rental_uris":{"android":"levelo://app?vid=4bf1dbe7-2eb0-44d1-92d2-a086361cfbf8","ios":"levelo://app?vid=4bf1dbe7-2eb0-44d1-92d2-a086361cfbf8"},"vehicle_type_id":"4","last_reported":1698707186,"current_range_meters":18400,"station_id":"ce4bgv92rcd13ifvqcq0","pricing_plan_id":"free"},{"bike_id":"a85ea2f1-b11c-432c-acef-4d11871cee58","system_id":"levelo_inurba_marseille","lat":43.317075,"lon":5.377367,"is_reserved":false,"is_disabled":false,"rental_uris":{"android":"levelo://app?vid=a85ea2f1-b11c-432c-acef-4d11871cee58","ios":"levelo://app?vid=a85ea2f1-b11c-432c-acef-4d11871cee58"},"vehicle_type_id":"4","last_reported":1698707186,"current_range_meters":12800,"station_id":"ce4bgth2rcd13ifvqch0","pricing_plan_id":"free"},{"bike_id":"d58b55df-f8fb-495f-a1fd-866b69e588ed","system_id":"levelo_inurba_marseille","lat":43.317075,"lon":5.377367,"is_reserved":false,"is_disabled":false,"rental_uris":{"android":"levelo://app?vid=d58b55df-f8fb-495f-a1fd-866b69e588ed","ios":"levelo://app?vid=d58b55df-f8fb-495f-a1fd-866b69e588ed"},"vehicle_type_id":"4","last_reported":1698707186,"current_range_meters":10400,"station_id":"ce4bgth2rcd13ifvqch0","pricing_plan_id":"free"},{"bike_id":"ecb976c1-44d1-4d61-b053-6c38f17d0422","system_id":"levelo_inurba_marseille","lat":43.317075,"lon":5.377367,"is_reserved":false,"is_disabled":false,"rental_uris":{"android":"levelo://app?vid=ecb976c1-44d1-4d61-b053-6c38f17d0422","ios":"levelo://app?vid=ecb976c1-44d1-4d61-b053-6c38f17d0422"},"vehicle_type_id":"4","last_reported":1698707186,"current_range_meters":30000,"station_id":"ce4bgth2rcd13ifvqch0","pricing_plan_id":"free"},{"bike_id":"a95db18b-cdd1-4273-ac84-3c706e81c480","system_id":"levelo_inurba_marseille","lat":43.30304,"lon":5.368987,"is_reserved":false,"is_disabled":false,"rental_uris":{"android":"levelo://app?vid=a95db18b-cdd1-4273-ac84-3c706e81c480","ios":"levelo://app?vid=a95db18b-cdd1-4273-ac84-3c706e81c480"},"vehicle_type_id":"4","last_reported":1698707186,"current_range_meters":30400,"station_id":"ce4bgqh2rcd13ifvqc5g","pricing_plan_id":"free"},{"bike_id":"c9a7b9a7-e06a-40fc-939a-c2d64206752b","system_id":"levelo_inurba_marseille","lat":43.31531,"lon":5.38024,"is_reserved":false,"is_disabled":false,"rental_uris":{"android":"levelo://app?vid=c9a7b9a7-e06a-40fc-939a-c2d64206752b","ios":"levelo://app?vid=c9a7b9a7-e06a-40fc-939a-c2d64206752b"},"vehicle_type_id":"4","last_reported":1698707186,"current_range_meters":19200,"station_id":"ce4bhsp2rcd13ifvqi50","pricing_plan_id":"free"},{"bike_id":"54d9a808-7a25-49f0-8d8f-34c20d738668","system_id":"levelo_inurba_marseille","lat":43.301939,"lon":5.366286,"is_reserved":false,"is_disabled":false,"rental_uris":{"android":"levelo://app?vid=54d9a808-7a25-49f0-8d8f-34c20d738668","ios":"levelo://app?vid=54d9a808-7a25-49f0-8d8f-34c20d738668"},"vehicle_type_id":"4","last_reported":1698707186,"current_range_meters":20800,"station_id":"ce4bgrh2rcd13ifvqc8g","pricing_plan_id":"free"},{"bike_id":"877c4877-25c1-44de-a3f7-14596e656663","system_id":"levelo_inurba_marseille","lat":43.301939,"lon":5.366286,"is_reserved":false,"is_disabled":false,"rental_uris":{"android":"levelo://app?vid=877c4877-25c1-44de-a3f7-14596e656663","ios":"levelo://app?vid=877c4877-25c1-44de-a3f7-14596e656663"},"vehicle_type_id":"4","last_reported":1698707186,"current_range_meters":800,"station_id":"ce4bgrh2rcd13ifvqc8g","pricing_plan_id":"free"},{"bike_id":"1d2f823c-cef6-40eb-9bb8-760b0e28e2dd","system_id":"levelo_inurba_marseille","lat":43.301939,"lon":5.366286,"is_reserved":false,"is_disabled":false,"rental_uris":{"android":"levelo://app?vid=1d2f823c-cef6-40eb-9bb8-760b0e28e2dd","ios":"levelo://app?vid=1d2f823c-cef6-40eb-9bb8-760b0e28e2dd"},"vehicle_type_id":"4","last_reported":1698707186,"current_range_meters":30800,"station_id":"ce4bgrh2rcd13ifvqc8g","pricing_plan_id":"free"},{"bike_id":"52590190-b15d-44c5-b44b-2376aad52e5b","system_id":"levelo_inurba_marseille","lat":43.322308,"lon":5.37558,"is_reserved":false,"is_disabled":false,"rental_uris":{"android":"levelo://app?vid=52590190-b15d-44c5-b44b-2376aad52e5b","ios":"levelo://app?vid=52590190-b15d-44c5-b44b-2376aad52e5b"},"vehicle_type_id":"4","last_reported":1698707186,"current_range_meters":17600,"station_id":"","pricing_plan_id":"free"},{"bike_id":"307808fd-8ab1-41b2-ade8-419b113db186","system_id":"levelo_inurba_marseille","lat":43.30802,"lon":5.381439,"is_reserved":false,"is_disabled":false,"rental_uris":{"android":"levelo://app?vid=307808fd-8ab1-41b2-ade8-419b113db186","ios":"levelo://app?vid=307808fd-8ab1-41b2-ade8-419b113db186"},"vehicle_type_id":"4","last_reported":1698707186,"current_range_meters":14400,"station_id":"ce4bgt12rcd13ifvqce0","pricing_plan_id":"free"},{"bike_id":"e3f253a1-9788-4492-938f-39b642fbd881","system_id":"levelo_inurba_marseille","lat":43.3245,"lon":5.36788,"is_reserved":false,"is_disabled":false,"rental_uris":{"android":"levelo://app?vid=e3f253a1-9788-4492-938f-39b642fbd881","ios":"levelo://app?vid=e3f253a1-9788-4492-938f-39b642fbd881"},"vehicle_type_id":"4","last_reported":1698707186,"current_range_meters":400,"station_id":"","pricing_plan_id":"free"},{"bike_id":"010306be-c008-4103-884f-0780cf2fa417","system_id":"levelo_inurba_marseille","lat":43.30459,"lon":5.37897,"is_reserved":false,"is_disabled":false,"rental_uris":{"android":"levelo://app?vid=010306be-c008-4103-884f-0780cf2fa417","ios":"levelo://app?vid=010306be-c008-4103-884f-0780cf2fa417"},"vehicle_type_id":"4","last_reported":1698707186,"current_range_meters":31200,"station_id":"ce4bgup2rcd13ifvqcn0","pricing_plan_id":"free"},{"bike_id":"d4281301-ea31-4bce-a14a-ddb164a00f05","system_id":"levelo_inurba_marseille","lat":43.304606,"lon":5.379026,"is_reserved":false,"is_disabled":false,"rental_uris":{"android":"levelo://app?vid=d4281301-ea31-4bce-a14a-ddb164a00f05","ios":"levelo://app?vid=d4281301-ea31-4bce-a14a-ddb164a00f05"},"vehicle_type_id":"4","last_reported":1698707186,"current_range_meters":28000,"station_id":"ce4bgup2rcd13ifvqcn0","pricing_plan_id":"free"},{"bike_id":"cbf6c31f-44b7-416b-a417-76354c3555d2","system_id":"levelo_inurba_marseille","lat":43.304606,"lon":5.379026,"is_reserved":false,"is_disabled":false,"rental_uris":{"android":"levelo://app?vid=cbf6c31f-44b7-416b-a417-76354c3555d2","ios":"levelo://app?vid=cbf6c31f-44b7-416b-a417-76354c3555d2"},"vehicle_type_id":"4","last_reported":1698707186,"current_range_meters":32000,"station_id":"ce4bgup2rcd13ifvqcn0","pricing_plan_id":"free"},{"bike_id":"c860aa74-0380-47be-bab3-0c74422c24d8","system_id":"levelo_inurba_marseille","lat":43.304606,"lon":5.379026,"is_reserved":false,"is_disabled":false,"rental_uris":{"android":"levelo://app?vid=c860aa74-0380-47be-bab3-0c74422c24d8","ios":"levelo://app?vid=c860aa74-0380-47be-bab3-0c74422c24d8"},"vehicle_type_id":"4","last_reported":1698707186,"current_range_meters":31200,"station_id":"ce4bgup2rcd13ifvqcn0","pricing_plan_id":"free"},{"bike_id":"e677e186-1f3e-4cf8-8fd4-0cd11286f8c2","system_id":"levelo_inurba_marseille","lat":43.304606,"lon":5.379026,"is_reserved":false,"is_disabled":false,"rental_uris":{"android":"levelo://app?vid=e677e186-1f3e-4cf8-8fd4-0cd11286f8c2","ios":"levelo://app?vid=e677e186-1f3e-4cf8-8fd4-0cd11286f8c2"},"vehicle_type_id":"4","last_reported":1698707186,"current_range_meters":24400,"station_id":"ce4bgup2rcd13ifvqcn0","pricing_plan_id":"free"},{"bike_id":"d797f1e6-f3ca-4ad7-8b56-5ed6191da53c","system_id":"levelo_inurba_marseille","lat":43.304606,"lon":5.379026,"is_reserved":false,"is_disabled":false,"rental_uris":{"android":"levelo://app?vid=d797f1e6-f3ca-4ad7-8b56-5ed6191da53c","ios":"levelo://app?vid=d797f1e6-f3ca-4ad7-8b56-5ed6191da53c"},"vehicle_type_id":"4","last_reported":1698707186,"current_range_meters":31600,"station_id":"ce4bgup2rcd13ifvqcn0","pricing_plan_id":"free"},{"bike_id":"46fc4e79-91a7-4931-acc6-c875e6fdf0de","system_id":"levelo_inurba_marseille","lat":43.302784,"lon":5.377158,"is_reserved":false,"is_disabled":false,"rental_uris":{"android":"levelo://app?vid=46fc4e79-91a7-4931-acc6-c875e6fdf0de","ios":"levelo://app?vid=46fc4e79-91a7-4931-acc6-c875e6fdf0de"},"vehicle_type_id":"4","last_reported":1698707186,"current_range_meters":28400,"station_id":"ce4bguh2rcd13ifvqcj0","pricing_plan_id":"free"},{"bike_id":"5669f47c-9cd1-4ef8-97c4-f3cdd9d7b77f","system_id":"levelo_inurba_marseille","lat":43.301429,"lon":5.37413,"is_reserved":false,"is_disabled":false,"rental_uris":{"android":"levelo://app?vid=5669f47c-9cd1-4ef8-97c4-f3cdd9d7b77f","ios":"levelo://app?vid=5669f47c-9cd1-4ef8-97c4-f3cdd9d7b77f"},"vehicle_type_id":"4","last_reported":1698707186,"current_range_meters":30000,"station_id":"ce4bgs92rcd13ifvqcc0","pricing_plan_id":"free"},{"bike_id":"427c2b69-1d50-46e4-b841-1f99f29b87d0","system_id":"levelo_inurba_marseille","lat":43.319935,"lon":5.381699,"is_reserved":false,"is_disabled":false,"rental_uris":{"android":"levelo://app?vid=427c2b69-1d50-46e4-b841-1f99f29b87d0","ios":"levelo://app?vid=427c2b69-1d50-46e4-b841-1f99f29b87d0"},"vehicle_type_id":"4","last_reported":1698707186,"current_range_meters":4000,"station_id":"ce4bhr12rcd13ifvqhpg","pricing_plan_id":"free"},{"bike_id":"5bf990a1-908b-4165-b1fc-d91e4c1fae20","system_id":"levelo_inurba_marseille","lat":43.313571,"lon":5.384829,"is_reserved":false,"is_disabled":false,"rental_uris":{"android":"levelo://app?vid=5bf990a1-908b-4165-b1fc-d91e4c1fae20","ios":"levelo://app?vid=5bf990a1-908b-4165-b1fc-d91e4c1fae20"},"vehicle_type_id":"4","last_reported":1698707186,"current_range_meters":14400,"station_id":"ce4bgt92rcd13ifvqcf0","pricing_plan_id":"free"},{"bike_id":"f18e7738-66ad-4a6c-92ff-25540beb95fb","system_id":"levelo_inurba_marseille","lat":43.313571,"lon":5.384829,"is_reserved":false,"is_disabled":false,"rental_uris":{"android":"levelo://app?vid=f18e7738-66ad-4a6c-92ff-25540beb95fb","ios":"levelo://app?vid=f18e7738-66ad-4a6c-92ff-25540beb95fb"},"vehicle_type_id":"4","last_reported":1698707186,"current_range_meters":31200,"station_id":"ce4bgt92rcd13ifvqcf0","pricing_plan_id":"free"},{"bike_id":"38c08019-e6c0-4c1a-ab98-93a0e82f4448","system_id":"levelo_inurba_marseille","lat":43.313571,"lon":5.384829,"is_reserved":false,"is_disabled":false,"rental_uris":{"android":"levelo://app?vid=38c08019-e6c0-4c1a-ab98-93a0e82f4448","ios":"levelo://app?vid=38c08019-e6c0-4c1a-ab98-93a0e82f4448"},"vehicle_type_id":"4","last_reported":1698707186,"current_range_meters":18000,"station_id":"ce4bgt92rcd13ifvqcf0","pricing_plan_id":"free"},{"bike_id":"31a6c390-abdc-4b53-9e81-f3d196ca3d02","system_id":"levelo_inurba_marseille","lat":43.300518,"lon":5.374382,"is_reserved":false,"is_disabled":false,"rental_uris":{"android":"levelo://app?vid=31a6c390-abdc-4b53-9e81-f3d196ca3d02","ios":"levelo://app?vid=31a6c390-abdc-4b53-9e81-f3d196ca3d02"},"vehicle_type_id":"4","last_reported":1698707186,"current_range_meters":0,"station_id":"","pricing_plan_id":"free"},{"bike_id":"2f29a650-f843-4fdf-9749-906f6f04b616","system_id":"levelo_inurba_marseille","lat":43.299367,"lon":5.365274,"is_reserved":false,"is_disabled":false,"rental_uris":{"android":"levelo://app?vid=2f29a650-f843-4fdf-9749-906f6f04b616","ios":"levelo://app?vid=2f29a650-f843-4fdf-9749-906f6f04b616"},"vehicle_type_id":"4","last_reported":1698707186,"current_range_meters":0,"station_id":"ce4bgm92rcd13ifvqbr0","pricing_plan_id":"free"},{"bike_id":"4f1ce335-2245-4999-8ed7-b7911f491dab","system_id":"levelo_inurba_marseille","lat":43.299341,"lon":5.365428,"is_reserved":false,"is_disabled":false,"rental_uris":{"android":"levelo://app?vid=4f1ce335-2245-4999-8ed7-b7911f491dab","ios":"levelo://app?vid=4f1ce335-2245-4999-8ed7-b7911f491dab"},"vehicle_type_id":"4","last_reported":1698707186,"current_range_meters":23200,"station_id":"ce4bgm92rcd13ifvqbr0","pricing_plan_id":"free"},{"bike_id":"e494c90a-6af3-4a60-80e1-413231a9d9d7","system_id":"levelo_inurba_marseille","lat":43.29934,"lon":5.36529,"is_reserved":false,"is_disabled":false,"rental_uris":{"android":"levelo://app?vid=e494c90a-6af3-4a60-80e1-413231a9d9d7","ios":"levelo://app?vid=e494c90a-6af3-4a60-80e1-413231a9d9d7"},"vehicle_type_id":"4","last_reported":1698707186,"current_range_meters":24800,"station_id":"ce4bgm92rcd13ifvqbr0","pricing_plan_id":"free"},{"bike_id":"71d0a016-86fc-4389-ae55-8e3b4db06216","system_id":"levelo_inurba_marseille","lat":43.299316,"lon":5.365408,"is_reserved":false,"is_disabled":false,"rental_uris":{"android":"levelo://app?vid=71d0a016-86fc-4389-ae55-8e3b4db06216","ios":"levelo://app?vid=71d0a016-86fc-4389-ae55-8e3b4db06216"},"vehicle_type_id":"4","last_reported":1698707186,"current_range_meters":17200,"station_id":"ce4bgm92rcd13ifvqbr0","pricing_plan_id":"free"},{"bike_id":"2e1c11c0-faac-4533-8713-a1d114d16e8e","system_id":"levelo_inurba_marseille","lat":43.314351,"lon":5.385511,"is_reserved":false,"is_disabled":false,"rental_uris":{"android":"levelo://app?vid=2e1c11c0-faac-4533-8713-a1d114d16e8e","ios":"levelo://app?vid=2e1c11c0-faac-4533-8713-a1d114d16e8e"},"vehicle_type_id":"4","last_reported":1698707186,"current_range_meters":10800,"station_id":"","pricing_plan_id":"free"},{"bike_id":"5ba66772-20b6-408d-a6c3-0df1cd4bb678","system_id":"levelo_inurba_marseille","lat":43.3264,"lon":5.367334,"is_reserved":false,"is_disabled":false,"rental_uris":{"android":"levelo://app?vid=5ba66772-20b6-408d-a6c3-0df1cd4bb678","ios":"levelo://app?vid=5ba66772-20b6-408d-a6c3-0df1cd4bb678"},"vehicle_type_id":"4","last_reported":1698707186,"current_range_meters":8400,"station_id":"","pricing_plan_id":"free"},{"bike_id":"6da9cb0d-7911-41f8-b708-535a0e5a6752","system_id":"levelo_inurba_marseille","lat":43.327242,"lon":5.367028,"is_reserved":false,"is_disabled":false,"rental_uris":{"android":"levelo://app?vid=6da9cb0d-7911-41f8-b708-535a0e5a6752","ios":"levelo://app?vid=6da9cb0d-7911-41f8-b708-535a0e5a6752"},"vehicle_type_id":"4","last_reported":1698707186,"current_range_meters":17600,"station_id":"","pricing_plan_id":"free"},{"bike_id":"f601f233-5e65-44a7-a1d4-6b8ea59bb212","system_id":"levelo_inurba_marseille","lat":43.305364,"lon":5.384119,"is_reserved":false,"is_disabled":false,"rental_uris":{"android":"levelo://app?vid=f601f233-5e65-44a7-a1d4-6b8ea59bb212","ios":"levelo://app?vid=f601f233-5e65-44a7-a1d4-6b8ea59bb212"},"vehicle_type_id":"4","last_reported":1698707186,"current_range_meters":12800,"station_id":"ce4bgg92rcd13ifvqb30","pricing_plan_id":"free"},{"bike_id":"8ff8c4a1-4c33-46bc-8065-f091f5c9ec55","system_id":"levelo_inurba_marseille","lat":43.305364,"lon":5.384119,"is_reserved":false,"is_disabled":false,"rental_uris":{"android":"levelo://app?vid=8ff8c4a1-4c33-46bc-8065-f091f5c9ec55","ios":"levelo://app?vid=8ff8c4a1-4c33-46bc-8065-f091f5c9ec55"},"vehicle_type_id":"4","last_reported":1698707186,"current_range_meters":28000,"station_id":"ce4bgg92rcd13ifvqb30","pricing_plan_id":"free"},{"bike_id":"4c6dd693-f840-4d24-8a4b-a0962668a856","system_id":"levelo_inurba_marseille","lat":43.299243,"lon":5.374807,"is_reserved":false,"is_disabled":false,"rental_uris":{"android":"levelo://app?vid=4c6dd693-f840-4d24-8a4b-a0962668a856","ios":"levelo://app?vid=4c6dd693-f840-4d24-8a4b-a0962668a856"},"vehicle_type_id":"4","last_reported":1698707186,"current_range_meters":26800,"station_id":"ce4bgjh2rcd13ifvqbg0","pricing_plan_id":"free"},{"bike_id":"80cef56a-710f-4386-8da7-2a2b2eb9782d","system_id":"levelo_inurba_marseille","lat":43.311722,"lon":5.387247,"is_reserved":false,"is_disabled":false,"rental_uris":{"android":"levelo://app?vid=80cef56a-710f-4386-8da7-2a2b2eb9782d","ios":"levelo://app?vid=80cef56a-710f-4386-8da7-2a2b2eb9782d"},"vehicle_type_id":"4","last_reported":1698707186,"current_range_meters":29600,"station_id":"ce4bgv12rcd13ifvqcp0","pricing_plan_id":"free"},{"bike_id":"cb519998-acb7-44d8-9c2f-589ab2b1865f","system_id":"levelo_inurba_marseille","lat":43.299243,"lon":5.37481,"is_reserved":false,"is_disabled":false,"rental_uris":{"android":"levelo://app?vid=cb519998-acb7-44d8-9c2f-589ab2b1865f","ios":"levelo://app?vid=cb519998-acb7-44d8-9c2f-589ab2b1865f"},"vehicle_type_id":"4","last_reported":1698707186,"current_range_meters":18000,"station_id":"ce4bgjh2rcd13ifvqbg0","pricing_plan_id":"free"},{"bike_id":"c522bbbb-67c5-40a0-9102-442bf1076337","system_id":"levelo_inurba_marseille","lat":43.322872,"lon":5.382756,"is_reserved":false,"is_disabled":false,"rental_uris":{"android":"levelo://app?vid=c522bbbb-67c5-40a0-9102-442bf1076337","ios":"levelo://app?vid=c522bbbb-67c5-40a0-9102-442bf1076337"},"vehicle_type_id":"4","last_reported":1698707186,"current_range_meters":29200,"station_id":"ce4bhr12rcd13ifvqhqg","pricing_plan_id":"free"},{"bike_id":"791947d5-c9ad-486d-afa3-b3a19476d1f6","system_id":"levelo_inurba_marseille","lat":43.322872,"lon":5.382756,"is_reserved":false,"is_disabled":false,"rental_uris":{"android":"levelo://app?vid=791947d5-c9ad-486d-afa3-b3a19476d1f6","ios":"levelo://app?vid=791947d5-c9ad-486d-afa3-b3a19476d1f6"},"vehicle_type_id":"4","last_reported":1698707186,"current_range_meters":31200,"station_id":"ce4bhr12rcd13ifvqhqg","pricing_plan_id":"free"},{"bike_id":"5d47b174-f627-4ac5-aa1b-f082327b8ceb","system_id":"levelo_inurba_marseille","lat":43.322872,"lon":5.382756,"is_reserved":false,"is_disabled":false,"rental_uris":{"android":"levelo://app?vid=5d47b174-f627-4ac5-aa1b-f082327b8ceb","ios":"levelo://app?vid=5d47b174-f627-4ac5-aa1b-f082327b8ceb"},"vehicle_type_id":"4","last_reported":1698707186,"current_range_meters":29200,"station_id":"ce4bhr12rcd13ifvqhqg","pricing_plan_id":"free"},{"bike_id":"2bf09692-7151-4aba-9fa7-8ce1d6106004","system_id":"levelo_inurba_marseille","lat":43.328303,"lon":5.366873,"is_reserved":false,"is_disabled":false,"rental_uris":{"android":"levelo://app?vid=2bf09692-7151-4aba-9fa7-8ce1d6106004","ios":"levelo://app?vid=2bf09692-7151-4aba-9fa7-8ce1d6106004"},"vehicle_type_id":"4","last_reported":1698707186,"current_range_meters":3600,"station_id":"","pricing_plan_id":"free"},{"bike_id":"95de5542-6169-4cc9-ac6c-3d5eadba97c0","system_id":"levelo_inurba_marseille","lat":43.32037,"lon":5.38571,"is_reserved":false,"is_disabled":false,"rental_uris":{"android":"levelo://app?vid=95de5542-6169-4cc9-ac6c-3d5eadba97c0","ios":"levelo://app?vid=95de5542-6169-4cc9-ac6c-3d5eadba97c0"},"vehicle_type_id":"4","last_reported":1698707186,"current_range_meters":30400,"station_id":"","pricing_plan_id":"free"},{"bike_id":"dd1c0b20-019a-4f88-ae15-bb2c3eed70ed","system_id":"levelo_inurba_marseille","lat":43.319026,"lon":5.387847,"is_reserved":false,"is_disabled":false,"rental_uris":{"android":"levelo://app?vid=dd1c0b20-019a-4f88-ae15-bb2c3eed70ed","ios":"levelo://app?vid=dd1c0b20-019a-4f88-ae15-bb2c3eed70ed"},"vehicle_type_id":"4","last_reported":1698707186,"current_range_meters":0,"station_id":"","pricing_plan_id":"free"},{"bike_id":"087c0f7f-1494-4baa-942b-2070f9e2a24e","system_id":"levelo_inurba_marseille","lat":43.295809,"lon":5.367383,"is_reserved":false,"is_disabled":false,"rental_uris":{"android":"levelo://app?vid=087c0f7f-1494-4baa-942b-2070f9e2a24e","ios":"levelo://app?vid=087c0f7f-1494-4baa-942b-2070f9e2a24e"},"vehicle_type_id":"4","last_reported":1698707186,"current_range_meters":15200,"station_id":"ce4bgph2rcd13ifvqc2g","pricing_plan_id":"free"},{"bike_id":"f3d0381f-7a2d-409e-a12f-bd3d9095653d","system_id":"levelo_inurba_marseille","lat":43.329673,"lon":5.365468,"is_reserved":false,"is_disabled":false,"rental_uris":{"android":"levelo://app?vid=f3d0381f-7a2d-409e-a12f-bd3d9095653d","ios":"levelo://app?vid=f3d0381f-7a2d-409e-a12f-bd3d9095653d"},"vehicle_type_id":"4","last_reported":1698707186,"current_range_meters":0,"station_id":"","pricing_plan_id":"free"},{"bike_id":"5e8f462a-087a-4277-9c83-b2a2ecc31fd6","system_id":"levelo_inurba_marseille","lat":43.296921,"lon":5.376579,"is_reserved":false,"is_disabled":false,"rental_uris":{"android":"levelo://app?vid=5e8f462a-087a-4277-9c83-b2a2ecc31fd6","ios":"levelo://app?vid=5e8f462a-087a-4277-9c83-b2a2ecc31fd6"},"vehicle_type_id":"4","last_reported":1698707186,"current_range_meters":31200,"station_id":"ce4bgkh2rcd13ifvqbl0","pricing_plan_id":"free"},{"bike_id":"83c4e2dd-947b-493a-98ee-815c0e82b043","system_id":"levelo_inurba_marseille","lat":43.296921,"lon":5.376579,"is_reserved":false,"is_disabled":false,"rental_uris":{"android":"levelo://app?vid=83c4e2dd-947b-493a-98ee-815c0e82b043","ios":"levelo://app?vid=83c4e2dd-947b-493a-98ee-815c0e82b043"},"vehicle_type_id":"4","last_reported":1698707186,"current_range_meters":18400,"station_id":"ce4bgkh2rcd13ifvqbl0","pricing_plan_id":"free"},{"bike_id":"67bb7dbe-50ea-4249-bc98-d0ad4814b4a6","system_id":"levelo_inurba_marseille","lat":43.322119,"lon":5.386788,"is_reserved":false,"is_disabled":false,"rental_uris":{"android":"levelo://app?vid=67bb7dbe-50ea-4249-bc98-d0ad4814b4a6","ios":"levelo://app?vid=67bb7dbe-50ea-4249-bc98-d0ad4814b4a6"},"vehicle_type_id":"4","last_reported":1698707186,"current_range_meters":29600,"station_id":"","pricing_plan_id":"free"},{"bike_id":"2c70c727-81b3-497a-87e0-7488ff42b390","system_id":"levelo_inurba_marseille","lat":43.309589,"lon":5.390258,"is_reserved":false,"is_disabled":false,"rental_uris":{"android":"levelo://app?vid=2c70c727-81b3-497a-87e0-7488ff42b390","ios":"levelo://app?vid=2c70c727-81b3-497a-87e0-7488ff42b390"},"vehicle_type_id":"4","last_reported":1698707186,"current_range_meters":27600,"station_id":"ce4bgup2rcd13ifvqco0","pricing_plan_id":"free"},{"bike_id":"1985fa5e-aae8-4dcf-979c-ee0ca18522fd","system_id":"levelo_inurba_marseille","lat":43.296935,"lon":5.376544,"is_reserved":false,"is_disabled":false,"rental_uris":{"android":"levelo://app?vid=1985fa5e-aae8-4dcf-979c-ee0ca18522fd","ios":"levelo://app?vid=1985fa5e-aae8-4dcf-979c-ee0ca18522fd"},"vehicle_type_id":"4","last_reported":1698707186,"current_range_meters":14400,"station_id":"ce4bgkh2rcd13ifvqbl0","pricing_plan_id":"free"},{"bike_id":"caf0487b-dccb-4934-a8df-7b6dc3ecb056","system_id":"levelo_inurba_marseille","lat":43.317557,"lon":5.390173,"is_reserved":false,"is_disabled":false,"rental_uris":{"android":"levelo://app?vid=caf0487b-dccb-4934-a8df-7b6dc3ecb056","ios":"levelo://app?vid=caf0487b-dccb-4934-a8df-7b6dc3ecb056"},"vehicle_type_id":"4","last_reported":1698707186,"current_range_meters":11200,"station_id":"ce4bhqp2rcd13ifvqhng","pricing_plan_id":"free"},{"bike_id":"a5615430-2f92-482a-ab41-c926b4f7d0f8","system_id":"levelo_inurba_marseille","lat":43.317557,"lon":5.390173,"is_reserved":false,"is_disabled":false,"rental_uris":{"android":"levelo://app?vid=a5615430-2f92-482a-ab41-c926b4f7d0f8","ios":"levelo://app?vid=a5615430-2f92-482a-ab41-c926b4f7d0f8"},"vehicle_type_id":"4","last_reported":1698707186,"current_range_meters":31200,"station_id":"ce4bhqp2rcd13ifvqhng","pricing_plan_id":"free"},{"bike_id":"63885597-301e-4da6-95c1-6cec64ecc5e0","system_id":"levelo_inurba_marseille","lat":43.292663,"lon":5.376389,"is_reserved":false,"is_disabled":false,"rental_uris":{"android":"levelo://app?vid=63885597-301e-4da6-95c1-6cec64ecc5e0","ios":"levelo://app?vid=63885597-301e-4da6-95c1-6cec64ecc5e0"},"vehicle_type_id":"4","last_reported":1698707186,"current_range_meters":0,"station_id":"ce4bgi12rcd13ifvqb80","pricing_plan_id":"free"},{"bike_id":"dbaaf5af-7e53-48c7-8f34-da4bb8c54828","system_id":"levelo_inurba_marseille","lat":43.304274,"lon":5.388873,"is_reserved":false,"is_disabled":false,"rental_uris":{"android":"levelo://app?vid=dbaaf5af-7e53-48c7-8f34-da4bb8c54828","ios":"levelo://app?vid=dbaaf5af-7e53-48c7-8f34-da4bb8c54828"},"vehicle_type_id":"4","last_reported":1698707186,"current_range_meters":24000,"station_id":"ce4bgk12rcd13ifvqbi0","pricing_plan_id":"free"},{"bike_id":"5fd9a8de-9400-4f40-9202-62af804b64e7","system_id":"levelo_inurba_marseille","lat":43.29573,"lon":5.37525,"is_reserved":false,"is_disabled":false,"rental_uris":{"android":"levelo://app?vid=5fd9a8de-9400-4f40-9202-62af804b64e7","ios":"levelo://app?vid=5fd9a8de-9400-4f40-9202-62af804b64e7"},"vehicle_type_id":"4","last_reported":1698707186,"current_range_meters":30000,"station_id":"ce4bgh92rcd13ifvqb50","pricing_plan_id":"free"},{"bike_id":"5dee6746-bb80-4497-8d27-0cbc0b09573c","system_id":"levelo_inurba_marseille","lat":43.296207,"lon":5.377123,"is_reserved":false,"is_disabled":false,"rental_uris":{"android":"levelo://app?vid=5dee6746-bb80-4497-8d27-0cbc0b09573c","ios":"levelo://app?vid=5dee6746-bb80-4497-8d27-0cbc0b09573c"},"vehicle_type_id":"4","last_reported":1698707186,"current_range_meters":28800,"station_id":"ce4bgi92rcd13ifvqb90","pricing_plan_id":"free"},{"bike_id":"3cb199f0-737c-45aa-8d48-a3dfd8174255","system_id":"levelo_inurba_marseille","lat":43.295379,"lon":5.374897,"is_reserved":false,"is_disabled":false,"rental_uris":{"android":"levelo://app?vid=3cb199f0-737c-45aa-8d48-a3dfd8174255","ios":"levelo://app?vid=3cb199f0-737c-45aa-8d48-a3dfd8174255"},"vehicle_type_id":"4","last_reported":1698707186,"current_range_meters":28000,"station_id":"ce4bgkp2rcd13ifvqbmg","pricing_plan_id":"free"},{"bike_id":"10ef47a8-1621-481e-98f1-5d88edc1d726","system_id":"levelo_inurba_marseille","lat":43.29529,"lon":5.374955,"is_reserved":false,"is_disabled":false,"rental_uris":{"android":"levelo://app?vid=10ef47a8-1621-481e-98f1-5d88edc1d726","ios":"levelo://app?vid=10ef47a8-1621-481e-98f1-5d88edc1d726"},"vehicle_type_id":"4","last_reported":1698707186,"current_range_meters":29200,"station_id":"","pricing_plan_id":"free"},{"bike_id":"1f580447-7b2c-4630-9a51-33e28281b372","system_id":"levelo_inurba_marseille","lat":43.329065,"lon":5.379814,"is_reserved":false,"is_disabled":false,"rental_uris":{"android":"levelo://app?vid=1f580447-7b2c-4630-9a51-33e28281b372","ios":"levelo://app?vid=1f580447-7b2c-4630-9a51-33e28281b372"},"vehicle_type_id":"4","last_reported":1698707186,"current_range_meters":31200,"station_id":"","pricing_plan_id":"free"},{"bike_id":"fffdb89f-d0fa-48b2-8a15-e8865b4139a1","system_id":"levelo_inurba_marseille","lat":43.32367,"lon":5.388836,"is_reserved":false,"is_disabled":false,"rental_uris":{"android":"levelo://app?vid=fffdb89f-d0fa-48b2-8a15-e8865b4139a1","ios":"levelo://app?vid=fffdb89f-d0fa-48b2-8a15-e8865b4139a1"},"vehicle_type_id":"4","last_reported":1698707186,"current_range_meters":29600,"station_id":"ce4bhqp2rcd13ifvqhog","pricing_plan_id":"free"},{"bike_id":"f3d6307b-7601-45cd-b002-94a476fea003","system_id":"levelo_inurba_marseille","lat":43.32365,"lon":5.38882,"is_reserved":false,"is_disabled":false,"rental_uris":{"android":"levelo://app?vid=f3d6307b-7601-45cd-b002-94a476fea003","ios":"levelo://app?vid=f3d6307b-7601-45cd-b002-94a476fea003"},"vehicle_type_id":"4","last_reported":1698707186,"current_range_meters":13200,"station_id":"ce4bhqp2rcd13ifvqhog","pricing_plan_id":"free"},{"bike_id":"737f75f0-640b-4c36-aa29-c516475cabbb","system_id":"levelo_inurba_marseille","lat":43.32367,"lon":5.388836,"is_reserved":false,"is_disabled":false,"rental_uris":{"android":"levelo://app?vid=737f75f0-640b-4c36-aa29-c516475cabbb","ios":"levelo://app?vid=737f75f0-640b-4c36-aa29-c516475cabbb"},"vehicle_type_id":"4","last_reported":1698707186,"current_range_meters":4800,"station_id":"ce4bhqp2rcd13ifvqhog","pricing_plan_id":"free"},{"bike_id":"6d795555-d637-4c69-907b-87ca843b9486","system_id":"levelo_inurba_marseille","lat":43.32367,"lon":5.388836,"is_reserved":false,"is_disabled":false,"rental_uris":{"android":"levelo://app?vid=6d795555-d637-4c69-907b-87ca843b9486","ios":"levelo://app?vid=6d795555-d637-4c69-907b-87ca843b9486"},"vehicle_type_id":"4","last_reported":1698707186,"current_range_meters":30800,"station_id":"ce4bhqp2rcd13ifvqhog","pricing_plan_id":"free"},{"bike_id":"95f88435-e6d4-4be3-a0fe-eb83282d635d","system_id":"levelo_inurba_marseille","lat":43.29298,"lon":5.37453,"is_reserved":false,"is_disabled":false,"rental_uris":{"android":"levelo://app?vid=95f88435-e6d4-4be3-a0fe-eb83282d635d","ios":"levelo://app?vid=95f88435-e6d4-4be3-a0fe-eb83282d635d"},"vehicle_type_id":"4","last_reported":1698707186,"current_range_meters":0,"station_id":"ce4bgi12rcd13ifvqb70","pricing_plan_id":"free"},{"bike_id":"0134a282-8865-469d-90b5-931eb037cf8e","system_id":"levelo_inurba_marseille","lat":43.30592,"lon":5.39358,"is_reserved":false,"is_disabled":false,"rental_uris":{"android":"levelo://app?vid=0134a282-8865-469d-90b5-931eb037cf8e","ios":"levelo://app?vid=0134a282-8865-469d-90b5-931eb037cf8e"},"vehicle_type_id":"4","last_reported":1698707186,"current_range_meters":8000,"station_id":"ce4bh0p2rcd13ifvqd80","pricing_plan_id":"free"},{"bike_id":"e6f813cc-f52c-43f0-b18d-798b68ea9694","system_id":"levelo_inurba_marseille","lat":43.302993,"lon":5.392055,"is_reserved":false,"is_disabled":false,"rental_uris":{"android":"levelo://app?vid=e6f813cc-f52c-43f0-b18d-798b68ea9694","ios":"levelo://app?vid=e6f813cc-f52c-43f0-b18d-798b68ea9694"},"vehicle_type_id":"4","last_reported":1698707186,"current_range_meters":0,"station_id":"ce4bgkh2rcd13ifvqbk0","pricing_plan_id":"free"},{"bike_id":"35a97e6a-7741-42cb-bf9d-ce8822be2d08","system_id":"levelo_inurba_marseille","lat":43.303002,"lon":5.392142,"is_reserved":false,"is_disabled":false,"rental_uris":{"android":"levelo://app?vid=35a97e6a-7741-42cb-bf9d-ce8822be2d08","ios":"levelo://app?vid=35a97e6a-7741-42cb-bf9d-ce8822be2d08"},"vehicle_type_id":"4","last_reported":1698707186,"current_range_meters":24800,"station_id":"ce4bgkh2rcd13ifvqbk0","pricing_plan_id":"free"},{"bike_id":"28dbe3df-9f09-45c4-a93f-b8045ba8712a","system_id":"levelo_inurba_marseille","lat":43.300852,"lon":5.390859,"is_reserved":false,"is_disabled":false,"rental_uris":{"android":"levelo://app?vid=28dbe3df-9f09-45c4-a93f-b8045ba8712a","ios":"levelo://app?vid=28dbe3df-9f09-45c4-a93f-b8045ba8712a"},"vehicle_type_id":"4","last_reported":1698707186,"current_range_meters":18800,"station_id":"ce4bh192rcd13ifvqdb0","pricing_plan_id":"free"},{"bike_id":"f8ab5bd6-6e33-4998-9172-55e872e68391","system_id":"levelo_inurba_marseille","lat":43.30085,"lon":5.390856,"is_reserved":false,"is_disabled":false,"rental_uris":{"android":"levelo://app?vid=f8ab5bd6-6e33-4998-9172-55e872e68391","ios":"levelo://app?vid=f8ab5bd6-6e33-4998-9172-55e872e68391"},"vehicle_type_id":"4","last_reported":1698707186,"current_range_meters":22800,"station_id":"ce4bh192rcd13ifvqdb0","pricing_plan_id":"free"},{"bike_id":"5b9612f8-b23b-4cf7-b4a9-9fc859b2d689","system_id":"levelo_inurba_marseille","lat":43.298764,"lon":5.388973,"is_reserved":false,"is_disabled":false,"rental_uris":{"android":"levelo://app?vid=5b9612f8-b23b-4cf7-b4a9-9fc859b2d689","ios":"levelo://app?vid=5b9612f8-b23b-4cf7-b4a9-9fc859b2d689"},"vehicle_type_id":"4","last_reported":1698707186,"current_range_meters":6800,"station_id":"ce4bh392rcd13ifvqdl0","pricing_plan_id":"free"},{"bike_id":"0e8233d2-0d57-470f-8c07-e9f753046a4f","system_id":"levelo_inurba_marseille","lat":43.33217,"lon":5.3788,"is_reserved":false,"is_disabled":false,"rental_uris":{"android":"levelo://app?vid=0e8233d2-0d57-470f-8c07-e9f753046a4f","ios":"levelo://app?vid=0e8233d2-0d57-470f-8c07-e9f753046a4f"},"vehicle_type_id":"4","last_reported":1698707186,"current_range_meters":28400,"station_id":"","pricing_plan_id":"free"},{"bike_id":"7ba6acc7-86b6-4359-b878-6bc7770593cb","system_id":"levelo_inurba_marseille","lat":43.298764,"lon":5.388973,"is_reserved":false,"is_disabled":false,"rental_uris":{"android":"levelo://app?vid=7ba6acc7-86b6-4359-b878-6bc7770593cb","ios":"levelo://app?vid=7ba6acc7-86b6-4359-b878-6bc7770593cb"},"vehicle_type_id":"4","last_reported":1698707186,"current_range_meters":28800,"station_id":"ce4bh392rcd13ifvqdl0","pricing_plan_id":"free"},{"bike_id":"213b3233-998e-4ed3-8622-f6d17cbf37e7","system_id":"levelo_inurba_marseille","lat":43.298764,"lon":5.388973,"is_reserved":false,"is_disabled":false,"rental_uris":{"android":"levelo://app?vid=213b3233-998e-4ed3-8622-f6d17cbf37e7","ios":"levelo://app?vid=213b3233-998e-4ed3-8622-f6d17cbf37e7"},"vehicle_type_id":"4","last_reported":1698707186,"current_range_meters":27200,"station_id":"ce4bh392rcd13ifvqdl0","pricing_plan_id":"free"},{"bike_id":"c10da6c2-beda-4ee6-b96c-ba5d86476fb1","system_id":"levelo_inurba_marseille","lat":43.32798,"lon":5.38801,"is_reserved":false,"is_disabled":false,"rental_uris":{"android":"levelo://app?vid=c10da6c2-beda-4ee6-b96c-ba5d86476fb1","ios":"levelo://app?vid=c10da6c2-beda-4ee6-b96c-ba5d86476fb1"},"vehicle_type_id":"4","last_reported":1698707186,"current_range_meters":12800,"station_id":"","pricing_plan_id":"free"},{"bike_id":"e7c17355-a7f9-4f3d-bb3a-24ec1b044267","system_id":"levelo_inurba_marseille","lat":43.309047,"lon":5.396551,"is_reserved":false,"is_disabled":false,"rental_uris":{"android":"levelo://app?vid=e7c17355-a7f9-4f3d-bb3a-24ec1b044267","ios":"levelo://app?vid=e7c17355-a7f9-4f3d-bb3a-24ec1b044267"},"vehicle_type_id":"4","last_reported":1698707186,"current_range_meters":18800,"station_id":"ce4bh012rcd13ifvqcv0","pricing_plan_id":"free"},{"bike_id":"8c4393f2-4a7a-47cc-8cce-5011fb80270f","system_id":"levelo_inurba_marseille","lat":43.309038,"lon":5.396546,"is_reserved":false,"is_disabled":false,"rental_uris":{"android":"levelo://app?vid=8c4393f2-4a7a-47cc-8cce-5011fb80270f","ios":"levelo://app?vid=8c4393f2-4a7a-47cc-8cce-5011fb80270f"},"vehicle_type_id":"4","last_reported":1698707186,"current_range_meters":22400,"station_id":"ce4bh012rcd13ifvqcv0","pricing_plan_id":"free"},{"bike_id":"13bf13c2-cf44-4bd6-959e-b5d8f27a290e","system_id":"levelo_inurba_marseille","lat":43.309038,"lon":5.396546,"is_reserved":false,"is_disabled":false,"rental_uris":{"android":"levelo://app?vid=13bf13c2-cf44-4bd6-959e-b5d8f27a290e","ios":"levelo://app?vid=13bf13c2-cf44-4bd6-959e-b5d8f27a290e"},"vehicle_type_id":"4","last_reported":1698707186,"current_range_meters":18800,"station_id":"ce4bh012rcd13ifvqcv0","pricing_plan_id":"free"},{"bike_id":"c85ac39a-b31a-408a-be73-f9e5f6f4203e","system_id":"levelo_inurba_marseille","lat":43.31329,"lon":5.39688,"is_reserved":false,"is_disabled":false,"rental_uris":{"android":"levelo://app?vid=c85ac39a-b31a-408a-be73-f9e5f6f4203e","ios":"levelo://app?vid=c85ac39a-b31a-408a-be73-f9e5f6f4203e"},"vehicle_type_id":"4","last_reported":1698707186,"current_range_meters":31200,"station_id":"ce4bgvp2rcd13ifvqcu0","pricing_plan_id":"free"},{"bike_id":"1ba4d4a7-ea12-4a4e-b668-7a0041b94ae8","system_id":"levelo_inurba_marseille","lat":43.2919,"lon":5.35795,"is_reserved":false,"is_disabled":false,"rental_uris":{"android":"levelo://app?vid=1ba4d4a7-ea12-4a4e-b668-7a0041b94ae8","ios":"levelo://app?vid=1ba4d4a7-ea12-4a4e-b668-7a0041b94ae8"},"vehicle_type_id":"4","last_reported":1698707186,"current_range_meters":19600,"station_id":"ce4bhb12rcd13ifvqel0","pricing_plan_id":"free"},{"bike_id":"6028bf03-d125-431a-a3fc-1575f1b1b927","system_id":"levelo_inurba_marseille","lat":43.309047,"lon":5.396551,"is_reserved":false,"is_disabled":false,"rental_uris":{"android":"levelo://app?vid=6028bf03-d125-431a-a3fc-1575f1b1b927","ios":"levelo://app?vid=6028bf03-d125-431a-a3fc-1575f1b1b927"},"vehicle_type_id":"4","last_reported":1698707186,"current_range_meters":30000,"station_id":"ce4bh012rcd13ifvqcv0","pricing_plan_id":"free"},{"bike_id":"9ff9881c-aaec-48ea-acf6-b07b855681e1","system_id":"levelo_inurba_marseille","lat":43.3133,"lon":5.39696,"is_reserved":false,"is_disabled":false,"rental_uris":{"android":"levelo://app?vid=9ff9881c-aaec-48ea-acf6-b07b855681e1","ios":"levelo://app?vid=9ff9881c-aaec-48ea-acf6-b07b855681e1"},"vehicle_type_id":"4","last_reported":1698707186,"current_range_meters":0,"station_id":"ce4bgvp2rcd13ifvqcu0","pricing_plan_id":"free"},{"bike_id":"f6b299d0-efc5-43c7-96ae-3e9bfe9e0ec1","system_id":"levelo_inurba_marseille","lat":43.309038,"lon":5.396546,"is_reserved":false,"is_disabled":false,"rental_uris":{"android":"levelo://app?vid=f6b299d0-efc5-43c7-96ae-3e9bfe9e0ec1","ios":"levelo://app?vid=f6b299d0-efc5-43c7-96ae-3e9bfe9e0ec1"},"vehicle_type_id":"4","last_reported":1698707186,"current_range_meters":15600,"station_id":"ce4bh012rcd13ifvqcv0","pricing_plan_id":"free"},{"bike_id":"8fd9317e-d4c1-4339-a95b-017490001285","system_id":"levelo_inurba_marseille","lat":43.29188,"lon":5.35788,"is_reserved":false,"is_disabled":false,"rental_uris":{"android":"levelo://app?vid=8fd9317e-d4c1-4339-a95b-017490001285","ios":"levelo://app?vid=8fd9317e-d4c1-4339-a95b-017490001285"},"vehicle_type_id":"4","last_reported":1698707186,"current_range_meters":19200,"station_id":"ce4bhb12rcd13ifvqel0","pricing_plan_id":"free"},{"bike_id":"5bf0406e-3fe5-41a0-abed-c86e4dabef25","system_id":"levelo_inurba_marseille","lat":43.309038,"lon":5.396546,"is_reserved":false,"is_disabled":false,"rental_uris":{"android":"levelo://app?vid=5bf0406e-3fe5-41a0-abed-c86e4dabef25","ios":"levelo://app?vid=5bf0406e-3fe5-41a0-abed-c86e4dabef25"},"vehicle_type_id":"4","last_reported":1698707186,"current_range_meters":19600,"station_id":"ce4bh012rcd13ifvqcv0","pricing_plan_id":"free"},{"bike_id":"712bc517-c3a0-45bc-883b-064193c1c6b1","system_id":"levelo_inurba_marseille","lat":43.309038,"lon":5.396546,"is_reserved":false,"is_disabled":false,"rental_uris":{"android":"levelo://app?vid=712bc517-c3a0-45bc-883b-064193c1c6b1","ios":"levelo://app?vid=712bc517-c3a0-45bc-883b-064193c1c6b1"},"vehicle_type_id":"4","last_reported":1698707186,"current_range_meters":2000,"station_id":"ce4bh012rcd13ifvqcv0","pricing_plan_id":"free"},{"bike_id":"5d419f5d-0da3-4c72-a6c5-fe0ffcdbf267","system_id":"levelo_inurba_marseille","lat":43.29529,"lon":5.385581,"is_reserved":false,"is_disabled":false,"rental_uris":{"android":"levelo://app?vid=5d419f5d-0da3-4c72-a6c5-fe0ffcdbf267","ios":"levelo://app?vid=5d419f5d-0da3-4c72-a6c5-fe0ffcdbf267"},"vehicle_type_id":"4","last_reported":1698707186,"current_range_meters":19200,"station_id":"ce4bgih2rcd13ifvqba0","pricing_plan_id":"free"},{"bike_id":"659f3916-2f2f-4685-a364-8b7a5babef32","system_id":"levelo_inurba_marseille","lat":43.290624,"lon":5.359245,"is_reserved":false,"is_disabled":false,"rental_uris":{"android":"levelo://app?vid=659f3916-2f2f-4685-a364-8b7a5babef32","ios":"levelo://app?vid=659f3916-2f2f-4685-a364-8b7a5babef32"},"vehicle_type_id":"4","last_reported":1698707186,"current_range_meters":28400,"station_id":"ce4bha92rcd13ifvqeg0","pricing_plan_id":"free"},{"bike_id":"f7df5467-6fea-490c-87f7-75a552f42e94","system_id":"levelo_inurba_marseille","lat":43.290624,"lon":5.359245,"is_reserved":false,"is_disabled":false,"rental_uris":{"android":"levelo://app?vid=f7df5467-6fea-490c-87f7-75a552f42e94","ios":"levelo://app?vid=f7df5467-6fea-490c-87f7-75a552f42e94"},"vehicle_type_id":"4","last_reported":1698707186,"current_range_meters":24000,"station_id":"ce4bha92rcd13ifvqeg0","pricing_plan_id":"free"},{"bike_id":"5edb25c5-c7b1-4068-96ec-1d27eb3f266a","system_id":"levelo_inurba_marseille","lat":43.29509,"lon":5.38709,"is_reserved":false,"is_disabled":false,"rental_uris":{"android":"levelo://app?vid=5edb25c5-c7b1-4068-96ec-1d27eb3f266a","ios":"levelo://app?vid=5edb25c5-c7b1-4068-96ec-1d27eb3f266a"},"vehicle_type_id":"4","last_reported":1698707186,"current_range_meters":0,"station_id":"","pricing_plan_id":"free"},{"bike_id":"2fed4c2c-26a0-4ce6-aad7-2a383f8c8550","system_id":"levelo_inurba_marseille","lat":43.290631,"lon":5.359244,"is_reserved":false,"is_disabled":false,"rental_uris":{"android":"levelo://app?vid=2fed4c2c-26a0-4ce6-aad7-2a383f8c8550","ios":"levelo://app?vid=2fed4c2c-26a0-4ce6-aad7-2a383f8c8550"},"vehicle_type_id":"4","last_reported":1698707186,"current_range_meters":23200,"station_id":"ce4bha92rcd13ifvqeg0","pricing_plan_id":"free"},{"bike_id":"e5aea568-d238-4e1a-9e9e-c19823428580","system_id":"levelo_inurba_marseille","lat":43.290631,"lon":5.359244,"is_reserved":false,"is_disabled":false,"rental_uris":{"android":"levelo://app?vid=e5aea568-d238-4e1a-9e9e-c19823428580","ios":"levelo://app?vid=e5aea568-d238-4e1a-9e9e-c19823428580"},"vehicle_type_id":"4","last_reported":1698707186,"current_range_meters":31200,"station_id":"ce4bha92rcd13ifvqeg0","pricing_plan_id":"free"},{"bike_id":"144d1335-6b98-44cb-bb88-c8d227ae2287","system_id":"levelo_inurba_marseille","lat":43.290631,"lon":5.359244,"is_reserved":false,"is_disabled":false,"rental_uris":{"android":"levelo://app?vid=144d1335-6b98-44cb-bb88-c8d227ae2287","ios":"levelo://app?vid=144d1335-6b98-44cb-bb88-c8d227ae2287"},"vehicle_type_id":"4","last_reported":1698707186,"current_range_meters":26400,"station_id":"ce4bha92rcd13ifvqeg0","pricing_plan_id":"free"},{"bike_id":"36f1e6fa-d4d9-4f9a-a0bb-b0ba8190f5e2","system_id":"levelo_inurba_marseille","lat":43.290631,"lon":5.359244,"is_reserved":false,"is_disabled":false,"rental_uris":{"android":"levelo://app?vid=36f1e6fa-d4d9-4f9a-a0bb-b0ba8190f5e2","ios":"levelo://app?vid=36f1e6fa-d4d9-4f9a-a0bb-b0ba8190f5e2"},"vehicle_type_id":"4","last_reported":1698707186,"current_range_meters":27200,"station_id":"ce4bha92rcd13ifvqeg0","pricing_plan_id":"free"},{"bike_id":"8ead88c2-7fa5-403b-9aa6-a99b08ba367d","system_id":"levelo_inurba_marseille","lat":43.290631,"lon":5.359244,"is_reserved":false,"is_disabled":false,"rental_uris":{"android":"levelo://app?vid=8ead88c2-7fa5-403b-9aa6-a99b08ba367d","ios":"levelo://app?vid=8ead88c2-7fa5-403b-9aa6-a99b08ba367d"},"vehicle_type_id":"4","last_reported":1698707186,"current_range_meters":30800,"station_id":"ce4bha92rcd13ifvqeg0","pricing_plan_id":"free"},{"bike_id":"0d6d0dc6-278c-4011-b360-8a9cae0d5c63","system_id":"levelo_inurba_marseille","lat":43.2894,"lon":5.36631,"is_reserved":false,"is_disabled":false,"rental_uris":{"android":"levelo://app?vid=0d6d0dc6-278c-4011-b360-8a9cae0d5c63","ios":"levelo://app?vid=0d6d0dc6-278c-4011-b360-8a9cae0d5c63"},"vehicle_type_id":"4","last_reported":1698707186,"current_range_meters":0,"station_id":"ce4bhap2rcd13ifvqek0","pricing_plan_id":"free"},{"bike_id":"3f936428-f5f0-4b8e-b361-50c6de9762b9","system_id":"levelo_inurba_marseille","lat":43.292644,"lon":5.384257,"is_reserved":false,"is_disabled":false,"rental_uris":{"android":"levelo://app?vid=3f936428-f5f0-4b8e-b361-50c6de9762b9","ios":"levelo://app?vid=3f936428-f5f0-4b8e-b361-50c6de9762b9"},"vehicle_type_id":"4","last_reported":1698707186,"current_range_meters":14000,"station_id":"ce4bh692rcd13ifvqea0","pricing_plan_id":"free"},{"bike_id":"647813b2-ce95-47a3-8ee7-ce83dc04c7d4","system_id":"levelo_inurba_marseille","lat":43.292642,"lon":5.384254,"is_reserved":false,"is_disabled":false,"rental_uris":{"android":"levelo://app?vid=647813b2-ce95-47a3-8ee7-ce83dc04c7d4","ios":"levelo://app?vid=647813b2-ce95-47a3-8ee7-ce83dc04c7d4"},"vehicle_type_id":"4","last_reported":1698707186,"current_range_meters":14400,"station_id":"ce4bh692rcd13ifvqea0","pricing_plan_id":"free"},{"bike_id":"187ddb1d-7046-4ae3-ad65-d201caea3e69","system_id":"levelo_inurba_marseille","lat":43.292642,"lon":5.384254,"is_reserved":false,"is_disabled":false,"rental_uris":{"android":"levelo://app?vid=187ddb1d-7046-4ae3-ad65-d201caea3e69","ios":"levelo://app?vid=187ddb1d-7046-4ae3-ad65-d201caea3e69"},"vehicle_type_id":"4","last_reported":1698707186,"current_range_meters":11600,"station_id":"ce4bh692rcd13ifvqea0","pricing_plan_id":"free"},{"bike_id":"71592c63-ca0f-430b-9652-6e5925f73a8a","system_id":"levelo_inurba_marseille","lat":43.330442,"lon":5.389148,"is_reserved":false,"is_disabled":false,"rental_uris":{"android":"levelo://app?vid=71592c63-ca0f-430b-9652-6e5925f73a8a","ios":"levelo://app?vid=71592c63-ca0f-430b-9652-6e5925f73a8a"},"vehicle_type_id":"4","last_reported":1698707186,"current_range_meters":17600,"station_id":"ce4bhr92rcd13ifvqhrg","pricing_plan_id":"free"},{"bike_id":"4292bce0-7740-485a-94ac-2de111ed6536","system_id":"levelo_inurba_marseille","lat":43.33039,"lon":5.38924,"is_reserved":false,"is_disabled":false,"rental_uris":{"android":"levelo://app?vid=4292bce0-7740-485a-94ac-2de111ed6536","ios":"levelo://app?vid=4292bce0-7740-485a-94ac-2de111ed6536"},"vehicle_type_id":"4","last_reported":1698707186,"current_range_meters":17200,"station_id":"ce4bhr92rcd13ifvqhrg","pricing_plan_id":"free"},{"bike_id":"8abc5b7d-4b22-49fd-aa4c-fa5b00fd3186","system_id":"levelo_inurba_marseille","lat":43.330439,"lon":5.389169,"is_reserved":false,"is_disabled":false,"rental_uris":{"android":"levelo://app?vid=8abc5b7d-4b22-49fd-aa4c-fa5b00fd3186","ios":"levelo://app?vid=8abc5b7d-4b22-49fd-aa4c-fa5b00fd3186"},"vehicle_type_id":"4","last_reported":1698707186,"current_range_meters":31200,"station_id":"ce4bhr92rcd13ifvqhrg","pricing_plan_id":"free"},{"bike_id":"8ec8b72c-dd6f-469d-aee0-017da7f125f4","system_id":"levelo_inurba_marseille","lat":43.330442,"lon":5.389148,"is_reserved":false,"is_disabled":false,"rental_uris":{"android":"levelo://app?vid=8ec8b72c-dd6f-469d-aee0-017da7f125f4","ios":"levelo://app?vid=8ec8b72c-dd6f-469d-aee0-017da7f125f4"},"vehicle_type_id":"4","last_reported":1698707186,"current_range_meters":31200,"station_id":"ce4bhr92rcd13ifvqhrg","pricing_plan_id":"free"},{"bike_id":"de0c862d-863d-4710-b8df-8914a0d564f7","system_id":"levelo_inurba_marseille","lat":43.290104,"lon":5.356111,"is_reserved":false,"is_disabled":false,"rental_uris":{"android":"levelo://app?vid=de0c862d-863d-4710-b8df-8914a0d564f7","ios":"levelo://app?vid=de0c862d-863d-4710-b8df-8914a0d564f7"},"vehicle_type_id":"4","last_reported":1698707186,"current_range_meters":30400,"station_id":"ce4bhb92rcd13ifvqen0","pricing_plan_id":"free"},{"bike_id":"e0d713cd-ec81-44ec-8ba4-571dd76a2b05","system_id":"levelo_inurba_marseille","lat":43.295169,"lon":5.390426,"is_reserved":false,"is_disabled":false,"rental_uris":{"android":"levelo://app?vid=e0d713cd-ec81-44ec-8ba4-571dd76a2b05","ios":"levelo://app?vid=e0d713cd-ec81-44ec-8ba4-571dd76a2b05"},"vehicle_type_id":"4","last_reported":1698707186,"current_range_meters":19200,"station_id":"ce4bh3p2rcd13ifvqdp0","pricing_plan_id":"free"},{"bike_id":"77116d85-2783-4edc-b210-05219c76076e","system_id":"levelo_inurba_marseille","lat":43.297815,"lon":5.393548,"is_reserved":false,"is_disabled":false,"rental_uris":{"android":"levelo://app?vid=77116d85-2783-4edc-b210-05219c76076e","ios":"levelo://app?vid=77116d85-2783-4edc-b210-05219c76076e"},"vehicle_type_id":"4","last_reported":1698707186,"current_range_meters":26000,"station_id":"chh1huq6cuj3fo74tm60","pricing_plan_id":"free"},{"bike_id":"41163019-a31b-40cd-8bc8-612429435b23","system_id":"levelo_inurba_marseille","lat":43.2978,"lon":5.39335,"is_reserved":false,"is_disabled":false,"rental_uris":{"android":"levelo://app?vid=41163019-a31b-40cd-8bc8-612429435b23","ios":"levelo://app?vid=41163019-a31b-40cd-8bc8-612429435b23"},"vehicle_type_id":"4","last_reported":1698707186,"current_range_meters":30400,"station_id":"chh1huq6cuj3fo74tm60","pricing_plan_id":"free"},{"bike_id":"826f8a43-0fe1-41d6-ac50-feaac369d887","system_id":"levelo_inurba_marseille","lat":43.297835,"lon":5.393415,"is_reserved":false,"is_disabled":false,"rental_uris":{"android":"levelo://app?vid=826f8a43-0fe1-41d6-ac50-feaac369d887","ios":"levelo://app?vid=826f8a43-0fe1-41d6-ac50-feaac369d887"},"vehicle_type_id":"4","last_reported":1698707186,"current_range_meters":18000,"station_id":"chh1huq6cuj3fo74tm60","pricing_plan_id":"free"},{"bike_id":"8d58ba7b-231d-41ec-aa0d-74b2e0ec3a93","system_id":"levelo_inurba_marseille","lat":43.297794,"lon":5.393428,"is_reserved":false,"is_disabled":false,"rental_uris":{"android":"levelo://app?vid=8d58ba7b-231d-41ec-aa0d-74b2e0ec3a93","ios":"levelo://app?vid=8d58ba7b-231d-41ec-aa0d-74b2e0ec3a93"},"vehicle_type_id":"4","last_reported":1698707186,"current_range_meters":30800,"station_id":"chh1huq6cuj3fo74tm60","pricing_plan_id":"free"},{"bike_id":"097107b1-0a68-45df-9ecd-d836119dc4fc","system_id":"levelo_inurba_marseille","lat":43.28856,"lon":5.358371,"is_reserved":false,"is_disabled":false,"rental_uris":{"android":"levelo://app?vid=097107b1-0a68-45df-9ecd-d836119dc4fc","ios":"levelo://app?vid=097107b1-0a68-45df-9ecd-d836119dc4fc"},"vehicle_type_id":"4","last_reported":1698707186,"current_range_meters":30400,"station_id":"ce4bhb12rcd13ifvqem0","pricing_plan_id":"free"},{"bike_id":"6d985032-a40b-4242-ab9c-d272efbf1b29","system_id":"levelo_inurba_marseille","lat":43.28856,"lon":5.358371,"is_reserved":false,"is_disabled":false,"rental_uris":{"android":"levelo://app?vid=6d985032-a40b-4242-ab9c-d272efbf1b29","ios":"levelo://app?vid=6d985032-a40b-4242-ab9c-d272efbf1b29"},"vehicle_type_id":"4","last_reported":1698707186,"current_range_meters":6000,"station_id":"ce4bhb12rcd13ifvqem0","pricing_plan_id":"free"},{"bike_id":"6a590a71-c706-4886-b27d-77acdcd5751e","system_id":"levelo_inurba_marseille","lat":43.28856,"lon":5.358371,"is_reserved":false,"is_disabled":false,"rental_uris":{"android":"levelo://app?vid=6a590a71-c706-4886-b27d-77acdcd5751e","ios":"levelo://app?vid=6a590a71-c706-4886-b27d-77acdcd5751e"},"vehicle_type_id":"4","last_reported":1698707186,"current_range_meters":28000,"station_id":"ce4bhb12rcd13ifvqem0","pricing_plan_id":"free"},{"bike_id":"644c3d52-a076-4bee-b659-7a11a41045e2","system_id":"levelo_inurba_marseille","lat":43.28856,"lon":5.358371,"is_reserved":false,"is_disabled":false,"rental_uris":{"android":"levelo://app?vid=644c3d52-a076-4bee-b659-7a11a41045e2","ios":"levelo://app?vid=644c3d52-a076-4bee-b659-7a11a41045e2"},"vehicle_type_id":"4","last_reported":1698707186,"current_range_meters":24400,"station_id":"ce4bhb12rcd13ifvqem0","pricing_plan_id":"free"},{"bike_id":"560475da-5cbd-4430-8a5c-f9bbcc3c7b42","system_id":"levelo_inurba_marseille","lat":43.28856,"lon":5.358371,"is_reserved":false,"is_disabled":false,"rental_uris":{"android":"levelo://app?vid=560475da-5cbd-4430-8a5c-f9bbcc3c7b42","ios":"levelo://app?vid=560475da-5cbd-4430-8a5c-f9bbcc3c7b42"},"vehicle_type_id":"4","last_reported":1698707186,"current_range_meters":25200,"station_id":"ce4bhb12rcd13ifvqem0","pricing_plan_id":"free"},{"bike_id":"b616e12c-d32f-48be-8c7d-2f8f737f9eac","system_id":"levelo_inurba_marseille","lat":43.28856,"lon":5.358371,"is_reserved":false,"is_disabled":false,"rental_uris":{"android":"levelo://app?vid=b616e12c-d32f-48be-8c7d-2f8f737f9eac","ios":"levelo://app?vid=b616e12c-d32f-48be-8c7d-2f8f737f9eac"},"vehicle_type_id":"4","last_reported":1698707186,"current_range_meters":30000,"station_id":"ce4bhb12rcd13ifvqem0","pricing_plan_id":"free"},{"bike_id":"4cf995f5-f671-455a-8425-3d6ce0ca8940","system_id":"levelo_inurba_marseille","lat":43.28856,"lon":5.358371,"is_reserved":false,"is_disabled":false,"rental_uris":{"android":"levelo://app?vid=4cf995f5-f671-455a-8425-3d6ce0ca8940","ios":"levelo://app?vid=4cf995f5-f671-455a-8425-3d6ce0ca8940"},"vehicle_type_id":"4","last_reported":1698707186,"current_range_meters":30400,"station_id":"ce4bhb12rcd13ifvqem0","pricing_plan_id":"free"},{"bike_id":"c9de256f-a394-4d61-8b15-1a1190eb92ca","system_id":"levelo_inurba_marseille","lat":43.306412,"lon":5.401035,"is_reserved":false,"is_disabled":false,"rental_uris":{"android":"levelo://app?vid=c9de256f-a394-4d61-8b15-1a1190eb92ca","ios":"levelo://app?vid=c9de256f-a394-4d61-8b15-1a1190eb92ca"},"vehicle_type_id":"4","last_reported":1698707186,"current_range_meters":30800,"station_id":"ce4bh112rcd13ifvqda0","pricing_plan_id":"free"},{"bike_id":"87397bf9-c740-4bc6-b966-c8e3cc688545","system_id":"levelo_inurba_marseille","lat":43.28856,"lon":5.358371,"is_reserved":false,"is_disabled":false,"rental_uris":{"android":"levelo://app?vid=87397bf9-c740-4bc6-b966-c8e3cc688545","ios":"levelo://app?vid=87397bf9-c740-4bc6-b966-c8e3cc688545"},"vehicle_type_id":"4","last_reported":1698707186,"current_range_meters":26800,"station_id":"ce4bhb12rcd13ifvqem0","pricing_plan_id":"free"},{"bike_id":"5b5ae2a2-6208-4c31-8e94-d046f4f4c8f3","system_id":"levelo_inurba_marseille","lat":43.28856,"lon":5.358371,"is_reserved":false,"is_disabled":false,"rental_uris":{"android":"levelo://app?vid=5b5ae2a2-6208-4c31-8e94-d046f4f4c8f3","ios":"levelo://app?vid=5b5ae2a2-6208-4c31-8e94-d046f4f4c8f3"},"vehicle_type_id":"4","last_reported":1698707186,"current_range_meters":26000,"station_id":"ce4bhb12rcd13ifvqem0","pricing_plan_id":"free"},{"bike_id":"9308d0df-4b94-42d4-9c25-53262c885f39","system_id":"levelo_inurba_marseille","lat":43.28856,"lon":5.358371,"is_reserved":false,"is_disabled":false,"rental_uris":{"android":"levelo://app?vid=9308d0df-4b94-42d4-9c25-53262c885f39","ios":"levelo://app?vid=9308d0df-4b94-42d4-9c25-53262c885f39"},"vehicle_type_id":"4","last_reported":1698707186,"current_range_meters":31200,"station_id":"ce4bhb12rcd13ifvqem0","pricing_plan_id":"free"},{"bike_id":"773f3938-f22f-4f4b-b072-17145c5249f5","system_id":"levelo_inurba_marseille","lat":43.28856,"lon":5.358371,"is_reserved":false,"is_disabled":false,"rental_uris":{"android":"levelo://app?vid=773f3938-f22f-4f4b-b072-17145c5249f5","ios":"levelo://app?vid=773f3938-f22f-4f4b-b072-17145c5249f5"},"vehicle_type_id":"4","last_reported":1698707186,"current_range_meters":20000,"station_id":"ce4bhb12rcd13ifvqem0","pricing_plan_id":"free"},{"bike_id":"d6a3fca3-eeae-4150-b28f-2c0cd1d839a8","system_id":"levelo_inurba_marseille","lat":43.28856,"lon":5.358371,"is_reserved":false,"is_disabled":false,"rental_uris":{"android":"levelo://app?vid=d6a3fca3-eeae-4150-b28f-2c0cd1d839a8","ios":"levelo://app?vid=d6a3fca3-eeae-4150-b28f-2c0cd1d839a8"},"vehicle_type_id":"4","last_reported":1698707186,"current_range_meters":12000,"station_id":"ce4bhb12rcd13ifvqem0","pricing_plan_id":"free"},{"bike_id":"4719cd35-693e-4f53-a8bc-bc638e98b4b5","system_id":"levelo_inurba_marseille","lat":43.309295,"lon":5.401375,"is_reserved":false,"is_disabled":false,"rental_uris":{"android":"levelo://app?vid=4719cd35-693e-4f53-a8bc-bc638e98b4b5","ios":"levelo://app?vid=4719cd35-693e-4f53-a8bc-bc638e98b4b5"},"vehicle_type_id":"4","last_reported":1698707186,"current_range_meters":20400,"station_id":"ce4bgvp2rcd13ifvqct0","pricing_plan_id":"free"},{"bike_id":"8dbbf511-eb16-403b-9f5a-04b33e56616e","system_id":"levelo_inurba_marseille","lat":43.30918,"lon":5.40139,"is_reserved":false,"is_disabled":false,"rental_uris":{"android":"levelo://app?vid=8dbbf511-eb16-403b-9f5a-04b33e56616e","ios":"levelo://app?vid=8dbbf511-eb16-403b-9f5a-04b33e56616e"},"vehicle_type_id":"4","last_reported":1698707186,"current_range_meters":26000,"station_id":"ce4bgvp2rcd13ifvqct0","pricing_plan_id":"free"},{"bike_id":"89884d79-a10b-4471-8b1c-7e2a6fc91be0","system_id":"levelo_inurba_marseille","lat":43.337429,"lon":5.374709,"is_reserved":false,"is_disabled":false,"rental_uris":{"android":"levelo://app?vid=89884d79-a10b-4471-8b1c-7e2a6fc91be0","ios":"levelo://app?vid=89884d79-a10b-4471-8b1c-7e2a6fc91be0"},"vehicle_type_id":"4","last_reported":1698707186,"current_range_meters":3600,"station_id":"","pricing_plan_id":"free"},{"bike_id":"b46ace51-d597-44c7-aba8-e65311050fa2","system_id":"levelo_inurba_marseille","lat":43.309306,"lon":5.401418,"is_reserved":false,"is_disabled":false,"rental_uris":{"android":"levelo://app?vid=b46ace51-d597-44c7-aba8-e65311050fa2","ios":"levelo://app?vid=b46ace51-d597-44c7-aba8-e65311050fa2"},"vehicle_type_id":"4","last_reported":1698707186,"current_range_meters":17200,"station_id":"ce4bgvp2rcd13ifvqct0","pricing_plan_id":"free"},{"bike_id":"d75d8559-e229-47c7-ac48-abc9eb7aec48","system_id":"levelo_inurba_marseille","lat":43.337446,"lon":5.374776,"is_reserved":false,"is_disabled":false,"rental_uris":{"android":"levelo://app?vid=d75d8559-e229-47c7-ac48-abc9eb7aec48","ios":"levelo://app?vid=d75d8559-e229-47c7-ac48-abc9eb7aec48"},"vehicle_type_id":"4","last_reported":1698707186,"current_range_meters":31200,"station_id":"","pricing_plan_id":"free"},{"bike_id":"4c3080fd-981e-4be1-92dc-73e9047d1fd9","system_id":"levelo_inurba_marseille","lat":43.3093,"lon":5.40146,"is_reserved":false,"is_disabled":false,"rental_uris":{"android":"levelo://app?vid=4c3080fd-981e-4be1-92dc-73e9047d1fd9","ios":"levelo://app?vid=4c3080fd-981e-4be1-92dc-73e9047d1fd9"},"vehicle_type_id":"4","last_reported":1698707186,"current_range_meters":18400,"station_id":"ce4bgvp2rcd13ifvqct0","pricing_plan_id":"free"},{"bike_id":"44bd4ca0-9910-45bb-96ef-2c3513f049a4","system_id":"levelo_inurba_marseille","lat":43.30645,"lon":5.4007,"is_reserved":false,"is_disabled":false,"rental_uris":{"android":"levelo://app?vid=44bd4ca0-9910-45bb-96ef-2c3513f049a4","ios":"levelo://app?vid=44bd4ca0-9910-45bb-96ef-2c3513f049a4"},"vehicle_type_id":"4","last_reported":1698707186,"current_range_meters":9600,"station_id":"ce4bh112rcd13ifvqda0","pricing_plan_id":"free"},{"bike_id":"617d812a-df4a-4143-ae32-662f962bf938","system_id":"levelo_inurba_marseille","lat":43.30937,"lon":5.40149,"is_reserved":false,"is_disabled":false,"rental_uris":{"android":"levelo://app?vid=617d812a-df4a-4143-ae32-662f962bf938","ios":"levelo://app?vid=617d812a-df4a-4143-ae32-662f962bf938"},"vehicle_type_id":"4","last_reported":1698707186,"current_range_meters":25200,"station_id":"ce4bgvp2rcd13ifvqct0","pricing_plan_id":"free"},{"bike_id":"8ac99df5-4b71-4100-9ed1-faebfa7de28e","system_id":"levelo_inurba_marseille","lat":43.306412,"lon":5.401035,"is_reserved":false,"is_disabled":false,"rental_uris":{"android":"levelo://app?vid=8ac99df5-4b71-4100-9ed1-faebfa7de28e","ios":"levelo://app?vid=8ac99df5-4b71-4100-9ed1-faebfa7de28e"},"vehicle_type_id":"4","last_reported":1698707186,"current_range_meters":19600,"station_id":"ce4bh112rcd13ifvqda0","pricing_plan_id":"free"},{"bike_id":"d8968e16-4990-42f0-9c64-1ae7694486e7","system_id":"levelo_inurba_marseille","lat":43.306362,"lon":5.400738,"is_reserved":false,"is_disabled":false,"rental_uris":{"android":"levelo://app?vid=d8968e16-4990-42f0-9c64-1ae7694486e7","ios":"levelo://app?vid=d8968e16-4990-42f0-9c64-1ae7694486e7"},"vehicle_type_id":"4","last_reported":1698707186,"current_range_meters":29200,"station_id":"ce4bh112rcd13ifvqda0","pricing_plan_id":"free"},{"bike_id":"7cc33fa8-bdce-448b-b2fe-f4ed610c9de8","system_id":"levelo_inurba_marseille","lat":43.33762,"lon":5.374614,"is_reserved":false,"is_disabled":false,"rental_uris":{"android":"levelo://app?vid=7cc33fa8-bdce-448b-b2fe-f4ed610c9de8","ios":"levelo://app?vid=7cc33fa8-bdce-448b-b2fe-f4ed610c9de8"},"vehicle_type_id":"4","last_reported":1698707186,"current_range_meters":30000,"station_id":"","pricing_plan_id":"free"},{"bike_id":"630133d2-352b-4586-a0b8-1ee56509784c","system_id":"levelo_inurba_marseille","lat":43.33781,"lon":5.37444,"is_reserved":false,"is_disabled":false,"rental_uris":{"android":"levelo://app?vid=630133d2-352b-4586-a0b8-1ee56509784c","ios":"levelo://app?vid=630133d2-352b-4586-a0b8-1ee56509784c"},"vehicle_type_id":"4","last_reported":1698707186,"current_range_meters":14000,"station_id":"","pricing_plan_id":"free"},{"bike_id":"8991a833-ff8c-41fb-a194-2cb7a4aece99","system_id":"levelo_inurba_marseille","lat":43.301117,"lon":5.398795,"is_reserved":false,"is_disabled":false,"rental_uris":{"android":"levelo://app?vid=8991a833-ff8c-41fb-a194-2cb7a4aece99","ios":"levelo://app?vid=8991a833-ff8c-41fb-a194-2cb7a4aece99"},"vehicle_type_id":"4","last_reported":1698707186,"current_range_meters":31200,"station_id":"ce4bh0h2rcd13ifvqd40","pricing_plan_id":"free"},{"bike_id":"52b9e6dc-9a06-475b-bcbd-2be873361f55","system_id":"levelo_inurba_marseille","lat":43.301117,"lon":5.398795,"is_reserved":false,"is_disabled":false,"rental_uris":{"android":"levelo://app?vid=52b9e6dc-9a06-475b-bcbd-2be873361f55","ios":"levelo://app?vid=52b9e6dc-9a06-475b-bcbd-2be873361f55"},"vehicle_type_id":"4","last_reported":1698707186,"current_range_meters":22800,"station_id":"ce4bh0h2rcd13ifvqd40","pricing_plan_id":"free"},{"bike_id":"bff23a90-3c55-41b4-8462-a355cddb3dd9","system_id":"levelo_inurba_marseille","lat":43.301117,"lon":5.398795,"is_reserved":false,"is_disabled":false,"rental_uris":{"android":"levelo://app?vid=bff23a90-3c55-41b4-8462-a355cddb3dd9","ios":"levelo://app?vid=bff23a90-3c55-41b4-8462-a355cddb3dd9"},"vehicle_type_id":"4","last_reported":1698707186,"current_range_meters":23200,"station_id":"ce4bh0h2rcd13ifvqd40","pricing_plan_id":"free"},{"bike_id":"5ad67e56-15c6-435d-b7fb-83edb37deaf5","system_id":"levelo_inurba_marseille","lat":43.301198,"lon":5.398622,"is_reserved":false,"is_disabled":false,"rental_uris":{"android":"levelo://app?vid=5ad67e56-15c6-435d-b7fb-83edb37deaf5","ios":"levelo://app?vid=5ad67e56-15c6-435d-b7fb-83edb37deaf5"},"vehicle_type_id":"4","last_reported":1698707186,"current_range_meters":9200,"station_id":"ce4bh0h2rcd13ifvqd40","pricing_plan_id":"free"},{"bike_id":"92f42489-a920-433c-8d23-22426702d6f3","system_id":"levelo_inurba_marseille","lat":43.28727,"lon":5.36078,"is_reserved":false,"is_disabled":false,"rental_uris":{"android":"levelo://app?vid=92f42489-a920-433c-8d23-22426702d6f3","ios":"levelo://app?vid=92f42489-a920-433c-8d23-22426702d6f3"},"vehicle_type_id":"4","last_reported":1698707186,"current_range_meters":31200,"station_id":"cki0cbj6b192h4jlfktg","pricing_plan_id":"free"},{"bike_id":"df051314-74dd-46ab-8d7e-101f5d258dc8","system_id":"levelo_inurba_marseille","lat":43.28727,"lon":5.36078,"is_reserved":false,"is_disabled":false,"rental_uris":{"android":"levelo://app?vid=df051314-74dd-46ab-8d7e-101f5d258dc8","ios":"levelo://app?vid=df051314-74dd-46ab-8d7e-101f5d258dc8"},"vehicle_type_id":"4","last_reported":1698707186,"current_range_meters":26800,"station_id":"cki0cbj6b192h4jlfktg","pricing_plan_id":"free"},{"bike_id":"737a2f7b-fe53-4633-a290-89de8f6d57b5","system_id":"levelo_inurba_marseille","lat":43.28727,"lon":5.36078,"is_reserved":false,"is_disabled":false,"rental_uris":{"android":"levelo://app?vid=737a2f7b-fe53-4633-a290-89de8f6d57b5","ios":"levelo://app?vid=737a2f7b-fe53-4633-a290-89de8f6d57b5"},"vehicle_type_id":"4","last_reported":1698707186,"current_range_meters":18800,"station_id":"cki0cbj6b192h4jlfktg","pricing_plan_id":"free"},{"bike_id":"63f48769-26b7-4bfe-a836-661a9924c4e7","system_id":"levelo_inurba_marseille","lat":43.28727,"lon":5.36078,"is_reserved":false,"is_disabled":false,"rental_uris":{"android":"levelo://app?vid=63f48769-26b7-4bfe-a836-661a9924c4e7","ios":"levelo://app?vid=63f48769-26b7-4bfe-a836-661a9924c4e7"},"vehicle_type_id":"4","last_reported":1698707186,"current_range_meters":9600,"station_id":"cki0cbj6b192h4jlfktg","pricing_plan_id":"free"},{"bike_id":"61509424-7949-42b7-a64f-efa52a2cc143","system_id":"levelo_inurba_marseille","lat":43.298809,"lon":5.397279,"is_reserved":false,"is_disabled":false,"rental_uris":{"android":"levelo://app?vid=61509424-7949-42b7-a64f-efa52a2cc143","ios":"levelo://app?vid=61509424-7949-42b7-a64f-efa52a2cc143"},"vehicle_type_id":"4","last_reported":1698707186,"current_range_meters":24800,"station_id":"","pricing_plan_id":"free"},{"bike_id":"e3d5f1ad-5bf6-4d9e-9946-60466cf7be12","system_id":"levelo_inurba_marseille","lat":43.286961,"lon":5.373785,"is_reserved":false,"is_disabled":false,"rental_uris":{"android":"levelo://app?vid=e3d5f1ad-5bf6-4d9e-9946-60466cf7be12","ios":"levelo://app?vid=e3d5f1ad-5bf6-4d9e-9946-60466cf7be12"},"vehicle_type_id":"4","last_reported":1698707186,"current_range_meters":4400,"station_id":"ce4bh3p2rcd13ifvqdq0","pricing_plan_id":"free"},{"bike_id":"d6adac43-52f9-4608-9d60-e536256e2f65","system_id":"levelo_inurba_marseille","lat":43.298681,"lon":5.397225,"is_reserved":false,"is_disabled":false,"rental_uris":{"android":"levelo://app?vid=d6adac43-52f9-4608-9d60-e536256e2f65","ios":"levelo://app?vid=d6adac43-52f9-4608-9d60-e536256e2f65"},"vehicle_type_id":"4","last_reported":1698707186,"current_range_meters":22800,"station_id":"ce4bh0h2rcd13ifvqd50","pricing_plan_id":"free"},{"bike_id":"963f6296-fa08-4216-b67a-d722e15bdc46","system_id":"levelo_inurba_marseille","lat":43.298681,"lon":5.397225,"is_reserved":false,"is_disabled":false,"rental_uris":{"android":"levelo://app?vid=963f6296-fa08-4216-b67a-d722e15bdc46","ios":"levelo://app?vid=963f6296-fa08-4216-b67a-d722e15bdc46"},"vehicle_type_id":"4","last_reported":1698707186,"current_range_meters":21200,"station_id":"ce4bh0h2rcd13ifvqd50","pricing_plan_id":"free"},{"bike_id":"9eb4f770-a12c-4f64-85e0-739e5a38f79c","system_id":"levelo_inurba_marseille","lat":43.286961,"lon":5.373785,"is_reserved":false,"is_disabled":false,"rental_uris":{"android":"levelo://app?vid=9eb4f770-a12c-4f64-85e0-739e5a38f79c","ios":"levelo://app?vid=9eb4f770-a12c-4f64-85e0-739e5a38f79c"},"vehicle_type_id":"4","last_reported":1698707186,"current_range_meters":10000,"station_id":"ce4bh3p2rcd13ifvqdq0","pricing_plan_id":"free"},{"bike_id":"70db90a7-d555-40ca-b6be-dae35609de11","system_id":"levelo_inurba_marseille","lat":43.286961,"lon":5.373785,"is_reserved":false,"is_disabled":false,"rental_uris":{"android":"levelo://app?vid=70db90a7-d555-40ca-b6be-dae35609de11","ios":"levelo://app?vid=70db90a7-d555-40ca-b6be-dae35609de11"},"vehicle_type_id":"4","last_reported":1698707186,"current_range_meters":31200,"station_id":"ce4bh3p2rcd13ifvqdq0","pricing_plan_id":"free"},{"bike_id":"ece8ee0f-14b3-4b57-9963-d06b54e9b6d1","system_id":"levelo_inurba_marseille","lat":43.286591,"lon":5.363346,"is_reserved":false,"is_disabled":false,"rental_uris":{"android":"levelo://app?vid=ece8ee0f-14b3-4b57-9963-d06b54e9b6d1","ios":"levelo://app?vid=ece8ee0f-14b3-4b57-9963-d06b54e9b6d1"},"vehicle_type_id":"4","last_reported":1698707186,"current_range_meters":1600,"station_id":"ce4bhah2rcd13ifvqej0","pricing_plan_id":"free"},{"bike_id":"c55b9fe6-94ac-4481-b070-d9f60711efd6","system_id":"levelo_inurba_marseille","lat":43.286591,"lon":5.363346,"is_reserved":false,"is_disabled":false,"rental_uris":{"android":"levelo://app?vid=c55b9fe6-94ac-4481-b070-d9f60711efd6","ios":"levelo://app?vid=c55b9fe6-94ac-4481-b070-d9f60711efd6"},"vehicle_type_id":"4","last_reported":1698707186,"current_range_meters":31200,"station_id":"ce4bhah2rcd13ifvqej0","pricing_plan_id":"free"},{"bike_id":"ba462955-4f5a-48c8-84f1-bc794aac8918","system_id":"levelo_inurba_marseille","lat":43.286591,"lon":5.363346,"is_reserved":false,"is_disabled":false,"rental_uris":{"android":"levelo://app?vid=ba462955-4f5a-48c8-84f1-bc794aac8918","ios":"levelo://app?vid=ba462955-4f5a-48c8-84f1-bc794aac8918"},"vehicle_type_id":"4","last_reported":1698707186,"current_range_meters":24000,"station_id":"ce4bhah2rcd13ifvqej0","pricing_plan_id":"free"},{"bike_id":"d9b330c1-6895-4e13-8e08-fe37e7b915a6","system_id":"levelo_inurba_marseille","lat":43.286593,"lon":5.363346,"is_reserved":false,"is_disabled":false,"rental_uris":{"android":"levelo://app?vid=d9b330c1-6895-4e13-8e08-fe37e7b915a6","ios":"levelo://app?vid=d9b330c1-6895-4e13-8e08-fe37e7b915a6"},"vehicle_type_id":"4","last_reported":1698707186,"current_range_meters":13200,"station_id":"ce4bhah2rcd13ifvqej0","pricing_plan_id":"free"},{"bike_id":"a2b442c4-413a-4606-b6f3-d8543ad0356b","system_id":"levelo_inurba_marseille","lat":43.286591,"lon":5.363346,"is_reserved":false,"is_disabled":false,"rental_uris":{"android":"levelo://app?vid=a2b442c4-413a-4606-b6f3-d8543ad0356b","ios":"levelo://app?vid=a2b442c4-413a-4606-b6f3-d8543ad0356b"},"vehicle_type_id":"4","last_reported":1698707186,"current_range_meters":21600,"station_id":"ce4bhah2rcd13ifvqej0","pricing_plan_id":"free"},{"bike_id":"51660965-1a0a-4cd7-a833-0df99341a210","system_id":"levelo_inurba_marseille","lat":43.286961,"lon":5.373785,"is_reserved":false,"is_disabled":false,"rental_uris":{"android":"levelo://app?vid=51660965-1a0a-4cd7-a833-0df99341a210","ios":"levelo://app?vid=51660965-1a0a-4cd7-a833-0df99341a210"},"vehicle_type_id":"4","last_reported":1698707186,"current_range_meters":11200,"station_id":"ce4bh3p2rcd13ifvqdq0","pricing_plan_id":"free"},{"bike_id":"1d57a291-d25c-4a79-8a38-b3a9fbd0f873","system_id":"levelo_inurba_marseille","lat":43.286593,"lon":5.363346,"is_reserved":false,"is_disabled":false,"rental_uris":{"android":"levelo://app?vid=1d57a291-d25c-4a79-8a38-b3a9fbd0f873","ios":"levelo://app?vid=1d57a291-d25c-4a79-8a38-b3a9fbd0f873"},"vehicle_type_id":"4","last_reported":1698707186,"current_range_meters":22000,"station_id":"ce4bhah2rcd13ifvqej0","pricing_plan_id":"free"},{"bike_id":"6d962433-abee-4a5c-8f06-ed3e790d83b0","system_id":"levelo_inurba_marseille","lat":43.29036,"lon":5.38637,"is_reserved":false,"is_disabled":false,"rental_uris":{"android":"levelo://app?vid=6d962433-abee-4a5c-8f06-ed3e790d83b0","ios":"levelo://app?vid=6d962433-abee-4a5c-8f06-ed3e790d83b0"},"vehicle_type_id":"4","last_reported":1698707186,"current_range_meters":5600,"station_id":"ce4bh4p2rcd13ifvqe0g","pricing_plan_id":"free"},{"bike_id":"6d30c235-81f4-4623-bd7e-f6ca13ecc1ab","system_id":"levelo_inurba_marseille","lat":43.29029,"lon":5.38634,"is_reserved":false,"is_disabled":false,"rental_uris":{"android":"levelo://app?vid=6d30c235-81f4-4623-bd7e-f6ca13ecc1ab","ios":"levelo://app?vid=6d30c235-81f4-4623-bd7e-f6ca13ecc1ab"},"vehicle_type_id":"4","last_reported":1698707186,"current_range_meters":30000,"station_id":"ce4bh4p2rcd13ifvqe0g","pricing_plan_id":"free"},{"bike_id":"538ae2aa-b1fb-40ec-9ba6-75ef5992b188","system_id":"levelo_inurba_marseille","lat":43.29032,"lon":5.38641,"is_reserved":false,"is_disabled":false,"rental_uris":{"android":"levelo://app?vid=538ae2aa-b1fb-40ec-9ba6-75ef5992b188","ios":"levelo://app?vid=538ae2aa-b1fb-40ec-9ba6-75ef5992b188"},"vehicle_type_id":"4","last_reported":1698707186,"current_range_meters":17600,"station_id":"ce4bh4p2rcd13ifvqe0g","pricing_plan_id":"free"},{"bike_id":"c75a7b91-68cc-49b1-ac47-8fa17645cac3","system_id":"levelo_inurba_marseille","lat":43.29025,"lon":5.38638,"is_reserved":false,"is_disabled":false,"rental_uris":{"android":"levelo://app?vid=c75a7b91-68cc-49b1-ac47-8fa17645cac3","ios":"levelo://app?vid=c75a7b91-68cc-49b1-ac47-8fa17645cac3"},"vehicle_type_id":"4","last_reported":1698707186,"current_range_meters":31200,"station_id":"ce4bh4p2rcd13ifvqe0g","pricing_plan_id":"free"},{"bike_id":"dcbf91fd-e76c-45f7-8a54-02c58897ae14","system_id":"levelo_inurba_marseille","lat":43.28607,"lon":5.3706,"is_reserved":false,"is_disabled":false,"rental_uris":{"android":"levelo://app?vid=dcbf91fd-e76c-45f7-8a54-02c58897ae14","ios":"levelo://app?vid=dcbf91fd-e76c-45f7-8a54-02c58897ae14"},"vehicle_type_id":"4","last_reported":1698707186,"current_range_meters":18400,"station_id":"ce4bht12rcd13ifvqi60","pricing_plan_id":"free"},{"bike_id":"d108e245-9fad-40ef-8f96-bfa4be5848f1","system_id":"levelo_inurba_marseille","lat":43.29205,"lon":5.39319,"is_reserved":false,"is_disabled":false,"rental_uris":{"android":"levelo://app?vid=d108e245-9fad-40ef-8f96-bfa4be5848f1","ios":"levelo://app?vid=d108e245-9fad-40ef-8f96-bfa4be5848f1"},"vehicle_type_id":"4","last_reported":1698707186,"current_range_meters":29200,"station_id":"ce4bh192rcd13ifvqdd0","pricing_plan_id":"free"},{"bike_id":"178ce738-286e-4bb9-9f09-3590a0ed57a4","system_id":"levelo_inurba_marseille","lat":43.29193,"lon":5.39326,"is_reserved":false,"is_disabled":false,"rental_uris":{"android":"levelo://app?vid=178ce738-286e-4bb9-9f09-3590a0ed57a4","ios":"levelo://app?vid=178ce738-286e-4bb9-9f09-3590a0ed57a4"},"vehicle_type_id":"4","last_reported":1698707186,"current_range_meters":0,"station_id":"ce4bh192rcd13ifvqdd0","pricing_plan_id":"free"},{"bike_id":"a3511994-68c4-4705-b95e-7bafec936763","system_id":"levelo_inurba_marseille","lat":43.291994,"lon":5.392907,"is_reserved":false,"is_disabled":false,"rental_uris":{"android":"levelo://app?vid=a3511994-68c4-4705-b95e-7bafec936763","ios":"levelo://app?vid=a3511994-68c4-4705-b95e-7bafec936763"},"vehicle_type_id":"4","last_reported":1698707186,"current_range_meters":31200,"station_id":"ce4bh192rcd13ifvqdd0","pricing_plan_id":"free"},{"bike_id":"d1d33dad-7070-4a01-89a4-7aaed8e14482","system_id":"levelo_inurba_marseille","lat":43.284534,"lon":5.358662,"is_reserved":false,"is_disabled":false,"rental_uris":{"android":"levelo://app?vid=d1d33dad-7070-4a01-89a4-7aaed8e14482","ios":"levelo://app?vid=d1d33dad-7070-4a01-89a4-7aaed8e14482"},"vehicle_type_id":"4","last_reported":1698707186,"current_range_meters":24000,"station_id":"ce4bhah2rcd13ifvqei0","pricing_plan_id":"free"},{"bike_id":"0859fc8c-b3c9-4873-ab0a-427045fbb22c","system_id":"levelo_inurba_marseille","lat":43.284534,"lon":5.358662,"is_reserved":false,"is_disabled":false,"rental_uris":{"android":"levelo://app?vid=0859fc8c-b3c9-4873-ab0a-427045fbb22c","ios":"levelo://app?vid=0859fc8c-b3c9-4873-ab0a-427045fbb22c"},"vehicle_type_id":"4","last_reported":1698707186,"current_range_meters":7200,"station_id":"ce4bhah2rcd13ifvqei0","pricing_plan_id":"free"},{"bike_id":"70f3de42-8024-40c7-a205-61e2a2c60053","system_id":"levelo_inurba_marseille","lat":43.284534,"lon":5.358662,"is_reserved":false,"is_disabled":false,"rental_uris":{"android":"levelo://app?vid=70f3de42-8024-40c7-a205-61e2a2c60053","ios":"levelo://app?vid=70f3de42-8024-40c7-a205-61e2a2c60053"},"vehicle_type_id":"4","last_reported":1698707186,"current_range_meters":26400,"station_id":"ce4bhah2rcd13ifvqei0","pricing_plan_id":"free"},{"bike_id":"0e0aa2b1-a70c-4762-9908-b3c4a594cb18","system_id":"levelo_inurba_marseille","lat":43.284609,"lon":5.358939,"is_reserved":false,"is_disabled":false,"rental_uris":{"android":"levelo://app?vid=0e0aa2b1-a70c-4762-9908-b3c4a594cb18","ios":"levelo://app?vid=0e0aa2b1-a70c-4762-9908-b3c4a594cb18"},"vehicle_type_id":"4","last_reported":1698707186,"current_range_meters":12800,"station_id":"ce4bhah2rcd13ifvqei0","pricing_plan_id":"free"},{"bike_id":"124aa9d3-a4a4-4698-930d-d62e8f77d6bb","system_id":"levelo_inurba_marseille","lat":43.284534,"lon":5.358662,"is_reserved":false,"is_disabled":false,"rental_uris":{"android":"levelo://app?vid=124aa9d3-a4a4-4698-930d-d62e8f77d6bb","ios":"levelo://app?vid=124aa9d3-a4a4-4698-930d-d62e8f77d6bb"},"vehicle_type_id":"4","last_reported":1698707186,"current_range_meters":11600,"station_id":"ce4bhah2rcd13ifvqei0","pricing_plan_id":"free"},{"bike_id":"e718df89-2b7f-434a-9d05-be9879408085","system_id":"levelo_inurba_marseille","lat":43.284534,"lon":5.358662,"is_reserved":false,"is_disabled":false,"rental_uris":{"android":"levelo://app?vid=e718df89-2b7f-434a-9d05-be9879408085","ios":"levelo://app?vid=e718df89-2b7f-434a-9d05-be9879408085"},"vehicle_type_id":"4","last_reported":1698707186,"current_range_meters":10000,"station_id":"ce4bhah2rcd13ifvqei0","pricing_plan_id":"free"},{"bike_id":"5eded460-ce65-4f50-9a94-481f3e64aed0","system_id":"levelo_inurba_marseille","lat":43.284584,"lon":5.358917,"is_reserved":false,"is_disabled":false,"rental_uris":{"android":"levelo://app?vid=5eded460-ce65-4f50-9a94-481f3e64aed0","ios":"levelo://app?vid=5eded460-ce65-4f50-9a94-481f3e64aed0"},"vehicle_type_id":"4","last_reported":1698707186,"current_range_meters":15200,"station_id":"ce4bhah2rcd13ifvqei0","pricing_plan_id":"free"},{"bike_id":"4fcc6ecd-2b85-4ec2-84b5-afed81b310ba","system_id":"levelo_inurba_marseille","lat":43.284534,"lon":5.358662,"is_reserved":false,"is_disabled":false,"rental_uris":{"android":"levelo://app?vid=4fcc6ecd-2b85-4ec2-84b5-afed81b310ba","ios":"levelo://app?vid=4fcc6ecd-2b85-4ec2-84b5-afed81b310ba"},"vehicle_type_id":"4","last_reported":1698707186,"current_range_meters":0,"station_id":"ce4bhah2rcd13ifvqei0","pricing_plan_id":"free"},{"bike_id":"06735c8f-9523-4cb9-8233-49e337c15d44","system_id":"levelo_inurba_marseille","lat":43.284534,"lon":5.358662,"is_reserved":false,"is_disabled":false,"rental_uris":{"android":"levelo://app?vid=06735c8f-9523-4cb9-8233-49e337c15d44","ios":"levelo://app?vid=06735c8f-9523-4cb9-8233-49e337c15d44"},"vehicle_type_id":"4","last_reported":1698707186,"current_range_meters":3600,"station_id":"ce4bhah2rcd13ifvqei0","pricing_plan_id":"free"},{"bike_id":"da432c07-983b-42d2-b980-5d2664e5cccd","system_id":"levelo_inurba_marseille","lat":43.284534,"lon":5.358662,"is_reserved":false,"is_disabled":false,"rental_uris":{"android":"levelo://app?vid=da432c07-983b-42d2-b980-5d2664e5cccd","ios":"levelo://app?vid=da432c07-983b-42d2-b980-5d2664e5cccd"},"vehicle_type_id":"4","last_reported":1698707186,"current_range_meters":26400,"station_id":"ce4bhah2rcd13ifvqei0","pricing_plan_id":"free"},{"bike_id":"befc823a-0dab-4f04-b977-5a8976f6d991","system_id":"levelo_inurba_marseille","lat":43.284534,"lon":5.358662,"is_reserved":false,"is_disabled":false,"rental_uris":{"android":"levelo://app?vid=befc823a-0dab-4f04-b977-5a8976f6d991","ios":"levelo://app?vid=befc823a-0dab-4f04-b977-5a8976f6d991"},"vehicle_type_id":"4","last_reported":1698707186,"current_range_meters":21600,"station_id":"ce4bhah2rcd13ifvqei0","pricing_plan_id":"free"},{"bike_id":"7e228510-488a-4455-ae29-c48d1e253c03","system_id":"levelo_inurba_marseille","lat":43.284534,"lon":5.358662,"is_reserved":false,"is_disabled":false,"rental_uris":{"android":"levelo://app?vid=7e228510-488a-4455-ae29-c48d1e253c03","ios":"levelo://app?vid=7e228510-488a-4455-ae29-c48d1e253c03"},"vehicle_type_id":"4","last_reported":1698707186,"current_range_meters":7600,"station_id":"ce4bhah2rcd13ifvqei0","pricing_plan_id":"free"},{"bike_id":"8b106b54-299a-4db9-aec2-e64e0b7c61bf","system_id":"levelo_inurba_marseille","lat":43.284534,"lon":5.358662,"is_reserved":false,"is_disabled":false,"rental_uris":{"android":"levelo://app?vid=8b106b54-299a-4db9-aec2-e64e0b7c61bf","ios":"levelo://app?vid=8b106b54-299a-4db9-aec2-e64e0b7c61bf"},"vehicle_type_id":"4","last_reported":1698707186,"current_range_meters":7200,"station_id":"ce4bhah2rcd13ifvqei0","pricing_plan_id":"free"},{"bike_id":"0efad326-c186-4e10-bd00-44376f32a168","system_id":"levelo_inurba_marseille","lat":43.284534,"lon":5.358662,"is_reserved":false,"is_disabled":false,"rental_uris":{"android":"levelo://app?vid=0efad326-c186-4e10-bd00-44376f32a168","ios":"levelo://app?vid=0efad326-c186-4e10-bd00-44376f32a168"},"vehicle_type_id":"4","last_reported":1698707186,"current_range_meters":8800,"station_id":"ce4bhah2rcd13ifvqei0","pricing_plan_id":"free"},{"bike_id":"5d3d3eab-e717-4672-aabf-d20a8c27934e","system_id":"levelo_inurba_marseille","lat":43.294314,"lon":5.397498,"is_reserved":false,"is_disabled":false,"rental_uris":{"android":"levelo://app?vid=5d3d3eab-e717-4672-aabf-d20a8c27934e","ios":"levelo://app?vid=5d3d3eab-e717-4672-aabf-d20a8c27934e"},"vehicle_type_id":"4","last_reported":1698707186,"current_range_meters":27200,"station_id":"ce4bh3h2rcd13ifvqdo0","pricing_plan_id":"free"},{"bike_id":"82e6ee5f-87ff-4fb4-820d-244ba46b5a0b","system_id":"levelo_inurba_marseille","lat":43.28615,"lon":5.35105,"is_reserved":false,"is_disabled":false,"rental_uris":{"android":"levelo://app?vid=82e6ee5f-87ff-4fb4-820d-244ba46b5a0b","ios":"levelo://app?vid=82e6ee5f-87ff-4fb4-820d-244ba46b5a0b"},"vehicle_type_id":"4","last_reported":1698707186,"current_range_meters":14400,"station_id":"ce4bhch2rcd13ifvqeug","pricing_plan_id":"free"},{"bike_id":"6b503d00-8c46-46a6-ace0-a820c6aad76e","system_id":"levelo_inurba_marseille","lat":43.285856,"lon":5.350771,"is_reserved":false,"is_disabled":false,"rental_uris":{"android":"levelo://app?vid=6b503d00-8c46-46a6-ace0-a820c6aad76e","ios":"levelo://app?vid=6b503d00-8c46-46a6-ace0-a820c6aad76e"},"vehicle_type_id":"4","last_reported":1698707186,"current_range_meters":21600,"station_id":"ce4bhch2rcd13ifvqeug","pricing_plan_id":"free"},{"bike_id":"5e6eb8ca-4035-4fba-ba05-f273c95fa655","system_id":"levelo_inurba_marseille","lat":43.28614,"lon":5.35099,"is_reserved":false,"is_disabled":false,"rental_uris":{"android":"levelo://app?vid=5e6eb8ca-4035-4fba-ba05-f273c95fa655","ios":"levelo://app?vid=5e6eb8ca-4035-4fba-ba05-f273c95fa655"},"vehicle_type_id":"4","last_reported":1698707186,"current_range_meters":4400,"station_id":"ce4bhch2rcd13ifvqeug","pricing_plan_id":"free"},{"bike_id":"6993bb6d-884d-4d17-b572-bc14f19c60f1","system_id":"levelo_inurba_marseille","lat":43.283998,"lon":5.375062,"is_reserved":false,"is_disabled":false,"rental_uris":{"android":"levelo://app?vid=6993bb6d-884d-4d17-b572-bc14f19c60f1","ios":"levelo://app?vid=6993bb6d-884d-4d17-b572-bc14f19c60f1"},"vehicle_type_id":"4","last_reported":1698707186,"current_range_meters":23200,"station_id":"ce4bh412rcd13ifvqds0","pricing_plan_id":"free"},{"bike_id":"a88221e4-b07a-4bf1-b517-cfac7de9c8b8","system_id":"levelo_inurba_marseille","lat":43.33258,"lon":5.39634,"is_reserved":false,"is_disabled":false,"rental_uris":{"android":"levelo://app?vid=a88221e4-b07a-4bf1-b517-cfac7de9c8b8","ios":"levelo://app?vid=a88221e4-b07a-4bf1-b517-cfac7de9c8b8"},"vehicle_type_id":"4","last_reported":1698707186,"current_range_meters":20800,"station_id":"","pricing_plan_id":"free"},{"bike_id":"91f10432-124c-438b-8221-38f9e2fd0625","system_id":"levelo_inurba_marseille","lat":43.283998,"lon":5.375062,"is_reserved":false,"is_disabled":false,"rental_uris":{"android":"levelo://app?vid=91f10432-124c-438b-8221-38f9e2fd0625","ios":"levelo://app?vid=91f10432-124c-438b-8221-38f9e2fd0625"},"vehicle_type_id":"4","last_reported":1698707186,"current_range_meters":22000,"station_id":"ce4bh412rcd13ifvqds0","pricing_plan_id":"free"},{"bike_id":"e5a0864a-f440-4c8f-aae0-31f92bc04fd5","system_id":"levelo_inurba_marseille","lat":43.28413,"lon":5.37514,"is_reserved":false,"is_disabled":false,"rental_uris":{"android":"levelo://app?vid=e5a0864a-f440-4c8f-aae0-31f92bc04fd5","ios":"levelo://app?vid=e5a0864a-f440-4c8f-aae0-31f92bc04fd5"},"vehicle_type_id":"4","last_reported":1698707186,"current_range_meters":8400,"station_id":"ce4bh412rcd13ifvqds0","pricing_plan_id":"free"},{"bike_id":"37771ebe-3c9d-4563-b2f5-e0d43df481c8","system_id":"levelo_inurba_marseille","lat":43.283998,"lon":5.375062,"is_reserved":false,"is_disabled":false,"rental_uris":{"android":"levelo://app?vid=37771ebe-3c9d-4563-b2f5-e0d43df481c8","ios":"levelo://app?vid=37771ebe-3c9d-4563-b2f5-e0d43df481c8"},"vehicle_type_id":"4","last_reported":1698707186,"current_range_meters":18800,"station_id":"ce4bh412rcd13ifvqds0","pricing_plan_id":"free"},{"bike_id":"2255c7f2-b2a1-4bc2-b2df-40d4d40e2aff","system_id":"levelo_inurba_marseille","lat":43.283998,"lon":5.375062,"is_reserved":false,"is_disabled":false,"rental_uris":{"android":"levelo://app?vid=2255c7f2-b2a1-4bc2-b2df-40d4d40e2aff","ios":"levelo://app?vid=2255c7f2-b2a1-4bc2-b2df-40d4d40e2aff"},"vehicle_type_id":"4","last_reported":1698707186,"current_range_meters":30800,"station_id":"ce4bh412rcd13ifvqds0","pricing_plan_id":"free"},{"bike_id":"f5cdeda8-be05-402b-a19f-38168fb8ffaf","system_id":"levelo_inurba_marseille","lat":43.295713,"lon":5.399639,"is_reserved":false,"is_disabled":false,"rental_uris":{"android":"levelo://app?vid=f5cdeda8-be05-402b-a19f-38168fb8ffaf","ios":"levelo://app?vid=f5cdeda8-be05-402b-a19f-38168fb8ffaf"},"vehicle_type_id":"4","last_reported":1698707186,"current_range_meters":25600,"station_id":"ce4bh312rcd13ifvqdj0","pricing_plan_id":"free"},{"bike_id":"4a9e75c0-d069-4167-b084-e44fd8c33c36","system_id":"levelo_inurba_marseille","lat":43.295713,"lon":5.399639,"is_reserved":false,"is_disabled":false,"rental_uris":{"android":"levelo://app?vid=4a9e75c0-d069-4167-b084-e44fd8c33c36","ios":"levelo://app?vid=4a9e75c0-d069-4167-b084-e44fd8c33c36"},"vehicle_type_id":"4","last_reported":1698707186,"current_range_meters":22400,"station_id":"ce4bh312rcd13ifvqdj0","pricing_plan_id":"free"},{"bike_id":"11b16ed3-288b-4f4f-9536-15f40a531e1e","system_id":"levelo_inurba_marseille","lat":43.295713,"lon":5.399639,"is_reserved":false,"is_disabled":false,"rental_uris":{"android":"levelo://app?vid=11b16ed3-288b-4f4f-9536-15f40a531e1e","ios":"levelo://app?vid=11b16ed3-288b-4f4f-9536-15f40a531e1e"},"vehicle_type_id":"4","last_reported":1698707186,"current_range_meters":29200,"station_id":"ce4bh312rcd13ifvqdj0","pricing_plan_id":"free"},{"bike_id":"53cd843c-ab13-4d23-8756-7174a8d650e3","system_id":"levelo_inurba_marseille","lat":43.295713,"lon":5.399639,"is_reserved":false,"is_disabled":false,"rental_uris":{"android":"levelo://app?vid=53cd843c-ab13-4d23-8756-7174a8d650e3","ios":"levelo://app?vid=53cd843c-ab13-4d23-8756-7174a8d650e3"},"vehicle_type_id":"4","last_reported":1698707186,"current_range_meters":25600,"station_id":"ce4bh312rcd13ifvqdj0","pricing_plan_id":"free"},{"bike_id":"b92c4f34-e29f-48b9-a318-b95ac6862592","system_id":"levelo_inurba_marseille","lat":43.284,"lon":5.37513,"is_reserved":false,"is_disabled":false,"rental_uris":{"android":"levelo://app?vid=b92c4f34-e29f-48b9-a318-b95ac6862592","ios":"levelo://app?vid=b92c4f34-e29f-48b9-a318-b95ac6862592"},"vehicle_type_id":"4","last_reported":1698707186,"current_range_meters":20400,"station_id":"","pricing_plan_id":"free"},{"bike_id":"ca502a18-ef73-467a-9cb3-09b9ac201324","system_id":"levelo_inurba_marseille","lat":43.329657,"lon":5.399923,"is_reserved":false,"is_disabled":false,"rental_uris":{"android":"levelo://app?vid=ca502a18-ef73-467a-9cb3-09b9ac201324","ios":"levelo://app?vid=ca502a18-ef73-467a-9cb3-09b9ac201324"},"vehicle_type_id":"4","last_reported":1698707186,"current_range_meters":14800,"station_id":"","pricing_plan_id":"free"},{"bike_id":"575ffc8b-a468-4816-997a-50798c6b7fe6","system_id":"levelo_inurba_marseille","lat":43.286595,"lon":5.386795,"is_reserved":false,"is_disabled":false,"rental_uris":{"android":"levelo://app?vid=575ffc8b-a468-4816-997a-50798c6b7fe6","ios":"levelo://app?vid=575ffc8b-a468-4816-997a-50798c6b7fe6"},"vehicle_type_id":"4","last_reported":1698707186,"current_range_meters":0,"station_id":"ce4bh492rcd13ifvqdug","pricing_plan_id":"free"},{"bike_id":"f805bd9a-39d1-4a28-9435-f4000879feba","system_id":"levelo_inurba_marseille","lat":43.33717,"lon":5.391857,"is_reserved":false,"is_disabled":false,"rental_uris":{"android":"levelo://app?vid=f805bd9a-39d1-4a28-9435-f4000879feba","ios":"levelo://app?vid=f805bd9a-39d1-4a28-9435-f4000879feba"},"vehicle_type_id":"4","last_reported":1698707186,"current_range_meters":30000,"station_id":"ce4bhr92rcd13ifvqhsg","pricing_plan_id":"free"},{"bike_id":"dee60840-3a51-43fa-9f4b-75ee88b36672","system_id":"levelo_inurba_marseille","lat":43.323464,"lon":5.406297,"is_reserved":false,"is_disabled":false,"rental_uris":{"android":"levelo://app?vid=dee60840-3a51-43fa-9f4b-75ee88b36672","ios":"levelo://app?vid=dee60840-3a51-43fa-9f4b-75ee88b36672"},"vehicle_type_id":"4","last_reported":1698707186,"current_range_meters":31200,"station_id":"ce4bhq92rcd13ifvqhjg","pricing_plan_id":"free"},{"bike_id":"b7d4af58-6dda-455a-82ec-d9026e43abcd","system_id":"levelo_inurba_marseille","lat":43.323464,"lon":5.406297,"is_reserved":false,"is_disabled":false,"rental_uris":{"android":"levelo://app?vid=b7d4af58-6dda-455a-82ec-d9026e43abcd","ios":"levelo://app?vid=b7d4af58-6dda-455a-82ec-d9026e43abcd"},"vehicle_type_id":"4","last_reported":1698707186,"current_range_meters":31200,"station_id":"ce4bhq92rcd13ifvqhjg","pricing_plan_id":"free"},{"bike_id":"1a8a2e6c-6576-4ad7-a05f-93f99de0a8db","system_id":"levelo_inurba_marseille","lat":43.337168,"lon":5.391825,"is_reserved":false,"is_disabled":false,"rental_uris":{"android":"levelo://app?vid=1a8a2e6c-6576-4ad7-a05f-93f99de0a8db","ios":"levelo://app?vid=1a8a2e6c-6576-4ad7-a05f-93f99de0a8db"},"vehicle_type_id":"4","last_reported":1698707186,"current_range_meters":30800,"station_id":"ce4bhr92rcd13ifvqhsg","pricing_plan_id":"free"},{"bike_id":"fceb2f5a-6aa3-462f-83db-0b9253193b47","system_id":"levelo_inurba_marseille","lat":43.323464,"lon":5.406297,"is_reserved":false,"is_disabled":false,"rental_uris":{"android":"levelo://app?vid=fceb2f5a-6aa3-462f-83db-0b9253193b47","ios":"levelo://app?vid=fceb2f5a-6aa3-462f-83db-0b9253193b47"},"vehicle_type_id":"4","last_reported":1698707186,"current_range_meters":30400,"station_id":"ce4bhq92rcd13ifvqhjg","pricing_plan_id":"free"},{"bike_id":"c5af369d-bd2b-40fb-9951-c424b52f1677","system_id":"levelo_inurba_marseille","lat":43.297946,"lon":5.404063,"is_reserved":false,"is_disabled":false,"rental_uris":{"android":"levelo://app?vid=c5af369d-bd2b-40fb-9951-c424b52f1677","ios":"levelo://app?vid=c5af369d-bd2b-40fb-9951-c424b52f1677"},"vehicle_type_id":"4","last_reported":1698707186,"current_range_meters":19600,"station_id":"ce4bh112rcd13ifvqd90","pricing_plan_id":"free"},{"bike_id":"1eca5e61-29fb-47d8-a63e-be161144dc66","system_id":"levelo_inurba_marseille","lat":43.283494,"lon":5.380945,"is_reserved":false,"is_disabled":false,"rental_uris":{"android":"levelo://app?vid=1eca5e61-29fb-47d8-a63e-be161144dc66","ios":"levelo://app?vid=1eca5e61-29fb-47d8-a63e-be161144dc66"},"vehicle_type_id":"4","last_reported":1698707186,"current_range_meters":0,"station_id":"ce4bh412rcd13ifvqdr0","pricing_plan_id":"free"},{"bike_id":"2f666bbb-190f-4291-ade2-95e2c0cfd815","system_id":"levelo_inurba_marseille","lat":43.325281,"lon":5.405683,"is_reserved":false,"is_disabled":false,"rental_uris":{"android":"levelo://app?vid=2f666bbb-190f-4291-ade2-95e2c0cfd815","ios":"levelo://app?vid=2f666bbb-190f-4291-ade2-95e2c0cfd815"},"vehicle_type_id":"4","last_reported":1698707186,"current_range_meters":8800,"station_id":"","pricing_plan_id":"free"},{"bike_id":"69dc1230-39c3-4fd8-9c94-203791d0326a","system_id":"levelo_inurba_marseille","lat":43.283494,"lon":5.380945,"is_reserved":false,"is_disabled":false,"rental_uris":{"android":"levelo://app?vid=69dc1230-39c3-4fd8-9c94-203791d0326a","ios":"levelo://app?vid=69dc1230-39c3-4fd8-9c94-203791d0326a"},"vehicle_type_id":"4","last_reported":1698707186,"current_range_meters":28800,"station_id":"ce4bh412rcd13ifvqdr0","pricing_plan_id":"free"},{"bike_id":"03c64db7-0a4b-440e-8262-40cf5d248548","system_id":"levelo_inurba_marseille","lat":43.283494,"lon":5.380945,"is_reserved":false,"is_disabled":false,"rental_uris":{"android":"levelo://app?vid=03c64db7-0a4b-440e-8262-40cf5d248548","ios":"levelo://app?vid=03c64db7-0a4b-440e-8262-40cf5d248548"},"vehicle_type_id":"4","last_reported":1698707186,"current_range_meters":30000,"station_id":"ce4bh412rcd13ifvqdr0","pricing_plan_id":"free"},{"bike_id":"5e21b8d7-861f-4ca4-b688-ad06b650a072","system_id":"levelo_inurba_marseille","lat":43.283498,"lon":5.380948,"is_reserved":false,"is_disabled":false,"rental_uris":{"android":"levelo://app?vid=5e21b8d7-861f-4ca4-b688-ad06b650a072","ios":"levelo://app?vid=5e21b8d7-861f-4ca4-b688-ad06b650a072"},"vehicle_type_id":"4","last_reported":1698707186,"current_range_meters":31200,"station_id":"ce4bh412rcd13ifvqdr0","pricing_plan_id":"free"},{"bike_id":"94fca44f-849c-465e-a0f9-aefe5f5ac0fc","system_id":"levelo_inurba_marseille","lat":43.283498,"lon":5.380948,"is_reserved":false,"is_disabled":false,"rental_uris":{"android":"levelo://app?vid=94fca44f-849c-465e-a0f9-aefe5f5ac0fc","ios":"levelo://app?vid=94fca44f-849c-465e-a0f9-aefe5f5ac0fc"},"vehicle_type_id":"4","last_reported":1698707186,"current_range_meters":19600,"station_id":"ce4bh412rcd13ifvqdr0","pricing_plan_id":"free"},