{"last_updated":1743228736,"ttl":60,"version":"2.2","data":{"bikes":[{"bike_id":"980ff761-ef4f-469b-8661-624f949ac9ec","system_id":"levelo_inurba_marseille","lat":43.258198,"lon":5.394372,"is_reserved":false,"is_disabled":false,"rental_uris":{"android":"levelo://app?vid=980ff761-ef4f-469b-8661-624f949ac9ec","ios":"levelo://app?vid=980ff761-ef4f-469b-8661-624f949ac9ec"},"vehicle_type_id":"4","last_reported":1743228736,"current_range_meters":2800,"station_id":"ce4bhip2rcd13ifvqft0","pricing_plan_id":"cebpf4jnsgd1na2vs0mg"},{"bike_id":"562d152b-de7c-40bf-84ea-a8d455a931c4","system_id":"levelo_inurba_marseille","lat":43.30591,"lon":5.37263,"is_reserved":false,"is_disabled":false,"rental_uris":{"android":"levelo://app?vid=562d152b-de7c-40bf-84ea-a8d455a931c4","ios":"levelo://app?vid=562d152b-de7c-40bf-84ea-a8d455a931c4"},"vehicle_type_id":"4","last_reported":1743228736,"current_range_meters":2800,"station_id":"ce4bgqh2rcd13ifvqc4g","pricing_plan_id":"cebpf4jnsgd1na2vs0mg"},{"bike_id":"f264c0e3-93c9-4f1d-9365-cc6236e6ec76","system_id":"levelo_inurba_marseille","lat":43.28624,"lon":5.36255,"is_reserved":false,"is_disabled":false,"rental_uris":{"android":"levelo://app?vid=f264c0e3-93c9-4f1d-9365-cc6236e6ec76","ios":"levelo://app?vid=f264c0e3-93c9-4f1d-9365-cc6236e6ec76"},"vehicle_type_id":"4","last_reported":1743228736,"current_range_meters":3200,"station_id":"","pricing_plan_id":"cebpf4jnsgd1na2vs0mg"},{"bike_id":"9b6b5664-07f9-450e-a946-ff576f414882","system_id":"levelo_inurba_marseille","lat":43.27974,"lon":5.38589,"is_reserved":false,"is_disabled":false,"rental_uris":{"android":"levelo://app?vid=9b6b5664-07f9-450e-a946-ff576f414882","ios":"levelo://app?vid=9b6b5664-07f9-450e-a946-ff576f414882"},"vehicle_type_id":"4","last_reported":1743228736,"current_range_meters":3200,"station_id":"","pricing_plan_id":"cebpf4jnsgd1na2vs0mg"},{"bike_id":"364d8473-fd43-489e-b696-eaa17658eaac","system_id":"levelo_inurba_marseille","lat":43.30877,"lon":5.3964,"is_reserved":false,"is_disabled":false,"rental_uris":{"android":"levelo://app?vid=364d8473-fd43-489e-b696-eaa17658eaac","ios":"levelo://app?vid=364d8473-fd43-489e-b696-eaa17658eaac"},"vehicle_type_id":"4","last_reported":1743228736,"current_range_meters":3200,"station_id":"ce4bh012rcd13ifvqcv0","pricing_plan_id":"cebpf4jnsgd1na2vs0mg"},{"bike_id":"b53201dc-9476-4608-b029-c9ae750a5c5b","system_id":"levelo_inurba_marseille","lat":43.3135,"lon":5.38518,"is_reserved":false,"is_disabled":false,"rental_uris":{"android":"levelo://app?vid=b53201dc-9476-4608-b029-c9ae750a5c5b","ios":"levelo://app?vid=b53201dc-9476-4608-b029-c9ae750a5c5b"},"vehicle_type_id":"4","last_reported":1743228736,"current_range_meters":3200,"station_id":"ce4bgt92rcd13ifvqcf0","pricing_plan_id":"cebpf4jnsgd1na2vs0mg"},{"bike_id":"fb94d37c-a5f0-424c-9c95-a0f43cd760b8","system_id":"levelo_inurba_marseille","lat":43.30409,"lon":5.39777,"is_reserved":false,"is_disabled":true,"rental_uris":{"android":"levelo://app?vid=fb94d37c-a5f0-424c-9c95-a0f43cd760b8","ios":"levelo://app?vid=fb94d37c-a5f0-424c-9c95-a0f43cd760b8"},"vehicle_type_id":"4","last_reported":1743228736,"current_range_meters":3200,"station_id":"ce4bh092rcd13ifvqd20","pricing_plan_id":"cebpf4jnsgd1na2vs0mg"},{"bike_id":"19221227-42ec-4f4b-8f04-42a0818e22f5","system_id":"levelo_inurba_marseille","lat":43.32079,"lon":5.36827,"is_reserved":false,"is_disabled":true,"rental_uris":{"android":"levelo://app?vid=19221227-42ec-4f4b-8f04-42a0818e22f5","ios":"levelo://app?vid=19221227-42ec-4f4b-8f04-42a0818e22f5"},"vehicle_type_id":"4","last_reported":1743228736,"current_range_meters":3600,"station_id":"ce4bhrh2rcd13ifvqhug","pricing_plan_id":"cebpf4jnsgd1na2vs0mg"},{"bike_id":"67a1a2f2-eb76-40dd-b124-62581646fa46","system_id":"levelo_inurba_marseille","lat":43.28027,"lon":5.36944,"is_reserved":false,"is_disabled":false,"rental_uris":{"android":"levelo://app?vid=67a1a2f2-eb76-40dd-b124-62581646fa46","ios":"levelo://app?vid=67a1a2f2-eb76-40dd-b124-62581646fa46"},"vehicle_type_id":"4","last_reported":1743228736,"current_range_meters":3600,"station_id":"ce4bha12rcd13ifvqef0","pricing_plan_id":"cebpf4jnsgd1na2vs0mg"},{"bike_id":"3801425b-e231-40ba-bc6c-f689dbd7e8f2","system_id":"levelo_inurba_marseille","lat":43.24646,"lon":5.38208,"is_reserved":false,"is_disabled":false,"rental_uris":{"android":"levelo://app?vid=3801425b-e231-40ba-bc6c-f689dbd7e8f2","ios":"levelo://app?vid=3801425b-e231-40ba-bc6c-f689dbd7e8f2"},"vehicle_type_id":"4","last_reported":1743228736,"current_range_meters":3600,"station_id":"ce4bhih2rcd13ifvqfr0","pricing_plan_id":"cebpf4jnsgd1na2vs0mg"},{"bike_id":"fc8e8371-f4e9-4721-bc19-563801e389dc","system_id":"levelo_inurba_marseille","lat":43.337444,"lon":5.374475,"is_reserved":false,"is_disabled":false,"rental_uris":{"android":"levelo://app?vid=fc8e8371-f4e9-4721-bc19-563801e389dc","ios":"levelo://app?vid=fc8e8371-f4e9-4721-bc19-563801e389dc"},"vehicle_type_id":"4","last_reported":1743228736,"current_range_meters":3600,"station_id":"","pricing_plan_id":"cebpf4jnsgd1na2vs0mg"},{"bike_id":"7fe9a38f-4d97-49ec-8db6-139f7c5ded5a","system_id":"levelo_inurba_marseille","lat":43.28936,"lon":5.36642,"is_reserved":false,"is_disabled":false,"rental_uris":{"android":"levelo://app?vid=7fe9a38f-4d97-49ec-8db6-139f7c5ded5a","ios":"levelo://app?vid=7fe9a38f-4d97-49ec-8db6-139f7c5ded5a"},"vehicle_type_id":"4","last_reported":1743228736,"current_range_meters":4000,"station_id":"ce4bhap2rcd13ifvqek0","pricing_plan_id":"cebpf4jnsgd1na2vs0mg"},{"bike_id":"ddb3e057-8a1c-4f4a-8056-17b5b845e0b9","system_id":"levelo_inurba_marseille","lat":43.280938,"lon":5.398784,"is_reserved":false,"is_disabled":false,"rental_uris":{"android":"levelo://app?vid=ddb3e057-8a1c-4f4a-8056-17b5b845e0b9","ios":"levelo://app?vid=ddb3e057-8a1c-4f4a-8056-17b5b845e0b9"},"vehicle_type_id":"4","last_reported":1743228736,"current_range_meters":4000,"station_id":"","pricing_plan_id":"cebpf4jnsgd1na2vs0mg"},{"bike_id":"dcdfd9e0-c7f1-448b-8be0-772c5b33f307","system_id":"levelo_inurba_marseille","lat":43.31704,"lon":5.40473,"is_reserved":false,"is_disabled":false,"rental_uris":{"android":"levelo://app?vid=dcdfd9e0-c7f1-448b-8be0-772c5b33f307","ios":"levelo://app?vid=dcdfd9e0-c7f1-448b-8be0-772c5b33f307"},"vehicle_type_id":"4","last_reported":1743228736,"current_range_meters":4000,"station_id":"ce4bh012rcd13ifvqd00","pricing_plan_id":"cebpf4jnsgd1na2vs0mg"},{"bike_id":"c14a8fc7-e8db-45ab-b563-5fdd959cef0f","system_id":"levelo_inurba_marseille","lat":43.26014,"lon":5.41751,"is_reserved":false,"is_disabled":false,"rental_uris":{"android":"levelo://app?vid=c14a8fc7-e8db-45ab-b563-5fdd959cef0f","ios":"levelo://app?vid=c14a8fc7-e8db-45ab-b563-5fdd959cef0f"},"vehicle_type_id":"4","last_reported":1743228736,"current_range_meters":4000,"station_id":"","pricing_plan_id":"cebpf4jnsgd1na2vs0mg"},{"bike_id":"bdf77a47-5dce-4034-bfb2-e15bc7df990f","system_id":"levelo_inurba_marseille","lat":43.30596,"lon":5.3935,"is_reserved":false,"is_disabled":false,"rental_uris":{"android":"levelo://app?vid=bdf77a47-5dce-4034-bfb2-e15bc7df990f","ios":"levelo://app?vid=bdf77a47-5dce-4034-bfb2-e15bc7df990f"},"vehicle_type_id":"4","last_reported":1743228736,"current_range_meters":4400,"station_id":"ce4bh0p2rcd13ifvqd80","pricing_plan_id":"cebpf4jnsgd1na2vs0mg"},{"bike_id":"a43e5931-5a4e-4bcf-977d-45358e944f12","system_id":"levelo_inurba_marseille","lat":43.28034,"lon":5.36951,"is_reserved":false,"is_disabled":false,"rental_uris":{"android":"levelo://app?vid=a43e5931-5a4e-4bcf-977d-45358e944f12","ios":"levelo://app?vid=a43e5931-5a4e-4bcf-977d-45358e944f12"},"vehicle_type_id":"4","last_reported":1743228736,"current_range_meters":4400,"station_id":"ce4bha12rcd13ifvqef0","pricing_plan_id":"cebpf4jnsgd1na2vs0mg"},{"bike_id":"5c45b865-aa62-4eb2-b90a-e3b937bfc4d8","system_id":"levelo_inurba_marseille","lat":43.28607,"lon":5.37063,"is_reserved":false,"is_disabled":false,"rental_uris":{"android":"levelo://app?vid=5c45b865-aa62-4eb2-b90a-e3b937bfc4d8","ios":"levelo://app?vid=5c45b865-aa62-4eb2-b90a-e3b937bfc4d8"},"vehicle_type_id":"4","last_reported":1743228736,"current_range_meters":4400,"station_id":"ce4bht12rcd13ifvqi60","pricing_plan_id":"cebpf4jnsgd1na2vs0mg"},{"bike_id":"fd3421f3-9336-4d90-b616-c4936932ff9c","system_id":"levelo_inurba_marseille","lat":43.330067,"lon":5.391831,"is_reserved":false,"is_disabled":false,"rental_uris":{"android":"levelo://app?vid=fd3421f3-9336-4d90-b616-c4936932ff9c","ios":"levelo://app?vid=fd3421f3-9336-4d90-b616-c4936932ff9c"},"vehicle_type_id":"4","last_reported":1743228736,"current_range_meters":4400,"station_id":"","pricing_plan_id":"cebpf4jnsgd1na2vs0mg"},{"bike_id":"64f0ea86-1180-4755-95e1-3cbc9c8d4cf5","system_id":"levelo_inurba_marseille","lat":43.33004,"lon":5.43865,"is_reserved":false,"is_disabled":true,"rental_uris":{"android":"levelo://app?vid=64f0ea86-1180-4755-95e1-3cbc9c8d4cf5","ios":"levelo://app?vid=64f0ea86-1180-4755-95e1-3cbc9c8d4cf5"},"vehicle_type_id":"4","last_reported":1743228736,"current_range_meters":4400,"station_id":"","pricing_plan_id":"cebpf4jnsgd1na2vs0mg"},{"bike_id":"a8378dcb-c63c-4ffe-9fb7-885a8f569a7a","system_id":"levelo_inurba_marseille","lat":43.23172,"lon":5.40007,"is_reserved":false,"is_disabled":false,"rental_uris":{"android":"levelo://app?vid=a8378dcb-c63c-4ffe-9fb7-885a8f569a7a","ios":"levelo://app?vid=a8378dcb-c63c-4ffe-9fb7-885a8f569a7a"},"vehicle_type_id":"4","last_reported":1743228736,"current_range_meters":4400,"station_id":"ce4bhn12rcd13ifvqgqg","pricing_plan_id":"cebpf4jnsgd1na2vs0mg"},{"bike_id":"e8fe3ebb-2f5c-4c4e-9de9-c1912783f48b","system_id":"levelo_inurba_marseille","lat":43.29264,"lon":5.40154,"is_reserved":false,"is_disabled":false,"rental_uris":{"android":"levelo://app?vid=e8fe3ebb-2f5c-4c4e-9de9-c1912783f48b","ios":"levelo://app?vid=e8fe3ebb-2f5c-4c4e-9de9-c1912783f48b"},"vehicle_type_id":"4","last_reported":1743228736,"current_range_meters":4400,"station_id":"ce4bh312rcd13ifvqdk0","pricing_plan_id":"cebpf4jnsgd1na2vs0mg"},{"bike_id":"961245ca-8d90-4d71-b735-61afea929100","system_id":"levelo_inurba_marseille","lat":43.24165,"lon":5.36413,"is_reserved":false,"is_disabled":false,"rental_uris":{"android":"levelo://app?vid=961245ca-8d90-4d71-b735-61afea929100","ios":"levelo://app?vid=961245ca-8d90-4d71-b735-61afea929100"},"vehicle_type_id":"4","last_reported":1743228736,"current_range_meters":4800,"station_id":"cpo36qri1sfpv3e86is0","pricing_plan_id":"cebpf4jnsgd1na2vs0mg"},{"bike_id":"14054c23-e1aa-4fb0-b7cc-6cf90b5fbd28","system_id":"levelo_inurba_marseille","lat":43.29783,"lon":5.381173,"is_reserved":false,"is_disabled":true,"rental_uris":{"android":"levelo://app?vid=14054c23-e1aa-4fb0-b7cc-6cf90b5fbd28","ios":"levelo://app?vid=14054c23-e1aa-4fb0-b7cc-6cf90b5fbd28"},"vehicle_type_id":"4","last_reported":1743228736,"current_range_meters":4800,"station_id":"ce4bgip2rcd13ifvqbb0","pricing_plan_id":"cebpf4jnsgd1na2vs0mg"},{"bike_id":"aa6c11aa-d87b-4227-b866-e0dbc799eed5","system_id":"levelo_inurba_marseille","lat":43.2853,"lon":5.35866,"is_reserved":false,"is_disabled":false,"rental_uris":{"android":"levelo://app?vid=aa6c11aa-d87b-4227-b866-e0dbc799eed5","ios":"levelo://app?vid=aa6c11aa-d87b-4227-b866-e0dbc799eed5"},"vehicle_type_id":"4","last_reported":1743228736,"current_range_meters":4800,"station_id":"","pricing_plan_id":"cebpf4jnsgd1na2vs0mg"},{"bike_id":"ec940620-2a09-4eae-aace-1a0a72b62180","system_id":"levelo_inurba_marseille","lat":43.302888,"lon":5.400743,"is_reserved":false,"is_disabled":false,"rental_uris":{"android":"levelo://app?vid=ec940620-2a09-4eae-aace-1a0a72b62180","ios":"levelo://app?vid=ec940620-2a09-4eae-aace-1a0a72b62180"},"vehicle_type_id":"4","last_reported":1743228736,"current_range_meters":4800,"station_id":"ce4bgvh2rcd13ifvqcs0","pricing_plan_id":"cebpf4jnsgd1na2vs0mg"},{"bike_id":"cd115686-8f4e-4fb1-81c7-4ea23d669c39","system_id":"levelo_inurba_marseille","lat":43.30241,"lon":5.40066,"is_reserved":false,"is_disabled":false,"rental_uris":{"android":"levelo://app?vid=cd115686-8f4e-4fb1-81c7-4ea23d669c39","ios":"levelo://app?vid=cd115686-8f4e-4fb1-81c7-4ea23d669c39"},"vehicle_type_id":"4","last_reported":1743228736,"current_range_meters":4800,"station_id":"ce4bgvh2rcd13ifvqcs0","pricing_plan_id":"cebpf4jnsgd1na2vs0mg"},{"bike_id":"0ac88cdf-dd3a-494f-aaa5-2b24d1ce393f","system_id":"levelo_inurba_marseille","lat":43.23205,"lon":5.35581,"is_reserved":false,"is_disabled":false,"rental_uris":{"android":"levelo://app?vid=0ac88cdf-dd3a-494f-aaa5-2b24d1ce393f","ios":"levelo://app?vid=0ac88cdf-dd3a-494f-aaa5-2b24d1ce393f"},"vehicle_type_id":"4","last_reported":1743228736,"current_range_meters":4800,"station_id":"ce4bhu92rcd13ifvqi70","pricing_plan_id":"cebpf4jnsgd1na2vs0mg"},{"bike_id":"9fcf6c19-ca43-495d-adde-b6e81ef78bd0","system_id":"levelo_inurba_marseille","lat":43.27902,"lon":5.39578,"is_reserved":false,"is_disabled":false,"rental_uris":{"android":"levelo://app?vid=9fcf6c19-ca43-495d-adde-b6e81ef78bd0","ios":"levelo://app?vid=9fcf6c19-ca43-495d-adde-b6e81ef78bd0"},"vehicle_type_id":"4","last_reported":1743228736,"current_range_meters":5600,"station_id":"ce4bhf92rcd13ifvqf40","pricing_plan_id":"cebpf4jnsgd1na2vs0mg"},{"bike_id":"0714e207-7246-458a-9d1d-be45c6f0f274","system_id":"levelo_inurba_marseille","lat":43.30316,"lon":5.40448,"is_reserved":false,"is_disabled":false,"rental_uris":{"android":"levelo://app?vid=0714e207-7246-458a-9d1d-be45c6f0f274","ios":"levelo://app?vid=0714e207-7246-458a-9d1d-be45c6f0f274"},"vehicle_type_id":"4","last_reported":1743228736,"current_range_meters":5600,"station_id":"ce4bh012rcd13ifvqd10","pricing_plan_id":"cebpf4jnsgd1na2vs0mg"},{"bike_id":"d0c2ba62-325f-42ee-b4c5-fe6707aa69d7","system_id":"levelo_inurba_marseille","lat":43.24802,"lon":5.37463,"is_reserved":false,"is_disabled":false,"rental_uris":{"android":"levelo://app?vid=d0c2ba62-325f-42ee-b4c5-fe6707aa69d7","ios":"levelo://app?vid=d0c2ba62-325f-42ee-b4c5-fe6707aa69d7"},"vehicle_type_id":"4","last_reported":1743228736,"current_range_meters":5600,"station_id":"ce4bhgh2rcd13ifvqfb0","pricing_plan_id":"cebpf4jnsgd1na2vs0mg"},{"bike_id":"df02a453-94b4-4aa9-bf3d-9e6faffee098","system_id":"levelo_inurba_marseille","lat":43.28986,"lon":5.42597,"is_reserved":false,"is_disabled":false,"rental_uris":{"android":"levelo://app?vid=df02a453-94b4-4aa9-bf3d-9e6faffee098","ios":"levelo://app?vid=df02a453-94b4-4aa9-bf3d-9e6faffee098"},"vehicle_type_id":"4","last_reported":1743228736,"current_range_meters":5600,"station_id":"","pricing_plan_id":"cebpf4jnsgd1na2vs0mg"},{"bike_id":"4deb4783-8cfd-4878-9232-6f4ec00fece7","system_id":"levelo_inurba_marseille","lat":43.30911,"lon":5.40178,"is_reserved":false,"is_disabled":false,"rental_uris":{"android":"levelo://app?vid=4deb4783-8cfd-4878-9232-6f4ec00fece7","ios":"levelo://app?vid=4deb4783-8cfd-4878-9232-6f4ec00fece7"},"vehicle_type_id":"4","last_reported":1743228736,"current_range_meters":5600,"station_id":"ce4bgvp2rcd13ifvqct0","pricing_plan_id":"cebpf4jnsgd1na2vs0mg"},{"bike_id":"5ce256d8-df5a-49ec-a9d7-d012197f7db8","system_id":"levelo_inurba_marseille","lat":43.29207,"lon":5.3605,"is_reserved":false,"is_disabled":false,"rental_uris":{"android":"levelo://app?vid=5ce256d8-df5a-49ec-a9d7-d012197f7db8","ios":"levelo://app?vid=5ce256d8-df5a-49ec-a9d7-d012197f7db8"},"vehicle_type_id":"4","last_reported":1743228736,"current_range_meters":6000,"station_id":"ce4bhbh2rcd13ifvqeqg","pricing_plan_id":"cebpf4jnsgd1na2vs0mg"},{"bike_id":"6026f9b7-25ae-4d64-8648-76338e9b1c4c","system_id":"levelo_inurba_marseille","lat":43.32364,"lon":5.388749,"is_reserved":false,"is_disabled":false,"rental_uris":{"android":"levelo://app?vid=6026f9b7-25ae-4d64-8648-76338e9b1c4c","ios":"levelo://app?vid=6026f9b7-25ae-4d64-8648-76338e9b1c4c"},"vehicle_type_id":"4","last_reported":1743228736,"current_range_meters":6000,"station_id":"ce4bhqp2rcd13ifvqhog","pricing_plan_id":"cebpf4jnsgd1na2vs0mg"},{"bike_id":"f6f9fa63-a538-4962-89a2-7e0fd8bec717","system_id":"levelo_inurba_marseille","lat":43.320018,"lon":5.38152,"is_reserved":false,"is_disabled":true,"rental_uris":{"android":"levelo://app?vid=f6f9fa63-a538-4962-89a2-7e0fd8bec717","ios":"levelo://app?vid=f6f9fa63-a538-4962-89a2-7e0fd8bec717"},"vehicle_type_id":"4","last_reported":1743228736,"current_range_meters":6000,"station_id":"ce4bhr12rcd13ifvqhpg","pricing_plan_id":"cebpf4jnsgd1na2vs0mg"},{"bike_id":"4eaa6cd8-7808-4f78-9aaf-097dc658bd4b","system_id":"levelo_inurba_marseille","lat":43.250025,"lon":5.389278,"is_reserved":false,"is_disabled":false,"rental_uris":{"android":"levelo://app?vid=4eaa6cd8-7808-4f78-9aaf-097dc658bd4b","ios":"levelo://app?vid=4eaa6cd8-7808-4f78-9aaf-097dc658bd4b"},"vehicle_type_id":"4","last_reported":1743228736,"current_range_meters":6000,"station_id":"ce4bhgp2rcd13ifvqfd0","pricing_plan_id":"cebpf4jnsgd1na2vs0mg"},{"bike_id":"92fb722b-55da-4f6e-9ecf-5551bd89806c","system_id":"levelo_inurba_marseille","lat":43.27919,"lon":5.396,"is_reserved":false,"is_disabled":false,"rental_uris":{"android":"levelo://app?vid=92fb722b-55da-4f6e-9ecf-5551bd89806c","ios":"levelo://app?vid=92fb722b-55da-4f6e-9ecf-5551bd89806c"},"vehicle_type_id":"4","last_reported":1743228736,"current_range_meters":6400,"station_id":"ce4bhf92rcd13ifvqf40","pricing_plan_id":"cebpf4jnsgd1na2vs0mg"},{"bike_id":"64614d85-14d6-4550-9679-122515eda3ee","system_id":"levelo_inurba_marseille","lat":43.26561,"lon":5.39027,"is_reserved":false,"is_disabled":false,"rental_uris":{"android":"levelo://app?vid=64614d85-14d6-4550-9679-122515eda3ee","ios":"levelo://app?vid=64614d85-14d6-4550-9679-122515eda3ee"},"vehicle_type_id":"4","last_reported":1743228736,"current_range_meters":6400,"station_id":"ce4bhe12rcd13ifvqf30","pricing_plan_id":"cebpf4jnsgd1na2vs0mg"},{"bike_id":"69d4a96e-aebb-48d7-9d81-4070f7503e98","system_id":"levelo_inurba_marseille","lat":43.30822,"lon":5.37459,"is_reserved":false,"is_disabled":false,"rental_uris":{"android":"levelo://app?vid=69d4a96e-aebb-48d7-9d81-4070f7503e98","ios":"levelo://app?vid=69d4a96e-aebb-48d7-9d81-4070f7503e98"},"vehicle_type_id":"4","last_reported":1743228736,"current_range_meters":6400,"station_id":"","pricing_plan_id":"cebpf4jnsgd1na2vs0mg"},{"bike_id":"6ed81b6d-3cb1-4986-bdfe-a63705d9298a","system_id":"levelo_inurba_marseille","lat":43.30257,"lon":5.40066,"is_reserved":false,"is_disabled":false,"rental_uris":{"android":"levelo://app?vid=6ed81b6d-3cb1-4986-bdfe-a63705d9298a","ios":"levelo://app?vid=6ed81b6d-3cb1-4986-bdfe-a63705d9298a"},"vehicle_type_id":"4","last_reported":1743228736,"current_range_meters":6400,"station_id":"ce4bgvh2rcd13ifvqcs0","pricing_plan_id":"cebpf4jnsgd1na2vs0mg"},{"bike_id":"50ea93e6-fff8-4d2c-95d0-0b9215818caa","system_id":"levelo_inurba_marseille","lat":43.26537,"lon":5.39039,"is_reserved":false,"is_disabled":false,"rental_uris":{"android":"levelo://app?vid=50ea93e6-fff8-4d2c-95d0-0b9215818caa","ios":"levelo://app?vid=50ea93e6-fff8-4d2c-95d0-0b9215818caa"},"vehicle_type_id":"4","last_reported":1743228736,"current_range_meters":6400,"station_id":"ce4bhe12rcd13ifvqf30","pricing_plan_id":"cebpf4jnsgd1na2vs0mg"},{"bike_id":"fd134268-1499-401e-bb83-137ea2b7a695","system_id":"levelo_inurba_marseille","lat":43.239633,"lon":5.366359,"is_reserved":false,"is_disabled":false,"rental_uris":{"android":"levelo://app?vid=fd134268-1499-401e-bb83-137ea2b7a695","ios":"levelo://app?vid=fd134268-1499-401e-bb83-137ea2b7a695"},"vehicle_type_id":"4","last_reported":1743228736,"current_range_meters":6400,"station_id":"ce4bhi12rcd13ifvqfp0","pricing_plan_id":"cebpf4jnsgd1na2vs0mg"},{"bike_id":"9bc52cdb-14cf-4540-8365-7549893a9d2f","system_id":"levelo_inurba_marseille","lat":43.28482,"lon":5.38436,"is_reserved":false,"is_disabled":false,"rental_uris":{"android":"levelo://app?vid=9bc52cdb-14cf-4540-8365-7549893a9d2f","ios":"levelo://app?vid=9bc52cdb-14cf-4540-8365-7549893a9d2f"},"vehicle_type_id":"4","last_reported":1743228736,"current_range_meters":6400,"station_id":"ce4bh512rcd13ifvqe3g","pricing_plan_id":"cebpf4jnsgd1na2vs0mg"},{"bike_id":"a3514274-c949-4c91-b768-3857fda27d00","system_id":"levelo_inurba_marseille","lat":43.28609,"lon":5.37065,"is_reserved":false,"is_disabled":false,"rental_uris":{"android":"levelo://app?vid=a3514274-c949-4c91-b768-3857fda27d00","ios":"levelo://app?vid=a3514274-c949-4c91-b768-3857fda27d00"},"vehicle_type_id":"4","last_reported":1743228736,"current_range_meters":6400,"station_id":"ce4bht12rcd13ifvqi60","pricing_plan_id":"cebpf4jnsgd1na2vs0mg"},{"bike_id":"9faffa80-67d4-4e2a-9130-9db11f86ce81","system_id":"levelo_inurba_marseille","lat":43.28656,"lon":5.40067,"is_reserved":false,"is_disabled":false,"rental_uris":{"android":"levelo://app?vid=9faffa80-67d4-4e2a-9130-9db11f86ce81","ios":"levelo://app?vid=9faffa80-67d4-4e2a-9130-9db11f86ce81"},"vehicle_type_id":"4","last_reported":1743228736,"current_range_meters":6400,"station_id":"","pricing_plan_id":"cebpf4jnsgd1na2vs0mg"},{"bike_id":"d8995671-8d10-4595-a48d-c072afc16bcb","system_id":"levelo_inurba_marseille","lat":43.28603,"lon":5.35126,"is_reserved":false,"is_disabled":false,"rental_uris":{"android":"levelo://app?vid=d8995671-8d10-4595-a48d-c072afc16bcb","ios":"levelo://app?vid=d8995671-8d10-4595-a48d-c072afc16bcb"},"vehicle_type_id":"4","last_reported":1743228736,"current_range_meters":6400,"station_id":"ce4bhch2rcd13ifvqeug","pricing_plan_id":"cebpf4jnsgd1na2vs0mg"},{"bike_id":"ee2588a0-8a3d-4c56-88e3-6823a90de92d","system_id":"levelo_inurba_marseille","lat":43.28105,"lon":5.38562,"is_reserved":false,"is_disabled":false,"rental_uris":{"android":"levelo://app?vid=ee2588a0-8a3d-4c56-88e3-6823a90de92d","ios":"levelo://app?vid=ee2588a0-8a3d-4c56-88e3-6823a90de92d"},"vehicle_type_id":"4","last_reported":1743228736,"current_range_meters":6400,"station_id":"","pricing_plan_id":"cebpf4jnsgd1na2vs0mg"},{"bike_id":"6a5faf51-2bec-4782-8a8f-e039ed407c9b","system_id":"levelo_inurba_marseille","lat":43.25085,"lon":5.39532,"is_reserved":false,"is_disabled":false,"rental_uris":{"android":"levelo://app?vid=6a5faf51-2bec-4782-8a8f-e039ed407c9b","ios":"levelo://app?vid=6a5faf51-2bec-4782-8a8f-e039ed407c9b"},"vehicle_type_id":"4","last_reported":1743228736,"current_range_meters":6400,"station_id":"ce4bhm12rcd13ifvqgkg","pricing_plan_id":"cebpf4jnsgd1na2vs0mg"},{"bike_id":"0480ed99-bc5e-4d69-a9da-0c15e31de3a0","system_id":"levelo_inurba_marseille","lat":43.31648,"lon":5.37809,"is_reserved":false,"is_disabled":false,"rental_uris":{"android":"levelo://app?vid=0480ed99-bc5e-4d69-a9da-0c15e31de3a0","ios":"levelo://app?vid=0480ed99-bc5e-4d69-a9da-0c15e31de3a0"},"vehicle_type_id":"4","last_reported":1743228736,"current_range_meters":6400,"station_id":"ce4bgth2rcd13ifvqch0","pricing_plan_id":"cebpf4jnsgd1na2vs0mg"},{"bike_id":"ee9a67f6-8378-40c2-854e-cdbc1deec05a","system_id":"levelo_inurba_marseille","lat":43.292615,"lon":5.384379,"is_reserved":false,"is_disabled":true,"rental_uris":{"android":"levelo://app?vid=ee9a67f6-8378-40c2-854e-cdbc1deec05a","ios":"levelo://app?vid=ee9a67f6-8378-40c2-854e-cdbc1deec05a"},"vehicle_type_id":"4","last_reported":1743228736,"current_range_meters":6400,"station_id":"ce4bh692rcd13ifvqea0","pricing_plan_id":"cebpf4jnsgd1na2vs0mg"},{"bike_id":"57f8c7cb-17ce-46c9-b07d-dc98d28c951d","system_id":"levelo_inurba_marseille","lat":43.25818,"lon":5.39467,"is_reserved":false,"is_disabled":false,"rental_uris":{"android":"levelo://app?vid=57f8c7cb-17ce-46c9-b07d-dc98d28c951d","ios":"levelo://app?vid=57f8c7cb-17ce-46c9-b07d-dc98d28c951d"},"vehicle_type_id":"4","last_reported":1743228736,"current_range_meters":6400,"station_id":"ce4bhip2rcd13ifvqft0","pricing_plan_id":"cebpf4jnsgd1na2vs0mg"},{"bike_id":"422a75c2-467f-4b23-9c54-3e84a1bf2eb6","system_id":"levelo_inurba_marseille","lat":43.33019,"lon":5.39056,"is_reserved":false,"is_disabled":false,"rental_uris":{"android":"levelo://app?vid=422a75c2-467f-4b23-9c54-3e84a1bf2eb6","ios":"levelo://app?vid=422a75c2-467f-4b23-9c54-3e84a1bf2eb6"},"vehicle_type_id":"4","last_reported":1743228736,"current_range_meters":6400,"station_id":"ce4bhr92rcd13ifvqhrg","pricing_plan_id":"cebpf4jnsgd1na2vs0mg"},{"bike_id":"ef5311bd-b007-4991-a444-371f4153c946","system_id":"levelo_inurba_marseille","lat":43.3025,"lon":5.4007,"is_reserved":false,"is_disabled":false,"rental_uris":{"android":"levelo://app?vid=ef5311bd-b007-4991-a444-371f4153c946","ios":"levelo://app?vid=ef5311bd-b007-4991-a444-371f4153c946"},"vehicle_type_id":"4","last_reported":1743228736,"current_range_meters":6800,"station_id":"ce4bgvh2rcd13ifvqcs0","pricing_plan_id":"cebpf4jnsgd1na2vs0mg"},{"bike_id":"bf486d29-80ae-43fc-9394-756ed3e2b73e","system_id":"levelo_inurba_marseille","lat":43.28005,"lon":5.40011,"is_reserved":false,"is_disabled":false,"rental_uris":{"android":"levelo://app?vid=bf486d29-80ae-43fc-9394-756ed3e2b73e","ios":"levelo://app?vid=bf486d29-80ae-43fc-9394-756ed3e2b73e"},"vehicle_type_id":"4","last_reported":1743228736,"current_range_meters":6800,"station_id":"ce4bho92rcd13ifvqh4g","pricing_plan_id":"cebpf4jnsgd1na2vs0mg"},{"bike_id":"582b4121-ab0e-461b-a4b3-ac8e2e27ca5a","system_id":"levelo_inurba_marseille","lat":43.30646,"lon":5.40075,"is_reserved":false,"is_disabled":false,"rental_uris":{"android":"levelo://app?vid=582b4121-ab0e-461b-a4b3-ac8e2e27ca5a","ios":"levelo://app?vid=582b4121-ab0e-461b-a4b3-ac8e2e27ca5a"},"vehicle_type_id":"4","last_reported":1743228736,"current_range_meters":6800,"station_id":"ce4bh112rcd13ifvqda0","pricing_plan_id":"cebpf4jnsgd1na2vs0mg"},{"bike_id":"72c78bbb-f16b-4937-919e-913520fb5ad0","system_id":"levelo_inurba_marseille","lat":43.28465,"lon":5.38432,"is_reserved":false,"is_disabled":false,"rental_uris":{"android":"levelo://app?vid=72c78bbb-f16b-4937-919e-913520fb5ad0","ios":"levelo://app?vid=72c78bbb-f16b-4937-919e-913520fb5ad0"},"vehicle_type_id":"4","last_reported":1743228736,"current_range_meters":6800,"station_id":"ce4bhg92rcd13ifvqf90","pricing_plan_id":"cebpf4jnsgd1na2vs0mg"},{"bike_id":"04f4a73b-cd58-4830-9242-a5bbcf7947cf","system_id":"levelo_inurba_marseille","lat":43.31884,"lon":5.40733,"is_reserved":false,"is_disabled":false,"rental_uris":{"android":"levelo://app?vid=04f4a73b-cd58-4830-9242-a5bbcf7947cf","ios":"levelo://app?vid=04f4a73b-cd58-4830-9242-a5bbcf7947cf"},"vehicle_type_id":"4","last_reported":1743228736,"current_range_meters":6800,"station_id":"ce4bhq12rcd13ifvqhig","pricing_plan_id":"cebpf4jnsgd1na2vs0mg"},{"bike_id":"029036df-ffc9-4479-8c1c-8fe8abd77a39","system_id":"levelo_inurba_marseille","lat":43.284051,"lon":5.375239,"is_reserved":false,"is_disabled":false,"rental_uris":{"android":"levelo://app?vid=029036df-ffc9-4479-8c1c-8fe8abd77a39","ios":"levelo://app?vid=029036df-ffc9-4479-8c1c-8fe8abd77a39"},"vehicle_type_id":"4","last_reported":1743228736,"current_range_meters":6800,"station_id":"ce4bh412rcd13ifvqds0","pricing_plan_id":"cebpf4jnsgd1na2vs0mg"},{"bike_id":"7201e83f-6b3c-4d50-905a-46d5815f0094","system_id":"levelo_inurba_marseille","lat":43.30232,"lon":5.40055,"is_reserved":false,"is_disabled":false,"rental_uris":{"android":"levelo://app?vid=7201e83f-6b3c-4d50-905a-46d5815f0094","ios":"levelo://app?vid=7201e83f-6b3c-4d50-905a-46d5815f0094"},"vehicle_type_id":"4","last_reported":1743228736,"current_range_meters":6800,"station_id":"","pricing_plan_id":"cebpf4jnsgd1na2vs0mg"},{"bike_id":"b2fd8e70-5b37-4865-bf49-d30da2481695","system_id":"levelo_inurba_marseille","lat":43.23178,"lon":5.35582,"is_reserved":false,"is_disabled":false,"rental_uris":{"android":"levelo://app?vid=b2fd8e70-5b37-4865-bf49-d30da2481695","ios":"levelo://app?vid=b2fd8e70-5b37-4865-bf49-d30da2481695"},"vehicle_type_id":"4","last_reported":1743228736,"current_range_meters":6800,"station_id":"ce4bhu92rcd13ifvqi70","pricing_plan_id":"cebpf4jnsgd1na2vs0mg"},{"bike_id":"bf5aeddd-6ef7-4913-8e72-99d69bbe3c55","system_id":"levelo_inurba_marseille","lat":43.27963,"lon":5.38742,"is_reserved":false,"is_disabled":false,"rental_uris":{"android":"levelo://app?vid=bf5aeddd-6ef7-4913-8e72-99d69bbe3c55","ios":"levelo://app?vid=bf5aeddd-6ef7-4913-8e72-99d69bbe3c55"},"vehicle_type_id":"4","last_reported":1743228736,"current_range_meters":6800,"station_id":"ce4bhg12rcd13ifvqf80","pricing_plan_id":"cebpf4jnsgd1na2vs0mg"},{"bike_id":"891cbfc1-a699-4dab-81c0-4ef39d49821a","system_id":"levelo_inurba_marseille","lat":43.30332,"lon":5.40447,"is_reserved":false,"is_disabled":false,"rental_uris":{"android":"levelo://app?vid=891cbfc1-a699-4dab-81c0-4ef39d49821a","ios":"levelo://app?vid=891cbfc1-a699-4dab-81c0-4ef39d49821a"},"vehicle_type_id":"4","last_reported":1743228736,"current_range_meters":6800,"station_id":"ce4bh012rcd13ifvqd10","pricing_plan_id":"cebpf4jnsgd1na2vs0mg"},{"bike_id":"764341b8-8221-4862-8b96-eab0b8aa2d10","system_id":"levelo_inurba_marseille","lat":43.28419,"lon":5.37524,"is_reserved":false,"is_disabled":false,"rental_uris":{"android":"levelo://app?vid=764341b8-8221-4862-8b96-eab0b8aa2d10","ios":"levelo://app?vid=764341b8-8221-4862-8b96-eab0b8aa2d10"},"vehicle_type_id":"4","last_reported":1743228736,"current_range_meters":6800,"station_id":"ce4bh412rcd13ifvqds0","pricing_plan_id":"cebpf4jnsgd1na2vs0mg"},{"bike_id":"0009eca3-f243-43d3-a06a-66f6a4a5ccdd","system_id":"levelo_inurba_marseille","lat":43.23194,"lon":5.35561,"is_reserved":false,"is_disabled":false,"rental_uris":{"android":"levelo://app?vid=0009eca3-f243-43d3-a06a-66f6a4a5ccdd","ios":"levelo://app?vid=0009eca3-f243-43d3-a06a-66f6a4a5ccdd"},"vehicle_type_id":"4","last_reported":1743228736,"current_range_meters":6800,"station_id":"ce4bhu92rcd13ifvqi70","pricing_plan_id":"cebpf4jnsgd1na2vs0mg"},{"bike_id":"6202c9ff-0e6f-47d0-88c5-cf1d8a55d9be","system_id":"levelo_inurba_marseille","lat":43.29038,"lon":5.39975,"is_reserved":false,"is_disabled":false,"rental_uris":{"android":"levelo://app?vid=6202c9ff-0e6f-47d0-88c5-cf1d8a55d9be","ios":"levelo://app?vid=6202c9ff-0e6f-47d0-88c5-cf1d8a55d9be"},"vehicle_type_id":"4","last_reported":1743228736,"current_range_meters":6800,"station_id":"ce4bh392rcd13ifvqdm0","pricing_plan_id":"cebpf4jnsgd1na2vs0mg"},{"bike_id":"4a42ca1e-41e4-4233-a4bb-a180f04564d6","system_id":"levelo_inurba_marseille","lat":43.291711,"lon":5.371425,"is_reserved":false,"is_disabled":true,"rental_uris":{"android":"levelo://app?vid=4a42ca1e-41e4-4233-a4bb-a180f04564d6","ios":"levelo://app?vid=4a42ca1e-41e4-4233-a4bb-a180f04564d6"},"vehicle_type_id":"4","last_reported":1743228736,"current_range_meters":7200,"station_id":"ce4bha92rcd13ifvqeh0","pricing_plan_id":"cebpf4jnsgd1na2vs0mg"},{"bike_id":"f439faaa-ce2d-437b-bd83-3a4e6c6ea628","system_id":"levelo_inurba_marseille","lat":43.24159,"lon":5.39728,"is_reserved":false,"is_disabled":false,"rental_uris":{"android":"levelo://app?vid=f439faaa-ce2d-437b-bd83-3a4e6c6ea628","ios":"levelo://app?vid=f439faaa-ce2d-437b-bd83-3a4e6c6ea628"},"vehicle_type_id":"4","last_reported":1743228736,"current_range_meters":7200,"station_id":"ce4bhn12rcd13ifvqgpg","pricing_plan_id":"cebpf4jnsgd1na2vs0mg"},{"bike_id":"1def5fc1-8f39-4131-8109-88fb354ea625","system_id":"levelo_inurba_marseille","lat":43.28,"lon":5.40011,"is_reserved":false,"is_disabled":false,"rental_uris":{"android":"levelo://app?vid=1def5fc1-8f39-4131-8109-88fb354ea625","ios":"levelo://app?vid=1def5fc1-8f39-4131-8109-88fb354ea625"},"vehicle_type_id":"4","last_reported":1743228736,"current_range_meters":7200,"station_id":"ce4bho92rcd13ifvqh4g","pricing_plan_id":"cebpf4jnsgd1na2vs0mg"},{"bike_id":"861ae205-c318-4688-ac53-947993e1b65f","system_id":"levelo_inurba_marseille","lat":43.241631,"lon":5.363933,"is_reserved":false,"is_disabled":false,"rental_uris":{"android":"levelo://app?vid=861ae205-c318-4688-ac53-947993e1b65f","ios":"levelo://app?vid=861ae205-c318-4688-ac53-947993e1b65f"},"vehicle_type_id":"4","last_reported":1743228736,"current_range_meters":7200,"station_id":"cpo36qri1sfpv3e86is0","pricing_plan_id":"cebpf4jnsgd1na2vs0mg"},{"bike_id":"9706b643-c205-41ac-9b92-80d747a14eed","system_id":"levelo_inurba_marseille","lat":43.31123,"lon":5.3776,"is_reserved":false,"is_disabled":false,"rental_uris":{"android":"levelo://app?vid=9706b643-c205-41ac-9b92-80d747a14eed","ios":"levelo://app?vid=9706b643-c205-41ac-9b92-80d747a14eed"},"vehicle_type_id":"4","last_reported":1743228736,"current_range_meters":7200,"station_id":"ce4bgt92rcd13ifvqcg0","pricing_plan_id":"cebpf4jnsgd1na2vs0mg"},{"bike_id":"e68a3cd4-776d-477e-b868-19282e6dc1d7","system_id":"levelo_inurba_marseille","lat":43.30779,"lon":5.37644,"is_reserved":false,"is_disabled":false,"rental_uris":{"android":"levelo://app?vid=e68a3cd4-776d-477e-b868-19282e6dc1d7","ios":"levelo://app?vid=e68a3cd4-776d-477e-b868-19282e6dc1d7"},"vehicle_type_id":"4","last_reported":1743228736,"current_range_meters":7200,"station_id":"ce4bgv92rcd13ifvqcq0","pricing_plan_id":"cebpf4jnsgd1na2vs0mg"},{"bike_id":"5e88e231-5600-4ca8-aa39-f6cc64e0a9b2","system_id":"levelo_inurba_marseille","lat":43.28017,"lon":5.36933,"is_reserved":false,"is_disabled":false,"rental_uris":{"android":"levelo://app?vid=5e88e231-5600-4ca8-aa39-f6cc64e0a9b2","ios":"levelo://app?vid=5e88e231-5600-4ca8-aa39-f6cc64e0a9b2"},"vehicle_type_id":"4","last_reported":1743228736,"current_range_meters":8000,"station_id":"ce4bha12rcd13ifvqef0","pricing_plan_id":"cebpf4jnsgd1na2vs0mg"},{"bike_id":"94b5bcc7-6238-4eda-85ba-005d36893295","system_id":"levelo_inurba_marseille","lat":43.29056,"lon":5.35921,"is_reserved":false,"is_disabled":false,"rental_uris":{"android":"levelo://app?vid=94b5bcc7-6238-4eda-85ba-005d36893295","ios":"levelo://app?vid=94b5bcc7-6238-4eda-85ba-005d36893295"},"vehicle_type_id":"4","last_reported":1743228736,"current_range_meters":8000,"station_id":"ce4bha92rcd13ifvqeg0","pricing_plan_id":"cebpf4jnsgd1na2vs0mg"},{"bike_id":"653f4403-c5cd-4032-b5a8-482768e38f5f","system_id":"levelo_inurba_marseille","lat":43.23964,"lon":5.3663,"is_reserved":false,"is_disabled":false,"rental_uris":{"android":"levelo://app?vid=653f4403-c5cd-4032-b5a8-482768e38f5f","ios":"levelo://app?vid=653f4403-c5cd-4032-b5a8-482768e38f5f"},"vehicle_type_id":"4","last_reported":1743228736,"current_range_meters":8000,"station_id":"ce4bhi12rcd13ifvqfp0","pricing_plan_id":"cebpf4jnsgd1na2vs0mg"},{"bike_id":"372077d7-6912-4560-8e62-7c1226cc8258","system_id":"levelo_inurba_marseille","lat":43.27994,"lon":5.40028,"is_reserved":false,"is_disabled":false,"rental_uris":{"android":"levelo://app?vid=372077d7-6912-4560-8e62-7c1226cc8258","ios":"levelo://app?vid=372077d7-6912-4560-8e62-7c1226cc8258"},"vehicle_type_id":"4","last_reported":1743228736,"current_range_meters":8000,"station_id":"ce4bho92rcd13ifvqh4g","pricing_plan_id":"cebpf4jnsgd1na2vs0mg"},{"bike_id":"9ee402e7-1a17-4a4f-8096-bc833bafbd6b","system_id":"levelo_inurba_marseille","lat":43.289469,"lon":5.366319,"is_reserved":false,"is_disabled":false,"rental_uris":{"android":"levelo://app?vid=9ee402e7-1a17-4a4f-8096-bc833bafbd6b","ios":"levelo://app?vid=9ee402e7-1a17-4a4f-8096-bc833bafbd6b"},"vehicle_type_id":"4","last_reported":1743228736,"current_range_meters":8000,"station_id":"ce4bhap2rcd13ifvqek0","pricing_plan_id":"cebpf4jnsgd1na2vs0mg"},{"bike_id":"4bc0dbb3-90de-4eb9-aa21-74c63a07a4eb","system_id":"levelo_inurba_marseille","lat":43.31126,"lon":5.37751,"is_reserved":false,"is_disabled":false,"rental_uris":{"android":"levelo://app?vid=4bc0dbb3-90de-4eb9-aa21-74c63a07a4eb","ios":"levelo://app?vid=4bc0dbb3-90de-4eb9-aa21-74c63a07a4eb"},"vehicle_type_id":"4","last_reported":1743228736,"current_range_meters":8000,"station_id":"ce4bgt92rcd13ifvqcg0","pricing_plan_id":"cebpf4jnsgd1na2vs0mg"},{"bike_id":"79191f8e-3709-4910-9c40-6b5411da7dad","system_id":"levelo_inurba_marseille","lat":43.30458,"lon":5.37909,"is_reserved":false,"is_disabled":false,"rental_uris":{"android":"levelo://app?vid=79191f8e-3709-4910-9c40-6b5411da7dad","ios":"levelo://app?vid=79191f8e-3709-4910-9c40-6b5411da7dad"},"vehicle_type_id":"4","last_reported":1743228736,"current_range_meters":8000,"station_id":"ce4bgup2rcd13ifvqcn0","pricing_plan_id":"cebpf4jnsgd1na2vs0mg"},{"bike_id":"971c92cb-66df-438d-9a85-e63af939e6ff","system_id":"levelo_inurba_marseille","lat":43.286116,"lon":5.351001,"is_reserved":false,"is_disabled":true,"rental_uris":{"android":"levelo://app?vid=971c92cb-66df-438d-9a85-e63af939e6ff","ios":"levelo://app?vid=971c92cb-66df-438d-9a85-e63af939e6ff"},"vehicle_type_id":"4","last_reported":1743228736,"current_range_meters":8000,"station_id":"ce4bhch2rcd13ifvqeug","pricing_plan_id":"cebpf4jnsgd1na2vs0mg"},{"bike_id":"838a22d7-46d9-4851-a0aa-3de8e56d7876","system_id":"levelo_inurba_marseille","lat":43.27213,"lon":5.39176,"is_reserved":false,"is_disabled":false,"rental_uris":{"android":"levelo://app?vid=838a22d7-46d9-4851-a0aa-3de8e56d7876","ios":"levelo://app?vid=838a22d7-46d9-4851-a0aa-3de8e56d7876"},"vehicle_type_id":"4","last_reported":1743228736,"current_range_meters":8000,"station_id":"ce4bhhp2rcd13ifvqfm0","pricing_plan_id":"cebpf4jnsgd1na2vs0mg"},{"bike_id":"87ce5af9-2c3f-4b34-8106-a0bd98c8708b","system_id":"levelo_inurba_marseille","lat":43.27989,"lon":5.40015,"is_reserved":false,"is_disabled":false,"rental_uris":{"android":"levelo://app?vid=87ce5af9-2c3f-4b34-8106-a0bd98c8708b","ios":"levelo://app?vid=87ce5af9-2c3f-4b34-8106-a0bd98c8708b"},"vehicle_type_id":"4","last_reported":1743228736,"current_range_meters":8000,"station_id":"ce4bho92rcd13ifvqh4g","pricing_plan_id":"cebpf4jnsgd1na2vs0mg"},{"bike_id":"61e546bf-3d6b-4eef-9361-f0012ae57a92","system_id":"levelo_inurba_marseille","lat":43.28692,"lon":5.37413,"is_reserved":false,"is_disabled":false,"rental_uris":{"android":"levelo://app?vid=61e546bf-3d6b-4eef-9361-f0012ae57a92","ios":"levelo://app?vid=61e546bf-3d6b-4eef-9361-f0012ae57a92"},"vehicle_type_id":"4","last_reported":1743228736,"current_range_meters":8000,"station_id":"ce4bh3p2rcd13ifvqdq0","pricing_plan_id":"cebpf4jnsgd1na2vs0mg"},{"bike_id":"4a911fa5-f99f-457c-9b53-c2d92940e8a8","system_id":"levelo_inurba_marseille","lat":43.30424,"lon":5.39754,"is_reserved":false,"is_disabled":false,"rental_uris":{"android":"levelo://app?vid=4a911fa5-f99f-457c-9b53-c2d92940e8a8","ios":"levelo://app?vid=4a911fa5-f99f-457c-9b53-c2d92940e8a8"},"vehicle_type_id":"4","last_reported":1743228736,"current_range_meters":8000,"station_id":"ce4bh092rcd13ifvqd20","pricing_plan_id":"cebpf4jnsgd1na2vs0mg"},{"bike_id":"c6b682a7-e903-4363-967f-d69957e8f7ed","system_id":"levelo_inurba_marseille","lat":43.28601,"lon":5.3514,"is_reserved":false,"is_disabled":false,"rental_uris":{"android":"levelo://app?vid=c6b682a7-e903-4363-967f-d69957e8f7ed","ios":"levelo://app?vid=c6b682a7-e903-4363-967f-d69957e8f7ed"},"vehicle_type_id":"4","last_reported":1743228736,"current_range_meters":8000,"station_id":"ce4bhch2rcd13ifvqeug","pricing_plan_id":"cebpf4jnsgd1na2vs0mg"},{"bike_id":"8f475bc8-a624-4e43-b14d-85deacbce954","system_id":"levelo_inurba_marseille","lat":43.31222,"lon":5.36841,"is_reserved":false,"is_disabled":false,"rental_uris":{"android":"levelo://app?vid=8f475bc8-a624-4e43-b14d-85deacbce954","ios":"levelo://app?vid=8f475bc8-a624-4e43-b14d-85deacbce954"},"vehicle_type_id":"4","last_reported":1743228736,"current_range_meters":8000,"station_id":"ce4bgl92rcd13ifvqbq0","pricing_plan_id":"cebpf4jnsgd1na2vs0mg"},{"bike_id":"1c14bf9c-ada4-4a36-8853-740a1a2c000a","system_id":"levelo_inurba_marseille","lat":43.23192,"lon":5.35548,"is_reserved":false,"is_disabled":false,"rental_uris":{"android":"levelo://app?vid=1c14bf9c-ada4-4a36-8853-740a1a2c000a","ios":"levelo://app?vid=1c14bf9c-ada4-4a36-8853-740a1a2c000a"},"vehicle_type_id":"4","last_reported":1743228736,"current_range_meters":8000,"station_id":"ce4bhu92rcd13ifvqi70","pricing_plan_id":"cebpf4jnsgd1na2vs0mg"},{"bike_id":"afde944a-633f-47b5-a2d3-76be709cb025","system_id":"levelo_inurba_marseille","lat":43.287239,"lon":5.360899,"is_reserved":false,"is_disabled":false,"rental_uris":{"android":"levelo://app?vid=afde944a-633f-47b5-a2d3-76be709cb025","ios":"levelo://app?vid=afde944a-633f-47b5-a2d3-76be709cb025"},"vehicle_type_id":"4","last_reported":1743228736,"current_range_meters":8000,"station_id":"cki0cbj6b192h4jlfktg","pricing_plan_id":"cebpf4jnsgd1na2vs0mg"},{"bike_id":"ac7b446a-5fec-4cbb-868e-45d0239dc236","system_id":"levelo_inurba_marseille","lat":43.24667,"lon":5.38187,"is_reserved":false,"is_disabled":false,"rental_uris":{"android":"levelo://app?vid=ac7b446a-5fec-4cbb-868e-45d0239dc236","ios":"levelo://app?vid=ac7b446a-5fec-4cbb-868e-45d0239dc236"},"vehicle_type_id":"4","last_reported":1743228736,"current_range_meters":8000,"station_id":"ce4bhih2rcd13ifvqfr0","pricing_plan_id":"cebpf4jnsgd1na2vs0mg"},{"bike_id":"846275f0-7b72-4373-a828-815bfa22388d","system_id":"levelo_inurba_marseille","lat":43.28862,"lon":5.35836,"is_reserved":false,"is_disabled":false,"rental_uris":{"android":"levelo://app?vid=846275f0-7b72-4373-a828-815bfa22388d","ios":"levelo://app?vid=846275f0-7b72-4373-a828-815bfa22388d"},"vehicle_type_id":"4","last_reported":1743228736,"current_range_meters":8400,"station_id":"ce4bhb12rcd13ifvqem0","pricing_plan_id":"cebpf4jnsgd1na2vs0mg"},{"bike_id":"de69b711-10c8-44e3-b5a7-d0d7f511c5db","system_id":"levelo_inurba_marseille","lat":43.30534,"lon":5.38445,"is_reserved":false,"is_disabled":false,"rental_uris":{"android":"levelo://app?vid=de69b711-10c8-44e3-b5a7-d0d7f511c5db","ios":"levelo://app?vid=de69b711-10c8-44e3-b5a7-d0d7f511c5db"},"vehicle_type_id":"4","last_reported":1743228736,"current_range_meters":8400,"station_id":"ce4bgg92rcd13ifvqb30","pricing_plan_id":"cebpf4jnsgd1na2vs0mg"},{"bike_id":"cbe177f9-7359-4495-b99f-8a1700a0286f","system_id":"levelo_inurba_marseille","lat":43.287273,"lon":5.360907,"is_reserved":false,"is_disabled":false,"rental_uris":{"android":"levelo://app?vid=cbe177f9-7359-4495-b99f-8a1700a0286f","ios":"levelo://app?vid=cbe177f9-7359-4495-b99f-8a1700a0286f"},"vehicle_type_id":"4","last_reported":1743228736,"current_range_meters":8400,"station_id":"cki0cbj6b192h4jlfktg","pricing_plan_id":"cebpf4jnsgd1na2vs0mg"},{"bike_id":"1e399c71-356e-429c-81a2-1c9ac6ffd8e3","system_id":"levelo_inurba_marseille","lat":43.3053,"lon":5.38439,"is_reserved":false,"is_disabled":false,"rental_uris":{"android":"levelo://app?vid=1e399c71-356e-429c-81a2-1c9ac6ffd8e3","ios":"levelo://app?vid=1e399c71-356e-429c-81a2-1c9ac6ffd8e3"},"vehicle_type_id":"4","last_reported":1743228736,"current_range_meters":8400,"station_id":"ce4bgg92rcd13ifvqb30","pricing_plan_id":"cebpf4jnsgd1na2vs0mg"},{"bike_id":"90df0f14-f996-423e-b605-53c2c708242e","system_id":"levelo_inurba_marseille","lat":43.31696,"lon":5.40521,"is_reserved":false,"is_disabled":false,"rental_uris":{"android":"levelo://app?vid=90df0f14-f996-423e-b605-53c2c708242e","ios":"levelo://app?vid=90df0f14-f996-423e-b605-53c2c708242e"},"vehicle_type_id":"4","last_reported":1743228736,"current_range_meters":8400,"station_id":"ce4bh012rcd13ifvqd00","pricing_plan_id":"cebpf4jnsgd1na2vs0mg"},{"bike_id":"69b4b8bc-63bd-4387-bf11-384f7a47f6d3","system_id":"levelo_inurba_marseille","lat":43.29035,"lon":5.39943,"is_reserved":false,"is_disabled":false,"rental_uris":{"android":"levelo://app?vid=69b4b8bc-63bd-4387-bf11-384f7a47f6d3","ios":"levelo://app?vid=69b4b8bc-63bd-4387-bf11-384f7a47f6d3"},"vehicle_type_id":"4","last_reported":1743228736,"current_range_meters":8400,"station_id":"ce4bh392rcd13ifvqdm0","pricing_plan_id":"cebpf4jnsgd1na2vs0mg"},{"bike_id":"7a24a423-2986-4e0d-8a6a-b7b9c3149165","system_id":"levelo_inurba_marseille","lat":43.28914,"lon":5.42841,"is_reserved":false,"is_disabled":false,"rental_uris":{"android":"levelo://app?vid=7a24a423-2986-4e0d-8a6a-b7b9c3149165","ios":"levelo://app?vid=7a24a423-2986-4e0d-8a6a-b7b9c3149165"},"vehicle_type_id":"4","last_reported":1743228736,"current_range_meters":8400,"station_id":"","pricing_plan_id":"cebpf4jnsgd1na2vs0mg"},{"bike_id":"dbb786fe-6069-4016-9341-41e100bb0229","system_id":"levelo_inurba_marseille","lat":43.30646,"lon":5.40098,"is_reserved":false,"is_disabled":false,"rental_uris":{"android":"levelo://app?vid=dbb786fe-6069-4016-9341-41e100bb0229","ios":"levelo://app?vid=dbb786fe-6069-4016-9341-41e100bb0229"},"vehicle_type_id":"4","last_reported":1743228736,"current_range_meters":8400,"station_id":"ce4bh112rcd13ifvqda0","pricing_plan_id":"cebpf4jnsgd1na2vs0mg"},{"bike_id":"c34b7d4e-dedf-42dd-b25e-d003527cd79f","system_id":"levelo_inurba_marseille","lat":43.28476,"lon":5.38549,"is_reserved":false,"is_disabled":false,"rental_uris":{"android":"levelo://app?vid=c34b7d4e-dedf-42dd-b25e-d003527cd79f","ios":"levelo://app?vid=c34b7d4e-dedf-42dd-b25e-d003527cd79f"},"vehicle_type_id":"4","last_reported":1743228736,"current_range_meters":8400,"station_id":"ce4bh8p2rcd13ifvqeb0","pricing_plan_id":"cebpf4jnsgd1na2vs0mg"},{"bike_id":"164dbc3e-622a-4e3f-b578-4aea6c85f2de","system_id":"levelo_inurba_marseille","lat":43.3087,"lon":5.39635,"is_reserved":false,"is_disabled":false,"rental_uris":{"android":"levelo://app?vid=164dbc3e-622a-4e3f-b578-4aea6c85f2de","ios":"levelo://app?vid=164dbc3e-622a-4e3f-b578-4aea6c85f2de"},"vehicle_type_id":"4","last_reported":1743228736,"current_range_meters":8400,"station_id":"ce4bh012rcd13ifvqcv0","pricing_plan_id":"cebpf4jnsgd1na2vs0mg"},{"bike_id":"3c724e4a-ec93-4dd4-87a9-608ce3fa202a","system_id":"levelo_inurba_marseille","lat":43.31075,"lon":5.38342,"is_reserved":false,"is_disabled":false,"rental_uris":{"android":"levelo://app?vid=3c724e4a-ec93-4dd4-87a9-608ce3fa202a","ios":"levelo://app?vid=3c724e4a-ec93-4dd4-87a9-608ce3fa202a"},"vehicle_type_id":"4","last_reported":1743228736,"current_range_meters":8400,"station_id":"ce4bgv92rcd13ifvqcr0","pricing_plan_id":"cebpf4jnsgd1na2vs0mg"},{"bike_id":"571e43af-e4f5-404b-9dd8-9e11760bfa4c","system_id":"levelo_inurba_marseille","lat":43.28732,"lon":5.36087,"is_reserved":false,"is_disabled":false,"rental_uris":{"android":"levelo://app?vid=571e43af-e4f5-404b-9dd8-9e11760bfa4c","ios":"levelo://app?vid=571e43af-e4f5-404b-9dd8-9e11760bfa4c"},"vehicle_type_id":"4","last_reported":1743228736,"current_range_meters":8400,"station_id":"cki0cbj6b192h4jlfktg","pricing_plan_id":"cebpf4jnsgd1na2vs0mg"},{"bike_id":"2dd07609-0435-4017-a0ce-576c9e34e300","system_id":"levelo_inurba_marseille","lat":43.28637,"lon":5.36401,"is_reserved":false,"is_disabled":false,"rental_uris":{"android":"levelo://app?vid=2dd07609-0435-4017-a0ce-576c9e34e300","ios":"levelo://app?vid=2dd07609-0435-4017-a0ce-576c9e34e300"},"vehicle_type_id":"4","last_reported":1743228736,"current_range_meters":8400,"station_id":"ce4bhah2rcd13ifvqej0","pricing_plan_id":"cebpf4jnsgd1na2vs0mg"},{"bike_id":"092faada-6bf5-456d-afc5-5020968531d2","system_id":"levelo_inurba_marseille","lat":43.32356,"lon":5.38881,"is_reserved":false,"is_disabled":false,"rental_uris":{"android":"levelo://app?vid=092faada-6bf5-456d-afc5-5020968531d2","ios":"levelo://app?vid=092faada-6bf5-456d-afc5-5020968531d2"},"vehicle_type_id":"4","last_reported":1743228736,"current_range_meters":8400,"station_id":"ce4bhqp2rcd13ifvqhog","pricing_plan_id":"cebpf4jnsgd1na2vs0mg"},{"bike_id":"3baabe1e-785f-4275-b2ae-669cc3f900da","system_id":"levelo_inurba_marseille","lat":43.27804,"lon":5.40736,"is_reserved":false,"is_disabled":true,"rental_uris":{"android":"levelo://app?vid=3baabe1e-785f-4275-b2ae-669cc3f900da","ios":"levelo://app?vid=3baabe1e-785f-4275-b2ae-669cc3f900da"},"vehicle_type_id":"4","last_reported":1743228736,"current_range_meters":8800,"station_id":"ce4bhnh2rcd13ifvqgtg","pricing_plan_id":"cebpf4jnsgd1na2vs0mg"},{"bike_id":"47ad7ef3-58ae-45f0-9b6e-4619eae20d58","system_id":"levelo_inurba_marseille","lat":43.29262,"lon":5.4091,"is_reserved":false,"is_disabled":false,"rental_uris":{"android":"levelo://app?vid=47ad7ef3-58ae-45f0-9b6e-4619eae20d58","ios":"levelo://app?vid=47ad7ef3-58ae-45f0-9b6e-4619eae20d58"},"vehicle_type_id":"4","last_reported":1743228736,"current_range_meters":8800,"station_id":"ce4bh192rcd13ifvqdc0","pricing_plan_id":"cebpf4jnsgd1na2vs0mg"},{"bike_id":"d2be6ce3-8e79-4804-b0d3-008c875e7b9d","system_id":"levelo_inurba_marseille","lat":43.26199,"lon":5.37937,"is_reserved":false,"is_disabled":false,"rental_uris":{"android":"levelo://app?vid=d2be6ce3-8e79-4804-b0d3-008c875e7b9d","ios":"levelo://app?vid=d2be6ce3-8e79-4804-b0d3-008c875e7b9d"},"vehicle_type_id":"4","last_reported":1743228736,"current_range_meters":8800,"station_id":"ce4bhjp2rcd13ifvqg90","pricing_plan_id":"cebpf4jnsgd1na2vs0mg"},{"bike_id":"30f341cc-8307-4314-83a8-f454d218f508","system_id":"levelo_inurba_marseille","lat":43.25847,"lon":5.39915,"is_reserved":false,"is_disabled":false,"rental_uris":{"android":"levelo://app?vid=30f341cc-8307-4314-83a8-f454d218f508","ios":"levelo://app?vid=30f341cc-8307-4314-83a8-f454d218f508"},"vehicle_type_id":"4","last_reported":1743228736,"current_range_meters":8800,"station_id":"ce4bhl92rcd13ifvqghg","pricing_plan_id":"cebpf4jnsgd1na2vs0mg"},{"bike_id":"17d2c56a-04b7-4565-828e-4e8647a3dd59","system_id":"levelo_inurba_marseille","lat":43.23191,"lon":5.35562,"is_reserved":false,"is_disabled":false,"rental_uris":{"android":"levelo://app?vid=17d2c56a-04b7-4565-828e-4e8647a3dd59","ios":"levelo://app?vid=17d2c56a-04b7-4565-828e-4e8647a3dd59"},"vehicle_type_id":"4","last_reported":1743228736,"current_range_meters":8800,"station_id":"ce4bhu92rcd13ifvqi70","pricing_plan_id":"cebpf4jnsgd1na2vs0mg"},{"bike_id":"f47eba55-a588-4033-a3dc-992c836c995d","system_id":"levelo_inurba_marseille","lat":43.31669,"lon":5.40569,"is_reserved":false,"is_disabled":false,"rental_uris":{"android":"levelo://app?vid=f47eba55-a588-4033-a3dc-992c836c995d","ios":"levelo://app?vid=f47eba55-a588-4033-a3dc-992c836c995d"},"vehicle_type_id":"4","last_reported":1743228736,"current_range_meters":8800,"station_id":"","pricing_plan_id":"cebpf4jnsgd1na2vs0mg"},{"bike_id":"6082a6d8-29f3-4441-bd82-d0f95ead75d7","system_id":"levelo_inurba_marseille","lat":43.231861,"lon":5.355578,"is_reserved":false,"is_disabled":false,"rental_uris":{"android":"levelo://app?vid=6082a6d8-29f3-4441-bd82-d0f95ead75d7","ios":"levelo://app?vid=6082a6d8-29f3-4441-bd82-d0f95ead75d7"},"vehicle_type_id":"4","last_reported":1743228736,"current_range_meters":8800,"station_id":"ce4bhu92rcd13ifvqi70","pricing_plan_id":"cebpf4jnsgd1na2vs0mg"},{"bike_id":"d5ffff0a-47db-470d-a1ce-99a37bfcd090","system_id":"levelo_inurba_marseille","lat":43.286125,"lon":5.35113,"is_reserved":false,"is_disabled":false,"rental_uris":{"android":"levelo://app?vid=d5ffff0a-47db-470d-a1ce-99a37bfcd090","ios":"levelo://app?vid=d5ffff0a-47db-470d-a1ce-99a37bfcd090"},"vehicle_type_id":"4","last_reported":1743228736,"current_range_meters":8800,"station_id":"ce4bhch2rcd13ifvqeug","pricing_plan_id":"cebpf4jnsgd1na2vs0mg"},{"bike_id":"49d82921-8e45-4d36-a579-bbe4c6b4b32a","system_id":"levelo_inurba_marseille","lat":43.28714,"lon":5.39973,"is_reserved":false,"is_disabled":false,"rental_uris":{"android":"levelo://app?vid=49d82921-8e45-4d36-a579-bbe4c6b4b32a","ios":"levelo://app?vid=49d82921-8e45-4d36-a579-bbe4c6b4b32a"},"vehicle_type_id":"4","last_reported":1743228736,"current_range_meters":8800,"station_id":"ce4bho92rcd13ifvqh3g","pricing_plan_id":"cebpf4jnsgd1na2vs0mg"},{"bike_id":"d6ae2dac-bcff-421f-8aa6-f2a5b3559285","system_id":"levelo_inurba_marseille","lat":43.264978,"lon":5.395458,"is_reserved":false,"is_disabled":false,"rental_uris":{"android":"levelo://app?vid=d6ae2dac-bcff-421f-8aa6-f2a5b3559285","ios":"levelo://app?vid=d6ae2dac-bcff-421f-8aa6-f2a5b3559285"},"vehicle_type_id":"4","last_reported":1743228736,"current_range_meters":8800,"station_id":"ce4bhi12rcd13ifvqfq0","pricing_plan_id":"cebpf4jnsgd1na2vs0mg"},{"bike_id":"7466732c-aa80-4ae1-a3e7-8891c092ddb5","system_id":"levelo_inurba_marseille","lat":43.27062,"lon":5.40268,"is_reserved":false,"is_disabled":false,"rental_uris":{"android":"levelo://app?vid=7466732c-aa80-4ae1-a3e7-8891c092ddb5","ios":"levelo://app?vid=7466732c-aa80-4ae1-a3e7-8891c092ddb5"},"vehicle_type_id":"4","last_reported":1743228736,"current_range_meters":9200,"station_id":"ce4bhk92rcd13ifvqgc0","pricing_plan_id":"cebpf4jnsgd1na2vs0mg"},{"bike_id":"78879d72-d868-43c9-a743-a6ab48dd9b11","system_id":"levelo_inurba_marseille","lat":43.28726,"lon":5.36097,"is_reserved":false,"is_disabled":false,"rental_uris":{"android":"levelo://app?vid=78879d72-d868-43c9-a743-a6ab48dd9b11","ios":"levelo://app?vid=78879d72-d868-43c9-a743-a6ab48dd9b11"},"vehicle_type_id":"4","last_reported":1743228736,"current_range_meters":9200,"station_id":"cki0cbj6b192h4jlfktg","pricing_plan_id":"cebpf4jnsgd1na2vs0mg"},{"bike_id":"b5ace6c6-32e3-486d-9744-efb1ce0dfa9d","system_id":"levelo_inurba_marseille","lat":43.28602,"lon":5.37075,"is_reserved":false,"is_disabled":false,"rental_uris":{"android":"levelo://app?vid=b5ace6c6-32e3-486d-9744-efb1ce0dfa9d","ios":"levelo://app?vid=b5ace6c6-32e3-486d-9744-efb1ce0dfa9d"},"vehicle_type_id":"4","last_reported":1743228736,"current_range_meters":9200,"station_id":"ce4bht12rcd13ifvqi60","pricing_plan_id":"cebpf4jnsgd1na2vs0mg"},{"bike_id":"787c5a7b-7ea5-4559-9257-3bbdf77951a7","system_id":"levelo_inurba_marseille","lat":43.31059,"lon":5.38362,"is_reserved":false,"is_disabled":false,"rental_uris":{"android":"levelo://app?vid=787c5a7b-7ea5-4559-9257-3bbdf77951a7","ios":"levelo://app?vid=787c5a7b-7ea5-4559-9257-3bbdf77951a7"},"vehicle_type_id":"4","last_reported":1743228736,"current_range_meters":9200,"station_id":"ce4bgv92rcd13ifvqcr0","pricing_plan_id":"cebpf4jnsgd1na2vs0mg"},{"bike_id":"4fbfc3e6-1d5a-469b-ab70-bfc87a275095","system_id":"levelo_inurba_marseille","lat":43.23184,"lon":5.35556,"is_reserved":false,"is_disabled":false,"rental_uris":{"android":"levelo://app?vid=4fbfc3e6-1d5a-469b-ab70-bfc87a275095","ios":"levelo://app?vid=4fbfc3e6-1d5a-469b-ab70-bfc87a275095"},"vehicle_type_id":"4","last_reported":1743228736,"current_range_meters":9200,"station_id":"ce4bhu92rcd13ifvqi70","pricing_plan_id":"cebpf4jnsgd1na2vs0mg"},{"bike_id":"62ec7208-1c23-48c9-a058-897ce6565ea4","system_id":"levelo_inurba_marseille","lat":43.28071,"lon":5.39665,"is_reserved":false,"is_disabled":false,"rental_uris":{"android":"levelo://app?vid=62ec7208-1c23-48c9-a058-897ce6565ea4","ios":"levelo://app?vid=62ec7208-1c23-48c9-a058-897ce6565ea4"},"vehicle_type_id":"4","last_reported":1743228736,"current_range_meters":9200,"station_id":"ce4bho12rcd13ifvqh2g","pricing_plan_id":"cebpf4jnsgd1na2vs0mg"},{"bike_id":"bb238aab-ecce-4d51-ba90-677f93725c94","system_id":"levelo_inurba_marseille","lat":43.34152,"lon":5.40942,"is_reserved":false,"is_disabled":false,"rental_uris":{"android":"levelo://app?vid=bb238aab-ecce-4d51-ba90-677f93725c94","ios":"levelo://app?vid=bb238aab-ecce-4d51-ba90-677f93725c94"},"vehicle_type_id":"4","last_reported":1743228736,"current_range_meters":9200,"station_id":"ce4bhqh2rcd13ifvqhlg","pricing_plan_id":"cebpf4jnsgd1na2vs0mg"},{"bike_id":"6e5f4618-59dd-425b-aa11-f67d0d9fb1a5","system_id":"levelo_inurba_marseille","lat":43.319984,"lon":5.381498,"is_reserved":false,"is_disabled":true,"rental_uris":{"android":"levelo://app?vid=6e5f4618-59dd-425b-aa11-f67d0d9fb1a5","ios":"levelo://app?vid=6e5f4618-59dd-425b-aa11-f67d0d9fb1a5"},"vehicle_type_id":"4","last_reported":1743228736,"current_range_meters":9200,"station_id":"ce4bhr12rcd13ifvqhpg","pricing_plan_id":"cebpf4jnsgd1na2vs0mg"},{"bike_id":"9462a91b-8b4b-430a-ac7a-4612f1bebb31","system_id":"levelo_inurba_marseille","lat":43.291,"lon":5.38131,"is_reserved":false,"is_disabled":true,"rental_uris":{"android":"levelo://app?vid=9462a91b-8b4b-430a-ac7a-4612f1bebb31","ios":"levelo://app?vid=9462a91b-8b4b-430a-ac7a-4612f1bebb31"},"vehicle_type_id":"4","last_reported":1743228736,"current_range_meters":9200,"station_id":"ce4bh512rcd13ifvqe2g","pricing_plan_id":"cebpf4jnsgd1na2vs0mg"},{"bike_id":"af254d97-a043-44da-9e0b-050315514acc","system_id":"levelo_inurba_marseille","lat":43.23597,"lon":5.40356,"is_reserved":false,"is_disabled":false,"rental_uris":{"android":"levelo://app?vid=af254d97-a043-44da-9e0b-050315514acc","ios":"levelo://app?vid=af254d97-a043-44da-9e0b-050315514acc"},"vehicle_type_id":"4","last_reported":1743228736,"current_range_meters":9200,"station_id":"","pricing_plan_id":"cebpf4jnsgd1na2vs0mg"},{"bike_id":"d174d6ab-b837-458b-9239-eae7b56f708b","system_id":"levelo_inurba_marseille","lat":43.31252,"lon":5.36843,"is_reserved":false,"is_disabled":false,"rental_uris":{"android":"levelo://app?vid=d174d6ab-b837-458b-9239-eae7b56f708b","ios":"levelo://app?vid=d174d6ab-b837-458b-9239-eae7b56f708b"},"vehicle_type_id":"4","last_reported":1743228736,"current_range_meters":9200,"station_id":"ce4bgl92rcd13ifvqbq0","pricing_plan_id":"cebpf4jnsgd1na2vs0mg"},{"bike_id":"779df052-2e91-4c4c-b7c7-c99a5f967063","system_id":"levelo_inurba_marseille","lat":43.2886,"lon":5.39321,"is_reserved":false,"is_disabled":false,"rental_uris":{"android":"levelo://app?vid=779df052-2e91-4c4c-b7c7-c99a5f967063","ios":"levelo://app?vid=779df052-2e91-4c4c-b7c7-c99a5f967063"},"vehicle_type_id":"4","last_reported":1743228736,"current_range_meters":9200,"station_id":"ce4bh2p2rcd13ifvqdi0","pricing_plan_id":"cebpf4jnsgd1na2vs0mg"},{"bike_id":"2cd13ff0-e8ea-4b67-910d-1fd384c021d2","system_id":"levelo_inurba_marseille","lat":43.28112,"lon":5.37801,"is_reserved":false,"is_disabled":false,"rental_uris":{"android":"levelo://app?vid=2cd13ff0-e8ea-4b67-910d-1fd384c021d2","ios":"levelo://app?vid=2cd13ff0-e8ea-4b67-910d-1fd384c021d2"},"vehicle_type_id":"4","last_reported":1743228736,"current_range_meters":9600,"station_id":"ce4bha12rcd13ifvqee0","pricing_plan_id":"cebpf4jnsgd1na2vs0mg"},{"bike_id":"ef32beeb-aa8b-44fc-8967-7f96113b5aa2","system_id":"levelo_inurba_marseille","lat":43.25101,"lon":5.40331,"is_reserved":false,"is_disabled":false,"rental_uris":{"android":"levelo://app?vid=ef32beeb-aa8b-44fc-8967-7f96113b5aa2","ios":"levelo://app?vid=ef32beeb-aa8b-44fc-8967-7f96113b5aa2"},"vehicle_type_id":"4","last_reported":1743228736,"current_range_meters":9600,"station_id":"ce4bhlh2rcd13ifvqgig","pricing_plan_id":"cebpf4jnsgd1na2vs0mg"},{"bike_id":"b35af153-65c3-4e01-ad77-b4570783aa52","system_id":"levelo_inurba_marseille","lat":43.30939,"lon":5.40142,"is_reserved":false,"is_disabled":false,"rental_uris":{"android":"levelo://app?vid=b35af153-65c3-4e01-ad77-b4570783aa52","ios":"levelo://app?vid=b35af153-65c3-4e01-ad77-b4570783aa52"},"vehicle_type_id":"4","last_reported":1743228736,"current_range_meters":9600,"station_id":"ce4bgvp2rcd13ifvqct0","pricing_plan_id":"cebpf4jnsgd1na2vs0mg"},{"bike_id":"7cb45fac-62b5-4ead-be9c-e53660ce9dfb","system_id":"levelo_inurba_marseille","lat":43.28715,"lon":5.39998,"is_reserved":false,"is_disabled":true,"rental_uris":{"android":"levelo://app?vid=7cb45fac-62b5-4ead-be9c-e53660ce9dfb","ios":"levelo://app?vid=7cb45fac-62b5-4ead-be9c-e53660ce9dfb"},"vehicle_type_id":"4","last_reported":1743228736,"current_range_meters":9600,"station_id":"ce4bho92rcd13ifvqh3g","pricing_plan_id":"cebpf4jnsgd1na2vs0mg"},{"bike_id":"983c4c9f-ee1a-4d13-8ce7-bfd36c479f46","system_id":"levelo_inurba_marseille","lat":43.24165,"lon":5.36404,"is_reserved":false,"is_disabled":false,"rental_uris":{"android":"levelo://app?vid=983c4c9f-ee1a-4d13-8ce7-bfd36c479f46","ios":"levelo://app?vid=983c4c9f-ee1a-4d13-8ce7-bfd36c479f46"},"vehicle_type_id":"4","last_reported":1743228736,"current_range_meters":9600,"station_id":"cpo36qri1sfpv3e86is0","pricing_plan_id":"cebpf4jnsgd1na2vs0mg"},{"bike_id":"d110ea9c-afe8-47f1-b008-e66bc6e44a55","system_id":"levelo_inurba_marseille","lat":43.28425,"lon":5.35019,"is_reserved":false,"is_disabled":false,"rental_uris":{"android":"levelo://app?vid=d110ea9c-afe8-47f1-b008-e66bc6e44a55","ios":"levelo://app?vid=d110ea9c-afe8-47f1-b008-e66bc6e44a55"},"vehicle_type_id":"4","last_reported":1743228736,"current_range_meters":9600,"station_id":"ce4bhbh2rcd13ifvqepg","pricing_plan_id":"cebpf4jnsgd1na2vs0mg"},{"bike_id":"5931979f-217a-43a6-8599-373bf824e6f5","system_id":"levelo_inurba_marseille","lat":43.28735,"lon":5.39968,"is_reserved":false,"is_disabled":false,"rental_uris":{"android":"levelo://app?vid=5931979f-217a-43a6-8599-373bf824e6f5","ios":"levelo://app?vid=5931979f-217a-43a6-8599-373bf824e6f5"},"vehicle_type_id":"4","last_reported":1743228736,"current_range_meters":9600,"station_id":"ce4bho92rcd13ifvqh3g","pricing_plan_id":"cebpf4jnsgd1na2vs0mg"},{"bike_id":"676aa410-285a-48fa-832f-41d35fee7288","system_id":"levelo_inurba_marseille","lat":43.28597,"lon":5.37084,"is_reserved":false,"is_disabled":false,"rental_uris":{"android":"levelo://app?vid=676aa410-285a-48fa-832f-41d35fee7288","ios":"levelo://app?vid=676aa410-285a-48fa-832f-41d35fee7288"},"vehicle_type_id":"4","last_reported":1743228736,"current_range_meters":9600,"station_id":"ce4bht12rcd13ifvqi60","pricing_plan_id":"cebpf4jnsgd1na2vs0mg"},{"bike_id":"f8d7185c-ecea-45eb-aa00-582b3673a6d2","system_id":"levelo_inurba_marseille","lat":43.30601,"lon":5.37234,"is_reserved":false,"is_disabled":false,"rental_uris":{"android":"levelo://app?vid=f8d7185c-ecea-45eb-aa00-582b3673a6d2","ios":"levelo://app?vid=f8d7185c-ecea-45eb-aa00-582b3673a6d2"},"vehicle_type_id":"4","last_reported":1743228736,"current_range_meters":9600,"station_id":"ce4bgqh2rcd13ifvqc4g","pricing_plan_id":"cebpf4jnsgd1na2vs0mg"},{"bike_id":"201331f6-89d2-473a-a738-b22172ea4f15","system_id":"levelo_inurba_marseille","lat":43.31273,"lon":5.40185,"is_reserved":false,"is_disabled":false,"rental_uris":{"android":"levelo://app?vid=201331f6-89d2-473a-a738-b22172ea4f15","ios":"levelo://app?vid=201331f6-89d2-473a-a738-b22172ea4f15"},"vehicle_type_id":"4","last_reported":1743228736,"current_range_meters":9600,"station_id":"ce4bh092rcd13ifvqd30","pricing_plan_id":"cebpf4jnsgd1na2vs0mg"},{"bike_id":"1a8ec8fe-cd0f-44f4-9a76-dfc354a60ccc","system_id":"levelo_inurba_marseille","lat":43.23962,"lon":5.36633,"is_reserved":false,"is_disabled":false,"rental_uris":{"android":"levelo://app?vid=1a8ec8fe-cd0f-44f4-9a76-dfc354a60ccc","ios":"levelo://app?vid=1a8ec8fe-cd0f-44f4-9a76-dfc354a60ccc"},"vehicle_type_id":"4","last_reported":1743228736,"current_range_meters":9600,"station_id":"ce4bhi12rcd13ifvqfp0","pricing_plan_id":"cebpf4jnsgd1na2vs0mg"},{"bike_id":"ea4d652d-0687-4fa8-9e2c-7cf26eec9129","system_id":"levelo_inurba_marseille","lat":43.29258,"lon":5.38431,"is_reserved":false,"is_disabled":true,"rental_uris":{"android":"levelo://app?vid=ea4d652d-0687-4fa8-9e2c-7cf26eec9129","ios":"levelo://app?vid=ea4d652d-0687-4fa8-9e2c-7cf26eec9129"},"vehicle_type_id":"4","last_reported":1743228736,"current_range_meters":9600,"station_id":"ce4bh692rcd13ifvqea0","pricing_plan_id":"cebpf4jnsgd1na2vs0mg"},{"bike_id":"d14cdd1e-f0b3-48a5-be5e-77128af69a2d","system_id":"levelo_inurba_marseille","lat":43.28586,"lon":5.35145,"is_reserved":false,"is_disabled":false,"rental_uris":{"android":"levelo://app?vid=d14cdd1e-f0b3-48a5-be5e-77128af69a2d","ios":"levelo://app?vid=d14cdd1e-f0b3-48a5-be5e-77128af69a2d"},"vehicle_type_id":"4","last_reported":1743228736,"current_range_meters":9600,"station_id":"","pricing_plan_id":"cebpf4jnsgd1na2vs0mg"},{"bike_id":"e4614adf-59ca-49c9-9f29-fb2629aacd37","system_id":"levelo_inurba_marseille","lat":43.28608,"lon":5.35137,"is_reserved":false,"is_disabled":false,"rental_uris":{"android":"levelo://app?vid=e4614adf-59ca-49c9-9f29-fb2629aacd37","ios":"levelo://app?vid=e4614adf-59ca-49c9-9f29-fb2629aacd37"},"vehicle_type_id":"4","last_reported":1743228736,"current_range_meters":9600,"station_id":"ce4bhch2rcd13ifvqeug","pricing_plan_id":"cebpf4jnsgd1na2vs0mg"},{"bike_id":"b1ecd358-38ec-4753-8af1-9b87454b444a","system_id":"levelo_inurba_marseille","lat":43.28619,"lon":5.35094,"is_reserved":false,"is_disabled":false,"rental_uris":{"android":"levelo://app?vid=b1ecd358-38ec-4753-8af1-9b87454b444a","ios":"levelo://app?vid=b1ecd358-38ec-4753-8af1-9b87454b444a"},"vehicle_type_id":"4","last_reported":1743228736,"current_range_meters":10000,"station_id":"ce4bhch2rcd13ifvqeug","pricing_plan_id":"cebpf4jnsgd1na2vs0mg"},{"bike_id":"8b6540df-f0de-4fe4-a1a8-c73d8d908f05","system_id":"levelo_inurba_marseille","lat":43.32352,"lon":5.38899,"is_reserved":false,"is_disabled":false,"rental_uris":{"android":"levelo://app?vid=8b6540df-f0de-4fe4-a1a8-c73d8d908f05","ios":"levelo://app?vid=8b6540df-f0de-4fe4-a1a8-c73d8d908f05"},"vehicle_type_id":"4","last_reported":1743228736,"current_range_meters":10000,"station_id":"ce4bhqp2rcd13ifvqhog","pricing_plan_id":"cebpf4jnsgd1na2vs0mg"},{"bike_id":"52513dff-a40d-43af-9ce1-676840710ebe","system_id":"levelo_inurba_marseille","lat":43.280747,"lon":5.396453,"is_reserved":false,"is_disabled":false,"rental_uris":{"android":"levelo://app?vid=52513dff-a40d-43af-9ce1-676840710ebe","ios":"levelo://app?vid=52513dff-a40d-43af-9ce1-676840710ebe"},"vehicle_type_id":"4","last_reported":1743228736,"current_range_meters":10000,"station_id":"ce4bho12rcd13ifvqh2g","pricing_plan_id":"cebpf4jnsgd1na2vs0mg"},{"bike_id":"3a2e35ff-67f7-42a4-b09b-1fe3ef6e95d8","system_id":"levelo_inurba_marseille","lat":43.22945,"lon":5.35381,"is_reserved":false,"is_disabled":false,"rental_uris":{"android":"levelo://app?vid=3a2e35ff-67f7-42a4-b09b-1fe3ef6e95d8","ios":"levelo://app?vid=3a2e35ff-67f7-42a4-b09b-1fe3ef6e95d8"},"vehicle_type_id":"4","last_reported":1743228736,"current_range_meters":10000,"station_id":"cpo3532slgdg3j2ikp40","pricing_plan_id":"cebpf4jnsgd1na2vs0mg"},{"bike_id":"4d33bc5b-fded-4b79-abc4-d8ca2a4f7165","system_id":"levelo_inurba_marseille","lat":43.25694,"lon":5.41034,"is_reserved":false,"is_disabled":false,"rental_uris":{"android":"levelo://app?vid=4d33bc5b-fded-4b79-abc4-d8ca2a4f7165","ios":"levelo://app?vid=4d33bc5b-fded-4b79-abc4-d8ca2a4f7165"},"vehicle_type_id":"4","last_reported":1743228736,"current_range_meters":10000,"station_id":"","pricing_plan_id":"cebpf4jnsgd1na2vs0mg"},{"bike_id":"980b1b8d-c114-4f00-88f8-a0ddccb8fb71","system_id":"levelo_inurba_marseille","lat":43.28604,"lon":5.35142,"is_reserved":false,"is_disabled":false,"rental_uris":{"android":"levelo://app?vid=980b1b8d-c114-4f00-88f8-a0ddccb8fb71","ios":"levelo://app?vid=980b1b8d-c114-4f00-88f8-a0ddccb8fb71"},"vehicle_type_id":"4","last_reported":1743228736,"current_range_meters":10000,"station_id":"ce4bhch2rcd13ifvqeug","pricing_plan_id":"cebpf4jnsgd1na2vs0mg"},{"bike_id":"6a8b8a6f-1d77-4116-aead-6fd201e2adda","system_id":"levelo_inurba_marseille","lat":43.28977,"lon":5.42611,"is_reserved":false,"is_disabled":false,"rental_uris":{"android":"levelo://app?vid=6a8b8a6f-1d77-4116-aead-6fd201e2adda","ios":"levelo://app?vid=6a8b8a6f-1d77-4116-aead-6fd201e2adda"},"vehicle_type_id":"4","last_reported":1743228736,"current_range_meters":10000,"station_id":"","pricing_plan_id":"cebpf4jnsgd1na2vs0mg"},{"bike_id":"86402da5-f9ef-43b6-a281-06ce7c4c3160","system_id":"levelo_inurba_marseille","lat":43.28605,"lon":5.35113,"is_reserved":false,"is_disabled":false,"rental_uris":{"android":"levelo://app?vid=86402da5-f9ef-43b6-a281-06ce7c4c3160","ios":"levelo://app?vid=86402da5-f9ef-43b6-a281-06ce7c4c3160"},"vehicle_type_id":"4","last_reported":1743228736,"current_range_meters":10800,"station_id":"ce4bhch2rcd13ifvqeug","pricing_plan_id":"cebpf4jnsgd1na2vs0mg"},{"bike_id":"96fa1290-e699-40b9-9109-379d3b77c6fb","system_id":"levelo_inurba_marseille","lat":43.33731,"lon":5.391905,"is_reserved":false,"is_disabled":false,"rental_uris":{"android":"levelo://app?vid=96fa1290-e699-40b9-9109-379d3b77c6fb","ios":"levelo://app?vid=96fa1290-e699-40b9-9109-379d3b77c6fb"},"vehicle_type_id":"4","last_reported":1743228736,"current_range_meters":10800,"station_id":"ce4bhr92rcd13ifvqhsg","pricing_plan_id":"cebpf4jnsgd1na2vs0mg"},{"bike_id":"376e2628-4699-4887-9ff3-b8de9424e7ce","system_id":"levelo_inurba_marseille","lat":43.27998,"lon":5.41662,"is_reserved":false,"is_disabled":false,"rental_uris":{"android":"levelo://app?vid=376e2628-4699-4887-9ff3-b8de9424e7ce","ios":"levelo://app?vid=376e2628-4699-4887-9ff3-b8de9424e7ce"},"vehicle_type_id":"4","last_reported":1743228736,"current_range_meters":10800,"station_id":"ce4bho12rcd13ifvqh1g","pricing_plan_id":"cebpf4jnsgd1na2vs0mg"},{"bike_id":"a2dd611d-97f8-4a80-9052-0416216c6368","system_id":"levelo_inurba_marseille","lat":43.29203,"lon":5.36058,"is_reserved":false,"is_disabled":true,"rental_uris":{"android":"levelo://app?vid=a2dd611d-97f8-4a80-9052-0416216c6368","ios":"levelo://app?vid=a2dd611d-97f8-4a80-9052-0416216c6368"},"vehicle_type_id":"4","last_reported":1743228736,"current_range_meters":10800,"station_id":"ce4bhbh2rcd13ifvqeqg","pricing_plan_id":"cebpf4jnsgd1na2vs0mg"},{"bike_id":"4b2323ae-94b8-41f7-9062-4d9bd4bd549e","system_id":"levelo_inurba_marseille","lat":43.24166,"lon":5.36405,"is_reserved":false,"is_disabled":false,"rental_uris":{"android":"levelo://app?vid=4b2323ae-94b8-41f7-9062-4d9bd4bd549e","ios":"levelo://app?vid=4b2323ae-94b8-41f7-9062-4d9bd4bd549e"},"vehicle_type_id":"4","last_reported":1743228736,"current_range_meters":10800,"station_id":"cpo36qri1sfpv3e86is0","pricing_plan_id":"cebpf4jnsgd1na2vs0mg"},{"bike_id":"a9514da0-9b96-41a0-93b8-9bfdb43fee23","system_id":"levelo_inurba_marseille","lat":43.31365,"lon":5.38485,"is_reserved":false,"is_disabled":false,"rental_uris":{"android":"levelo://app?vid=a9514da0-9b96-41a0-93b8-9bfdb43fee23","ios":"levelo://app?vid=a9514da0-9b96-41a0-93b8-9bfdb43fee23"},"vehicle_type_id":"4","last_reported":1743228736,"current_range_meters":10800,"station_id":"ce4bgt92rcd13ifvqcf0","pricing_plan_id":"cebpf4jnsgd1na2vs0mg"},{"bike_id":"258cd958-e46f-4e56-879b-fac508681c9b","system_id":"levelo_inurba_marseille","lat":43.28941,"lon":5.36359,"is_reserved":false,"is_disabled":false,"rental_uris":{"android":"levelo://app?vid=258cd958-e46f-4e56-879b-fac508681c9b","ios":"levelo://app?vid=258cd958-e46f-4e56-879b-fac508681c9b"},"vehicle_type_id":"4","last_reported":1743228736,"current_range_meters":10800,"station_id":"ce4bhc92rcd13ifvqetg","pricing_plan_id":"cebpf4jnsgd1na2vs0mg"},{"bike_id":"7aaf5a0e-2c2f-4ed8-8a34-59a0a4d174c4","system_id":"levelo_inurba_marseille","lat":43.28837,"lon":5.39315,"is_reserved":false,"is_disabled":false,"rental_uris":{"android":"levelo://app?vid=7aaf5a0e-2c2f-4ed8-8a34-59a0a4d174c4","ios":"levelo://app?vid=7aaf5a0e-2c2f-4ed8-8a34-59a0a4d174c4"},"vehicle_type_id":"4","last_reported":1743228736,"current_range_meters":10800,"station_id":"ce4bh2p2rcd13ifvqdi0","pricing_plan_id":"cebpf4jnsgd1na2vs0mg"},{"bike_id":"161d8420-1bd4-4c54-8885-cf257d3ec950","system_id":"levelo_inurba_marseille","lat":43.249994,"lon":5.389316,"is_reserved":false,"is_disabled":false,"rental_uris":{"android":"levelo://app?vid=161d8420-1bd4-4c54-8885-cf257d3ec950","ios":"levelo://app?vid=161d8420-1bd4-4c54-8885-cf257d3ec950"},"vehicle_type_id":"4","last_reported":1743228736,"current_range_meters":10800,"station_id":"ce4bhgp2rcd13ifvqfd0","pricing_plan_id":"cebpf4jnsgd1na2vs0mg"},{"bike_id":"9e5fa43f-5df4-463b-a6f7-56802c1b39d6","system_id":"levelo_inurba_marseille","lat":43.28843,"lon":5.39304,"is_reserved":false,"is_disabled":false,"rental_uris":{"android":"levelo://app?vid=9e5fa43f-5df4-463b-a6f7-56802c1b39d6","ios":"levelo://app?vid=9e5fa43f-5df4-463b-a6f7-56802c1b39d6"},"vehicle_type_id":"4","last_reported":1743228736,"current_range_meters":10800,"station_id":"ce4bh2p2rcd13ifvqdi0","pricing_plan_id":"cebpf4jnsgd1na2vs0mg"},{"bike_id":"c002039a-7a5c-4c14-b885-cd2b9fb7c7ec","system_id":"levelo_inurba_marseille","lat":43.28659,"lon":5.36343,"is_reserved":false,"is_disabled":false,"rental_uris":{"android":"levelo://app?vid=c002039a-7a5c-4c14-b885-cd2b9fb7c7ec","ios":"levelo://app?vid=c002039a-7a5c-4c14-b885-cd2b9fb7c7ec"},"vehicle_type_id":"4","last_reported":1743228736,"current_range_meters":10800,"station_id":"ce4bhah2rcd13ifvqej0","pricing_plan_id":"cebpf4jnsgd1na2vs0mg"},{"bike_id":"ad095ff6-2192-4acf-9d3b-75082cfc78be","system_id":"levelo_inurba_marseille","lat":43.292512,"lon":5.377341,"is_reserved":false,"is_disabled":false,"rental_uris":{"android":"levelo://app?vid=ad095ff6-2192-4acf-9d3b-75082cfc78be","ios":"levelo://app?vid=ad095ff6-2192-4acf-9d3b-75082cfc78be"},"vehicle_type_id":"4","last_reported":1743228736,"current_range_meters":10800,"station_id":"","pricing_plan_id":"cebpf4jnsgd1na2vs0mg"},{"bike_id":"9b4b936a-6ccf-4470-91dd-67504c3f349f","system_id":"levelo_inurba_marseille","lat":43.26946,"lon":5.38636,"is_reserved":false,"is_disabled":false,"rental_uris":{"android":"levelo://app?vid=9b4b936a-6ccf-4470-91dd-67504c3f349f","ios":"levelo://app?vid=9b4b936a-6ccf-4470-91dd-67504c3f349f"},"vehicle_type_id":"4","last_reported":1743228736,"current_range_meters":11200,"station_id":"ce4bhh92rcd13ifvqfh0","pricing_plan_id":"cebpf4jnsgd1na2vs0mg"},{"bike_id":"bc13ce4b-80c3-434c-be50-109c6ccb0031","system_id":"levelo_inurba_marseille","lat":43.29257,"lon":5.40912,"is_reserved":false,"is_disabled":false,"rental_uris":{"android":"levelo://app?vid=bc13ce4b-80c3-434c-be50-109c6ccb0031","ios":"levelo://app?vid=bc13ce4b-80c3-434c-be50-109c6ccb0031"},"vehicle_type_id":"4","last_reported":1743228736,"current_range_meters":11200,"station_id":"ce4bh192rcd13ifvqdc0","pricing_plan_id":"cebpf4jnsgd1na2vs0mg"},{"bike_id":"3a632c6f-7f42-4629-aa6e-0a86e11bf372","system_id":"levelo_inurba_marseille","lat":43.24154,"lon":5.39712,"is_reserved":false,"is_disabled":false,"rental_uris":{"android":"levelo://app?vid=3a632c6f-7f42-4629-aa6e-0a86e11bf372","ios":"levelo://app?vid=3a632c6f-7f42-4629-aa6e-0a86e11bf372"},"vehicle_type_id":"4","last_reported":1743228736,"current_range_meters":11200,"station_id":"ce4bhn12rcd13ifvqgpg","pricing_plan_id":"cebpf4jnsgd1na2vs0mg"},{"bike_id":"993980d6-9d20-4788-86fc-be6d236dccfb","system_id":"levelo_inurba_marseille","lat":43.29272,"lon":5.40143,"is_reserved":false,"is_disabled":false,"rental_uris":{"android":"levelo://app?vid=993980d6-9d20-4788-86fc-be6d236dccfb","ios":"levelo://app?vid=993980d6-9d20-4788-86fc-be6d236dccfb"},"vehicle_type_id":"4","last_reported":1743228736,"current_range_meters":11200,"station_id":"ce4bh312rcd13ifvqdk0","pricing_plan_id":"cebpf4jnsgd1na2vs0mg"},{"bike_id":"4f2ef70c-1612-49b7-b152-9f750843e2a0","system_id":"levelo_inurba_marseille","lat":43.30388,"lon":5.40312,"is_reserved":false,"is_disabled":false,"rental_uris":{"android":"levelo://app?vid=4f2ef70c-1612-49b7-b152-9f750843e2a0","ios":"levelo://app?vid=4f2ef70c-1612-49b7-b152-9f750843e2a0"},"vehicle_type_id":"4","last_reported":1743228736,"current_range_meters":11200,"station_id":"","pricing_plan_id":"cebpf4jnsgd1na2vs0mg"},{"bike_id":"5b6a8b80-2d63-46d6-9df2-cbd6216a992b","system_id":"levelo_inurba_marseille","lat":43.313517,"lon":5.367411,"is_reserved":false,"is_disabled":true,"rental_uris":{"android":"levelo://app?vid=5b6a8b80-2d63-46d6-9df2-cbd6216a992b","ios":"levelo://app?vid=5b6a8b80-2d63-46d6-9df2-cbd6216a992b"},"vehicle_type_id":"4","last_reported":1743228736,"current_range_meters":11200,"station_id":"ce4bgr92rcd13ifvqc6g","pricing_plan_id":"cebpf4jnsgd1na2vs0mg"},{"bike_id":"f9de63e8-e5f0-486f-88e4-96470d4381e2","system_id":"levelo_inurba_marseille","lat":43.29254,"lon":5.40185,"is_reserved":false,"is_disabled":false,"rental_uris":{"android":"levelo://app?vid=f9de63e8-e5f0-486f-88e4-96470d4381e2","ios":"levelo://app?vid=f9de63e8-e5f0-486f-88e4-96470d4381e2"},"vehicle_type_id":"4","last_reported":1743228736,"current_range_meters":11600,"station_id":"","pricing_plan_id":"cebpf4jnsgd1na2vs0mg"},{"bike_id":"d82c4c77-dd71-4aee-b863-66f4ff3733a4","system_id":"levelo_inurba_marseille","lat":43.24664,"lon":5.38159,"is_reserved":false,"is_disabled":false,"rental_uris":{"android":"levelo://app?vid=d82c4c77-dd71-4aee-b863-66f4ff3733a4","ios":"levelo://app?vid=d82c4c77-dd71-4aee-b863-66f4ff3733a4"},"vehicle_type_id":"4","last_reported":1743228736,"current_range_meters":11600,"station_id":"ce4bhih2rcd13ifvqfr0","pricing_plan_id":"cebpf4jnsgd1na2vs0mg"},{"bike_id":"b590f89d-8143-4d33-b2c8-aec684e9f18f","system_id":"levelo_inurba_marseille","lat":43.30307,"lon":5.40447,"is_reserved":false,"is_disabled":false,"rental_uris":{"android":"levelo://app?vid=b590f89d-8143-4d33-b2c8-aec684e9f18f","ios":"levelo://app?vid=b590f89d-8143-4d33-b2c8-aec684e9f18f"},"vehicle_type_id":"4","last_reported":1743228736,"current_range_meters":11600,"station_id":"ce4bh012rcd13ifvqd10","pricing_plan_id":"cebpf4jnsgd1na2vs0mg"},{"bike_id":"d5663f91-3cb7-47b4-8564-7ef2d5682e29","system_id":"levelo_inurba_marseille","lat":43.31344,"lon":5.37392,"is_reserved":false,"is_disabled":false,"rental_uris":{"android":"levelo://app?vid=d5663f91-3cb7-47b4-8564-7ef2d5682e29","ios":"levelo://app?vid=d5663f91-3cb7-47b4-8564-7ef2d5682e29"},"vehicle_type_id":"4","last_reported":1743228736,"current_range_meters":11600,"station_id":"ce4bgt12rcd13ifvqcd0","pricing_plan_id":"cebpf4jnsgd1na2vs0mg"},{"bike_id":"4586e23a-2d77-446c-8e8c-a15b6ae5de02","system_id":"levelo_inurba_marseille","lat":43.28594,"lon":5.38124,"is_reserved":false,"is_disabled":false,"rental_uris":{"android":"levelo://app?vid=4586e23a-2d77-446c-8e8c-a15b6ae5de02","ios":"levelo://app?vid=4586e23a-2d77-446c-8e8c-a15b6ae5de02"},"vehicle_type_id":"4","last_reported":1743228736,"current_range_meters":11600,"station_id":"","pricing_plan_id":"cebpf4jnsgd1na2vs0mg"},{"bike_id":"c573c046-f36a-4bd3-af73-5fc85d05e776","system_id":"levelo_inurba_marseille","lat":43.28441,"lon":5.35893,"is_reserved":false,"is_disabled":false,"rental_uris":{"android":"levelo://app?vid=c573c046-f36a-4bd3-af73-5fc85d05e776","ios":"levelo://app?vid=c573c046-f36a-4bd3-af73-5fc85d05e776"},"vehicle_type_id":"4","last_reported":1743228736,"current_range_meters":12000,"station_id":"ce4bhah2rcd13ifvqei0","pricing_plan_id":"cebpf4jnsgd1na2vs0mg"},{"bike_id":"6923d6a9-7a78-46cf-a22b-73ed15f379bc","system_id":"levelo_inurba_marseille","lat":43.28071,"lon":5.39677,"is_reserved":false,"is_disabled":false,"rental_uris":{"android":"levelo://app?vid=6923d6a9-7a78-46cf-a22b-73ed15f379bc","ios":"levelo://app?vid=6923d6a9-7a78-46cf-a22b-73ed15f379bc"},"vehicle_type_id":"4","last_reported":1743228736,"current_range_meters":12000,"station_id":"ce4bho12rcd13ifvqh2g","pricing_plan_id":"cebpf4jnsgd1na2vs0mg"},{"bike_id":"3d6f77a5-38af-4abc-b9f0-4b0dedd9675c","system_id":"levelo_inurba_marseille","lat":43.24888,"lon":5.39392,"is_reserved":false,"is_disabled":false,"rental_uris":{"android":"levelo://app?vid=3d6f77a5-38af-4abc-b9f0-4b0dedd9675c","ios":"levelo://app?vid=3d6f77a5-38af-4abc-b9f0-4b0dedd9675c"},"vehicle_type_id":"4","last_reported":1743228736,"current_range_meters":12000,"station_id":"","pricing_plan_id":"cebpf4jnsgd1na2vs0mg"},{"bike_id":"3f7539a9-fe9d-4bf3-a143-40a9bdd56d65","system_id":"levelo_inurba_marseille","lat":43.295524,"lon":5.422814,"is_reserved":false,"is_disabled":true,"rental_uris":{"android":"levelo://app?vid=3f7539a9-fe9d-4bf3-a143-40a9bdd56d65","ios":"levelo://app?vid=3f7539a9-fe9d-4bf3-a143-40a9bdd56d65"},"vehicle_type_id":"4","last_reported":1743228736,"current_range_meters":12000,"station_id":"ce4bhph2rcd13ifvqhdg","pricing_plan_id":"cebpf4jnsgd1na2vs0mg"},{"bike_id":"6938d0ce-f954-4fff-b95b-2d698d38a5d7","system_id":"levelo_inurba_marseille","lat":43.279272,"lon":5.41046,"is_reserved":false,"is_disabled":false,"rental_uris":{"android":"levelo://app?vid=6938d0ce-f954-4fff-b95b-2d698d38a5d7","ios":"levelo://app?vid=6938d0ce-f954-4fff-b95b-2d698d38a5d7"},"vehicle_type_id":"4","last_reported":1743228736,"current_range_meters":12000,"station_id":"ce4bhnp2rcd13ifvqh0g","pricing_plan_id":"cebpf4jnsgd1na2vs0mg"},{"bike_id":"9f2583cf-461d-4d57-8c37-99ef1e89cade","system_id":"levelo_inurba_marseille","lat":43.23183,"lon":5.35563,"is_reserved":false,"is_disabled":false,"rental_uris":{"android":"levelo://app?vid=9f2583cf-461d-4d57-8c37-99ef1e89cade","ios":"levelo://app?vid=9f2583cf-461d-4d57-8c37-99ef1e89cade"},"vehicle_type_id":"4","last_reported":1743228736,"current_range_meters":12000,"station_id":"ce4bhu92rcd13ifvqi70","pricing_plan_id":"cebpf4jnsgd1na2vs0mg"},{"bike_id":"18a7459a-9de6-4413-bb5e-bd445e06b1f8","system_id":"levelo_inurba_marseille","lat":43.291945,"lon":5.358016,"is_reserved":false,"is_disabled":false,"rental_uris":{"android":"levelo://app?vid=18a7459a-9de6-4413-bb5e-bd445e06b1f8","ios":"levelo://app?vid=18a7459a-9de6-4413-bb5e-bd445e06b1f8"},"vehicle_type_id":"4","last_reported":1743228736,"current_range_meters":12000,"station_id":"ce4bhb12rcd13ifvqel0","pricing_plan_id":"cebpf4jnsgd1na2vs0mg"},{"bike_id":"11da41dd-4c10-4616-aa51-cbff19929686","system_id":"levelo_inurba_marseille","lat":43.31214,"lon":5.36869,"is_reserved":false,"is_disabled":false,"rental_uris":{"android":"levelo://app?vid=11da41dd-4c10-4616-aa51-cbff19929686","ios":"levelo://app?vid=11da41dd-4c10-4616-aa51-cbff19929686"},"vehicle_type_id":"4","last_reported":1743228736,"current_range_meters":12400,"station_id":"ce4bgl92rcd13ifvqbq0","pricing_plan_id":"cebpf4jnsgd1na2vs0mg"},{"bike_id":"55f17432-8643-4cf6-acff-3f0a026dccc9","system_id":"levelo_inurba_marseille","lat":43.27975,"lon":5.38763,"is_reserved":false,"is_disabled":false,"rental_uris":{"android":"levelo://app?vid=55f17432-8643-4cf6-acff-3f0a026dccc9","ios":"levelo://app?vid=55f17432-8643-4cf6-acff-3f0a026dccc9"},"vehicle_type_id":"4","last_reported":1743228736,"current_range_meters":12400,"station_id":"ce4bhg12rcd13ifvqf80","pricing_plan_id":"cebpf4jnsgd1na2vs0mg"},{"bike_id":"cef7767c-2350-4b54-be5c-fc4153b8edec","system_id":"levelo_inurba_marseille","lat":43.29794,"lon":5.39324,"is_reserved":false,"is_disabled":true,"rental_uris":{"android":"levelo://app?vid=cef7767c-2350-4b54-be5c-fc4153b8edec","ios":"levelo://app?vid=cef7767c-2350-4b54-be5c-fc4153b8edec"},"vehicle_type_id":"4","last_reported":1743228736,"current_range_meters":12400,"station_id":"chh1huq6cuj3fo74tm60","pricing_plan_id":"cebpf4jnsgd1na2vs0mg"},{"bike_id":"96ac20e8-5840-4579-b371-184ec6253952","system_id":"levelo_inurba_marseille","lat":43.27495,"lon":5.4118,"is_reserved":false,"is_disabled":false,"rental_uris":{"android":"levelo://app?vid=96ac20e8-5840-4579-b371-184ec6253952","ios":"levelo://app?vid=96ac20e8-5840-4579-b371-184ec6253952"},"vehicle_type_id":"4","last_reported":1743228736,"current_range_meters":12400,"station_id":"","pricing_plan_id":"cebpf4jnsgd1na2vs0mg"},{"bike_id":"d4f74c5c-23a4-4390-8b6b-72beeae35c2e","system_id":"levelo_inurba_marseille","lat":43.29945,"lon":5.37233,"is_reserved":false,"is_disabled":true,"rental_uris":{"android":"levelo://app?vid=d4f74c5c-23a4-4390-8b6b-72beeae35c2e","ios":"levelo://app?vid=d4f74c5c-23a4-4390-8b6b-72beeae35c2e"},"vehicle_type_id":"4","last_reported":1743228736,"current_range_meters":12400,"station_id":"ce4bgr92rcd13ifvqc7g","pricing_plan_id":"cebpf4jnsgd1na2vs0mg"},{"bike_id":"019c74de-8f3e-40a5-8942-c5eab69f1a42","system_id":"levelo_inurba_marseille","lat":43.287114,"lon":5.400006,"is_reserved":false,"is_disabled":false,"rental_uris":{"android":"levelo://app?vid=019c74de-8f3e-40a5-8942-c5eab69f1a42","ios":"levelo://app?vid=019c74de-8f3e-40a5-8942-c5eab69f1a42"},"vehicle_type_id":"4","last_reported":1743228736,"current_range_meters":12400,"station_id":"ce4bho92rcd13ifvqh3g","pricing_plan_id":"cebpf4jnsgd1na2vs0mg"},{"bike_id":"2acfa73f-a641-41f1-89a3-4a76bd75321b","system_id":"levelo_inurba_marseille","lat":43.30249,"lon":5.40068,"is_reserved":false,"is_disabled":false,"rental_uris":{"android":"levelo://app?vid=2acfa73f-a641-41f1-89a3-4a76bd75321b","ios":"levelo://app?vid=2acfa73f-a641-41f1-89a3-4a76bd75321b"},"vehicle_type_id":"4","last_reported":1743228736,"current_range_meters":12400,"station_id":"ce4bgvh2rcd13ifvqcs0","pricing_plan_id":"cebpf4jnsgd1na2vs0mg"},{"bike_id":"d3ecc912-dd45-41e9-9931-0b8cba10b689","system_id":"levelo_inurba_marseille","lat":43.27921,"lon":5.39588,"is_reserved":false,"is_disabled":false,"rental_uris":{"android":"levelo://app?vid=d3ecc912-dd45-41e9-9931-0b8cba10b689","ios":"levelo://app?vid=d3ecc912-dd45-41e9-9931-0b8cba10b689"},"vehicle_type_id":"4","last_reported":1743228736,"current_range_meters":12400,"station_id":"ce4bhf92rcd13ifvqf40","pricing_plan_id":"cebpf4jnsgd1na2vs0mg"},{"bike_id":"7fdcd55f-1c78-4ded-99ed-725169c92149","system_id":"levelo_inurba_marseille","lat":43.2737,"lon":5.38294,"is_reserved":false,"is_disabled":false,"rental_uris":{"android":"levelo://app?vid=7fdcd55f-1c78-4ded-99ed-725169c92149","ios":"levelo://app?vid=7fdcd55f-1c78-4ded-99ed-725169c92149"},"vehicle_type_id":"4","last_reported":1743228736,"current_range_meters":12400,"station_id":"","pricing_plan_id":"cebpf4jnsgd1na2vs0mg"},{"bike_id":"b4c37c25-9cba-4a05-8f49-cede6071a965","system_id":"levelo_inurba_marseille","lat":43.28362,"lon":5.38099,"is_reserved":false,"is_disabled":false,"rental_uris":{"android":"levelo://app?vid=b4c37c25-9cba-4a05-8f49-cede6071a965","ios":"levelo://app?vid=b4c37c25-9cba-4a05-8f49-cede6071a965"},"vehicle_type_id":"4","last_reported":1743228736,"current_range_meters":12800,"station_id":"ce4bh412rcd13ifvqdr0","pricing_plan_id":"cebpf4jnsgd1na2vs0mg"},{"bike_id":"8c7f8eda-084c-48db-b1e8-98138a0008f4","system_id":"levelo_inurba_marseille","lat":43.30233,"lon":5.40068,"is_reserved":false,"is_disabled":true,"rental_uris":{"android":"levelo://app?vid=8c7f8eda-084c-48db-b1e8-98138a0008f4","ios":"levelo://app?vid=8c7f8eda-084c-48db-b1e8-98138a0008f4"},"vehicle_type_id":"4","last_reported":1743228736,"current_range_meters":12800,"station_id":"ce4bgvh2rcd13ifvqcs0","pricing_plan_id":"cebpf4jnsgd1na2vs0mg"},{"bike_id":"56c7d975-e736-42e5-8d46-a2b4f71c4ac2","system_id":"levelo_inurba_marseille","lat":43.28714,"lon":5.3999,"is_reserved":false,"is_disabled":true,"rental_uris":{"android":"levelo://app?vid=56c7d975-e736-42e5-8d46-a2b4f71c4ac2","ios":"levelo://app?vid=56c7d975-e736-42e5-8d46-a2b4f71c4ac2"},"vehicle_type_id":"4","last_reported":1743228736,"current_range_meters":12800,"station_id":"ce4bho92rcd13ifvqh3g","pricing_plan_id":"cebpf4jnsgd1na2vs0mg"},{"bike_id":"7f9e733c-fa89-49ab-8010-8acb21ac5585","system_id":"levelo_inurba_marseille","lat":43.23153,"lon":5.43713,"is_reserved":false,"is_disabled":false,"rental_uris":{"android":"levelo://app?vid=7f9e733c-fa89-49ab-8010-8acb21ac5585","ios":"levelo://app?vid=7f9e733c-fa89-49ab-8010-8acb21ac5585"},"vehicle_type_id":"4","last_reported":1743228736,"current_range_meters":12800,"station_id":"ce4bhmp2rcd13ifvqgog","pricing_plan_id":"cebpf4jnsgd1na2vs0mg"},{"bike_id":"0358092f-a004-46e4-a31a-2526bdebfc87","system_id":"levelo_inurba_marseille","lat":43.26674,"lon":5.38271,"is_reserved":false,"is_disabled":false,"rental_uris":{"android":"levelo://app?vid=0358092f-a004-46e4-a31a-2526bdebfc87","ios":"levelo://app?vid=0358092f-a004-46e4-a31a-2526bdebfc87"},"vehicle_type_id":"4","last_reported":1743228736,"current_range_meters":12800,"station_id":"ce4bhg92rcd13ifvqf90","pricing_plan_id":"cebpf4jnsgd1na2vs0mg"},{"bike_id":"89b372e0-e34b-4448-a651-9f0d9816c98e","system_id":"levelo_inurba_marseille","lat":43.24169,"lon":5.36396,"is_reserved":false,"is_disabled":false,"rental_uris":{"android":"levelo://app?vid=89b372e0-e34b-4448-a651-9f0d9816c98e","ios":"levelo://app?vid=89b372e0-e34b-4448-a651-9f0d9816c98e"},"vehicle_type_id":"4","last_reported":1743228736,"current_range_meters":12800,"station_id":"cpo36qri1sfpv3e86is0","pricing_plan_id":"cebpf4jnsgd1na2vs0mg"},{"bike_id":"fbcf3d94-57c6-42fa-b3a1-9492f2c69319","system_id":"levelo_inurba_marseille","lat":43.28851,"lon":5.35841,"is_reserved":false,"is_disabled":false,"rental_uris":{"android":"levelo://app?vid=fbcf3d94-57c6-42fa-b3a1-9492f2c69319","ios":"levelo://app?vid=fbcf3d94-57c6-42fa-b3a1-9492f2c69319"},"vehicle_type_id":"4","last_reported":1743228736,"current_range_meters":12800,"station_id":"ce4bhb12rcd13ifvqem0","pricing_plan_id":"cebpf4jnsgd1na2vs0mg"},{"bike_id":"acf1e1c3-a629-4c7b-a838-cba3f3b54603","system_id":"levelo_inurba_marseille","lat":43.31917,"lon":5.37545,"is_reserved":false,"is_disabled":false,"rental_uris":{"android":"levelo://app?vid=acf1e1c3-a629-4c7b-a838-cba3f3b54603","ios":"levelo://app?vid=acf1e1c3-a629-4c7b-a838-cba3f3b54603"},"vehicle_type_id":"4","last_reported":1743228736,"current_range_meters":12800,"station_id":"","pricing_plan_id":"cebpf4jnsgd1na2vs0mg"},{"bike_id":"d42b0697-0001-445f-a5ab-e97cd50bb993","system_id":"levelo_inurba_marseille","lat":43.24802,"lon":5.37451,"is_reserved":false,"is_disabled":false,"rental_uris":{"android":"levelo://app?vid=d42b0697-0001-445f-a5ab-e97cd50bb993","ios":"levelo://app?vid=d42b0697-0001-445f-a5ab-e97cd50bb993"},"vehicle_type_id":"4","last_reported":1743228736,"current_range_meters":13600,"station_id":"ce4bhgh2rcd13ifvqfb0","pricing_plan_id":"cebpf4jnsgd1na2vs0mg"},{"bike_id":"6b4cfcd1-08df-48e0-9d17-53a80535687a","system_id":"levelo_inurba_marseille","lat":43.281054,"lon":5.378314,"is_reserved":false,"is_disabled":false,"rental_uris":{"android":"levelo://app?vid=6b4cfcd1-08df-48e0-9d17-53a80535687a","ios":"levelo://app?vid=6b4cfcd1-08df-48e0-9d17-53a80535687a"},"vehicle_type_id":"4","last_reported":1743228736,"current_range_meters":13600,"station_id":"ce4bha12rcd13ifvqee0","pricing_plan_id":"cebpf4jnsgd1na2vs0mg"},{"bike_id":"a87a4f3d-aefc-4b8f-a7df-bf0a94f9093e","system_id":"levelo_inurba_marseille","lat":43.28344,"lon":5.3814,"is_reserved":false,"is_disabled":false,"rental_uris":{"android":"levelo://app?vid=a87a4f3d-aefc-4b8f-a7df-bf0a94f9093e","ios":"levelo://app?vid=a87a4f3d-aefc-4b8f-a7df-bf0a94f9093e"},"vehicle_type_id":"4","last_reported":1743228736,"current_range_meters":13600,"station_id":"ce4bh412rcd13ifvqdr0","pricing_plan_id":"cebpf4jnsgd1na2vs0mg"},{"bike_id":"be60d3c2-3f59-4c34-8982-6a4e4e99bcbc","system_id":"levelo_inurba_marseille","lat":43.30417,"lon":5.41284,"is_reserved":false,"is_disabled":false,"rental_uris":{"android":"levelo://app?vid=be60d3c2-3f59-4c34-8982-6a4e4e99bcbc","ios":"levelo://app?vid=be60d3c2-3f59-4c34-8982-6a4e4e99bcbc"},"vehicle_type_id":"4","last_reported":1743228736,"current_range_meters":13600,"station_id":"ce4bhop2rcd13ifvqh8g","pricing_plan_id":"cebpf4jnsgd1na2vs0mg"},{"bike_id":"b10013b1-6e18-45d0-93c6-e52068d555f2","system_id":"levelo_inurba_marseille","lat":43.28459,"lon":5.35897,"is_reserved":false,"is_disabled":true,"rental_uris":{"android":"levelo://app?vid=b10013b1-6e18-45d0-93c6-e52068d555f2","ios":"levelo://app?vid=b10013b1-6e18-45d0-93c6-e52068d555f2"},"vehicle_type_id":"4","last_reported":1743228736,"current_range_meters":13600,"station_id":"ce4bhah2rcd13ifvqei0","pricing_plan_id":"cebpf4jnsgd1na2vs0mg"},{"bike_id":"f7702038-5b05-4ea4-b3dd-53d00e3ca8f0","system_id":"levelo_inurba_marseille","lat":43.235866,"lon":5.403483,"is_reserved":false,"is_disabled":false,"rental_uris":{"android":"levelo://app?vid=f7702038-5b05-4ea4-b3dd-53d00e3ca8f0","ios":"levelo://app?vid=f7702038-5b05-4ea4-b3dd-53d00e3ca8f0"},"vehicle_type_id":"4","last_reported":1743228736,"current_range_meters":13600,"station_id":"","pricing_plan_id":"cebpf4jnsgd1na2vs0mg"},{"bike_id":"8f889fa0-5fa0-4391-b0dc-ff8332f1e1e4","system_id":"levelo_inurba_marseille","lat":43.280901,"lon":5.396595,"is_reserved":false,"is_disabled":false,"rental_uris":{"android":"levelo://app?vid=8f889fa0-5fa0-4391-b0dc-ff8332f1e1e4","ios":"levelo://app?vid=8f889fa0-5fa0-4391-b0dc-ff8332f1e1e4"},"vehicle_type_id":"4","last_reported":1743228736,"current_range_meters":13600,"station_id":"ce4bho12rcd13ifvqh2g","pricing_plan_id":"cebpf4jnsgd1na2vs0mg"},{"bike_id":"699cb6a9-80bb-4d7b-8f84-b25847471872","system_id":"levelo_inurba_marseille","lat":43.2894,"lon":5.36418,"is_reserved":false,"is_disabled":false,"rental_uris":{"android":"levelo://app?vid=699cb6a9-80bb-4d7b-8f84-b25847471872","ios":"levelo://app?vid=699cb6a9-80bb-4d7b-8f84-b25847471872"},"vehicle_type_id":"4","last_reported":1743228736,"current_range_meters":13600,"station_id":"ce4bhc92rcd13ifvqetg","pricing_plan_id":"cebpf4jnsgd1na2vs0mg"},{"bike_id":"43e30df2-3ea2-4192-ac27-17ac9e6bf6ec","system_id":"levelo_inurba_marseille","lat":43.32369,"lon":5.38888,"is_reserved":false,"is_disabled":false,"rental_uris":{"android":"levelo://app?vid=43e30df2-3ea2-4192-ac27-17ac9e6bf6ec","ios":"levelo://app?vid=43e30df2-3ea2-4192-ac27-17ac9e6bf6ec"},"vehicle_type_id":"4","last_reported":1743228736,"current_range_meters":13600,"station_id":"ce4bhqp2rcd13ifvqhog","pricing_plan_id":"cebpf4jnsgd1na2vs0mg"},{"bike_id":"a047dca2-59cb-499d-99d8-9bf525f320cf","system_id":"levelo_inurba_marseille","lat":43.28001,"lon":5.39995,"is_reserved":false,"is_disabled":false,"rental_uris":{"android":"levelo://app?vid=a047dca2-59cb-499d-99d8-9bf525f320cf","ios":"levelo://app?vid=a047dca2-59cb-499d-99d8-9bf525f320cf"},"vehicle_type_id":"4","last_reported":1743228736,"current_range_meters":13600,"station_id":"ce4bho92rcd13ifvqh4g","pricing_plan_id":"cebpf4jnsgd1na2vs0mg"},{"bike_id":"30c7f53b-e8dc-4573-afd3-cdf078c64b9c","system_id":"levelo_inurba_marseille","lat":43.28655,"lon":5.36371,"is_reserved":false,"is_disabled":false,"rental_uris":{"android":"levelo://app?vid=30c7f53b-e8dc-4573-afd3-cdf078c64b9c","ios":"levelo://app?vid=30c7f53b-e8dc-4573-afd3-cdf078c64b9c"},"vehicle_type_id":"4","last_reported":1743228736,"current_range_meters":13600,"station_id":"ce4bhah2rcd13ifvqej0","pricing_plan_id":"cebpf4jnsgd1na2vs0mg"},{"bike_id":"3f2bcfca-c616-4059-a95b-b1ee7948eb41","system_id":"levelo_inurba_marseille","lat":43.29872,"lon":5.39726,"is_reserved":false,"is_disabled":false,"rental_uris":{"android":"levelo://app?vid=3f2bcfca-c616-4059-a95b-b1ee7948eb41","ios":"levelo://app?vid=3f2bcfca-c616-4059-a95b-b1ee7948eb41"},"vehicle_type_id":"4","last_reported":1743228736,"current_range_meters":14000,"station_id":"ce4bh0h2rcd13ifvqd50","pricing_plan_id":"cebpf4jnsgd1na2vs0mg"},{"bike_id":"abd3241e-325c-4afb-bdb7-08c1b88e1658","system_id":"levelo_inurba_marseille","lat":43.28872,"lon":5.3585,"is_reserved":false,"is_disabled":false,"rental_uris":{"android":"levelo://app?vid=abd3241e-325c-4afb-bdb7-08c1b88e1658","ios":"levelo://app?vid=abd3241e-325c-4afb-bdb7-08c1b88e1658"},"vehicle_type_id":"4","last_reported":1743228736,"current_range_meters":14000,"station_id":"ce4bhb12rcd13ifvqem0","pricing_plan_id":"cebpf4jnsgd1na2vs0mg"},{"bike_id":"aa8607bb-b5d2-4f91-a082-c4272120a7ed","system_id":"levelo_inurba_marseille","lat":43.28927,"lon":5.36403,"is_reserved":false,"is_disabled":false,"rental_uris":{"android":"levelo://app?vid=aa8607bb-b5d2-4f91-a082-c4272120a7ed","ios":"levelo://app?vid=aa8607bb-b5d2-4f91-a082-c4272120a7ed"},"vehicle_type_id":"4","last_reported":1743228736,"current_range_meters":14000,"station_id":"ce4bhc92rcd13ifvqetg","pricing_plan_id":"cebpf4jnsgd1na2vs0mg"},{"bike_id":"25bb5fbc-8229-4010-b703-31f5ee6ac141","system_id":"levelo_inurba_marseille","lat":43.30596,"lon":5.36583,"is_reserved":false,"is_disabled":false,"rental_uris":{"android":"levelo://app?vid=25bb5fbc-8229-4010-b703-31f5ee6ac141","ios":"levelo://app?vid=25bb5fbc-8229-4010-b703-31f5ee6ac141"},"vehicle_type_id":"4","last_reported":1743228736,"current_range_meters":14400,"station_id":"ce4bgs12rcd13ifvqcag","pricing_plan_id":"cebpf4jnsgd1na2vs0mg"},{"bike_id":"76d4ed16-8625-4a14-a5f1-d28ac2574c13","system_id":"levelo_inurba_marseille","lat":43.245423,"lon":5.395382,"is_reserved":false,"is_disabled":false,"rental_uris":{"android":"levelo://app?vid=76d4ed16-8625-4a14-a5f1-d28ac2574c13","ios":"levelo://app?vid=76d4ed16-8625-4a14-a5f1-d28ac2574c13"},"vehicle_type_id":"4","last_reported":1743228736,"current_range_meters":14400,"station_id":"","pricing_plan_id":"cebpf4jnsgd1na2vs0mg"},{"bike_id":"0509fd5a-cd70-40f1-b26e-3f3e3192484f","system_id":"levelo_inurba_marseille","lat":43.28925,"lon":5.36407,"is_reserved":false,"is_disabled":false,"rental_uris":{"android":"levelo://app?vid=0509fd5a-cd70-40f1-b26e-3f3e3192484f","ios":"levelo://app?vid=0509fd5a-cd70-40f1-b26e-3f3e3192484f"},"vehicle_type_id":"4","last_reported":1743228736,"current_range_meters":14400,"station_id":"ce4bhc92rcd13ifvqetg","pricing_plan_id":"cebpf4jnsgd1na2vs0mg"},{"bike_id":"2509a5ab-f054-473a-ab79-d4f7660e6b59","system_id":"levelo_inurba_marseille","lat":43.30358,"lon":5.42529,"is_reserved":false,"is_disabled":false,"rental_uris":{"android":"levelo://app?vid=2509a5ab-f054-473a-ab79-d4f7660e6b59","ios":"levelo://app?vid=2509a5ab-f054-473a-ab79-d4f7660e6b59"},"vehicle_type_id":"4","last_reported":1743228736,"current_range_meters":14400,"station_id":"ce4bhoh2rcd13ifvqh6g","pricing_plan_id":"cebpf4jnsgd1na2vs0mg"},{"bike_id":"12240523-da62-4476-97ff-2c3e5dcabff3","system_id":"levelo_inurba_marseille","lat":43.311165,"lon":5.377712,"is_reserved":false,"is_disabled":false,"rental_uris":{"android":"levelo://app?vid=12240523-da62-4476-97ff-2c3e5dcabff3","ios":"levelo://app?vid=12240523-da62-4476-97ff-2c3e5dcabff3"},"vehicle_type_id":"4","last_reported":1743228736,"current_range_meters":14400,"station_id":"ce4bgt92rcd13ifvqcg0","pricing_plan_id":"cebpf4jnsgd1na2vs0mg"},{"bike_id":"d94237ff-c868-4505-ab18-534e32ab72ed","system_id":"levelo_inurba_marseille","lat":43.28406,"lon":5.37541,"is_reserved":false,"is_disabled":false,"rental_uris":{"android":"levelo://app?vid=d94237ff-c868-4505-ab18-534e32ab72ed","ios":"levelo://app?vid=d94237ff-c868-4505-ab18-534e32ab72ed"},"vehicle_type_id":"4","last_reported":1743228736,"current_range_meters":14400,"station_id":"ce4bh412rcd13ifvqds0","pricing_plan_id":"cebpf4jnsgd1na2vs0mg"},{"bike_id":"afded9c5-511b-4e72-9b26-51a115252b20","system_id":"levelo_inurba_marseille","lat":43.29562,"lon":5.39987,"is_reserved":false,"is_disabled":false,"rental_uris":{"android":"levelo://app?vid=afded9c5-511b-4e72-9b26-51a115252b20","ios":"levelo://app?vid=afded9c5-511b-4e72-9b26-51a115252b20"},"vehicle_type_id":"4","last_reported":1743228736,"current_range_meters":14400,"station_id":"ce4bh312rcd13ifvqdj0","pricing_plan_id":"cebpf4jnsgd1na2vs0mg"},{"bike_id":"55c46d49-9363-40b2-8dbf-638f8433b356","system_id":"levelo_inurba_marseille","lat":43.248091,"lon":5.374569,"is_reserved":false,"is_disabled":false,"rental_uris":{"android":"levelo://app?vid=55c46d49-9363-40b2-8dbf-638f8433b356","ios":"levelo://app?vid=55c46d49-9363-40b2-8dbf-638f8433b356"},"vehicle_type_id":"4","last_reported":1743228736,"current_range_meters":14400,"station_id":"ce4bhgh2rcd13ifvqfb0","pricing_plan_id":"cebpf4jnsgd1na2vs0mg"},{"bike_id":"c2752b3a-718e-4661-94ed-39b78e5920df","system_id":"levelo_inurba_marseille","lat":43.231863,"lon":5.399931,"is_reserved":false,"is_disabled":true,"rental_uris":{"android":"levelo://app?vid=c2752b3a-718e-4661-94ed-39b78e5920df","ios":"levelo://app?vid=c2752b3a-718e-4661-94ed-39b78e5920df"},"vehicle_type_id":"4","last_reported":1743228736,"current_range_meters":14400,"station_id":"ce4bhn12rcd13ifvqgqg","pricing_plan_id":"cebpf4jnsgd1na2vs0mg"},{"bike_id":"2c175a10-c5cd-4a71-88ca-b1c3ac502091","system_id":"levelo_inurba_marseille","lat":43.3065,"lon":5.40075,"is_reserved":false,"is_disabled":false,"rental_uris":{"android":"levelo://app?vid=2c175a10-c5cd-4a71-88ca-b1c3ac502091","ios":"levelo://app?vid=2c175a10-c5cd-4a71-88ca-b1c3ac502091"},"vehicle_type_id":"4","last_reported":1743228736,"current_range_meters":14800,"station_id":"ce4bh112rcd13ifvqda0","pricing_plan_id":"cebpf4jnsgd1na2vs0mg"},{"bike_id":"a6841dc8-fe23-408f-b976-0d4692ece61b","system_id":"levelo_inurba_marseille","lat":43.30461,"lon":5.37907,"is_reserved":false,"is_disabled":false,"rental_uris":{"android":"levelo://app?vid=a6841dc8-fe23-408f-b976-0d4692ece61b","ios":"levelo://app?vid=a6841dc8-fe23-408f-b976-0d4692ece61b"},"vehicle_type_id":"4","last_reported":1743228736,"current_range_meters":14800,"station_id":"ce4bgup2rcd13ifvqcn0","pricing_plan_id":"cebpf4jnsgd1na2vs0mg"},{"bike_id":"906b540e-e920-417f-92b5-0ef35349f644","system_id":"levelo_inurba_marseille","lat":43.31538,"lon":5.39748,"is_reserved":false,"is_disabled":false,"rental_uris":{"android":"levelo://app?vid=906b540e-e920-417f-92b5-0ef35349f644","ios":"levelo://app?vid=906b540e-e920-417f-92b5-0ef35349f644"},"vehicle_type_id":"4","last_reported":1743228736,"current_range_meters":14800,"station_id":"","pricing_plan_id":"cebpf4jnsgd1na2vs0mg"},{"bike_id":"9f50066e-01fa-4519-9f61-8109fe65f5d9","system_id":"levelo_inurba_marseille","lat":43.28585,"lon":5.37093,"is_reserved":false,"is_disabled":false,"rental_uris":{"android":"levelo://app?vid=9f50066e-01fa-4519-9f61-8109fe65f5d9","ios":"levelo://app?vid=9f50066e-01fa-4519-9f61-8109fe65f5d9"},"vehicle_type_id":"4","last_reported":1743228736,"current_range_meters":14800,"station_id":"ce4bht12rcd13ifvqi60","pricing_plan_id":"cebpf4jnsgd1na2vs0mg"},