{"last_updated":1702275026,"ttl":30,"version":"2.2","data":{"bikes":[{"bike_id":"d2aecc1c-74c6-412d-bab2-e1622ec23d7a","system_id":"levelo_inurba_marseille","lat":43.314811,"lon":5.373104,"is_reserved":false,"is_disabled":false,"rental_uris":{"android":"levelo://app?vid=d2aecc1c-74c6-412d-bab2-e1622ec23d7a","ios":"levelo://app?vid=d2aecc1c-74c6-412d-bab2-e1622ec23d7a"},"vehicle_type_id":"4","last_reported":1702275026,"current_range_meters":28800,"station_id":"ce4bgt12rcd13ifvqcd0","pricing_plan_id":"free"},{"bike_id":"a46fe6f5-ed0d-4b3e-96c1-ff845766c40c","system_id":"levelo_inurba_marseille","lat":43.315005,"lon":5.372994,"is_reserved":false,"is_disabled":false,"rental_uris":{"android":"levelo://app?vid=a46fe6f5-ed0d-4b3e-96c1-ff845766c40c","ios":"levelo://app?vid=a46fe6f5-ed0d-4b3e-96c1-ff845766c40c"},"vehicle_type_id":"4","last_reported":1702275026,"current_range_meters":25200,"station_id":"ce4bgt12rcd13ifvqcd0","pricing_plan_id":"free"},{"bike_id":"1a65000c-9c2d-4ee6-b607-93207f949950","system_id":"levelo_inurba_marseille","lat":43.314811,"lon":5.373103,"is_reserved":false,"is_disabled":false,"rental_uris":{"android":"levelo://app?vid=1a65000c-9c2d-4ee6-b607-93207f949950","ios":"levelo://app?vid=1a65000c-9c2d-4ee6-b607-93207f949950"},"vehicle_type_id":"4","last_reported":1702275026,"current_range_meters":27200,"station_id":"ce4bgt12rcd13ifvqcd0","pricing_plan_id":"free"},{"bike_id":"5631c8f0-2d02-473f-b0c0-85e9c529d1d0","system_id":"levelo_inurba_marseille","lat":43.314735,"lon":5.374825,"is_reserved":false,"is_disabled":false,"rental_uris":{"android":"levelo://app?vid=5631c8f0-2d02-473f-b0c0-85e9c529d1d0","ios":"levelo://app?vid=5631c8f0-2d02-473f-b0c0-85e9c529d1d0"},"vehicle_type_id":"4","last_reported":1702275026,"current_range_meters":10000,"station_id":"","pricing_plan_id":"free"},{"bike_id":"a0164a2e-ad27-4c0b-af39-d5eab8c73b65","system_id":"levelo_inurba_marseille","lat":43.305368,"lon":5.367343,"is_reserved":false,"is_disabled":false,"rental_uris":{"android":"levelo://app?vid=a0164a2e-ad27-4c0b-af39-d5eab8c73b65","ios":"levelo://app?vid=a0164a2e-ad27-4c0b-af39-d5eab8c73b65"},"vehicle_type_id":"4","last_reported":1702275026,"current_range_meters":24000,"station_id":"ce4bgrp2rcd13ifvqc9g","pricing_plan_id":"free"},{"bike_id":"4db13260-b8d3-44cc-8200-438470ed9027","system_id":"levelo_inurba_marseille","lat":43.305712,"lon":5.365641,"is_reserved":false,"is_disabled":false,"rental_uris":{"android":"levelo://app?vid=4db13260-b8d3-44cc-8200-438470ed9027","ios":"levelo://app?vid=4db13260-b8d3-44cc-8200-438470ed9027"},"vehicle_type_id":"4","last_reported":1702275026,"current_range_meters":26000,"station_id":"ce4bgs12rcd13ifvqcag","pricing_plan_id":"free"},{"bike_id":"c0cfcd2c-13a5-4d52-94d8-d7f2154367c4","system_id":"levelo_inurba_marseille","lat":43.305423,"lon":5.367008,"is_reserved":false,"is_disabled":false,"rental_uris":{"android":"levelo://app?vid=c0cfcd2c-13a5-4d52-94d8-d7f2154367c4","ios":"levelo://app?vid=c0cfcd2c-13a5-4d52-94d8-d7f2154367c4"},"vehicle_type_id":"4","last_reported":1702275026,"current_range_meters":28400,"station_id":"ce4bgrp2rcd13ifvqc9g","pricing_plan_id":"free"},{"bike_id":"25784a51-0995-4c53-a90b-e096069ed004","system_id":"levelo_inurba_marseille","lat":43.305706,"lon":5.365654,"is_reserved":false,"is_disabled":false,"rental_uris":{"android":"levelo://app?vid=25784a51-0995-4c53-a90b-e096069ed004","ios":"levelo://app?vid=25784a51-0995-4c53-a90b-e096069ed004"},"vehicle_type_id":"4","last_reported":1702275026,"current_range_meters":30400,"station_id":"ce4bgs12rcd13ifvqcag","pricing_plan_id":"free"},{"bike_id":"fa86253f-b3b4-44f1-8c3d-cc0d2f54cd90","system_id":"levelo_inurba_marseille","lat":43.305706,"lon":5.365654,"is_reserved":false,"is_disabled":false,"rental_uris":{"android":"levelo://app?vid=fa86253f-b3b4-44f1-8c3d-cc0d2f54cd90","ios":"levelo://app?vid=fa86253f-b3b4-44f1-8c3d-cc0d2f54cd90"},"vehicle_type_id":"4","last_reported":1702275026,"current_range_meters":20400,"station_id":"ce4bgs12rcd13ifvqcag","pricing_plan_id":"free"},{"bike_id":"24ca4ef3-94df-4dad-bf2a-45f134a87c1b","system_id":"levelo_inurba_marseille","lat":43.305989,"lon":5.37225,"is_reserved":false,"is_disabled":false,"rental_uris":{"android":"levelo://app?vid=24ca4ef3-94df-4dad-bf2a-45f134a87c1b","ios":"levelo://app?vid=24ca4ef3-94df-4dad-bf2a-45f134a87c1b"},"vehicle_type_id":"4","last_reported":1702275026,"current_range_meters":27600,"station_id":"ce4bgqh2rcd13ifvqc4g","pricing_plan_id":"free"},{"bike_id":"9cda16cd-e010-4fce-8679-c88844db2d74","system_id":"levelo_inurba_marseille","lat":43.311131,"lon":5.377651,"is_reserved":false,"is_disabled":false,"rental_uris":{"android":"levelo://app?vid=9cda16cd-e010-4fce-8679-c88844db2d74","ios":"levelo://app?vid=9cda16cd-e010-4fce-8679-c88844db2d74"},"vehicle_type_id":"4","last_reported":1702275026,"current_range_meters":17600,"station_id":"ce4bgt92rcd13ifvqcg0","pricing_plan_id":"free"},{"bike_id":"926d2196-2bce-46e1-b6ac-e5ca0ae70355","system_id":"levelo_inurba_marseille","lat":43.31114,"lon":5.37761,"is_reserved":false,"is_disabled":false,"rental_uris":{"android":"levelo://app?vid=926d2196-2bce-46e1-b6ac-e5ca0ae70355","ios":"levelo://app?vid=926d2196-2bce-46e1-b6ac-e5ca0ae70355"},"vehicle_type_id":"4","last_reported":1702275026,"current_range_meters":20000,"station_id":"ce4bgt92rcd13ifvqcg0","pricing_plan_id":"free"},{"bike_id":"e31783ba-b3c4-4e39-bd08-4a5b538e2270","system_id":"levelo_inurba_marseille","lat":43.311125,"lon":5.377624,"is_reserved":false,"is_disabled":false,"rental_uris":{"android":"levelo://app?vid=e31783ba-b3c4-4e39-bd08-4a5b538e2270","ios":"levelo://app?vid=e31783ba-b3c4-4e39-bd08-4a5b538e2270"},"vehicle_type_id":"4","last_reported":1702275026,"current_range_meters":26800,"station_id":"ce4bgt92rcd13ifvqcg0","pricing_plan_id":"free"},{"bike_id":"1f943129-39d2-4147-8ae4-9e24ebbdd87c","system_id":"levelo_inurba_marseille","lat":43.311131,"lon":5.377651,"is_reserved":false,"is_disabled":false,"rental_uris":{"android":"levelo://app?vid=1f943129-39d2-4147-8ae4-9e24ebbdd87c","ios":"levelo://app?vid=1f943129-39d2-4147-8ae4-9e24ebbdd87c"},"vehicle_type_id":"4","last_reported":1702275026,"current_range_meters":20000,"station_id":"ce4bgt92rcd13ifvqcg0","pricing_plan_id":"free"},{"bike_id":"4d87a39c-c9d0-4c90-9907-716eb7059e05","system_id":"levelo_inurba_marseille","lat":43.311125,"lon":5.377624,"is_reserved":false,"is_disabled":false,"rental_uris":{"android":"levelo://app?vid=4d87a39c-c9d0-4c90-9907-716eb7059e05","ios":"levelo://app?vid=4d87a39c-c9d0-4c90-9907-716eb7059e05"},"vehicle_type_id":"4","last_reported":1702275026,"current_range_meters":20000,"station_id":"ce4bgt92rcd13ifvqcg0","pricing_plan_id":"free"},{"bike_id":"8fc538b8-9440-4825-b24b-0e82329338d2","system_id":"levelo_inurba_marseille","lat":43.30456,"lon":5.365958,"is_reserved":false,"is_disabled":false,"rental_uris":{"android":"levelo://app?vid=8fc538b8-9440-4825-b24b-0e82329338d2","ios":"levelo://app?vid=8fc538b8-9440-4825-b24b-0e82329338d2"},"vehicle_type_id":"4","last_reported":1702275026,"current_range_meters":0,"station_id":"","pricing_plan_id":"free"},{"bike_id":"90e4f69a-392c-417d-810b-8b18ab40539b","system_id":"levelo_inurba_marseille","lat":43.307945,"lon":5.376487,"is_reserved":false,"is_disabled":false,"rental_uris":{"android":"levelo://app?vid=90e4f69a-392c-417d-810b-8b18ab40539b","ios":"levelo://app?vid=90e4f69a-392c-417d-810b-8b18ab40539b"},"vehicle_type_id":"4","last_reported":1702275026,"current_range_meters":31200,"station_id":"ce4bgv92rcd13ifvqcq0","pricing_plan_id":"free"},{"bike_id":"d7761198-dac8-43f4-b0d9-4549d6d33831","system_id":"levelo_inurba_marseille","lat":43.307945,"lon":5.376487,"is_reserved":false,"is_disabled":false,"rental_uris":{"android":"levelo://app?vid=d7761198-dac8-43f4-b0d9-4549d6d33831","ios":"levelo://app?vid=d7761198-dac8-43f4-b0d9-4549d6d33831"},"vehicle_type_id":"4","last_reported":1702275026,"current_range_meters":24400,"station_id":"ce4bgv92rcd13ifvqcq0","pricing_plan_id":"free"},{"bike_id":"c1656968-21b1-40d4-af20-5558f0d9731a","system_id":"levelo_inurba_marseille","lat":43.317075,"lon":5.377367,"is_reserved":false,"is_disabled":false,"rental_uris":{"android":"levelo://app?vid=c1656968-21b1-40d4-af20-5558f0d9731a","ios":"levelo://app?vid=c1656968-21b1-40d4-af20-5558f0d9731a"},"vehicle_type_id":"4","last_reported":1702275026,"current_range_meters":14800,"station_id":"ce4bgth2rcd13ifvqch0","pricing_plan_id":"free"},{"bike_id":"b925c0ea-2b3a-4107-95dc-8832b3d581af","system_id":"levelo_inurba_marseille","lat":43.317075,"lon":5.377367,"is_reserved":false,"is_disabled":false,"rental_uris":{"android":"levelo://app?vid=b925c0ea-2b3a-4107-95dc-8832b3d581af","ios":"levelo://app?vid=b925c0ea-2b3a-4107-95dc-8832b3d581af"},"vehicle_type_id":"4","last_reported":1702275026,"current_range_meters":20000,"station_id":"ce4bgth2rcd13ifvqch0","pricing_plan_id":"free"},{"bike_id":"98c7773a-ac33-4088-a3f6-5333d9eb3e1a","system_id":"levelo_inurba_marseille","lat":43.317075,"lon":5.377367,"is_reserved":false,"is_disabled":false,"rental_uris":{"android":"levelo://app?vid=98c7773a-ac33-4088-a3f6-5333d9eb3e1a","ios":"levelo://app?vid=98c7773a-ac33-4088-a3f6-5333d9eb3e1a"},"vehicle_type_id":"4","last_reported":1702275026,"current_range_meters":31600,"station_id":"ce4bgth2rcd13ifvqch0","pricing_plan_id":"free"},{"bike_id":"77a6c46d-d898-4e4f-8846-efa91689c7f0","system_id":"levelo_inurba_marseille","lat":43.303483,"lon":5.366673,"is_reserved":false,"is_disabled":false,"rental_uris":{"android":"levelo://app?vid=77a6c46d-d898-4e4f-8846-efa91689c7f0","ios":"levelo://app?vid=77a6c46d-d898-4e4f-8846-efa91689c7f0"},"vehicle_type_id":"4","last_reported":1702275026,"current_range_meters":0,"station_id":"","pricing_plan_id":"free"},{"bike_id":"26fa67f6-9e93-4b8b-9afc-894b5dca4335","system_id":"levelo_inurba_marseille","lat":43.303046,"lon":5.368981,"is_reserved":false,"is_disabled":false,"rental_uris":{"android":"levelo://app?vid=26fa67f6-9e93-4b8b-9afc-894b5dca4335","ios":"levelo://app?vid=26fa67f6-9e93-4b8b-9afc-894b5dca4335"},"vehicle_type_id":"4","last_reported":1702275026,"current_range_meters":23200,"station_id":"ce4bgqh2rcd13ifvqc5g","pricing_plan_id":"free"},{"bike_id":"60584088-d5eb-48d3-aaf7-ef8c7058c398","system_id":"levelo_inurba_marseille","lat":43.31532,"lon":5.38029,"is_reserved":false,"is_disabled":false,"rental_uris":{"android":"levelo://app?vid=60584088-d5eb-48d3-aaf7-ef8c7058c398","ios":"levelo://app?vid=60584088-d5eb-48d3-aaf7-ef8c7058c398"},"vehicle_type_id":"4","last_reported":1702275026,"current_range_meters":18800,"station_id":"ce4bhsp2rcd13ifvqi50","pricing_plan_id":"free"},{"bike_id":"dd8f1229-75a7-42d3-9640-5c12052a4cba","system_id":"levelo_inurba_marseille","lat":43.315325,"lon":5.380335,"is_reserved":false,"is_disabled":false,"rental_uris":{"android":"levelo://app?vid=dd8f1229-75a7-42d3-9640-5c12052a4cba","ios":"levelo://app?vid=dd8f1229-75a7-42d3-9640-5c12052a4cba"},"vehicle_type_id":"4","last_reported":1702275026,"current_range_meters":29600,"station_id":"ce4bhsp2rcd13ifvqi50","pricing_plan_id":"free"},{"bike_id":"3e20bd4d-0495-4aaa-a6cd-f35f5f2a54e5","system_id":"levelo_inurba_marseille","lat":43.315317,"lon":5.380362,"is_reserved":false,"is_disabled":false,"rental_uris":{"android":"levelo://app?vid=3e20bd4d-0495-4aaa-a6cd-f35f5f2a54e5","ios":"levelo://app?vid=3e20bd4d-0495-4aaa-a6cd-f35f5f2a54e5"},"vehicle_type_id":"4","last_reported":1702275026,"current_range_meters":29600,"station_id":"ce4bhsp2rcd13ifvqi50","pricing_plan_id":"free"},{"bike_id":"8629d01c-6224-47d2-b84d-1633684d4c17","system_id":"levelo_inurba_marseille","lat":43.31537,"lon":5.38039,"is_reserved":false,"is_disabled":false,"rental_uris":{"android":"levelo://app?vid=8629d01c-6224-47d2-b84d-1633684d4c17","ios":"levelo://app?vid=8629d01c-6224-47d2-b84d-1633684d4c17"},"vehicle_type_id":"4","last_reported":1702275026,"current_range_meters":30000,"station_id":"ce4bhsp2rcd13ifvqi50","pricing_plan_id":"free"},{"bike_id":"a1e90a08-2dae-4577-818d-7f4cf81ae672","system_id":"levelo_inurba_marseille","lat":43.301939,"lon":5.366286,"is_reserved":false,"is_disabled":false,"rental_uris":{"android":"levelo://app?vid=a1e90a08-2dae-4577-818d-7f4cf81ae672","ios":"levelo://app?vid=a1e90a08-2dae-4577-818d-7f4cf81ae672"},"vehicle_type_id":"4","last_reported":1702275026,"current_range_meters":24800,"station_id":"ce4bgrh2rcd13ifvqc8g","pricing_plan_id":"free"},{"bike_id":"ed742342-d636-40a9-a67b-c0693cd96bd9","system_id":"levelo_inurba_marseille","lat":43.304606,"lon":5.379026,"is_reserved":false,"is_disabled":false,"rental_uris":{"android":"levelo://app?vid=ed742342-d636-40a9-a67b-c0693cd96bd9","ios":"levelo://app?vid=ed742342-d636-40a9-a67b-c0693cd96bd9"},"vehicle_type_id":"4","last_reported":1702275026,"current_range_meters":29200,"station_id":"ce4bgup2rcd13ifvqcn0","pricing_plan_id":"free"},{"bike_id":"0d761c4a-1811-41c5-80ba-0baa16ccfcd4","system_id":"levelo_inurba_marseille","lat":43.304606,"lon":5.379026,"is_reserved":false,"is_disabled":false,"rental_uris":{"android":"levelo://app?vid=0d761c4a-1811-41c5-80ba-0baa16ccfcd4","ios":"levelo://app?vid=0d761c4a-1811-41c5-80ba-0baa16ccfcd4"},"vehicle_type_id":"4","last_reported":1702275026,"current_range_meters":29600,"station_id":"ce4bgup2rcd13ifvqcn0","pricing_plan_id":"free"},{"bike_id":"5627b5ac-c257-44ea-a459-3cc4c87eff15","system_id":"levelo_inurba_marseille","lat":43.304606,"lon":5.379026,"is_reserved":false,"is_disabled":false,"rental_uris":{"android":"levelo://app?vid=5627b5ac-c257-44ea-a459-3cc4c87eff15","ios":"levelo://app?vid=5627b5ac-c257-44ea-a459-3cc4c87eff15"},"vehicle_type_id":"4","last_reported":1702275026,"current_range_meters":30000,"station_id":"ce4bgup2rcd13ifvqcn0","pricing_plan_id":"free"},{"bike_id":"399e352a-7618-47ad-a2e8-ca715304ed79","system_id":"levelo_inurba_marseille","lat":43.304606,"lon":5.379026,"is_reserved":false,"is_disabled":false,"rental_uris":{"android":"levelo://app?vid=399e352a-7618-47ad-a2e8-ca715304ed79","ios":"levelo://app?vid=399e352a-7618-47ad-a2e8-ca715304ed79"},"vehicle_type_id":"4","last_reported":1702275026,"current_range_meters":28400,"station_id":"ce4bgup2rcd13ifvqcn0","pricing_plan_id":"free"},{"bike_id":"eea4735f-67bc-4081-a5a3-1e48c2165789","system_id":"levelo_inurba_marseille","lat":43.304606,"lon":5.379026,"is_reserved":false,"is_disabled":false,"rental_uris":{"android":"levelo://app?vid=eea4735f-67bc-4081-a5a3-1e48c2165789","ios":"levelo://app?vid=eea4735f-67bc-4081-a5a3-1e48c2165789"},"vehicle_type_id":"4","last_reported":1702275026,"current_range_meters":18000,"station_id":"ce4bgup2rcd13ifvqcn0","pricing_plan_id":"free"},{"bike_id":"6ff55b9d-4010-459e-a335-1bd6f97c86df","system_id":"levelo_inurba_marseille","lat":43.304606,"lon":5.379026,"is_reserved":false,"is_disabled":false,"rental_uris":{"android":"levelo://app?vid=6ff55b9d-4010-459e-a335-1bd6f97c86df","ios":"levelo://app?vid=6ff55b9d-4010-459e-a335-1bd6f97c86df"},"vehicle_type_id":"4","last_reported":1702275026,"current_range_meters":12400,"station_id":"ce4bgup2rcd13ifvqcn0","pricing_plan_id":"free"},{"bike_id":"840a1b4d-6166-4c7d-8940-8de062f1cfc3","system_id":"levelo_inurba_marseille","lat":43.304606,"lon":5.379026,"is_reserved":false,"is_disabled":false,"rental_uris":{"android":"levelo://app?vid=840a1b4d-6166-4c7d-8940-8de062f1cfc3","ios":"levelo://app?vid=840a1b4d-6166-4c7d-8940-8de062f1cfc3"},"vehicle_type_id":"4","last_reported":1702275026,"current_range_meters":26400,"station_id":"ce4bgup2rcd13ifvqcn0","pricing_plan_id":"free"},{"bike_id":"4eac08ea-4451-4e40-a988-9a0538fc6c3d","system_id":"levelo_inurba_marseille","lat":43.304606,"lon":5.379026,"is_reserved":false,"is_disabled":false,"rental_uris":{"android":"levelo://app?vid=4eac08ea-4451-4e40-a988-9a0538fc6c3d","ios":"levelo://app?vid=4eac08ea-4451-4e40-a988-9a0538fc6c3d"},"vehicle_type_id":"4","last_reported":1702275026,"current_range_meters":21600,"station_id":"ce4bgup2rcd13ifvqcn0","pricing_plan_id":"free"},{"bike_id":"54744a65-0ade-4ad6-ab1f-12e6c13f71a8","system_id":"levelo_inurba_marseille","lat":43.304606,"lon":5.379026,"is_reserved":false,"is_disabled":false,"rental_uris":{"android":"levelo://app?vid=54744a65-0ade-4ad6-ab1f-12e6c13f71a8","ios":"levelo://app?vid=54744a65-0ade-4ad6-ab1f-12e6c13f71a8"},"vehicle_type_id":"4","last_reported":1702275026,"current_range_meters":31600,"station_id":"ce4bgup2rcd13ifvqcn0","pricing_plan_id":"free"},{"bike_id":"fa8059a2-8751-422b-9704-fcd0df029cda","system_id":"levelo_inurba_marseille","lat":43.304606,"lon":5.379026,"is_reserved":false,"is_disabled":false,"rental_uris":{"android":"levelo://app?vid=fa8059a2-8751-422b-9704-fcd0df029cda","ios":"levelo://app?vid=fa8059a2-8751-422b-9704-fcd0df029cda"},"vehicle_type_id":"4","last_reported":1702275026,"current_range_meters":17200,"station_id":"ce4bgup2rcd13ifvqcn0","pricing_plan_id":"free"},{"bike_id":"c0a64342-12aa-4bfb-966b-6688b6029cbf","system_id":"levelo_inurba_marseille","lat":43.32483,"lon":5.36567,"is_reserved":false,"is_disabled":false,"rental_uris":{"android":"levelo://app?vid=c0a64342-12aa-4bfb-966b-6688b6029cbf","ios":"levelo://app?vid=c0a64342-12aa-4bfb-966b-6688b6029cbf"},"vehicle_type_id":"4","last_reported":1702275026,"current_range_meters":30400,"station_id":"ce4bhs12rcd13ifvqhvg","pricing_plan_id":"free"},{"bike_id":"7b40c181-4667-4501-874b-a1d36de3aede","system_id":"levelo_inurba_marseille","lat":43.324771,"lon":5.36557,"is_reserved":false,"is_disabled":false,"rental_uris":{"android":"levelo://app?vid=7b40c181-4667-4501-874b-a1d36de3aede","ios":"levelo://app?vid=7b40c181-4667-4501-874b-a1d36de3aede"},"vehicle_type_id":"4","last_reported":1702275026,"current_range_meters":30400,"station_id":"ce4bhs12rcd13ifvqhvg","pricing_plan_id":"free"},{"bike_id":"8c9769ed-bf2d-4adf-b68a-303dc853a66d","system_id":"levelo_inurba_marseille","lat":43.302784,"lon":5.377158,"is_reserved":false,"is_disabled":false,"rental_uris":{"android":"levelo://app?vid=8c9769ed-bf2d-4adf-b68a-303dc853a66d","ios":"levelo://app?vid=8c9769ed-bf2d-4adf-b68a-303dc853a66d"},"vehicle_type_id":"4","last_reported":1702275026,"current_range_meters":25600,"station_id":"ce4bguh2rcd13ifvqcj0","pricing_plan_id":"free"},{"bike_id":"d507dc20-f3f0-485a-b520-e5ecd0effbe5","system_id":"levelo_inurba_marseille","lat":43.319935,"lon":5.381699,"is_reserved":false,"is_disabled":false,"rental_uris":{"android":"levelo://app?vid=d507dc20-f3f0-485a-b520-e5ecd0effbe5","ios":"levelo://app?vid=d507dc20-f3f0-485a-b520-e5ecd0effbe5"},"vehicle_type_id":"4","last_reported":1702275026,"current_range_meters":20400,"station_id":"ce4bhr12rcd13ifvqhpg","pricing_plan_id":"free"},{"bike_id":"d8be298e-f4c0-4479-a66b-e307c680d7cc","system_id":"levelo_inurba_marseille","lat":43.31356,"lon":5.38493,"is_reserved":false,"is_disabled":false,"rental_uris":{"android":"levelo://app?vid=d8be298e-f4c0-4479-a66b-e307c680d7cc","ios":"levelo://app?vid=d8be298e-f4c0-4479-a66b-e307c680d7cc"},"vehicle_type_id":"4","last_reported":1702275026,"current_range_meters":17600,"station_id":"ce4bgt92rcd13ifvqcf0","pricing_plan_id":"free"},{"bike_id":"db65b78f-e627-45f2-b1c2-69689eab17e2","system_id":"levelo_inurba_marseille","lat":43.298433,"lon":5.362774,"is_reserved":false,"is_disabled":false,"rental_uris":{"android":"levelo://app?vid=db65b78f-e627-45f2-b1c2-69689eab17e2","ios":"levelo://app?vid=db65b78f-e627-45f2-b1c2-69689eab17e2"},"vehicle_type_id":"4","last_reported":1702275026,"current_range_meters":19200,"station_id":"ce4bgpp2rcd13ifvqc3g","pricing_plan_id":"free"},{"bike_id":"6e22a5ac-3ec3-45c0-b68e-006e0bd1aa01","system_id":"levelo_inurba_marseille","lat":43.297794,"lon":5.370888,"is_reserved":false,"is_disabled":false,"rental_uris":{"android":"levelo://app?vid=6e22a5ac-3ec3-45c0-b68e-006e0bd1aa01","ios":"levelo://app?vid=6e22a5ac-3ec3-45c0-b68e-006e0bd1aa01"},"vehicle_type_id":"4","last_reported":1702275026,"current_range_meters":30800,"station_id":"ce4bgop2rcd13ifvqc1g","pricing_plan_id":"free"},{"bike_id":"ccd4fbf7-a0c2-498b-8ecc-15a67004cff0","system_id":"levelo_inurba_marseille","lat":43.322831,"lon":5.38272,"is_reserved":false,"is_disabled":false,"rental_uris":{"android":"levelo://app?vid=ccd4fbf7-a0c2-498b-8ecc-15a67004cff0","ios":"levelo://app?vid=ccd4fbf7-a0c2-498b-8ecc-15a67004cff0"},"vehicle_type_id":"4","last_reported":1702275026,"current_range_meters":26800,"station_id":"ce4bhr12rcd13ifvqhqg","pricing_plan_id":"free"},{"bike_id":"6ac675f1-e0be-498c-ad2f-b742a949d4b0","system_id":"levelo_inurba_marseille","lat":43.298218,"lon":5.374416,"is_reserved":false,"is_disabled":false,"rental_uris":{"android":"levelo://app?vid=6ac675f1-e0be-498c-ad2f-b742a949d4b0","ios":"levelo://app?vid=6ac675f1-e0be-498c-ad2f-b742a949d4b0"},"vehicle_type_id":"4","last_reported":1702275026,"current_range_meters":0,"station_id":"","pricing_plan_id":"free"},{"bike_id":"52d8b7ba-7505-413c-b898-efb75f14c13c","system_id":"levelo_inurba_marseille","lat":43.32829,"lon":5.36689,"is_reserved":false,"is_disabled":false,"rental_uris":{"android":"levelo://app?vid=52d8b7ba-7505-413c-b898-efb75f14c13c","ios":"levelo://app?vid=52d8b7ba-7505-413c-b898-efb75f14c13c"},"vehicle_type_id":"4","last_reported":1702275026,"current_range_meters":18400,"station_id":"ce4bhs92rcd13ifvqi0g","pricing_plan_id":"free"},{"bike_id":"03115ad3-f94e-45ac-89a4-ce737b75463b","system_id":"levelo_inurba_marseille","lat":43.299028,"lon":5.381509,"is_reserved":false,"is_disabled":false,"rental_uris":{"android":"levelo://app?vid=03115ad3-f94e-45ac-89a4-ce737b75463b","ios":"levelo://app?vid=03115ad3-f94e-45ac-89a4-ce737b75463b"},"vehicle_type_id":"4","last_reported":1702275026,"current_range_meters":30800,"station_id":"ce4bgj12rcd13ifvqbc0","pricing_plan_id":"free"},{"bike_id":"93a7fa69-39d5-4a1b-a827-0806a305f2cc","system_id":"levelo_inurba_marseille","lat":43.299028,"lon":5.381509,"is_reserved":false,"is_disabled":false,"rental_uris":{"android":"levelo://app?vid=93a7fa69-39d5-4a1b-a827-0806a305f2cc","ios":"levelo://app?vid=93a7fa69-39d5-4a1b-a827-0806a305f2cc"},"vehicle_type_id":"4","last_reported":1702275026,"current_range_meters":13200,"station_id":"ce4bgj12rcd13ifvqbc0","pricing_plan_id":"free"},{"bike_id":"b792329a-4366-4b42-b66a-5449c0472221","system_id":"levelo_inurba_marseille","lat":43.299028,"lon":5.381509,"is_reserved":false,"is_disabled":false,"rental_uris":{"android":"levelo://app?vid=b792329a-4366-4b42-b66a-5449c0472221","ios":"levelo://app?vid=b792329a-4366-4b42-b66a-5449c0472221"},"vehicle_type_id":"4","last_reported":1702275026,"current_range_meters":29200,"station_id":"ce4bgj12rcd13ifvqbc0","pricing_plan_id":"free"},{"bike_id":"e71c2018-16ba-45fe-841d-ab2679fa1fe3","system_id":"levelo_inurba_marseille","lat":43.309589,"lon":5.390258,"is_reserved":false,"is_disabled":false,"rental_uris":{"android":"levelo://app?vid=e71c2018-16ba-45fe-841d-ab2679fa1fe3","ios":"levelo://app?vid=e71c2018-16ba-45fe-841d-ab2679fa1fe3"},"vehicle_type_id":"4","last_reported":1702275026,"current_range_meters":31200,"station_id":"ce4bgup2rcd13ifvqco0","pricing_plan_id":"free"},{"bike_id":"4c4b6127-2d56-4060-9d05-b77885da3f03","system_id":"levelo_inurba_marseille","lat":43.298037,"lon":5.381066,"is_reserved":false,"is_disabled":false,"rental_uris":{"android":"levelo://app?vid=4c4b6127-2d56-4060-9d05-b77885da3f03","ios":"levelo://app?vid=4c4b6127-2d56-4060-9d05-b77885da3f03"},"vehicle_type_id":"4","last_reported":1702275026,"current_range_meters":31200,"station_id":"ce4bgip2rcd13ifvqbb0","pricing_plan_id":"free"},{"bike_id":"423aa377-e28c-444c-9458-0d968418f292","system_id":"levelo_inurba_marseille","lat":43.295748,"lon":5.37522,"is_reserved":false,"is_disabled":false,"rental_uris":{"android":"levelo://app?vid=423aa377-e28c-444c-9458-0d968418f292","ios":"levelo://app?vid=423aa377-e28c-444c-9458-0d968418f292"},"vehicle_type_id":"4","last_reported":1702275026,"current_range_meters":18800,"station_id":"ce4bgh92rcd13ifvqb50","pricing_plan_id":"free"},{"bike_id":"de3bfc61-c295-4e07-ad9b-b947bb48974c","system_id":"levelo_inurba_marseille","lat":43.296263,"lon":5.377094,"is_reserved":false,"is_disabled":false,"rental_uris":{"android":"levelo://app?vid=de3bfc61-c295-4e07-ad9b-b947bb48974c","ios":"levelo://app?vid=de3bfc61-c295-4e07-ad9b-b947bb48974c"},"vehicle_type_id":"4","last_reported":1702275026,"current_range_meters":26000,"station_id":"ce4bgi92rcd13ifvqb90","pricing_plan_id":"free"},{"bike_id":"6ebdff27-987d-4fc6-9f8a-89e09e32168d","system_id":"levelo_inurba_marseille","lat":43.2997,"lon":5.38498,"is_reserved":false,"is_disabled":false,"rental_uris":{"android":"levelo://app?vid=6ebdff27-987d-4fc6-9f8a-89e09e32168d","ios":"levelo://app?vid=6ebdff27-987d-4fc6-9f8a-89e09e32168d"},"vehicle_type_id":"4","last_reported":1702275026,"current_range_meters":11600,"station_id":"ce4bgj92rcd13ifvqbd0","pricing_plan_id":"free"},{"bike_id":"6ffddd1f-039e-4194-afaf-336c113e9029","system_id":"levelo_inurba_marseille","lat":43.292749,"lon":5.368402,"is_reserved":false,"is_disabled":false,"rental_uris":{"android":"levelo://app?vid=6ffddd1f-039e-4194-afaf-336c113e9029","ios":"levelo://app?vid=6ffddd1f-039e-4194-afaf-336c113e9029"},"vehicle_type_id":"4","last_reported":1702275026,"current_range_meters":27600,"station_id":"ce4bhbp2rcd13ifvqesg","pricing_plan_id":"free"},{"bike_id":"aed2335e-598e-4dc4-aa0e-c647685c6fce","system_id":"levelo_inurba_marseille","lat":43.2936,"lon":5.37835,"is_reserved":false,"is_disabled":false,"rental_uris":{"android":"levelo://app?vid=aed2335e-598e-4dc4-aa0e-c647685c6fce","ios":"levelo://app?vid=aed2335e-598e-4dc4-aa0e-c647685c6fce"},"vehicle_type_id":"4","last_reported":1702275026,"current_range_meters":0,"station_id":"ce4bgjh2rcd13ifvqbf0","pricing_plan_id":"free"},{"bike_id":"ef169ecf-9e87-41e1-b57b-b3718dcdf247","system_id":"levelo_inurba_marseille","lat":43.292311,"lon":5.360731,"is_reserved":false,"is_disabled":false,"rental_uris":{"android":"levelo://app?vid=ef169ecf-9e87-41e1-b57b-b3718dcdf247","ios":"levelo://app?vid=ef169ecf-9e87-41e1-b57b-b3718dcdf247"},"vehicle_type_id":"4","last_reported":1702275026,"current_range_meters":19200,"station_id":"ce4bhbh2rcd13ifvqeqg","pricing_plan_id":"free"},{"bike_id":"396bed3b-3b5b-4daf-b284-3a1bce22d207","system_id":"levelo_inurba_marseille","lat":43.292311,"lon":5.360731,"is_reserved":false,"is_disabled":false,"rental_uris":{"android":"levelo://app?vid=396bed3b-3b5b-4daf-b284-3a1bce22d207","ios":"levelo://app?vid=396bed3b-3b5b-4daf-b284-3a1bce22d207"},"vehicle_type_id":"4","last_reported":1702275026,"current_range_meters":22000,"station_id":"ce4bhbh2rcd13ifvqeqg","pricing_plan_id":"free"},{"bike_id":"c3def9e9-6301-4c57-b2e2-fbd3d1291556","system_id":"levelo_inurba_marseille","lat":43.29865,"lon":5.389055,"is_reserved":false,"is_disabled":false,"rental_uris":{"android":"levelo://app?vid=c3def9e9-6301-4c57-b2e2-fbd3d1291556","ios":"levelo://app?vid=c3def9e9-6301-4c57-b2e2-fbd3d1291556"},"vehicle_type_id":"4","last_reported":1702275026,"current_range_meters":21200,"station_id":"","pricing_plan_id":"free"},{"bike_id":"796a3181-0d5c-4649-8563-f159130fc3f9","system_id":"levelo_inurba_marseille","lat":43.292005,"lon":5.357875,"is_reserved":false,"is_disabled":false,"rental_uris":{"android":"levelo://app?vid=796a3181-0d5c-4649-8563-f159130fc3f9","ios":"levelo://app?vid=796a3181-0d5c-4649-8563-f159130fc3f9"},"vehicle_type_id":"4","last_reported":1702275026,"current_range_meters":25200,"station_id":"ce4bhb12rcd13ifvqel0","pricing_plan_id":"free"},{"bike_id":"12ebc72c-e0a2-4d2f-a1fb-49ca841c956c","system_id":"levelo_inurba_marseille","lat":43.309038,"lon":5.396546,"is_reserved":false,"is_disabled":false,"rental_uris":{"android":"levelo://app?vid=12ebc72c-e0a2-4d2f-a1fb-49ca841c956c","ios":"levelo://app?vid=12ebc72c-e0a2-4d2f-a1fb-49ca841c956c"},"vehicle_type_id":"4","last_reported":1702275026,"current_range_meters":29200,"station_id":"ce4bh012rcd13ifvqcv0","pricing_plan_id":"free"},{"bike_id":"23a184c5-a8b5-42a9-9eff-fb9d00488d76","system_id":"levelo_inurba_marseille","lat":43.31322,"lon":5.39687,"is_reserved":false,"is_disabled":false,"rental_uris":{"android":"levelo://app?vid=23a184c5-a8b5-42a9-9eff-fb9d00488d76","ios":"levelo://app?vid=23a184c5-a8b5-42a9-9eff-fb9d00488d76"},"vehicle_type_id":"4","last_reported":1702275026,"current_range_meters":15600,"station_id":"ce4bgvp2rcd13ifvqcu0","pricing_plan_id":"free"},{"bike_id":"fbcc3e80-89c8-4aed-b22f-293feb3422bb","system_id":"levelo_inurba_marseille","lat":43.309047,"lon":5.396551,"is_reserved":false,"is_disabled":false,"rental_uris":{"android":"levelo://app?vid=fbcc3e80-89c8-4aed-b22f-293feb3422bb","ios":"levelo://app?vid=fbcc3e80-89c8-4aed-b22f-293feb3422bb"},"vehicle_type_id":"4","last_reported":1702275026,"current_range_meters":30400,"station_id":"ce4bh012rcd13ifvqcv0","pricing_plan_id":"free"},{"bike_id":"b4a598f5-6a01-4018-880e-53d3f86bdc05","system_id":"levelo_inurba_marseille","lat":43.313291,"lon":5.396838,"is_reserved":false,"is_disabled":false,"rental_uris":{"android":"levelo://app?vid=b4a598f5-6a01-4018-880e-53d3f86bdc05","ios":"levelo://app?vid=b4a598f5-6a01-4018-880e-53d3f86bdc05"},"vehicle_type_id":"4","last_reported":1702275026,"current_range_meters":13200,"station_id":"ce4bgvp2rcd13ifvqcu0","pricing_plan_id":"free"},{"bike_id":"32e16bbb-6597-40cb-8408-7068d67e82ac","system_id":"levelo_inurba_marseille","lat":43.290631,"lon":5.359244,"is_reserved":false,"is_disabled":false,"rental_uris":{"android":"levelo://app?vid=32e16bbb-6597-40cb-8408-7068d67e82ac","ios":"levelo://app?vid=32e16bbb-6597-40cb-8408-7068d67e82ac"},"vehicle_type_id":"4","last_reported":1702275026,"current_range_meters":29200,"station_id":"ce4bha92rcd13ifvqeg0","pricing_plan_id":"free"},{"bike_id":"315706a4-714f-4d79-93ff-92a8fa736676","system_id":"levelo_inurba_marseille","lat":43.294153,"lon":5.386305,"is_reserved":false,"is_disabled":false,"rental_uris":{"android":"levelo://app?vid=315706a4-714f-4d79-93ff-92a8fa736676","ios":"levelo://app?vid=315706a4-714f-4d79-93ff-92a8fa736676"},"vehicle_type_id":"4","last_reported":1702275026,"current_range_meters":16800,"station_id":"ce4bh2h2rcd13ifvqdh0","pricing_plan_id":"free"},{"bike_id":"3dcb1455-acf5-4cc4-8d96-f6d8f36d857e","system_id":"levelo_inurba_marseille","lat":43.28948,"lon":5.36624,"is_reserved":false,"is_disabled":false,"rental_uris":{"android":"levelo://app?vid=3dcb1455-acf5-4cc4-8d96-f6d8f36d857e","ios":"levelo://app?vid=3dcb1455-acf5-4cc4-8d96-f6d8f36d857e"},"vehicle_type_id":"4","last_reported":1702275026,"current_range_meters":30000,"station_id":"ce4bhap2rcd13ifvqek0","pricing_plan_id":"free"},{"bike_id":"e3ad2d5e-bc42-40e6-baeb-12daeb8c0198","system_id":"levelo_inurba_marseille","lat":43.289468,"lon":5.363719,"is_reserved":false,"is_disabled":false,"rental_uris":{"android":"levelo://app?vid=e3ad2d5e-bc42-40e6-baeb-12daeb8c0198","ios":"levelo://app?vid=e3ad2d5e-bc42-40e6-baeb-12daeb8c0198"},"vehicle_type_id":"4","last_reported":1702275026,"current_range_meters":23600,"station_id":"ce4bhc92rcd13ifvqetg","pricing_plan_id":"free"},{"bike_id":"1301be43-cefa-4f13-ad20-5fa8f15bf9a8","system_id":"levelo_inurba_marseille","lat":43.290161,"lon":5.375651,"is_reserved":false,"is_disabled":false,"rental_uris":{"android":"levelo://app?vid=1301be43-cefa-4f13-ad20-5fa8f15bf9a8","ios":"levelo://app?vid=1301be43-cefa-4f13-ad20-5fa8f15bf9a8"},"vehicle_type_id":"4","last_reported":1702275026,"current_range_meters":6800,"station_id":"","pricing_plan_id":"free"},{"bike_id":"a02a1b20-1fb1-4951-988a-77389649024d","system_id":"levelo_inurba_marseille","lat":43.289259,"lon":5.366364,"is_reserved":false,"is_disabled":false,"rental_uris":{"android":"levelo://app?vid=a02a1b20-1fb1-4951-988a-77389649024d","ios":"levelo://app?vid=a02a1b20-1fb1-4951-988a-77389649024d"},"vehicle_type_id":"4","last_reported":1702275026,"current_range_meters":5600,"station_id":"","pricing_plan_id":"free"},{"bike_id":"4cdfc0e1-bf52-4b04-9e1d-b952de9ab36f","system_id":"levelo_inurba_marseille","lat":43.29052,"lon":5.355815,"is_reserved":false,"is_disabled":false,"rental_uris":{"android":"levelo://app?vid=4cdfc0e1-bf52-4b04-9e1d-b952de9ab36f","ios":"levelo://app?vid=4cdfc0e1-bf52-4b04-9e1d-b952de9ab36f"},"vehicle_type_id":"4","last_reported":1702275026,"current_range_meters":22800,"station_id":"ce4bhb92rcd13ifvqen0","pricing_plan_id":"free"},{"bike_id":"f26ee4c5-fecd-4355-9c67-a22c9664becc","system_id":"levelo_inurba_marseille","lat":43.290104,"lon":5.356111,"is_reserved":false,"is_disabled":false,"rental_uris":{"android":"levelo://app?vid=f26ee4c5-fecd-4355-9c67-a22c9664becc","ios":"levelo://app?vid=f26ee4c5-fecd-4355-9c67-a22c9664becc"},"vehicle_type_id":"4","last_reported":1702275026,"current_range_meters":26000,"station_id":"ce4bhb92rcd13ifvqen0","pricing_plan_id":"free"},{"bike_id":"52a0a0f6-3ec4-4551-a715-8dafb5b9fb93","system_id":"levelo_inurba_marseille","lat":43.290103,"lon":5.356114,"is_reserved":false,"is_disabled":false,"rental_uris":{"android":"levelo://app?vid=52a0a0f6-3ec4-4551-a715-8dafb5b9fb93","ios":"levelo://app?vid=52a0a0f6-3ec4-4551-a715-8dafb5b9fb93"},"vehicle_type_id":"4","last_reported":1702275026,"current_range_meters":25200,"station_id":"ce4bhb92rcd13ifvqen0","pricing_plan_id":"free"},{"bike_id":"52d50955-a0ca-4d5b-9ac6-a7dada647e85","system_id":"levelo_inurba_marseille","lat":43.290104,"lon":5.356111,"is_reserved":false,"is_disabled":false,"rental_uris":{"android":"levelo://app?vid=52d50955-a0ca-4d5b-9ac6-a7dada647e85","ios":"levelo://app?vid=52d50955-a0ca-4d5b-9ac6-a7dada647e85"},"vehicle_type_id":"4","last_reported":1702275026,"current_range_meters":28400,"station_id":"ce4bhb92rcd13ifvqen0","pricing_plan_id":"free"},{"bike_id":"326bd567-8af9-4636-b6bb-73c6ed03971f","system_id":"levelo_inurba_marseille","lat":43.29098,"lon":5.381465,"is_reserved":false,"is_disabled":false,"rental_uris":{"android":"levelo://app?vid=326bd567-8af9-4636-b6bb-73c6ed03971f","ios":"levelo://app?vid=326bd567-8af9-4636-b6bb-73c6ed03971f"},"vehicle_type_id":"4","last_reported":1702275026,"current_range_meters":20400,"station_id":"ce4bh512rcd13ifvqe2g","pricing_plan_id":"free"},{"bike_id":"54923666-788e-4628-a3b2-c9ae56076ae6","system_id":"levelo_inurba_marseille","lat":43.289741,"lon":5.378306,"is_reserved":false,"is_disabled":false,"rental_uris":{"android":"levelo://app?vid=54923666-788e-4628-a3b2-c9ae56076ae6","ios":"levelo://app?vid=54923666-788e-4628-a3b2-c9ae56076ae6"},"vehicle_type_id":"4","last_reported":1702275026,"current_range_meters":29200,"station_id":"ce4bh9p2rcd13ifvqed0","pricing_plan_id":"free"},{"bike_id":"78f8d1cc-7534-4df3-a532-f0805145e7d7","system_id":"levelo_inurba_marseille","lat":43.289743,"lon":5.378304,"is_reserved":false,"is_disabled":false,"rental_uris":{"android":"levelo://app?vid=78f8d1cc-7534-4df3-a532-f0805145e7d7","ios":"levelo://app?vid=78f8d1cc-7534-4df3-a532-f0805145e7d7"},"vehicle_type_id":"4","last_reported":1702275026,"current_range_meters":30800,"station_id":"ce4bh9p2rcd13ifvqed0","pricing_plan_id":"free"},{"bike_id":"08c97b3e-24a5-49c5-a551-139964673d5b","system_id":"levelo_inurba_marseille","lat":43.289743,"lon":5.378304,"is_reserved":false,"is_disabled":false,"rental_uris":{"android":"levelo://app?vid=08c97b3e-24a5-49c5-a551-139964673d5b","ios":"levelo://app?vid=08c97b3e-24a5-49c5-a551-139964673d5b"},"vehicle_type_id":"4","last_reported":1702275026,"current_range_meters":23200,"station_id":"ce4bh9p2rcd13ifvqed0","pricing_plan_id":"free"},{"bike_id":"5638c6d5-1528-4ff9-b78a-0a3afbd6a09e","system_id":"levelo_inurba_marseille","lat":43.289741,"lon":5.378306,"is_reserved":false,"is_disabled":false,"rental_uris":{"android":"levelo://app?vid=5638c6d5-1528-4ff9-b78a-0a3afbd6a09e","ios":"levelo://app?vid=5638c6d5-1528-4ff9-b78a-0a3afbd6a09e"},"vehicle_type_id":"4","last_reported":1702275026,"current_range_meters":16400,"station_id":"ce4bh9p2rcd13ifvqed0","pricing_plan_id":"free"},{"bike_id":"6a69dd9e-324b-490e-b11c-fba43028c422","system_id":"levelo_inurba_marseille","lat":43.290094,"lon":5.381264,"is_reserved":false,"is_disabled":false,"rental_uris":{"android":"levelo://app?vid=6a69dd9e-324b-490e-b11c-fba43028c422","ios":"levelo://app?vid=6a69dd9e-324b-490e-b11c-fba43028c422"},"vehicle_type_id":"4","last_reported":1702275026,"current_range_meters":30000,"station_id":"ce4bh4p2rcd13ifvqe1g","pricing_plan_id":"free"},{"bike_id":"b623ad88-49c7-4474-9697-f348f49323a7","system_id":"levelo_inurba_marseille","lat":43.28856,"lon":5.358371,"is_reserved":false,"is_disabled":false,"rental_uris":{"android":"levelo://app?vid=b623ad88-49c7-4474-9697-f348f49323a7","ios":"levelo://app?vid=b623ad88-49c7-4474-9697-f348f49323a7"},"vehicle_type_id":"4","last_reported":1702275026,"current_range_meters":12800,"station_id":"ce4bhb12rcd13ifvqem0","pricing_plan_id":"free"},{"bike_id":"f9440794-a5bb-4753-97a2-7697432ac0e3","system_id":"levelo_inurba_marseille","lat":43.28854,"lon":5.35823,"is_reserved":false,"is_disabled":false,"rental_uris":{"android":"levelo://app?vid=f9440794-a5bb-4753-97a2-7697432ac0e3","ios":"levelo://app?vid=f9440794-a5bb-4753-97a2-7697432ac0e3"},"vehicle_type_id":"4","last_reported":1702275026,"current_range_meters":29200,"station_id":"ce4bhb12rcd13ifvqem0","pricing_plan_id":"free"},{"bike_id":"c0cf6a13-f3e5-45f0-82db-cbe9288118a1","system_id":"levelo_inurba_marseille","lat":43.309371,"lon":5.401449,"is_reserved":false,"is_disabled":false,"rental_uris":{"android":"levelo://app?vid=c0cf6a13-f3e5-45f0-82db-cbe9288118a1","ios":"levelo://app?vid=c0cf6a13-f3e5-45f0-82db-cbe9288118a1"},"vehicle_type_id":"4","last_reported":1702275026,"current_range_meters":18400,"station_id":"ce4bgvp2rcd13ifvqct0","pricing_plan_id":"free"},{"bike_id":"e739535b-1c8f-413d-8c64-3d79e7eec33b","system_id":"levelo_inurba_marseille","lat":43.30929,"lon":5.40143,"is_reserved":false,"is_disabled":false,"rental_uris":{"android":"levelo://app?vid=e739535b-1c8f-413d-8c64-3d79e7eec33b","ios":"levelo://app?vid=e739535b-1c8f-413d-8c64-3d79e7eec33b"},"vehicle_type_id":"4","last_reported":1702275026,"current_range_meters":12400,"station_id":"ce4bgvp2rcd13ifvqct0","pricing_plan_id":"free"},{"bike_id":"40bfb6ea-a755-4340-9f8b-331b4befd4a8","system_id":"levelo_inurba_marseille","lat":43.30935,"lon":5.40149,"is_reserved":false,"is_disabled":false,"rental_uris":{"android":"levelo://app?vid=40bfb6ea-a755-4340-9f8b-331b4befd4a8","ios":"levelo://app?vid=40bfb6ea-a755-4340-9f8b-331b4befd4a8"},"vehicle_type_id":"4","last_reported":1702275026,"current_range_meters":12400,"station_id":"ce4bgvp2rcd13ifvqct0","pricing_plan_id":"free"},{"bike_id":"75c92b3f-a2cc-438c-b8dc-8fb28761734d","system_id":"levelo_inurba_marseille","lat":43.28727,"lon":5.36078,"is_reserved":false,"is_disabled":false,"rental_uris":{"android":"levelo://app?vid=75c92b3f-a2cc-438c-b8dc-8fb28761734d","ios":"levelo://app?vid=75c92b3f-a2cc-438c-b8dc-8fb28761734d"},"vehicle_type_id":"4","last_reported":1702275026,"current_range_meters":29600,"station_id":"cki0cbj6b192h4jlfktg","pricing_plan_id":"free"},{"bike_id":"a1b7e675-1fbd-4587-a6f2-26ec9a74ce8e","system_id":"levelo_inurba_marseille","lat":43.28727,"lon":5.36078,"is_reserved":false,"is_disabled":false,"rental_uris":{"android":"levelo://app?vid=a1b7e675-1fbd-4587-a6f2-26ec9a74ce8e","ios":"levelo://app?vid=a1b7e675-1fbd-4587-a6f2-26ec9a74ce8e"},"vehicle_type_id":"4","last_reported":1702275026,"current_range_meters":28800,"station_id":"cki0cbj6b192h4jlfktg","pricing_plan_id":"free"},{"bike_id":"63527120-e3d7-46d5-ba0a-bfb4393a94c9","system_id":"levelo_inurba_marseille","lat":43.28727,"lon":5.36078,"is_reserved":false,"is_disabled":false,"rental_uris":{"android":"levelo://app?vid=63527120-e3d7-46d5-ba0a-bfb4393a94c9","ios":"levelo://app?vid=63527120-e3d7-46d5-ba0a-bfb4393a94c9"},"vehicle_type_id":"4","last_reported":1702275026,"current_range_meters":24000,"station_id":"cki0cbj6b192h4jlfktg","pricing_plan_id":"free"},{"bike_id":"b83fd9fc-ecdf-4c7d-8f06-bc7c83d6cf1e","system_id":"levelo_inurba_marseille","lat":43.28727,"lon":5.36078,"is_reserved":false,"is_disabled":false,"rental_uris":{"android":"levelo://app?vid=b83fd9fc-ecdf-4c7d-8f06-bc7c83d6cf1e","ios":"levelo://app?vid=b83fd9fc-ecdf-4c7d-8f06-bc7c83d6cf1e"},"vehicle_type_id":"4","last_reported":1702275026,"current_range_meters":31600,"station_id":"cki0cbj6b192h4jlfktg","pricing_plan_id":"free"},{"bike_id":"12f32cde-a7b5-4f76-8ded-c8571f8753d2","system_id":"levelo_inurba_marseille","lat":43.286591,"lon":5.363346,"is_reserved":false,"is_disabled":false,"rental_uris":{"android":"levelo://app?vid=12f32cde-a7b5-4f76-8ded-c8571f8753d2","ios":"levelo://app?vid=12f32cde-a7b5-4f76-8ded-c8571f8753d2"},"vehicle_type_id":"4","last_reported":1702275026,"current_range_meters":22800,"station_id":"ce4bhah2rcd13ifvqej0","pricing_plan_id":"free"},{"bike_id":"93969e87-34f8-4e80-b564-cb7598527d8d","system_id":"levelo_inurba_marseille","lat":43.286593,"lon":5.363346,"is_reserved":false,"is_disabled":false,"rental_uris":{"android":"levelo://app?vid=93969e87-34f8-4e80-b564-cb7598527d8d","ios":"levelo://app?vid=93969e87-34f8-4e80-b564-cb7598527d8d"},"vehicle_type_id":"4","last_reported":1702275026,"current_range_meters":28400,"station_id":"ce4bhah2rcd13ifvqej0","pricing_plan_id":"free"},{"bike_id":"b31feb84-e679-4bdb-8aef-bca068e60829","system_id":"levelo_inurba_marseille","lat":43.316843,"lon":5.404673,"is_reserved":false,"is_disabled":false,"rental_uris":{"android":"levelo://app?vid=b31feb84-e679-4bdb-8aef-bca068e60829","ios":"levelo://app?vid=b31feb84-e679-4bdb-8aef-bca068e60829"},"vehicle_type_id":"4","last_reported":1702275026,"current_range_meters":6400,"station_id":"ce4bh012rcd13ifvqd00","pricing_plan_id":"free"},{"bike_id":"a864b496-4175-421d-a32b-6c3b511474cb","system_id":"levelo_inurba_marseille","lat":43.28467,"lon":5.35882,"is_reserved":false,"is_disabled":false,"rental_uris":{"android":"levelo://app?vid=a864b496-4175-421d-a32b-6c3b511474cb","ios":"levelo://app?vid=a864b496-4175-421d-a32b-6c3b511474cb"},"vehicle_type_id":"4","last_reported":1702275026,"current_range_meters":18800,"station_id":"ce4bhah2rcd13ifvqei0","pricing_plan_id":"free"},{"bike_id":"c9bdfd9d-659c-41a7-9d9b-4c86251ef96c","system_id":"levelo_inurba_marseille","lat":43.284659,"lon":5.35884,"is_reserved":false,"is_disabled":false,"rental_uris":{"android":"levelo://app?vid=c9bdfd9d-659c-41a7-9d9b-4c86251ef96c","ios":"levelo://app?vid=c9bdfd9d-659c-41a7-9d9b-4c86251ef96c"},"vehicle_type_id":"4","last_reported":1702275026,"current_range_meters":17200,"station_id":"ce4bhah2rcd13ifvqei0","pricing_plan_id":"free"},{"bike_id":"1fe7dae6-be01-4e96-9800-a99a19bfe32c","system_id":"levelo_inurba_marseille","lat":43.2846,"lon":5.35898,"is_reserved":false,"is_disabled":false,"rental_uris":{"android":"levelo://app?vid=1fe7dae6-be01-4e96-9800-a99a19bfe32c","ios":"levelo://app?vid=1fe7dae6-be01-4e96-9800-a99a19bfe32c"},"vehicle_type_id":"4","last_reported":1702275026,"current_range_meters":20400,"station_id":"ce4bhah2rcd13ifvqei0","pricing_plan_id":"free"},{"bike_id":"407293e1-3a88-41e1-af44-9ca5448b3884","system_id":"levelo_inurba_marseille","lat":43.284586,"lon":5.358993,"is_reserved":false,"is_disabled":false,"rental_uris":{"android":"levelo://app?vid=407293e1-3a88-41e1-af44-9ca5448b3884","ios":"levelo://app?vid=407293e1-3a88-41e1-af44-9ca5448b3884"},"vehicle_type_id":"4","last_reported":1702275026,"current_range_meters":26400,"station_id":"ce4bhah2rcd13ifvqei0","pricing_plan_id":"free"},{"bike_id":"54eca29a-728b-41f2-b50a-77a0d433362e","system_id":"levelo_inurba_marseille","lat":43.284591,"lon":5.358929,"is_reserved":false,"is_disabled":false,"rental_uris":{"android":"levelo://app?vid=54eca29a-728b-41f2-b50a-77a0d433362e","ios":"levelo://app?vid=54eca29a-728b-41f2-b50a-77a0d433362e"},"vehicle_type_id":"4","last_reported":1702275026,"current_range_meters":17600,"station_id":"ce4bhah2rcd13ifvqei0","pricing_plan_id":"free"},{"bike_id":"119ee8e3-fa65-44d6-bb3b-11d0d77085d3","system_id":"levelo_inurba_marseille","lat":43.28459,"lon":5.35887,"is_reserved":false,"is_disabled":false,"rental_uris":{"android":"levelo://app?vid=119ee8e3-fa65-44d6-bb3b-11d0d77085d3","ios":"levelo://app?vid=119ee8e3-fa65-44d6-bb3b-11d0d77085d3"},"vehicle_type_id":"4","last_reported":1702275026,"current_range_meters":16000,"station_id":"ce4bhah2rcd13ifvqei0","pricing_plan_id":"free"},{"bike_id":"a9e6de87-a18e-4acd-817d-15f16aad042a","system_id":"levelo_inurba_marseille","lat":43.285848,"lon":5.350787,"is_reserved":false,"is_disabled":false,"rental_uris":{"android":"levelo://app?vid=a9e6de87-a18e-4acd-817d-15f16aad042a","ios":"levelo://app?vid=a9e6de87-a18e-4acd-817d-15f16aad042a"},"vehicle_type_id":"4","last_reported":1702275026,"current_range_meters":20000,"station_id":"ce4bhch2rcd13ifvqeug","pricing_plan_id":"free"},{"bike_id":"0111ccfb-1d70-4e92-9a7a-cc2bba0b64ad","system_id":"levelo_inurba_marseille","lat":43.323464,"lon":5.406297,"is_reserved":false,"is_disabled":false,"rental_uris":{"android":"levelo://app?vid=0111ccfb-1d70-4e92-9a7a-cc2bba0b64ad","ios":"levelo://app?vid=0111ccfb-1d70-4e92-9a7a-cc2bba0b64ad"},"vehicle_type_id":"4","last_reported":1702275026,"current_range_meters":31600,"station_id":"ce4bhq92rcd13ifvqhjg","pricing_plan_id":"free"},{"bike_id":"7a028045-af2a-4bfd-b24b-fc983ede95c9","system_id":"levelo_inurba_marseille","lat":43.323464,"lon":5.406297,"is_reserved":false,"is_disabled":false,"rental_uris":{"android":"levelo://app?vid=7a028045-af2a-4bfd-b24b-fc983ede95c9","ios":"levelo://app?vid=7a028045-af2a-4bfd-b24b-fc983ede95c9"},"vehicle_type_id":"4","last_reported":1702275026,"current_range_meters":22400,"station_id":"ce4bhq92rcd13ifvqhjg","pricing_plan_id":"free"},{"bike_id":"e8b9d767-1294-468f-9b9a-f156850ad894","system_id":"levelo_inurba_marseille","lat":43.297946,"lon":5.404063,"is_reserved":false,"is_disabled":false,"rental_uris":{"android":"levelo://app?vid=e8b9d767-1294-468f-9b9a-f156850ad894","ios":"levelo://app?vid=e8b9d767-1294-468f-9b9a-f156850ad894"},"vehicle_type_id":"4","last_reported":1702275026,"current_range_meters":30400,"station_id":"ce4bh112rcd13ifvqd90","pricing_plan_id":"free"},{"bike_id":"eb686c22-eeb1-4d1b-8a04-5355f40ee8b8","system_id":"levelo_inurba_marseille","lat":43.28425,"lon":5.34978,"is_reserved":false,"is_disabled":false,"rental_uris":{"android":"levelo://app?vid=eb686c22-eeb1-4d1b-8a04-5355f40ee8b8","ios":"levelo://app?vid=eb686c22-eeb1-4d1b-8a04-5355f40ee8b8"},"vehicle_type_id":"4","last_reported":1702275026,"current_range_meters":24400,"station_id":"ce4bhbh2rcd13ifvqepg","pricing_plan_id":"free"},{"bike_id":"95e693b0-e3cf-4f45-9ca9-78408a038bcf","system_id":"levelo_inurba_marseille","lat":43.289363,"lon":5.396322,"is_reserved":false,"is_disabled":false,"rental_uris":{"android":"levelo://app?vid=95e693b0-e3cf-4f45-9ca9-78408a038bcf","ios":"levelo://app?vid=95e693b0-e3cf-4f45-9ca9-78408a038bcf"},"vehicle_type_id":"4","last_reported":1702275026,"current_range_meters":24000,"station_id":"ce4bh3h2rcd13ifvqdn0","pricing_plan_id":"free"},{"bike_id":"5848ae1c-f312-4748-be87-165299ef1411","system_id":"levelo_inurba_marseille","lat":43.282744,"lon":5.350533,"is_reserved":false,"is_disabled":false,"rental_uris":{"android":"levelo://app?vid=5848ae1c-f312-4748-be87-165299ef1411","ios":"levelo://app?vid=5848ae1c-f312-4748-be87-165299ef1411"},"vehicle_type_id":"4","last_reported":1702275026,"current_range_meters":31200,"station_id":"ce4bhbp2rcd13ifvqerg","pricing_plan_id":"free"},{"bike_id":"48a4d9fe-fdc0-4cd0-9ac0-baf0bd45d62b","system_id":"levelo_inurba_marseille","lat":43.280343,"lon":5.369394,"is_reserved":false,"is_disabled":false,"rental_uris":{"android":"levelo://app?vid=48a4d9fe-fdc0-4cd0-9ac0-baf0bd45d62b","ios":"levelo://app?vid=48a4d9fe-fdc0-4cd0-9ac0-baf0bd45d62b"},"vehicle_type_id":"4","last_reported":1702275026,"current_range_meters":30400,"station_id":"ce4bha12rcd13ifvqef0","pricing_plan_id":"free"},{"bike_id":"9fafd9e2-92f9-4ba4-9aab-63ff82d63253","system_id":"levelo_inurba_marseille","lat":43.29046,"lon":5.3995,"is_reserved":false,"is_disabled":false,"rental_uris":{"android":"levelo://app?vid=9fafd9e2-92f9-4ba4-9aab-63ff82d63253","ios":"levelo://app?vid=9fafd9e2-92f9-4ba4-9aab-63ff82d63253"},"vehicle_type_id":"4","last_reported":1702275026,"current_range_meters":24800,"station_id":"ce4bh392rcd13ifvqdm0","pricing_plan_id":"free"},{"bike_id":"50e068bc-023c-4985-9da2-8fa319ceac9b","system_id":"levelo_inurba_marseille","lat":43.290507,"lon":5.39959,"is_reserved":false,"is_disabled":false,"rental_uris":{"android":"levelo://app?vid=50e068bc-023c-4985-9da2-8fa319ceac9b","ios":"levelo://app?vid=50e068bc-023c-4985-9da2-8fa319ceac9b"},"vehicle_type_id":"4","last_reported":1702275026,"current_range_meters":22000,"station_id":"ce4bh392rcd13ifvqdm0","pricing_plan_id":"free"},{"bike_id":"69aeadcf-b887-43ed-bc73-284aa658f8f2","system_id":"levelo_inurba_marseille","lat":43.29045,"lon":5.39953,"is_reserved":false,"is_disabled":false,"rental_uris":{"android":"levelo://app?vid=69aeadcf-b887-43ed-bc73-284aa658f8f2","ios":"levelo://app?vid=69aeadcf-b887-43ed-bc73-284aa658f8f2"},"vehicle_type_id":"4","last_reported":1702275026,"current_range_meters":27200,"station_id":"ce4bh392rcd13ifvqdm0","pricing_plan_id":"free"},{"bike_id":"d4186755-e323-47b7-8be8-26a9433d18c4","system_id":"levelo_inurba_marseille","lat":43.29045,"lon":5.39954,"is_reserved":false,"is_disabled":false,"rental_uris":{"android":"levelo://app?vid=d4186755-e323-47b7-8be8-26a9433d18c4","ios":"levelo://app?vid=d4186755-e323-47b7-8be8-26a9433d18c4"},"vehicle_type_id":"4","last_reported":1702275026,"current_range_meters":26400,"station_id":"ce4bh392rcd13ifvqdm0","pricing_plan_id":"free"},{"bike_id":"c09f7d2f-6723-475b-9ce6-e72237f2897f","system_id":"levelo_inurba_marseille","lat":43.29043,"lon":5.39956,"is_reserved":false,"is_disabled":false,"rental_uris":{"android":"levelo://app?vid=c09f7d2f-6723-475b-9ce6-e72237f2897f","ios":"levelo://app?vid=c09f7d2f-6723-475b-9ce6-e72237f2897f"},"vehicle_type_id":"4","last_reported":1702275026,"current_range_meters":11200,"station_id":"ce4bh392rcd13ifvqdm0","pricing_plan_id":"free"},{"bike_id":"c3253232-7d8c-4860-b711-b572f139262f","system_id":"levelo_inurba_marseille","lat":43.290398,"lon":5.399551,"is_reserved":false,"is_disabled":false,"rental_uris":{"android":"levelo://app?vid=c3253232-7d8c-4860-b711-b572f139262f","ios":"levelo://app?vid=c3253232-7d8c-4860-b711-b572f139262f"},"vehicle_type_id":"4","last_reported":1702275026,"current_range_meters":26000,"station_id":"ce4bh392rcd13ifvqdm0","pricing_plan_id":"free"},{"bike_id":"30c2b95c-929d-4001-845c-8b9fa68d46fd","system_id":"levelo_inurba_marseille","lat":43.29039,"lon":5.39957,"is_reserved":false,"is_disabled":false,"rental_uris":{"android":"levelo://app?vid=30c2b95c-929d-4001-845c-8b9fa68d46fd","ios":"levelo://app?vid=30c2b95c-929d-4001-845c-8b9fa68d46fd"},"vehicle_type_id":"4","last_reported":1702275026,"current_range_meters":26000,"station_id":"ce4bh392rcd13ifvqdm0","pricing_plan_id":"free"},{"bike_id":"5d54c6fa-ff86-4ab1-aef7-7bb47f79bf64","system_id":"levelo_inurba_marseille","lat":43.29039,"lon":5.39967,"is_reserved":false,"is_disabled":false,"rental_uris":{"android":"levelo://app?vid=5d54c6fa-ff86-4ab1-aef7-7bb47f79bf64","ios":"levelo://app?vid=5d54c6fa-ff86-4ab1-aef7-7bb47f79bf64"},"vehicle_type_id":"4","last_reported":1702275026,"current_range_meters":24000,"station_id":"ce4bh392rcd13ifvqdm0","pricing_plan_id":"free"},{"bike_id":"3a285ea3-5e56-4bc4-ad3b-8850d88317e7","system_id":"levelo_inurba_marseille","lat":43.290308,"lon":5.399792,"is_reserved":false,"is_disabled":false,"rental_uris":{"android":"levelo://app?vid=3a285ea3-5e56-4bc4-ad3b-8850d88317e7","ios":"levelo://app?vid=3a285ea3-5e56-4bc4-ad3b-8850d88317e7"},"vehicle_type_id":"4","last_reported":1702275026,"current_range_meters":27600,"station_id":"ce4bh392rcd13ifvqdm0","pricing_plan_id":"free"},{"bike_id":"f3ee1374-9865-4350-8580-cc07d160ac89","system_id":"levelo_inurba_marseille","lat":43.290327,"lon":5.399868,"is_reserved":false,"is_disabled":false,"rental_uris":{"android":"levelo://app?vid=f3ee1374-9865-4350-8580-cc07d160ac89","ios":"levelo://app?vid=f3ee1374-9865-4350-8580-cc07d160ac89"},"vehicle_type_id":"4","last_reported":1702275026,"current_range_meters":26400,"station_id":"ce4bh392rcd13ifvqdm0","pricing_plan_id":"free"},{"bike_id":"d3c2950d-6759-4144-9c38-8579ebe4397d","system_id":"levelo_inurba_marseille","lat":43.290337,"lon":5.399885,"is_reserved":false,"is_disabled":false,"rental_uris":{"android":"levelo://app?vid=d3c2950d-6759-4144-9c38-8579ebe4397d","ios":"levelo://app?vid=d3c2950d-6759-4144-9c38-8579ebe4397d"},"vehicle_type_id":"4","last_reported":1702275026,"current_range_meters":26000,"station_id":"ce4bh392rcd13ifvqdm0","pricing_plan_id":"free"},{"bike_id":"cf11c3cd-22a0-4e7e-90a4-6bb0a152f76a","system_id":"levelo_inurba_marseille","lat":43.29027,"lon":5.399879,"is_reserved":false,"is_disabled":false,"rental_uris":{"android":"levelo://app?vid=cf11c3cd-22a0-4e7e-90a4-6bb0a152f76a","ios":"levelo://app?vid=cf11c3cd-22a0-4e7e-90a4-6bb0a152f76a"},"vehicle_type_id":"4","last_reported":1702275026,"current_range_meters":30800,"station_id":"ce4bh392rcd13ifvqdm0","pricing_plan_id":"free"},{"bike_id":"7d652cb8-3e5a-4b15-abb1-95dfa0109a73","system_id":"levelo_inurba_marseille","lat":43.290268,"lon":5.399931,"is_reserved":false,"is_disabled":false,"rental_uris":{"android":"levelo://app?vid=7d652cb8-3e5a-4b15-abb1-95dfa0109a73","ios":"levelo://app?vid=7d652cb8-3e5a-4b15-abb1-95dfa0109a73"},"vehicle_type_id":"4","last_reported":1702275026,"current_range_meters":26000,"station_id":"ce4bh392rcd13ifvqdm0","pricing_plan_id":"free"},{"bike_id":"8571f7a1-b6a9-47ec-9eb2-ca6ffbc1abcd","system_id":"levelo_inurba_marseille","lat":43.304188,"lon":5.412904,"is_reserved":false,"is_disabled":false,"rental_uris":{"android":"levelo://app?vid=8571f7a1-b6a9-47ec-9eb2-ca6ffbc1abcd","ios":"levelo://app?vid=8571f7a1-b6a9-47ec-9eb2-ca6ffbc1abcd"},"vehicle_type_id":"4","last_reported":1702275026,"current_range_meters":31600,"station_id":"ce4bhop2rcd13ifvqh8g","pricing_plan_id":"free"},{"bike_id":"c26137c2-2573-4055-96fb-7807c2767aa2","system_id":"levelo_inurba_marseille","lat":43.320045,"lon":5.415048,"is_reserved":false,"is_disabled":false,"rental_uris":{"android":"levelo://app?vid=c26137c2-2573-4055-96fb-7807c2767aa2","ios":"levelo://app?vid=c26137c2-2573-4055-96fb-7807c2767aa2"},"vehicle_type_id":"4","last_reported":1702275026,"current_range_meters":20000,"station_id":"ce4bhq92rcd13ifvqhkg","pricing_plan_id":"free"},{"bike_id":"6da20e4a-29d3-46f6-9d42-34f66f2f25f0","system_id":"levelo_inurba_marseille","lat":43.299577,"lon":5.413277,"is_reserved":false,"is_disabled":false,"rental_uris":{"android":"levelo://app?vid=6da20e4a-29d3-46f6-9d42-34f66f2f25f0","ios":"levelo://app?vid=6da20e4a-29d3-46f6-9d42-34f66f2f25f0"},"vehicle_type_id":"4","last_reported":1702275026,"current_range_meters":29200,"station_id":"ce4bhp12rcd13ifvqh9g","pricing_plan_id":"free"},{"bike_id":"5d98eebd-5ee8-46ca-9891-ee2d487eb7d2","system_id":"levelo_inurba_marseille","lat":43.279742,"lon":5.38744,"is_reserved":false,"is_disabled":false,"rental_uris":{"android":"levelo://app?vid=5d98eebd-5ee8-46ca-9891-ee2d487eb7d2","ios":"levelo://app?vid=5d98eebd-5ee8-46ca-9891-ee2d487eb7d2"},"vehicle_type_id":"4","last_reported":1702275026,"current_range_meters":25600,"station_id":"ce4bhg12rcd13ifvqf80","pricing_plan_id":"free"},{"bike_id":"597017a5-574a-4cd0-9d19-4dc444f6eac0","system_id":"levelo_inurba_marseille","lat":43.279742,"lon":5.38744,"is_reserved":false,"is_disabled":false,"rental_uris":{"android":"levelo://app?vid=597017a5-574a-4cd0-9d19-4dc444f6eac0","ios":"levelo://app?vid=597017a5-574a-4cd0-9d19-4dc444f6eac0"},"vehicle_type_id":"4","last_reported":1702275026,"current_range_meters":20400,"station_id":"ce4bhg12rcd13ifvqf80","pricing_plan_id":"free"},{"bike_id":"a1faddaa-0415-4818-8fe3-70be7a7a60ac","system_id":"levelo_inurba_marseille","lat":43.279755,"lon":5.387655,"is_reserved":false,"is_disabled":false,"rental_uris":{"android":"levelo://app?vid=a1faddaa-0415-4818-8fe3-70be7a7a60ac","ios":"levelo://app?vid=a1faddaa-0415-4818-8fe3-70be7a7a60ac"},"vehicle_type_id":"4","last_reported":1702275026,"current_range_meters":28000,"station_id":"ce4bhg12rcd13ifvqf80","pricing_plan_id":"free"},{"bike_id":"d7d17e82-b7a7-46d4-af1f-728379796d3c","system_id":"levelo_inurba_marseille","lat":43.27616,"lon":5.36097,"is_reserved":false,"is_disabled":false,"rental_uris":{"android":"levelo://app?vid=d7d17e82-b7a7-46d4-af1f-728379796d3c","ios":"levelo://app?vid=d7d17e82-b7a7-46d4-af1f-728379796d3c"},"vehicle_type_id":"4","last_reported":1702275026,"current_range_meters":16800,"station_id":"ce4bgj92rcd13ifvqbe0","pricing_plan_id":"free"},{"bike_id":"e63c0455-8e8c-4395-b9d3-a935f1e93a70","system_id":"levelo_inurba_marseille","lat":43.303837,"lon":5.418724,"is_reserved":false,"is_disabled":false,"rental_uris":{"android":"levelo://app?vid=e63c0455-8e8c-4395-b9d3-a935f1e93a70","ios":"levelo://app?vid=e63c0455-8e8c-4395-b9d3-a935f1e93a70"},"vehicle_type_id":"4","last_reported":1702275026,"current_range_meters":28800,"station_id":"ce4bhop2rcd13ifvqh7g","pricing_plan_id":"free"},{"bike_id":"e7a79bd6-aec9-44dd-93de-6a9ecbe27c56","system_id":"levelo_inurba_marseille","lat":43.278399,"lon":5.392139,"is_reserved":false,"is_disabled":false,"rental_uris":{"android":"levelo://app?vid=e7a79bd6-aec9-44dd-93de-6a9ecbe27c56","ios":"levelo://app?vid=e7a79bd6-aec9-44dd-93de-6a9ecbe27c56"},"vehicle_type_id":"4","last_reported":1702275026,"current_range_meters":27200,"station_id":"ce4bhjp2rcd13ifvqga0","pricing_plan_id":"free"},{"bike_id":"dcd2beb6-6943-46d7-a576-53bfebf14e30","system_id":"levelo_inurba_marseille","lat":43.278401,"lon":5.392152,"is_reserved":false,"is_disabled":false,"rental_uris":{"android":"levelo://app?vid=dcd2beb6-6943-46d7-a576-53bfebf14e30","ios":"levelo://app?vid=dcd2beb6-6943-46d7-a576-53bfebf14e30"},"vehicle_type_id":"4","last_reported":1702275026,"current_range_meters":30800,"station_id":"ce4bhjp2rcd13ifvqga0","pricing_plan_id":"free"},{"bike_id":"410c5529-86f3-4161-a0b8-4aa1af30b3e9","system_id":"levelo_inurba_marseille","lat":43.273613,"lon":5.362705,"is_reserved":false,"is_disabled":false,"rental_uris":{"android":"levelo://app?vid=410c5529-86f3-4161-a0b8-4aa1af30b3e9","ios":"levelo://app?vid=410c5529-86f3-4161-a0b8-4aa1af30b3e9"},"vehicle_type_id":"4","last_reported":1702275026,"current_range_meters":30400,"station_id":"ce4bhbh2rcd13ifvqeo0","pricing_plan_id":"free"},{"bike_id":"b49195d1-5252-4b63-9ddd-c39017071e00","system_id":"levelo_inurba_marseille","lat":43.27639,"lon":5.39485,"is_reserved":false,"is_disabled":false,"rental_uris":{"android":"levelo://app?vid=b49195d1-5252-4b63-9ddd-c39017071e00","ios":"levelo://app?vid=b49195d1-5252-4b63-9ddd-c39017071e00"},"vehicle_type_id":"4","last_reported":1702275026,"current_range_meters":14800,"station_id":"","pricing_plan_id":"free"},{"bike_id":"63133364-316e-458e-b234-bbd4926c63fc","system_id":"levelo_inurba_marseille","lat":43.27583,"lon":5.39474,"is_reserved":false,"is_disabled":false,"rental_uris":{"android":"levelo://app?vid=63133364-316e-458e-b234-bbd4926c63fc","ios":"levelo://app?vid=63133364-316e-458e-b234-bbd4926c63fc"},"vehicle_type_id":"4","last_reported":1702275026,"current_range_meters":800,"station_id":"","pricing_plan_id":"free"},{"bike_id":"333ea7a5-e528-4395-aad6-49ba718c25fe","system_id":"levelo_inurba_marseille","lat":43.304096,"lon":5.425385,"is_reserved":false,"is_disabled":false,"rental_uris":{"android":"levelo://app?vid=333ea7a5-e528-4395-aad6-49ba718c25fe","ios":"levelo://app?vid=333ea7a5-e528-4395-aad6-49ba718c25fe"},"vehicle_type_id":"4","last_reported":1702275026,"current_range_meters":26000,"station_id":"ce4bhoh2rcd13ifvqh6g","pricing_plan_id":"free"},{"bike_id":"a659d6d1-c672-4ef3-8e7d-1c7768097ac6","system_id":"levelo_inurba_marseille","lat":43.272116,"lon":5.391747,"is_reserved":false,"is_disabled":false,"rental_uris":{"android":"levelo://app?vid=a659d6d1-c672-4ef3-8e7d-1c7768097ac6","ios":"levelo://app?vid=a659d6d1-c672-4ef3-8e7d-1c7768097ac6"},"vehicle_type_id":"4","last_reported":1702275026,"current_range_meters":26800,"station_id":"ce4bhhp2rcd13ifvqfm0","pricing_plan_id":"free"},{"bike_id":"d7299b36-b4c0-42f3-869d-b3b1352c679d","system_id":"levelo_inurba_marseille","lat":43.269467,"lon":5.386439,"is_reserved":false,"is_disabled":false,"rental_uris":{"android":"levelo://app?vid=d7299b36-b4c0-42f3-869d-b3b1352c679d","ios":"levelo://app?vid=d7299b36-b4c0-42f3-869d-b3b1352c679d"},"vehicle_type_id":"4","last_reported":1702275026,"current_range_meters":22800,"station_id":"ce4bhh92rcd13ifvqfh0","pricing_plan_id":"free"},{"bike_id":"69edee58-5f57-4418-a91c-ebd105f1bba3","system_id":"levelo_inurba_marseille","lat":43.278128,"lon":5.407195,"is_reserved":false,"is_disabled":false,"rental_uris":{"android":"levelo://app?vid=69edee58-5f57-4418-a91c-ebd105f1bba3","ios":"levelo://app?vid=69edee58-5f57-4418-a91c-ebd105f1bba3"},"vehicle_type_id":"4","last_reported":1702275026,"current_range_meters":28800,"station_id":"ce4bhnh2rcd13ifvqgtg","pricing_plan_id":"free"},{"bike_id":"4aa5cf00-9112-4073-aae4-5f1d27210814","system_id":"levelo_inurba_marseille","lat":43.269467,"lon":5.386439,"is_reserved":false,"is_disabled":false,"rental_uris":{"android":"levelo://app?vid=4aa5cf00-9112-4073-aae4-5f1d27210814","ios":"levelo://app?vid=4aa5cf00-9112-4073-aae4-5f1d27210814"},"vehicle_type_id":"4","last_reported":1702275026,"current_range_meters":25600,"station_id":"ce4bhh92rcd13ifvqfh0","pricing_plan_id":"free"},{"bike_id":"884a677f-89ef-4bf0-bf7f-bb68d7bc013b","system_id":"levelo_inurba_marseille","lat":43.269467,"lon":5.386439,"is_reserved":false,"is_disabled":false,"rental_uris":{"android":"levelo://app?vid=884a677f-89ef-4bf0-bf7f-bb68d7bc013b","ios":"levelo://app?vid=884a677f-89ef-4bf0-bf7f-bb68d7bc013b"},"vehicle_type_id":"4","last_reported":1702275026,"current_range_meters":29600,"station_id":"ce4bhh92rcd13ifvqfh0","pricing_plan_id":"free"},{"bike_id":"e4439aa2-3e15-40d1-9c31-4a5975f01a09","system_id":"levelo_inurba_marseille","lat":43.279465,"lon":5.410561,"is_reserved":false,"is_disabled":false,"rental_uris":{"android":"levelo://app?vid=e4439aa2-3e15-40d1-9c31-4a5975f01a09","ios":"levelo://app?vid=e4439aa2-3e15-40d1-9c31-4a5975f01a09"},"vehicle_type_id":"4","last_reported":1702275026,"current_range_meters":25200,"station_id":"ce4bhnp2rcd13ifvqh0g","pricing_plan_id":"free"},{"bike_id":"7062eb5d-8a0b-466f-8fc2-6a5269f955d4","system_id":"levelo_inurba_marseille","lat":43.279465,"lon":5.410561,"is_reserved":false,"is_disabled":false,"rental_uris":{"android":"levelo://app?vid=7062eb5d-8a0b-466f-8fc2-6a5269f955d4","ios":"levelo://app?vid=7062eb5d-8a0b-466f-8fc2-6a5269f955d4"},"vehicle_type_id":"4","last_reported":1702275026,"current_range_meters":31200,"station_id":"ce4bhnp2rcd13ifvqh0g","pricing_plan_id":"free"},{"bike_id":"336e1ad8-8d7e-499f-aa3d-8a0653461583","system_id":"levelo_inurba_marseille","lat":43.279079,"lon":5.412218,"is_reserved":false,"is_disabled":false,"rental_uris":{"android":"levelo://app?vid=336e1ad8-8d7e-499f-aa3d-8a0653461583","ios":"levelo://app?vid=336e1ad8-8d7e-499f-aa3d-8a0653461583"},"vehicle_type_id":"4","last_reported":1702275026,"current_range_meters":21200,"station_id":"","pricing_plan_id":"free"},{"bike_id":"7244d0b7-0a9b-4675-930f-975dbbeed40b","system_id":"levelo_inurba_marseille","lat":43.266051,"lon":5.381661,"is_reserved":false,"is_disabled":false,"rental_uris":{"android":"levelo://app?vid=7244d0b7-0a9b-4675-930f-975dbbeed40b","ios":"levelo://app?vid=7244d0b7-0a9b-4675-930f-975dbbeed40b"},"vehicle_type_id":"4","last_reported":1702275026,"current_range_meters":3200,"station_id":"","pricing_plan_id":"free"},{"bike_id":"998e8a69-ddf9-4453-a09f-14b52dfa9145","system_id":"levelo_inurba_marseille","lat":43.27996,"lon":5.416624,"is_reserved":false,"is_disabled":false,"rental_uris":{"android":"levelo://app?vid=998e8a69-ddf9-4453-a09f-14b52dfa9145","ios":"levelo://app?vid=998e8a69-ddf9-4453-a09f-14b52dfa9145"},"vehicle_type_id":"4","last_reported":1702275026,"current_range_meters":22000,"station_id":"ce4bho12rcd13ifvqh1g","pricing_plan_id":"free"},{"bike_id":"b2f8c705-8941-4146-9044-fe15469802c3","system_id":"levelo_inurba_marseille","lat":43.27996,"lon":5.416624,"is_reserved":false,"is_disabled":false,"rental_uris":{"android":"levelo://app?vid=b2f8c705-8941-4146-9044-fe15469802c3","ios":"levelo://app?vid=b2f8c705-8941-4146-9044-fe15469802c3"},"vehicle_type_id":"4","last_reported":1702275026,"current_range_meters":29200,"station_id":"ce4bho12rcd13ifvqh1g","pricing_plan_id":"free"},{"bike_id":"e9ac0882-245a-4f12-b467-22f9246dc626","system_id":"levelo_inurba_marseille","lat":43.32545,"lon":5.43286,"is_reserved":false,"is_disabled":false,"rental_uris":{"android":"levelo://app?vid=e9ac0882-245a-4f12-b467-22f9246dc626","ios":"levelo://app?vid=e9ac0882-245a-4f12-b467-22f9246dc626"},"vehicle_type_id":"4","last_reported":1702275026,"current_range_meters":4800,"station_id":"","pricing_plan_id":"free"},{"bike_id":"6c9a7769-40d4-42dc-9b48-47769de74c91","system_id":"levelo_inurba_marseille","lat":43.26332,"lon":5.37678,"is_reserved":false,"is_disabled":false,"rental_uris":{"android":"levelo://app?vid=6c9a7769-40d4-42dc-9b48-47769de74c91","ios":"levelo://app?vid=6c9a7769-40d4-42dc-9b48-47769de74c91"},"vehicle_type_id":"4","last_reported":1702275026,"current_range_meters":14000,"station_id":"","pricing_plan_id":"free"},{"bike_id":"287e9254-f263-4a4d-afd9-500f2b256a68","system_id":"levelo_inurba_marseille","lat":43.2616,"lon":5.37413,"is_reserved":false,"is_disabled":false,"rental_uris":{"android":"levelo://app?vid=287e9254-f263-4a4d-afd9-500f2b256a68","ios":"levelo://app?vid=287e9254-f263-4a4d-afd9-500f2b256a68"},"vehicle_type_id":"4","last_reported":1702275026,"current_range_meters":24400,"station_id":"ce4bhgp2rcd13ifvqfc0","pricing_plan_id":"free"},{"bike_id":"37be6a41-ae9a-4ed6-aaf6-9f1aef278971","system_id":"levelo_inurba_marseille","lat":43.271368,"lon":5.40928,"is_reserved":false,"is_disabled":false,"rental_uris":{"android":"levelo://app?vid=37be6a41-ae9a-4ed6-aaf6-9f1aef278971","ios":"levelo://app?vid=37be6a41-ae9a-4ed6-aaf6-9f1aef278971"},"vehicle_type_id":"4","last_reported":1702275026,"current_range_meters":30800,"station_id":"ce4bhl12rcd13ifvqgf0","pricing_plan_id":"free"},{"bike_id":"b23e3fdb-25cf-4324-932e-816637918270","system_id":"levelo_inurba_marseille","lat":43.267959,"lon":5.402687,"is_reserved":false,"is_disabled":false,"rental_uris":{"android":"levelo://app?vid=b23e3fdb-25cf-4324-932e-816637918270","ios":"levelo://app?vid=b23e3fdb-25cf-4324-932e-816637918270"},"vehicle_type_id":"4","last_reported":1702275026,"current_range_meters":30800,"station_id":"ce501612rcd8frsf0b60","pricing_plan_id":"free"},{"bike_id":"3de0a6a1-4453-486c-a1ba-fc284c4c0e2c","system_id":"levelo_inurba_marseille","lat":43.298768,"lon":5.43643,"is_reserved":false,"is_disabled":false,"rental_uris":{"android":"levelo://app?vid=3de0a6a1-4453-486c-a1ba-fc284c4c0e2c","ios":"levelo://app?vid=3de0a6a1-4453-486c-a1ba-fc284c4c0e2c"},"vehicle_type_id":"4","last_reported":1702275026,"current_range_meters":31600,"station_id":"ce4bhpp2rcd13ifvqhfg","pricing_plan_id":"free"},{"bike_id":"565786fa-eb1c-4c71-9970-60c79fca54bc","system_id":"levelo_inurba_marseille","lat":43.281548,"lon":5.42643,"is_reserved":false,"is_disabled":false,"rental_uris":{"android":"levelo://app?vid=565786fa-eb1c-4c71-9970-60c79fca54bc","ios":"levelo://app?vid=565786fa-eb1c-4c71-9970-60c79fca54bc"},"vehicle_type_id":"4","last_reported":1702275026,"current_range_meters":30000,"station_id":"ce4bhnh2rcd13ifvqgug","pricing_plan_id":"free"},{"bike_id":"755e5ce5-fb90-4ff2-8498-7cfa31a5e6c2","system_id":"levelo_inurba_marseille","lat":43.281548,"lon":5.42643,"is_reserved":false,"is_disabled":false,"rental_uris":{"android":"levelo://app?vid=755e5ce5-fb90-4ff2-8498-7cfa31a5e6c2","ios":"levelo://app?vid=755e5ce5-fb90-4ff2-8498-7cfa31a5e6c2"},"vehicle_type_id":"4","last_reported":1702275026,"current_range_meters":28800,"station_id":"ce4bhnh2rcd13ifvqgug","pricing_plan_id":"free"},{"bike_id":"d60b9791-78c5-42c2-ba82-d1ccc8eefd7e","system_id":"levelo_inurba_marseille","lat":43.25502,"lon":5.37655,"is_reserved":false,"is_disabled":false,"rental_uris":{"android":"levelo://app?vid=d60b9791-78c5-42c2-ba82-d1ccc8eefd7e","ios":"levelo://app?vid=d60b9791-78c5-42c2-ba82-d1ccc8eefd7e"},"vehicle_type_id":"4","last_reported":1702275026,"current_range_meters":400,"station_id":"ce4bhh12rcd13ifvqff0","pricing_plan_id":"free"},{"bike_id":"afb5ec19-dafa-4711-b1cf-85f317593fa6","system_id":"levelo_inurba_marseille","lat":43.270721,"lon":5.422764,"is_reserved":false,"is_disabled":false,"rental_uris":{"android":"levelo://app?vid=afb5ec19-dafa-4711-b1cf-85f317593fa6","ios":"levelo://app?vid=afb5ec19-dafa-4711-b1cf-85f317593fa6"},"vehicle_type_id":"4","last_reported":1702275026,"current_range_meters":19200,"station_id":"ce4bhk92rcd13ifvqgb0","pricing_plan_id":"free"},{"bike_id":"2cac69eb-29fb-4a99-8498-f0374f9058ac","system_id":"levelo_inurba_marseille","lat":43.258658,"lon":5.398935,"is_reserved":false,"is_disabled":false,"rental_uris":{"android":"levelo://app?vid=2cac69eb-29fb-4a99-8498-f0374f9058ac","ios":"levelo://app?vid=2cac69eb-29fb-4a99-8498-f0374f9058ac"},"vehicle_type_id":"4","last_reported":1702275026,"current_range_meters":21600,"station_id":"ce4bhl92rcd13ifvqghg","pricing_plan_id":"free"},{"bike_id":"f372bf66-63ba-421e-b408-de392dc735ac","system_id":"levelo_inurba_marseille","lat":43.258658,"lon":5.398935,"is_reserved":false,"is_disabled":false,"rental_uris":{"android":"levelo://app?vid=f372bf66-63ba-421e-b408-de392dc735ac","ios":"levelo://app?vid=f372bf66-63ba-421e-b408-de392dc735ac"},"vehicle_type_id":"4","last_reported":1702275026,"current_range_meters":28800,"station_id":"ce4bhl92rcd13ifvqghg","pricing_plan_id":"free"},{"bike_id":"37317bf4-0fae-462d-adb3-c56a36db31e5","system_id":"levelo_inurba_marseille","lat":43.258658,"lon":5.398935,"is_reserved":false,"is_disabled":false,"rental_uris":{"android":"levelo://app?vid=37317bf4-0fae-462d-adb3-c56a36db31e5","ios":"levelo://app?vid=37317bf4-0fae-462d-adb3-c56a36db31e5"},"vehicle_type_id":"4","last_reported":1702275026,"current_range_meters":29600,"station_id":"ce4bhl92rcd13ifvqghg","pricing_plan_id":"free"},{"bike_id":"0efd4363-e45a-4406-9c0f-bfd195a3a967","system_id":"levelo_inurba_marseille","lat":43.257222,"lon":5.411072,"is_reserved":false,"is_disabled":false,"rental_uris":{"android":"levelo://app?vid=0efd4363-e45a-4406-9c0f-bfd195a3a967","ios":"levelo://app?vid=0efd4363-e45a-4406-9c0f-bfd195a3a967"},"vehicle_type_id":"4","last_reported":1702275026,"current_range_meters":26800,"station_id":"ce4bhkp2rcd13ifvqgd0","pricing_plan_id":"free"},{"bike_id":"12cad532-059e-430e-8687-280170c85cfb","system_id":"levelo_inurba_marseille","lat":43.257079,"lon":5.411051,"is_reserved":false,"is_disabled":false,"rental_uris":{"android":"levelo://app?vid=12cad532-059e-430e-8687-280170c85cfb","ios":"levelo://app?vid=12cad532-059e-430e-8687-280170c85cfb"},"vehicle_type_id":"4","last_reported":1702275026,"current_range_meters":31600,"station_id":"ce4bhkp2rcd13ifvqgd0","pricing_plan_id":"free"},{"bike_id":"53637d02-cb32-49a6-ab6d-29d69306aed3","system_id":"levelo_inurba_marseille","lat":43.257079,"lon":5.411051,"is_reserved":false,"is_disabled":false,"rental_uris":{"android":"levelo://app?vid=53637d02-cb32-49a6-ab6d-29d69306aed3","ios":"levelo://app?vid=53637d02-cb32-49a6-ab6d-29d69306aed3"},"vehicle_type_id":"4","last_reported":1702275026,"current_range_meters":31200,"station_id":"ce4bhkp2rcd13ifvqgd0","pricing_plan_id":"free"},{"bike_id":"548bdd7c-bb01-4420-a166-3de6bf59d824","system_id":"levelo_inurba_marseille","lat":43.257043,"lon":5.411316,"is_reserved":false,"is_disabled":false,"rental_uris":{"android":"levelo://app?vid=548bdd7c-bb01-4420-a166-3de6bf59d824","ios":"levelo://app?vid=548bdd7c-bb01-4420-a166-3de6bf59d824"},"vehicle_type_id":"4","last_reported":1702275026,"current_range_meters":20000,"station_id":"ce4bhkp2rcd13ifvqgd0","pricing_plan_id":"free"},{"bike_id":"93af5de5-2efb-45f4-a47a-fcff3ad5ef84","system_id":"levelo_inurba_marseille","lat":43.250009,"lon":5.389195,"is_reserved":false,"is_disabled":false,"rental_uris":{"android":"levelo://app?vid=93af5de5-2efb-45f4-a47a-fcff3ad5ef84","ios":"levelo://app?vid=93af5de5-2efb-45f4-a47a-fcff3ad5ef84"},"vehicle_type_id":"4","last_reported":1702275026,"current_range_meters":28800,"station_id":"ce4bhgp2rcd13ifvqfd0","pricing_plan_id":"free"},{"bike_id":"46f19256-066d-43e8-a1e1-49cb1ac005ce","system_id":"levelo_inurba_marseille","lat":43.2479,"lon":5.374457,"is_reserved":false,"is_disabled":false,"rental_uris":{"android":"levelo://app?vid=46f19256-066d-43e8-a1e1-49cb1ac005ce","ios":"levelo://app?vid=46f19256-066d-43e8-a1e1-49cb1ac005ce"},"vehicle_type_id":"4","last_reported":1702275026,"current_range_meters":29600,"station_id":"ce4bhgh2rcd13ifvqfb0","pricing_plan_id":"free"},{"bike_id":"676439af-25a5-4009-b1f1-935886e6bc00","system_id":"levelo_inurba_marseille","lat":43.2479,"lon":5.374457,"is_reserved":false,"is_disabled":false,"rental_uris":{"android":"levelo://app?vid=676439af-25a5-4009-b1f1-935886e6bc00","ios":"levelo://app?vid=676439af-25a5-4009-b1f1-935886e6bc00"},"vehicle_type_id":"4","last_reported":1702275026,"current_range_meters":29600,"station_id":"ce4bhgh2rcd13ifvqfb0","pricing_plan_id":"free"},{"bike_id":"d17812b4-28d7-44f8-8f1e-a5cc0c57f7c8","system_id":"levelo_inurba_marseille","lat":43.250966,"lon":5.395186,"is_reserved":false,"is_disabled":false,"rental_uris":{"android":"levelo://app?vid=d17812b4-28d7-44f8-8f1e-a5cc0c57f7c8","ios":"levelo://app?vid=d17812b4-28d7-44f8-8f1e-a5cc0c57f7c8"},"vehicle_type_id":"4","last_reported":1702275026,"current_range_meters":14800,"station_id":"ce4bhm12rcd13ifvqgkg","pricing_plan_id":"free"},{"bike_id":"6c841a86-0db3-43df-89cd-8d77eefd74e9","system_id":"levelo_inurba_marseille","lat":43.250966,"lon":5.395186,"is_reserved":false,"is_disabled":false,"rental_uris":{"android":"levelo://app?vid=6c841a86-0db3-43df-89cd-8d77eefd74e9","ios":"levelo://app?vid=6c841a86-0db3-43df-89cd-8d77eefd74e9"},"vehicle_type_id":"4","last_reported":1702275026,"current_range_meters":28800,"station_id":"ce4bhm12rcd13ifvqgkg","pricing_plan_id":"free"},{"bike_id":"2ebbede5-b63b-4ead-a71c-0c3fdd1080f5","system_id":"levelo_inurba_marseille","lat":43.24693,"lon":5.382096,"is_reserved":false,"is_disabled":false,"rental_uris":{"android":"levelo://app?vid=2ebbede5-b63b-4ead-a71c-0c3fdd1080f5","ios":"levelo://app?vid=2ebbede5-b63b-4ead-a71c-0c3fdd1080f5"},"vehicle_type_id":"4","last_reported":1702275026,"current_range_meters":3600,"station_id":"ce4bhih2rcd13ifvqfr0","pricing_plan_id":"free"},{"bike_id":"a94728d5-8fac-4dbb-a538-34fa12863f73","system_id":"levelo_inurba_marseille","lat":43.246467,"lon":5.388984,"is_reserved":false,"is_disabled":false,"rental_uris":{"android":"levelo://app?vid=a94728d5-8fac-4dbb-a538-34fa12863f73","ios":"levelo://app?vid=a94728d5-8fac-4dbb-a538-34fa12863f73"},"vehicle_type_id":"4","last_reported":1702275026,"current_range_meters":27200,"station_id":"ce4bhg12rcd13ifvqf60","pricing_plan_id":"free"},{"bike_id":"571322be-87e3-43ae-9901-b36ab49cb1d3","system_id":"levelo_inurba_marseille","lat":43.243884,"lon":5.370736,"is_reserved":false,"is_disabled":false,"rental_uris":{"android":"levelo://app?vid=571322be-87e3-43ae-9901-b36ab49cb1d3","ios":"levelo://app?vid=571322be-87e3-43ae-9901-b36ab49cb1d3"},"vehicle_type_id":"4","last_reported":1702275026,"current_range_meters":24400,"station_id":"ce4bhhh2rcd13ifvqfk0","pricing_plan_id":"free"},{"bike_id":"d1c72fa7-c6c4-4741-ba8a-4ddbc6475ecc","system_id":"levelo_inurba_marseille","lat":43.240623,"lon":5.377642,"is_reserved":false,"is_disabled":false,"rental_uris":{"android":"levelo://app?vid=d1c72fa7-c6c4-4741-ba8a-4ddbc6475ecc","ios":"levelo://app?vid=d1c72fa7-c6c4-4741-ba8a-4ddbc6475ecc"},"vehicle_type_id":"4","last_reported":1702275026,"current_range_meters":18400,"station_id":"ce4bhnp2rcd13ifvqgvg","pricing_plan_id":"free"},{"bike_id":"ff3311be-0e5d-4347-bfab-118723a2b76e","system_id":"levelo_inurba_marseille","lat":43.231919,"lon":5.355532,"is_reserved":false,"is_disabled":false,"rental_uris":{"android":"levelo://app?vid=ff3311be-0e5d-4347-bfab-118723a2b76e","ios":"levelo://app?vid=ff3311be-0e5d-4347-bfab-118723a2b76e"},"vehicle_type_id":"4","last_reported":1702275026,"current_range_meters":29600,"station_id":"ce4bhu92rcd13ifvqi70","pricing_plan_id":"free"},{"bike_id":"ba2ffe5d-0854-438d-83e7-4a71cbe644cc","system_id":"levelo_inurba_marseille","lat":43.231794,"lon":5.400052,"is_reserved":false,"is_disabled":false,"rental_uris":{"android":"levelo://app?vid=ba2ffe5d-0854-438d-83e7-4a71cbe644cc","ios":"levelo://app?vid=ba2ffe5d-0854-438d-83e7-4a71cbe644cc"},"vehicle_type_id":"4","last_reported":1702275026,"current_range_meters":30400,"station_id":"ce4bhn12rcd13ifvqgqg","pricing_plan_id":"free"},{"bike_id":"f11845c2-6b31-49fe-ac90-9911fa36fa39","system_id":"levelo_inurba_marseille","lat":43.231793,"lon":5.400044,"is_reserved":false,"is_disabled":false,"rental_uris":{"android":"levelo://app?vid=f11845c2-6b31-49fe-ac90-9911fa36fa39","ios":"levelo://app?vid=f11845c2-6b31-49fe-ac90-9911fa36fa39"},"vehicle_type_id":"4","last_reported":1702275026,"current_range_meters":28400,"station_id":"ce4bhn12rcd13ifvqgqg","pricing_plan_id":"free"},{"bike_id":"eaaddb79-e79f-4481-80b2-574aaa4a11a3","system_id":"levelo_inurba_marseille","lat":43.231794,"lon":5.400052,"is_reserved":false,"is_disabled":false,"rental_uris":{"android":"levelo://app?vid=eaaddb79-e79f-4481-80b2-574aaa4a11a3","ios":"levelo://app?vid=eaaddb79-e79f-4481-80b2-574aaa4a11a3"},"vehicle_type_id":"4","last_reported":1702275026,"current_range_meters":28000,"station_id":"ce4bhn12rcd13ifvqgqg","pricing_plan_id":"free"},{"bike_id":"20b9dc23-3fdd-4258-8fed-b5bd0e113f50","system_id":"levelo_inurba_marseille","lat":43.231794,"lon":5.400052,"is_reserved":false,"is_disabled":false,"rental_uris":{"android":"levelo://app?vid=20b9dc23-3fdd-4258-8fed-b5bd0e113f50","ios":"levelo://app?vid=20b9dc23-3fdd-4258-8fed-b5bd0e113f50"},"vehicle_type_id":"4","last_reported":1702275026,"current_range_meters":30400,"station_id":"ce4bhn12rcd13ifvqgqg","pricing_plan_id":"free"},{"bike_id":"d1f54e0d-396f-4b1c-bc0b-a3840a06e020","system_id":"levelo_inurba_marseille","lat":43.231562,"lon":5.436933,"is_reserved":false,"is_disabled":false,"rental_uris":{"android":"levelo://app?vid=d1f54e0d-396f-4b1c-bc0b-a3840a06e020","ios":"levelo://app?vid=d1f54e0d-396f-4b1c-bc0b-a3840a06e020"},"vehicle_type_id":"4","last_reported":1702275026,"current_range_meters":5200,"station_id":"ce4bhmp2rcd13ifvqgog","pricing_plan_id":"free"},{"bike_id":"1aae6cdc-e4e2-4912-a240-f90a945937f8","system_id":"levelo_inurba_marseille","lat":43.231562,"lon":5.436933,"is_reserved":false,"is_disabled":false,"rental_uris":{"android":"levelo://app?vid=1aae6cdc-e4e2-4912-a240-f90a945937f8","ios":"levelo://app?vid=1aae6cdc-e4e2-4912-a240-f90a945937f8"},"vehicle_type_id":"4","last_reported":1702275026,"current_range_meters":30400,"station_id":"ce4bhmp2rcd13ifvqgog","pricing_plan_id":"free"}]}}