{"last_updated":1752095410,"ttl":60,"version":"2.2","data":{"bikes":[{"bike_id":"cd20cfea-2f2f-444d-a882-a49b6cf370eb","system_id":"levelo_inurba_marseille","lat":43.337444,"lon":5.374475,"is_reserved":false,"is_disabled":true,"rental_uris":{"android":"levelo://app?vid=cd20cfea-2f2f-444d-a882-a49b6cf370eb","ios":"levelo://app?vid=cd20cfea-2f2f-444d-a882-a49b6cf370eb"},"vehicle_type_id":"4","last_reported":1752095410,"current_range_meters":0,"station_id":"","pricing_plan_id":"cebpf4jnsgd1na2vs0mg"},{"bike_id":"3da29fb8-fc97-44c6-b9ac-31dd456b2fd4","system_id":"levelo_inurba_marseille","lat":43.33771,"lon":5.37424,"is_reserved":false,"is_disabled":true,"rental_uris":{"android":"levelo://app?vid=3da29fb8-fc97-44c6-b9ac-31dd456b2fd4","ios":"levelo://app?vid=3da29fb8-fc97-44c6-b9ac-31dd456b2fd4"},"vehicle_type_id":"4","last_reported":1752095410,"current_range_meters":0,"station_id":"","pricing_plan_id":"cebpf4jnsgd1na2vs0mg"},{"bike_id":"01861ad8-a8d7-4be6-816e-651927c87584","system_id":"levelo_inurba_marseille","lat":43.33751,"lon":5.37456,"is_reserved":false,"is_disabled":true,"rental_uris":{"android":"levelo://app?vid=01861ad8-a8d7-4be6-816e-651927c87584","ios":"levelo://app?vid=01861ad8-a8d7-4be6-816e-651927c87584"},"vehicle_type_id":"4","last_reported":1752095410,"current_range_meters":0,"station_id":"","pricing_plan_id":"cebpf4jnsgd1na2vs0mg"},{"bike_id":"53b1a31e-8ada-40c0-8d64-113a81233c84","system_id":"levelo_inurba_marseille","lat":43.36407,"lon":5.31941,"is_reserved":false,"is_disabled":true,"rental_uris":{"android":"levelo://app?vid=53b1a31e-8ada-40c0-8d64-113a81233c84","ios":"levelo://app?vid=53b1a31e-8ada-40c0-8d64-113a81233c84"},"vehicle_type_id":"4","last_reported":1752095410,"current_range_meters":0,"station_id":"","pricing_plan_id":"cebpf4jnsgd1na2vs0mg"},{"bike_id":"fa05207c-1048-4ca5-864c-555d99f117ad","system_id":"levelo_inurba_marseille","lat":43.2894,"lon":5.39628,"is_reserved":false,"is_disabled":true,"rental_uris":{"android":"levelo://app?vid=fa05207c-1048-4ca5-864c-555d99f117ad","ios":"levelo://app?vid=fa05207c-1048-4ca5-864c-555d99f117ad"},"vehicle_type_id":"4","last_reported":1752095410,"current_range_meters":0,"station_id":"ce4bh3h2rcd13ifvqdn0","pricing_plan_id":"cebpf4jnsgd1na2vs0mg"},{"bike_id":"6a1897e3-8a2b-46cf-92ff-7ca0963dc64a","system_id":"levelo_inurba_marseille","lat":43.294442,"lon":5.397463,"is_reserved":false,"is_disabled":true,"rental_uris":{"android":"levelo://app?vid=6a1897e3-8a2b-46cf-92ff-7ca0963dc64a","ios":"levelo://app?vid=6a1897e3-8a2b-46cf-92ff-7ca0963dc64a"},"vehicle_type_id":"4","last_reported":1752095410,"current_range_meters":0,"station_id":"ce4bh3h2rcd13ifvqdo0","pricing_plan_id":"cebpf4jnsgd1na2vs0mg"},{"bike_id":"5e24d3d9-a610-4dfc-964e-32eca6da1a62","system_id":"levelo_inurba_marseille","lat":43.29102,"lon":5.38134,"is_reserved":false,"is_disabled":true,"rental_uris":{"android":"levelo://app?vid=5e24d3d9-a610-4dfc-964e-32eca6da1a62","ios":"levelo://app?vid=5e24d3d9-a610-4dfc-964e-32eca6da1a62"},"vehicle_type_id":"4","last_reported":1752095410,"current_range_meters":0,"station_id":"ce4bh512rcd13ifvqe2g","pricing_plan_id":"cebpf4jnsgd1na2vs0mg"},{"bike_id":"8f9992d7-44a5-49d8-abfc-9c69dc28991f","system_id":"levelo_inurba_marseille","lat":43.27377,"lon":5.36264,"is_reserved":false,"is_disabled":true,"rental_uris":{"android":"levelo://app?vid=8f9992d7-44a5-49d8-abfc-9c69dc28991f","ios":"levelo://app?vid=8f9992d7-44a5-49d8-abfc-9c69dc28991f"},"vehicle_type_id":"4","last_reported":1752095410,"current_range_meters":0,"station_id":"ce4bhbh2rcd13ifvqeo0","pricing_plan_id":"cebpf4jnsgd1na2vs0mg"},{"bike_id":"d962f4b7-9e0c-4ba5-acbd-52bfa5bc9933","system_id":"levelo_inurba_marseille","lat":43.24659,"lon":5.38153,"is_reserved":false,"is_disabled":true,"rental_uris":{"android":"levelo://app?vid=d962f4b7-9e0c-4ba5-acbd-52bfa5bc9933","ios":"levelo://app?vid=d962f4b7-9e0c-4ba5-acbd-52bfa5bc9933"},"vehicle_type_id":"4","last_reported":1752095410,"current_range_meters":0,"station_id":"ce4bhih2rcd13ifvqfr0","pricing_plan_id":"cebpf4jnsgd1na2vs0mg"},{"bike_id":"955f4e41-ddae-4a4d-8a18-744acb26c613","system_id":"levelo_inurba_marseille","lat":43.317184,"lon":5.423957,"is_reserved":false,"is_disabled":true,"rental_uris":{"android":"levelo://app?vid=955f4e41-ddae-4a4d-8a18-744acb26c613","ios":"levelo://app?vid=955f4e41-ddae-4a4d-8a18-744acb26c613"},"vehicle_type_id":"4","last_reported":1752095410,"current_range_meters":0,"station_id":"ce4bhp92rcd13ifvqhbg","pricing_plan_id":"cebpf4jnsgd1na2vs0mg"},{"bike_id":"e562ad4e-a577-4b7b-a74e-7e00b9c0f52f","system_id":"levelo_inurba_marseille","lat":43.225027,"lon":5.347812,"is_reserved":false,"is_disabled":true,"rental_uris":{"android":"levelo://app?vid=e562ad4e-a577-4b7b-a74e-7e00b9c0f52f","ios":"levelo://app?vid=e562ad4e-a577-4b7b-a74e-7e00b9c0f52f"},"vehicle_type_id":"4","last_reported":1752095410,"current_range_meters":0,"station_id":"st_cvj5dfep6f1abm77gieg","pricing_plan_id":"cebpf4jnsgd1na2vs0mg"},{"bike_id":"336eaf6b-6955-4ef9-8dfa-abf06b057d2c","system_id":"levelo_inurba_marseille","lat":43.21194,"lon":5.35071,"is_reserved":false,"is_disabled":true,"rental_uris":{"android":"levelo://app?vid=336eaf6b-6955-4ef9-8dfa-abf06b057d2c","ios":"levelo://app?vid=336eaf6b-6955-4ef9-8dfa-abf06b057d2c"},"vehicle_type_id":"4","last_reported":1752095410,"current_range_meters":0,"station_id":"st_cvj6sg6p6f1abm77japg","pricing_plan_id":"cebpf4jnsgd1na2vs0mg"},{"bike_id":"6661cbd2-6ba2-4b46-b15e-1188df0f29d7","system_id":"levelo_inurba_marseille","lat":43.21152,"lon":5.35098,"is_reserved":false,"is_disabled":true,"rental_uris":{"android":"levelo://app?vid=6661cbd2-6ba2-4b46-b15e-1188df0f29d7","ios":"levelo://app?vid=6661cbd2-6ba2-4b46-b15e-1188df0f29d7"},"vehicle_type_id":"4","last_reported":1752095410,"current_range_meters":0,"station_id":"st_cvj6sg6p6f1abm77japg","pricing_plan_id":"cebpf4jnsgd1na2vs0mg"},{"bike_id":"9dbe87cc-21c9-4b6c-952c-c09e35887f80","system_id":"levelo_inurba_marseille","lat":43.21741,"lon":5.34621,"is_reserved":false,"is_disabled":true,"rental_uris":{"android":"levelo://app?vid=9dbe87cc-21c9-4b6c-952c-c09e35887f80","ios":"levelo://app?vid=9dbe87cc-21c9-4b6c-952c-c09e35887f80"},"vehicle_type_id":"4","last_reported":1752095410,"current_range_meters":400,"station_id":"st_cvj6r9ubvosntc0bgbag","pricing_plan_id":"cebpf4jnsgd1na2vs0mg"},{"bike_id":"5745f131-cd4a-4ac9-bdc2-7385b3c3e0a5","system_id":"levelo_inurba_marseille","lat":43.21746,"lon":5.34616,"is_reserved":false,"is_disabled":true,"rental_uris":{"android":"levelo://app?vid=5745f131-cd4a-4ac9-bdc2-7385b3c3e0a5","ios":"levelo://app?vid=5745f131-cd4a-4ac9-bdc2-7385b3c3e0a5"},"vehicle_type_id":"4","last_reported":1752095410,"current_range_meters":400,"station_id":"st_cvj6r9ubvosntc0bgbag","pricing_plan_id":"cebpf4jnsgd1na2vs0mg"},{"bike_id":"2581b7c5-1b42-4417-a9e6-cbdbedb7a2dd","system_id":"levelo_inurba_marseille","lat":43.2174,"lon":5.34602,"is_reserved":false,"is_disabled":true,"rental_uris":{"android":"levelo://app?vid=2581b7c5-1b42-4417-a9e6-cbdbedb7a2dd","ios":"levelo://app?vid=2581b7c5-1b42-4417-a9e6-cbdbedb7a2dd"},"vehicle_type_id":"4","last_reported":1752095410,"current_range_meters":400,"station_id":"st_cvj6r9ubvosntc0bgbag","pricing_plan_id":"cebpf4jnsgd1na2vs0mg"},{"bike_id":"85060813-1fe2-4b15-a487-b77dd7d745e3","system_id":"levelo_inurba_marseille","lat":43.29921,"lon":5.3748,"is_reserved":false,"is_disabled":true,"rental_uris":{"android":"levelo://app?vid=85060813-1fe2-4b15-a487-b77dd7d745e3","ios":"levelo://app?vid=85060813-1fe2-4b15-a487-b77dd7d745e3"},"vehicle_type_id":"4","last_reported":1752095410,"current_range_meters":800,"station_id":"ce4bgjh2rcd13ifvqbg0","pricing_plan_id":"cebpf4jnsgd1na2vs0mg"},{"bike_id":"05228dc2-e90f-4d76-af39-85819f56a977","system_id":"levelo_inurba_marseille","lat":43.29405,"lon":5.3862,"is_reserved":false,"is_disabled":true,"rental_uris":{"android":"levelo://app?vid=05228dc2-e90f-4d76-af39-85819f56a977","ios":"levelo://app?vid=05228dc2-e90f-4d76-af39-85819f56a977"},"vehicle_type_id":"4","last_reported":1752095410,"current_range_meters":800,"station_id":"ce4bh2h2rcd13ifvqdh0","pricing_plan_id":"cebpf4jnsgd1na2vs0mg"},{"bike_id":"b8fcd1b8-e383-4c4c-a466-f8393a965939","system_id":"levelo_inurba_marseille","lat":43.217462,"lon":5.346002,"is_reserved":false,"is_disabled":true,"rental_uris":{"android":"levelo://app?vid=b8fcd1b8-e383-4c4c-a466-f8393a965939","ios":"levelo://app?vid=b8fcd1b8-e383-4c4c-a466-f8393a965939"},"vehicle_type_id":"4","last_reported":1752095410,"current_range_meters":1200,"station_id":"","pricing_plan_id":"cebpf4jnsgd1na2vs0mg"},{"bike_id":"37f2becd-23f9-4f13-a711-38b8024eeec7","system_id":"levelo_inurba_marseille","lat":43.33768,"lon":5.37516,"is_reserved":false,"is_disabled":true,"rental_uris":{"android":"levelo://app?vid=37f2becd-23f9-4f13-a711-38b8024eeec7","ios":"levelo://app?vid=37f2becd-23f9-4f13-a711-38b8024eeec7"},"vehicle_type_id":"4","last_reported":1752095410,"current_range_meters":1600,"station_id":"","pricing_plan_id":"cebpf4jnsgd1na2vs0mg"},{"bike_id":"5d01362d-7a99-4066-b2ed-0750b8e9df16","system_id":"levelo_inurba_marseille","lat":43.31328,"lon":5.39697,"is_reserved":false,"is_disabled":true,"rental_uris":{"android":"levelo://app?vid=5d01362d-7a99-4066-b2ed-0750b8e9df16","ios":"levelo://app?vid=5d01362d-7a99-4066-b2ed-0750b8e9df16"},"vehicle_type_id":"4","last_reported":1752095410,"current_range_meters":1600,"station_id":"ce4bgvp2rcd13ifvqcu0","pricing_plan_id":"cebpf4jnsgd1na2vs0mg"},{"bike_id":"dd5846d2-4f7e-4bba-a47d-6e25252f831c","system_id":"levelo_inurba_marseille","lat":43.29028,"lon":5.38651,"is_reserved":false,"is_disabled":true,"rental_uris":{"android":"levelo://app?vid=dd5846d2-4f7e-4bba-a47d-6e25252f831c","ios":"levelo://app?vid=dd5846d2-4f7e-4bba-a47d-6e25252f831c"},"vehicle_type_id":"4","last_reported":1752095410,"current_range_meters":1600,"station_id":"ce4bh4p2rcd13ifvqe0g","pricing_plan_id":"cebpf4jnsgd1na2vs0mg"},{"bike_id":"2c423baa-ecca-420a-87d7-ad0b7e0b9ebb","system_id":"levelo_inurba_marseille","lat":43.280467,"lon":5.353541,"is_reserved":false,"is_disabled":false,"rental_uris":{"android":"levelo://app?vid=2c423baa-ecca-420a-87d7-ad0b7e0b9ebb","ios":"levelo://app?vid=2c423baa-ecca-420a-87d7-ad0b7e0b9ebb"},"vehicle_type_id":"4","last_reported":1752095410,"current_range_meters":2800,"station_id":"","pricing_plan_id":"cebpf4jnsgd1na2vs0mg"},{"bike_id":"f6ff5e9f-f252-47e7-81d8-f4354e4a5ca8","system_id":"levelo_inurba_marseille","lat":43.32043,"lon":5.4155,"is_reserved":false,"is_disabled":false,"rental_uris":{"android":"levelo://app?vid=f6ff5e9f-f252-47e7-81d8-f4354e4a5ca8","ios":"levelo://app?vid=f6ff5e9f-f252-47e7-81d8-f4354e4a5ca8"},"vehicle_type_id":"4","last_reported":1752095410,"current_range_meters":2800,"station_id":"ce4bhq92rcd13ifvqhkg","pricing_plan_id":"cebpf4jnsgd1na2vs0mg"},{"bike_id":"1ea07c30-7637-4836-8280-b70950b610b5","system_id":"levelo_inurba_marseille","lat":43.22493,"lon":5.34806,"is_reserved":false,"is_disabled":false,"rental_uris":{"android":"levelo://app?vid=1ea07c30-7637-4836-8280-b70950b610b5","ios":"levelo://app?vid=1ea07c30-7637-4836-8280-b70950b610b5"},"vehicle_type_id":"4","last_reported":1752095410,"current_range_meters":2800,"station_id":"st_cvj5dfep6f1abm77gieg","pricing_plan_id":"cebpf4jnsgd1na2vs0mg"},{"bike_id":"5ac26d50-a7c0-4085-b60b-08426fad6a5b","system_id":"levelo_inurba_marseille","lat":43.28858,"lon":5.393,"is_reserved":false,"is_disabled":false,"rental_uris":{"android":"levelo://app?vid=5ac26d50-a7c0-4085-b60b-08426fad6a5b","ios":"levelo://app?vid=5ac26d50-a7c0-4085-b60b-08426fad6a5b"},"vehicle_type_id":"4","last_reported":1752095410,"current_range_meters":3200,"station_id":"ce4bh2p2rcd13ifvqdi0","pricing_plan_id":"cebpf4jnsgd1na2vs0mg"},{"bike_id":"84da73e1-3873-4139-a748-621cc105f699","system_id":"levelo_inurba_marseille","lat":43.26013,"lon":5.37561,"is_reserved":false,"is_disabled":false,"rental_uris":{"android":"levelo://app?vid=84da73e1-3873-4139-a748-621cc105f699","ios":"levelo://app?vid=84da73e1-3873-4139-a748-621cc105f699"},"vehicle_type_id":"4","last_reported":1752095410,"current_range_meters":3200,"station_id":"ce4bhgh2rcd13ifvqfa0","pricing_plan_id":"cebpf4jnsgd1na2vs0mg"},{"bike_id":"02f2e955-a796-44cd-aec5-81e81d910632","system_id":"levelo_inurba_marseille","lat":43.26953,"lon":5.38627,"is_reserved":false,"is_disabled":false,"rental_uris":{"android":"levelo://app?vid=02f2e955-a796-44cd-aec5-81e81d910632","ios":"levelo://app?vid=02f2e955-a796-44cd-aec5-81e81d910632"},"vehicle_type_id":"4","last_reported":1752095410,"current_range_meters":3200,"station_id":"ce4bhh92rcd13ifvqfh0","pricing_plan_id":"cebpf4jnsgd1na2vs0mg"},{"bike_id":"902bb6a3-5277-4be3-9c08-b892b8899af5","system_id":"levelo_inurba_marseille","lat":43.3093,"lon":5.40146,"is_reserved":false,"is_disabled":false,"rental_uris":{"android":"levelo://app?vid=902bb6a3-5277-4be3-9c08-b892b8899af5","ios":"levelo://app?vid=902bb6a3-5277-4be3-9c08-b892b8899af5"},"vehicle_type_id":"4","last_reported":1752095410,"current_range_meters":3600,"station_id":"ce4bgvp2rcd13ifvqct0","pricing_plan_id":"cebpf4jnsgd1na2vs0mg"},{"bike_id":"58bfa55e-8ea2-4d22-9253-fbce01478825","system_id":"levelo_inurba_marseille","lat":43.29876,"lon":5.38911,"is_reserved":false,"is_disabled":false,"rental_uris":{"android":"levelo://app?vid=58bfa55e-8ea2-4d22-9253-fbce01478825","ios":"levelo://app?vid=58bfa55e-8ea2-4d22-9253-fbce01478825"},"vehicle_type_id":"4","last_reported":1752095410,"current_range_meters":3600,"station_id":"ce4bh392rcd13ifvqdl0","pricing_plan_id":"cebpf4jnsgd1na2vs0mg"},{"bike_id":"87fecc17-fbcb-4450-aa7c-644e7964e777","system_id":"levelo_inurba_marseille","lat":43.28698,"lon":5.37393,"is_reserved":false,"is_disabled":false,"rental_uris":{"android":"levelo://app?vid=87fecc17-fbcb-4450-aa7c-644e7964e777","ios":"levelo://app?vid=87fecc17-fbcb-4450-aa7c-644e7964e777"},"vehicle_type_id":"4","last_reported":1752095410,"current_range_meters":3600,"station_id":"ce4bh3p2rcd13ifvqdq0","pricing_plan_id":"cebpf4jnsgd1na2vs0mg"},{"bike_id":"cb41bcbd-117a-457f-a762-2fbc4fbfa1d7","system_id":"levelo_inurba_marseille","lat":43.30651,"lon":5.40098,"is_reserved":false,"is_disabled":false,"rental_uris":{"android":"levelo://app?vid=cb41bcbd-117a-457f-a762-2fbc4fbfa1d7","ios":"levelo://app?vid=cb41bcbd-117a-457f-a762-2fbc4fbfa1d7"},"vehicle_type_id":"4","last_reported":1752095410,"current_range_meters":4000,"station_id":"ce4bh112rcd13ifvqda0","pricing_plan_id":"cebpf4jnsgd1na2vs0mg"},{"bike_id":"db841109-9b56-4777-86e2-06fbf4ef1649","system_id":"levelo_inurba_marseille","lat":43.31111,"lon":5.3974,"is_reserved":false,"is_disabled":false,"rental_uris":{"android":"levelo://app?vid=db841109-9b56-4777-86e2-06fbf4ef1649","ios":"levelo://app?vid=db841109-9b56-4777-86e2-06fbf4ef1649"},"vehicle_type_id":"4","last_reported":1752095410,"current_range_meters":4400,"station_id":"","pricing_plan_id":"cebpf4jnsgd1na2vs0mg"},{"bike_id":"dee4b762-6c67-4145-93c0-7fdbf0df202d","system_id":"levelo_inurba_marseille","lat":43.295319,"lon":5.385479,"is_reserved":false,"is_disabled":false,"rental_uris":{"android":"levelo://app?vid=dee4b762-6c67-4145-93c0-7fdbf0df202d","ios":"levelo://app?vid=dee4b762-6c67-4145-93c0-7fdbf0df202d"},"vehicle_type_id":"4","last_reported":1752095410,"current_range_meters":4400,"station_id":"ce4bgih2rcd13ifvqba0","pricing_plan_id":"cebpf4jnsgd1na2vs0mg"},{"bike_id":"0c8f92f0-34dd-4528-ac9a-218976babbcb","system_id":"levelo_inurba_marseille","lat":43.297057,"lon":5.376893,"is_reserved":false,"is_disabled":false,"rental_uris":{"android":"levelo://app?vid=0c8f92f0-34dd-4528-ac9a-218976babbcb","ios":"levelo://app?vid=0c8f92f0-34dd-4528-ac9a-218976babbcb"},"vehicle_type_id":"4","last_reported":1752095410,"current_range_meters":4400,"station_id":"ce4bgkh2rcd13ifvqbl0","pricing_plan_id":"cebpf4jnsgd1na2vs0mg"},{"bike_id":"1f8d8614-10f3-47e7-97a8-c5334e5a81d4","system_id":"levelo_inurba_marseille","lat":43.30616,"lon":5.37214,"is_reserved":false,"is_disabled":false,"rental_uris":{"android":"levelo://app?vid=1f8d8614-10f3-47e7-97a8-c5334e5a81d4","ios":"levelo://app?vid=1f8d8614-10f3-47e7-97a8-c5334e5a81d4"},"vehicle_type_id":"4","last_reported":1752095410,"current_range_meters":4400,"station_id":"ce4bgqh2rcd13ifvqc4g","pricing_plan_id":"cebpf4jnsgd1na2vs0mg"},{"bike_id":"97c02774-7e27-43cc-bf25-06f07cb3ddcd","system_id":"levelo_inurba_marseille","lat":43.29554,"lon":5.42295,"is_reserved":false,"is_disabled":false,"rental_uris":{"android":"levelo://app?vid=97c02774-7e27-43cc-bf25-06f07cb3ddcd","ios":"levelo://app?vid=97c02774-7e27-43cc-bf25-06f07cb3ddcd"},"vehicle_type_id":"4","last_reported":1752095410,"current_range_meters":4400,"station_id":"ce4bhph2rcd13ifvqhdg","pricing_plan_id":"cebpf4jnsgd1na2vs0mg"},{"bike_id":"fca36586-b47e-44a2-a5d4-56610b4dd395","system_id":"levelo_inurba_marseille","lat":43.29854,"lon":5.36282,"is_reserved":false,"is_disabled":false,"rental_uris":{"android":"levelo://app?vid=fca36586-b47e-44a2-a5d4-56610b4dd395","ios":"levelo://app?vid=fca36586-b47e-44a2-a5d4-56610b4dd395"},"vehicle_type_id":"4","last_reported":1752095410,"current_range_meters":4800,"station_id":"ce4bgpp2rcd13ifvqc3g","pricing_plan_id":"cebpf4jnsgd1na2vs0mg"},{"bike_id":"21125524-0161-4962-a15f-7df1d7a02f0f","system_id":"levelo_inurba_marseille","lat":43.29053,"lon":5.37155,"is_reserved":false,"is_disabled":false,"rental_uris":{"android":"levelo://app?vid=21125524-0161-4962-a15f-7df1d7a02f0f","ios":"levelo://app?vid=21125524-0161-4962-a15f-7df1d7a02f0f"},"vehicle_type_id":"4","last_reported":1752095410,"current_range_meters":4800,"station_id":"ce4bh5p2rcd13ifvqe4g","pricing_plan_id":"cebpf4jnsgd1na2vs0mg"},{"bike_id":"99af3537-d259-4f22-89c1-efc815f15c8f","system_id":"levelo_inurba_marseille","lat":43.28401,"lon":5.37523,"is_reserved":false,"is_disabled":false,"rental_uris":{"android":"levelo://app?vid=99af3537-d259-4f22-89c1-efc815f15c8f","ios":"levelo://app?vid=99af3537-d259-4f22-89c1-efc815f15c8f"},"vehicle_type_id":"4","last_reported":1752095410,"current_range_meters":5600,"station_id":"ce4bh412rcd13ifvqds0","pricing_plan_id":"cebpf4jnsgd1na2vs0mg"},{"bike_id":"0a03cb19-96f3-460f-bd30-1f854ab2603d","system_id":"levelo_inurba_marseille","lat":43.28976,"lon":5.37841,"is_reserved":false,"is_disabled":false,"rental_uris":{"android":"levelo://app?vid=0a03cb19-96f3-460f-bd30-1f854ab2603d","ios":"levelo://app?vid=0a03cb19-96f3-460f-bd30-1f854ab2603d"},"vehicle_type_id":"4","last_reported":1752095410,"current_range_meters":5600,"station_id":"ce4bh9p2rcd13ifvqed0","pricing_plan_id":"cebpf4jnsgd1na2vs0mg"},{"bike_id":"888522e3-39b6-4ff3-ad74-ff6c6f771157","system_id":"levelo_inurba_marseille","lat":43.29502,"lon":5.402598,"is_reserved":false,"is_disabled":false,"rental_uris":{"android":"levelo://app?vid=888522e3-39b6-4ff3-ad74-ff6c6f771157","ios":"levelo://app?vid=888522e3-39b6-4ff3-ad74-ff6c6f771157"},"vehicle_type_id":"4","last_reported":1752095410,"current_range_meters":6400,"station_id":"","pricing_plan_id":"cebpf4jnsgd1na2vs0mg"},{"bike_id":"bc4a1a28-16f8-41a1-b322-37f6bb95006a","system_id":"levelo_inurba_marseille","lat":43.3108,"lon":5.38352,"is_reserved":false,"is_disabled":false,"rental_uris":{"android":"levelo://app?vid=bc4a1a28-16f8-41a1-b322-37f6bb95006a","ios":"levelo://app?vid=bc4a1a28-16f8-41a1-b322-37f6bb95006a"},"vehicle_type_id":"4","last_reported":1752095410,"current_range_meters":6400,"station_id":"ce4bgv92rcd13ifvqcr0","pricing_plan_id":"cebpf4jnsgd1na2vs0mg"},{"bike_id":"4a2a471f-7f62-4194-b6c3-815225413dd0","system_id":"levelo_inurba_marseille","lat":43.30934,"lon":5.4014,"is_reserved":false,"is_disabled":false,"rental_uris":{"android":"levelo://app?vid=4a2a471f-7f62-4194-b6c3-815225413dd0","ios":"levelo://app?vid=4a2a471f-7f62-4194-b6c3-815225413dd0"},"vehicle_type_id":"4","last_reported":1752095410,"current_range_meters":6400,"station_id":"ce4bgvp2rcd13ifvqct0","pricing_plan_id":"cebpf4jnsgd1na2vs0mg"},{"bike_id":"97b636d4-ce76-4469-91f2-cb71a35c75e9","system_id":"levelo_inurba_marseille","lat":43.29524,"lon":5.38689,"is_reserved":false,"is_disabled":false,"rental_uris":{"android":"levelo://app?vid=97b636d4-ce76-4469-91f2-cb71a35c75e9","ios":"levelo://app?vid=97b636d4-ce76-4469-91f2-cb71a35c75e9"},"vehicle_type_id":"4","last_reported":1752095410,"current_range_meters":7200,"station_id":"","pricing_plan_id":"cebpf4jnsgd1na2vs0mg"},{"bike_id":"a2d5c37e-7001-40cb-91c7-5759728b1daf","system_id":"levelo_inurba_marseille","lat":43.29061,"lon":5.3591,"is_reserved":false,"is_disabled":false,"rental_uris":{"android":"levelo://app?vid=a2d5c37e-7001-40cb-91c7-5759728b1daf","ios":"levelo://app?vid=a2d5c37e-7001-40cb-91c7-5759728b1daf"},"vehicle_type_id":"4","last_reported":1752095410,"current_range_meters":7200,"station_id":"ce4bha92rcd13ifvqeg0","pricing_plan_id":"cebpf4jnsgd1na2vs0mg"},{"bike_id":"ae8df473-8611-4bf9-a770-1ba66f8d9b41","system_id":"levelo_inurba_marseille","lat":43.2895,"lon":5.36393,"is_reserved":false,"is_disabled":false,"rental_uris":{"android":"levelo://app?vid=ae8df473-8611-4bf9-a770-1ba66f8d9b41","ios":"levelo://app?vid=ae8df473-8611-4bf9-a770-1ba66f8d9b41"},"vehicle_type_id":"4","last_reported":1752095410,"current_range_meters":7200,"station_id":"ce4bhc92rcd13ifvqetg","pricing_plan_id":"cebpf4jnsgd1na2vs0mg"},{"bike_id":"27863eed-4ab6-462b-8b0d-c44b06012e47","system_id":"levelo_inurba_marseille","lat":43.30375,"lon":5.4249,"is_reserved":false,"is_disabled":false,"rental_uris":{"android":"levelo://app?vid=27863eed-4ab6-462b-8b0d-c44b06012e47","ios":"levelo://app?vid=27863eed-4ab6-462b-8b0d-c44b06012e47"},"vehicle_type_id":"4","last_reported":1752095410,"current_range_meters":7200,"station_id":"ce4bhoh2rcd13ifvqh6g","pricing_plan_id":"cebpf4jnsgd1na2vs0mg"},{"bike_id":"cd933a3e-a323-4434-aac5-d3f28f8e7239","system_id":"levelo_inurba_marseille","lat":43.30435,"lon":5.38894,"is_reserved":false,"is_disabled":false,"rental_uris":{"android":"levelo://app?vid=cd933a3e-a323-4434-aac5-d3f28f8e7239","ios":"levelo://app?vid=cd933a3e-a323-4434-aac5-d3f28f8e7239"},"vehicle_type_id":"4","last_reported":1752095410,"current_range_meters":8000,"station_id":"ce4bgk12rcd13ifvqbi0","pricing_plan_id":"cebpf4jnsgd1na2vs0mg"},{"bike_id":"aca98157-347b-4d7b-a05e-9da97d39871f","system_id":"levelo_inurba_marseille","lat":43.29997,"lon":5.3718,"is_reserved":false,"is_disabled":false,"rental_uris":{"android":"levelo://app?vid=aca98157-347b-4d7b-a05e-9da97d39871f","ios":"levelo://app?vid=aca98157-347b-4d7b-a05e-9da97d39871f"},"vehicle_type_id":"4","last_reported":1752095410,"current_range_meters":8000,"station_id":"ce4bgr92rcd13ifvqc7g","pricing_plan_id":"cebpf4jnsgd1na2vs0mg"},{"bike_id":"3cbbc190-3583-4355-a080-0eab3f48c80e","system_id":"levelo_inurba_marseille","lat":43.298758,"lon":5.389072,"is_reserved":false,"is_disabled":false,"rental_uris":{"android":"levelo://app?vid=3cbbc190-3583-4355-a080-0eab3f48c80e","ios":"levelo://app?vid=3cbbc190-3583-4355-a080-0eab3f48c80e"},"vehicle_type_id":"4","last_reported":1752095410,"current_range_meters":8000,"station_id":"ce4bh392rcd13ifvqdl0","pricing_plan_id":"cebpf4jnsgd1na2vs0mg"},{"bike_id":"0724b404-0d5a-4ee6-a203-8083dcaffb04","system_id":"levelo_inurba_marseille","lat":43.29036,"lon":5.38128,"is_reserved":false,"is_disabled":false,"rental_uris":{"android":"levelo://app?vid=0724b404-0d5a-4ee6-a203-8083dcaffb04","ios":"levelo://app?vid=0724b404-0d5a-4ee6-a203-8083dcaffb04"},"vehicle_type_id":"4","last_reported":1752095410,"current_range_meters":8000,"station_id":"ce4bh4p2rcd13ifvqe1g","pricing_plan_id":"cebpf4jnsgd1na2vs0mg"},{"bike_id":"dd14954e-1ad0-460b-9807-35a4103e2c03","system_id":"levelo_inurba_marseille","lat":43.24999,"lon":5.38932,"is_reserved":false,"is_disabled":false,"rental_uris":{"android":"levelo://app?vid=dd14954e-1ad0-460b-9807-35a4103e2c03","ios":"levelo://app?vid=dd14954e-1ad0-460b-9807-35a4103e2c03"},"vehicle_type_id":"4","last_reported":1752095410,"current_range_meters":8000,"station_id":"ce4bhgp2rcd13ifvqfd0","pricing_plan_id":"cebpf4jnsgd1na2vs0mg"},{"bike_id":"3217543c-7fda-4655-84ac-4912430ca273","system_id":"levelo_inurba_marseille","lat":43.30533,"lon":5.38428,"is_reserved":false,"is_disabled":false,"rental_uris":{"android":"levelo://app?vid=3217543c-7fda-4655-84ac-4912430ca273","ios":"levelo://app?vid=3217543c-7fda-4655-84ac-4912430ca273"},"vehicle_type_id":"4","last_reported":1752095410,"current_range_meters":8400,"station_id":"ce4bgg92rcd13ifvqb30","pricing_plan_id":"cebpf4jnsgd1na2vs0mg"},{"bike_id":"67728b74-dea6-4280-b7d7-1c3ec873034a","system_id":"levelo_inurba_marseille","lat":43.30541,"lon":5.38429,"is_reserved":false,"is_disabled":false,"rental_uris":{"android":"levelo://app?vid=67728b74-dea6-4280-b7d7-1c3ec873034a","ios":"levelo://app?vid=67728b74-dea6-4280-b7d7-1c3ec873034a"},"vehicle_type_id":"4","last_reported":1752095410,"current_range_meters":8400,"station_id":"ce4bgg92rcd13ifvqb30","pricing_plan_id":"cebpf4jnsgd1na2vs0mg"},{"bike_id":"fc42b13f-6006-447b-8f9d-bd3fe486c379","system_id":"levelo_inurba_marseille","lat":43.31269,"lon":5.40173,"is_reserved":false,"is_disabled":false,"rental_uris":{"android":"levelo://app?vid=fc42b13f-6006-447b-8f9d-bd3fe486c379","ios":"levelo://app?vid=fc42b13f-6006-447b-8f9d-bd3fe486c379"},"vehicle_type_id":"4","last_reported":1752095410,"current_range_meters":8400,"station_id":"ce4bh092rcd13ifvqd30","pricing_plan_id":"cebpf4jnsgd1na2vs0mg"},{"bike_id":"31b87685-a5aa-4de8-a4cd-8cb23327e47e","system_id":"levelo_inurba_marseille","lat":43.30591,"lon":5.39355,"is_reserved":false,"is_disabled":false,"rental_uris":{"android":"levelo://app?vid=31b87685-a5aa-4de8-a4cd-8cb23327e47e","ios":"levelo://app?vid=31b87685-a5aa-4de8-a4cd-8cb23327e47e"},"vehicle_type_id":"4","last_reported":1752095410,"current_range_meters":8400,"station_id":"ce4bh0p2rcd13ifvqd80","pricing_plan_id":"cebpf4jnsgd1na2vs0mg"},{"bike_id":"e08991a4-0108-43e9-91a3-ab1dd62bce53","system_id":"levelo_inurba_marseille","lat":43.28725,"lon":5.36097,"is_reserved":false,"is_disabled":false,"rental_uris":{"android":"levelo://app?vid=e08991a4-0108-43e9-91a3-ab1dd62bce53","ios":"levelo://app?vid=e08991a4-0108-43e9-91a3-ab1dd62bce53"},"vehicle_type_id":"4","last_reported":1752095410,"current_range_meters":8400,"station_id":"cki0cbj6b192h4jlfktg","pricing_plan_id":"cebpf4jnsgd1na2vs0mg"},{"bike_id":"3030cb07-c041-4d87-a253-8c849c24aa85","system_id":"levelo_inurba_marseille","lat":43.32651,"lon":5.36249,"is_reserved":false,"is_disabled":false,"rental_uris":{"android":"levelo://app?vid=3030cb07-c041-4d87-a253-8c849c24aa85","ios":"levelo://app?vid=3030cb07-c041-4d87-a253-8c849c24aa85"},"vehicle_type_id":"4","last_reported":1752095410,"current_range_meters":8800,"station_id":"","pricing_plan_id":"cebpf4jnsgd1na2vs0mg"},{"bike_id":"3c8da22d-59fa-4699-abbd-5fd838336330","system_id":"levelo_inurba_marseille","lat":43.29617,"lon":5.38103,"is_reserved":false,"is_disabled":false,"rental_uris":{"android":"levelo://app?vid=3c8da22d-59fa-4699-abbd-5fd838336330","ios":"levelo://app?vid=3c8da22d-59fa-4699-abbd-5fd838336330"},"vehicle_type_id":"4","last_reported":1752095410,"current_range_meters":8800,"station_id":"ce4bgl12rcd13ifvqbo0","pricing_plan_id":"cebpf4jnsgd1na2vs0mg"},{"bike_id":"4fed6f59-e7c4-4cac-811d-6c6fa544a8b2","system_id":"levelo_inurba_marseille","lat":43.30602,"lon":5.39363,"is_reserved":false,"is_disabled":false,"rental_uris":{"android":"levelo://app?vid=4fed6f59-e7c4-4cac-811d-6c6fa544a8b2","ios":"levelo://app?vid=4fed6f59-e7c4-4cac-811d-6c6fa544a8b2"},"vehicle_type_id":"4","last_reported":1752095410,"current_range_meters":8800,"station_id":"ce4bh0p2rcd13ifvqd80","pricing_plan_id":"cebpf4jnsgd1na2vs0mg"},{"bike_id":"4faa2083-1720-4eca-925b-ab81eeb5cb8e","system_id":"levelo_inurba_marseille","lat":43.28355,"lon":5.38108,"is_reserved":false,"is_disabled":false,"rental_uris":{"android":"levelo://app?vid=4faa2083-1720-4eca-925b-ab81eeb5cb8e","ios":"levelo://app?vid=4faa2083-1720-4eca-925b-ab81eeb5cb8e"},"vehicle_type_id":"4","last_reported":1752095410,"current_range_meters":8800,"station_id":"ce4bh412rcd13ifvqdr0","pricing_plan_id":"cebpf4jnsgd1na2vs0mg"},{"bike_id":"5be1d985-cb95-4d3b-a698-4dea864d907b","system_id":"levelo_inurba_marseille","lat":43.28437,"lon":5.39179,"is_reserved":false,"is_disabled":false,"rental_uris":{"android":"levelo://app?vid=5be1d985-cb95-4d3b-a698-4dea864d907b","ios":"levelo://app?vid=5be1d985-cb95-4d3b-a698-4dea864d907b"},"vehicle_type_id":"4","last_reported":1752095410,"current_range_meters":8800,"station_id":"ce4bhoh2rcd13ifvqh5g","pricing_plan_id":"cebpf4jnsgd1na2vs0mg"},{"bike_id":"d711b587-f8ad-4f24-93ca-5f89e8aac7f3","system_id":"levelo_inurba_marseille","lat":43.24163,"lon":5.36393,"is_reserved":false,"is_disabled":false,"rental_uris":{"android":"levelo://app?vid=d711b587-f8ad-4f24-93ca-5f89e8aac7f3","ios":"levelo://app?vid=d711b587-f8ad-4f24-93ca-5f89e8aac7f3"},"vehicle_type_id":"4","last_reported":1752095410,"current_range_meters":9200,"station_id":"cpo36qri1sfpv3e86is0","pricing_plan_id":"cebpf4jnsgd1na2vs0mg"},{"bike_id":"8818467c-74ab-4a70-b92b-5f5b8e985b44","system_id":"levelo_inurba_marseille","lat":43.3112,"lon":5.37769,"is_reserved":false,"is_disabled":false,"rental_uris":{"android":"levelo://app?vid=8818467c-74ab-4a70-b92b-5f5b8e985b44","ios":"levelo://app?vid=8818467c-74ab-4a70-b92b-5f5b8e985b44"},"vehicle_type_id":"4","last_reported":1752095410,"current_range_meters":9600,"station_id":"ce4bgt92rcd13ifvqcg0","pricing_plan_id":"cebpf4jnsgd1na2vs0mg"},{"bike_id":"b8254fb0-e608-4e0c-8b5e-38959f2491a4","system_id":"levelo_inurba_marseille","lat":43.29258,"lon":5.38438,"is_reserved":false,"is_disabled":false,"rental_uris":{"android":"levelo://app?vid=b8254fb0-e608-4e0c-8b5e-38959f2491a4","ios":"levelo://app?vid=b8254fb0-e608-4e0c-8b5e-38959f2491a4"},"vehicle_type_id":"4","last_reported":1752095410,"current_range_meters":9600,"station_id":"ce4bh692rcd13ifvqea0","pricing_plan_id":"cebpf4jnsgd1na2vs0mg"},{"bike_id":"cd3ed53a-205d-4d6d-b147-55a34c025218","system_id":"levelo_inurba_marseille","lat":43.278165,"lon":5.40717,"is_reserved":false,"is_disabled":false,"rental_uris":{"android":"levelo://app?vid=cd3ed53a-205d-4d6d-b147-55a34c025218","ios":"levelo://app?vid=cd3ed53a-205d-4d6d-b147-55a34c025218"},"vehicle_type_id":"4","last_reported":1752095410,"current_range_meters":9600,"station_id":"ce4bhnh2rcd13ifvqgtg","pricing_plan_id":"cebpf4jnsgd1na2vs0mg"},{"bike_id":"0877d112-bd69-4474-afe8-a571c1bae836","system_id":"levelo_inurba_marseille","lat":43.2886,"lon":5.39313,"is_reserved":false,"is_disabled":false,"rental_uris":{"android":"levelo://app?vid=0877d112-bd69-4474-afe8-a571c1bae836","ios":"levelo://app?vid=0877d112-bd69-4474-afe8-a571c1bae836"},"vehicle_type_id":"4","last_reported":1752095410,"current_range_meters":10000,"station_id":"ce4bh2p2rcd13ifvqdi0","pricing_plan_id":"cebpf4jnsgd1na2vs0mg"},{"bike_id":"36e76314-fa80-4485-b447-fece7dc5466f","system_id":"levelo_inurba_marseille","lat":43.29009,"lon":5.38627,"is_reserved":false,"is_disabled":false,"rental_uris":{"android":"levelo://app?vid=36e76314-fa80-4485-b447-fece7dc5466f","ios":"levelo://app?vid=36e76314-fa80-4485-b447-fece7dc5466f"},"vehicle_type_id":"4","last_reported":1752095410,"current_range_meters":10000,"station_id":"ce4bh4p2rcd13ifvqe0g","pricing_plan_id":"cebpf4jnsgd1na2vs0mg"},{"bike_id":"8a9112e1-77cd-4172-8244-b76f2ce1dea0","system_id":"levelo_inurba_marseille","lat":43.29266,"lon":5.38443,"is_reserved":false,"is_disabled":false,"rental_uris":{"android":"levelo://app?vid=8a9112e1-77cd-4172-8244-b76f2ce1dea0","ios":"levelo://app?vid=8a9112e1-77cd-4172-8244-b76f2ce1dea0"},"vehicle_type_id":"4","last_reported":1752095410,"current_range_meters":10000,"station_id":"ce4bh692rcd13ifvqea0","pricing_plan_id":"cebpf4jnsgd1na2vs0mg"},{"bike_id":"e89b44ce-f97e-4aca-932e-73b5070d91c0","system_id":"levelo_inurba_marseille","lat":43.295968,"lon":5.381022,"is_reserved":false,"is_disabled":false,"rental_uris":{"android":"levelo://app?vid=e89b44ce-f97e-4aca-932e-73b5070d91c0","ios":"levelo://app?vid=e89b44ce-f97e-4aca-932e-73b5070d91c0"},"vehicle_type_id":"4","last_reported":1752095410,"current_range_meters":10800,"station_id":"ce4bgl12rcd13ifvqbo0","pricing_plan_id":"cebpf4jnsgd1na2vs0mg"},{"bike_id":"7f84eb8c-904c-40fa-aa57-f9874689d928","system_id":"levelo_inurba_marseille","lat":43.29585,"lon":5.36732,"is_reserved":false,"is_disabled":false,"rental_uris":{"android":"levelo://app?vid=7f84eb8c-904c-40fa-aa57-f9874689d928","ios":"levelo://app?vid=7f84eb8c-904c-40fa-aa57-f9874689d928"},"vehicle_type_id":"4","last_reported":1752095410,"current_range_meters":10800,"station_id":"ce4bgph2rcd13ifvqc2g","pricing_plan_id":"cebpf4jnsgd1na2vs0mg"},{"bike_id":"224fa2b5-0e42-4d65-acb1-5fbe17540817","system_id":"levelo_inurba_marseille","lat":43.27973,"lon":5.38746,"is_reserved":false,"is_disabled":false,"rental_uris":{"android":"levelo://app?vid=224fa2b5-0e42-4d65-acb1-5fbe17540817","ios":"levelo://app?vid=224fa2b5-0e42-4d65-acb1-5fbe17540817"},"vehicle_type_id":"4","last_reported":1752095410,"current_range_meters":10800,"station_id":"ce4bhg12rcd13ifvqf80","pricing_plan_id":"cebpf4jnsgd1na2vs0mg"},{"bike_id":"84e7e709-4e4f-4764-818c-af719435bfca","system_id":"levelo_inurba_marseille","lat":43.31954,"lon":5.37291,"is_reserved":false,"is_disabled":false,"rental_uris":{"android":"levelo://app?vid=84e7e709-4e4f-4764-818c-af719435bfca","ios":"levelo://app?vid=84e7e709-4e4f-4764-818c-af719435bfca"},"vehicle_type_id":"4","last_reported":1752095410,"current_range_meters":11200,"station_id":"","pricing_plan_id":"cebpf4jnsgd1na2vs0mg"},{"bike_id":"ba646211-9321-4442-aedd-d37664444ee3","system_id":"levelo_inurba_marseille","lat":43.29848,"lon":5.36273,"is_reserved":false,"is_disabled":false,"rental_uris":{"android":"levelo://app?vid=ba646211-9321-4442-aedd-d37664444ee3","ios":"levelo://app?vid=ba646211-9321-4442-aedd-d37664444ee3"},"vehicle_type_id":"4","last_reported":1752095410,"current_range_meters":11200,"station_id":"ce4bgpp2rcd13ifvqc3g","pricing_plan_id":"cebpf4jnsgd1na2vs0mg"},{"bike_id":"0193fcd6-5c49-4735-96b7-8bb29f2b4818","system_id":"levelo_inurba_marseille","lat":43.29856,"lon":5.3629,"is_reserved":false,"is_disabled":false,"rental_uris":{"android":"levelo://app?vid=0193fcd6-5c49-4735-96b7-8bb29f2b4818","ios":"levelo://app?vid=0193fcd6-5c49-4735-96b7-8bb29f2b4818"},"vehicle_type_id":"4","last_reported":1752095410,"current_range_meters":11200,"station_id":"ce4bgpp2rcd13ifvqc3g","pricing_plan_id":"cebpf4jnsgd1na2vs0mg"},{"bike_id":"86b9b08b-1620-4bce-b388-6a966eb11cb3","system_id":"levelo_inurba_marseille","lat":43.24809,"lon":5.37482,"is_reserved":false,"is_disabled":false,"rental_uris":{"android":"levelo://app?vid=86b9b08b-1620-4bce-b388-6a966eb11cb3","ios":"levelo://app?vid=86b9b08b-1620-4bce-b388-6a966eb11cb3"},"vehicle_type_id":"4","last_reported":1752095410,"current_range_meters":11200,"station_id":"ce4bhgh2rcd13ifvqfb0","pricing_plan_id":"cebpf4jnsgd1na2vs0mg"},{"bike_id":"b03698a4-2414-4a6a-8a8e-7a3066d44e1c","system_id":"levelo_inurba_marseille","lat":43.2602,"lon":5.41742,"is_reserved":false,"is_disabled":false,"rental_uris":{"android":"levelo://app?vid=b03698a4-2414-4a6a-8a8e-7a3066d44e1c","ios":"levelo://app?vid=b03698a4-2414-4a6a-8a8e-7a3066d44e1c"},"vehicle_type_id":"4","last_reported":1752095410,"current_range_meters":11600,"station_id":"","pricing_plan_id":"cebpf4jnsgd1na2vs0mg"},{"bike_id":"f573a8fb-f1f8-47c4-901e-ddf2739a5cca","system_id":"levelo_inurba_marseille","lat":43.36009,"lon":5.32489,"is_reserved":false,"is_disabled":false,"rental_uris":{"android":"levelo://app?vid=f573a8fb-f1f8-47c4-901e-ddf2739a5cca","ios":"levelo://app?vid=f573a8fb-f1f8-47c4-901e-ddf2739a5cca"},"vehicle_type_id":"4","last_reported":1752095410,"current_range_meters":11600,"station_id":"","pricing_plan_id":"cebpf4jnsgd1na2vs0mg"},{"bike_id":"326bc014-ed5c-4170-8f5f-7a935fa9a6d5","system_id":"levelo_inurba_marseille","lat":43.30226,"lon":5.40034,"is_reserved":false,"is_disabled":false,"rental_uris":{"android":"levelo://app?vid=326bc014-ed5c-4170-8f5f-7a935fa9a6d5","ios":"levelo://app?vid=326bc014-ed5c-4170-8f5f-7a935fa9a6d5"},"vehicle_type_id":"4","last_reported":1752095410,"current_range_meters":11600,"station_id":"ce4bgvh2rcd13ifvqcs0","pricing_plan_id":"cebpf4jnsgd1na2vs0mg"},{"bike_id":"33b9cd20-79dd-4b41-9beb-8c75030d5eae","system_id":"levelo_inurba_marseille","lat":43.30649,"lon":5.40097,"is_reserved":false,"is_disabled":false,"rental_uris":{"android":"levelo://app?vid=33b9cd20-79dd-4b41-9beb-8c75030d5eae","ios":"levelo://app?vid=33b9cd20-79dd-4b41-9beb-8c75030d5eae"},"vehicle_type_id":"4","last_reported":1752095410,"current_range_meters":11600,"station_id":"ce4bh112rcd13ifvqda0","pricing_plan_id":"cebpf4jnsgd1na2vs0mg"},{"bike_id":"cd5efba4-4bac-4481-9866-03ee3b1ed66d","system_id":"levelo_inurba_marseille","lat":43.29266,"lon":5.38443,"is_reserved":false,"is_disabled":false,"rental_uris":{"android":"levelo://app?vid=cd5efba4-4bac-4481-9866-03ee3b1ed66d","ios":"levelo://app?vid=cd5efba4-4bac-4481-9866-03ee3b1ed66d"},"vehicle_type_id":"4","last_reported":1752095410,"current_range_meters":11600,"station_id":"ce4bh692rcd13ifvqea0","pricing_plan_id":"cebpf4jnsgd1na2vs0mg"},{"bike_id":"aec3b76a-8323-4ffd-8422-3c50c887634c","system_id":"levelo_inurba_marseille","lat":43.3266,"lon":5.40994,"is_reserved":false,"is_disabled":false,"rental_uris":{"android":"levelo://app?vid=aec3b76a-8323-4ffd-8422-3c50c887634c","ios":"levelo://app?vid=aec3b76a-8323-4ffd-8422-3c50c887634c"},"vehicle_type_id":"4","last_reported":1752095410,"current_range_meters":11600,"station_id":"ce4bhpp2rcd13ifvqhgg","pricing_plan_id":"cebpf4jnsgd1na2vs0mg"},{"bike_id":"254293b3-2073-4dd9-9ff7-e00bf9a9f950","system_id":"levelo_inurba_marseille","lat":43.29581,"lon":5.36747,"is_reserved":false,"is_disabled":false,"rental_uris":{"android":"levelo://app?vid=254293b3-2073-4dd9-9ff7-e00bf9a9f950","ios":"levelo://app?vid=254293b3-2073-4dd9-9ff7-e00bf9a9f950"},"vehicle_type_id":"4","last_reported":1752095410,"current_range_meters":12000,"station_id":"ce4bgph2rcd13ifvqc2g","pricing_plan_id":"cebpf4jnsgd1na2vs0mg"},{"bike_id":"c2b72fe0-bae6-4c7b-ad48-9e771b203dc8","system_id":"levelo_inurba_marseille","lat":43.3136,"lon":5.38455,"is_reserved":false,"is_disabled":false,"rental_uris":{"android":"levelo://app?vid=c2b72fe0-bae6-4c7b-ad48-9e771b203dc8","ios":"levelo://app?vid=c2b72fe0-bae6-4c7b-ad48-9e771b203dc8"},"vehicle_type_id":"4","last_reported":1752095410,"current_range_meters":12000,"station_id":"ce4bgt92rcd13ifvqcf0","pricing_plan_id":"cebpf4jnsgd1na2vs0mg"},{"bike_id":"53919a90-267a-4543-85c6-768e0b2f13d8","system_id":"levelo_inurba_marseille","lat":43.24175,"lon":5.36405,"is_reserved":false,"is_disabled":false,"rental_uris":{"android":"levelo://app?vid=53919a90-267a-4543-85c6-768e0b2f13d8","ios":"levelo://app?vid=53919a90-267a-4543-85c6-768e0b2f13d8"},"vehicle_type_id":"4","last_reported":1752095410,"current_range_meters":12000,"station_id":"cpo36qri1sfpv3e86is0","pricing_plan_id":"cebpf4jnsgd1na2vs0mg"},{"bike_id":"9e80b417-88a2-4c7b-893c-6f85e2f15456","system_id":"levelo_inurba_marseille","lat":43.30731,"lon":5.42441,"is_reserved":false,"is_disabled":false,"rental_uris":{"android":"levelo://app?vid=9e80b417-88a2-4c7b-893c-6f85e2f15456","ios":"levelo://app?vid=9e80b417-88a2-4c7b-893c-6f85e2f15456"},"vehicle_type_id":"4","last_reported":1752095410,"current_range_meters":12000,"station_id":"st_cvj6ca6bvosntc0bfgr0","pricing_plan_id":"cebpf4jnsgd1na2vs0mg"},{"bike_id":"2495b09f-a0f7-49aa-bfcb-820757b4e47f","system_id":"levelo_inurba_marseille","lat":43.31268,"lon":5.40163,"is_reserved":false,"is_disabled":false,"rental_uris":{"android":"levelo://app?vid=2495b09f-a0f7-49aa-bfcb-820757b4e47f","ios":"levelo://app?vid=2495b09f-a0f7-49aa-bfcb-820757b4e47f"},"vehicle_type_id":"4","last_reported":1752095410,"current_range_meters":12400,"station_id":"ce4bh092rcd13ifvqd30","pricing_plan_id":"cebpf4jnsgd1na2vs0mg"},{"bike_id":"2d97cff7-2c92-4ad1-827e-19977c4a30a2","system_id":"levelo_inurba_marseille","lat":43.262084,"lon":5.40464,"is_reserved":false,"is_disabled":false,"rental_uris":{"android":"levelo://app?vid=2d97cff7-2c92-4ad1-827e-19977c4a30a2","ios":"levelo://app?vid=2d97cff7-2c92-4ad1-827e-19977c4a30a2"},"vehicle_type_id":"4","last_reported":1752095410,"current_range_meters":12400,"station_id":"ce4bhmh2rcd13ifvqgmg","pricing_plan_id":"cebpf4jnsgd1na2vs0mg"},{"bike_id":"14b3e433-d372-4722-88e2-fb937ca22483","system_id":"levelo_inurba_marseille","lat":43.2318,"lon":5.39993,"is_reserved":false,"is_disabled":false,"rental_uris":{"android":"levelo://app?vid=14b3e433-d372-4722-88e2-fb937ca22483","ios":"levelo://app?vid=14b3e433-d372-4722-88e2-fb937ca22483"},"vehicle_type_id":"4","last_reported":1752095410,"current_range_meters":12400,"station_id":"ce4bhn12rcd13ifvqgqg","pricing_plan_id":"cebpf4jnsgd1na2vs0mg"},{"bike_id":"e9a7beeb-da80-400c-a4c4-eb292672042c","system_id":"levelo_inurba_marseille","lat":43.28077,"lon":5.39661,"is_reserved":false,"is_disabled":false,"rental_uris":{"android":"levelo://app?vid=e9a7beeb-da80-400c-a4c4-eb292672042c","ios":"levelo://app?vid=e9a7beeb-da80-400c-a4c4-eb292672042c"},"vehicle_type_id":"4","last_reported":1752095410,"current_range_meters":12400,"station_id":"ce4bho12rcd13ifvqh2g","pricing_plan_id":"cebpf4jnsgd1na2vs0mg"},{"bike_id":"c514ad25-b83c-4d10-a595-57ae5a32aef4","system_id":"levelo_inurba_marseille","lat":43.22934,"lon":5.35378,"is_reserved":false,"is_disabled":false,"rental_uris":{"android":"levelo://app?vid=c514ad25-b83c-4d10-a595-57ae5a32aef4","ios":"levelo://app?vid=c514ad25-b83c-4d10-a595-57ae5a32aef4"},"vehicle_type_id":"4","last_reported":1752095410,"current_range_meters":12400,"station_id":"cpo3532slgdg3j2ikp40","pricing_plan_id":"cebpf4jnsgd1na2vs0mg"},{"bike_id":"4975b22d-8c48-452f-bd19-7a9d3ed7c378","system_id":"levelo_inurba_marseille","lat":43.29676,"lon":5.37424,"is_reserved":false,"is_disabled":false,"rental_uris":{"android":"levelo://app?vid=4975b22d-8c48-452f-bd19-7a9d3ed7c378","ios":"levelo://app?vid=4975b22d-8c48-452f-bd19-7a9d3ed7c378"},"vehicle_type_id":"4","last_reported":1752095410,"current_range_meters":12800,"station_id":"","pricing_plan_id":"cebpf4jnsgd1na2vs0mg"},{"bike_id":"d40cbb38-5376-4c32-8b44-5ac54a6ebccc","system_id":"levelo_inurba_marseille","lat":43.29823,"lon":5.36268,"is_reserved":false,"is_disabled":false,"rental_uris":{"android":"levelo://app?vid=d40cbb38-5376-4c32-8b44-5ac54a6ebccc","ios":"levelo://app?vid=d40cbb38-5376-4c32-8b44-5ac54a6ebccc"},"vehicle_type_id":"4","last_reported":1752095410,"current_range_meters":12800,"station_id":"ce4bgpp2rcd13ifvqc3g","pricing_plan_id":"cebpf4jnsgd1na2vs0mg"},{"bike_id":"38162375-8ecb-4f64-b7d3-e78375b9b2ea","system_id":"levelo_inurba_marseille","lat":43.2944,"lon":5.39765,"is_reserved":false,"is_disabled":false,"rental_uris":{"android":"levelo://app?vid=38162375-8ecb-4f64-b7d3-e78375b9b2ea","ios":"levelo://app?vid=38162375-8ecb-4f64-b7d3-e78375b9b2ea"},"vehicle_type_id":"4","last_reported":1752095410,"current_range_meters":12800,"station_id":"ce4bh3h2rcd13ifvqdo0","pricing_plan_id":"cebpf4jnsgd1na2vs0mg"},{"bike_id":"4e229ccd-e6ac-46a0-9157-c9e4d57f4d8d","system_id":"levelo_inurba_marseille","lat":43.29096,"lon":5.38133,"is_reserved":false,"is_disabled":false,"rental_uris":{"android":"levelo://app?vid=4e229ccd-e6ac-46a0-9157-c9e4d57f4d8d","ios":"levelo://app?vid=4e229ccd-e6ac-46a0-9157-c9e4d57f4d8d"},"vehicle_type_id":"4","last_reported":1752095410,"current_range_meters":12800,"station_id":"ce4bh512rcd13ifvqe2g","pricing_plan_id":"cebpf4jnsgd1na2vs0mg"},{"bike_id":"d2b0bdd7-4af7-4351-8102-f0ee804f22a2","system_id":"levelo_inurba_marseille","lat":43.28872,"lon":5.3587,"is_reserved":false,"is_disabled":false,"rental_uris":{"android":"levelo://app?vid=d2b0bdd7-4af7-4351-8102-f0ee804f22a2","ios":"levelo://app?vid=d2b0bdd7-4af7-4351-8102-f0ee804f22a2"},"vehicle_type_id":"4","last_reported":1752095410,"current_range_meters":12800,"station_id":"ce4bhb12rcd13ifvqem0","pricing_plan_id":"cebpf4jnsgd1na2vs0mg"},{"bike_id":"f5c16f07-bc6f-4121-91a7-5ad90eec4f34","system_id":"levelo_inurba_marseille","lat":43.31206,"lon":5.37323,"is_reserved":false,"is_disabled":false,"rental_uris":{"android":"levelo://app?vid=f5c16f07-bc6f-4121-91a7-5ad90eec4f34","ios":"levelo://app?vid=f5c16f07-bc6f-4121-91a7-5ad90eec4f34"},"vehicle_type_id":"4","last_reported":1752095410,"current_range_meters":13600,"station_id":"","pricing_plan_id":"cebpf4jnsgd1na2vs0mg"},{"bike_id":"238da2ff-546b-48b5-8c8b-1c7cbe8317d4","system_id":"levelo_inurba_marseille","lat":43.23968,"lon":5.36631,"is_reserved":false,"is_disabled":false,"rental_uris":{"android":"levelo://app?vid=238da2ff-546b-48b5-8c8b-1c7cbe8317d4","ios":"levelo://app?vid=238da2ff-546b-48b5-8c8b-1c7cbe8317d4"},"vehicle_type_id":"4","last_reported":1752095410,"current_range_meters":13600,"station_id":"ce4bhi12rcd13ifvqfp0","pricing_plan_id":"cebpf4jnsgd1na2vs0mg"},{"bike_id":"449ed129-2f06-47da-936f-6e63a3609258","system_id":"levelo_inurba_marseille","lat":43.23201,"lon":5.355439,"is_reserved":false,"is_disabled":false,"rental_uris":{"android":"levelo://app?vid=449ed129-2f06-47da-936f-6e63a3609258","ios":"levelo://app?vid=449ed129-2f06-47da-936f-6e63a3609258"},"vehicle_type_id":"4","last_reported":1752095410,"current_range_meters":13600,"station_id":"ce4bhu92rcd13ifvqi70","pricing_plan_id":"cebpf4jnsgd1na2vs0mg"},{"bike_id":"b2caa530-bb19-4cc6-a6bd-61e3e1d7432e","system_id":"levelo_inurba_marseille","lat":43.33763,"lon":5.37461,"is_reserved":false,"is_disabled":false,"rental_uris":{"android":"levelo://app?vid=b2caa530-bb19-4cc6-a6bd-61e3e1d7432e","ios":"levelo://app?vid=b2caa530-bb19-4cc6-a6bd-61e3e1d7432e"},"vehicle_type_id":"4","last_reported":1752095410,"current_range_meters":14000,"station_id":"","pricing_plan_id":"cebpf4jnsgd1na2vs0mg"},{"bike_id":"93d6be08-2471-48d7-9948-c35dc9626201","system_id":"levelo_inurba_marseille","lat":43.31714,"lon":5.37647,"is_reserved":false,"is_disabled":false,"rental_uris":{"android":"levelo://app?vid=93d6be08-2471-48d7-9948-c35dc9626201","ios":"levelo://app?vid=93d6be08-2471-48d7-9948-c35dc9626201"},"vehicle_type_id":"4","last_reported":1752095410,"current_range_meters":14000,"station_id":"","pricing_plan_id":"cebpf4jnsgd1na2vs0mg"},{"bike_id":"b757ffbb-2b71-4330-9f60-5f8a9d46d16e","system_id":"levelo_inurba_marseille","lat":43.29648,"lon":5.37126,"is_reserved":false,"is_disabled":false,"rental_uris":{"android":"levelo://app?vid=b757ffbb-2b71-4330-9f60-5f8a9d46d16e","ios":"levelo://app?vid=b757ffbb-2b71-4330-9f60-5f8a9d46d16e"},"vehicle_type_id":"4","last_reported":1752095410,"current_range_meters":14000,"station_id":"ce4bgnh2rcd13ifvqc0g","pricing_plan_id":"cebpf4jnsgd1na2vs0mg"},{"bike_id":"e568ebe1-7319-45a3-ad8a-5882cc85c638","system_id":"levelo_inurba_marseille","lat":43.28343,"lon":5.38107,"is_reserved":false,"is_disabled":false,"rental_uris":{"android":"levelo://app?vid=e568ebe1-7319-45a3-ad8a-5882cc85c638","ios":"levelo://app?vid=e568ebe1-7319-45a3-ad8a-5882cc85c638"},"vehicle_type_id":"4","last_reported":1752095410,"current_range_meters":14000,"station_id":"ce4bh412rcd13ifvqdr0","pricing_plan_id":"cebpf4jnsgd1na2vs0mg"},{"bike_id":"fe6bcd03-5732-4a27-bfe6-5b0e8dcd104f","system_id":"levelo_inurba_marseille","lat":43.27967,"lon":5.38746,"is_reserved":false,"is_disabled":false,"rental_uris":{"android":"levelo://app?vid=fe6bcd03-5732-4a27-bfe6-5b0e8dcd104f","ios":"levelo://app?vid=fe6bcd03-5732-4a27-bfe6-5b0e8dcd104f"},"vehicle_type_id":"4","last_reported":1752095410,"current_range_meters":14000,"station_id":"ce4bhg12rcd13ifvqf80","pricing_plan_id":"cebpf4jnsgd1na2vs0mg"},{"bike_id":"6e5c2657-ccb8-4153-8b94-2143bc427a03","system_id":"levelo_inurba_marseille","lat":43.22493,"lon":5.34793,"is_reserved":false,"is_disabled":false,"rental_uris":{"android":"levelo://app?vid=6e5c2657-ccb8-4153-8b94-2143bc427a03","ios":"levelo://app?vid=6e5c2657-ccb8-4153-8b94-2143bc427a03"},"vehicle_type_id":"4","last_reported":1752095410,"current_range_meters":14000,"station_id":"st_cvj5dfep6f1abm77gieg","pricing_plan_id":"cebpf4jnsgd1na2vs0mg"},{"bike_id":"b6d9b946-f66a-4c6f-96e5-5d23e176360c","system_id":"levelo_inurba_marseille","lat":43.31315,"lon":5.38172,"is_reserved":false,"is_disabled":false,"rental_uris":{"android":"levelo://app?vid=b6d9b946-f66a-4c6f-96e5-5d23e176360c","ios":"levelo://app?vid=b6d9b946-f66a-4c6f-96e5-5d23e176360c"},"vehicle_type_id":"4","last_reported":1752095410,"current_range_meters":14400,"station_id":"","pricing_plan_id":"cebpf4jnsgd1na2vs0mg"},{"bike_id":"a36d0f0b-1d61-451b-8128-72e7a76cb801","system_id":"levelo_inurba_marseille","lat":43.29871,"lon":5.36285,"is_reserved":false,"is_disabled":false,"rental_uris":{"android":"levelo://app?vid=a36d0f0b-1d61-451b-8128-72e7a76cb801","ios":"levelo://app?vid=a36d0f0b-1d61-451b-8128-72e7a76cb801"},"vehicle_type_id":"4","last_reported":1752095410,"current_range_meters":14400,"station_id":"ce4bgpp2rcd13ifvqc3g","pricing_plan_id":"cebpf4jnsgd1na2vs0mg"},{"bike_id":"38195d54-ea5b-4aca-b32f-4172dae1b0cf","system_id":"levelo_inurba_marseille","lat":43.2835,"lon":5.38106,"is_reserved":false,"is_disabled":false,"rental_uris":{"android":"levelo://app?vid=38195d54-ea5b-4aca-b32f-4172dae1b0cf","ios":"levelo://app?vid=38195d54-ea5b-4aca-b32f-4172dae1b0cf"},"vehicle_type_id":"4","last_reported":1752095410,"current_range_meters":14400,"station_id":"ce4bh412rcd13ifvqdr0","pricing_plan_id":"cebpf4jnsgd1na2vs0mg"},{"bike_id":"f58dd5a0-78dd-488e-8ffe-f3e57940d6ee","system_id":"levelo_inurba_marseille","lat":43.2892,"lon":5.3639,"is_reserved":false,"is_disabled":false,"rental_uris":{"android":"levelo://app?vid=f58dd5a0-78dd-488e-8ffe-f3e57940d6ee","ios":"levelo://app?vid=f58dd5a0-78dd-488e-8ffe-f3e57940d6ee"},"vehicle_type_id":"4","last_reported":1752095410,"current_range_meters":14400,"station_id":"ce4bhc92rcd13ifvqetg","pricing_plan_id":"cebpf4jnsgd1na2vs0mg"},{"bike_id":"d7501251-d663-481b-a3c7-8c88f65499b9","system_id":"levelo_inurba_marseille","lat":43.269415,"lon":5.402568,"is_reserved":false,"is_disabled":false,"rental_uris":{"android":"levelo://app?vid=d7501251-d663-481b-a3c7-8c88f65499b9","ios":"levelo://app?vid=d7501251-d663-481b-a3c7-8c88f65499b9"},"vehicle_type_id":"4","last_reported":1752095410,"current_range_meters":14400,"station_id":"cjm6bp8fraef2m0cb0m0","pricing_plan_id":"cebpf4jnsgd1na2vs0mg"},{"bike_id":"70333712-c841-43af-a25f-42ffdd913e6e","system_id":"levelo_inurba_marseille","lat":43.30212,"lon":5.39467,"is_reserved":false,"is_disabled":false,"rental_uris":{"android":"levelo://app?vid=70333712-c841-43af-a25f-42ffdd913e6e","ios":"levelo://app?vid=70333712-c841-43af-a25f-42ffdd913e6e"},"vehicle_type_id":"4","last_reported":1752095410,"current_range_meters":14800,"station_id":"ce4bh0p2rcd13ifvqd70","pricing_plan_id":"cebpf4jnsgd1na2vs0mg"},{"bike_id":"bd17d683-0860-4a83-8fbc-7616b06e828f","system_id":"levelo_inurba_marseille","lat":43.28842,"lon":5.39305,"is_reserved":false,"is_disabled":false,"rental_uris":{"android":"levelo://app?vid=bd17d683-0860-4a83-8fbc-7616b06e828f","ios":"levelo://app?vid=bd17d683-0860-4a83-8fbc-7616b06e828f"},"vehicle_type_id":"4","last_reported":1752095410,"current_range_meters":14800,"station_id":"ce4bh2p2rcd13ifvqdi0","pricing_plan_id":"cebpf4jnsgd1na2vs0mg"},{"bike_id":"1be39311-cfa5-4cbb-b93d-fb0870d6e611","system_id":"levelo_inurba_marseille","lat":43.21201,"lon":5.35107,"is_reserved":false,"is_disabled":false,"rental_uris":{"android":"levelo://app?vid=1be39311-cfa5-4cbb-b93d-fb0870d6e611","ios":"levelo://app?vid=1be39311-cfa5-4cbb-b93d-fb0870d6e611"},"vehicle_type_id":"4","last_reported":1752095410,"current_range_meters":14800,"station_id":"st_cvj6sg6p6f1abm77japg","pricing_plan_id":"cebpf4jnsgd1na2vs0mg"},{"bike_id":"6d9f18fb-1929-4b60-afd0-ccffa04708fe","system_id":"levelo_inurba_marseille","lat":43.30537,"lon":5.38433,"is_reserved":false,"is_disabled":false,"rental_uris":{"android":"levelo://app?vid=6d9f18fb-1929-4b60-afd0-ccffa04708fe","ios":"levelo://app?vid=6d9f18fb-1929-4b60-afd0-ccffa04708fe"},"vehicle_type_id":"4","last_reported":1752095410,"current_range_meters":15200,"station_id":"ce4bgg92rcd13ifvqb30","pricing_plan_id":"cebpf4jnsgd1na2vs0mg"},{"bike_id":"03304114-c91d-4b5e-8d43-80021d8bd3d6","system_id":"levelo_inurba_marseille","lat":43.30805,"lon":5.3815,"is_reserved":false,"is_disabled":false,"rental_uris":{"android":"levelo://app?vid=03304114-c91d-4b5e-8d43-80021d8bd3d6","ios":"levelo://app?vid=03304114-c91d-4b5e-8d43-80021d8bd3d6"},"vehicle_type_id":"4","last_reported":1752095410,"current_range_meters":15200,"station_id":"ce4bgt12rcd13ifvqce0","pricing_plan_id":"cebpf4jnsgd1na2vs0mg"},{"bike_id":"785a6026-326b-499a-ab69-1df710785377","system_id":"levelo_inurba_marseille","lat":43.24077,"lon":5.37745,"is_reserved":false,"is_disabled":false,"rental_uris":{"android":"levelo://app?vid=785a6026-326b-499a-ab69-1df710785377","ios":"levelo://app?vid=785a6026-326b-499a-ab69-1df710785377"},"vehicle_type_id":"4","last_reported":1752095410,"current_range_meters":15200,"station_id":"ce4bhnp2rcd13ifvqgvg","pricing_plan_id":"cebpf4jnsgd1na2vs0mg"},{"bike_id":"320f2a33-deaa-4e0a-a3d5-c39ce8ad680a","system_id":"levelo_inurba_marseille","lat":43.31562,"lon":5.37437,"is_reserved":false,"is_disabled":false,"rental_uris":{"android":"levelo://app?vid=320f2a33-deaa-4e0a-a3d5-c39ce8ad680a","ios":"levelo://app?vid=320f2a33-deaa-4e0a-a3d5-c39ce8ad680a"},"vehicle_type_id":"4","last_reported":1752095410,"current_range_meters":16000,"station_id":"","pricing_plan_id":"cebpf4jnsgd1na2vs0mg"},{"bike_id":"c7b2f906-5069-4985-92cd-5cb8c40d6bdb","system_id":"levelo_inurba_marseille","lat":43.295267,"lon":5.374372,"is_reserved":false,"is_disabled":false,"rental_uris":{"android":"levelo://app?vid=c7b2f906-5069-4985-92cd-5cb8c40d6bdb","ios":"levelo://app?vid=c7b2f906-5069-4985-92cd-5cb8c40d6bdb"},"vehicle_type_id":"4","last_reported":1752095410,"current_range_meters":16000,"station_id":"ce4bgl12rcd13ifvqbo0","pricing_plan_id":"cebpf4jnsgd1na2vs0mg"},{"bike_id":"b789bf5f-2cad-4b42-911f-af7f1aa516cd","system_id":"levelo_inurba_marseille","lat":43.29416,"lon":5.38611,"is_reserved":false,"is_disabled":false,"rental_uris":{"android":"levelo://app?vid=b789bf5f-2cad-4b42-911f-af7f1aa516cd","ios":"levelo://app?vid=b789bf5f-2cad-4b42-911f-af7f1aa516cd"},"vehicle_type_id":"4","last_reported":1752095410,"current_range_meters":16000,"station_id":"ce4bh2h2rcd13ifvqdh0","pricing_plan_id":"cebpf4jnsgd1na2vs0mg"},{"bike_id":"4d89cb80-cfcb-415e-b37c-fb3a172a814c","system_id":"levelo_inurba_marseille","lat":43.265662,"lon":5.390114,"is_reserved":false,"is_disabled":false,"rental_uris":{"android":"levelo://app?vid=4d89cb80-cfcb-415e-b37c-fb3a172a814c","ios":"levelo://app?vid=4d89cb80-cfcb-415e-b37c-fb3a172a814c"},"vehicle_type_id":"4","last_reported":1752095410,"current_range_meters":16000,"station_id":"ce4bhe12rcd13ifvqf30","pricing_plan_id":"cebpf4jnsgd1na2vs0mg"},{"bike_id":"4a69cd1c-a9bd-4bb6-b294-335eb9c2ac5d","system_id":"levelo_inurba_marseille","lat":43.26673,"lon":5.38224,"is_reserved":false,"is_disabled":false,"rental_uris":{"android":"levelo://app?vid=4a69cd1c-a9bd-4bb6-b294-335eb9c2ac5d","ios":"levelo://app?vid=4a69cd1c-a9bd-4bb6-b294-335eb9c2ac5d"},"vehicle_type_id":"4","last_reported":1752095410,"current_range_meters":16000,"station_id":"ce4bhg92rcd13ifvqf90","pricing_plan_id":"cebpf4jnsgd1na2vs0mg"},{"bike_id":"a696b331-f3a2-4032-979b-06b35fb7e9b9","system_id":"levelo_inurba_marseille","lat":43.27991,"lon":5.41612,"is_reserved":false,"is_disabled":false,"rental_uris":{"android":"levelo://app?vid=a696b331-f3a2-4032-979b-06b35fb7e9b9","ios":"levelo://app?vid=a696b331-f3a2-4032-979b-06b35fb7e9b9"},"vehicle_type_id":"4","last_reported":1752095410,"current_range_meters":16000,"station_id":"ce4bho12rcd13ifvqh1g","pricing_plan_id":"cebpf4jnsgd1na2vs0mg"},{"bike_id":"7dd4258d-8fe1-466b-bba8-036a896c4262","system_id":"levelo_inurba_marseille","lat":43.23216,"lon":5.35566,"is_reserved":false,"is_disabled":false,"rental_uris":{"android":"levelo://app?vid=7dd4258d-8fe1-466b-bba8-036a896c4262","ios":"levelo://app?vid=7dd4258d-8fe1-466b-bba8-036a896c4262"},"vehicle_type_id":"4","last_reported":1752095410,"current_range_meters":16000,"station_id":"ce4bhu92rcd13ifvqi70","pricing_plan_id":"cebpf4jnsgd1na2vs0mg"},{"bike_id":"48593559-b0ee-4e17-8373-ea727288205f","system_id":"levelo_inurba_marseille","lat":43.29768,"lon":5.39339,"is_reserved":false,"is_disabled":false,"rental_uris":{"android":"levelo://app?vid=48593559-b0ee-4e17-8373-ea727288205f","ios":"levelo://app?vid=48593559-b0ee-4e17-8373-ea727288205f"},"vehicle_type_id":"4","last_reported":1752095410,"current_range_meters":16000,"station_id":"chh1huq6cuj3fo74tm60","pricing_plan_id":"cebpf4jnsgd1na2vs0mg"},{"bike_id":"0436e91a-f067-4a7a-9270-481289d8aaf4","system_id":"levelo_inurba_marseille","lat":43.28726,"lon":5.36094,"is_reserved":false,"is_disabled":false,"rental_uris":{"android":"levelo://app?vid=0436e91a-f067-4a7a-9270-481289d8aaf4","ios":"levelo://app?vid=0436e91a-f067-4a7a-9270-481289d8aaf4"},"vehicle_type_id":"4","last_reported":1752095410,"current_range_meters":16000,"station_id":"cki0cbj6b192h4jlfktg","pricing_plan_id":"cebpf4jnsgd1na2vs0mg"},{"bike_id":"51e3ba8e-e068-4842-9cb7-baf4775a7342","system_id":"levelo_inurba_marseille","lat":43.30455,"lon":5.38898,"is_reserved":false,"is_disabled":false,"rental_uris":{"android":"levelo://app?vid=51e3ba8e-e068-4842-9cb7-baf4775a7342","ios":"levelo://app?vid=51e3ba8e-e068-4842-9cb7-baf4775a7342"},"vehicle_type_id":"4","last_reported":1752095410,"current_range_meters":16400,"station_id":"ce4bgk12rcd13ifvqbi0","pricing_plan_id":"cebpf4jnsgd1na2vs0mg"},{"bike_id":"4989c8b3-a05b-4bc3-9f28-974ca4cc8d01","system_id":"levelo_inurba_marseille","lat":43.29851,"lon":5.36279,"is_reserved":false,"is_disabled":false,"rental_uris":{"android":"levelo://app?vid=4989c8b3-a05b-4bc3-9f28-974ca4cc8d01","ios":"levelo://app?vid=4989c8b3-a05b-4bc3-9f28-974ca4cc8d01"},"vehicle_type_id":"4","last_reported":1752095410,"current_range_meters":16400,"station_id":"ce4bgpp2rcd13ifvqc3g","pricing_plan_id":"cebpf4jnsgd1na2vs0mg"},{"bike_id":"5c747704-c4f0-43fb-8cca-e2d4a7154ab3","system_id":"levelo_inurba_marseille","lat":43.31167,"lon":5.38722,"is_reserved":false,"is_disabled":false,"rental_uris":{"android":"levelo://app?vid=5c747704-c4f0-43fb-8cca-e2d4a7154ab3","ios":"levelo://app?vid=5c747704-c4f0-43fb-8cca-e2d4a7154ab3"},"vehicle_type_id":"4","last_reported":1752095410,"current_range_meters":16400,"station_id":"ce4bgv12rcd13ifvqcp0","pricing_plan_id":"cebpf4jnsgd1na2vs0mg"},{"bike_id":"116cdacb-30df-4d5f-9396-9cc5ab554409","system_id":"levelo_inurba_marseille","lat":43.28467,"lon":5.3589,"is_reserved":false,"is_disabled":false,"rental_uris":{"android":"levelo://app?vid=116cdacb-30df-4d5f-9396-9cc5ab554409","ios":"levelo://app?vid=116cdacb-30df-4d5f-9396-9cc5ab554409"},"vehicle_type_id":"4","last_reported":1752095410,"current_range_meters":16400,"station_id":"ce4bhah2rcd13ifvqei0","pricing_plan_id":"cebpf4jnsgd1na2vs0mg"},{"bike_id":"2a2c2ba3-f4e7-4476-b21e-559d75857b71","system_id":"levelo_inurba_marseille","lat":43.27049,"lon":5.42266,"is_reserved":false,"is_disabled":false,"rental_uris":{"android":"levelo://app?vid=2a2c2ba3-f4e7-4476-b21e-559d75857b71","ios":"levelo://app?vid=2a2c2ba3-f4e7-4476-b21e-559d75857b71"},"vehicle_type_id":"4","last_reported":1752095410,"current_range_meters":16400,"station_id":"ce4bhk92rcd13ifvqgb0","pricing_plan_id":"cebpf4jnsgd1na2vs0mg"},{"bike_id":"73fe94e8-74f9-41f0-85e9-7d8c52adf2fc","system_id":"levelo_inurba_marseille","lat":43.21269,"lon":5.35292,"is_reserved":false,"is_disabled":false,"rental_uris":{"android":"levelo://app?vid=73fe94e8-74f9-41f0-85e9-7d8c52adf2fc","ios":"levelo://app?vid=73fe94e8-74f9-41f0-85e9-7d8c52adf2fc"},"vehicle_type_id":"4","last_reported":1752095410,"current_range_meters":16800,"station_id":"","pricing_plan_id":"cebpf4jnsgd1na2vs0mg"},{"bike_id":"ffa315fe-c57f-4f4a-9002-c7fbfa5de94b","system_id":"levelo_inurba_marseille","lat":43.29967,"lon":5.38486,"is_reserved":false,"is_disabled":false,"rental_uris":{"android":"levelo://app?vid=ffa315fe-c57f-4f4a-9002-c7fbfa5de94b","ios":"levelo://app?vid=ffa315fe-c57f-4f4a-9002-c7fbfa5de94b"},"vehicle_type_id":"4","last_reported":1752095410,"current_range_meters":16800,"station_id":"ce4bgj92rcd13ifvqbd0","pricing_plan_id":"cebpf4jnsgd1na2vs0mg"},{"bike_id":"c9311e70-900f-4975-bef3-4758054b0031","system_id":"levelo_inurba_marseille","lat":43.251172,"lon":5.403189,"is_reserved":false,"is_disabled":false,"rental_uris":{"android":"levelo://app?vid=c9311e70-900f-4975-bef3-4758054b0031","ios":"levelo://app?vid=c9311e70-900f-4975-bef3-4758054b0031"},"vehicle_type_id":"4","last_reported":1752095410,"current_range_meters":16800,"station_id":"ce4bhlh2rcd13ifvqgig","pricing_plan_id":"cebpf4jnsgd1na2vs0mg"},{"bike_id":"36c387ea-be50-4028-8ecc-21605fe3e879","system_id":"levelo_inurba_marseille","lat":43.29364,"lon":5.4286,"is_reserved":false,"is_disabled":false,"rental_uris":{"android":"levelo://app?vid=36c387ea-be50-4028-8ecc-21605fe3e879","ios":"levelo://app?vid=36c387ea-be50-4028-8ecc-21605fe3e879"},"vehicle_type_id":"4","last_reported":1752095410,"current_range_meters":17200,"station_id":"","pricing_plan_id":"cebpf4jnsgd1na2vs0mg"},{"bike_id":"feaa7e3a-cbe4-4489-be11-8a12d7eec173","system_id":"levelo_inurba_marseille","lat":43.25138,"lon":5.4282,"is_reserved":false,"is_disabled":false,"rental_uris":{"android":"levelo://app?vid=feaa7e3a-cbe4-4489-be11-8a12d7eec173","ios":"levelo://app?vid=feaa7e3a-cbe4-4489-be11-8a12d7eec173"},"vehicle_type_id":"4","last_reported":1752095410,"current_range_meters":17200,"station_id":"","pricing_plan_id":"cebpf4jnsgd1na2vs0mg"},{"bike_id":"afadb897-6e92-4f44-98b9-2a8ab3ed9a65","system_id":"levelo_inurba_marseille","lat":43.30901,"lon":5.36829,"is_reserved":false,"is_disabled":false,"rental_uris":{"android":"levelo://app?vid=afadb897-6e92-4f44-98b9-2a8ab3ed9a65","ios":"levelo://app?vid=afadb897-6e92-4f44-98b9-2a8ab3ed9a65"},"vehicle_type_id":"4","last_reported":1752095410,"current_range_meters":17200,"station_id":"ce4bgn92rcd13ifvqbvg","pricing_plan_id":"cebpf4jnsgd1na2vs0mg"},{"bike_id":"2b346ae8-1a16-424b-93c9-6c0577fae2e0","system_id":"levelo_inurba_marseille","lat":43.30603,"lon":5.37235,"is_reserved":false,"is_disabled":false,"rental_uris":{"android":"levelo://app?vid=2b346ae8-1a16-424b-93c9-6c0577fae2e0","ios":"levelo://app?vid=2b346ae8-1a16-424b-93c9-6c0577fae2e0"},"vehicle_type_id":"4","last_reported":1752095410,"current_range_meters":17200,"station_id":"ce4bgqh2rcd13ifvqc4g","pricing_plan_id":"cebpf4jnsgd1na2vs0mg"},{"bike_id":"1921df10-fcf6-4227-8cdf-a6f5b03943eb","system_id":"levelo_inurba_marseille","lat":43.3079,"lon":5.37655,"is_reserved":false,"is_disabled":false,"rental_uris":{"android":"levelo://app?vid=1921df10-fcf6-4227-8cdf-a6f5b03943eb","ios":"levelo://app?vid=1921df10-fcf6-4227-8cdf-a6f5b03943eb"},"vehicle_type_id":"4","last_reported":1752095410,"current_range_meters":17200,"station_id":"ce4bgv92rcd13ifvqcq0","pricing_plan_id":"cebpf4jnsgd1na2vs0mg"},{"bike_id":"dce32298-a04a-46ad-950c-b3638c836df0","system_id":"levelo_inurba_marseille","lat":43.280429,"lon":5.369079,"is_reserved":false,"is_disabled":false,"rental_uris":{"android":"levelo://app?vid=dce32298-a04a-46ad-950c-b3638c836df0","ios":"levelo://app?vid=dce32298-a04a-46ad-950c-b3638c836df0"},"vehicle_type_id":"4","last_reported":1752095410,"current_range_meters":17200,"station_id":"ce4bha12rcd13ifvqef0","pricing_plan_id":"cebpf4jnsgd1na2vs0mg"},{"bike_id":"3c2be974-f10a-47a0-ae30-b9e120db49ce","system_id":"levelo_inurba_marseille","lat":43.25489,"lon":5.37678,"is_reserved":false,"is_disabled":false,"rental_uris":{"android":"levelo://app?vid=3c2be974-f10a-47a0-ae30-b9e120db49ce","ios":"levelo://app?vid=3c2be974-f10a-47a0-ae30-b9e120db49ce"},"vehicle_type_id":"4","last_reported":1752095410,"current_range_meters":17200,"station_id":"ce4bhh12rcd13ifvqff0","pricing_plan_id":"cebpf4jnsgd1na2vs0mg"},{"bike_id":"5dab83d9-95be-4b40-88d7-1bbf0f5c6a4f","system_id":"levelo_inurba_marseille","lat":43.254992,"lon":5.376486,"is_reserved":false,"is_disabled":false,"rental_uris":{"android":"levelo://app?vid=5dab83d9-95be-4b40-88d7-1bbf0f5c6a4f","ios":"levelo://app?vid=5dab83d9-95be-4b40-88d7-1bbf0f5c6a4f"},"vehicle_type_id":"4","last_reported":1752095410,"current_range_meters":17200,"station_id":"ce4bhh12rcd13ifvqff0","pricing_plan_id":"cebpf4jnsgd1na2vs0mg"},{"bike_id":"cade331f-a6e3-4d01-8bc4-dd218718d65a","system_id":"levelo_inurba_marseille","lat":43.33768,"lon":5.37474,"is_reserved":false,"is_disabled":false,"rental_uris":{"android":"levelo://app?vid=cade331f-a6e3-4d01-8bc4-dd218718d65a","ios":"levelo://app?vid=cade331f-a6e3-4d01-8bc4-dd218718d65a"},"vehicle_type_id":"4","last_reported":1752095410,"current_range_meters":17600,"station_id":"","pricing_plan_id":"cebpf4jnsgd1na2vs0mg"},{"bike_id":"87d13c3c-9453-4492-8a8f-f2b4c8e828c6","system_id":"levelo_inurba_marseille","lat":43.26177,"lon":5.37049,"is_reserved":false,"is_disabled":false,"rental_uris":{"android":"levelo://app?vid=87d13c3c-9453-4492-8a8f-f2b4c8e828c6","ios":"levelo://app?vid=87d13c3c-9453-4492-8a8f-f2b4c8e828c6"},"vehicle_type_id":"4","last_reported":1752095410,"current_range_meters":17600,"station_id":"","pricing_plan_id":"cebpf4jnsgd1na2vs0mg"},{"bike_id":"4792b5fc-8c0b-4024-b97a-ea04ac56fc65","system_id":"levelo_inurba_marseille","lat":43.287,"lon":5.37398,"is_reserved":false,"is_disabled":false,"rental_uris":{"android":"levelo://app?vid=4792b5fc-8c0b-4024-b97a-ea04ac56fc65","ios":"levelo://app?vid=4792b5fc-8c0b-4024-b97a-ea04ac56fc65"},"vehicle_type_id":"4","last_reported":1752095410,"current_range_meters":17600,"station_id":"ce4bh3p2rcd13ifvqdq0","pricing_plan_id":"cebpf4jnsgd1na2vs0mg"},{"bike_id":"f373e4a8-33e3-4f72-ae8e-e7ab386910f4","system_id":"levelo_inurba_marseille","lat":43.22475,"lon":5.34783,"is_reserved":false,"is_disabled":false,"rental_uris":{"android":"levelo://app?vid=f373e4a8-33e3-4f72-ae8e-e7ab386910f4","ios":"levelo://app?vid=f373e4a8-33e3-4f72-ae8e-e7ab386910f4"},"vehicle_type_id":"4","last_reported":1752095410,"current_range_meters":17600,"station_id":"st_cvj5dfep6f1abm77gieg","pricing_plan_id":"cebpf4jnsgd1na2vs0mg"},{"bike_id":"069759f3-8488-4973-b337-5e447fc27e24","system_id":"levelo_inurba_marseille","lat":43.21191,"lon":5.35079,"is_reserved":false,"is_disabled":false,"rental_uris":{"android":"levelo://app?vid=069759f3-8488-4973-b337-5e447fc27e24","ios":"levelo://app?vid=069759f3-8488-4973-b337-5e447fc27e24"},"vehicle_type_id":"4","last_reported":1752095410,"current_range_meters":17600,"station_id":"st_cvj6sg6p6f1abm77japg","pricing_plan_id":"cebpf4jnsgd1na2vs0mg"},{"bike_id":"9f5e74ce-2459-4c6f-a171-f6d1e8a1ed83","system_id":"levelo_inurba_marseille","lat":43.3187,"lon":5.37567,"is_reserved":false,"is_disabled":false,"rental_uris":{"android":"levelo://app?vid=9f5e74ce-2459-4c6f-a171-f6d1e8a1ed83","ios":"levelo://app?vid=9f5e74ce-2459-4c6f-a171-f6d1e8a1ed83"},"vehicle_type_id":"4","last_reported":1752095410,"current_range_meters":18000,"station_id":"","pricing_plan_id":"cebpf4jnsgd1na2vs0mg"},{"bike_id":"28fdd2ae-ade8-4d65-9e0b-594b018cecc2","system_id":"levelo_inurba_marseille","lat":43.25492,"lon":5.37648,"is_reserved":false,"is_disabled":false,"rental_uris":{"android":"levelo://app?vid=28fdd2ae-ade8-4d65-9e0b-594b018cecc2","ios":"levelo://app?vid=28fdd2ae-ade8-4d65-9e0b-594b018cecc2"},"vehicle_type_id":"4","last_reported":1752095410,"current_range_meters":18000,"station_id":"ce4bhh12rcd13ifvqff0","pricing_plan_id":"cebpf4jnsgd1na2vs0mg"},{"bike_id":"ded25aba-6979-441c-85a8-cb7d2b83a6fe","system_id":"levelo_inurba_marseille","lat":43.24179,"lon":5.39734,"is_reserved":false,"is_disabled":false,"rental_uris":{"android":"levelo://app?vid=ded25aba-6979-441c-85a8-cb7d2b83a6fe","ios":"levelo://app?vid=ded25aba-6979-441c-85a8-cb7d2b83a6fe"},"vehicle_type_id":"4","last_reported":1752095410,"current_range_meters":18000,"station_id":"ce4bhn12rcd13ifvqgpg","pricing_plan_id":"cebpf4jnsgd1na2vs0mg"},{"bike_id":"7564e223-5f99-4b5e-8837-0b5f50d33bcb","system_id":"levelo_inurba_marseille","lat":43.32658,"lon":5.40994,"is_reserved":false,"is_disabled":false,"rental_uris":{"android":"levelo://app?vid=7564e223-5f99-4b5e-8837-0b5f50d33bcb","ios":"levelo://app?vid=7564e223-5f99-4b5e-8837-0b5f50d33bcb"},"vehicle_type_id":"4","last_reported":1752095410,"current_range_meters":18000,"station_id":"ce4bhpp2rcd13ifvqhgg","pricing_plan_id":"cebpf4jnsgd1na2vs0mg"},{"bike_id":"fde530d0-eeed-4692-bb9c-2c65ba0cdd9f","system_id":"levelo_inurba_marseille","lat":43.30864,"lon":5.425694,"is_reserved":false,"is_disabled":false,"rental_uris":{"android":"levelo://app?vid=fde530d0-eeed-4692-bb9c-2c65ba0cdd9f","ios":"levelo://app?vid=fde530d0-eeed-4692-bb9c-2c65ba0cdd9f"},"vehicle_type_id":"4","last_reported":1752095410,"current_range_meters":18800,"station_id":"","pricing_plan_id":"cebpf4jnsgd1na2vs0mg"},{"bike_id":"385b1039-4f4f-40af-bf18-3268dd09afcd","system_id":"levelo_inurba_marseille","lat":43.295223,"lon":5.393887,"is_reserved":false,"is_disabled":false,"rental_uris":{"android":"levelo://app?vid=385b1039-4f4f-40af-bf18-3268dd09afcd","ios":"levelo://app?vid=385b1039-4f4f-40af-bf18-3268dd09afcd"},"vehicle_type_id":"4","last_reported":1752095410,"current_range_meters":18800,"station_id":"ce4bh292rcd13ifvqdf0","pricing_plan_id":"cebpf4jnsgd1na2vs0mg"},{"bike_id":"4a961b2e-dda7-402f-979a-e01427f73a97","system_id":"levelo_inurba_marseille","lat":43.29403,"lon":5.38635,"is_reserved":false,"is_disabled":false,"rental_uris":{"android":"levelo://app?vid=4a961b2e-dda7-402f-979a-e01427f73a97","ios":"levelo://app?vid=4a961b2e-dda7-402f-979a-e01427f73a97"},"vehicle_type_id":"4","last_reported":1752095410,"current_range_meters":18800,"station_id":"ce4bh2h2rcd13ifvqdh0","pricing_plan_id":"cebpf4jnsgd1na2vs0mg"},{"bike_id":"7bb3c565-6e75-43af-9d31-ebbf73e1bdf0","system_id":"levelo_inurba_marseille","lat":43.29254,"lon":5.38442,"is_reserved":false,"is_disabled":false,"rental_uris":{"android":"levelo://app?vid=7bb3c565-6e75-43af-9d31-ebbf73e1bdf0","ios":"levelo://app?vid=7bb3c565-6e75-43af-9d31-ebbf73e1bdf0"},"vehicle_type_id":"4","last_reported":1752095410,"current_range_meters":18800,"station_id":"ce4bh692rcd13ifvqea0","pricing_plan_id":"cebpf4jnsgd1na2vs0mg"},{"bike_id":"dc138d0c-9b15-4b58-aab1-dd88b60d2dac","system_id":"levelo_inurba_marseille","lat":43.26152,"lon":5.40481,"is_reserved":false,"is_disabled":false,"rental_uris":{"android":"levelo://app?vid=dc138d0c-9b15-4b58-aab1-dd88b60d2dac","ios":"levelo://app?vid=dc138d0c-9b15-4b58-aab1-dd88b60d2dac"},"vehicle_type_id":"4","last_reported":1752095410,"current_range_meters":18800,"station_id":"ce4bhmh2rcd13ifvqgmg","pricing_plan_id":"cebpf4jnsgd1na2vs0mg"},{"bike_id":"185afeba-d808-4e02-a0a9-f1c6681a8cc4","system_id":"levelo_inurba_marseille","lat":43.31753,"lon":5.38966,"is_reserved":false,"is_disabled":false,"rental_uris":{"android":"levelo://app?vid=185afeba-d808-4e02-a0a9-f1c6681a8cc4","ios":"levelo://app?vid=185afeba-d808-4e02-a0a9-f1c6681a8cc4"},"vehicle_type_id":"4","last_reported":1752095410,"current_range_meters":18800,"station_id":"ce4bhqp2rcd13ifvqhng","pricing_plan_id":"cebpf4jnsgd1na2vs0mg"},{"bike_id":"e55186fb-d934-4f81-8e99-e4ed23d7b2cf","system_id":"levelo_inurba_marseille","lat":43.29784,"lon":5.39343,"is_reserved":false,"is_disabled":false,"rental_uris":{"android":"levelo://app?vid=e55186fb-d934-4f81-8e99-e4ed23d7b2cf","ios":"levelo://app?vid=e55186fb-d934-4f81-8e99-e4ed23d7b2cf"},"vehicle_type_id":"4","last_reported":1752095410,"current_range_meters":18800,"station_id":"chh1huq6cuj3fo74tm60","pricing_plan_id":"cebpf4jnsgd1na2vs0mg"},{"bike_id":"744de9c5-5760-4c22-96e4-d65a1e22d14f","system_id":"levelo_inurba_marseille","lat":43.32045,"lon":5.40931,"is_reserved":false,"is_disabled":false,"rental_uris":{"android":"levelo://app?vid=744de9c5-5760-4c22-96e4-d65a1e22d14f","ios":"levelo://app?vid=744de9c5-5760-4c22-96e4-d65a1e22d14f"},"vehicle_type_id":"4","last_reported":1752095410,"current_range_meters":19200,"station_id":"","pricing_plan_id":"cebpf4jnsgd1na2vs0mg"},{"bike_id":"fa87fcb5-aacb-41a1-a789-0296bbd02085","system_id":"levelo_inurba_marseille","lat":43.245819,"lon":5.373831,"is_reserved":false,"is_disabled":false,"rental_uris":{"android":"levelo://app?vid=fa87fcb5-aacb-41a1-a789-0296bbd02085","ios":"levelo://app?vid=fa87fcb5-aacb-41a1-a789-0296bbd02085"},"vehicle_type_id":"4","last_reported":1752095410,"current_range_meters":19200,"station_id":"","pricing_plan_id":"cebpf4jnsgd1na2vs0mg"},{"bike_id":"4e209b0c-855f-4b51-8120-2faef8673853","system_id":"levelo_inurba_marseille","lat":43.30616,"lon":5.36891,"is_reserved":false,"is_disabled":false,"rental_uris":{"android":"levelo://app?vid=4e209b0c-855f-4b51-8120-2faef8673853","ios":"levelo://app?vid=4e209b0c-855f-4b51-8120-2faef8673853"},"vehicle_type_id":"4","last_reported":1752095410,"current_range_meters":19200,"station_id":"","pricing_plan_id":"cebpf4jnsgd1na2vs0mg"},{"bike_id":"19f64100-b43c-4f66-aaf8-a6caaaae2cfe","system_id":"levelo_inurba_marseille","lat":43.30134,"lon":5.39872,"is_reserved":false,"is_disabled":false,"rental_uris":{"android":"levelo://app?vid=19f64100-b43c-4f66-aaf8-a6caaaae2cfe","ios":"levelo://app?vid=19f64100-b43c-4f66-aaf8-a6caaaae2cfe"},"vehicle_type_id":"4","last_reported":1752095410,"current_range_meters":19200,"station_id":"ce4bh0h2rcd13ifvqd40","pricing_plan_id":"cebpf4jnsgd1na2vs0mg"},{"bike_id":"349ff3b8-c875-4c6d-ad28-0372560d9cc3","system_id":"levelo_inurba_marseille","lat":43.26012,"lon":5.37554,"is_reserved":false,"is_disabled":false,"rental_uris":{"android":"levelo://app?vid=349ff3b8-c875-4c6d-ad28-0372560d9cc3","ios":"levelo://app?vid=349ff3b8-c875-4c6d-ad28-0372560d9cc3"},"vehicle_type_id":"4","last_reported":1752095410,"current_range_meters":19200,"station_id":"ce4bhgh2rcd13ifvqfa0","pricing_plan_id":"cebpf4jnsgd1na2vs0mg"},{"bike_id":"5e0f5236-053d-43cb-bc8a-441fb2537799","system_id":"levelo_inurba_marseille","lat":43.25087,"lon":5.39526,"is_reserved":false,"is_disabled":false,"rental_uris":{"android":"levelo://app?vid=5e0f5236-053d-43cb-bc8a-441fb2537799","ios":"levelo://app?vid=5e0f5236-053d-43cb-bc8a-441fb2537799"},"vehicle_type_id":"4","last_reported":1752095410,"current_range_meters":19200,"station_id":"ce4bhm12rcd13ifvqgkg","pricing_plan_id":"cebpf4jnsgd1na2vs0mg"},{"bike_id":"89c88601-23fc-46eb-8f34-723cccb1bf9d","system_id":"levelo_inurba_marseille","lat":43.27492,"lon":5.42456,"is_reserved":false,"is_disabled":false,"rental_uris":{"android":"levelo://app?vid=89c88601-23fc-46eb-8f34-723cccb1bf9d","ios":"levelo://app?vid=89c88601-23fc-46eb-8f34-723cccb1bf9d"},"vehicle_type_id":"4","last_reported":1752095410,"current_range_meters":19200,"station_id":"ce4bhn92rcd13ifvqgrg","pricing_plan_id":"cebpf4jnsgd1na2vs0mg"},{"bike_id":"d84fcb78-434e-4857-a59b-bf1ff23ff44a","system_id":"levelo_inurba_marseille","lat":43.28152,"lon":5.42662,"is_reserved":false,"is_disabled":false,"rental_uris":{"android":"levelo://app?vid=d84fcb78-434e-4857-a59b-bf1ff23ff44a","ios":"levelo://app?vid=d84fcb78-434e-4857-a59b-bf1ff23ff44a"},"vehicle_type_id":"4","last_reported":1752095410,"current_range_meters":19200,"station_id":"ce4bhnh2rcd13ifvqgug","pricing_plan_id":"cebpf4jnsgd1na2vs0mg"},{"bike_id":"cc63da02-fffb-4f4c-8416-18cf7673613b","system_id":"levelo_inurba_marseille","lat":43.31076,"lon":5.40085,"is_reserved":false,"is_disabled":false,"rental_uris":{"android":"levelo://app?vid=cc63da02-fffb-4f4c-8416-18cf7673613b","ios":"levelo://app?vid=cc63da02-fffb-4f4c-8416-18cf7673613b"},"vehicle_type_id":"4","last_reported":1752095410,"current_range_meters":19600,"station_id":"","pricing_plan_id":"cebpf4jnsgd1na2vs0mg"},{"bike_id":"bd5228ab-002e-4f81-bbd3-2baf5452f591","system_id":"levelo_inurba_marseille","lat":43.27812,"lon":5.41456,"is_reserved":false,"is_disabled":false,"rental_uris":{"android":"levelo://app?vid=bd5228ab-002e-4f81-bbd3-2baf5452f591","ios":"levelo://app?vid=bd5228ab-002e-4f81-bbd3-2baf5452f591"},"vehicle_type_id":"4","last_reported":1752095410,"current_range_meters":19600,"station_id":"","pricing_plan_id":"cebpf4jnsgd1na2vs0mg"},{"bike_id":"6ef5f3ea-45a5-4129-a8bc-9005968550f8","system_id":"levelo_inurba_marseille","lat":43.30764,"lon":5.37227,"is_reserved":false,"is_disabled":false,"rental_uris":{"android":"levelo://app?vid=6ef5f3ea-45a5-4129-a8bc-9005968550f8","ios":"levelo://app?vid=6ef5f3ea-45a5-4129-a8bc-9005968550f8"},"vehicle_type_id":"4","last_reported":1752095410,"current_range_meters":19600,"station_id":"","pricing_plan_id":"cebpf4jnsgd1na2vs0mg"},{"bike_id":"84d20852-2b20-4e8c-a22c-3f7df165829d","system_id":"levelo_inurba_marseille","lat":43.28928,"lon":5.36631,"is_reserved":false,"is_disabled":false,"rental_uris":{"android":"levelo://app?vid=84d20852-2b20-4e8c-a22c-3f7df165829d","ios":"levelo://app?vid=84d20852-2b20-4e8c-a22c-3f7df165829d"},"vehicle_type_id":"4","last_reported":1752095410,"current_range_meters":19600,"station_id":"ce4bhap2rcd13ifvqek0","pricing_plan_id":"cebpf4jnsgd1na2vs0mg"},{"bike_id":"ffc2e2b6-35bb-4d10-8426-a91c6e53ab63","system_id":"levelo_inurba_marseille","lat":43.265644,"lon":5.39005,"is_reserved":false,"is_disabled":false,"rental_uris":{"android":"levelo://app?vid=ffc2e2b6-35bb-4d10-8426-a91c6e53ab63","ios":"levelo://app?vid=ffc2e2b6-35bb-4d10-8426-a91c6e53ab63"},"vehicle_type_id":"4","last_reported":1752095410,"current_range_meters":19600,"station_id":"ce4bhbh2rcd13ifvqeqg","pricing_plan_id":"cebpf4jnsgd1na2vs0mg"},{"bike_id":"ee1ac907-8623-4d00-ac01-d41dd90be9fe","system_id":"levelo_inurba_marseille","lat":43.211904,"lon":5.350709,"is_reserved":false,"is_disabled":false,"rental_uris":{"android":"levelo://app?vid=ee1ac907-8623-4d00-ac01-d41dd90be9fe","ios":"levelo://app?vid=ee1ac907-8623-4d00-ac01-d41dd90be9fe"},"vehicle_type_id":"4","last_reported":1752095410,"current_range_meters":19600,"station_id":"st_cvj6sg6p6f1abm77japg","pricing_plan_id":"cebpf4jnsgd1na2vs0mg"},{"bike_id":"24b17f7b-dff1-4936-b27a-7c2c6813a894","system_id":"levelo_inurba_marseille","lat":43.24578,"lon":5.37391,"is_reserved":false,"is_disabled":false,"rental_uris":{"android":"levelo://app?vid=24b17f7b-dff1-4936-b27a-7c2c6813a894","ios":"levelo://app?vid=24b17f7b-dff1-4936-b27a-7c2c6813a894"},"vehicle_type_id":"4","last_reported":1752095410,"current_range_meters":20000,"station_id":"","pricing_plan_id":"cebpf4jnsgd1na2vs0mg"},{"bike_id":"6a12db26-e8b0-4638-8f67-a4ca389d53ec","system_id":"levelo_inurba_marseille","lat":43.29695,"lon":5.36601,"is_reserved":false,"is_disabled":false,"rental_uris":{"android":"levelo://app?vid=6a12db26-e8b0-4638-8f67-a4ca389d53ec","ios":"levelo://app?vid=6a12db26-e8b0-4638-8f67-a4ca389d53ec"},"vehicle_type_id":"4","last_reported":1752095410,"current_range_meters":20000,"station_id":"ce4bgn12rcd13ifvqbt0","pricing_plan_id":"cebpf4jnsgd1na2vs0mg"},{"bike_id":"55eb3ee3-207d-45c9-a356-7e275a6ee08e","system_id":"levelo_inurba_marseille","lat":43.322208,"lon":5.407363,"is_reserved":false,"is_disabled":false,"rental_uris":{"android":"levelo://app?vid=55eb3ee3-207d-45c9-a356-7e275a6ee08e","ios":"levelo://app?vid=55eb3ee3-207d-45c9-a356-7e275a6ee08e"},"vehicle_type_id":"4","last_reported":1752095410,"current_range_meters":20000,"station_id":"ce4bh092rcd13ifvqd30","pricing_plan_id":"cebpf4jnsgd1na2vs0mg"},{"bike_id":"d960cf86-f7e2-4d02-9492-dc377f02880f","system_id":"levelo_inurba_marseille","lat":43.25497,"lon":5.37651,"is_reserved":false,"is_disabled":false,"rental_uris":{"android":"levelo://app?vid=d960cf86-f7e2-4d02-9492-dc377f02880f","ios":"levelo://app?vid=d960cf86-f7e2-4d02-9492-dc377f02880f"},"vehicle_type_id":"4","last_reported":1752095410,"current_range_meters":20000,"station_id":"ce4bhh12rcd13ifvqff0","pricing_plan_id":"cebpf4jnsgd1na2vs0mg"},{"bike_id":"3dc51916-1d9f-4e6a-95c3-43de9e9fa842","system_id":"levelo_inurba_marseille","lat":43.26497,"lon":5.39537,"is_reserved":false,"is_disabled":false,"rental_uris":{"android":"levelo://app?vid=3dc51916-1d9f-4e6a-95c3-43de9e9fa842","ios":"levelo://app?vid=3dc51916-1d9f-4e6a-95c3-43de9e9fa842"},"vehicle_type_id":"4","last_reported":1752095410,"current_range_meters":20000,"station_id":"ce4bhi12rcd13ifvqfq0","pricing_plan_id":"cebpf4jnsgd1na2vs0mg"},{"bike_id":"25ebe410-af6c-4dd9-ac50-b7c942890636","system_id":"levelo_inurba_marseille","lat":43.30444,"lon":5.38903,"is_reserved":false,"is_disabled":false,"rental_uris":{"android":"levelo://app?vid=25ebe410-af6c-4dd9-ac50-b7c942890636","ios":"levelo://app?vid=25ebe410-af6c-4dd9-ac50-b7c942890636"},"vehicle_type_id":"4","last_reported":1752095410,"current_range_meters":20400,"station_id":"ce4bgk12rcd13ifvqbi0","pricing_plan_id":"cebpf4jnsgd1na2vs0mg"},{"bike_id":"e87d9566-a837-4c78-acc9-8a1366e1f719","system_id":"levelo_inurba_marseille","lat":43.2957,"lon":5.36751,"is_reserved":false,"is_disabled":false,"rental_uris":{"android":"levelo://app?vid=e87d9566-a837-4c78-acc9-8a1366e1f719","ios":"levelo://app?vid=e87d9566-a837-4c78-acc9-8a1366e1f719"},"vehicle_type_id":"4","last_reported":1752095410,"current_range_meters":20400,"station_id":"ce4bgph2rcd13ifvqc2g","pricing_plan_id":"cebpf4jnsgd1na2vs0mg"},{"bike_id":"75d3b45d-81e0-4cf5-838f-651dccc5c36e","system_id":"levelo_inurba_marseille","lat":43.30586,"lon":5.372202,"is_reserved":false,"is_disabled":false,"rental_uris":{"android":"levelo://app?vid=75d3b45d-81e0-4cf5-838f-651dccc5c36e","ios":"levelo://app?vid=75d3b45d-81e0-4cf5-838f-651dccc5c36e"},"vehicle_type_id":"4","last_reported":1752095410,"current_range_meters":20400,"station_id":"ce4bgqh2rcd13ifvqc4g","pricing_plan_id":"cebpf4jnsgd1na2vs0mg"},{"bike_id":"372a6d28-fb40-47fa-94c4-745b9e86012c","system_id":"levelo_inurba_marseille","lat":43.28692,"lon":5.37384,"is_reserved":false,"is_disabled":false,"rental_uris":{"android":"levelo://app?vid=372a6d28-fb40-47fa-94c4-745b9e86012c","ios":"levelo://app?vid=372a6d28-fb40-47fa-94c4-745b9e86012c"},"vehicle_type_id":"4","last_reported":1752095410,"current_range_meters":20400,"station_id":"ce4bh3p2rcd13ifvqdq0","pricing_plan_id":"cebpf4jnsgd1na2vs0mg"},{"bike_id":"938fb6c9-7d2c-4117-acbb-022329bd2243","system_id":"levelo_inurba_marseille","lat":43.29027,"lon":5.38645,"is_reserved":false,"is_disabled":false,"rental_uris":{"android":"levelo://app?vid=938fb6c9-7d2c-4117-acbb-022329bd2243","ios":"levelo://app?vid=938fb6c9-7d2c-4117-acbb-022329bd2243"},"vehicle_type_id":"4","last_reported":1752095410,"current_range_meters":20400,"station_id":"ce4bh4p2rcd13ifvqe0g","pricing_plan_id":"cebpf4jnsgd1na2vs0mg"},{"bike_id":"bc7165e3-a5da-49f9-9eb7-2482c6d384cd","system_id":"levelo_inurba_marseille","lat":43.29254,"lon":5.38437,"is_reserved":false,"is_disabled":false,"rental_uris":{"android":"levelo://app?vid=bc7165e3-a5da-49f9-9eb7-2482c6d384cd","ios":"levelo://app?vid=bc7165e3-a5da-49f9-9eb7-2482c6d384cd"},"vehicle_type_id":"4","last_reported":1752095410,"current_range_meters":20400,"station_id":"ce4bh692rcd13ifvqea0","pricing_plan_id":"cebpf4jnsgd1na2vs0mg"},{"bike_id":"e86ce38b-d55d-4adf-a998-0ebe08c67490","system_id":"levelo_inurba_marseille","lat":43.278432,"lon":5.392136,"is_reserved":false,"is_disabled":false,"rental_uris":{"android":"levelo://app?vid=e86ce38b-d55d-4adf-a998-0ebe08c67490","ios":"levelo://app?vid=e86ce38b-d55d-4adf-a998-0ebe08c67490"},"vehicle_type_id":"4","last_reported":1752095410,"current_range_meters":20400,"station_id":"ce4bhjp2rcd13ifvqga0","pricing_plan_id":"cebpf4jnsgd1na2vs0mg"},{"bike_id":"1da2e0db-7de7-4ffe-b2b9-fe6156e6331c","system_id":"levelo_inurba_marseille","lat":43.27179,"lon":5.40995,"is_reserved":false,"is_disabled":false,"rental_uris":{"android":"levelo://app?vid=1da2e0db-7de7-4ffe-b2b9-fe6156e6331c","ios":"levelo://app?vid=1da2e0db-7de7-4ffe-b2b9-fe6156e6331c"},"vehicle_type_id":"4","last_reported":1752095410,"current_range_meters":20400,"station_id":"ce4bhl12rcd13ifvqgf0","pricing_plan_id":"cebpf4jnsgd1na2vs0mg"},{"bike_id":"65a2bda2-09c9-4c30-8c9f-807823f4b09f","system_id":"levelo_inurba_marseille","lat":43.31713,"lon":5.43712,"is_reserved":false,"is_disabled":false,"rental_uris":{"android":"levelo://app?vid=65a2bda2-09c9-4c30-8c9f-807823f4b09f","ios":"levelo://app?vid=65a2bda2-09c9-4c30-8c9f-807823f4b09f"},"vehicle_type_id":"4","last_reported":1752095410,"current_range_meters":20400,"station_id":"ce4bhp92rcd13ifvqhcg","pricing_plan_id":"cebpf4jnsgd1na2vs0mg"},{"bike_id":"b2f5ef92-03ba-4e0d-ab3d-784090c7b3eb","system_id":"levelo_inurba_marseille","lat":43.31991,"lon":5.38153,"is_reserved":false,"is_disabled":false,"rental_uris":{"android":"levelo://app?vid=b2f5ef92-03ba-4e0d-ab3d-784090c7b3eb","ios":"levelo://app?vid=b2f5ef92-03ba-4e0d-ab3d-784090c7b3eb"},"vehicle_type_id":"4","last_reported":1752095410,"current_range_meters":20400,"station_id":"ce4bhr12rcd13ifvqhpg","pricing_plan_id":"cebpf4jnsgd1na2vs0mg"},{"bike_id":"8f89e4f3-495a-4317-bd6d-37a19186d65b","system_id":"levelo_inurba_marseille","lat":43.33733,"lon":5.39186,"is_reserved":false,"is_disabled":false,"rental_uris":{"android":"levelo://app?vid=8f89e4f3-495a-4317-bd6d-37a19186d65b","ios":"levelo://app?vid=8f89e4f3-495a-4317-bd6d-37a19186d65b"},"vehicle_type_id":"4","last_reported":1752095410,"current_range_meters":20400,"station_id":"ce4bhr92rcd13ifvqhsg","pricing_plan_id":"cebpf4jnsgd1na2vs0mg"},{"bike_id":"d6183b14-14ca-44c7-b355-9bc124d67e93","system_id":"levelo_inurba_marseille","lat":43.31496,"lon":5.38021,"is_reserved":false,"is_disabled":false,"rental_uris":{"android":"levelo://app?vid=d6183b14-14ca-44c7-b355-9bc124d67e93","ios":"levelo://app?vid=d6183b14-14ca-44c7-b355-9bc124d67e93"},"vehicle_type_id":"4","last_reported":1752095410,"current_range_meters":20400,"station_id":"ce4bhsp2rcd13ifvqi50","pricing_plan_id":"cebpf4jnsgd1na2vs0mg"},{"bike_id":"a37c81c5-d096-4e6d-b1b3-5bbb8251fbd0","system_id":"levelo_inurba_marseille","lat":43.24458,"lon":5.37109,"is_reserved":false,"is_disabled":false,"rental_uris":{"android":"levelo://app?vid=a37c81c5-d096-4e6d-b1b3-5bbb8251fbd0","ios":"levelo://app?vid=a37c81c5-d096-4e6d-b1b3-5bbb8251fbd0"},"vehicle_type_id":"4","last_reported":1752095410,"current_range_meters":20800,"station_id":"","pricing_plan_id":"cebpf4jnsgd1na2vs0mg"},{"bike_id":"ee8f64bf-0d80-4020-b535-a49594587b6c","system_id":"levelo_inurba_marseille","lat":43.29613,"lon":5.38086,"is_reserved":false,"is_disabled":false,"rental_uris":{"android":"levelo://app?vid=ee8f64bf-0d80-4020-b535-a49594587b6c","ios":"levelo://app?vid=ee8f64bf-0d80-4020-b535-a49594587b6c"},"vehicle_type_id":"4","last_reported":1752095410,"current_range_meters":20800,"station_id":"ce4bgl12rcd13ifvqbo0","pricing_plan_id":"cebpf4jnsgd1na2vs0mg"},{"bike_id":"84b4b648-af73-45d0-999a-da7093d10a73","system_id":"levelo_inurba_marseille","lat":43.29864,"lon":5.39731,"is_reserved":false,"is_disabled":false,"rental_uris":{"android":"levelo://app?vid=84b4b648-af73-45d0-999a-da7093d10a73","ios":"levelo://app?vid=84b4b648-af73-45d0-999a-da7093d10a73"},"vehicle_type_id":"4","last_reported":1752095410,"current_range_meters":20800,"station_id":"ce4bh0h2rcd13ifvqd50","pricing_plan_id":"cebpf4jnsgd1na2vs0mg"},{"bike_id":"b6c12825-3741-4854-8ae9-d6fff2d3e9bd","system_id":"levelo_inurba_marseille","lat":43.28568,"lon":5.39495,"is_reserved":false,"is_disabled":false,"rental_uris":{"android":"levelo://app?vid=b6c12825-3741-4854-8ae9-d6fff2d3e9bd","ios":"levelo://app?vid=b6c12825-3741-4854-8ae9-d6fff2d3e9bd"},"vehicle_type_id":"4","last_reported":1752095410,"current_range_meters":20800,"station_id":"ce4bh292rcd13ifvqdg0","pricing_plan_id":"cebpf4jnsgd1na2vs0mg"},{"bike_id":"ec8c5aa7-4afc-40cc-acaa-a813d13c4c09","system_id":"levelo_inurba_marseille","lat":43.29881,"lon":5.38911,"is_reserved":false,"is_disabled":false,"rental_uris":{"android":"levelo://app?vid=ec8c5aa7-4afc-40cc-acaa-a813d13c4c09","ios":"levelo://app?vid=ec8c5aa7-4afc-40cc-acaa-a813d13c4c09"},"vehicle_type_id":"4","last_reported":1752095410,"current_range_meters":20800,"station_id":"ce4bh392rcd13ifvqdl0","pricing_plan_id":"cebpf4jnsgd1na2vs0mg"},{"bike_id":"4ea8787b-94a1-4557-add0-1c967800e591","system_id":"levelo_inurba_marseille","lat":43.28717,"lon":5.37942,"is_reserved":false,"is_disabled":false,"rental_uris":{"android":"levelo://app?vid=4ea8787b-94a1-4557-add0-1c967800e591","ios":"levelo://app?vid=4ea8787b-94a1-4557-add0-1c967800e591"},"vehicle_type_id":"4","last_reported":1752095410,"current_range_meters":20800,"station_id":"ce4bh9p2rcd13ifvqec0","pricing_plan_id":"cebpf4jnsgd1na2vs0mg"},{"bike_id":"f54105b2-be92-42f1-b289-5a7acd7fce43","system_id":"levelo_inurba_marseille","lat":43.28031,"lon":5.36952,"is_reserved":false,"is_disabled":false,"rental_uris":{"android":"levelo://app?vid=f54105b2-be92-42f1-b289-5a7acd7fce43","ios":"levelo://app?vid=f54105b2-be92-42f1-b289-5a7acd7fce43"},"vehicle_type_id":"4","last_reported":1752095410,"current_range_meters":20800,"station_id":"ce4bha12rcd13ifvqef0","pricing_plan_id":"cebpf4jnsgd1na2vs0mg"},{"bike_id":"18d2508a-a880-4a6d-a2c0-4fb6073a1647","system_id":"levelo_inurba_marseille","lat":43.28461,"lon":5.35891,"is_reserved":false,"is_disabled":false,"rental_uris":{"android":"levelo://app?vid=18d2508a-a880-4a6d-a2c0-4fb6073a1647","ios":"levelo://app?vid=18d2508a-a880-4a6d-a2c0-4fb6073a1647"},"vehicle_type_id":"4","last_reported":1752095410,"current_range_meters":20800,"station_id":"ce4bhah2rcd13ifvqei0","pricing_plan_id":"cebpf4jnsgd1na2vs0mg"},{"bike_id":"cc91f022-5f4f-478d-8287-995a3efb66d1","system_id":"levelo_inurba_marseille","lat":43.26201,"lon":5.4047,"is_reserved":false,"is_disabled":false,"rental_uris":{"android":"levelo://app?vid=cc91f022-5f4f-478d-8287-995a3efb66d1","ios":"levelo://app?vid=cc91f022-5f4f-478d-8287-995a3efb66d1"},"vehicle_type_id":"4","last_reported":1752095410,"current_range_meters":20800,"station_id":"ce4bhmh2rcd13ifvqgmg","pricing_plan_id":"cebpf4jnsgd1na2vs0mg"},{"bike_id":"4da5d463-3ec2-4443-a38b-2551d2f31039","system_id":"levelo_inurba_marseille","lat":43.22509,"lon":5.3477,"is_reserved":false,"is_disabled":false,"rental_uris":{"android":"levelo://app?vid=4da5d463-3ec2-4443-a38b-2551d2f31039","ios":"levelo://app?vid=4da5d463-3ec2-4443-a38b-2551d2f31039"},"vehicle_type_id":"4","last_reported":1752095410,"current_range_meters":20800,"station_id":"st_cvj5dfep6f1abm77gieg","pricing_plan_id":"cebpf4jnsgd1na2vs0mg"},{"bike_id":"ab521df9-ab36-4a3d-a446-31ee393c87dd","system_id":"levelo_inurba_marseille","lat":43.30858,"lon":5.40383,"is_reserved":false,"is_disabled":false,"rental_uris":{"android":"levelo://app?vid=ab521df9-ab36-4a3d-a446-31ee393c87dd","ios":"levelo://app?vid=ab521df9-ab36-4a3d-a446-31ee393c87dd"},"vehicle_type_id":"4","last_reported":1752095410,"current_range_meters":21600,"station_id":"","pricing_plan_id":"cebpf4jnsgd1na2vs0mg"},{"bike_id":"4862dd01-ab5f-44e3-aaab-615bc41d1b9b","system_id":"levelo_inurba_marseille","lat":43.29526,"lon":5.38545,"is_reserved":false,"is_disabled":false,"rental_uris":{"android":"levelo://app?vid=4862dd01-ab5f-44e3-aaab-615bc41d1b9b","ios":"levelo://app?vid=4862dd01-ab5f-44e3-aaab-615bc41d1b9b"},"vehicle_type_id":"4","last_reported":1752095410,"current_range_meters":21600,"station_id":"ce4bgih2rcd13ifvqba0","pricing_plan_id":"cebpf4jnsgd1na2vs0mg"},{"bike_id":"f317e926-256f-4d08-9c9f-da826b354f1d","system_id":"levelo_inurba_marseille","lat":43.28924,"lon":5.3662,"is_reserved":false,"is_disabled":false,"rental_uris":{"android":"levelo://app?vid=f317e926-256f-4d08-9c9f-da826b354f1d","ios":"levelo://app?vid=f317e926-256f-4d08-9c9f-da826b354f1d"},"vehicle_type_id":"4","last_reported":1752095410,"current_range_meters":21600,"station_id":"ce4bhap2rcd13ifvqek0","pricing_plan_id":"cebpf4jnsgd1na2vs0mg"},{"bike_id":"29a0a180-d29f-4a4e-a71b-d1d9d42cb217","system_id":"levelo_inurba_marseille","lat":43.21191,"lon":5.35071,"is_reserved":false,"is_disabled":false,"rental_uris":{"android":"levelo://app?vid=29a0a180-d29f-4a4e-a71b-d1d9d42cb217","ios":"levelo://app?vid=29a0a180-d29f-4a4e-a71b-d1d9d42cb217"},"vehicle_type_id":"4","last_reported":1752095410,"current_range_meters":21600,"station_id":"st_cvj6sg6p6f1abm77japg","pricing_plan_id":"cebpf4jnsgd1na2vs0mg"},{"bike_id":"a5a6c2c1-2d48-4581-8647-6eab6c0bbb54","system_id":"levelo_inurba_marseille","lat":43.26909,"lon":5.36924,"is_reserved":false,"is_disabled":false,"rental_uris":{"android":"levelo://app?vid=a5a6c2c1-2d48-4581-8647-6eab6c0bbb54","ios":"levelo://app?vid=a5a6c2c1-2d48-4581-8647-6eab6c0bbb54"},"vehicle_type_id":"4","last_reported":1752095410,"current_range_meters":22000,"station_id":"","pricing_plan_id":"cebpf4jnsgd1na2vs0mg"},{"bike_id":"ca82af78-77e6-4092-9d8e-80a6b4175624","system_id":"levelo_inurba_marseille","lat":43.29753,"lon":5.46004,"is_reserved":false,"is_disabled":false,"rental_uris":{"android":"levelo://app?vid=ca82af78-77e6-4092-9d8e-80a6b4175624","ios":"levelo://app?vid=ca82af78-77e6-4092-9d8e-80a6b4175624"},"vehicle_type_id":"4","last_reported":1752095410,"current_range_meters":22000,"station_id":"","pricing_plan_id":"cebpf4jnsgd1na2vs0mg"},{"bike_id":"23210e1a-5174-4d90-979a-f335537cdfee","system_id":"levelo_inurba_marseille","lat":43.29707,"lon":5.36662,"is_reserved":false,"is_disabled":false,"rental_uris":{"android":"levelo://app?vid=23210e1a-5174-4d90-979a-f335537cdfee","ios":"levelo://app?vid=23210e1a-5174-4d90-979a-f335537cdfee"},"vehicle_type_id":"4","last_reported":1752095410,"current_range_meters":22000,"station_id":"ce4bgn12rcd13ifvqbt0","pricing_plan_id":"cebpf4jnsgd1na2vs0mg"},{"bike_id":"dcf54dfb-1fba-41b7-82bd-01546757be34","system_id":"levelo_inurba_marseille","lat":43.31076,"lon":5.38355,"is_reserved":false,"is_disabled":false,"rental_uris":{"android":"levelo://app?vid=dcf54dfb-1fba-41b7-82bd-01546757be34","ios":"levelo://app?vid=dcf54dfb-1fba-41b7-82bd-01546757be34"},"vehicle_type_id":"4","last_reported":1752095410,"current_range_meters":22000,"station_id":"ce4bgv92rcd13ifvqcr0","pricing_plan_id":"cebpf4jnsgd1na2vs0mg"},{"bike_id":"4f8f7d20-9e19-4261-b2f5-f80fd5ee46bf","system_id":"levelo_inurba_marseille","lat":43.30649,"lon":5.40094,"is_reserved":false,"is_disabled":false,"rental_uris":{"android":"levelo://app?vid=4f8f7d20-9e19-4261-b2f5-f80fd5ee46bf","ios":"levelo://app?vid=4f8f7d20-9e19-4261-b2f5-f80fd5ee46bf"},"vehicle_type_id":"4","last_reported":1752095410,"current_range_meters":22000,"station_id":"ce4bh112rcd13ifvqda0","pricing_plan_id":"cebpf4jnsgd1na2vs0mg"},{"bike_id":"33354313-9ee9-4c41-a8ae-2c2896dce149","system_id":"levelo_inurba_marseille","lat":43.2928,"lon":5.40117,"is_reserved":false,"is_disabled":false,"rental_uris":{"android":"levelo://app?vid=33354313-9ee9-4c41-a8ae-2c2896dce149","ios":"levelo://app?vid=33354313-9ee9-4c41-a8ae-2c2896dce149"},"vehicle_type_id":"4","last_reported":1752095410,"current_range_meters":22000,"station_id":"ce4bh312rcd13ifvqdk0","pricing_plan_id":"cebpf4jnsgd1na2vs0mg"},{"bike_id":"211a54d0-a40f-45e0-a7cf-b25af809f144","system_id":"levelo_inurba_marseille","lat":43.28347,"lon":5.38099,"is_reserved":false,"is_disabled":false,"rental_uris":{"android":"levelo://app?vid=211a54d0-a40f-45e0-a7cf-b25af809f144","ios":"levelo://app?vid=211a54d0-a40f-45e0-a7cf-b25af809f144"},"vehicle_type_id":"4","last_reported":1752095410,"current_range_meters":22000,"station_id":"ce4bh412rcd13ifvqdr0","pricing_plan_id":"cebpf4jnsgd1na2vs0mg"},{"bike_id":"6425a54e-dbf7-430c-bfdf-d4f1e3c822f5","system_id":"levelo_inurba_marseille","lat":43.27945,"lon":5.41048,"is_reserved":false,"is_disabled":false,"rental_uris":{"android":"levelo://app?vid=6425a54e-dbf7-430c-bfdf-d4f1e3c822f5","ios":"levelo://app?vid=6425a54e-dbf7-430c-bfdf-d4f1e3c822f5"},"vehicle_type_id":"4","last_reported":1752095410,"current_range_meters":22000,"station_id":"ce4bhnp2rcd13ifvqh0g","pricing_plan_id":"cebpf4jnsgd1na2vs0mg"},{"bike_id":"e3a75ee9-c614-467b-8cc2-f813bcef2ab1","system_id":"levelo_inurba_marseille","lat":43.33743,"lon":5.3919,"is_reserved":false,"is_disabled":false,"rental_uris":{"android":"levelo://app?vid=e3a75ee9-c614-467b-8cc2-f813bcef2ab1","ios":"levelo://app?vid=e3a75ee9-c614-467b-8cc2-f813bcef2ab1"},"vehicle_type_id":"4","last_reported":1752095410,"current_range_meters":22000,"station_id":"ce4bhr92rcd13ifvqhsg","pricing_plan_id":"cebpf4jnsgd1na2vs0mg"},{"bike_id":"3e10134f-0d30-42b2-88ed-5b5956204000","system_id":"levelo_inurba_marseille","lat":43.29585,"lon":5.3672,"is_reserved":false,"is_disabled":false,"rental_uris":{"android":"levelo://app?vid=3e10134f-0d30-42b2-88ed-5b5956204000","ios":"levelo://app?vid=3e10134f-0d30-42b2-88ed-5b5956204000"},"vehicle_type_id":"4","last_reported":1752095410,"current_range_meters":22400,"station_id":"ce4bgph2rcd13ifvqc2g","pricing_plan_id":"cebpf4jnsgd1na2vs0mg"},{"bike_id":"67b9ed25-e9bf-413e-971d-7c7d798db7b5","system_id":"levelo_inurba_marseille","lat":43.31486,"lon":5.37307,"is_reserved":false,"is_disabled":false,"rental_uris":{"android":"levelo://app?vid=67b9ed25-e9bf-413e-971d-7c7d798db7b5","ios":"levelo://app?vid=67b9ed25-e9bf-413e-971d-7c7d798db7b5"},"vehicle_type_id":"4","last_reported":1752095410,"current_range_meters":22400,"station_id":"ce4bgt12rcd13ifvqcd0","pricing_plan_id":"cebpf4jnsgd1na2vs0mg"},{"bike_id":"3faa9bff-913c-4ce3-81de-3370fef51007","system_id":"levelo_inurba_marseille","lat":43.28105,"lon":5.37843,"is_reserved":false,"is_disabled":false,"rental_uris":{"android":"levelo://app?vid=3faa9bff-913c-4ce3-81de-3370fef51007","ios":"levelo://app?vid=3faa9bff-913c-4ce3-81de-3370fef51007"},"vehicle_type_id":"4","last_reported":1752095410,"current_range_meters":22400,"station_id":"ce4bha12rcd13ifvqee0","pricing_plan_id":"cebpf4jnsgd1na2vs0mg"},{"bike_id":"0e7b2b3d-302e-4f79-b4f4-4978d9814f29","system_id":"levelo_inurba_marseille","lat":43.28859,"lon":5.35862,"is_reserved":false,"is_disabled":false,"rental_uris":{"android":"levelo://app?vid=0e7b2b3d-302e-4f79-b4f4-4978d9814f29","ios":"levelo://app?vid=0e7b2b3d-302e-4f79-b4f4-4978d9814f29"},"vehicle_type_id":"4","last_reported":1752095410,"current_range_meters":22400,"station_id":"ce4bhb12rcd13ifvqem0","pricing_plan_id":"cebpf4jnsgd1na2vs0mg"},{"bike_id":"cb0ea848-8d47-4b80-ac79-ba990d05ac71","system_id":"levelo_inurba_marseille","lat":43.26495,"lon":5.39538,"is_reserved":false,"is_disabled":false,"rental_uris":{"android":"levelo://app?vid=cb0ea848-8d47-4b80-ac79-ba990d05ac71","ios":"levelo://app?vid=cb0ea848-8d47-4b80-ac79-ba990d05ac71"},"vehicle_type_id":"4","last_reported":1752095410,"current_range_meters":22400,"station_id":"ce4bhi12rcd13ifvqfq0","pricing_plan_id":"cebpf4jnsgd1na2vs0mg"},{"bike_id":"aa686c42-e201-4d5e-abf4-6665888e759e","system_id":"levelo_inurba_marseille","lat":43.33605,"lon":5.41029,"is_reserved":false,"is_disabled":false,"rental_uris":{"android":"levelo://app?vid=aa686c42-e201-4d5e-abf4-6665888e759e","ios":"levelo://app?vid=aa686c42-e201-4d5e-abf4-6665888e759e"},"vehicle_type_id":"4","last_reported":1752095410,"current_range_meters":22400,"station_id":"ce4bhqh2rcd13ifvqhmg","pricing_plan_id":"cebpf4jnsgd1na2vs0mg"},{"bike_id":"2a459f96-6b53-43f7-b70c-1135b0d88aea","system_id":"levelo_inurba_marseille","lat":43.23191,"lon":5.35551,"is_reserved":false,"is_disabled":false,"rental_uris":{"android":"levelo://app?vid=2a459f96-6b53-43f7-b70c-1135b0d88aea","ios":"levelo://app?vid=2a459f96-6b53-43f7-b70c-1135b0d88aea"},"vehicle_type_id":"4","last_reported":1752095410,"current_range_meters":22400,"station_id":"ce4bhu92rcd13ifvqi70","pricing_plan_id":"cebpf4jnsgd1na2vs0mg"},{"bike_id":"a3d06fdd-d90f-4da8-9200-8f61c005f0a2","system_id":"levelo_inurba_marseille","lat":43.22501,"lon":5.34776,"is_reserved":false,"is_disabled":false,"rental_uris":{"android":"levelo://app?vid=a3d06fdd-d90f-4da8-9200-8f61c005f0a2","ios":"levelo://app?vid=a3d06fdd-d90f-4da8-9200-8f61c005f0a2"},"vehicle_type_id":"4","last_reported":1752095410,"current_range_meters":22400,"station_id":"st_cvj5dfep6f1abm77gieg","pricing_plan_id":"cebpf4jnsgd1na2vs0mg"},