{"last_updated":1743116976,"ttl":60,"version":"2.2","data":{"bikes":[{"bike_id":"0d275473-88fa-4856-9e77-62617f945d08","system_id":"levelo_inurba_marseille","lat":43.28726,"lon":5.37931,"is_reserved":false,"is_disabled":false,"rental_uris":{"android":"levelo://app?vid=0d275473-88fa-4856-9e77-62617f945d08","ios":"levelo://app?vid=0d275473-88fa-4856-9e77-62617f945d08"},"vehicle_type_id":"4","last_reported":1743116977,"current_range_meters":2800,"station_id":"ce4bh9p2rcd13ifvqec0","pricing_plan_id":"cebpf4jnsgd1na2vs0mg"},{"bike_id":"3d81f6da-fe9d-4934-ad4c-1141e1eecd92","system_id":"levelo_inurba_marseille","lat":43.24159,"lon":5.36401,"is_reserved":false,"is_disabled":true,"rental_uris":{"android":"levelo://app?vid=3d81f6da-fe9d-4934-ad4c-1141e1eecd92","ios":"levelo://app?vid=3d81f6da-fe9d-4934-ad4c-1141e1eecd92"},"vehicle_type_id":"4","last_reported":1743116977,"current_range_meters":2800,"station_id":"cpo36qri1sfpv3e86is0","pricing_plan_id":"cebpf4jnsgd1na2vs0mg"},{"bike_id":"4a20d9b9-3f5a-408e-9507-d31bf6a35466","system_id":"levelo_inurba_marseille","lat":43.25512,"lon":5.37658,"is_reserved":false,"is_disabled":false,"rental_uris":{"android":"levelo://app?vid=4a20d9b9-3f5a-408e-9507-d31bf6a35466","ios":"levelo://app?vid=4a20d9b9-3f5a-408e-9507-d31bf6a35466"},"vehicle_type_id":"4","last_reported":1743116977,"current_range_meters":2800,"station_id":"ce4bhh12rcd13ifvqff0","pricing_plan_id":"cebpf4jnsgd1na2vs0mg"},{"bike_id":"14c89bea-87f4-4ed5-8da1-8e07e34be293","system_id":"levelo_inurba_marseille","lat":43.29922,"lon":5.37174,"is_reserved":false,"is_disabled":false,"rental_uris":{"android":"levelo://app?vid=14c89bea-87f4-4ed5-8da1-8e07e34be293","ios":"levelo://app?vid=14c89bea-87f4-4ed5-8da1-8e07e34be293"},"vehicle_type_id":"4","last_reported":1743116977,"current_range_meters":2800,"station_id":"","pricing_plan_id":"cebpf4jnsgd1na2vs0mg"},{"bike_id":"b501e66c-90dc-42b8-920a-de3982ca9ad9","system_id":"levelo_inurba_marseille","lat":43.25493,"lon":5.37675,"is_reserved":false,"is_disabled":true,"rental_uris":{"android":"levelo://app?vid=b501e66c-90dc-42b8-920a-de3982ca9ad9","ios":"levelo://app?vid=b501e66c-90dc-42b8-920a-de3982ca9ad9"},"vehicle_type_id":"4","last_reported":1743116977,"current_range_meters":2800,"station_id":"ce4bhh12rcd13ifvqff0","pricing_plan_id":"cebpf4jnsgd1na2vs0mg"},{"bike_id":"5fbb8541-57ed-40e4-a4a5-1acbcf038d1c","system_id":"levelo_inurba_marseille","lat":43.30214,"lon":5.39471,"is_reserved":false,"is_disabled":false,"rental_uris":{"android":"levelo://app?vid=5fbb8541-57ed-40e4-a4a5-1acbcf038d1c","ios":"levelo://app?vid=5fbb8541-57ed-40e4-a4a5-1acbcf038d1c"},"vehicle_type_id":"4","last_reported":1743116977,"current_range_meters":3200,"station_id":"ce4bh0p2rcd13ifvqd70","pricing_plan_id":"cebpf4jnsgd1na2vs0mg"},{"bike_id":"25f4efc5-c70b-4995-bab4-6b1e36d786e3","system_id":"levelo_inurba_marseille","lat":43.30195,"lon":5.36595,"is_reserved":false,"is_disabled":false,"rental_uris":{"android":"levelo://app?vid=25f4efc5-c70b-4995-bab4-6b1e36d786e3","ios":"levelo://app?vid=25f4efc5-c70b-4995-bab4-6b1e36d786e3"},"vehicle_type_id":"4","last_reported":1743116977,"current_range_meters":3200,"station_id":"ce4bgrh2rcd13ifvqc8g","pricing_plan_id":"cebpf4jnsgd1na2vs0mg"},{"bike_id":"11eb2dd9-7913-4da7-88e1-b980157f5f4b","system_id":"levelo_inurba_marseille","lat":43.33609,"lon":5.41017,"is_reserved":false,"is_disabled":false,"rental_uris":{"android":"levelo://app?vid=11eb2dd9-7913-4da7-88e1-b980157f5f4b","ios":"levelo://app?vid=11eb2dd9-7913-4da7-88e1-b980157f5f4b"},"vehicle_type_id":"4","last_reported":1743116977,"current_range_meters":3200,"station_id":"ce4bhqh2rcd13ifvqhmg","pricing_plan_id":"cebpf4jnsgd1na2vs0mg"},{"bike_id":"5e187ad1-bb14-42e5-8f54-b13a2f1781e9","system_id":"levelo_inurba_marseille","lat":43.29267,"lon":5.38459,"is_reserved":false,"is_disabled":true,"rental_uris":{"android":"levelo://app?vid=5e187ad1-bb14-42e5-8f54-b13a2f1781e9","ios":"levelo://app?vid=5e187ad1-bb14-42e5-8f54-b13a2f1781e9"},"vehicle_type_id":"4","last_reported":1743116977,"current_range_meters":3600,"station_id":"ce4bh692rcd13ifvqea0","pricing_plan_id":"cebpf4jnsgd1na2vs0mg"},{"bike_id":"654fd3e4-87df-4738-a5fd-b30af0b40979","system_id":"levelo_inurba_marseille","lat":43.28726,"lon":5.39995,"is_reserved":false,"is_disabled":false,"rental_uris":{"android":"levelo://app?vid=654fd3e4-87df-4738-a5fd-b30af0b40979","ios":"levelo://app?vid=654fd3e4-87df-4738-a5fd-b30af0b40979"},"vehicle_type_id":"4","last_reported":1743116977,"current_range_meters":3600,"station_id":"","pricing_plan_id":"cebpf4jnsgd1na2vs0mg"},{"bike_id":"a3e6f248-b75b-40dc-9ce0-a569e7377691","system_id":"levelo_inurba_marseille","lat":43.25933,"lon":5.40907,"is_reserved":false,"is_disabled":true,"rental_uris":{"android":"levelo://app?vid=a3e6f248-b75b-40dc-9ce0-a569e7377691","ios":"levelo://app?vid=a3e6f248-b75b-40dc-9ce0-a569e7377691"},"vehicle_type_id":"4","last_reported":1743116977,"current_range_meters":3600,"station_id":"ce4bhm92rcd13ifvqglg","pricing_plan_id":"cebpf4jnsgd1na2vs0mg"},{"bike_id":"1dd765a9-64b4-439c-a196-df55419cc971","system_id":"levelo_inurba_marseille","lat":43.24161,"lon":5.36395,"is_reserved":false,"is_disabled":false,"rental_uris":{"android":"levelo://app?vid=1dd765a9-64b4-439c-a196-df55419cc971","ios":"levelo://app?vid=1dd765a9-64b4-439c-a196-df55419cc971"},"vehicle_type_id":"4","last_reported":1743116977,"current_range_meters":4000,"station_id":"cpo36qri1sfpv3e86is0","pricing_plan_id":"cebpf4jnsgd1na2vs0mg"},{"bike_id":"380e9f45-01d5-4ebd-ae1f-a7d98a8f6dc2","system_id":"levelo_inurba_marseille","lat":43.27907,"lon":5.38009,"is_reserved":false,"is_disabled":false,"rental_uris":{"android":"levelo://app?vid=380e9f45-01d5-4ebd-ae1f-a7d98a8f6dc2","ios":"levelo://app?vid=380e9f45-01d5-4ebd-ae1f-a7d98a8f6dc2"},"vehicle_type_id":"4","last_reported":1743116977,"current_range_meters":3600,"station_id":"ce4bhf92rcd13ifvqf50","pricing_plan_id":"cebpf4jnsgd1na2vs0mg"},{"bike_id":"f02d017a-6cec-4604-b9a5-cd554923eab2","system_id":"levelo_inurba_marseille","lat":43.29837,"lon":5.42114,"is_reserved":false,"is_disabled":false,"rental_uris":{"android":"levelo://app?vid=f02d017a-6cec-4604-b9a5-cd554923eab2","ios":"levelo://app?vid=f02d017a-6cec-4604-b9a5-cd554923eab2"},"vehicle_type_id":"4","last_reported":1743116977,"current_range_meters":3600,"station_id":"","pricing_plan_id":"cebpf4jnsgd1na2vs0mg"},{"bike_id":"99efc1f2-d62d-419c-a0db-cfaadfa06cd6","system_id":"levelo_inurba_marseille","lat":43.23183,"lon":5.3999,"is_reserved":false,"is_disabled":false,"rental_uris":{"android":"levelo://app?vid=99efc1f2-d62d-419c-a0db-cfaadfa06cd6","ios":"levelo://app?vid=99efc1f2-d62d-419c-a0db-cfaadfa06cd6"},"vehicle_type_id":"4","last_reported":1743116977,"current_range_meters":3600,"station_id":"ce4bhn12rcd13ifvqgqg","pricing_plan_id":"cebpf4jnsgd1na2vs0mg"},{"bike_id":"f2704b9c-c316-4f5f-9155-65f7581186ce","system_id":"levelo_inurba_marseille","lat":43.28033,"lon":5.36943,"is_reserved":false,"is_disabled":false,"rental_uris":{"android":"levelo://app?vid=f2704b9c-c316-4f5f-9155-65f7581186ce","ios":"levelo://app?vid=f2704b9c-c316-4f5f-9155-65f7581186ce"},"vehicle_type_id":"4","last_reported":1743116977,"current_range_meters":4000,"station_id":"ce4bha12rcd13ifvqef0","pricing_plan_id":"cebpf4jnsgd1na2vs0mg"},{"bike_id":"65c1db40-5470-4207-afac-83765eeea6b6","system_id":"levelo_inurba_marseille","lat":43.29788,"lon":5.3934,"is_reserved":false,"is_disabled":false,"rental_uris":{"android":"levelo://app?vid=65c1db40-5470-4207-afac-83765eeea6b6","ios":"levelo://app?vid=65c1db40-5470-4207-afac-83765eeea6b6"},"vehicle_type_id":"4","last_reported":1743116977,"current_range_meters":4000,"station_id":"chh1huq6cuj3fo74tm60","pricing_plan_id":"cebpf4jnsgd1na2vs0mg"},{"bike_id":"4d29673d-54e7-48d2-9c9f-1d02cf66fc24","system_id":"levelo_inurba_marseille","lat":43.28651,"lon":5.38492,"is_reserved":false,"is_disabled":false,"rental_uris":{"android":"levelo://app?vid=4d29673d-54e7-48d2-9c9f-1d02cf66fc24","ios":"levelo://app?vid=4d29673d-54e7-48d2-9c9f-1d02cf66fc24"},"vehicle_type_id":"4","last_reported":1743116977,"current_range_meters":4400,"station_id":"","pricing_plan_id":"cebpf4jnsgd1na2vs0mg"},{"bike_id":"56bb3ee9-3336-4a80-bf19-a69b1032022e","system_id":"levelo_inurba_marseille","lat":43.28457,"lon":5.35906,"is_reserved":false,"is_disabled":false,"rental_uris":{"android":"levelo://app?vid=56bb3ee9-3336-4a80-bf19-a69b1032022e","ios":"levelo://app?vid=56bb3ee9-3336-4a80-bf19-a69b1032022e"},"vehicle_type_id":"4","last_reported":1743116977,"current_range_meters":4400,"station_id":"ce4bhah2rcd13ifvqei0","pricing_plan_id":"cebpf4jnsgd1na2vs0mg"},{"bike_id":"f33eb6d9-57b1-4611-a84c-f8721f46b329","system_id":"levelo_inurba_marseille","lat":43.29607,"lon":5.38098,"is_reserved":false,"is_disabled":false,"rental_uris":{"android":"levelo://app?vid=f33eb6d9-57b1-4611-a84c-f8721f46b329","ios":"levelo://app?vid=f33eb6d9-57b1-4611-a84c-f8721f46b329"},"vehicle_type_id":"4","last_reported":1743116977,"current_range_meters":4400,"station_id":"ce4bgl12rcd13ifvqbo0","pricing_plan_id":"cebpf4jnsgd1na2vs0mg"},{"bike_id":"16c0258c-3a2d-4e56-96c8-3f34b29d3907","system_id":"levelo_inurba_marseille","lat":43.26224,"lon":5.40449,"is_reserved":false,"is_disabled":false,"rental_uris":{"android":"levelo://app?vid=16c0258c-3a2d-4e56-96c8-3f34b29d3907","ios":"levelo://app?vid=16c0258c-3a2d-4e56-96c8-3f34b29d3907"},"vehicle_type_id":"4","last_reported":1743116977,"current_range_meters":4800,"station_id":"ce4bhmh2rcd13ifvqgmg","pricing_plan_id":"cebpf4jnsgd1na2vs0mg"},{"bike_id":"0a66299f-ae8e-48e0-af7a-343db9bc16e9","system_id":"levelo_inurba_marseille","lat":43.286831,"lon":5.399919,"is_reserved":false,"is_disabled":false,"rental_uris":{"android":"levelo://app?vid=0a66299f-ae8e-48e0-af7a-343db9bc16e9","ios":"levelo://app?vid=0a66299f-ae8e-48e0-af7a-343db9bc16e9"},"vehicle_type_id":"4","last_reported":1743116977,"current_range_meters":4800,"station_id":"","pricing_plan_id":"cebpf4jnsgd1na2vs0mg"},{"bike_id":"3c4fd66e-3c94-485d-83d0-4718eb89e82d","system_id":"levelo_inurba_marseille","lat":43.30126,"lon":5.39855,"is_reserved":false,"is_disabled":false,"rental_uris":{"android":"levelo://app?vid=3c4fd66e-3c94-485d-83d0-4718eb89e82d","ios":"levelo://app?vid=3c4fd66e-3c94-485d-83d0-4718eb89e82d"},"vehicle_type_id":"4","last_reported":1743116977,"current_range_meters":4800,"station_id":"ce4bh0h2rcd13ifvqd40","pricing_plan_id":"cebpf4jnsgd1na2vs0mg"},{"bike_id":"21df7ecd-9789-4647-b3d9-f06ca6714059","system_id":"levelo_inurba_marseille","lat":43.28929,"lon":5.36636,"is_reserved":false,"is_disabled":false,"rental_uris":{"android":"levelo://app?vid=21df7ecd-9789-4647-b3d9-f06ca6714059","ios":"levelo://app?vid=21df7ecd-9789-4647-b3d9-f06ca6714059"},"vehicle_type_id":"4","last_reported":1743116977,"current_range_meters":5600,"station_id":"ce4bhap2rcd13ifvqek0","pricing_plan_id":"cebpf4jnsgd1na2vs0mg"},{"bike_id":"b1d443ea-0a9b-45b3-b54b-ee844688df1f","system_id":"levelo_inurba_marseille","lat":43.23184,"lon":5.3998,"is_reserved":false,"is_disabled":false,"rental_uris":{"android":"levelo://app?vid=b1d443ea-0a9b-45b3-b54b-ee844688df1f","ios":"levelo://app?vid=b1d443ea-0a9b-45b3-b54b-ee844688df1f"},"vehicle_type_id":"4","last_reported":1743116977,"current_range_meters":5600,"station_id":"ce4bhn12rcd13ifvqgqg","pricing_plan_id":"cebpf4jnsgd1na2vs0mg"},{"bike_id":"9909698b-2726-42ef-a75a-24e460d5e183","system_id":"levelo_inurba_marseille","lat":43.24542,"lon":5.39542,"is_reserved":false,"is_disabled":false,"rental_uris":{"android":"levelo://app?vid=9909698b-2726-42ef-a75a-24e460d5e183","ios":"levelo://app?vid=9909698b-2726-42ef-a75a-24e460d5e183"},"vehicle_type_id":"4","last_reported":1743116977,"current_range_meters":5600,"station_id":"ce4bhlp2rcd13ifvqgjg","pricing_plan_id":"cebpf4jnsgd1na2vs0mg"},{"bike_id":"4dc3fb28-02d7-44d9-b7ad-61e7b49713b2","system_id":"levelo_inurba_marseille","lat":43.28411,"lon":5.37516,"is_reserved":false,"is_disabled":false,"rental_uris":{"android":"levelo://app?vid=4dc3fb28-02d7-44d9-b7ad-61e7b49713b2","ios":"levelo://app?vid=4dc3fb28-02d7-44d9-b7ad-61e7b49713b2"},"vehicle_type_id":"4","last_reported":1743116977,"current_range_meters":5600,"station_id":"ce4bh412rcd13ifvqds0","pricing_plan_id":"cebpf4jnsgd1na2vs0mg"},{"bike_id":"faf246f5-f054-4422-a22c-553159494777","system_id":"levelo_inurba_marseille","lat":43.29827,"lon":5.42099,"is_reserved":false,"is_disabled":false,"rental_uris":{"android":"levelo://app?vid=faf246f5-f054-4422-a22c-553159494777","ios":"levelo://app?vid=faf246f5-f054-4422-a22c-553159494777"},"vehicle_type_id":"4","last_reported":1743116977,"current_range_meters":5600,"station_id":"","pricing_plan_id":"cebpf4jnsgd1na2vs0mg"},{"bike_id":"9b0db4f1-c6a1-4ca7-86c5-ec1daffe0ea2","system_id":"levelo_inurba_marseille","lat":43.2509,"lon":5.39529,"is_reserved":false,"is_disabled":false,"rental_uris":{"android":"levelo://app?vid=9b0db4f1-c6a1-4ca7-86c5-ec1daffe0ea2","ios":"levelo://app?vid=9b0db4f1-c6a1-4ca7-86c5-ec1daffe0ea2"},"vehicle_type_id":"4","last_reported":1743116977,"current_range_meters":5600,"station_id":"ce4bhm12rcd13ifvqgkg","pricing_plan_id":"cebpf4jnsgd1na2vs0mg"},{"bike_id":"980c5fd9-d3d8-44b5-8e5e-6e46e21d256c","system_id":"levelo_inurba_marseille","lat":43.2979,"lon":5.38109,"is_reserved":false,"is_disabled":false,"rental_uris":{"android":"levelo://app?vid=980c5fd9-d3d8-44b5-8e5e-6e46e21d256c","ios":"levelo://app?vid=980c5fd9-d3d8-44b5-8e5e-6e46e21d256c"},"vehicle_type_id":"4","last_reported":1743116977,"current_range_meters":5600,"station_id":"ce4bgip2rcd13ifvqbb0","pricing_plan_id":"cebpf4jnsgd1na2vs0mg"},{"bike_id":"6165ca97-d152-4535-bb35-dd51f65c8b56","system_id":"levelo_inurba_marseille","lat":43.27828,"lon":5.40718,"is_reserved":false,"is_disabled":false,"rental_uris":{"android":"levelo://app?vid=6165ca97-d152-4535-bb35-dd51f65c8b56","ios":"levelo://app?vid=6165ca97-d152-4535-bb35-dd51f65c8b56"},"vehicle_type_id":"4","last_reported":1743116977,"current_range_meters":6000,"station_id":"ce4bhnh2rcd13ifvqgtg","pricing_plan_id":"cebpf4jnsgd1na2vs0mg"},{"bike_id":"745db27b-7d09-42e9-857e-1a3c13cd5302","system_id":"levelo_inurba_marseille","lat":43.23193,"lon":5.35549,"is_reserved":false,"is_disabled":false,"rental_uris":{"android":"levelo://app?vid=745db27b-7d09-42e9-857e-1a3c13cd5302","ios":"levelo://app?vid=745db27b-7d09-42e9-857e-1a3c13cd5302"},"vehicle_type_id":"4","last_reported":1743116977,"current_range_meters":6000,"station_id":"ce4bhu92rcd13ifvqi70","pricing_plan_id":"cebpf4jnsgd1na2vs0mg"},{"bike_id":"e3d53ea2-a43c-4e3c-b03f-446c2324e5d1","system_id":"levelo_inurba_marseille","lat":43.30807,"lon":5.37652,"is_reserved":false,"is_disabled":false,"rental_uris":{"android":"levelo://app?vid=e3d53ea2-a43c-4e3c-b03f-446c2324e5d1","ios":"levelo://app?vid=e3d53ea2-a43c-4e3c-b03f-446c2324e5d1"},"vehicle_type_id":"4","last_reported":1743116977,"current_range_meters":6000,"station_id":"ce4bgv92rcd13ifvqcq0","pricing_plan_id":"cebpf4jnsgd1na2vs0mg"},{"bike_id":"85d0fa0c-b5b9-41cd-ba43-951901672dab","system_id":"levelo_inurba_marseille","lat":43.25616,"lon":5.38972,"is_reserved":false,"is_disabled":false,"rental_uris":{"android":"levelo://app?vid=85d0fa0c-b5b9-41cd-ba43-951901672dab","ios":"levelo://app?vid=85d0fa0c-b5b9-41cd-ba43-951901672dab"},"vehicle_type_id":"4","last_reported":1743116977,"current_range_meters":6000,"station_id":"","pricing_plan_id":"cebpf4jnsgd1na2vs0mg"},{"bike_id":"dc8ccdc9-a018-4504-b0a9-676297905591","system_id":"levelo_inurba_marseille","lat":43.29297,"lon":5.3698,"is_reserved":false,"is_disabled":false,"rental_uris":{"android":"levelo://app?vid=dc8ccdc9-a018-4504-b0a9-676297905591","ios":"levelo://app?vid=dc8ccdc9-a018-4504-b0a9-676297905591"},"vehicle_type_id":"4","last_reported":1743116977,"current_range_meters":6000,"station_id":"","pricing_plan_id":"cebpf4jnsgd1na2vs0mg"},{"bike_id":"e62e2f35-f797-4cb0-b8cd-a8d619e448fc","system_id":"levelo_inurba_marseille","lat":43.286987,"lon":5.399866,"is_reserved":false,"is_disabled":false,"rental_uris":{"android":"levelo://app?vid=e62e2f35-f797-4cb0-b8cd-a8d619e448fc","ios":"levelo://app?vid=e62e2f35-f797-4cb0-b8cd-a8d619e448fc"},"vehicle_type_id":"4","last_reported":1743116977,"current_range_meters":6400,"station_id":"","pricing_plan_id":"cebpf4jnsgd1na2vs0mg"},{"bike_id":"18cf2e35-ced7-456c-9cdf-6c3d31d9091d","system_id":"levelo_inurba_marseille","lat":43.23195,"lon":5.35548,"is_reserved":false,"is_disabled":false,"rental_uris":{"android":"levelo://app?vid=18cf2e35-ced7-456c-9cdf-6c3d31d9091d","ios":"levelo://app?vid=18cf2e35-ced7-456c-9cdf-6c3d31d9091d"},"vehicle_type_id":"4","last_reported":1743116977,"current_range_meters":6400,"station_id":"ce4bhu92rcd13ifvqi70","pricing_plan_id":"cebpf4jnsgd1na2vs0mg"},{"bike_id":"c752cc87-456e-4134-9a44-62eff5dadbd0","system_id":"levelo_inurba_marseille","lat":43.27814,"lon":5.40705,"is_reserved":false,"is_disabled":false,"rental_uris":{"android":"levelo://app?vid=c752cc87-456e-4134-9a44-62eff5dadbd0","ios":"levelo://app?vid=c752cc87-456e-4134-9a44-62eff5dadbd0"},"vehicle_type_id":"4","last_reported":1743116977,"current_range_meters":6400,"station_id":"ce4bhnh2rcd13ifvqgtg","pricing_plan_id":"cebpf4jnsgd1na2vs0mg"},{"bike_id":"cc0a66da-20f9-44b3-a3bd-e1d2c0474fa7","system_id":"levelo_inurba_marseille","lat":43.246474,"lon":5.388985,"is_reserved":false,"is_disabled":false,"rental_uris":{"android":"levelo://app?vid=cc0a66da-20f9-44b3-a3bd-e1d2c0474fa7","ios":"levelo://app?vid=cc0a66da-20f9-44b3-a3bd-e1d2c0474fa7"},"vehicle_type_id":"4","last_reported":1743116977,"current_range_meters":6400,"station_id":"ce4bhg12rcd13ifvqf60","pricing_plan_id":"cebpf4jnsgd1na2vs0mg"},{"bike_id":"53a8d247-e258-452c-a63a-f0ec40ad56b6","system_id":"levelo_inurba_marseille","lat":43.31035,"lon":5.37887,"is_reserved":false,"is_disabled":false,"rental_uris":{"android":"levelo://app?vid=53a8d247-e258-452c-a63a-f0ec40ad56b6","ios":"levelo://app?vid=53a8d247-e258-452c-a63a-f0ec40ad56b6"},"vehicle_type_id":"4","last_reported":1743116977,"current_range_meters":6400,"station_id":"","pricing_plan_id":"cebpf4jnsgd1na2vs0mg"},{"bike_id":"84a7a785-5392-42bc-8088-fb903bcc7f5c","system_id":"levelo_inurba_marseille","lat":43.23067,"lon":5.35497,"is_reserved":false,"is_disabled":false,"rental_uris":{"android":"levelo://app?vid=84a7a785-5392-42bc-8088-fb903bcc7f5c","ios":"levelo://app?vid=84a7a785-5392-42bc-8088-fb903bcc7f5c"},"vehicle_type_id":"4","last_reported":1743116977,"current_range_meters":6400,"station_id":"cpo3342slgdg3j2ifvpg","pricing_plan_id":"cebpf4jnsgd1na2vs0mg"},{"bike_id":"a2cca4d0-900f-4d24-81a4-a34f6c38f996","system_id":"levelo_inurba_marseille","lat":43.26947,"lon":5.40248,"is_reserved":false,"is_disabled":false,"rental_uris":{"android":"levelo://app?vid=a2cca4d0-900f-4d24-81a4-a34f6c38f996","ios":"levelo://app?vid=a2cca4d0-900f-4d24-81a4-a34f6c38f996"},"vehicle_type_id":"4","last_reported":1743116977,"current_range_meters":6400,"station_id":"cjm6bp8fraef2m0cb0m0","pricing_plan_id":"cebpf4jnsgd1na2vs0mg"},{"bike_id":"b23a18f8-619d-4580-8b65-a001e546f2de","system_id":"levelo_inurba_marseille","lat":43.30355,"lon":5.41878,"is_reserved":false,"is_disabled":true,"rental_uris":{"android":"levelo://app?vid=b23a18f8-619d-4580-8b65-a001e546f2de","ios":"levelo://app?vid=b23a18f8-619d-4580-8b65-a001e546f2de"},"vehicle_type_id":"4","last_reported":1743116977,"current_range_meters":6400,"station_id":"ce4bhop2rcd13ifvqh7g","pricing_plan_id":"cebpf4jnsgd1na2vs0mg"},{"bike_id":"c91985f1-ed63-4953-a4ca-7162692cc38a","system_id":"levelo_inurba_marseille","lat":43.29583,"lon":5.39457,"is_reserved":false,"is_disabled":false,"rental_uris":{"android":"levelo://app?vid=c91985f1-ed63-4953-a4ca-7162692cc38a","ios":"levelo://app?vid=c91985f1-ed63-4953-a4ca-7162692cc38a"},"vehicle_type_id":"4","last_reported":1743116977,"current_range_meters":6400,"station_id":"","pricing_plan_id":"cebpf4jnsgd1na2vs0mg"},{"bike_id":"1d798f2b-7182-406c-8bbb-2dde0260efbc","system_id":"levelo_inurba_marseille","lat":43.28478,"lon":5.38551,"is_reserved":false,"is_disabled":false,"rental_uris":{"android":"levelo://app?vid=1d798f2b-7182-406c-8bbb-2dde0260efbc","ios":"levelo://app?vid=1d798f2b-7182-406c-8bbb-2dde0260efbc"},"vehicle_type_id":"4","last_reported":1743116977,"current_range_meters":6400,"station_id":"ce4bh8p2rcd13ifvqeb0","pricing_plan_id":"cebpf4jnsgd1na2vs0mg"},{"bike_id":"40126569-7b5f-4135-9dca-f4f74b1283a6","system_id":"levelo_inurba_marseille","lat":43.29208,"lon":5.39325,"is_reserved":false,"is_disabled":false,"rental_uris":{"android":"levelo://app?vid=40126569-7b5f-4135-9dca-f4f74b1283a6","ios":"levelo://app?vid=40126569-7b5f-4135-9dca-f4f74b1283a6"},"vehicle_type_id":"4","last_reported":1743116977,"current_range_meters":6400,"station_id":"ce4bh192rcd13ifvqdd0","pricing_plan_id":"cebpf4jnsgd1na2vs0mg"},{"bike_id":"be323adc-706f-40e6-be97-639255ea9498","system_id":"levelo_inurba_marseille","lat":43.28488,"lon":5.38415,"is_reserved":false,"is_disabled":false,"rental_uris":{"android":"levelo://app?vid=be323adc-706f-40e6-be97-639255ea9498","ios":"levelo://app?vid=be323adc-706f-40e6-be97-639255ea9498"},"vehicle_type_id":"4","last_reported":1743116977,"current_range_meters":6400,"station_id":"ce4bh512rcd13ifvqe3g","pricing_plan_id":"cebpf4jnsgd1na2vs0mg"},{"bike_id":"e4ea3760-02ed-435e-b606-1851a8945e6d","system_id":"levelo_inurba_marseille","lat":43.29033,"lon":5.3812,"is_reserved":false,"is_disabled":false,"rental_uris":{"android":"levelo://app?vid=e4ea3760-02ed-435e-b606-1851a8945e6d","ios":"levelo://app?vid=e4ea3760-02ed-435e-b606-1851a8945e6d"},"vehicle_type_id":"4","last_reported":1743116977,"current_range_meters":6800,"station_id":"ce4bh4p2rcd13ifvqe1g","pricing_plan_id":"cebpf4jnsgd1na2vs0mg"},{"bike_id":"dd5783c6-158d-4cbc-b771-8d0cc786b4bb","system_id":"levelo_inurba_marseille","lat":43.26558,"lon":5.39,"is_reserved":false,"is_disabled":false,"rental_uris":{"android":"levelo://app?vid=dd5783c6-158d-4cbc-b771-8d0cc786b4bb","ios":"levelo://app?vid=dd5783c6-158d-4cbc-b771-8d0cc786b4bb"},"vehicle_type_id":"4","last_reported":1743116977,"current_range_meters":6800,"station_id":"ce4bhe12rcd13ifvqf30","pricing_plan_id":"cebpf4jnsgd1na2vs0mg"},{"bike_id":"3c5b9de9-2126-4391-ae19-7c9396efc28b","system_id":"levelo_inurba_marseille","lat":43.25572,"lon":5.38219,"is_reserved":false,"is_disabled":false,"rental_uris":{"android":"levelo://app?vid=3c5b9de9-2126-4391-ae19-7c9396efc28b","ios":"levelo://app?vid=3c5b9de9-2126-4391-ae19-7c9396efc28b"},"vehicle_type_id":"4","last_reported":1743116977,"current_range_meters":6800,"station_id":"ce4bhih2rcd13ifvqfs0","pricing_plan_id":"cebpf4jnsgd1na2vs0mg"},{"bike_id":"3a5e18ad-6a23-4442-9c34-19c7bd17a17e","system_id":"levelo_inurba_marseille","lat":43.22939,"lon":5.35405,"is_reserved":false,"is_disabled":false,"rental_uris":{"android":"levelo://app?vid=3a5e18ad-6a23-4442-9c34-19c7bd17a17e","ios":"levelo://app?vid=3a5e18ad-6a23-4442-9c34-19c7bd17a17e"},"vehicle_type_id":"4","last_reported":1743116977,"current_range_meters":6800,"station_id":"cpo3532slgdg3j2ikp40","pricing_plan_id":"cebpf4jnsgd1na2vs0mg"},{"bike_id":"0586a29a-e70c-4fce-9479-b2eea1df506b","system_id":"levelo_inurba_marseille","lat":43.29525,"lon":5.38556,"is_reserved":false,"is_disabled":false,"rental_uris":{"android":"levelo://app?vid=0586a29a-e70c-4fce-9479-b2eea1df506b","ios":"levelo://app?vid=0586a29a-e70c-4fce-9479-b2eea1df506b"},"vehicle_type_id":"4","last_reported":1743116977,"current_range_meters":6800,"station_id":"ce4bgih2rcd13ifvqba0","pricing_plan_id":"cebpf4jnsgd1na2vs0mg"},{"bike_id":"cd6683f8-bc17-4817-8da3-5a099b5c207d","system_id":"levelo_inurba_marseille","lat":43.29547,"lon":5.38546,"is_reserved":false,"is_disabled":false,"rental_uris":{"android":"levelo://app?vid=cd6683f8-bc17-4817-8da3-5a099b5c207d","ios":"levelo://app?vid=cd6683f8-bc17-4817-8da3-5a099b5c207d"},"vehicle_type_id":"4","last_reported":1743116977,"current_range_meters":6800,"station_id":"ce4bgih2rcd13ifvqba0","pricing_plan_id":"cebpf4jnsgd1na2vs0mg"},{"bike_id":"eb993723-35b5-4171-a0c3-8265760301bc","system_id":"levelo_inurba_marseille","lat":43.29793,"lon":5.39344,"is_reserved":false,"is_disabled":false,"rental_uris":{"android":"levelo://app?vid=eb993723-35b5-4171-a0c3-8265760301bc","ios":"levelo://app?vid=eb993723-35b5-4171-a0c3-8265760301bc"},"vehicle_type_id":"4","last_reported":1743116977,"current_range_meters":6800,"station_id":"chh1huq6cuj3fo74tm60","pricing_plan_id":"cebpf4jnsgd1na2vs0mg"},{"bike_id":"1b876d6c-62d8-4868-9c6d-7a787cd07989","system_id":"levelo_inurba_marseille","lat":43.28695,"lon":5.39969,"is_reserved":false,"is_disabled":false,"rental_uris":{"android":"levelo://app?vid=1b876d6c-62d8-4868-9c6d-7a787cd07989","ios":"levelo://app?vid=1b876d6c-62d8-4868-9c6d-7a787cd07989"},"vehicle_type_id":"4","last_reported":1743116977,"current_range_meters":6800,"station_id":"ce4bho92rcd13ifvqh3g","pricing_plan_id":"cebpf4jnsgd1na2vs0mg"},{"bike_id":"a4d800e4-39bc-4da7-938b-6d70bc0258cd","system_id":"levelo_inurba_marseille","lat":43.2846,"lon":5.35892,"is_reserved":false,"is_disabled":false,"rental_uris":{"android":"levelo://app?vid=a4d800e4-39bc-4da7-938b-6d70bc0258cd","ios":"levelo://app?vid=a4d800e4-39bc-4da7-938b-6d70bc0258cd"},"vehicle_type_id":"4","last_reported":1743116977,"current_range_meters":6800,"station_id":"ce4bhah2rcd13ifvqei0","pricing_plan_id":"cebpf4jnsgd1na2vs0mg"},{"bike_id":"bf8f689d-9d07-4902-b5ae-7d4e985b967a","system_id":"levelo_inurba_marseille","lat":43.29545,"lon":5.39045,"is_reserved":false,"is_disabled":true,"rental_uris":{"android":"levelo://app?vid=bf8f689d-9d07-4902-b5ae-7d4e985b967a","ios":"levelo://app?vid=bf8f689d-9d07-4902-b5ae-7d4e985b967a"},"vehicle_type_id":"4","last_reported":1743116977,"current_range_meters":6800,"station_id":"ce4bh3p2rcd13ifvqdp0","pricing_plan_id":"cebpf4jnsgd1na2vs0mg"},{"bike_id":"40046afd-c6aa-43ea-88bd-183a4d2ec61c","system_id":"levelo_inurba_marseille","lat":43.31597,"lon":5.41673,"is_reserved":false,"is_disabled":false,"rental_uris":{"android":"levelo://app?vid=40046afd-c6aa-43ea-88bd-183a4d2ec61c","ios":"levelo://app?vid=40046afd-c6aa-43ea-88bd-183a4d2ec61c"},"vehicle_type_id":"4","last_reported":1743116977,"current_range_meters":7200,"station_id":"","pricing_plan_id":"cebpf4jnsgd1na2vs0mg"},{"bike_id":"e53a1eb8-e926-4f74-b3ac-c2f1945803ef","system_id":"levelo_inurba_marseille","lat":43.28086,"lon":5.39696,"is_reserved":false,"is_disabled":true,"rental_uris":{"android":"levelo://app?vid=e53a1eb8-e926-4f74-b3ac-c2f1945803ef","ios":"levelo://app?vid=e53a1eb8-e926-4f74-b3ac-c2f1945803ef"},"vehicle_type_id":"4","last_reported":1743116977,"current_range_meters":7200,"station_id":"ce4bho12rcd13ifvqh2g","pricing_plan_id":"cebpf4jnsgd1na2vs0mg"},{"bike_id":"0793818f-edf5-4dd9-9e02-3f7f0e68f205","system_id":"levelo_inurba_marseille","lat":43.28457,"lon":5.35896,"is_reserved":false,"is_disabled":false,"rental_uris":{"android":"levelo://app?vid=0793818f-edf5-4dd9-9e02-3f7f0e68f205","ios":"levelo://app?vid=0793818f-edf5-4dd9-9e02-3f7f0e68f205"},"vehicle_type_id":"4","last_reported":1743116977,"current_range_meters":7200,"station_id":"ce4bhah2rcd13ifvqei0","pricing_plan_id":"cebpf4jnsgd1na2vs0mg"},{"bike_id":"72407b9c-71b7-4feb-83e9-97e5f2a36163","system_id":"levelo_inurba_marseille","lat":43.241661,"lon":5.36391,"is_reserved":false,"is_disabled":false,"rental_uris":{"android":"levelo://app?vid=72407b9c-71b7-4feb-83e9-97e5f2a36163","ios":"levelo://app?vid=72407b9c-71b7-4feb-83e9-97e5f2a36163"},"vehicle_type_id":"4","last_reported":1743116977,"current_range_meters":7200,"station_id":"cpo36qri1sfpv3e86is0","pricing_plan_id":"cebpf4jnsgd1na2vs0mg"},{"bike_id":"2b2b8478-2d34-4c61-8e73-b3db8256f030","system_id":"levelo_inurba_marseille","lat":43.304253,"lon":5.388786,"is_reserved":false,"is_disabled":false,"rental_uris":{"android":"levelo://app?vid=2b2b8478-2d34-4c61-8e73-b3db8256f030","ios":"levelo://app?vid=2b2b8478-2d34-4c61-8e73-b3db8256f030"},"vehicle_type_id":"4","last_reported":1743116977,"current_range_meters":7200,"station_id":"ce4bgk12rcd13ifvqbi0","pricing_plan_id":"cebpf4jnsgd1na2vs0mg"},{"bike_id":"0e173472-5a4b-4021-b0c5-dd55f1f57390","system_id":"levelo_inurba_marseille","lat":43.25089,"lon":5.39523,"is_reserved":false,"is_disabled":false,"rental_uris":{"android":"levelo://app?vid=0e173472-5a4b-4021-b0c5-dd55f1f57390","ios":"levelo://app?vid=0e173472-5a4b-4021-b0c5-dd55f1f57390"},"vehicle_type_id":"4","last_reported":1743116977,"current_range_meters":7200,"station_id":"ce4bhm12rcd13ifvqgkg","pricing_plan_id":"cebpf4jnsgd1na2vs0mg"},{"bike_id":"7909fddf-cb14-45c3-8c06-c79cce207a3a","system_id":"levelo_inurba_marseille","lat":43.25674,"lon":5.39726,"is_reserved":false,"is_disabled":false,"rental_uris":{"android":"levelo://app?vid=7909fddf-cb14-45c3-8c06-c79cce207a3a","ios":"levelo://app?vid=7909fddf-cb14-45c3-8c06-c79cce207a3a"},"vehicle_type_id":"4","last_reported":1743116977,"current_range_meters":7200,"station_id":"","pricing_plan_id":"cebpf4jnsgd1na2vs0mg"},{"bike_id":"8f1a16ff-8ba6-454f-b6f2-449dce2191ed","system_id":"levelo_inurba_marseille","lat":43.30431,"lon":5.39753,"is_reserved":false,"is_disabled":false,"rental_uris":{"android":"levelo://app?vid=8f1a16ff-8ba6-454f-b6f2-449dce2191ed","ios":"levelo://app?vid=8f1a16ff-8ba6-454f-b6f2-449dce2191ed"},"vehicle_type_id":"4","last_reported":1743116977,"current_range_meters":7200,"station_id":"ce4bh092rcd13ifvqd20","pricing_plan_id":"cebpf4jnsgd1na2vs0mg"},{"bike_id":"d6ee57b7-1d01-4c1e-a9a6-f28d31a2aabe","system_id":"levelo_inurba_marseille","lat":43.28941,"lon":5.3963,"is_reserved":false,"is_disabled":false,"rental_uris":{"android":"levelo://app?vid=d6ee57b7-1d01-4c1e-a9a6-f28d31a2aabe","ios":"levelo://app?vid=d6ee57b7-1d01-4c1e-a9a6-f28d31a2aabe"},"vehicle_type_id":"4","last_reported":1743116977,"current_range_meters":7200,"station_id":"ce4bh3h2rcd13ifvqdn0","pricing_plan_id":"cebpf4jnsgd1na2vs0mg"},{"bike_id":"169d7fcf-280d-4645-acdf-db059c46d533","system_id":"levelo_inurba_marseille","lat":43.2396,"lon":5.36646,"is_reserved":false,"is_disabled":false,"rental_uris":{"android":"levelo://app?vid=169d7fcf-280d-4645-acdf-db059c46d533","ios":"levelo://app?vid=169d7fcf-280d-4645-acdf-db059c46d533"},"vehicle_type_id":"4","last_reported":1743116977,"current_range_meters":7200,"station_id":"ce4bhi12rcd13ifvqfp0","pricing_plan_id":"cebpf4jnsgd1na2vs0mg"},{"bike_id":"90ed7db8-835e-4d84-853a-b0b130cfaeaf","system_id":"levelo_inurba_marseille","lat":43.307969,"lon":5.376512,"is_reserved":false,"is_disabled":false,"rental_uris":{"android":"levelo://app?vid=90ed7db8-835e-4d84-853a-b0b130cfaeaf","ios":"levelo://app?vid=90ed7db8-835e-4d84-853a-b0b130cfaeaf"},"vehicle_type_id":"4","last_reported":1743116977,"current_range_meters":7200,"station_id":"ce4bgv92rcd13ifvqcq0","pricing_plan_id":"cebpf4jnsgd1na2vs0mg"},{"bike_id":"4ea2dc4a-53b8-4d21-b056-faf850ab7b24","system_id":"levelo_inurba_marseille","lat":43.29565,"lon":5.42293,"is_reserved":false,"is_disabled":false,"rental_uris":{"android":"levelo://app?vid=4ea2dc4a-53b8-4d21-b056-faf850ab7b24","ios":"levelo://app?vid=4ea2dc4a-53b8-4d21-b056-faf850ab7b24"},"vehicle_type_id":"4","last_reported":1743116977,"current_range_meters":8000,"station_id":"ce4bhph2rcd13ifvqhdg","pricing_plan_id":"cebpf4jnsgd1na2vs0mg"},{"bike_id":"67372431-a0a3-4e95-b53b-6e36bdd9f44f","system_id":"levelo_inurba_marseille","lat":43.31486,"lon":5.37295,"is_reserved":false,"is_disabled":false,"rental_uris":{"android":"levelo://app?vid=67372431-a0a3-4e95-b53b-6e36bdd9f44f","ios":"levelo://app?vid=67372431-a0a3-4e95-b53b-6e36bdd9f44f"},"vehicle_type_id":"4","last_reported":1743116977,"current_range_meters":8000,"station_id":"ce4bgt12rcd13ifvqcd0","pricing_plan_id":"cebpf4jnsgd1na2vs0mg"},{"bike_id":"102b4a68-b003-44dd-a55c-3cf7a81794eb","system_id":"levelo_inurba_marseille","lat":43.28004,"lon":5.40001,"is_reserved":false,"is_disabled":false,"rental_uris":{"android":"levelo://app?vid=102b4a68-b003-44dd-a55c-3cf7a81794eb","ios":"levelo://app?vid=102b4a68-b003-44dd-a55c-3cf7a81794eb"},"vehicle_type_id":"4","last_reported":1743116977,"current_range_meters":8000,"station_id":"ce4bho92rcd13ifvqh4g","pricing_plan_id":"cebpf4jnsgd1na2vs0mg"},{"bike_id":"2e013db2-c4bf-4ece-9b86-255ce2c33732","system_id":"levelo_inurba_marseille","lat":43.2785,"lon":5.40708,"is_reserved":false,"is_disabled":false,"rental_uris":{"android":"levelo://app?vid=2e013db2-c4bf-4ece-9b86-255ce2c33732","ios":"levelo://app?vid=2e013db2-c4bf-4ece-9b86-255ce2c33732"},"vehicle_type_id":"4","last_reported":1743116977,"current_range_meters":8000,"station_id":"ce4bhnh2rcd13ifvqgtg","pricing_plan_id":"cebpf4jnsgd1na2vs0mg"},{"bike_id":"5c6fd83b-ada2-4000-b9ac-f78b80d149eb","system_id":"levelo_inurba_marseille","lat":43.30324,"lon":5.40446,"is_reserved":false,"is_disabled":false,"rental_uris":{"android":"levelo://app?vid=5c6fd83b-ada2-4000-b9ac-f78b80d149eb","ios":"levelo://app?vid=5c6fd83b-ada2-4000-b9ac-f78b80d149eb"},"vehicle_type_id":"4","last_reported":1743116977,"current_range_meters":8000,"station_id":"ce4bh012rcd13ifvqd10","pricing_plan_id":"cebpf4jnsgd1na2vs0mg"},{"bike_id":"34805b4a-ac2d-4367-961b-5651d4251865","system_id":"levelo_inurba_marseille","lat":43.28715,"lon":5.39995,"is_reserved":false,"is_disabled":false,"rental_uris":{"android":"levelo://app?vid=34805b4a-ac2d-4367-961b-5651d4251865","ios":"levelo://app?vid=34805b4a-ac2d-4367-961b-5651d4251865"},"vehicle_type_id":"4","last_reported":1743116977,"current_range_meters":8000,"station_id":"ce4bho92rcd13ifvqh3g","pricing_plan_id":"cebpf4jnsgd1na2vs0mg"},{"bike_id":"46c92c67-a9e1-4996-b4c8-2976ff580333","system_id":"levelo_inurba_marseille","lat":43.24082,"lon":5.3775,"is_reserved":false,"is_disabled":false,"rental_uris":{"android":"levelo://app?vid=46c92c67-a9e1-4996-b4c8-2976ff580333","ios":"levelo://app?vid=46c92c67-a9e1-4996-b4c8-2976ff580333"},"vehicle_type_id":"4","last_reported":1743116977,"current_range_meters":8000,"station_id":"ce4bhnp2rcd13ifvqgvg","pricing_plan_id":"cebpf4jnsgd1na2vs0mg"},{"bike_id":"2bedb86a-2cb2-4440-9de1-d77c0174ff1c","system_id":"levelo_inurba_marseille","lat":43.30643,"lon":5.40106,"is_reserved":false,"is_disabled":false,"rental_uris":{"android":"levelo://app?vid=2bedb86a-2cb2-4440-9de1-d77c0174ff1c","ios":"levelo://app?vid=2bedb86a-2cb2-4440-9de1-d77c0174ff1c"},"vehicle_type_id":"4","last_reported":1743116977,"current_range_meters":8000,"station_id":"ce4bh112rcd13ifvqda0","pricing_plan_id":"cebpf4jnsgd1na2vs0mg"},{"bike_id":"61aebee5-66c7-4c27-9cb3-fcca8ef32f9b","system_id":"levelo_inurba_marseille","lat":43.27079,"lon":5.42292,"is_reserved":false,"is_disabled":false,"rental_uris":{"android":"levelo://app?vid=61aebee5-66c7-4c27-9cb3-fcca8ef32f9b","ios":"levelo://app?vid=61aebee5-66c7-4c27-9cb3-fcca8ef32f9b"},"vehicle_type_id":"4","last_reported":1743116977,"current_range_meters":8400,"station_id":"ce4bhk92rcd13ifvqgb0","pricing_plan_id":"cebpf4jnsgd1na2vs0mg"},{"bike_id":"af69edf2-4482-4ac5-b909-0d583a382cae","system_id":"levelo_inurba_marseille","lat":43.28474,"lon":5.35878,"is_reserved":false,"is_disabled":false,"rental_uris":{"android":"levelo://app?vid=af69edf2-4482-4ac5-b909-0d583a382cae","ios":"levelo://app?vid=af69edf2-4482-4ac5-b909-0d583a382cae"},"vehicle_type_id":"4","last_reported":1743116977,"current_range_meters":8000,"station_id":"ce4bhah2rcd13ifvqei0","pricing_plan_id":"cebpf4jnsgd1na2vs0mg"},{"bike_id":"de523b40-8361-4fbc-92e6-b8178b0420b3","system_id":"levelo_inurba_marseille","lat":43.28634,"lon":5.35089,"is_reserved":false,"is_disabled":false,"rental_uris":{"android":"levelo://app?vid=de523b40-8361-4fbc-92e6-b8178b0420b3","ios":"levelo://app?vid=de523b40-8361-4fbc-92e6-b8178b0420b3"},"vehicle_type_id":"4","last_reported":1743116977,"current_range_meters":8400,"station_id":"ce4bhch2rcd13ifvqeug","pricing_plan_id":"cebpf4jnsgd1na2vs0mg"},{"bike_id":"b692cfb6-c9c0-405d-8e0a-61268b620404","system_id":"levelo_inurba_marseille","lat":43.29276,"lon":5.38425,"is_reserved":false,"is_disabled":true,"rental_uris":{"android":"levelo://app?vid=b692cfb6-c9c0-405d-8e0a-61268b620404","ios":"levelo://app?vid=b692cfb6-c9c0-405d-8e0a-61268b620404"},"vehicle_type_id":"4","last_reported":1743116977,"current_range_meters":8400,"station_id":"ce4bh692rcd13ifvqea0","pricing_plan_id":"cebpf4jnsgd1na2vs0mg"},{"bike_id":"e110c135-ffaa-4ee4-bb95-b2c04dc26dca","system_id":"levelo_inurba_marseille","lat":43.30827,"lon":5.43552,"is_reserved":false,"is_disabled":false,"rental_uris":{"android":"levelo://app?vid=e110c135-ffaa-4ee4-bb95-b2c04dc26dca","ios":"levelo://app?vid=e110c135-ffaa-4ee4-bb95-b2c04dc26dca"},"vehicle_type_id":"4","last_reported":1743116977,"current_range_meters":8400,"station_id":"ce4bhph2rcd13ifvqheg","pricing_plan_id":"cebpf4jnsgd1na2vs0mg"},{"bike_id":"c18155db-65c7-4d5a-8c5b-923eb75c675d","system_id":"levelo_inurba_marseille","lat":43.32103,"lon":5.36769,"is_reserved":false,"is_disabled":false,"rental_uris":{"android":"levelo://app?vid=c18155db-65c7-4d5a-8c5b-923eb75c675d","ios":"levelo://app?vid=c18155db-65c7-4d5a-8c5b-923eb75c675d"},"vehicle_type_id":"4","last_reported":1743116977,"current_range_meters":8400,"station_id":"ce4bhrh2rcd13ifvqhug","pricing_plan_id":"cebpf4jnsgd1na2vs0mg"},{"bike_id":"f07fe466-f45c-4436-84b6-e7f434bbe10f","system_id":"levelo_inurba_marseille","lat":43.25,"lon":5.38929,"is_reserved":false,"is_disabled":false,"rental_uris":{"android":"levelo://app?vid=f07fe466-f45c-4436-84b6-e7f434bbe10f","ios":"levelo://app?vid=f07fe466-f45c-4436-84b6-e7f434bbe10f"},"vehicle_type_id":"4","last_reported":1743116977,"current_range_meters":8400,"station_id":"ce4bhgp2rcd13ifvqfd0","pricing_plan_id":"cebpf4jnsgd1na2vs0mg"},{"bike_id":"c5d17eb8-cde1-49a3-9672-ac8d8cf34632","system_id":"levelo_inurba_marseille","lat":43.33423,"lon":5.39997,"is_reserved":false,"is_disabled":false,"rental_uris":{"android":"levelo://app?vid=c5d17eb8-cde1-49a3-9672-ac8d8cf34632","ios":"levelo://app?vid=c5d17eb8-cde1-49a3-9672-ac8d8cf34632"},"vehicle_type_id":"4","last_reported":1743116977,"current_range_meters":8400,"station_id":"","pricing_plan_id":"cebpf4jnsgd1na2vs0mg"},{"bike_id":"87c956d3-f221-4ed3-ae86-04fa68654cdc","system_id":"levelo_inurba_marseille","lat":43.28941,"lon":5.36411,"is_reserved":false,"is_disabled":false,"rental_uris":{"android":"levelo://app?vid=87c956d3-f221-4ed3-ae86-04fa68654cdc","ios":"levelo://app?vid=87c956d3-f221-4ed3-ae86-04fa68654cdc"},"vehicle_type_id":"4","last_reported":1743116977,"current_range_meters":8400,"station_id":"ce4bhc92rcd13ifvqetg","pricing_plan_id":"cebpf4jnsgd1na2vs0mg"},{"bike_id":"638c8e6b-6bbe-4946-a05d-753bcac50810","system_id":"levelo_inurba_marseille","lat":43.28094,"lon":5.39642,"is_reserved":false,"is_disabled":false,"rental_uris":{"android":"levelo://app?vid=638c8e6b-6bbe-4946-a05d-753bcac50810","ios":"levelo://app?vid=638c8e6b-6bbe-4946-a05d-753bcac50810"},"vehicle_type_id":"4","last_reported":1743116977,"current_range_meters":8400,"station_id":"ce4bho12rcd13ifvqh2g","pricing_plan_id":"cebpf4jnsgd1na2vs0mg"},{"bike_id":"e0802964-26f2-4a1d-972c-80728e024af1","system_id":"levelo_inurba_marseille","lat":43.26954,"lon":5.38639,"is_reserved":false,"is_disabled":false,"rental_uris":{"android":"levelo://app?vid=e0802964-26f2-4a1d-972c-80728e024af1","ios":"levelo://app?vid=e0802964-26f2-4a1d-972c-80728e024af1"},"vehicle_type_id":"4","last_reported":1743116977,"current_range_meters":8400,"station_id":"ce4bhh92rcd13ifvqfh0","pricing_plan_id":"cebpf4jnsgd1na2vs0mg"},{"bike_id":"65e0ff93-ce4d-47ff-90b5-21c7e73e585e","system_id":"levelo_inurba_marseille","lat":43.27973,"lon":5.38738,"is_reserved":false,"is_disabled":false,"rental_uris":{"android":"levelo://app?vid=65e0ff93-ce4d-47ff-90b5-21c7e73e585e","ios":"levelo://app?vid=65e0ff93-ce4d-47ff-90b5-21c7e73e585e"},"vehicle_type_id":"4","last_reported":1743116977,"current_range_meters":8800,"station_id":"ce4bhg12rcd13ifvqf80","pricing_plan_id":"cebpf4jnsgd1na2vs0mg"},{"bike_id":"d4d5963a-cb27-46de-9f1c-185490377ac1","system_id":"levelo_inurba_marseille","lat":43.31345,"lon":5.39712,"is_reserved":false,"is_disabled":false,"rental_uris":{"android":"levelo://app?vid=d4d5963a-cb27-46de-9f1c-185490377ac1","ios":"levelo://app?vid=d4d5963a-cb27-46de-9f1c-185490377ac1"},"vehicle_type_id":"4","last_reported":1743116977,"current_range_meters":8800,"station_id":"ce4bgvp2rcd13ifvqcu0","pricing_plan_id":"cebpf4jnsgd1na2vs0mg"},{"bike_id":"e8230e4e-d9a7-46c2-83b0-eec450bbd0c3","system_id":"levelo_inurba_marseille","lat":43.28716,"lon":5.3611,"is_reserved":false,"is_disabled":false,"rental_uris":{"android":"levelo://app?vid=e8230e4e-d9a7-46c2-83b0-eec450bbd0c3","ios":"levelo://app?vid=e8230e4e-d9a7-46c2-83b0-eec450bbd0c3"},"vehicle_type_id":"4","last_reported":1743116977,"current_range_meters":8800,"station_id":"cki0cbj6b192h4jlfktg","pricing_plan_id":"cebpf4jnsgd1na2vs0mg"},{"bike_id":"30cd612a-8cb0-4fab-9e3a-cd08e9fc22b5","system_id":"levelo_inurba_marseille","lat":43.295,"lon":5.39393,"is_reserved":false,"is_disabled":true,"rental_uris":{"android":"levelo://app?vid=30cd612a-8cb0-4fab-9e3a-cd08e9fc22b5","ios":"levelo://app?vid=30cd612a-8cb0-4fab-9e3a-cd08e9fc22b5"},"vehicle_type_id":"4","last_reported":1743116977,"current_range_meters":8800,"station_id":"ce4bh292rcd13ifvqdf0","pricing_plan_id":"cebpf4jnsgd1na2vs0mg"},{"bike_id":"370669e1-a28f-4d18-9e7c-43dfbbad498e","system_id":"levelo_inurba_marseille","lat":43.24173,"lon":5.39742,"is_reserved":false,"is_disabled":false,"rental_uris":{"android":"levelo://app?vid=370669e1-a28f-4d18-9e7c-43dfbbad498e","ios":"levelo://app?vid=370669e1-a28f-4d18-9e7c-43dfbbad498e"},"vehicle_type_id":"4","last_reported":1743116977,"current_range_meters":8800,"station_id":"ce4bhn12rcd13ifvqgpg","pricing_plan_id":"cebpf4jnsgd1na2vs0mg"},{"bike_id":"8170275f-440c-41fd-a526-a4772bf7b5b2","system_id":"levelo_inurba_marseille","lat":43.28406,"lon":5.37521,"is_reserved":false,"is_disabled":false,"rental_uris":{"android":"levelo://app?vid=8170275f-440c-41fd-a526-a4772bf7b5b2","ios":"levelo://app?vid=8170275f-440c-41fd-a526-a4772bf7b5b2"},"vehicle_type_id":"4","last_reported":1743116977,"current_range_meters":8800,"station_id":"ce4bh412rcd13ifvqds0","pricing_plan_id":"cebpf4jnsgd1na2vs0mg"},{"bike_id":"90d97d7f-5afe-4601-98be-83b03668e3da","system_id":"levelo_inurba_marseille","lat":43.29305,"lon":5.37445,"is_reserved":false,"is_disabled":true,"rental_uris":{"android":"levelo://app?vid=90d97d7f-5afe-4601-98be-83b03668e3da","ios":"levelo://app?vid=90d97d7f-5afe-4601-98be-83b03668e3da"},"vehicle_type_id":"4","last_reported":1743116977,"current_range_meters":8800,"station_id":"ce4bgi12rcd13ifvqb70","pricing_plan_id":"cebpf4jnsgd1na2vs0mg"},{"bike_id":"a8cb7b4b-8bee-4b66-88cc-bdc18306d3c8","system_id":"levelo_inurba_marseille","lat":43.2795,"lon":5.41028,"is_reserved":false,"is_disabled":false,"rental_uris":{"android":"levelo://app?vid=a8cb7b4b-8bee-4b66-88cc-bdc18306d3c8","ios":"levelo://app?vid=a8cb7b4b-8bee-4b66-88cc-bdc18306d3c8"},"vehicle_type_id":"4","last_reported":1743116977,"current_range_meters":8800,"station_id":"ce4bhnp2rcd13ifvqh0g","pricing_plan_id":"cebpf4jnsgd1na2vs0mg"},{"bike_id":"5a8b4983-c8cb-4485-abc3-471ad0e92cdf","system_id":"levelo_inurba_marseille","lat":43.30127,"lon":5.39867,"is_reserved":false,"is_disabled":false,"rental_uris":{"android":"levelo://app?vid=5a8b4983-c8cb-4485-abc3-471ad0e92cdf","ios":"levelo://app?vid=5a8b4983-c8cb-4485-abc3-471ad0e92cdf"},"vehicle_type_id":"4","last_reported":1743116977,"current_range_meters":8800,"station_id":"ce4bh0h2rcd13ifvqd40","pricing_plan_id":"cebpf4jnsgd1na2vs0mg"},{"bike_id":"3a9bdcca-abab-46db-a40a-336182c98f57","system_id":"levelo_inurba_marseille","lat":43.27824,"lon":5.40712,"is_reserved":false,"is_disabled":false,"rental_uris":{"android":"levelo://app?vid=3a9bdcca-abab-46db-a40a-336182c98f57","ios":"levelo://app?vid=3a9bdcca-abab-46db-a40a-336182c98f57"},"vehicle_type_id":"4","last_reported":1743116977,"current_range_meters":9200,"station_id":"ce4bhnh2rcd13ifvqgtg","pricing_plan_id":"cebpf4jnsgd1na2vs0mg"},{"bike_id":"ff4019a9-dd1d-4915-9c87-9b475eaf143c","system_id":"levelo_inurba_marseille","lat":43.2804,"lon":5.36944,"is_reserved":false,"is_disabled":false,"rental_uris":{"android":"levelo://app?vid=ff4019a9-dd1d-4915-9c87-9b475eaf143c","ios":"levelo://app?vid=ff4019a9-dd1d-4915-9c87-9b475eaf143c"},"vehicle_type_id":"4","last_reported":1743116977,"current_range_meters":9200,"station_id":"ce4bha12rcd13ifvqef0","pricing_plan_id":"cebpf4jnsgd1na2vs0mg"},{"bike_id":"09a227f9-e81f-4ae4-8d74-65daf422601e","system_id":"levelo_inurba_marseille","lat":43.24817,"lon":5.37455,"is_reserved":false,"is_disabled":false,"rental_uris":{"android":"levelo://app?vid=09a227f9-e81f-4ae4-8d74-65daf422601e","ios":"levelo://app?vid=09a227f9-e81f-4ae4-8d74-65daf422601e"},"vehicle_type_id":"4","last_reported":1743116977,"current_range_meters":9200,"station_id":"ce4bhgh2rcd13ifvqfb0","pricing_plan_id":"cebpf4jnsgd1na2vs0mg"},{"bike_id":"e5047771-2082-4dba-9477-d8725027152d","system_id":"levelo_inurba_marseille","lat":43.25446,"lon":5.41879,"is_reserved":false,"is_disabled":false,"rental_uris":{"android":"levelo://app?vid=e5047771-2082-4dba-9477-d8725027152d","ios":"levelo://app?vid=e5047771-2082-4dba-9477-d8725027152d"},"vehicle_type_id":"4","last_reported":1743116977,"current_range_meters":9200,"station_id":"","pricing_plan_id":"cebpf4jnsgd1na2vs0mg"},{"bike_id":"d46ff930-e785-44f9-bf74-2f9202a8045b","system_id":"levelo_inurba_marseille","lat":43.28854,"lon":5.35842,"is_reserved":false,"is_disabled":false,"rental_uris":{"android":"levelo://app?vid=d46ff930-e785-44f9-bf74-2f9202a8045b","ios":"levelo://app?vid=d46ff930-e785-44f9-bf74-2f9202a8045b"},"vehicle_type_id":"4","last_reported":1743116977,"current_range_meters":9200,"station_id":"ce4bhb12rcd13ifvqem0","pricing_plan_id":"cebpf4jnsgd1na2vs0mg"},{"bike_id":"2079e143-15fb-4fca-b428-1dcdbd2da2aa","system_id":"levelo_inurba_marseille","lat":43.27822,"lon":5.40706,"is_reserved":false,"is_disabled":false,"rental_uris":{"android":"levelo://app?vid=2079e143-15fb-4fca-b428-1dcdbd2da2aa","ios":"levelo://app?vid=2079e143-15fb-4fca-b428-1dcdbd2da2aa"},"vehicle_type_id":"4","last_reported":1743116977,"current_range_meters":9200,"station_id":"ce4bhnh2rcd13ifvqgtg","pricing_plan_id":"cebpf4jnsgd1na2vs0mg"},{"bike_id":"eb57bd47-2c8e-4605-aaf2-9f9f772bee72","system_id":"levelo_inurba_marseille","lat":43.28941,"lon":5.36643,"is_reserved":false,"is_disabled":false,"rental_uris":{"android":"levelo://app?vid=eb57bd47-2c8e-4605-aaf2-9f9f772bee72","ios":"levelo://app?vid=eb57bd47-2c8e-4605-aaf2-9f9f772bee72"},"vehicle_type_id":"4","last_reported":1743116977,"current_range_meters":9200,"station_id":"ce4bhap2rcd13ifvqek0","pricing_plan_id":"cebpf4jnsgd1na2vs0mg"},{"bike_id":"0ac88cdf-dd3a-494f-aaa5-2b24d1ce393f","system_id":"levelo_inurba_marseille","lat":43.2319,"lon":5.3555,"is_reserved":false,"is_disabled":false,"rental_uris":{"android":"levelo://app?vid=0ac88cdf-dd3a-494f-aaa5-2b24d1ce393f","ios":"levelo://app?vid=0ac88cdf-dd3a-494f-aaa5-2b24d1ce393f"},"vehicle_type_id":"4","last_reported":1743116977,"current_range_meters":9200,"station_id":"ce4bhu92rcd13ifvqi70","pricing_plan_id":"cebpf4jnsgd1na2vs0mg"},{"bike_id":"308affa0-f7e4-4e9c-992c-6abe90a252dc","system_id":"levelo_inurba_marseille","lat":43.30651,"lon":5.40105,"is_reserved":false,"is_disabled":false,"rental_uris":{"android":"levelo://app?vid=308affa0-f7e4-4e9c-992c-6abe90a252dc","ios":"levelo://app?vid=308affa0-f7e4-4e9c-992c-6abe90a252dc"},"vehicle_type_id":"4","last_reported":1743116977,"current_range_meters":9200,"station_id":"ce4bh112rcd13ifvqda0","pricing_plan_id":"cebpf4jnsgd1na2vs0mg"},{"bike_id":"fc8e8371-f4e9-4721-bc19-563801e389dc","system_id":"levelo_inurba_marseille","lat":43.337444,"lon":5.374475,"is_reserved":false,"is_disabled":false,"rental_uris":{"android":"levelo://app?vid=fc8e8371-f4e9-4721-bc19-563801e389dc","ios":"levelo://app?vid=fc8e8371-f4e9-4721-bc19-563801e389dc"},"vehicle_type_id":"4","last_reported":1743116977,"current_range_meters":9200,"station_id":"","pricing_plan_id":"cebpf4jnsgd1na2vs0mg"},{"bike_id":"653b8eba-a23a-45fe-87c3-6a270637d839","system_id":"levelo_inurba_marseille","lat":43.3034,"lon":5.40442,"is_reserved":false,"is_disabled":false,"rental_uris":{"android":"levelo://app?vid=653b8eba-a23a-45fe-87c3-6a270637d839","ios":"levelo://app?vid=653b8eba-a23a-45fe-87c3-6a270637d839"},"vehicle_type_id":"4","last_reported":1743116977,"current_range_meters":9600,"station_id":"ce4bh012rcd13ifvqd10","pricing_plan_id":"cebpf4jnsgd1na2vs0mg"},{"bike_id":"b0feca04-0d77-476f-ba6a-93d51006e1b8","system_id":"levelo_inurba_marseille","lat":43.29231,"lon":5.36075,"is_reserved":false,"is_disabled":false,"rental_uris":{"android":"levelo://app?vid=b0feca04-0d77-476f-ba6a-93d51006e1b8","ios":"levelo://app?vid=b0feca04-0d77-476f-ba6a-93d51006e1b8"},"vehicle_type_id":"4","last_reported":1743116977,"current_range_meters":9600,"station_id":"ce4bhbh2rcd13ifvqeqg","pricing_plan_id":"cebpf4jnsgd1na2vs0mg"},{"bike_id":"ec940620-2a09-4eae-aace-1a0a72b62180","system_id":"levelo_inurba_marseille","lat":43.30289,"lon":5.40091,"is_reserved":false,"is_disabled":false,"rental_uris":{"android":"levelo://app?vid=ec940620-2a09-4eae-aace-1a0a72b62180","ios":"levelo://app?vid=ec940620-2a09-4eae-aace-1a0a72b62180"},"vehicle_type_id":"4","last_reported":1743116977,"current_range_meters":9600,"station_id":"ce4bgvh2rcd13ifvqcs0","pricing_plan_id":"cebpf4jnsgd1na2vs0mg"},{"bike_id":"a8ed19fc-d86c-48c2-bfe0-33f8fd6b1c33","system_id":"levelo_inurba_marseille","lat":43.28035,"lon":5.3694,"is_reserved":false,"is_disabled":false,"rental_uris":{"android":"levelo://app?vid=a8ed19fc-d86c-48c2-bfe0-33f8fd6b1c33","ios":"levelo://app?vid=a8ed19fc-d86c-48c2-bfe0-33f8fd6b1c33"},"vehicle_type_id":"4","last_reported":1743116977,"current_range_meters":9600,"station_id":"ce4bha12rcd13ifvqef0","pricing_plan_id":"cebpf4jnsgd1na2vs0mg"},{"bike_id":"36d349bc-e39c-46e1-b4eb-1986bf874f1b","system_id":"levelo_inurba_marseille","lat":43.26806,"lon":5.40271,"is_reserved":false,"is_disabled":false,"rental_uris":{"android":"levelo://app?vid=36d349bc-e39c-46e1-b4eb-1986bf874f1b","ios":"levelo://app?vid=36d349bc-e39c-46e1-b4eb-1986bf874f1b"},"vehicle_type_id":"4","last_reported":1743116977,"current_range_meters":9600,"station_id":"ce501612rcd8frsf0b60","pricing_plan_id":"cebpf4jnsgd1na2vs0mg"},{"bike_id":"795063b1-bbcb-4106-a9e7-6aa8fb383fb3","system_id":"levelo_inurba_marseille","lat":43.281516,"lon":5.426481,"is_reserved":false,"is_disabled":false,"rental_uris":{"android":"levelo://app?vid=795063b1-bbcb-4106-a9e7-6aa8fb383fb3","ios":"levelo://app?vid=795063b1-bbcb-4106-a9e7-6aa8fb383fb3"},"vehicle_type_id":"4","last_reported":1743116977,"current_range_meters":9600,"station_id":"ce4bhnh2rcd13ifvqgug","pricing_plan_id":"cebpf4jnsgd1na2vs0mg"},{"bike_id":"5a7f605c-2a74-4026-82f7-f55a72384599","system_id":"levelo_inurba_marseille","lat":43.28733,"lon":5.3608,"is_reserved":false,"is_disabled":false,"rental_uris":{"android":"levelo://app?vid=5a7f605c-2a74-4026-82f7-f55a72384599","ios":"levelo://app?vid=5a7f605c-2a74-4026-82f7-f55a72384599"},"vehicle_type_id":"4","last_reported":1743116977,"current_range_meters":9600,"station_id":"cki0cbj6b192h4jlfktg","pricing_plan_id":"cebpf4jnsgd1na2vs0mg"},{"bike_id":"19221227-42ec-4f4b-8f04-42a0818e22f5","system_id":"levelo_inurba_marseille","lat":43.32124,"lon":5.36769,"is_reserved":false,"is_disabled":false,"rental_uris":{"android":"levelo://app?vid=19221227-42ec-4f4b-8f04-42a0818e22f5","ios":"levelo://app?vid=19221227-42ec-4f4b-8f04-42a0818e22f5"},"vehicle_type_id":"4","last_reported":1743116977,"current_range_meters":9600,"station_id":"ce4bhrh2rcd13ifvqhug","pricing_plan_id":"cebpf4jnsgd1na2vs0mg"},{"bike_id":"64f0ea86-1180-4755-95e1-3cbc9c8d4cf5","system_id":"levelo_inurba_marseille","lat":43.32993,"lon":5.43894,"is_reserved":false,"is_disabled":true,"rental_uris":{"android":"levelo://app?vid=64f0ea86-1180-4755-95e1-3cbc9c8d4cf5","ios":"levelo://app?vid=64f0ea86-1180-4755-95e1-3cbc9c8d4cf5"},"vehicle_type_id":"4","last_reported":1743116977,"current_range_meters":9600,"station_id":"","pricing_plan_id":"cebpf4jnsgd1na2vs0mg"},{"bike_id":"039e06cd-a88f-474e-9b34-6e28e3e4565e","system_id":"levelo_inurba_marseille","lat":43.28413,"lon":5.37524,"is_reserved":false,"is_disabled":false,"rental_uris":{"android":"levelo://app?vid=039e06cd-a88f-474e-9b34-6e28e3e4565e","ios":"levelo://app?vid=039e06cd-a88f-474e-9b34-6e28e3e4565e"},"vehicle_type_id":"4","last_reported":1743116977,"current_range_meters":9600,"station_id":"ce4bh412rcd13ifvqds0","pricing_plan_id":"cebpf4jnsgd1na2vs0mg"},{"bike_id":"7f2e73db-4b03-4b28-acb3-1deeb3efc510","system_id":"levelo_inurba_marseille","lat":43.28675,"lon":5.38662,"is_reserved":false,"is_disabled":false,"rental_uris":{"android":"levelo://app?vid=7f2e73db-4b03-4b28-acb3-1deeb3efc510","ios":"levelo://app?vid=7f2e73db-4b03-4b28-acb3-1deeb3efc510"},"vehicle_type_id":"4","last_reported":1743116977,"current_range_meters":9600,"station_id":"ce4bh492rcd13ifvqdug","pricing_plan_id":"cebpf4jnsgd1na2vs0mg"},{"bike_id":"0e6a6a7a-7b8f-491a-a3b5-a5c04f82edad","system_id":"levelo_inurba_marseille","lat":43.28709,"lon":5.39987,"is_reserved":false,"is_disabled":false,"rental_uris":{"android":"levelo://app?vid=0e6a6a7a-7b8f-491a-a3b5-a5c04f82edad","ios":"levelo://app?vid=0e6a6a7a-7b8f-491a-a3b5-a5c04f82edad"},"vehicle_type_id":"4","last_reported":1743116977,"current_range_meters":9600,"station_id":"ce4bho92rcd13ifvqh3g","pricing_plan_id":"cebpf4jnsgd1na2vs0mg"},{"bike_id":"17ad65fb-68d1-4f5a-8936-4a8b650acc48","system_id":"levelo_inurba_marseille","lat":43.29275,"lon":5.40121,"is_reserved":false,"is_disabled":false,"rental_uris":{"android":"levelo://app?vid=17ad65fb-68d1-4f5a-8936-4a8b650acc48","ios":"levelo://app?vid=17ad65fb-68d1-4f5a-8936-4a8b650acc48"},"vehicle_type_id":"4","last_reported":1743116977,"current_range_meters":9600,"station_id":"ce4bh312rcd13ifvqdk0","pricing_plan_id":"cebpf4jnsgd1na2vs0mg"},{"bike_id":"b6277294-9c97-4bd2-bb72-519bd900d431","system_id":"levelo_inurba_marseille","lat":43.29314,"lon":5.37434,"is_reserved":false,"is_disabled":true,"rental_uris":{"android":"levelo://app?vid=b6277294-9c97-4bd2-bb72-519bd900d431","ios":"levelo://app?vid=b6277294-9c97-4bd2-bb72-519bd900d431"},"vehicle_type_id":"4","last_reported":1743116977,"current_range_meters":10000,"station_id":"ce4bgi12rcd13ifvqb70","pricing_plan_id":"cebpf4jnsgd1na2vs0mg"},{"bike_id":"557fc5a2-228f-4c49-b89f-39f2d2e839dd","system_id":"levelo_inurba_marseille","lat":43.317383,"lon":5.38995,"is_reserved":false,"is_disabled":false,"rental_uris":{"android":"levelo://app?vid=557fc5a2-228f-4c49-b89f-39f2d2e839dd","ios":"levelo://app?vid=557fc5a2-228f-4c49-b89f-39f2d2e839dd"},"vehicle_type_id":"4","last_reported":1743116977,"current_range_meters":10000,"station_id":"ce4bhqp2rcd13ifvqhng","pricing_plan_id":"cebpf4jnsgd1na2vs0mg"},{"bike_id":"52459d97-3c02-4a8b-956b-a188833d59ea","system_id":"levelo_inurba_marseille","lat":43.28703,"lon":5.37405,"is_reserved":false,"is_disabled":false,"rental_uris":{"android":"levelo://app?vid=52459d97-3c02-4a8b-956b-a188833d59ea","ios":"levelo://app?vid=52459d97-3c02-4a8b-956b-a188833d59ea"},"vehicle_type_id":"4","last_reported":1743116977,"current_range_meters":10000,"station_id":"ce4bh3p2rcd13ifvqdq0","pricing_plan_id":"cebpf4jnsgd1na2vs0mg"},{"bike_id":"9968ee70-8dd5-4143-8b11-fce58ef5ea8a","system_id":"levelo_inurba_marseille","lat":43.30109,"lon":5.39075,"is_reserved":false,"is_disabled":false,"rental_uris":{"android":"levelo://app?vid=9968ee70-8dd5-4143-8b11-fce58ef5ea8a","ios":"levelo://app?vid=9968ee70-8dd5-4143-8b11-fce58ef5ea8a"},"vehicle_type_id":"4","last_reported":1743116977,"current_range_meters":10000,"station_id":"ce4bh192rcd13ifvqdb0","pricing_plan_id":"cebpf4jnsgd1na2vs0mg"},{"bike_id":"678b18f8-94fc-441a-aa4e-eee20712bec6","system_id":"levelo_inurba_marseille","lat":43.29983,"lon":5.38493,"is_reserved":false,"is_disabled":true,"rental_uris":{"android":"levelo://app?vid=678b18f8-94fc-441a-aa4e-eee20712bec6","ios":"levelo://app?vid=678b18f8-94fc-441a-aa4e-eee20712bec6"},"vehicle_type_id":"4","last_reported":1743116977,"current_range_meters":10000,"station_id":"ce4bgj92rcd13ifvqbd0","pricing_plan_id":"cebpf4jnsgd1na2vs0mg"},{"bike_id":"25c93242-72e6-4525-aea7-7d96e2cd1825","system_id":"levelo_inurba_marseille","lat":43.33082,"lon":5.4082,"is_reserved":false,"is_disabled":false,"rental_uris":{"android":"levelo://app?vid=25c93242-72e6-4525-aea7-7d96e2cd1825","ios":"levelo://app?vid=25c93242-72e6-4525-aea7-7d96e2cd1825"},"vehicle_type_id":"4","last_reported":1743116977,"current_range_meters":10000,"station_id":"","pricing_plan_id":"cebpf4jnsgd1na2vs0mg"},{"bike_id":"97598caa-f881-4c11-b13b-ad62623fc261","system_id":"levelo_inurba_marseille","lat":43.28084,"lon":5.39657,"is_reserved":false,"is_disabled":false,"rental_uris":{"android":"levelo://app?vid=97598caa-f881-4c11-b13b-ad62623fc261","ios":"levelo://app?vid=97598caa-f881-4c11-b13b-ad62623fc261"},"vehicle_type_id":"4","last_reported":1743116977,"current_range_meters":10000,"station_id":"ce4bho12rcd13ifvqh2g","pricing_plan_id":"cebpf4jnsgd1na2vs0mg"},{"bike_id":"813634ed-e21d-4b9e-88e8-aa8b87581eb3","system_id":"levelo_inurba_marseille","lat":43.3209,"lon":5.36762,"is_reserved":false,"is_disabled":false,"rental_uris":{"android":"levelo://app?vid=813634ed-e21d-4b9e-88e8-aa8b87581eb3","ios":"levelo://app?vid=813634ed-e21d-4b9e-88e8-aa8b87581eb3"},"vehicle_type_id":"4","last_reported":1743116977,"current_range_meters":10800,"station_id":"ce4bhrh2rcd13ifvqhug","pricing_plan_id":"cebpf4jnsgd1na2vs0mg"},{"bike_id":"1bce78f4-5d3c-410a-a1d6-8a43e7411661","system_id":"levelo_inurba_marseille","lat":43.28663,"lon":5.36359,"is_reserved":false,"is_disabled":false,"rental_uris":{"android":"levelo://app?vid=1bce78f4-5d3c-410a-a1d6-8a43e7411661","ios":"levelo://app?vid=1bce78f4-5d3c-410a-a1d6-8a43e7411661"},"vehicle_type_id":"4","last_reported":1743116977,"current_range_meters":10800,"station_id":"ce4bhah2rcd13ifvqej0","pricing_plan_id":"cebpf4jnsgd1na2vs0mg"},{"bike_id":"85dbb91e-4a5b-4d1d-8d58-9c0a316213a9","system_id":"levelo_inurba_marseille","lat":43.29516,"lon":5.39407,"is_reserved":false,"is_disabled":false,"rental_uris":{"android":"levelo://app?vid=85dbb91e-4a5b-4d1d-8d58-9c0a316213a9","ios":"levelo://app?vid=85dbb91e-4a5b-4d1d-8d58-9c0a316213a9"},"vehicle_type_id":"4","last_reported":1743116977,"current_range_meters":10800,"station_id":"ce4bh292rcd13ifvqdf0","pricing_plan_id":"cebpf4jnsgd1na2vs0mg"},{"bike_id":"f00e0bf1-e77c-4752-8f1b-63a2e565cf51","system_id":"levelo_inurba_marseille","lat":43.27926,"lon":5.38718,"is_reserved":false,"is_disabled":true,"rental_uris":{"android":"levelo://app?vid=f00e0bf1-e77c-4752-8f1b-63a2e565cf51","ios":"levelo://app?vid=f00e0bf1-e77c-4752-8f1b-63a2e565cf51"},"vehicle_type_id":"4","last_reported":1743116977,"current_range_meters":10800,"station_id":"","pricing_plan_id":"cebpf4jnsgd1na2vs0mg"},{"bike_id":"4c732124-8b69-4726-a111-e3a8d012a4e3","system_id":"levelo_inurba_marseille","lat":43.30322,"lon":5.40431,"is_reserved":false,"is_disabled":false,"rental_uris":{"android":"levelo://app?vid=4c732124-8b69-4726-a111-e3a8d012a4e3","ios":"levelo://app?vid=4c732124-8b69-4726-a111-e3a8d012a4e3"},"vehicle_type_id":"4","last_reported":1743116977,"current_range_meters":10800,"station_id":"ce4bh012rcd13ifvqd10","pricing_plan_id":"cebpf4jnsgd1na2vs0mg"},{"bike_id":"107c2394-7d63-4ba0-9a5b-757759b8e3ef","system_id":"levelo_inurba_marseille","lat":43.23955,"lon":5.36645,"is_reserved":false,"is_disabled":false,"rental_uris":{"android":"levelo://app?vid=107c2394-7d63-4ba0-9a5b-757759b8e3ef","ios":"levelo://app?vid=107c2394-7d63-4ba0-9a5b-757759b8e3ef"},"vehicle_type_id":"4","last_reported":1743116977,"current_range_meters":10800,"station_id":"ce4bhi12rcd13ifvqfp0","pricing_plan_id":"cebpf4jnsgd1na2vs0mg"},{"bike_id":"7f648bb2-f87e-4c8e-a48e-5076f14a49c1","system_id":"levelo_inurba_marseille","lat":43.25877,"lon":5.39899,"is_reserved":false,"is_disabled":false,"rental_uris":{"android":"levelo://app?vid=7f648bb2-f87e-4c8e-a48e-5076f14a49c1","ios":"levelo://app?vid=7f648bb2-f87e-4c8e-a48e-5076f14a49c1"},"vehicle_type_id":"4","last_reported":1743116977,"current_range_meters":10800,"station_id":"ce4bhl92rcd13ifvqghg","pricing_plan_id":"cebpf4jnsgd1na2vs0mg"},{"bike_id":"bc3f138a-3af0-4b4e-9b07-2d2a8e540795","system_id":"levelo_inurba_marseille","lat":43.26495,"lon":5.39537,"is_reserved":false,"is_disabled":true,"rental_uris":{"android":"levelo://app?vid=bc3f138a-3af0-4b4e-9b07-2d2a8e540795","ios":"levelo://app?vid=bc3f138a-3af0-4b4e-9b07-2d2a8e540795"},"vehicle_type_id":"4","last_reported":1743116977,"current_range_meters":10800,"station_id":"ce4bhi12rcd13ifvqfq0","pricing_plan_id":"cebpf4jnsgd1na2vs0mg"},{"bike_id":"e29d1a2b-35d0-4d6b-9e81-558cc174acf3","system_id":"levelo_inurba_marseille","lat":43.25738,"lon":5.41101,"is_reserved":false,"is_disabled":false,"rental_uris":{"android":"levelo://app?vid=e29d1a2b-35d0-4d6b-9e81-558cc174acf3","ios":"levelo://app?vid=e29d1a2b-35d0-4d6b-9e81-558cc174acf3"},"vehicle_type_id":"4","last_reported":1743116977,"current_range_meters":10800,"station_id":"ce4bhkp2rcd13ifvqgd0","pricing_plan_id":"cebpf4jnsgd1na2vs0mg"},{"bike_id":"1144b78b-ff9c-4536-8a7b-4358a021ccd4","system_id":"levelo_inurba_marseille","lat":43.32365,"lon":5.3888,"is_reserved":false,"is_disabled":false,"rental_uris":{"android":"levelo://app?vid=1144b78b-ff9c-4536-8a7b-4358a021ccd4","ios":"levelo://app?vid=1144b78b-ff9c-4536-8a7b-4358a021ccd4"},"vehicle_type_id":"4","last_reported":1743116977,"current_range_meters":10800,"station_id":"ce4bhqp2rcd13ifvqhog","pricing_plan_id":"cebpf4jnsgd1na2vs0mg"},{"bike_id":"e39f0277-8842-447f-8838-fb2880aa78ea","system_id":"levelo_inurba_marseille","lat":43.28975,"lon":5.36627,"is_reserved":false,"is_disabled":false,"rental_uris":{"android":"levelo://app?vid=e39f0277-8842-447f-8838-fb2880aa78ea","ios":"levelo://app?vid=e39f0277-8842-447f-8838-fb2880aa78ea"},"vehicle_type_id":"4","last_reported":1743116977,"current_range_meters":10800,"station_id":"ce4bhap2rcd13ifvqek0","pricing_plan_id":"cebpf4jnsgd1na2vs0mg"},{"bike_id":"855fd122-c3f8-4a4e-a851-cb10801b8791","system_id":"levelo_inurba_marseille","lat":43.30888,"lon":5.39641,"is_reserved":false,"is_disabled":false,"rental_uris":{"android":"levelo://app?vid=855fd122-c3f8-4a4e-a851-cb10801b8791","ios":"levelo://app?vid=855fd122-c3f8-4a4e-a851-cb10801b8791"},"vehicle_type_id":"4","last_reported":1743116977,"current_range_meters":10800,"station_id":"ce4bh012rcd13ifvqcv0","pricing_plan_id":"cebpf4jnsgd1na2vs0mg"},{"bike_id":"60e5e1f0-fdc6-4100-9ad4-a0d5d3753972","system_id":"levelo_inurba_marseille","lat":43.2622,"lon":5.40392,"is_reserved":false,"is_disabled":false,"rental_uris":{"android":"levelo://app?vid=60e5e1f0-fdc6-4100-9ad4-a0d5d3753972","ios":"levelo://app?vid=60e5e1f0-fdc6-4100-9ad4-a0d5d3753972"},"vehicle_type_id":"4","last_reported":1743116977,"current_range_meters":10800,"station_id":"ce4bhmh2rcd13ifvqgmg","pricing_plan_id":"cebpf4jnsgd1na2vs0mg"},{"bike_id":"e8d201f1-9aa9-4ae6-a427-58a645e166df","system_id":"levelo_inurba_marseille","lat":43.29904,"lon":5.39716,"is_reserved":false,"is_disabled":false,"rental_uris":{"android":"levelo://app?vid=e8d201f1-9aa9-4ae6-a427-58a645e166df","ios":"levelo://app?vid=e8d201f1-9aa9-4ae6-a427-58a645e166df"},"vehicle_type_id":"4","last_reported":1743116977,"current_range_meters":10800,"station_id":"ce4bh0h2rcd13ifvqd50","pricing_plan_id":"cebpf4jnsgd1na2vs0mg"},{"bike_id":"594ce66e-3d21-4d07-bc27-1c0c762c356b","system_id":"levelo_inurba_marseille","lat":43.297,"lon":5.36584,"is_reserved":false,"is_disabled":false,"rental_uris":{"android":"levelo://app?vid=594ce66e-3d21-4d07-bc27-1c0c762c356b","ios":"levelo://app?vid=594ce66e-3d21-4d07-bc27-1c0c762c356b"},"vehicle_type_id":"4","last_reported":1743116977,"current_range_meters":10800,"station_id":"ce4bgi92rcd13ifvqb90","pricing_plan_id":"cebpf4jnsgd1na2vs0mg"},{"bike_id":"530c42a0-b13c-48d3-993a-82440abd50da","system_id":"levelo_inurba_marseille","lat":43.29198,"lon":5.358,"is_reserved":false,"is_disabled":false,"rental_uris":{"android":"levelo://app?vid=530c42a0-b13c-48d3-993a-82440abd50da","ios":"levelo://app?vid=530c42a0-b13c-48d3-993a-82440abd50da"},"vehicle_type_id":"4","last_reported":1743116977,"current_range_meters":10800,"station_id":"ce4bhb12rcd13ifvqel0","pricing_plan_id":"cebpf4jnsgd1na2vs0mg"},{"bike_id":"eb3cf403-8b3f-4893-9f27-c4512d6833f5","system_id":"levelo_inurba_marseille","lat":43.29781,"lon":5.39351,"is_reserved":false,"is_disabled":false,"rental_uris":{"android":"levelo://app?vid=eb3cf403-8b3f-4893-9f27-c4512d6833f5","ios":"levelo://app?vid=eb3cf403-8b3f-4893-9f27-c4512d6833f5"},"vehicle_type_id":"4","last_reported":1743116977,"current_range_meters":11200,"station_id":"chh1huq6cuj3fo74tm60","pricing_plan_id":"cebpf4jnsgd1na2vs0mg"},{"bike_id":"87f88a1f-4809-44a9-9918-7c7de180fdf0","system_id":"levelo_inurba_marseille","lat":43.25881,"lon":5.39921,"is_reserved":false,"is_disabled":false,"rental_uris":{"android":"levelo://app?vid=87f88a1f-4809-44a9-9918-7c7de180fdf0","ios":"levelo://app?vid=87f88a1f-4809-44a9-9918-7c7de180fdf0"},"vehicle_type_id":"4","last_reported":1743116977,"current_range_meters":11200,"station_id":"ce4bhl92rcd13ifvqghg","pricing_plan_id":"cebpf4jnsgd1na2vs0mg"},{"bike_id":"cfed900d-e17f-46a7-9847-c8d921508ac3","system_id":"levelo_inurba_marseille","lat":43.23967,"lon":5.36638,"is_reserved":false,"is_disabled":false,"rental_uris":{"android":"levelo://app?vid=cfed900d-e17f-46a7-9847-c8d921508ac3","ios":"levelo://app?vid=cfed900d-e17f-46a7-9847-c8d921508ac3"},"vehicle_type_id":"4","last_reported":1743116977,"current_range_meters":11200,"station_id":"ce4bhi12rcd13ifvqfp0","pricing_plan_id":"cebpf4jnsgd1na2vs0mg"},{"bike_id":"5a193ba4-1e21-479f-bd65-c3dcbd16b945","system_id":"levelo_inurba_marseille","lat":43.30879,"lon":5.39629,"is_reserved":false,"is_disabled":false,"rental_uris":{"android":"levelo://app?vid=5a193ba4-1e21-479f-bd65-c3dcbd16b945","ios":"levelo://app?vid=5a193ba4-1e21-479f-bd65-c3dcbd16b945"},"vehicle_type_id":"4","last_reported":1743116977,"current_range_meters":11200,"station_id":"ce4bh012rcd13ifvqcv0","pricing_plan_id":"cebpf4jnsgd1na2vs0mg"},{"bike_id":"d75f9f5e-4772-4de2-8f78-058b650907ab","system_id":"levelo_inurba_marseille","lat":43.24171,"lon":5.36395,"is_reserved":false,"is_disabled":false,"rental_uris":{"android":"levelo://app?vid=d75f9f5e-4772-4de2-8f78-058b650907ab","ios":"levelo://app?vid=d75f9f5e-4772-4de2-8f78-058b650907ab"},"vehicle_type_id":"4","last_reported":1743116977,"current_range_meters":11200,"station_id":"cpo36qri1sfpv3e86is0","pricing_plan_id":"cebpf4jnsgd1na2vs0mg"},{"bike_id":"34d07891-8c02-4c2b-a31e-e054161d5fa3","system_id":"levelo_inurba_marseille","lat":43.28433,"lon":5.37505,"is_reserved":false,"is_disabled":false,"rental_uris":{"android":"levelo://app?vid=34d07891-8c02-4c2b-a31e-e054161d5fa3","ios":"levelo://app?vid=34d07891-8c02-4c2b-a31e-e054161d5fa3"},"vehicle_type_id":"4","last_reported":1743116977,"current_range_meters":11200,"station_id":"ce4bh412rcd13ifvqds0","pricing_plan_id":"cebpf4jnsgd1na2vs0mg"},{"bike_id":"290edeb0-1444-49c9-9051-c84b1e267158","system_id":"levelo_inurba_marseille","lat":43.26225,"lon":5.40451,"is_reserved":false,"is_disabled":false,"rental_uris":{"android":"levelo://app?vid=290edeb0-1444-49c9-9051-c84b1e267158","ios":"levelo://app?vid=290edeb0-1444-49c9-9051-c84b1e267158"},"vehicle_type_id":"4","last_reported":1743116977,"current_range_meters":11600,"station_id":"ce4bhmh2rcd13ifvqgmg","pricing_plan_id":"cebpf4jnsgd1na2vs0mg"},{"bike_id":"155e3fe2-30b5-42ce-ba12-b1f697461e90","system_id":"levelo_inurba_marseille","lat":43.30145,"lon":5.39855,"is_reserved":false,"is_disabled":false,"rental_uris":{"android":"levelo://app?vid=155e3fe2-30b5-42ce-ba12-b1f697461e90","ios":"levelo://app?vid=155e3fe2-30b5-42ce-ba12-b1f697461e90"},"vehicle_type_id":"4","last_reported":1743116977,"current_range_meters":11600,"station_id":"ce4bh0h2rcd13ifvqd40","pricing_plan_id":"cebpf4jnsgd1na2vs0mg"},{"bike_id":"fb246d73-d838-4086-9394-36c6fa16de24","system_id":"levelo_inurba_marseille","lat":43.28703,"lon":5.3739,"is_reserved":false,"is_disabled":false,"rental_uris":{"android":"levelo://app?vid=fb246d73-d838-4086-9394-36c6fa16de24","ios":"levelo://app?vid=fb246d73-d838-4086-9394-36c6fa16de24"},"vehicle_type_id":"4","last_reported":1743116977,"current_range_meters":11600,"station_id":"ce4bh3p2rcd13ifvqdq0","pricing_plan_id":"cebpf4jnsgd1na2vs0mg"},{"bike_id":"4a42ca1e-41e4-4233-a4bb-a180f04564d6","system_id":"levelo_inurba_marseille","lat":43.29175,"lon":5.37144,"is_reserved":false,"is_disabled":true,"rental_uris":{"android":"levelo://app?vid=4a42ca1e-41e4-4233-a4bb-a180f04564d6","ios":"levelo://app?vid=4a42ca1e-41e4-4233-a4bb-a180f04564d6"},"vehicle_type_id":"4","last_reported":1743116977,"current_range_meters":11600,"station_id":"ce4bha92rcd13ifvqeh0","pricing_plan_id":"cebpf4jnsgd1na2vs0mg"},{"bike_id":"cbf7177e-6e28-4340-bbb6-69b4f76d24c6","system_id":"levelo_inurba_marseille","lat":43.30319,"lon":5.40445,"is_reserved":false,"is_disabled":false,"rental_uris":{"android":"levelo://app?vid=cbf7177e-6e28-4340-bbb6-69b4f76d24c6","ios":"levelo://app?vid=cbf7177e-6e28-4340-bbb6-69b4f76d24c6"},"vehicle_type_id":"4","last_reported":1743116977,"current_range_meters":11600,"station_id":"ce4bh012rcd13ifvqd10","pricing_plan_id":"cebpf4jnsgd1na2vs0mg"},{"bike_id":"2e919ca5-ce98-4c47-a9d7-66e6ab7584e4","system_id":"levelo_inurba_marseille","lat":43.32113,"lon":5.36758,"is_reserved":false,"is_disabled":false,"rental_uris":{"android":"levelo://app?vid=2e919ca5-ce98-4c47-a9d7-66e6ab7584e4","ios":"levelo://app?vid=2e919ca5-ce98-4c47-a9d7-66e6ab7584e4"},"vehicle_type_id":"4","last_reported":1743116977,"current_range_meters":11600,"station_id":"ce4bhrh2rcd13ifvqhug","pricing_plan_id":"cebpf4jnsgd1na2vs0mg"},{"bike_id":"0ba287f6-e97b-4d23-8414-6d14b26e6d32","system_id":"levelo_inurba_marseille","lat":43.32356,"lon":5.36751,"is_reserved":false,"is_disabled":false,"rental_uris":{"android":"levelo://app?vid=0ba287f6-e97b-4d23-8414-6d14b26e6d32","ios":"levelo://app?vid=0ba287f6-e97b-4d23-8414-6d14b26e6d32"},"vehicle_type_id":"4","last_reported":1743116977,"current_range_meters":11600,"station_id":"ce4bhsh2rcd13ifvqi2g","pricing_plan_id":"cebpf4jnsgd1na2vs0mg"},{"bike_id":"1b1aa963-5d87-46c9-8b5b-1a666c786917","system_id":"levelo_inurba_marseille","lat":43.25585,"lon":5.38234,"is_reserved":false,"is_disabled":false,"rental_uris":{"android":"levelo://app?vid=1b1aa963-5d87-46c9-8b5b-1a666c786917","ios":"levelo://app?vid=1b1aa963-5d87-46c9-8b5b-1a666c786917"},"vehicle_type_id":"4","last_reported":1743116977,"current_range_meters":11600,"station_id":"ce4bhih2rcd13ifvqfs0","pricing_plan_id":"cebpf4jnsgd1na2vs0mg"},{"bike_id":"2c47d608-13ae-43cc-87b5-5f8d692ef26a","system_id":"levelo_inurba_marseille","lat":43.27376,"lon":5.36256,"is_reserved":false,"is_disabled":false,"rental_uris":{"android":"levelo://app?vid=2c47d608-13ae-43cc-87b5-5f8d692ef26a","ios":"levelo://app?vid=2c47d608-13ae-43cc-87b5-5f8d692ef26a"},"vehicle_type_id":"4","last_reported":1743116977,"current_range_meters":11600,"station_id":"ce4bhbh2rcd13ifvqeo0","pricing_plan_id":"cebpf4jnsgd1na2vs0mg"},{"bike_id":"bfa018d7-4766-430e-8a9d-9b17e9a65a71","system_id":"levelo_inurba_marseille","lat":43.25091,"lon":5.39537,"is_reserved":false,"is_disabled":false,"rental_uris":{"android":"levelo://app?vid=bfa018d7-4766-430e-8a9d-9b17e9a65a71","ios":"levelo://app?vid=bfa018d7-4766-430e-8a9d-9b17e9a65a71"},"vehicle_type_id":"4","last_reported":1743116977,"current_range_meters":11600,"station_id":"ce4bhm12rcd13ifvqgkg","pricing_plan_id":"cebpf4jnsgd1na2vs0mg"},{"bike_id":"b8a74bad-888a-4785-8ef8-0af39c627bac","system_id":"levelo_inurba_marseille","lat":43.29845,"lon":5.36275,"is_reserved":false,"is_disabled":false,"rental_uris":{"android":"levelo://app?vid=b8a74bad-888a-4785-8ef8-0af39c627bac","ios":"levelo://app?vid=b8a74bad-888a-4785-8ef8-0af39c627bac"},"vehicle_type_id":"4","last_reported":1743116977,"current_range_meters":11600,"station_id":"ce4bgpp2rcd13ifvqc3g","pricing_plan_id":"cebpf4jnsgd1na2vs0mg"},{"bike_id":"4da1899d-3653-460a-9f7d-0d77d15cb89d","system_id":"levelo_inurba_marseille","lat":43.29511,"lon":5.3903,"is_reserved":false,"is_disabled":false,"rental_uris":{"android":"levelo://app?vid=4da1899d-3653-460a-9f7d-0d77d15cb89d","ios":"levelo://app?vid=4da1899d-3653-460a-9f7d-0d77d15cb89d"},"vehicle_type_id":"4","last_reported":1743116977,"current_range_meters":12000,"station_id":"ce4bh3p2rcd13ifvqdp0","pricing_plan_id":"cebpf4jnsgd1na2vs0mg"},{"bike_id":"c11a4eb9-648f-4fa7-aefc-e342d02ebe0d","system_id":"levelo_inurba_marseille","lat":43.28719,"lon":5.36102,"is_reserved":false,"is_disabled":false,"rental_uris":{"android":"levelo://app?vid=c11a4eb9-648f-4fa7-aefc-e342d02ebe0d","ios":"levelo://app?vid=c11a4eb9-648f-4fa7-aefc-e342d02ebe0d"},"vehicle_type_id":"4","last_reported":1743116977,"current_range_meters":12000,"station_id":"cki0cbj6b192h4jlfktg","pricing_plan_id":"cebpf4jnsgd1na2vs0mg"},{"bike_id":"648a3707-3d5d-415a-b57f-06c9fee3b748","system_id":"levelo_inurba_marseille","lat":43.29195,"lon":5.3932,"is_reserved":false,"is_disabled":false,"rental_uris":{"android":"levelo://app?vid=648a3707-3d5d-415a-b57f-06c9fee3b748","ios":"levelo://app?vid=648a3707-3d5d-415a-b57f-06c9fee3b748"},"vehicle_type_id":"4","last_reported":1743116977,"current_range_meters":12000,"station_id":"ce4bh192rcd13ifvqdd0","pricing_plan_id":"cebpf4jnsgd1na2vs0mg"},{"bike_id":"ed3f340d-7b56-49a7-952a-c79c8daa5f0f","system_id":"levelo_inurba_marseille","lat":43.3014,"lon":5.38799,"is_reserved":false,"is_disabled":true,"rental_uris":{"android":"levelo://app?vid=ed3f340d-7b56-49a7-952a-c79c8daa5f0f","ios":"levelo://app?vid=ed3f340d-7b56-49a7-952a-c79c8daa5f0f"},"vehicle_type_id":"4","last_reported":1743116977,"current_range_meters":12000,"station_id":"ce4bghh2rcd13ifvqb60","pricing_plan_id":"cebpf4jnsgd1na2vs0mg"},{"bike_id":"74bb3be4-214a-4907-a0a6-cb5edcf13a83","system_id":"levelo_inurba_marseille","lat":43.29712,"lon":5.36612,"is_reserved":false,"is_disabled":true,"rental_uris":{"android":"levelo://app?vid=74bb3be4-214a-4907-a0a6-cb5edcf13a83","ios":"levelo://app?vid=74bb3be4-214a-4907-a0a6-cb5edcf13a83"},"vehicle_type_id":"4","last_reported":1743116977,"current_range_meters":12000,"station_id":"ce4bgn12rcd13ifvqbt0","pricing_plan_id":"cebpf4jnsgd1na2vs0mg"},{"bike_id":"a5283904-5266-4000-b8e4-97999e9149cf","system_id":"levelo_inurba_marseille","lat":43.32656,"lon":5.40997,"is_reserved":false,"is_disabled":false,"rental_uris":{"android":"levelo://app?vid=a5283904-5266-4000-b8e4-97999e9149cf","ios":"levelo://app?vid=a5283904-5266-4000-b8e4-97999e9149cf"},"vehicle_type_id":"4","last_reported":1743116977,"current_range_meters":12000,"station_id":"ce4bhpp2rcd13ifvqhgg","pricing_plan_id":"cebpf4jnsgd1na2vs0mg"},{"bike_id":"1c14bf9c-ada4-4a36-8853-740a1a2c000a","system_id":"levelo_inurba_marseille","lat":43.23187,"lon":5.35572,"is_reserved":false,"is_disabled":false,"rental_uris":{"android":"levelo://app?vid=1c14bf9c-ada4-4a36-8853-740a1a2c000a","ios":"levelo://app?vid=1c14bf9c-ada4-4a36-8853-740a1a2c000a"},"vehicle_type_id":"4","last_reported":1743116977,"current_range_meters":12000,"station_id":"ce4bhu92rcd13ifvqi70","pricing_plan_id":"cebpf4jnsgd1na2vs0mg"},{"bike_id":"ac7c3041-b2d3-49b3-a071-d02fd70bb2de","system_id":"levelo_inurba_marseille","lat":43.298771,"lon":5.38905,"is_reserved":false,"is_disabled":false,"rental_uris":{"android":"levelo://app?vid=ac7c3041-b2d3-49b3-a071-d02fd70bb2de","ios":"levelo://app?vid=ac7c3041-b2d3-49b3-a071-d02fd70bb2de"},"vehicle_type_id":"4","last_reported":1743116977,"current_range_meters":12400,"station_id":"ce4bh392rcd13ifvqdl0","pricing_plan_id":"cebpf4jnsgd1na2vs0mg"},{"bike_id":"0ded2fe1-43ec-4b06-81f3-e6639721b8d2","system_id":"levelo_inurba_marseille","lat":43.30801,"lon":5.38189,"is_reserved":false,"is_disabled":false,"rental_uris":{"android":"levelo://app?vid=0ded2fe1-43ec-4b06-81f3-e6639721b8d2","ios":"levelo://app?vid=0ded2fe1-43ec-4b06-81f3-e6639721b8d2"},"vehicle_type_id":"4","last_reported":1743116977,"current_range_meters":12400,"station_id":"ce4bgt12rcd13ifvqce0","pricing_plan_id":"cebpf4jnsgd1na2vs0mg"},{"bike_id":"fc6e4ceb-45c2-480f-8c97-456a431f3917","system_id":"levelo_inurba_marseille","lat":43.29029,"lon":5.38642,"is_reserved":false,"is_disabled":false,"rental_uris":{"android":"levelo://app?vid=fc6e4ceb-45c2-480f-8c97-456a431f3917","ios":"levelo://app?vid=fc6e4ceb-45c2-480f-8c97-456a431f3917"},"vehicle_type_id":"4","last_reported":1743116977,"current_range_meters":12400,"station_id":"ce4bh4p2rcd13ifvqe0g","pricing_plan_id":"cebpf4jnsgd1na2vs0mg"},{"bike_id":"1c176faf-504d-41db-98e0-e1c48b7ee358","system_id":"levelo_inurba_marseille","lat":43.29521,"lon":5.39053,"is_reserved":false,"is_disabled":false,"rental_uris":{"android":"levelo://app?vid=1c176faf-504d-41db-98e0-e1c48b7ee358","ios":"levelo://app?vid=1c176faf-504d-41db-98e0-e1c48b7ee358"},"vehicle_type_id":"4","last_reported":1743116977,"current_range_meters":12400,"station_id":"ce4bh3p2rcd13ifvqdp0","pricing_plan_id":"cebpf4jnsgd1na2vs0mg"},{"bike_id":"45aa7b2e-dddd-4da0-9398-e7c563c63631","system_id":"levelo_inurba_marseille","lat":43.30307,"lon":5.36897,"is_reserved":false,"is_disabled":false,"rental_uris":{"android":"levelo://app?vid=45aa7b2e-dddd-4da0-9398-e7c563c63631","ios":"levelo://app?vid=45aa7b2e-dddd-4da0-9398-e7c563c63631"},"vehicle_type_id":"4","last_reported":1743116977,"current_range_meters":12400,"station_id":"ce4bgqh2rcd13ifvqc5g","pricing_plan_id":"cebpf4jnsgd1na2vs0mg"},{"bike_id":"ce9e2876-6093-42f2-b1bc-71496513f922","system_id":"levelo_inurba_marseille","lat":43.29194,"lon":5.35814,"is_reserved":false,"is_disabled":false,"rental_uris":{"android":"levelo://app?vid=ce9e2876-6093-42f2-b1bc-71496513f922","ios":"levelo://app?vid=ce9e2876-6093-42f2-b1bc-71496513f922"},"vehicle_type_id":"4","last_reported":1743116977,"current_range_meters":12400,"station_id":"ce4bhb12rcd13ifvqel0","pricing_plan_id":"cebpf4jnsgd1na2vs0mg"},{"bike_id":"e084a983-9ee3-4e07-bf45-eb3031029673","system_id":"levelo_inurba_marseille","lat":43.321614,"lon":5.411365,"is_reserved":false,"is_disabled":false,"rental_uris":{"android":"levelo://app?vid=e084a983-9ee3-4e07-bf45-eb3031029673","ios":"levelo://app?vid=e084a983-9ee3-4e07-bf45-eb3031029673"},"vehicle_type_id":"4","last_reported":1743116977,"current_range_meters":12800,"station_id":"ce4bhpp2rcd13ifvqhgg","pricing_plan_id":"cebpf4jnsgd1na2vs0mg"},{"bike_id":"0f1f83e7-db71-4d69-bca1-763d2105909b","system_id":"levelo_inurba_marseille","lat":43.303233,"lon":5.404387,"is_reserved":false,"is_disabled":false,"rental_uris":{"android":"levelo://app?vid=0f1f83e7-db71-4d69-bca1-763d2105909b","ios":"levelo://app?vid=0f1f83e7-db71-4d69-bca1-763d2105909b"},"vehicle_type_id":"4","last_reported":1743116977,"current_range_meters":12800,"station_id":"ce4bh012rcd13ifvqd10","pricing_plan_id":"cebpf4jnsgd1na2vs0mg"},{"bike_id":"83a0b5e9-2a2f-4443-bcda-d7a0619a6906","system_id":"levelo_inurba_marseille","lat":43.27983,"lon":5.38724,"is_reserved":false,"is_disabled":false,"rental_uris":{"android":"levelo://app?vid=83a0b5e9-2a2f-4443-bcda-d7a0619a6906","ios":"levelo://app?vid=83a0b5e9-2a2f-4443-bcda-d7a0619a6906"},"vehicle_type_id":"4","last_reported":1743116977,"current_range_meters":12800,"station_id":"ce4bhg12rcd13ifvqf80","pricing_plan_id":"cebpf4jnsgd1na2vs0mg"},{"bike_id":"f4e5bf40-21e3-4962-9b82-6bdd533ef0ec","system_id":"levelo_inurba_marseille","lat":43.24643,"lon":5.38916,"is_reserved":false,"is_disabled":false,"rental_uris":{"android":"levelo://app?vid=f4e5bf40-21e3-4962-9b82-6bdd533ef0ec","ios":"levelo://app?vid=f4e5bf40-21e3-4962-9b82-6bdd533ef0ec"},"vehicle_type_id":"4","last_reported":1743116977,"current_range_meters":12800,"station_id":"ce4bhg12rcd13ifvqf60","pricing_plan_id":"cebpf4jnsgd1na2vs0mg"},{"bike_id":"02c6eb9d-77f4-4aaa-ab87-c9b01fd69c1e","system_id":"levelo_inurba_marseille","lat":43.2407,"lon":5.37751,"is_reserved":false,"is_disabled":false,"rental_uris":{"android":"levelo://app?vid=02c6eb9d-77f4-4aaa-ab87-c9b01fd69c1e","ios":"levelo://app?vid=02c6eb9d-77f4-4aaa-ab87-c9b01fd69c1e"},"vehicle_type_id":"4","last_reported":1743116977,"current_range_meters":12800,"station_id":"ce4bhnp2rcd13ifvqgvg","pricing_plan_id":"cebpf4jnsgd1na2vs0mg"},{"bike_id":"29df67f5-d204-4d83-9b55-30baf4950456","system_id":"levelo_inurba_marseille","lat":43.28194,"lon":5.42677,"is_reserved":false,"is_disabled":false,"rental_uris":{"android":"levelo://app?vid=29df67f5-d204-4d83-9b55-30baf4950456","ios":"levelo://app?vid=29df67f5-d204-4d83-9b55-30baf4950456"},"vehicle_type_id":"4","last_reported":1743116977,"current_range_meters":12800,"station_id":"ce4bhnh2rcd13ifvqgug","pricing_plan_id":"cebpf4jnsgd1na2vs0mg"},{"bike_id":"767b3de5-c408-4bff-92a2-6b38b23a008d","system_id":"levelo_inurba_marseille","lat":43.29504,"lon":5.38933,"is_reserved":false,"is_disabled":false,"rental_uris":{"android":"levelo://app?vid=767b3de5-c408-4bff-92a2-6b38b23a008d","ios":"levelo://app?vid=767b3de5-c408-4bff-92a2-6b38b23a008d"},"vehicle_type_id":"4","last_reported":1743116977,"current_range_meters":12800,"station_id":"","pricing_plan_id":"cebpf4jnsgd1na2vs0mg"},{"bike_id":"c5b747b8-0a33-4be6-a6c0-180ceea5e00d","system_id":"levelo_inurba_marseille","lat":43.28085,"lon":5.39655,"is_reserved":false,"is_disabled":true,"rental_uris":{"android":"levelo://app?vid=c5b747b8-0a33-4be6-a6c0-180ceea5e00d","ios":"levelo://app?vid=c5b747b8-0a33-4be6-a6c0-180ceea5e00d"},"vehicle_type_id":"4","last_reported":1743116977,"current_range_meters":12800,"station_id":"ce4bho12rcd13ifvqh2g","pricing_plan_id":"cebpf4jnsgd1na2vs0mg"},{"bike_id":"543b28c9-0645-45ed-8aaf-41a57d4a78bb","system_id":"levelo_inurba_marseille","lat":43.2885,"lon":5.39304,"is_reserved":false,"is_disabled":false,"rental_uris":{"android":"levelo://app?vid=543b28c9-0645-45ed-8aaf-41a57d4a78bb","ios":"levelo://app?vid=543b28c9-0645-45ed-8aaf-41a57d4a78bb"},"vehicle_type_id":"4","last_reported":1743116977,"current_range_meters":13600,"station_id":"ce4bh2p2rcd13ifvqdi0","pricing_plan_id":"cebpf4jnsgd1na2vs0mg"},{"bike_id":"7cdf40e9-5bfc-47d5-b577-41d7c0c94acd","system_id":"levelo_inurba_marseille","lat":43.30247,"lon":5.40071,"is_reserved":false,"is_disabled":false,"rental_uris":{"android":"levelo://app?vid=7cdf40e9-5bfc-47d5-b577-41d7c0c94acd","ios":"levelo://app?vid=7cdf40e9-5bfc-47d5-b577-41d7c0c94acd"},"vehicle_type_id":"4","last_reported":1743116977,"current_range_meters":13600,"station_id":"ce4bgvh2rcd13ifvqcs0","pricing_plan_id":"cebpf4jnsgd1na2vs0mg"},{"bike_id":"a9108b2d-3767-4909-a20b-64076bd66645","system_id":"levelo_inurba_marseille","lat":43.28035,"lon":5.36942,"is_reserved":false,"is_disabled":false,"rental_uris":{"android":"levelo://app?vid=a9108b2d-3767-4909-a20b-64076bd66645","ios":"levelo://app?vid=a9108b2d-3767-4909-a20b-64076bd66645"},"vehicle_type_id":"4","last_reported":1743116977,"current_range_meters":13600,"station_id":"ce4bha12rcd13ifvqef0","pricing_plan_id":"cebpf4jnsgd1na2vs0mg"},{"bike_id":"213522d2-34be-42dc-a861-71dacdd3d79c","system_id":"levelo_inurba_marseille","lat":43.25093,"lon":5.40321,"is_reserved":false,"is_disabled":false,"rental_uris":{"android":"levelo://app?vid=213522d2-34be-42dc-a861-71dacdd3d79c","ios":"levelo://app?vid=213522d2-34be-42dc-a861-71dacdd3d79c"},"vehicle_type_id":"4","last_reported":1743116977,"current_range_meters":13600,"station_id":"ce4bhlh2rcd13ifvqgig","pricing_plan_id":"cebpf4jnsgd1na2vs0mg"},{"bike_id":"f43662ee-c720-4d57-a460-0de05ea9047c","system_id":"levelo_inurba_marseille","lat":43.32371,"lon":5.38866,"is_reserved":false,"is_disabled":false,"rental_uris":{"android":"levelo://app?vid=f43662ee-c720-4d57-a460-0de05ea9047c","ios":"levelo://app?vid=f43662ee-c720-4d57-a460-0de05ea9047c"},"vehicle_type_id":"4","last_reported":1743116977,"current_range_meters":13600,"station_id":"ce4bhqp2rcd13ifvqhog","pricing_plan_id":"cebpf4jnsgd1na2vs0mg"},{"bike_id":"520692e3-de93-4ca9-8fdd-f1dbe2f2a471","system_id":"levelo_inurba_marseille","lat":43.29533,"lon":5.39375,"is_reserved":false,"is_disabled":false,"rental_uris":{"android":"levelo://app?vid=520692e3-de93-4ca9-8fdd-f1dbe2f2a471","ios":"levelo://app?vid=520692e3-de93-4ca9-8fdd-f1dbe2f2a471"},"vehicle_type_id":"4","last_reported":1743116977,"current_range_meters":13600,"station_id":"ce4bh292rcd13ifvqdf0","pricing_plan_id":"cebpf4jnsgd1na2vs0mg"},{"bike_id":"62feeb8e-b2cc-48d6-9f73-3dd1b580c165","system_id":"levelo_inurba_marseille","lat":43.251213,"lon":5.40313,"is_reserved":false,"is_disabled":false,"rental_uris":{"android":"levelo://app?vid=62feeb8e-b2cc-48d6-9f73-3dd1b580c165","ios":"levelo://app?vid=62feeb8e-b2cc-48d6-9f73-3dd1b580c165"},"vehicle_type_id":"4","last_reported":1743116977,"current_range_meters":14000,"station_id":"ce4bhlh2rcd13ifvqgig","pricing_plan_id":"cebpf4jnsgd1na2vs0mg"},{"bike_id":"2b0aa0d8-f853-4afc-b5cd-c4b6cb5a31d2","system_id":"levelo_inurba_marseille","lat":43.31272,"lon":5.40192,"is_reserved":false,"is_disabled":false,"rental_uris":{"android":"levelo://app?vid=2b0aa0d8-f853-4afc-b5cd-c4b6cb5a31d2","ios":"levelo://app?vid=2b0aa0d8-f853-4afc-b5cd-c4b6cb5a31d2"},"vehicle_type_id":"4","last_reported":1743116977,"current_range_meters":14000,"station_id":"ce4bh092rcd13ifvqd30","pricing_plan_id":"cebpf4jnsgd1na2vs0mg"},{"bike_id":"3fbcdfd8-5176-471d-aa84-e8e20bb4418e","system_id":"levelo_inurba_marseille","lat":43.32092,"lon":5.36786,"is_reserved":false,"is_disabled":false,"rental_uris":{"android":"levelo://app?vid=3fbcdfd8-5176-471d-aa84-e8e20bb4418e","ios":"levelo://app?vid=3fbcdfd8-5176-471d-aa84-e8e20bb4418e"},"vehicle_type_id":"4","last_reported":1743116977,"current_range_meters":14000,"station_id":"ce4bhrh2rcd13ifvqhug","pricing_plan_id":"cebpf4jnsgd1na2vs0mg"},{"bike_id":"889389b5-737f-4fa1-9dd2-71f9cb4ea254","system_id":"levelo_inurba_marseille","lat":43.27915,"lon":5.39588,"is_reserved":false,"is_disabled":false,"rental_uris":{"android":"levelo://app?vid=889389b5-737f-4fa1-9dd2-71f9cb4ea254","ios":"levelo://app?vid=889389b5-737f-4fa1-9dd2-71f9cb4ea254"},"vehicle_type_id":"4","last_reported":1743116977,"current_range_meters":14000,"station_id":"ce4bhf92rcd13ifvqf40","pricing_plan_id":"cebpf4jnsgd1na2vs0mg"},{"bike_id":"ac6a9dc9-aa2d-4512-8f11-583719abe48e","system_id":"levelo_inurba_marseille","lat":43.28933,"lon":5.36626,"is_reserved":false,"is_disabled":false,"rental_uris":{"android":"levelo://app?vid=ac6a9dc9-aa2d-4512-8f11-583719abe48e","ios":"levelo://app?vid=ac6a9dc9-aa2d-4512-8f11-583719abe48e"},"vehicle_type_id":"4","last_reported":1743116977,"current_range_meters":14000,"station_id":"ce4bhap2rcd13ifvqek0","pricing_plan_id":"cebpf4jnsgd1na2vs0mg"},{"bike_id":"044048bc-8d38-46d4-a4a7-852730d7ab5c","system_id":"levelo_inurba_marseille","lat":43.3415,"lon":5.4091,"is_reserved":false,"is_disabled":false,"rental_uris":{"android":"levelo://app?vid=044048bc-8d38-46d4-a4a7-852730d7ab5c","ios":"levelo://app?vid=044048bc-8d38-46d4-a4a7-852730d7ab5c"},"vehicle_type_id":"4","last_reported":1743116977,"current_range_meters":14000,"station_id":"ce4bhqh2rcd13ifvqhlg","pricing_plan_id":"cebpf4jnsgd1na2vs0mg"},{"bike_id":"aeee719e-56c9-4414-9561-e5b2a78b28a9","system_id":"levelo_inurba_marseille","lat":43.25082,"lon":5.39514,"is_reserved":false,"is_disabled":false,"rental_uris":{"android":"levelo://app?vid=aeee719e-56c9-4414-9561-e5b2a78b28a9","ios":"levelo://app?vid=aeee719e-56c9-4414-9561-e5b2a78b28a9"},"vehicle_type_id":"4","last_reported":1743116977,"current_range_meters":14000,"station_id":"ce4bhm12rcd13ifvqgkg","pricing_plan_id":"cebpf4jnsgd1na2vs0mg"},{"bike_id":"aec65044-733d-420f-9748-dc928dee9b1b","system_id":"levelo_inurba_marseille","lat":43.3025,"lon":5.40051,"is_reserved":false,"is_disabled":false,"rental_uris":{"android":"levelo://app?vid=aec65044-733d-420f-9748-dc928dee9b1b","ios":"levelo://app?vid=aec65044-733d-420f-9748-dc928dee9b1b"},"vehicle_type_id":"4","last_reported":1743116977,"current_range_meters":14000,"station_id":"ce4bgvh2rcd13ifvqcs0","pricing_plan_id":"cebpf4jnsgd1na2vs0mg"},{"bike_id":"d8688447-b8ce-4bc0-9571-24215d635277","system_id":"levelo_inurba_marseille","lat":43.2847,"lon":5.35874,"is_reserved":false,"is_disabled":false,"rental_uris":{"android":"levelo://app?vid=d8688447-b8ce-4bc0-9571-24215d635277","ios":"levelo://app?vid=d8688447-b8ce-4bc0-9571-24215d635277"},"vehicle_type_id":"4","last_reported":1743116977,"current_range_meters":14000,"station_id":"ce4bhah2rcd13ifvqei0","pricing_plan_id":"cebpf4jnsgd1na2vs0mg"},{"bike_id":"46335bd7-8e80-4570-917b-3ff7ac61ed6a","system_id":"levelo_inurba_marseille","lat":43.2512,"lon":5.4032,"is_reserved":false,"is_disabled":false,"rental_uris":{"android":"levelo://app?vid=46335bd7-8e80-4570-917b-3ff7ac61ed6a","ios":"levelo://app?vid=46335bd7-8e80-4570-917b-3ff7ac61ed6a"},"vehicle_type_id":"4","last_reported":1743116977,"current_range_meters":14000,"station_id":"ce4bhlh2rcd13ifvqgig","pricing_plan_id":"cebpf4jnsgd1na2vs0mg"},{"bike_id":"6d249512-c4ef-4c94-abf5-52cc6421d62a","system_id":"levelo_inurba_marseille","lat":43.28095,"lon":5.39646,"is_reserved":false,"is_disabled":false,"rental_uris":{"android":"levelo://app?vid=6d249512-c4ef-4c94-abf5-52cc6421d62a","ios":"levelo://app?vid=6d249512-c4ef-4c94-abf5-52cc6421d62a"},"vehicle_type_id":"4","last_reported":1743116977,"current_range_meters":14000,"station_id":"ce4bho12rcd13ifvqh2g","pricing_plan_id":"cebpf4jnsgd1na2vs0mg"},{"bike_id":"ac776cf5-d9af-47cc-83cc-cf37e00c8684","system_id":"levelo_inurba_marseille","lat":43.30301,"lon":5.40253,"is_reserved":false,"is_disabled":false,"rental_uris":{"android":"levelo://app?vid=ac776cf5-d9af-47cc-83cc-cf37e00c8684","ios":"levelo://app?vid=ac776cf5-d9af-47cc-83cc-cf37e00c8684"},"vehicle_type_id":"4","last_reported":1743116977,"current_range_meters":14000,"station_id":"","pricing_plan_id":"cebpf4jnsgd1na2vs0mg"},{"bike_id":"0ddc3ef9-c9ca-479a-8b28-e2773a58874a","system_id":"levelo_inurba_marseille","lat":43.28401,"lon":5.37537,"is_reserved":false,"is_disabled":false,"rental_uris":{"android":"levelo://app?vid=0ddc3ef9-c9ca-479a-8b28-e2773a58874a","ios":"levelo://app?vid=0ddc3ef9-c9ca-479a-8b28-e2773a58874a"},"vehicle_type_id":"4","last_reported":1743116977,"current_range_meters":14400,"station_id":"ce4bh412rcd13ifvqds0","pricing_plan_id":"cebpf4jnsgd1na2vs0mg"},{"bike_id":"7655d9b7-ab68-4d9e-ba5f-6243a4ea0a8a","system_id":"levelo_inurba_marseille","lat":43.25115,"lon":5.40328,"is_reserved":false,"is_disabled":false,"rental_uris":{"android":"levelo://app?vid=7655d9b7-ab68-4d9e-ba5f-6243a4ea0a8a","ios":"levelo://app?vid=7655d9b7-ab68-4d9e-ba5f-6243a4ea0a8a"},"vehicle_type_id":"4","last_reported":1743116977,"current_range_meters":14400,"station_id":"ce4bhlh2rcd13ifvqgig","pricing_plan_id":"cebpf4jnsgd1na2vs0mg"},{"bike_id":"7968304e-982c-4fae-8647-c0b7f7a84f61","system_id":"levelo_inurba_marseille","lat":43.26953,"lon":5.38641,"is_reserved":false,"is_disabled":false,"rental_uris":{"android":"levelo://app?vid=7968304e-982c-4fae-8647-c0b7f7a84f61","ios":"levelo://app?vid=7968304e-982c-4fae-8647-c0b7f7a84f61"},"vehicle_type_id":"4","last_reported":1743116977,"current_range_meters":14400,"station_id":"ce4bhh92rcd13ifvqfh0","pricing_plan_id":"cebpf4jnsgd1na2vs0mg"},{"bike_id":"929922ae-6aab-4bc3-af6d-7b28fbdb57ee","system_id":"levelo_inurba_marseille","lat":43.28459,"lon":5.35894,"is_reserved":false,"is_disabled":false,"rental_uris":{"android":"levelo://app?vid=929922ae-6aab-4bc3-af6d-7b28fbdb57ee","ios":"levelo://app?vid=929922ae-6aab-4bc3-af6d-7b28fbdb57ee"},"vehicle_type_id":"4","last_reported":1743116977,"current_range_meters":14400,"station_id":"ce4bhah2rcd13ifvqei0","pricing_plan_id":"cebpf4jnsgd1na2vs0mg"},{"bike_id":"68e9fc26-8998-4bf7-8da8-af47209f9b7c","system_id":"levelo_inurba_marseille","lat":43.3211,"lon":5.3678,"is_reserved":false,"is_disabled":false,"rental_uris":{"android":"levelo://app?vid=68e9fc26-8998-4bf7-8da8-af47209f9b7c","ios":"levelo://app?vid=68e9fc26-8998-4bf7-8da8-af47209f9b7c"},"vehicle_type_id":"4","last_reported":1743116977,"current_range_meters":14400,"station_id":"ce4bhrh2rcd13ifvqhug","pricing_plan_id":"cebpf4jnsgd1na2vs0mg"},{"bike_id":"65c86302-8ef0-46f4-ab6e-bac7149a2865","system_id":"levelo_inurba_marseille","lat":43.32101,"lon":5.36763,"is_reserved":false,"is_disabled":false,"rental_uris":{"android":"levelo://app?vid=65c86302-8ef0-46f4-ab6e-bac7149a2865","ios":"levelo://app?vid=65c86302-8ef0-46f4-ab6e-bac7149a2865"},"vehicle_type_id":"4","last_reported":1743116977,"current_range_meters":14400,"station_id":"ce4bhrh2rcd13ifvqhug","pricing_plan_id":"cebpf4jnsgd1na2vs0mg"},{"bike_id":"794262a6-2812-48d9-b7fa-f2c9665d76e2","system_id":"levelo_inurba_marseille","lat":43.28458,"lon":5.35889,"is_reserved":false,"is_disabled":false,"rental_uris":{"android":"levelo://app?vid=794262a6-2812-48d9-b7fa-f2c9665d76e2","ios":"levelo://app?vid=794262a6-2812-48d9-b7fa-f2c9665d76e2"},"vehicle_type_id":"4","last_reported":1743116977,"current_range_meters":14400,"station_id":"ce4bhah2rcd13ifvqei0","pricing_plan_id":"cebpf4jnsgd1na2vs0mg"},{"bike_id":"3133b510-15be-45b7-858c-49d08d44d638","system_id":"levelo_inurba_marseille","lat":43.29048,"lon":5.38683,"is_reserved":false,"is_disabled":false,"rental_uris":{"android":"levelo://app?vid=3133b510-15be-45b7-858c-49d08d44d638","ios":"levelo://app?vid=3133b510-15be-45b7-858c-49d08d44d638"},"vehicle_type_id":"4","last_reported":1743116977,"current_range_meters":14400,"station_id":"ce4bh4p2rcd13ifvqe0g","pricing_plan_id":"cebpf4jnsgd1na2vs0mg"},{"bike_id":"5790363b-5075-4363-b6e0-74d926fd083e","system_id":"levelo_inurba_marseille","lat":43.28851,"lon":5.39316,"is_reserved":false,"is_disabled":false,"rental_uris":{"android":"levelo://app?vid=5790363b-5075-4363-b6e0-74d926fd083e","ios":"levelo://app?vid=5790363b-5075-4363-b6e0-74d926fd083e"},"vehicle_type_id":"4","last_reported":1743116977,"current_range_meters":14400,"station_id":"ce4bh2p2rcd13ifvqdi0","pricing_plan_id":"cebpf4jnsgd1na2vs0mg"},{"bike_id":"55c9c875-ccbe-4d6e-9c2f-ec4c9d52607c","system_id":"levelo_inurba_marseille","lat":43.29094,"lon":5.38136,"is_reserved":false,"is_disabled":false,"rental_uris":{"android":"levelo://app?vid=55c9c875-ccbe-4d6e-9c2f-ec4c9d52607c","ios":"levelo://app?vid=55c9c875-ccbe-4d6e-9c2f-ec4c9d52607c"},"vehicle_type_id":"4","last_reported":1743116977,"current_range_meters":14800,"station_id":"ce4bh512rcd13ifvqe2g","pricing_plan_id":"cebpf4jnsgd1na2vs0mg"},{"bike_id":"847ec699-1d20-4eda-b8cd-c417faaa98e8","system_id":"levelo_inurba_marseille","lat":43.29913,"lon":5.37492,"is_reserved":false,"is_disabled":false,"rental_uris":{"android":"levelo://app?vid=847ec699-1d20-4eda-b8cd-c417faaa98e8","ios":"levelo://app?vid=847ec699-1d20-4eda-b8cd-c417faaa98e8"},"vehicle_type_id":"4","last_reported":1743116977,"current_range_meters":14800,"station_id":"ce4bgjh2rcd13ifvqbg0","pricing_plan_id":"cebpf4jnsgd1na2vs0mg"},{"bike_id":"c527ac51-4362-4d1f-b9e1-306c1ebece74","system_id":"levelo_inurba_marseille","lat":43.29896,"lon":5.43669,"is_reserved":false,"is_disabled":false,"rental_uris":{"android":"levelo://app?vid=c527ac51-4362-4d1f-b9e1-306c1ebece74","ios":"levelo://app?vid=c527ac51-4362-4d1f-b9e1-306c1ebece74"},"vehicle_type_id":"4","last_reported":1743116977,"current_range_meters":14800,"station_id":"ce4bhpp2rcd13ifvqhfg","pricing_plan_id":"cebpf4jnsgd1na2vs0mg"},{"bike_id":"ab79c7bb-1730-4a4c-b7ca-6d520982e325","system_id":"levelo_inurba_marseille","lat":43.24079,"lon":5.37746,"is_reserved":false,"is_disabled":false,"rental_uris":{"android":"levelo://app?vid=ab79c7bb-1730-4a4c-b7ca-6d520982e325","ios":"levelo://app?vid=ab79c7bb-1730-4a4c-b7ca-6d520982e325"},"vehicle_type_id":"4","last_reported":1743116977,"current_range_meters":14800,"station_id":"ce4bhnp2rcd13ifvqgvg","pricing_plan_id":"cebpf4jnsgd1na2vs0mg"},{"bike_id":"d7dfb900-e1fc-4b30-a420-5f0b81aeabc6","system_id":"levelo_inurba_marseille","lat":43.28463,"lon":5.3588,"is_reserved":false,"is_disabled":false,"rental_uris":{"android":"levelo://app?vid=d7dfb900-e1fc-4b30-a420-5f0b81aeabc6","ios":"levelo://app?vid=d7dfb900-e1fc-4b30-a420-5f0b81aeabc6"},"vehicle_type_id":"4","last_reported":1743116977,"current_range_meters":14800,"station_id":"ce4bhah2rcd13ifvqei0","pricing_plan_id":"cebpf4jnsgd1na2vs0mg"},{"bike_id":"6082a6d8-29f3-4441-bd82-d0f95ead75d7","system_id":"levelo_inurba_marseille","lat":43.2317,"lon":5.35558,"is_reserved":false,"is_disabled":false,"rental_uris":{"android":"levelo://app?vid=6082a6d8-29f3-4441-bd82-d0f95ead75d7","ios":"levelo://app?vid=6082a6d8-29f3-4441-bd82-d0f95ead75d7"},"vehicle_type_id":"4","last_reported":1743116977,"current_range_meters":14800,"station_id":"ce4bhu92rcd13ifvqi70","pricing_plan_id":"cebpf4jnsgd1na2vs0mg"},{"bike_id":"e4cc5280-dae2-4f86-90d1-8ad2283231c3","system_id":"levelo_inurba_marseille","lat":43.301732,"lon":5.366175,"is_reserved":false,"is_disabled":false,"rental_uris":{"android":"levelo://app?vid=e4cc5280-dae2-4f86-90d1-8ad2283231c3","ios":"levelo://app?vid=e4cc5280-dae2-4f86-90d1-8ad2283231c3"},"vehicle_type_id":"4","last_reported":1743116977,"current_range_meters":14800,"station_id":"ce4bgrh2rcd13ifvqc8g","pricing_plan_id":"cebpf4jnsgd1na2vs0mg"},{"bike_id":"1b733ee8-1894-4dc9-ba19-4de13a195823","system_id":"levelo_inurba_marseille","lat":43.24626,"lon":5.38884,"is_reserved":false,"is_disabled":false,"rental_uris":{"android":"levelo://app?vid=1b733ee8-1894-4dc9-ba19-4de13a195823","ios":"levelo://app?vid=1b733ee8-1894-4dc9-ba19-4de13a195823"},"vehicle_type_id":"4","last_reported":1743116977,"current_range_meters":14800,"station_id":"ce4bhg12rcd13ifvqf60","pricing_plan_id":"cebpf4jnsgd1na2vs0mg"},{"bike_id":"39d3e751-ed57-4de9-97bc-b626bf55f2fa","system_id":"levelo_inurba_marseille","lat":43.30785,"lon":5.37658,"is_reserved":false,"is_disabled":false,"rental_uris":{"android":"levelo://app?vid=39d3e751-ed57-4de9-97bc-b626bf55f2fa","ios":"levelo://app?vid=39d3e751-ed57-4de9-97bc-b626bf55f2fa"},"vehicle_type_id":"4","last_reported":1743116977,"current_range_meters":14400,"station_id":"ce4bgv92rcd13ifvqcq0","pricing_plan_id":"cebpf4jnsgd1na2vs0mg"},{"bike_id":"24c99249-7b95-4ea9-9e97-4096eb001caf","system_id":"levelo_inurba_marseille","lat":43.30803,"lon":5.38182,"is_reserved":false,"is_disabled":false,"rental_uris":{"android":"levelo://app?vid=24c99249-7b95-4ea9-9e97-4096eb001caf","ios":"levelo://app?vid=24c99249-7b95-4ea9-9e97-4096eb001caf"},"vehicle_type_id":"4","last_reported":1743116977,"current_range_meters":14400,"station_id":"ce4bgt12rcd13ifvqce0","pricing_plan_id":"cebpf4jnsgd1na2vs0mg"},{"bike_id":"995959c9-f5bd-4236-829e-9be8fc3adc22","system_id":"levelo_inurba_marseille","lat":43.27669,"lon":5.38895,"is_reserved":false,"is_disabled":false,"rental_uris":{"android":"levelo://app?vid=995959c9-f5bd-4236-829e-9be8fc3adc22","ios":"levelo://app?vid=995959c9-f5bd-4236-829e-9be8fc3adc22"},"vehicle_type_id":"4","last_reported":1743116977,"current_range_meters":14800,"station_id":"ce4bhi12rcd13ifvqfo0","pricing_plan_id":"cebpf4jnsgd1na2vs0mg"},{"bike_id":"ee549495-7eba-4a01-9ffa-88a8262738b9","system_id":"levelo_inurba_marseille","lat":43.28861,"lon":5.39318,"is_reserved":false,"is_disabled":false,"rental_uris":{"android":"levelo://app?vid=ee549495-7eba-4a01-9ffa-88a8262738b9","ios":"levelo://app?vid=ee549495-7eba-4a01-9ffa-88a8262738b9"},"vehicle_type_id":"4","last_reported":1743116977,"current_range_meters":15200,"station_id":"ce4bh2p2rcd13ifvqdi0","pricing_plan_id":"cebpf4jnsgd1na2vs0mg"},{"bike_id":"b1c6b5eb-b3e3-44e4-ab47-ce04ca5e2364","system_id":"levelo_inurba_marseille","lat":43.24177,"lon":5.39706,"is_reserved":false,"is_disabled":true,"rental_uris":{"android":"levelo://app?vid=b1c6b5eb-b3e3-44e4-ab47-ce04ca5e2364","ios":"levelo://app?vid=b1c6b5eb-b3e3-44e4-ab47-ce04ca5e2364"},