{"last_updated":1750356882,"ttl":60,"version":"2.2","data":{"bikes":[{"bike_id":"3da29fb8-fc97-44c6-b9ac-31dd456b2fd4","system_id":"levelo_inurba_marseille","lat":43.33771,"lon":5.37424,"is_reserved":false,"is_disabled":true,"rental_uris":{"android":"levelo://app?vid=3da29fb8-fc97-44c6-b9ac-31dd456b2fd4","ios":"levelo://app?vid=3da29fb8-fc97-44c6-b9ac-31dd456b2fd4"},"vehicle_type_id":"4","last_reported":1750356882,"current_range_meters":0,"station_id":"","pricing_plan_id":"cebpf4jnsgd1na2vs0mg"},{"bike_id":"01861ad8-a8d7-4be6-816e-651927c87584","system_id":"levelo_inurba_marseille","lat":43.33751,"lon":5.37456,"is_reserved":false,"is_disabled":true,"rental_uris":{"android":"levelo://app?vid=01861ad8-a8d7-4be6-816e-651927c87584","ios":"levelo://app?vid=01861ad8-a8d7-4be6-816e-651927c87584"},"vehicle_type_id":"4","last_reported":1750356882,"current_range_meters":0,"station_id":"","pricing_plan_id":"cebpf4jnsgd1na2vs0mg"},{"bike_id":"dbfce7a3-3423-4296-b193-a177dea644ac","system_id":"levelo_inurba_marseille","lat":43.27303,"lon":5.41603,"is_reserved":false,"is_disabled":true,"rental_uris":{"android":"levelo://app?vid=dbfce7a3-3423-4296-b193-a177dea644ac","ios":"levelo://app?vid=dbfce7a3-3423-4296-b193-a177dea644ac"},"vehicle_type_id":"4","last_reported":1750356882,"current_range_meters":0,"station_id":"","pricing_plan_id":"cebpf4jnsgd1na2vs0mg"},{"bike_id":"eff675e9-75ca-47c9-bd95-5090bc060d4f","system_id":"levelo_inurba_marseille","lat":43.34093,"lon":5.36089,"is_reserved":false,"is_disabled":true,"rental_uris":{"android":"levelo://app?vid=eff675e9-75ca-47c9-bd95-5090bc060d4f","ios":"levelo://app?vid=eff675e9-75ca-47c9-bd95-5090bc060d4f"},"vehicle_type_id":"4","last_reported":1750356882,"current_range_meters":0,"station_id":"","pricing_plan_id":"cebpf4jnsgd1na2vs0mg"},{"bike_id":"23705e57-f5a3-40f7-945a-01e3b08e1763","system_id":"levelo_inurba_marseille","lat":43.29491,"lon":5.38675,"is_reserved":false,"is_disabled":true,"rental_uris":{"android":"levelo://app?vid=23705e57-f5a3-40f7-945a-01e3b08e1763","ios":"levelo://app?vid=23705e57-f5a3-40f7-945a-01e3b08e1763"},"vehicle_type_id":"4","last_reported":1750356882,"current_range_meters":0,"station_id":"","pricing_plan_id":"cebpf4jnsgd1na2vs0mg"},{"bike_id":"d2bd57c8-6b64-48db-ad24-5398eb3fd9d6","system_id":"levelo_inurba_marseille","lat":43.337444,"lon":5.374475,"is_reserved":false,"is_disabled":true,"rental_uris":{"android":"levelo://app?vid=d2bd57c8-6b64-48db-ad24-5398eb3fd9d6","ios":"levelo://app?vid=d2bd57c8-6b64-48db-ad24-5398eb3fd9d6"},"vehicle_type_id":"4","last_reported":1750356882,"current_range_meters":0,"station_id":"","pricing_plan_id":"cebpf4jnsgd1na2vs0mg"},{"bike_id":"62a493c7-4534-4419-ad43-0582de34a72a","system_id":"levelo_inurba_marseille","lat":43.21366,"lon":5.355183,"is_reserved":false,"is_disabled":true,"rental_uris":{"android":"levelo://app?vid=62a493c7-4534-4419-ad43-0582de34a72a","ios":"levelo://app?vid=62a493c7-4534-4419-ad43-0582de34a72a"},"vehicle_type_id":"4","last_reported":1750356882,"current_range_meters":0,"station_id":"","pricing_plan_id":"cebpf4jnsgd1na2vs0mg"},{"bike_id":"b9e37238-9abe-4b8b-b932-edaee33a7e59","system_id":"levelo_inurba_marseille","lat":43.27507,"lon":5.38995,"is_reserved":false,"is_disabled":true,"rental_uris":{"android":"levelo://app?vid=b9e37238-9abe-4b8b-b932-edaee33a7e59","ios":"levelo://app?vid=b9e37238-9abe-4b8b-b932-edaee33a7e59"},"vehicle_type_id":"4","last_reported":1750356882,"current_range_meters":0,"station_id":"","pricing_plan_id":"cebpf4jnsgd1na2vs0mg"},{"bike_id":"8ad9234e-001a-4549-8bba-9baf2ef98804","system_id":"levelo_inurba_marseille","lat":43.2689,"lon":5.39883,"is_reserved":false,"is_disabled":true,"rental_uris":{"android":"levelo://app?vid=8ad9234e-001a-4549-8bba-9baf2ef98804","ios":"levelo://app?vid=8ad9234e-001a-4549-8bba-9baf2ef98804"},"vehicle_type_id":"4","last_reported":1750356882,"current_range_meters":0,"station_id":"","pricing_plan_id":"cebpf4jnsgd1na2vs0mg"},{"bike_id":"05172c24-6dde-4907-8af6-01d0e481b4de","system_id":"levelo_inurba_marseille","lat":43.22502,"lon":5.34783,"is_reserved":false,"is_disabled":true,"rental_uris":{"android":"levelo://app?vid=05172c24-6dde-4907-8af6-01d0e481b4de","ios":"levelo://app?vid=05172c24-6dde-4907-8af6-01d0e481b4de"},"vehicle_type_id":"4","last_reported":1750356882,"current_range_meters":0,"station_id":"","pricing_plan_id":"cebpf4jnsgd1na2vs0mg"},{"bike_id":"47196f00-388f-4b3b-a4de-3dba126cd107","system_id":"levelo_inurba_marseille","lat":43.2437,"lon":5.41168,"is_reserved":false,"is_disabled":true,"rental_uris":{"android":"levelo://app?vid=47196f00-388f-4b3b-a4de-3dba126cd107","ios":"levelo://app?vid=47196f00-388f-4b3b-a4de-3dba126cd107"},"vehicle_type_id":"4","last_reported":1750356882,"current_range_meters":0,"station_id":"","pricing_plan_id":"cebpf4jnsgd1na2vs0mg"},{"bike_id":"4fa45ca6-f376-4694-b527-69a47b552011","system_id":"levelo_inurba_marseille","lat":43.28318,"lon":5.38991,"is_reserved":false,"is_disabled":true,"rental_uris":{"android":"levelo://app?vid=4fa45ca6-f376-4694-b527-69a47b552011","ios":"levelo://app?vid=4fa45ca6-f376-4694-b527-69a47b552011"},"vehicle_type_id":"4","last_reported":1750356882,"current_range_meters":0,"station_id":"","pricing_plan_id":"cebpf4jnsgd1na2vs0mg"},{"bike_id":"efb4bfd8-07a4-4223-a74a-5636a3528a1c","system_id":"levelo_inurba_marseille","lat":43.29294,"lon":5.45621,"is_reserved":false,"is_disabled":true,"rental_uris":{"android":"levelo://app?vid=efb4bfd8-07a4-4223-a74a-5636a3528a1c","ios":"levelo://app?vid=efb4bfd8-07a4-4223-a74a-5636a3528a1c"},"vehicle_type_id":"4","last_reported":1750356882,"current_range_meters":0,"station_id":"","pricing_plan_id":"cebpf4jnsgd1na2vs0mg"},{"bike_id":"d6609b4f-333b-43c1-9ebe-8726f5e76e88","system_id":"levelo_inurba_marseille","lat":43.337444,"lon":5.374475,"is_reserved":false,"is_disabled":true,"rental_uris":{"android":"levelo://app?vid=d6609b4f-333b-43c1-9ebe-8726f5e76e88","ios":"levelo://app?vid=d6609b4f-333b-43c1-9ebe-8726f5e76e88"},"vehicle_type_id":"4","last_reported":1750356882,"current_range_meters":0,"station_id":"","pricing_plan_id":"cebpf4jnsgd1na2vs0mg"},{"bike_id":"57c83ce1-960e-466a-b6c5-d93bc130c53a","system_id":"levelo_inurba_marseille","lat":43.24947,"lon":5.38906,"is_reserved":false,"is_disabled":true,"rental_uris":{"android":"levelo://app?vid=57c83ce1-960e-466a-b6c5-d93bc130c53a","ios":"levelo://app?vid=57c83ce1-960e-466a-b6c5-d93bc130c53a"},"vehicle_type_id":"4","last_reported":1750356882,"current_range_meters":0,"station_id":"","pricing_plan_id":"cebpf4jnsgd1na2vs0mg"},{"bike_id":"eb3d9dd3-52c7-4622-af00-2bef1168d03a","system_id":"levelo_inurba_marseille","lat":43.296173,"lon":5.37722,"is_reserved":false,"is_disabled":true,"rental_uris":{"android":"levelo://app?vid=eb3d9dd3-52c7-4622-af00-2bef1168d03a","ios":"levelo://app?vid=eb3d9dd3-52c7-4622-af00-2bef1168d03a"},"vehicle_type_id":"4","last_reported":1750356882,"current_range_meters":0,"station_id":"ce4bgi92rcd13ifvqb90","pricing_plan_id":"cebpf4jnsgd1na2vs0mg"},{"bike_id":"cc33fd2f-a085-42aa-a6a4-567529927500","system_id":"levelo_inurba_marseille","lat":43.29627,"lon":5.37715,"is_reserved":false,"is_disabled":true,"rental_uris":{"android":"levelo://app?vid=cc33fd2f-a085-42aa-a6a4-567529927500","ios":"levelo://app?vid=cc33fd2f-a085-42aa-a6a4-567529927500"},"vehicle_type_id":"4","last_reported":1750356882,"current_range_meters":0,"station_id":"ce4bgi92rcd13ifvqb90","pricing_plan_id":"cebpf4jnsgd1na2vs0mg"},{"bike_id":"20ff87f2-2b47-4dde-93a2-7900a40d946a","system_id":"levelo_inurba_marseille","lat":43.29965,"lon":5.38501,"is_reserved":false,"is_disabled":true,"rental_uris":{"android":"levelo://app?vid=20ff87f2-2b47-4dde-93a2-7900a40d946a","ios":"levelo://app?vid=20ff87f2-2b47-4dde-93a2-7900a40d946a"},"vehicle_type_id":"4","last_reported":1750356882,"current_range_meters":0,"station_id":"ce4bgj92rcd13ifvqbd0","pricing_plan_id":"cebpf4jnsgd1na2vs0mg"},{"bike_id":"574092ea-644c-4836-ab18-a7cfa5cedaf9","system_id":"levelo_inurba_marseille","lat":43.30791,"lon":5.38165,"is_reserved":false,"is_disabled":true,"rental_uris":{"android":"levelo://app?vid=574092ea-644c-4836-ab18-a7cfa5cedaf9","ios":"levelo://app?vid=574092ea-644c-4836-ab18-a7cfa5cedaf9"},"vehicle_type_id":"4","last_reported":1750356882,"current_range_meters":0,"station_id":"ce4bgt12rcd13ifvqce0","pricing_plan_id":"cebpf4jnsgd1na2vs0mg"},{"bike_id":"1335c6e4-5a34-45d9-bc82-eab74f978e33","system_id":"levelo_inurba_marseille","lat":43.309358,"lon":5.401499,"is_reserved":false,"is_disabled":true,"rental_uris":{"android":"levelo://app?vid=1335c6e4-5a34-45d9-bc82-eab74f978e33","ios":"levelo://app?vid=1335c6e4-5a34-45d9-bc82-eab74f978e33"},"vehicle_type_id":"4","last_reported":1750356882,"current_range_meters":0,"station_id":"ce4bgvp2rcd13ifvqct0","pricing_plan_id":"cebpf4jnsgd1na2vs0mg"},{"bike_id":"db36f56e-fe5c-47eb-811d-82071741e9f6","system_id":"levelo_inurba_marseille","lat":43.305988,"lon":5.393592,"is_reserved":false,"is_disabled":true,"rental_uris":{"android":"levelo://app?vid=db36f56e-fe5c-47eb-811d-82071741e9f6","ios":"levelo://app?vid=db36f56e-fe5c-47eb-811d-82071741e9f6"},"vehicle_type_id":"4","last_reported":1750356882,"current_range_meters":0,"station_id":"ce4bh0p2rcd13ifvqd80","pricing_plan_id":"cebpf4jnsgd1na2vs0mg"},{"bike_id":"a6e945e0-fe3e-4748-b398-f0a6c734361e","system_id":"levelo_inurba_marseille","lat":43.29584,"lon":5.39983,"is_reserved":false,"is_disabled":true,"rental_uris":{"android":"levelo://app?vid=a6e945e0-fe3e-4748-b398-f0a6c734361e","ios":"levelo://app?vid=a6e945e0-fe3e-4748-b398-f0a6c734361e"},"vehicle_type_id":"4","last_reported":1750356882,"current_range_meters":0,"station_id":"ce4bh312rcd13ifvqdj0","pricing_plan_id":"cebpf4jnsgd1na2vs0mg"},{"bike_id":"61d33105-805d-4c47-ae2e-c330cdbdb27e","system_id":"levelo_inurba_marseille","lat":43.2903,"lon":5.37576,"is_reserved":false,"is_disabled":true,"rental_uris":{"android":"levelo://app?vid=61d33105-805d-4c47-ae2e-c330cdbdb27e","ios":"levelo://app?vid=61d33105-805d-4c47-ae2e-c330cdbdb27e"},"vehicle_type_id":"4","last_reported":1750356882,"current_range_meters":0,"station_id":"ce4bh692rcd13ifvqe90","pricing_plan_id":"cebpf4jnsgd1na2vs0mg"},{"bike_id":"e089df4e-50e6-4824-999e-4e9616a94f71","system_id":"levelo_inurba_marseille","lat":43.28616,"lon":5.35114,"is_reserved":false,"is_disabled":true,"rental_uris":{"android":"levelo://app?vid=e089df4e-50e6-4824-999e-4e9616a94f71","ios":"levelo://app?vid=e089df4e-50e6-4824-999e-4e9616a94f71"},"vehicle_type_id":"4","last_reported":1750356882,"current_range_meters":0,"station_id":"ce4bhch2rcd13ifvqeug","pricing_plan_id":"cebpf4jnsgd1na2vs0mg"},{"bike_id":"6e18f8f6-d16c-441b-bb69-f55d2c7d8f71","system_id":"levelo_inurba_marseille","lat":43.27427,"lon":5.39417,"is_reserved":false,"is_disabled":true,"rental_uris":{"android":"levelo://app?vid=6e18f8f6-d16c-441b-bb69-f55d2c7d8f71","ios":"levelo://app?vid=6e18f8f6-d16c-441b-bb69-f55d2c7d8f71"},"vehicle_type_id":"4","last_reported":1750356882,"current_range_meters":0,"station_id":"ce4bhdp2rcd13ifvqf20","pricing_plan_id":"cebpf4jnsgd1na2vs0mg"},{"bike_id":"98cd6681-d2ed-439d-b481-7c581f2abc7b","system_id":"levelo_inurba_marseille","lat":43.266844,"lon":5.382781,"is_reserved":false,"is_disabled":true,"rental_uris":{"android":"levelo://app?vid=98cd6681-d2ed-439d-b481-7c581f2abc7b","ios":"levelo://app?vid=98cd6681-d2ed-439d-b481-7c581f2abc7b"},"vehicle_type_id":"4","last_reported":1750356882,"current_range_meters":0,"station_id":"ce4bhg92rcd13ifvqf90","pricing_plan_id":"cebpf4jnsgd1na2vs0mg"},{"bike_id":"bbf3034b-f0a8-48f1-ab17-2c01aa620fe2","system_id":"levelo_inurba_marseille","lat":43.26684,"lon":5.38275,"is_reserved":false,"is_disabled":true,"rental_uris":{"android":"levelo://app?vid=bbf3034b-f0a8-48f1-ab17-2c01aa620fe2","ios":"levelo://app?vid=bbf3034b-f0a8-48f1-ab17-2c01aa620fe2"},"vehicle_type_id":"4","last_reported":1750356882,"current_range_meters":0,"station_id":"ce4bhg92rcd13ifvqf90","pricing_plan_id":"cebpf4jnsgd1na2vs0mg"},{"bike_id":"e18063eb-9835-40f1-857d-4dd5ac5dc643","system_id":"levelo_inurba_marseille","lat":43.24804,"lon":5.37454,"is_reserved":false,"is_disabled":true,"rental_uris":{"android":"levelo://app?vid=e18063eb-9835-40f1-857d-4dd5ac5dc643","ios":"levelo://app?vid=e18063eb-9835-40f1-857d-4dd5ac5dc643"},"vehicle_type_id":"4","last_reported":1750356882,"current_range_meters":0,"station_id":"ce4bhgh2rcd13ifvqfb0","pricing_plan_id":"cebpf4jnsgd1na2vs0mg"},{"bike_id":"3b395132-44c1-415e-a0d6-de2b5dbe8737","system_id":"levelo_inurba_marseille","lat":43.24387,"lon":5.3706,"is_reserved":false,"is_disabled":true,"rental_uris":{"android":"levelo://app?vid=3b395132-44c1-415e-a0d6-de2b5dbe8737","ios":"levelo://app?vid=3b395132-44c1-415e-a0d6-de2b5dbe8737"},"vehicle_type_id":"4","last_reported":1750356882,"current_range_meters":0,"station_id":"ce4bhhh2rcd13ifvqfk0","pricing_plan_id":"cebpf4jnsgd1na2vs0mg"},{"bike_id":"8e7cec96-d878-4308-abf4-e98d2c47b4aa","system_id":"levelo_inurba_marseille","lat":43.32341,"lon":5.40623,"is_reserved":false,"is_disabled":true,"rental_uris":{"android":"levelo://app?vid=8e7cec96-d878-4308-abf4-e98d2c47b4aa","ios":"levelo://app?vid=8e7cec96-d878-4308-abf4-e98d2c47b4aa"},"vehicle_type_id":"4","last_reported":1750356882,"current_range_meters":0,"station_id":"ce4bhq92rcd13ifvqhjg","pricing_plan_id":"cebpf4jnsgd1na2vs0mg"},{"bike_id":"4ced30e9-2da3-4ee6-bdb5-c5b74afd5da6","system_id":"levelo_inurba_marseille","lat":43.33026,"lon":5.39041,"is_reserved":false,"is_disabled":true,"rental_uris":{"android":"levelo://app?vid=4ced30e9-2da3-4ee6-bdb5-c5b74afd5da6","ios":"levelo://app?vid=4ced30e9-2da3-4ee6-bdb5-c5b74afd5da6"},"vehicle_type_id":"4","last_reported":1750356882,"current_range_meters":0,"station_id":"ce4bhr92rcd13ifvqhrg","pricing_plan_id":"cebpf4jnsgd1na2vs0mg"},{"bike_id":"4ce5b165-f22d-40cf-abd3-1cb294861955","system_id":"levelo_inurba_marseille","lat":43.21193,"lon":5.35075,"is_reserved":false,"is_disabled":true,"rental_uris":{"android":"levelo://app?vid=4ce5b165-f22d-40cf-abd3-1cb294861955","ios":"levelo://app?vid=4ce5b165-f22d-40cf-abd3-1cb294861955"},"vehicle_type_id":"4","last_reported":1750356882,"current_range_meters":0,"station_id":"st_cvj6sg6p6f1abm77japg","pricing_plan_id":"cebpf4jnsgd1na2vs0mg"},{"bike_id":"3bbb3ce5-c63f-42a2-b2a1-470bb9065f9e","system_id":"levelo_inurba_marseille","lat":43.21191,"lon":5.35053,"is_reserved":false,"is_disabled":true,"rental_uris":{"android":"levelo://app?vid=3bbb3ce5-c63f-42a2-b2a1-470bb9065f9e","ios":"levelo://app?vid=3bbb3ce5-c63f-42a2-b2a1-470bb9065f9e"},"vehicle_type_id":"4","last_reported":1750356882,"current_range_meters":0,"station_id":"st_cvj6sg6p6f1abm77japg","pricing_plan_id":"cebpf4jnsgd1na2vs0mg"},{"bike_id":"32d55e80-ceda-4026-baa1-e3b96cec02cb","system_id":"levelo_inurba_marseille","lat":43.25419,"lon":5.37574,"is_reserved":false,"is_disabled":true,"rental_uris":{"android":"levelo://app?vid=32d55e80-ceda-4026-baa1-e3b96cec02cb","ios":"levelo://app?vid=32d55e80-ceda-4026-baa1-e3b96cec02cb"},"vehicle_type_id":"4","last_reported":1750356882,"current_range_meters":400,"station_id":"","pricing_plan_id":"cebpf4jnsgd1na2vs0mg"},{"bike_id":"0dd83c9b-ac89-4252-aee8-6a100803440c","system_id":"levelo_inurba_marseille","lat":43.30938,"lon":5.40146,"is_reserved":false,"is_disabled":true,"rental_uris":{"android":"levelo://app?vid=0dd83c9b-ac89-4252-aee8-6a100803440c","ios":"levelo://app?vid=0dd83c9b-ac89-4252-aee8-6a100803440c"},"vehicle_type_id":"4","last_reported":1750356882,"current_range_meters":400,"station_id":"ce4bgvp2rcd13ifvqct0","pricing_plan_id":"cebpf4jnsgd1na2vs0mg"},{"bike_id":"94ccfc4a-6863-4767-9fe5-020729e35da2","system_id":"levelo_inurba_marseille","lat":43.24386,"lon":5.37054,"is_reserved":false,"is_disabled":true,"rental_uris":{"android":"levelo://app?vid=94ccfc4a-6863-4767-9fe5-020729e35da2","ios":"levelo://app?vid=94ccfc4a-6863-4767-9fe5-020729e35da2"},"vehicle_type_id":"4","last_reported":1750356882,"current_range_meters":400,"station_id":"ce4bhhh2rcd13ifvqfk0","pricing_plan_id":"cebpf4jnsgd1na2vs0mg"},{"bike_id":"d4b2375e-15c2-4b2f-a628-6d423b46231b","system_id":"levelo_inurba_marseille","lat":43.24255,"lon":5.41154,"is_reserved":false,"is_disabled":true,"rental_uris":{"android":"levelo://app?vid=d4b2375e-15c2-4b2f-a628-6d423b46231b","ios":"levelo://app?vid=d4b2375e-15c2-4b2f-a628-6d423b46231b"},"vehicle_type_id":"4","last_reported":1750356882,"current_range_meters":800,"station_id":"","pricing_plan_id":"cebpf4jnsgd1na2vs0mg"},{"bike_id":"64b8b83e-503a-4015-b7c1-3bd9b6c0bb97","system_id":"levelo_inurba_marseille","lat":43.30332,"lon":5.45159,"is_reserved":false,"is_disabled":true,"rental_uris":{"android":"levelo://app?vid=64b8b83e-503a-4015-b7c1-3bd9b6c0bb97","ios":"levelo://app?vid=64b8b83e-503a-4015-b7c1-3bd9b6c0bb97"},"vehicle_type_id":"4","last_reported":1750356882,"current_range_meters":800,"station_id":"","pricing_plan_id":"cebpf4jnsgd1na2vs0mg"},{"bike_id":"1d0ca69d-15b1-4641-8c79-f7d3a285bf09","system_id":"levelo_inurba_marseille","lat":43.29035,"lon":5.39974,"is_reserved":false,"is_disabled":true,"rental_uris":{"android":"levelo://app?vid=1d0ca69d-15b1-4641-8c79-f7d3a285bf09","ios":"levelo://app?vid=1d0ca69d-15b1-4641-8c79-f7d3a285bf09"},"vehicle_type_id":"4","last_reported":1750356882,"current_range_meters":800,"station_id":"ce4bh392rcd13ifvqdm0","pricing_plan_id":"cebpf4jnsgd1na2vs0mg"},{"bike_id":"07eb06d9-6797-44db-a4f5-adc3a80d198e","system_id":"levelo_inurba_marseille","lat":43.29279,"lon":5.36847,"is_reserved":false,"is_disabled":true,"rental_uris":{"android":"levelo://app?vid=07eb06d9-6797-44db-a4f5-adc3a80d198e","ios":"levelo://app?vid=07eb06d9-6797-44db-a4f5-adc3a80d198e"},"vehicle_type_id":"4","last_reported":1750356882,"current_range_meters":800,"station_id":"ce4bhbp2rcd13ifvqesg","pricing_plan_id":"cebpf4jnsgd1na2vs0mg"},{"bike_id":"bdd4bd87-5a7a-4b44-8ea4-472a865c0488","system_id":"levelo_inurba_marseille","lat":43.27701,"lon":5.38951,"is_reserved":false,"is_disabled":false,"rental_uris":{"android":"levelo://app?vid=bdd4bd87-5a7a-4b44-8ea4-472a865c0488","ios":"levelo://app?vid=bdd4bd87-5a7a-4b44-8ea4-472a865c0488"},"vehicle_type_id":"4","last_reported":1750356882,"current_range_meters":800,"station_id":"ce4bhi12rcd13ifvqfo0","pricing_plan_id":"cebpf4jnsgd1na2vs0mg"},{"bike_id":"9f330ac5-5f1d-46ed-a6b0-51cde3054b1a","system_id":"levelo_inurba_marseille","lat":43.21197,"lon":5.35064,"is_reserved":false,"is_disabled":true,"rental_uris":{"android":"levelo://app?vid=9f330ac5-5f1d-46ed-a6b0-51cde3054b1a","ios":"levelo://app?vid=9f330ac5-5f1d-46ed-a6b0-51cde3054b1a"},"vehicle_type_id":"4","last_reported":1750356882,"current_range_meters":800,"station_id":"st_cvj6sg6p6f1abm77japg","pricing_plan_id":"cebpf4jnsgd1na2vs0mg"},{"bike_id":"a8f68e75-e5b3-4f41-975b-110bd8ec47ea","system_id":"levelo_inurba_marseille","lat":43.29782,"lon":5.38086,"is_reserved":false,"is_disabled":true,"rental_uris":{"android":"levelo://app?vid=a8f68e75-e5b3-4f41-975b-110bd8ec47ea","ios":"levelo://app?vid=a8f68e75-e5b3-4f41-975b-110bd8ec47ea"},"vehicle_type_id":"4","last_reported":1750356882,"current_range_meters":1200,"station_id":"ce4bgip2rcd13ifvqbb0","pricing_plan_id":"cebpf4jnsgd1na2vs0mg"},{"bike_id":"7c53fe34-48e1-4835-8356-fbc3edc658e5","system_id":"levelo_inurba_marseille","lat":43.29269,"lon":5.38446,"is_reserved":false,"is_disabled":true,"rental_uris":{"android":"levelo://app?vid=7c53fe34-48e1-4835-8356-fbc3edc658e5","ios":"levelo://app?vid=7c53fe34-48e1-4835-8356-fbc3edc658e5"},"vehicle_type_id":"4","last_reported":1750356882,"current_range_meters":1200,"station_id":"ce4bh692rcd13ifvqea0","pricing_plan_id":"cebpf4jnsgd1na2vs0mg"},{"bike_id":"34ffecec-b625-467a-a699-f57d406580bf","system_id":"levelo_inurba_marseille","lat":43.29262,"lon":5.38438,"is_reserved":false,"is_disabled":true,"rental_uris":{"android":"levelo://app?vid=34ffecec-b625-467a-a699-f57d406580bf","ios":"levelo://app?vid=34ffecec-b625-467a-a699-f57d406580bf"},"vehicle_type_id":"4","last_reported":1750356882,"current_range_meters":1200,"station_id":"ce4bh692rcd13ifvqea0","pricing_plan_id":"cebpf4jnsgd1na2vs0mg"},{"bike_id":"d4417cf1-d0d9-4387-b6ee-952f4c8c72ea","system_id":"levelo_inurba_marseille","lat":43.28936,"lon":5.36638,"is_reserved":false,"is_disabled":true,"rental_uris":{"android":"levelo://app?vid=d4417cf1-d0d9-4387-b6ee-952f4c8c72ea","ios":"levelo://app?vid=d4417cf1-d0d9-4387-b6ee-952f4c8c72ea"},"vehicle_type_id":"4","last_reported":1750356882,"current_range_meters":1200,"station_id":"ce4bhap2rcd13ifvqek0","pricing_plan_id":"cebpf4jnsgd1na2vs0mg"},{"bike_id":"04c53c06-3686-4dd9-b94a-280c3298f885","system_id":"levelo_inurba_marseille","lat":43.28854,"lon":5.35858,"is_reserved":false,"is_disabled":true,"rental_uris":{"android":"levelo://app?vid=04c53c06-3686-4dd9-b94a-280c3298f885","ios":"levelo://app?vid=04c53c06-3686-4dd9-b94a-280c3298f885"},"vehicle_type_id":"4","last_reported":1750356882,"current_range_meters":1200,"station_id":"ce4bhb12rcd13ifvqem0","pricing_plan_id":"cebpf4jnsgd1na2vs0mg"},{"bike_id":"75719568-475c-4693-b582-1eeb3edec006","system_id":"levelo_inurba_marseille","lat":43.265826,"lon":5.38993,"is_reserved":false,"is_disabled":true,"rental_uris":{"android":"levelo://app?vid=75719568-475c-4693-b582-1eeb3edec006","ios":"levelo://app?vid=75719568-475c-4693-b582-1eeb3edec006"},"vehicle_type_id":"4","last_reported":1750356882,"current_range_meters":1600,"station_id":"ce4bhe12rcd13ifvqf30","pricing_plan_id":"cebpf4jnsgd1na2vs0mg"},{"bike_id":"43a600db-2ced-4b31-b6f0-3c9b267cfa5f","system_id":"levelo_inurba_marseille","lat":43.23063,"lon":5.3549,"is_reserved":false,"is_disabled":true,"rental_uris":{"android":"levelo://app?vid=43a600db-2ced-4b31-b6f0-3c9b267cfa5f","ios":"levelo://app?vid=43a600db-2ced-4b31-b6f0-3c9b267cfa5f"},"vehicle_type_id":"4","last_reported":1750356882,"current_range_meters":1600,"station_id":"cpo3342slgdg3j2ifvpg","pricing_plan_id":"cebpf4jnsgd1na2vs0mg"},{"bike_id":"9eb03dfa-46f2-4fdf-9696-d2c72467afe9","system_id":"levelo_inurba_marseille","lat":43.29524,"lon":5.3904,"is_reserved":false,"is_disabled":true,"rental_uris":{"android":"levelo://app?vid=9eb03dfa-46f2-4fdf-9696-d2c72467afe9","ios":"levelo://app?vid=9eb03dfa-46f2-4fdf-9696-d2c72467afe9"},"vehicle_type_id":"4","last_reported":1750356882,"current_range_meters":2000,"station_id":"ce4bh3p2rcd13ifvqdp0","pricing_plan_id":"cebpf4jnsgd1na2vs0mg"},{"bike_id":"9d7cdd74-86de-4167-8c69-d8366068037b","system_id":"levelo_inurba_marseille","lat":43.29007,"lon":5.356228,"is_reserved":false,"is_disabled":false,"rental_uris":{"android":"levelo://app?vid=9d7cdd74-86de-4167-8c69-d8366068037b","ios":"levelo://app?vid=9d7cdd74-86de-4167-8c69-d8366068037b"},"vehicle_type_id":"4","last_reported":1750356882,"current_range_meters":2000,"station_id":"ce4bhb92rcd13ifvqen0","pricing_plan_id":"cebpf4jnsgd1na2vs0mg"},{"bike_id":"b55c1191-98f2-4c6c-a6e1-f0477fc7c3ed","system_id":"levelo_inurba_marseille","lat":43.25492,"lon":5.37648,"is_reserved":false,"is_disabled":true,"rental_uris":{"android":"levelo://app?vid=b55c1191-98f2-4c6c-a6e1-f0477fc7c3ed","ios":"levelo://app?vid=b55c1191-98f2-4c6c-a6e1-f0477fc7c3ed"},"vehicle_type_id":"4","last_reported":1750356882,"current_range_meters":2000,"station_id":"ce4bhh12rcd13ifvqff0","pricing_plan_id":"cebpf4jnsgd1na2vs0mg"},{"bike_id":"d8f47b34-6015-4e51-86de-1bf05ec55d89","system_id":"levelo_inurba_marseille","lat":43.32369,"lon":5.38882,"is_reserved":false,"is_disabled":true,"rental_uris":{"android":"levelo://app?vid=d8f47b34-6015-4e51-86de-1bf05ec55d89","ios":"levelo://app?vid=d8f47b34-6015-4e51-86de-1bf05ec55d89"},"vehicle_type_id":"4","last_reported":1750356882,"current_range_meters":2000,"station_id":"ce4bhqp2rcd13ifvqhog","pricing_plan_id":"cebpf4jnsgd1na2vs0mg"},{"bike_id":"364e9e96-a53d-450a-9788-3eb8aa16db8f","system_id":"levelo_inurba_marseille","lat":43.231869,"lon":5.355547,"is_reserved":false,"is_disabled":true,"rental_uris":{"android":"levelo://app?vid=364e9e96-a53d-450a-9788-3eb8aa16db8f","ios":"levelo://app?vid=364e9e96-a53d-450a-9788-3eb8aa16db8f"},"vehicle_type_id":"4","last_reported":1750356882,"current_range_meters":2000,"station_id":"ce4bhu92rcd13ifvqi70","pricing_plan_id":"cebpf4jnsgd1na2vs0mg"},{"bike_id":"ec01be80-b228-49a9-bb2c-57dc2fb1f199","system_id":"levelo_inurba_marseille","lat":43.27269,"lon":5.40942,"is_reserved":false,"is_disabled":false,"rental_uris":{"android":"levelo://app?vid=ec01be80-b228-49a9-bb2c-57dc2fb1f199","ios":"levelo://app?vid=ec01be80-b228-49a9-bb2c-57dc2fb1f199"},"vehicle_type_id":"4","last_reported":1750356882,"current_range_meters":2800,"station_id":"","pricing_plan_id":"cebpf4jnsgd1na2vs0mg"},{"bike_id":"b77aec82-fa4f-4074-bcef-073f21b85238","system_id":"levelo_inurba_marseille","lat":43.28697,"lon":5.39989,"is_reserved":false,"is_disabled":false,"rental_uris":{"android":"levelo://app?vid=b77aec82-fa4f-4074-bcef-073f21b85238","ios":"levelo://app?vid=b77aec82-fa4f-4074-bcef-073f21b85238"},"vehicle_type_id":"4","last_reported":1750356882,"current_range_meters":2800,"station_id":"ce4bho92rcd13ifvqh3g","pricing_plan_id":"cebpf4jnsgd1na2vs0mg"},{"bike_id":"ddd72141-2ca8-4f92-baca-18bd38ec5f40","system_id":"levelo_inurba_marseille","lat":43.3248,"lon":5.36559,"is_reserved":false,"is_disabled":false,"rental_uris":{"android":"levelo://app?vid=ddd72141-2ca8-4f92-baca-18bd38ec5f40","ios":"levelo://app?vid=ddd72141-2ca8-4f92-baca-18bd38ec5f40"},"vehicle_type_id":"4","last_reported":1750356882,"current_range_meters":2800,"station_id":"ce4bhs12rcd13ifvqhvg","pricing_plan_id":"cebpf4jnsgd1na2vs0mg"},{"bike_id":"8596979b-f37b-43d0-8108-15f11dae2098","system_id":"levelo_inurba_marseille","lat":43.26209,"lon":5.37445,"is_reserved":false,"is_disabled":false,"rental_uris":{"android":"levelo://app?vid=8596979b-f37b-43d0-8108-15f11dae2098","ios":"levelo://app?vid=8596979b-f37b-43d0-8108-15f11dae2098"},"vehicle_type_id":"4","last_reported":1750356882,"current_range_meters":3200,"station_id":"ce4bhgp2rcd13ifvqfc0","pricing_plan_id":"cebpf4jnsgd1na2vs0mg"},{"bike_id":"532eff17-0b1f-46f9-a259-7294212ae2f9","system_id":"levelo_inurba_marseille","lat":43.24389,"lon":5.37052,"is_reserved":false,"is_disabled":false,"rental_uris":{"android":"levelo://app?vid=532eff17-0b1f-46f9-a259-7294212ae2f9","ios":"levelo://app?vid=532eff17-0b1f-46f9-a259-7294212ae2f9"},"vehicle_type_id":"4","last_reported":1750356882,"current_range_meters":3200,"station_id":"ce4bhhh2rcd13ifvqfk0","pricing_plan_id":"cebpf4jnsgd1na2vs0mg"},{"bike_id":"ceb1f9f7-8d2a-43e2-8c7e-b9d75e037192","system_id":"levelo_inurba_marseille","lat":43.30803,"lon":5.43503,"is_reserved":false,"is_disabled":false,"rental_uris":{"android":"levelo://app?vid=ceb1f9f7-8d2a-43e2-8c7e-b9d75e037192","ios":"levelo://app?vid=ceb1f9f7-8d2a-43e2-8c7e-b9d75e037192"},"vehicle_type_id":"4","last_reported":1750356882,"current_range_meters":3200,"station_id":"ce4bhph2rcd13ifvqheg","pricing_plan_id":"cebpf4jnsgd1na2vs0mg"},{"bike_id":"4dcc2604-0560-4ef5-b498-44d691d249b2","system_id":"levelo_inurba_marseille","lat":43.31324,"lon":5.39685,"is_reserved":false,"is_disabled":false,"rental_uris":{"android":"levelo://app?vid=4dcc2604-0560-4ef5-b498-44d691d249b2","ios":"levelo://app?vid=4dcc2604-0560-4ef5-b498-44d691d249b2"},"vehicle_type_id":"4","last_reported":1750356882,"current_range_meters":3600,"station_id":"ce4bgvp2rcd13ifvqcu0","pricing_plan_id":"cebpf4jnsgd1na2vs0mg"},{"bike_id":"58f2ea39-1c71-4c60-b1bf-08bee6cdbe75","system_id":"levelo_inurba_marseille","lat":43.2315,"lon":5.43699,"is_reserved":false,"is_disabled":false,"rental_uris":{"android":"levelo://app?vid=58f2ea39-1c71-4c60-b1bf-08bee6cdbe75","ios":"levelo://app?vid=58f2ea39-1c71-4c60-b1bf-08bee6cdbe75"},"vehicle_type_id":"4","last_reported":1750356882,"current_range_meters":3600,"station_id":"ce4bhmp2rcd13ifvqgog","pricing_plan_id":"cebpf4jnsgd1na2vs0mg"},{"bike_id":"6bb5f8f8-d8cd-49f8-9414-bfa7d58f7089","system_id":"levelo_inurba_marseille","lat":43.30809,"lon":5.43527,"is_reserved":false,"is_disabled":false,"rental_uris":{"android":"levelo://app?vid=6bb5f8f8-d8cd-49f8-9414-bfa7d58f7089","ios":"levelo://app?vid=6bb5f8f8-d8cd-49f8-9414-bfa7d58f7089"},"vehicle_type_id":"4","last_reported":1750356882,"current_range_meters":3600,"station_id":"ce4bhph2rcd13ifvqheg","pricing_plan_id":"cebpf4jnsgd1na2vs0mg"},{"bike_id":"fe4cdbe5-dcb1-4249-8328-507c4dca977e","system_id":"levelo_inurba_marseille","lat":43.33036,"lon":5.39042,"is_reserved":false,"is_disabled":false,"rental_uris":{"android":"levelo://app?vid=fe4cdbe5-dcb1-4249-8328-507c4dca977e","ios":"levelo://app?vid=fe4cdbe5-dcb1-4249-8328-507c4dca977e"},"vehicle_type_id":"4","last_reported":1750356882,"current_range_meters":3600,"station_id":"ce4bhr92rcd13ifvqhrg","pricing_plan_id":"cebpf4jnsgd1na2vs0mg"},{"bike_id":"16fd714f-e5af-4183-b764-7d5c713d1de5","system_id":"levelo_inurba_marseille","lat":43.30807,"lon":5.43517,"is_reserved":false,"is_disabled":false,"rental_uris":{"android":"levelo://app?vid=16fd714f-e5af-4183-b764-7d5c713d1de5","ios":"levelo://app?vid=16fd714f-e5af-4183-b764-7d5c713d1de5"},"vehicle_type_id":"4","last_reported":1750356882,"current_range_meters":4000,"station_id":"ce4bhph2rcd13ifvqheg","pricing_plan_id":"cebpf4jnsgd1na2vs0mg"},{"bike_id":"2aa24825-97ae-4a0c-9545-829a461a9500","system_id":"levelo_inurba_marseille","lat":43.28421,"lon":5.37502,"is_reserved":false,"is_disabled":false,"rental_uris":{"android":"levelo://app?vid=2aa24825-97ae-4a0c-9545-829a461a9500","ios":"levelo://app?vid=2aa24825-97ae-4a0c-9545-829a461a9500"},"vehicle_type_id":"4","last_reported":1750356882,"current_range_meters":4400,"station_id":"ce4bh412rcd13ifvqds0","pricing_plan_id":"cebpf4jnsgd1na2vs0mg"},{"bike_id":"c441a8dd-2193-4d96-ac2c-4218cb0b6e37","system_id":"levelo_inurba_marseille","lat":43.28663,"lon":5.36354,"is_reserved":false,"is_disabled":false,"rental_uris":{"android":"levelo://app?vid=c441a8dd-2193-4d96-ac2c-4218cb0b6e37","ios":"levelo://app?vid=c441a8dd-2193-4d96-ac2c-4218cb0b6e37"},"vehicle_type_id":"4","last_reported":1750356882,"current_range_meters":4400,"station_id":"ce4bhah2rcd13ifvqej0","pricing_plan_id":"cebpf4jnsgd1na2vs0mg"},{"bike_id":"09774bac-980d-4f5b-86d4-ec3003e1ec01","system_id":"levelo_inurba_marseille","lat":43.23153,"lon":5.43725,"is_reserved":false,"is_disabled":false,"rental_uris":{"android":"levelo://app?vid=09774bac-980d-4f5b-86d4-ec3003e1ec01","ios":"levelo://app?vid=09774bac-980d-4f5b-86d4-ec3003e1ec01"},"vehicle_type_id":"4","last_reported":1750356882,"current_range_meters":4400,"station_id":"ce4bhmp2rcd13ifvqgog","pricing_plan_id":"cebpf4jnsgd1na2vs0mg"},{"bike_id":"0195fbb9-dbca-4bec-a9d2-1967909850b9","system_id":"levelo_inurba_marseille","lat":43.308,"lon":5.43521,"is_reserved":false,"is_disabled":false,"rental_uris":{"android":"levelo://app?vid=0195fbb9-dbca-4bec-a9d2-1967909850b9","ios":"levelo://app?vid=0195fbb9-dbca-4bec-a9d2-1967909850b9"},"vehicle_type_id":"4","last_reported":1750356882,"current_range_meters":4400,"station_id":"ce4bhph2rcd13ifvqheg","pricing_plan_id":"cebpf4jnsgd1na2vs0mg"},{"bike_id":"005916ef-2b13-4629-bdbb-27ff78f48ab4","system_id":"levelo_inurba_marseille","lat":43.28446,"lon":5.39211,"is_reserved":false,"is_disabled":false,"rental_uris":{"android":"levelo://app?vid=005916ef-2b13-4629-bdbb-27ff78f48ab4","ios":"levelo://app?vid=005916ef-2b13-4629-bdbb-27ff78f48ab4"},"vehicle_type_id":"4","last_reported":1750356882,"current_range_meters":4800,"station_id":"ce4bhoh2rcd13ifvqh5g","pricing_plan_id":"cebpf4jnsgd1na2vs0mg"},{"bike_id":"95515acb-4a50-4ad6-82ee-87464d4cbe6a","system_id":"levelo_inurba_marseille","lat":43.26938,"lon":5.40261,"is_reserved":false,"is_disabled":false,"rental_uris":{"android":"levelo://app?vid=95515acb-4a50-4ad6-82ee-87464d4cbe6a","ios":"levelo://app?vid=95515acb-4a50-4ad6-82ee-87464d4cbe6a"},"vehicle_type_id":"4","last_reported":1750356882,"current_range_meters":4800,"station_id":"cjm6bp8fraef2m0cb0m0","pricing_plan_id":"cebpf4jnsgd1na2vs0mg"},{"bike_id":"13a3f1ea-3434-43ba-9323-1598957a0679","system_id":"levelo_inurba_marseille","lat":43.29263,"lon":5.38444,"is_reserved":false,"is_disabled":false,"rental_uris":{"android":"levelo://app?vid=13a3f1ea-3434-43ba-9323-1598957a0679","ios":"levelo://app?vid=13a3f1ea-3434-43ba-9323-1598957a0679"},"vehicle_type_id":"4","last_reported":1750356882,"current_range_meters":5600,"station_id":"ce4bh692rcd13ifvqea0","pricing_plan_id":"cebpf4jnsgd1na2vs0mg"},{"bike_id":"fcc495e8-b178-4c91-9fa9-16382a82df26","system_id":"levelo_inurba_marseille","lat":43.284149,"lon":5.349801,"is_reserved":false,"is_disabled":false,"rental_uris":{"android":"levelo://app?vid=fcc495e8-b178-4c91-9fa9-16382a82df26","ios":"levelo://app?vid=fcc495e8-b178-4c91-9fa9-16382a82df26"},"vehicle_type_id":"4","last_reported":1750356882,"current_range_meters":5600,"station_id":"ce4bhbh2rcd13ifvqepg","pricing_plan_id":"cebpf4jnsgd1na2vs0mg"},{"bike_id":"f595abda-b109-4de2-aff8-722e5a2320a5","system_id":"levelo_inurba_marseille","lat":43.28587,"lon":5.35122,"is_reserved":false,"is_disabled":false,"rental_uris":{"android":"levelo://app?vid=f595abda-b109-4de2-aff8-722e5a2320a5","ios":"levelo://app?vid=f595abda-b109-4de2-aff8-722e5a2320a5"},"vehicle_type_id":"4","last_reported":1750356882,"current_range_meters":5600,"station_id":"ce4bhch2rcd13ifvqeug","pricing_plan_id":"cebpf4jnsgd1na2vs0mg"},{"bike_id":"23f3feed-e6a0-4a28-bf48-8571d41ec480","system_id":"levelo_inurba_marseille","lat":43.31522,"lon":5.37487,"is_reserved":false,"is_disabled":false,"rental_uris":{"android":"levelo://app?vid=23f3feed-e6a0-4a28-bf48-8571d41ec480","ios":"levelo://app?vid=23f3feed-e6a0-4a28-bf48-8571d41ec480"},"vehicle_type_id":"4","last_reported":1750356882,"current_range_meters":6000,"station_id":"","pricing_plan_id":"cebpf4jnsgd1na2vs0mg"},{"bike_id":"de0f7c2b-5974-4035-a240-8ed367c0e3f3","system_id":"levelo_inurba_marseille","lat":43.31967,"lon":5.37627,"is_reserved":false,"is_disabled":false,"rental_uris":{"android":"levelo://app?vid=de0f7c2b-5974-4035-a240-8ed367c0e3f3","ios":"levelo://app?vid=de0f7c2b-5974-4035-a240-8ed367c0e3f3"},"vehicle_type_id":"4","last_reported":1750356882,"current_range_meters":6000,"station_id":"","pricing_plan_id":"cebpf4jnsgd1na2vs0mg"},{"bike_id":"6640517b-d519-4976-be62-00401593ee25","system_id":"levelo_inurba_marseille","lat":43.33103,"lon":5.38092,"is_reserved":false,"is_disabled":false,"rental_uris":{"android":"levelo://app?vid=6640517b-d519-4976-be62-00401593ee25","ios":"levelo://app?vid=6640517b-d519-4976-be62-00401593ee25"},"vehicle_type_id":"4","last_reported":1750356882,"current_range_meters":6000,"station_id":"","pricing_plan_id":"cebpf4jnsgd1na2vs0mg"},{"bike_id":"a5d69c82-efbb-4b68-b304-d855806120ac","system_id":"levelo_inurba_marseille","lat":43.30142,"lon":5.37424,"is_reserved":false,"is_disabled":false,"rental_uris":{"android":"levelo://app?vid=a5d69c82-efbb-4b68-b304-d855806120ac","ios":"levelo://app?vid=a5d69c82-efbb-4b68-b304-d855806120ac"},"vehicle_type_id":"4","last_reported":1750356882,"current_range_meters":6000,"station_id":"ce4bgs92rcd13ifvqcc0","pricing_plan_id":"cebpf4jnsgd1na2vs0mg"},{"bike_id":"0585d38e-94b3-4899-9a55-f4d96e3d5d66","system_id":"levelo_inurba_marseille","lat":43.3013,"lon":5.39868,"is_reserved":false,"is_disabled":false,"rental_uris":{"android":"levelo://app?vid=0585d38e-94b3-4899-9a55-f4d96e3d5d66","ios":"levelo://app?vid=0585d38e-94b3-4899-9a55-f4d96e3d5d66"},"vehicle_type_id":"4","last_reported":1750356882,"current_range_meters":6000,"station_id":"ce4bh0h2rcd13ifvqd40","pricing_plan_id":"cebpf4jnsgd1na2vs0mg"},{"bike_id":"9218099f-9e9b-42ab-9ce4-c46e8a43f589","system_id":"levelo_inurba_marseille","lat":43.2957,"lon":5.3999,"is_reserved":false,"is_disabled":false,"rental_uris":{"android":"levelo://app?vid=9218099f-9e9b-42ab-9ce4-c46e8a43f589","ios":"levelo://app?vid=9218099f-9e9b-42ab-9ce4-c46e8a43f589"},"vehicle_type_id":"4","last_reported":1750356882,"current_range_meters":6000,"station_id":"ce4bh312rcd13ifvqdj0","pricing_plan_id":"cebpf4jnsgd1na2vs0mg"},{"bike_id":"56769c4f-40da-4633-887c-1bf37f9830bb","system_id":"levelo_inurba_marseille","lat":43.28412,"lon":5.34994,"is_reserved":false,"is_disabled":false,"rental_uris":{"android":"levelo://app?vid=56769c4f-40da-4633-887c-1bf37f9830bb","ios":"levelo://app?vid=56769c4f-40da-4633-887c-1bf37f9830bb"},"vehicle_type_id":"4","last_reported":1750356882,"current_range_meters":6000,"station_id":"ce4bhbh2rcd13ifvqepg","pricing_plan_id":"cebpf4jnsgd1na2vs0mg"},{"bike_id":"76623ee8-bef2-4d3f-b185-f7cbcbb4d609","system_id":"levelo_inurba_marseille","lat":43.28412,"lon":5.34975,"is_reserved":false,"is_disabled":false,"rental_uris":{"android":"levelo://app?vid=76623ee8-bef2-4d3f-b185-f7cbcbb4d609","ios":"levelo://app?vid=76623ee8-bef2-4d3f-b185-f7cbcbb4d609"},"vehicle_type_id":"4","last_reported":1750356882,"current_range_meters":6000,"station_id":"ce4bhbh2rcd13ifvqepg","pricing_plan_id":"cebpf4jnsgd1na2vs0mg"},{"bike_id":"5758f02d-ab77-4076-9ccd-2538e67f35b9","system_id":"levelo_inurba_marseille","lat":43.301383,"lon":5.379785,"is_reserved":false,"is_disabled":false,"rental_uris":{"android":"levelo://app?vid=5758f02d-ab77-4076-9ccd-2538e67f35b9","ios":"levelo://app?vid=5758f02d-ab77-4076-9ccd-2538e67f35b9"},"vehicle_type_id":"4","last_reported":1750356882,"current_range_meters":6400,"station_id":"","pricing_plan_id":"cebpf4jnsgd1na2vs0mg"},{"bike_id":"31f27fc5-31c8-4d64-a264-57fb5d55a3a2","system_id":"levelo_inurba_marseille","lat":43.30595,"lon":5.39362,"is_reserved":false,"is_disabled":false,"rental_uris":{"android":"levelo://app?vid=31f27fc5-31c8-4d64-a264-57fb5d55a3a2","ios":"levelo://app?vid=31f27fc5-31c8-4d64-a264-57fb5d55a3a2"},"vehicle_type_id":"4","last_reported":1750356882,"current_range_meters":6400,"station_id":"ce4bh0p2rcd13ifvqd80","pricing_plan_id":"cebpf4jnsgd1na2vs0mg"},{"bike_id":"9f26dbfc-895b-48d1-8338-287b4bc79c73","system_id":"levelo_inurba_marseille","lat":43.26222,"lon":5.37429,"is_reserved":false,"is_disabled":false,"rental_uris":{"android":"levelo://app?vid=9f26dbfc-895b-48d1-8338-287b4bc79c73","ios":"levelo://app?vid=9f26dbfc-895b-48d1-8338-287b4bc79c73"},"vehicle_type_id":"4","last_reported":1750356882,"current_range_meters":6400,"station_id":"ce4bhgp2rcd13ifvqfc0","pricing_plan_id":"cebpf4jnsgd1na2vs0mg"},{"bike_id":"5112f3da-1915-4fa3-a1fe-504c68d794ff","system_id":"levelo_inurba_marseille","lat":43.25503,"lon":5.3765,"is_reserved":false,"is_disabled":false,"rental_uris":{"android":"levelo://app?vid=5112f3da-1915-4fa3-a1fe-504c68d794ff","ios":"levelo://app?vid=5112f3da-1915-4fa3-a1fe-504c68d794ff"},"vehicle_type_id":"4","last_reported":1750356882,"current_range_meters":6400,"station_id":"ce4bhh12rcd13ifvqff0","pricing_plan_id":"cebpf4jnsgd1na2vs0mg"},{"bike_id":"31f5065a-7f09-4d20-ae89-72317680a4e1","system_id":"levelo_inurba_marseille","lat":43.23968,"lon":5.36624,"is_reserved":false,"is_disabled":false,"rental_uris":{"android":"levelo://app?vid=31f5065a-7f09-4d20-ae89-72317680a4e1","ios":"levelo://app?vid=31f5065a-7f09-4d20-ae89-72317680a4e1"},"vehicle_type_id":"4","last_reported":1750356882,"current_range_meters":6400,"station_id":"ce4bhi12rcd13ifvqfp0","pricing_plan_id":"cebpf4jnsgd1na2vs0mg"},{"bike_id":"9cceb9ac-da6a-43f0-8c01-7e990ad95da6","system_id":"levelo_inurba_marseille","lat":43.27325,"lon":5.39078,"is_reserved":false,"is_disabled":false,"rental_uris":{"android":"levelo://app?vid=9cceb9ac-da6a-43f0-8c01-7e990ad95da6","ios":"levelo://app?vid=9cceb9ac-da6a-43f0-8c01-7e990ad95da6"},"vehicle_type_id":"4","last_reported":1750356882,"current_range_meters":6800,"station_id":"ce4bhgp2rcd13ifvqfe0","pricing_plan_id":"cebpf4jnsgd1na2vs0mg"},{"bike_id":"ac0ce348-7e23-495c-844b-f21d8527a660","system_id":"levelo_inurba_marseille","lat":43.28358,"lon":5.43252,"is_reserved":false,"is_disabled":false,"rental_uris":{"android":"levelo://app?vid=ac0ce348-7e23-495c-844b-f21d8527a660","ios":"levelo://app?vid=ac0ce348-7e23-495c-844b-f21d8527a660"},"vehicle_type_id":"4","last_reported":1750356882,"current_range_meters":7200,"station_id":"","pricing_plan_id":"cebpf4jnsgd1na2vs0mg"},{"bike_id":"b2d60bd0-3845-4286-9873-1e1627b156f7","system_id":"levelo_inurba_marseille","lat":43.28855,"lon":5.35852,"is_reserved":false,"is_disabled":false,"rental_uris":{"android":"levelo://app?vid=b2d60bd0-3845-4286-9873-1e1627b156f7","ios":"levelo://app?vid=b2d60bd0-3845-4286-9873-1e1627b156f7"},"vehicle_type_id":"4","last_reported":1750356882,"current_range_meters":7200,"station_id":"ce4bhb12rcd13ifvqem0","pricing_plan_id":"cebpf4jnsgd1na2vs0mg"},{"bike_id":"20e8a8e1-eab4-48ed-8404-a5d73fa67d99","system_id":"levelo_inurba_marseille","lat":43.29008,"lon":5.35615,"is_reserved":false,"is_disabled":false,"rental_uris":{"android":"levelo://app?vid=20e8a8e1-eab4-48ed-8404-a5d73fa67d99","ios":"levelo://app?vid=20e8a8e1-eab4-48ed-8404-a5d73fa67d99"},"vehicle_type_id":"4","last_reported":1750356882,"current_range_meters":7200,"station_id":"ce4bhb92rcd13ifvqen0","pricing_plan_id":"cebpf4jnsgd1na2vs0mg"},{"bike_id":"18fd9cca-0bfc-47df-bf59-c11de988f355","system_id":"levelo_inurba_marseille","lat":43.30803,"lon":5.43521,"is_reserved":false,"is_disabled":false,"rental_uris":{"android":"levelo://app?vid=18fd9cca-0bfc-47df-bf59-c11de988f355","ios":"levelo://app?vid=18fd9cca-0bfc-47df-bf59-c11de988f355"},"vehicle_type_id":"4","last_reported":1750356882,"current_range_meters":7200,"station_id":"ce4bhph2rcd13ifvqheg","pricing_plan_id":"cebpf4jnsgd1na2vs0mg"},{"bike_id":"924da665-0976-48ae-8f14-fada53664b5a","system_id":"levelo_inurba_marseille","lat":43.28272,"lon":5.35062,"is_reserved":false,"is_disabled":false,"rental_uris":{"android":"levelo://app?vid=924da665-0976-48ae-8f14-fada53664b5a","ios":"levelo://app?vid=924da665-0976-48ae-8f14-fada53664b5a"},"vehicle_type_id":"4","last_reported":1750356882,"current_range_meters":8000,"station_id":"ce4bhbp2rcd13ifvqerg","pricing_plan_id":"cebpf4jnsgd1na2vs0mg"},{"bike_id":"1e50f847-8d22-4f0a-a183-c700fbe6a0bc","system_id":"levelo_inurba_marseille","lat":43.27996,"lon":5.41671,"is_reserved":false,"is_disabled":false,"rental_uris":{"android":"levelo://app?vid=1e50f847-8d22-4f0a-a183-c700fbe6a0bc","ios":"levelo://app?vid=1e50f847-8d22-4f0a-a183-c700fbe6a0bc"},"vehicle_type_id":"4","last_reported":1750356882,"current_range_meters":8000,"station_id":"ce4bho12rcd13ifvqh1g","pricing_plan_id":"cebpf4jnsgd1na2vs0mg"},{"bike_id":"4b8da722-ee9e-48a4-a5e5-3a8a10364708","system_id":"levelo_inurba_marseille","lat":43.31224,"lon":5.37803,"is_reserved":false,"is_disabled":false,"rental_uris":{"android":"levelo://app?vid=4b8da722-ee9e-48a4-a5e5-3a8a10364708","ios":"levelo://app?vid=4b8da722-ee9e-48a4-a5e5-3a8a10364708"},"vehicle_type_id":"4","last_reported":1750356882,"current_range_meters":8400,"station_id":"","pricing_plan_id":"cebpf4jnsgd1na2vs0mg"},{"bike_id":"3518210a-6d90-482f-a11b-11cb7c94acd1","system_id":"levelo_inurba_marseille","lat":43.26483,"lon":5.39233,"is_reserved":false,"is_disabled":false,"rental_uris":{"android":"levelo://app?vid=3518210a-6d90-482f-a11b-11cb7c94acd1","ios":"levelo://app?vid=3518210a-6d90-482f-a11b-11cb7c94acd1"},"vehicle_type_id":"4","last_reported":1750356882,"current_range_meters":8400,"station_id":"","pricing_plan_id":"cebpf4jnsgd1na2vs0mg"},{"bike_id":"f4745191-2f86-41a2-a598-28a166b39956","system_id":"levelo_inurba_marseille","lat":43.30931,"lon":5.40142,"is_reserved":false,"is_disabled":false,"rental_uris":{"android":"levelo://app?vid=f4745191-2f86-41a2-a598-28a166b39956","ios":"levelo://app?vid=f4745191-2f86-41a2-a598-28a166b39956"},"vehicle_type_id":"4","last_reported":1750356882,"current_range_meters":8400,"station_id":"ce4bgvp2rcd13ifvqct0","pricing_plan_id":"cebpf4jnsgd1na2vs0mg"},{"bike_id":"2b9391a3-2a89-415a-bc74-7046027ddfe0","system_id":"levelo_inurba_marseille","lat":43.26193,"lon":5.37447,"is_reserved":false,"is_disabled":false,"rental_uris":{"android":"levelo://app?vid=2b9391a3-2a89-415a-bc74-7046027ddfe0","ios":"levelo://app?vid=2b9391a3-2a89-415a-bc74-7046027ddfe0"},"vehicle_type_id":"4","last_reported":1750356882,"current_range_meters":8400,"station_id":"ce4bhgp2rcd13ifvqfc0","pricing_plan_id":"cebpf4jnsgd1na2vs0mg"},{"bike_id":"4d2f9ab2-cbc8-424b-8d7f-a23ef990098e","system_id":"levelo_inurba_marseille","lat":43.276706,"lon":5.388788,"is_reserved":false,"is_disabled":false,"rental_uris":{"android":"levelo://app?vid=4d2f9ab2-cbc8-424b-8d7f-a23ef990098e","ios":"levelo://app?vid=4d2f9ab2-cbc8-424b-8d7f-a23ef990098e"},"vehicle_type_id":"4","last_reported":1750356882,"current_range_meters":8400,"station_id":"ce4bhi12rcd13ifvqfo0","pricing_plan_id":"cebpf4jnsgd1na2vs0mg"},{"bike_id":"f267a02b-c5a2-4a2d-b55a-2880a5e4939a","system_id":"levelo_inurba_marseille","lat":43.24661,"lon":5.38156,"is_reserved":false,"is_disabled":false,"rental_uris":{"android":"levelo://app?vid=f267a02b-c5a2-4a2d-b55a-2880a5e4939a","ios":"levelo://app?vid=f267a02b-c5a2-4a2d-b55a-2880a5e4939a"},"vehicle_type_id":"4","last_reported":1750356882,"current_range_meters":8400,"station_id":"ce4bhih2rcd13ifvqfr0","pricing_plan_id":"cebpf4jnsgd1na2vs0mg"},{"bike_id":"1e935f2c-f039-41a8-b722-49d9cec2e965","system_id":"levelo_inurba_marseille","lat":43.24179,"lon":5.36388,"is_reserved":false,"is_disabled":false,"rental_uris":{"android":"levelo://app?vid=1e935f2c-f039-41a8-b722-49d9cec2e965","ios":"levelo://app?vid=1e935f2c-f039-41a8-b722-49d9cec2e965"},"vehicle_type_id":"4","last_reported":1750356882,"current_range_meters":8400,"station_id":"cpo36qri1sfpv3e86is0","pricing_plan_id":"cebpf4jnsgd1na2vs0mg"},{"bike_id":"0dedb6f6-6801-483b-bfb8-9cd4533d158f","system_id":"levelo_inurba_marseille","lat":43.31143,"lon":5.38088,"is_reserved":false,"is_disabled":false,"rental_uris":{"android":"levelo://app?vid=0dedb6f6-6801-483b-bfb8-9cd4533d158f","ios":"levelo://app?vid=0dedb6f6-6801-483b-bfb8-9cd4533d158f"},"vehicle_type_id":"4","last_reported":1750356882,"current_range_meters":8800,"station_id":"","pricing_plan_id":"cebpf4jnsgd1na2vs0mg"},{"bike_id":"ed75f478-8449-448d-9eed-d1c430a4d59d","system_id":"levelo_inurba_marseille","lat":43.29007,"lon":5.35596,"is_reserved":false,"is_disabled":false,"rental_uris":{"android":"levelo://app?vid=ed75f478-8449-448d-9eed-d1c430a4d59d","ios":"levelo://app?vid=ed75f478-8449-448d-9eed-d1c430a4d59d"},"vehicle_type_id":"4","last_reported":1750356882,"current_range_meters":8800,"station_id":"ce4bhb92rcd13ifvqen0","pricing_plan_id":"cebpf4jnsgd1na2vs0mg"},{"bike_id":"f79d57d0-e6ca-49e8-9659-5f6533fd53c4","system_id":"levelo_inurba_marseille","lat":43.28418,"lon":5.34989,"is_reserved":false,"is_disabled":false,"rental_uris":{"android":"levelo://app?vid=f79d57d0-e6ca-49e8-9659-5f6533fd53c4","ios":"levelo://app?vid=f79d57d0-e6ca-49e8-9659-5f6533fd53c4"},"vehicle_type_id":"4","last_reported":1750356882,"current_range_meters":8800,"station_id":"ce4bhbh2rcd13ifvqepg","pricing_plan_id":"cebpf4jnsgd1na2vs0mg"},{"bike_id":"b1b7dd02-4d56-4fe4-8781-814ee2b8f3ff","system_id":"levelo_inurba_marseille","lat":43.23145,"lon":5.43715,"is_reserved":false,"is_disabled":false,"rental_uris":{"android":"levelo://app?vid=b1b7dd02-4d56-4fe4-8781-814ee2b8f3ff","ios":"levelo://app?vid=b1b7dd02-4d56-4fe4-8781-814ee2b8f3ff"},"vehicle_type_id":"4","last_reported":1750356882,"current_range_meters":8800,"station_id":"ce4bhmp2rcd13ifvqgog","pricing_plan_id":"cebpf4jnsgd1na2vs0mg"},{"bike_id":"ed647391-d36e-4592-a3f3-2e2da5105e2b","system_id":"levelo_inurba_marseille","lat":43.28405,"lon":5.34986,"is_reserved":false,"is_disabled":false,"rental_uris":{"android":"levelo://app?vid=ed647391-d36e-4592-a3f3-2e2da5105e2b","ios":"levelo://app?vid=ed647391-d36e-4592-a3f3-2e2da5105e2b"},"vehicle_type_id":"4","last_reported":1750356882,"current_range_meters":9200,"station_id":"","pricing_plan_id":"cebpf4jnsgd1na2vs0mg"},{"bike_id":"1cd438d8-6cc9-4d76-8391-1308245908a6","system_id":"levelo_inurba_marseille","lat":43.296123,"lon":5.374929,"is_reserved":false,"is_disabled":false,"rental_uris":{"android":"levelo://app?vid=1cd438d8-6cc9-4d76-8391-1308245908a6","ios":"levelo://app?vid=1cd438d8-6cc9-4d76-8391-1308245908a6"},"vehicle_type_id":"4","last_reported":1750356882,"current_range_meters":9200,"station_id":"ce4bgr92rcd13ifvqc6g","pricing_plan_id":"cebpf4jnsgd1na2vs0mg"},{"bike_id":"4da2ee06-7b13-453e-a8e5-dbd2b22641f1","system_id":"levelo_inurba_marseille","lat":43.29006,"lon":5.35616,"is_reserved":false,"is_disabled":false,"rental_uris":{"android":"levelo://app?vid=4da2ee06-7b13-453e-a8e5-dbd2b22641f1","ios":"levelo://app?vid=4da2ee06-7b13-453e-a8e5-dbd2b22641f1"},"vehicle_type_id":"4","last_reported":1750356882,"current_range_meters":9200,"station_id":"ce4bhb92rcd13ifvqen0","pricing_plan_id":"cebpf4jnsgd1na2vs0mg"},{"bike_id":"46395a46-4fdd-4ce2-9ca3-97f104b41f4b","system_id":"levelo_inurba_marseille","lat":43.29008,"lon":5.35607,"is_reserved":false,"is_disabled":false,"rental_uris":{"android":"levelo://app?vid=46395a46-4fdd-4ce2-9ca3-97f104b41f4b","ios":"levelo://app?vid=46395a46-4fdd-4ce2-9ca3-97f104b41f4b"},"vehicle_type_id":"4","last_reported":1750356882,"current_range_meters":9200,"station_id":"ce4bhb92rcd13ifvqen0","pricing_plan_id":"cebpf4jnsgd1na2vs0mg"},{"bike_id":"268aafb4-1331-426c-97bc-a7d6564caeb6","system_id":"levelo_inurba_marseille","lat":43.32933,"lon":5.37919,"is_reserved":false,"is_disabled":false,"rental_uris":{"android":"levelo://app?vid=268aafb4-1331-426c-97bc-a7d6564caeb6","ios":"levelo://app?vid=268aafb4-1331-426c-97bc-a7d6564caeb6"},"vehicle_type_id":"4","last_reported":1750356882,"current_range_meters":9600,"station_id":"","pricing_plan_id":"cebpf4jnsgd1na2vs0mg"},{"bike_id":"b4120c9c-b1a6-4c7a-8300-12c924bc2e8f","system_id":"levelo_inurba_marseille","lat":43.30284,"lon":5.37699,"is_reserved":false,"is_disabled":false,"rental_uris":{"android":"levelo://app?vid=b4120c9c-b1a6-4c7a-8300-12c924bc2e8f","ios":"levelo://app?vid=b4120c9c-b1a6-4c7a-8300-12c924bc2e8f"},"vehicle_type_id":"4","last_reported":1750356882,"current_range_meters":9600,"station_id":"ce4bguh2rcd13ifvqcj0","pricing_plan_id":"cebpf4jnsgd1na2vs0mg"},{"bike_id":"4445c95f-4804-4392-9b1c-2bcfafeb29e3","system_id":"levelo_inurba_marseille","lat":43.29024,"lon":5.38135,"is_reserved":false,"is_disabled":false,"rental_uris":{"android":"levelo://app?vid=4445c95f-4804-4392-9b1c-2bcfafeb29e3","ios":"levelo://app?vid=4445c95f-4804-4392-9b1c-2bcfafeb29e3"},"vehicle_type_id":"4","last_reported":1750356882,"current_range_meters":9600,"station_id":"ce4bh4p2rcd13ifvqe1g","pricing_plan_id":"cebpf4jnsgd1na2vs0mg"},{"bike_id":"429d5943-0869-4fac-a3f9-77cf8605f697","system_id":"levelo_inurba_marseille","lat":43.29195,"lon":5.35796,"is_reserved":false,"is_disabled":false,"rental_uris":{"android":"levelo://app?vid=429d5943-0869-4fac-a3f9-77cf8605f697","ios":"levelo://app?vid=429d5943-0869-4fac-a3f9-77cf8605f697"},"vehicle_type_id":"4","last_reported":1750356882,"current_range_meters":9600,"station_id":"ce4bhb12rcd13ifvqel0","pricing_plan_id":"cebpf4jnsgd1na2vs0mg"},{"bike_id":"840d0080-8d5b-4c79-aee1-098fad29e2a1","system_id":"levelo_inurba_marseille","lat":43.28412,"lon":5.34991,"is_reserved":false,"is_disabled":false,"rental_uris":{"android":"levelo://app?vid=840d0080-8d5b-4c79-aee1-098fad29e2a1","ios":"levelo://app?vid=840d0080-8d5b-4c79-aee1-098fad29e2a1"},"vehicle_type_id":"4","last_reported":1750356882,"current_range_meters":9600,"station_id":"ce4bhbh2rcd13ifvqepg","pricing_plan_id":"cebpf4jnsgd1na2vs0mg"},{"bike_id":"3916d2b9-675e-48f6-a5b1-3b54efca7c34","system_id":"levelo_inurba_marseille","lat":43.28408,"lon":5.3499,"is_reserved":false,"is_disabled":false,"rental_uris":{"android":"levelo://app?vid=3916d2b9-675e-48f6-a5b1-3b54efca7c34","ios":"levelo://app?vid=3916d2b9-675e-48f6-a5b1-3b54efca7c34"},"vehicle_type_id":"4","last_reported":1750356882,"current_range_meters":9600,"station_id":"ce4bhbh2rcd13ifvqepg","pricing_plan_id":"cebpf4jnsgd1na2vs0mg"},{"bike_id":"2e84c174-c769-49f6-9e32-4421d18e652a","system_id":"levelo_inurba_marseille","lat":43.266949,"lon":5.382345,"is_reserved":false,"is_disabled":false,"rental_uris":{"android":"levelo://app?vid=2e84c174-c769-49f6-9e32-4421d18e652a","ios":"levelo://app?vid=2e84c174-c769-49f6-9e32-4421d18e652a"},"vehicle_type_id":"4","last_reported":1750356882,"current_range_meters":9600,"station_id":"ce4bhg92rcd13ifvqf90","pricing_plan_id":"cebpf4jnsgd1na2vs0mg"},{"bike_id":"a88744b2-c8f6-4d44-a11b-040fe8ac425f","system_id":"levelo_inurba_marseille","lat":43.26193,"lon":5.37446,"is_reserved":false,"is_disabled":false,"rental_uris":{"android":"levelo://app?vid=a88744b2-c8f6-4d44-a11b-040fe8ac425f","ios":"levelo://app?vid=a88744b2-c8f6-4d44-a11b-040fe8ac425f"},"vehicle_type_id":"4","last_reported":1750356882,"current_range_meters":9600,"station_id":"ce4bhgp2rcd13ifvqfc0","pricing_plan_id":"cebpf4jnsgd1na2vs0mg"},{"bike_id":"e751286d-6ec2-457b-a349-774f52bdea0d","system_id":"levelo_inurba_marseille","lat":43.27318,"lon":5.39086,"is_reserved":false,"is_disabled":false,"rental_uris":{"android":"levelo://app?vid=e751286d-6ec2-457b-a349-774f52bdea0d","ios":"levelo://app?vid=e751286d-6ec2-457b-a349-774f52bdea0d"},"vehicle_type_id":"4","last_reported":1750356882,"current_range_meters":9600,"station_id":"ce4bhgp2rcd13ifvqfe0","pricing_plan_id":"cebpf4jnsgd1na2vs0mg"},{"bike_id":"fe155380-a1d9-4d77-80ad-aca28efe56e0","system_id":"levelo_inurba_marseille","lat":43.23964,"lon":5.36629,"is_reserved":false,"is_disabled":false,"rental_uris":{"android":"levelo://app?vid=fe155380-a1d9-4d77-80ad-aca28efe56e0","ios":"levelo://app?vid=fe155380-a1d9-4d77-80ad-aca28efe56e0"},"vehicle_type_id":"4","last_reported":1750356882,"current_range_meters":9600,"station_id":"ce4bhi12rcd13ifvqfp0","pricing_plan_id":"cebpf4jnsgd1na2vs0mg"},{"bike_id":"6178ed61-750a-4cf2-8e80-9bae6e559ab2","system_id":"levelo_inurba_marseille","lat":43.23963,"lon":5.36632,"is_reserved":false,"is_disabled":false,"rental_uris":{"android":"levelo://app?vid=6178ed61-750a-4cf2-8e80-9bae6e559ab2","ios":"levelo://app?vid=6178ed61-750a-4cf2-8e80-9bae6e559ab2"},"vehicle_type_id":"4","last_reported":1750356882,"current_range_meters":9600,"station_id":"ce4bhi12rcd13ifvqfp0","pricing_plan_id":"cebpf4jnsgd1na2vs0mg"},{"bike_id":"41427841-d839-40c1-81bd-45e69072b2cd","system_id":"levelo_inurba_marseille","lat":43.225,"lon":5.3479,"is_reserved":false,"is_disabled":false,"rental_uris":{"android":"levelo://app?vid=41427841-d839-40c1-81bd-45e69072b2cd","ios":"levelo://app?vid=41427841-d839-40c1-81bd-45e69072b2cd"},"vehicle_type_id":"4","last_reported":1750356882,"current_range_meters":9600,"station_id":"st_cvj5dfep6f1abm77gieg","pricing_plan_id":"cebpf4jnsgd1na2vs0mg"},{"bike_id":"a3c4527d-5fb9-4359-b10f-5933cc338c96","system_id":"levelo_inurba_marseille","lat":43.31166,"lon":5.38719,"is_reserved":false,"is_disabled":false,"rental_uris":{"android":"levelo://app?vid=a3c4527d-5fb9-4359-b10f-5933cc338c96","ios":"levelo://app?vid=a3c4527d-5fb9-4359-b10f-5933cc338c96"},"vehicle_type_id":"4","last_reported":1750356882,"current_range_meters":10000,"station_id":"ce4bgv12rcd13ifvqcp0","pricing_plan_id":"cebpf4jnsgd1na2vs0mg"},{"bike_id":"16919fdc-c86e-4b2d-9c0f-5ab3141acf86","system_id":"levelo_inurba_marseille","lat":43.28417,"lon":5.34991,"is_reserved":false,"is_disabled":false,"rental_uris":{"android":"levelo://app?vid=16919fdc-c86e-4b2d-9c0f-5ab3141acf86","ios":"levelo://app?vid=16919fdc-c86e-4b2d-9c0f-5ab3141acf86"},"vehicle_type_id":"4","last_reported":1750356882,"current_range_meters":10000,"station_id":"ce4bhbh2rcd13ifvqepg","pricing_plan_id":"cebpf4jnsgd1na2vs0mg"},{"bike_id":"954d6509-0ce6-4c83-8c34-12608c2ac639","system_id":"levelo_inurba_marseille","lat":43.28419,"lon":5.34988,"is_reserved":false,"is_disabled":false,"rental_uris":{"android":"levelo://app?vid=954d6509-0ce6-4c83-8c34-12608c2ac639","ios":"levelo://app?vid=954d6509-0ce6-4c83-8c34-12608c2ac639"},"vehicle_type_id":"4","last_reported":1750356882,"current_range_meters":10000,"station_id":"ce4bhbh2rcd13ifvqepg","pricing_plan_id":"cebpf4jnsgd1na2vs0mg"},{"bike_id":"f1b3298a-93ee-4a3e-83a4-b00769c0037d","system_id":"levelo_inurba_marseille","lat":43.28414,"lon":5.34972,"is_reserved":false,"is_disabled":false,"rental_uris":{"android":"levelo://app?vid=f1b3298a-93ee-4a3e-83a4-b00769c0037d","ios":"levelo://app?vid=f1b3298a-93ee-4a3e-83a4-b00769c0037d"},"vehicle_type_id":"4","last_reported":1750356882,"current_range_meters":10000,"station_id":"ce4bhbh2rcd13ifvqepg","pricing_plan_id":"cebpf4jnsgd1na2vs0mg"},{"bike_id":"0bcb59f4-d000-42ee-8426-b4d91d77ebbc","system_id":"levelo_inurba_marseille","lat":43.25821,"lon":5.39422,"is_reserved":false,"is_disabled":false,"rental_uris":{"android":"levelo://app?vid=0bcb59f4-d000-42ee-8426-b4d91d77ebbc","ios":"levelo://app?vid=0bcb59f4-d000-42ee-8426-b4d91d77ebbc"},"vehicle_type_id":"4","last_reported":1750356882,"current_range_meters":10000,"station_id":"ce4bhip2rcd13ifvqft0","pricing_plan_id":"cebpf4jnsgd1na2vs0mg"},{"bike_id":"5d0ba06c-f6b1-434d-b9bf-f40948d4b20b","system_id":"levelo_inurba_marseille","lat":43.2861,"lon":5.37066,"is_reserved":false,"is_disabled":false,"rental_uris":{"android":"levelo://app?vid=5d0ba06c-f6b1-434d-b9bf-f40948d4b20b","ios":"levelo://app?vid=5d0ba06c-f6b1-434d-b9bf-f40948d4b20b"},"vehicle_type_id":"4","last_reported":1750356882,"current_range_meters":10000,"station_id":"ce4bht12rcd13ifvqi60","pricing_plan_id":"cebpf4jnsgd1na2vs0mg"},{"bike_id":"f025e0b0-8595-426c-b214-cb9b74c5fcfd","system_id":"levelo_inurba_marseille","lat":43.32198,"lon":5.40573,"is_reserved":false,"is_disabled":false,"rental_uris":{"android":"levelo://app?vid=f025e0b0-8595-426c-b214-cb9b74c5fcfd","ios":"levelo://app?vid=f025e0b0-8595-426c-b214-cb9b74c5fcfd"},"vehicle_type_id":"4","last_reported":1750356882,"current_range_meters":10800,"station_id":"","pricing_plan_id":"cebpf4jnsgd1na2vs0mg"},{"bike_id":"6d9576a5-cb1c-4708-9646-c0cb01350f45","system_id":"levelo_inurba_marseille","lat":43.272066,"lon":5.391823,"is_reserved":false,"is_disabled":false,"rental_uris":{"android":"levelo://app?vid=6d9576a5-cb1c-4708-9646-c0cb01350f45","ios":"levelo://app?vid=6d9576a5-cb1c-4708-9646-c0cb01350f45"},"vehicle_type_id":"4","last_reported":1750356882,"current_range_meters":10800,"station_id":"","pricing_plan_id":"cebpf4jnsgd1na2vs0mg"},{"bike_id":"534efeb1-9846-4aee-8130-df4d28e740dd","system_id":"levelo_inurba_marseille","lat":43.29817,"lon":5.41596,"is_reserved":false,"is_disabled":false,"rental_uris":{"android":"levelo://app?vid=534efeb1-9846-4aee-8130-df4d28e740dd","ios":"levelo://app?vid=534efeb1-9846-4aee-8130-df4d28e740dd"},"vehicle_type_id":"4","last_reported":1750356882,"current_range_meters":10800,"station_id":"","pricing_plan_id":"cebpf4jnsgd1na2vs0mg"},{"bike_id":"56fdfc4e-979c-4ed5-9885-57018d76de79","system_id":"levelo_inurba_marseille","lat":43.29374,"lon":5.42862,"is_reserved":false,"is_disabled":false,"rental_uris":{"android":"levelo://app?vid=56fdfc4e-979c-4ed5-9885-57018d76de79","ios":"levelo://app?vid=56fdfc4e-979c-4ed5-9885-57018d76de79"},"vehicle_type_id":"4","last_reported":1750356882,"current_range_meters":10800,"station_id":"","pricing_plan_id":"cebpf4jnsgd1na2vs0mg"},{"bike_id":"934dd5af-2af2-4d40-8229-6406ea8747cf","system_id":"levelo_inurba_marseille","lat":43.28999,"lon":5.35603,"is_reserved":false,"is_disabled":false,"rental_uris":{"android":"levelo://app?vid=934dd5af-2af2-4d40-8229-6406ea8747cf","ios":"levelo://app?vid=934dd5af-2af2-4d40-8229-6406ea8747cf"},"vehicle_type_id":"4","last_reported":1750356882,"current_range_meters":10800,"station_id":"ce4bhb92rcd13ifvqen0","pricing_plan_id":"cebpf4jnsgd1na2vs0mg"},{"bike_id":"1a96aed9-5b44-4fac-92b5-af664d35ef0b","system_id":"levelo_inurba_marseille","lat":43.28413,"lon":5.3499,"is_reserved":false,"is_disabled":false,"rental_uris":{"android":"levelo://app?vid=1a96aed9-5b44-4fac-92b5-af664d35ef0b","ios":"levelo://app?vid=1a96aed9-5b44-4fac-92b5-af664d35ef0b"},"vehicle_type_id":"4","last_reported":1750356882,"current_range_meters":10800,"station_id":"ce4bhbh2rcd13ifvqepg","pricing_plan_id":"cebpf4jnsgd1na2vs0mg"},{"bike_id":"c0daaa48-470d-4238-9188-91b951f3a1d4","system_id":"levelo_inurba_marseille","lat":43.28649,"lon":5.35062,"is_reserved":false,"is_disabled":false,"rental_uris":{"android":"levelo://app?vid=c0daaa48-470d-4238-9188-91b951f3a1d4","ios":"levelo://app?vid=c0daaa48-470d-4238-9188-91b951f3a1d4"},"vehicle_type_id":"4","last_reported":1750356882,"current_range_meters":10800,"station_id":"ce4bhch2rcd13ifvqeug","pricing_plan_id":"cebpf4jnsgd1na2vs0mg"},{"bike_id":"ba8dee4f-3bb9-4932-82b6-fdd500c0fa0c","system_id":"levelo_inurba_marseille","lat":43.23964,"lon":5.36628,"is_reserved":false,"is_disabled":false,"rental_uris":{"android":"levelo://app?vid=ba8dee4f-3bb9-4932-82b6-fdd500c0fa0c","ios":"levelo://app?vid=ba8dee4f-3bb9-4932-82b6-fdd500c0fa0c"},"vehicle_type_id":"4","last_reported":1750356882,"current_range_meters":10800,"station_id":"ce4bhi12rcd13ifvqfp0","pricing_plan_id":"cebpf4jnsgd1na2vs0mg"},{"bike_id":"d39c3ca2-88f6-4c8b-910a-b96aaa7b76fa","system_id":"levelo_inurba_marseille","lat":43.29607,"lon":5.381,"is_reserved":false,"is_disabled":false,"rental_uris":{"android":"levelo://app?vid=d39c3ca2-88f6-4c8b-910a-b96aaa7b76fa","ios":"levelo://app?vid=d39c3ca2-88f6-4c8b-910a-b96aaa7b76fa"},"vehicle_type_id":"4","last_reported":1750356882,"current_range_meters":11200,"station_id":"ce4bgl12rcd13ifvqbo0","pricing_plan_id":"cebpf4jnsgd1na2vs0mg"},{"bike_id":"d6c8cc77-3cf5-4614-92f7-f843e1f78ac1","system_id":"levelo_inurba_marseille","lat":43.2863,"lon":5.35083,"is_reserved":false,"is_disabled":false,"rental_uris":{"android":"levelo://app?vid=d6c8cc77-3cf5-4614-92f7-f843e1f78ac1","ios":"levelo://app?vid=d6c8cc77-3cf5-4614-92f7-f843e1f78ac1"},"vehicle_type_id":"4","last_reported":1750356882,"current_range_meters":11200,"station_id":"ce4bhch2rcd13ifvqeug","pricing_plan_id":"cebpf4jnsgd1na2vs0mg"},{"bike_id":"6ff3112f-0f9d-4b19-95cb-9bb8127f47c5","system_id":"levelo_inurba_marseille","lat":43.243906,"lon":5.370489,"is_reserved":false,"is_disabled":false,"rental_uris":{"android":"levelo://app?vid=6ff3112f-0f9d-4b19-95cb-9bb8127f47c5","ios":"levelo://app?vid=6ff3112f-0f9d-4b19-95cb-9bb8127f47c5"},"vehicle_type_id":"4","last_reported":1750356882,"current_range_meters":11200,"station_id":"ce4bhhh2rcd13ifvqfk0","pricing_plan_id":"cebpf4jnsgd1na2vs0mg"},{"bike_id":"ba2583fe-b5c4-4a30-9782-6c8b10ef5bbd","system_id":"levelo_inurba_marseille","lat":43.2175,"lon":5.34591,"is_reserved":false,"is_disabled":false,"rental_uris":{"android":"levelo://app?vid=ba2583fe-b5c4-4a30-9782-6c8b10ef5bbd","ios":"levelo://app?vid=ba2583fe-b5c4-4a30-9782-6c8b10ef5bbd"},"vehicle_type_id":"4","last_reported":1750356882,"current_range_meters":11600,"station_id":"st_cvj6r9ubvosntc0bgbag","pricing_plan_id":"cebpf4jnsgd1na2vs0mg"},{"bike_id":"2c555767-5c9b-4c10-a745-6bbf5ccfa066","system_id":"levelo_inurba_marseille","lat":43.25394,"lon":5.37619,"is_reserved":false,"is_disabled":false,"rental_uris":{"android":"levelo://app?vid=2c555767-5c9b-4c10-a745-6bbf5ccfa066","ios":"levelo://app?vid=2c555767-5c9b-4c10-a745-6bbf5ccfa066"},"vehicle_type_id":"4","last_reported":1750356882,"current_range_meters":12000,"station_id":"","pricing_plan_id":"cebpf4jnsgd1na2vs0mg"},{"bike_id":"3d4f3863-58ba-41fd-8961-8ebcd1e7fbf3","system_id":"levelo_inurba_marseille","lat":43.24546,"lon":5.39523,"is_reserved":false,"is_disabled":false,"rental_uris":{"android":"levelo://app?vid=3d4f3863-58ba-41fd-8961-8ebcd1e7fbf3","ios":"levelo://app?vid=3d4f3863-58ba-41fd-8961-8ebcd1e7fbf3"},"vehicle_type_id":"4","last_reported":1750356882,"current_range_meters":12000,"station_id":"ce4bhlp2rcd13ifvqgjg","pricing_plan_id":"cebpf4jnsgd1na2vs0mg"},{"bike_id":"06de5b33-9814-46e9-821d-f6794db63778","system_id":"levelo_inurba_marseille","lat":43.27375,"lon":5.36248,"is_reserved":false,"is_disabled":false,"rental_uris":{"android":"levelo://app?vid=06de5b33-9814-46e9-821d-f6794db63778","ios":"levelo://app?vid=06de5b33-9814-46e9-821d-f6794db63778"},"vehicle_type_id":"4","last_reported":1750356882,"current_range_meters":12400,"station_id":"ce4bhbh2rcd13ifvqeo0","pricing_plan_id":"cebpf4jnsgd1na2vs0mg"},{"bike_id":"df77b6d2-6834-4a44-a94b-20f11853c902","system_id":"levelo_inurba_marseille","lat":43.28421,"lon":5.34992,"is_reserved":false,"is_disabled":false,"rental_uris":{"android":"levelo://app?vid=df77b6d2-6834-4a44-a94b-20f11853c902","ios":"levelo://app?vid=df77b6d2-6834-4a44-a94b-20f11853c902"},"vehicle_type_id":"4","last_reported":1750356882,"current_range_meters":12400,"station_id":"ce4bhbh2rcd13ifvqepg","pricing_plan_id":"cebpf4jnsgd1na2vs0mg"},{"bike_id":"2e1ff7ef-74b8-4030-b622-53a1e155146a","system_id":"levelo_inurba_marseille","lat":43.26213,"lon":5.37442,"is_reserved":false,"is_disabled":false,"rental_uris":{"android":"levelo://app?vid=2e1ff7ef-74b8-4030-b622-53a1e155146a","ios":"levelo://app?vid=2e1ff7ef-74b8-4030-b622-53a1e155146a"},"vehicle_type_id":"4","last_reported":1750356882,"current_range_meters":12400,"station_id":"ce4bhgp2rcd13ifvqfc0","pricing_plan_id":"cebpf4jnsgd1na2vs0mg"},{"bike_id":"feea9c0b-131e-4bbd-b0c9-76affbbc287a","system_id":"levelo_inurba_marseille","lat":43.26803,"lon":5.40274,"is_reserved":false,"is_disabled":false,"rental_uris":{"android":"levelo://app?vid=feea9c0b-131e-4bbd-b0c9-76affbbc287a","ios":"levelo://app?vid=feea9c0b-131e-4bbd-b0c9-76affbbc287a"},"vehicle_type_id":"4","last_reported":1750356882,"current_range_meters":12400,"station_id":"ce501612rcd8frsf0b60","pricing_plan_id":"cebpf4jnsgd1na2vs0mg"},{"bike_id":"4e843060-018f-4f9f-97c4-3e11f372dca1","system_id":"levelo_inurba_marseille","lat":43.24798,"lon":5.41168,"is_reserved":false,"is_disabled":false,"rental_uris":{"android":"levelo://app?vid=4e843060-018f-4f9f-97c4-3e11f372dca1","ios":"levelo://app?vid=4e843060-018f-4f9f-97c4-3e11f372dca1"},"vehicle_type_id":"4","last_reported":1750356882,"current_range_meters":12800,"station_id":"","pricing_plan_id":"cebpf4jnsgd1na2vs0mg"},{"bike_id":"6798194d-3627-466f-8b01-032db47f4187","system_id":"levelo_inurba_marseille","lat":43.286996,"lon":5.373773,"is_reserved":false,"is_disabled":false,"rental_uris":{"android":"levelo://app?vid=6798194d-3627-466f-8b01-032db47f4187","ios":"levelo://app?vid=6798194d-3627-466f-8b01-032db47f4187"},"vehicle_type_id":"4","last_reported":1750356882,"current_range_meters":12800,"station_id":"ce4bh3p2rcd13ifvqdq0","pricing_plan_id":"cebpf4jnsgd1na2vs0mg"},{"bike_id":"70083776-afc4-42b4-8ebe-95815720e050","system_id":"levelo_inurba_marseille","lat":43.28392,"lon":5.34971,"is_reserved":false,"is_disabled":false,"rental_uris":{"android":"levelo://app?vid=70083776-afc4-42b4-8ebe-95815720e050","ios":"levelo://app?vid=70083776-afc4-42b4-8ebe-95815720e050"},"vehicle_type_id":"4","last_reported":1750356882,"current_range_meters":12800,"station_id":"ce4bhbh2rcd13ifvqepg","pricing_plan_id":"cebpf4jnsgd1na2vs0mg"},{"bike_id":"45000bc8-2d01-4663-9acb-df24dd692fa1","system_id":"levelo_inurba_marseille","lat":43.29969,"lon":5.38501,"is_reserved":false,"is_disabled":false,"rental_uris":{"android":"levelo://app?vid=45000bc8-2d01-4663-9acb-df24dd692fa1","ios":"levelo://app?vid=45000bc8-2d01-4663-9acb-df24dd692fa1"},"vehicle_type_id":"4","last_reported":1750356882,"current_range_meters":13600,"station_id":"ce4bgj92rcd13ifvqbd0","pricing_plan_id":"cebpf4jnsgd1na2vs0mg"},{"bike_id":"40a6cd51-aa86-46ca-98b6-d8b5d50b3ce7","system_id":"levelo_inurba_marseille","lat":43.31161,"lon":5.38713,"is_reserved":false,"is_disabled":false,"rental_uris":{"android":"levelo://app?vid=40a6cd51-aa86-46ca-98b6-d8b5d50b3ce7","ios":"levelo://app?vid=40a6cd51-aa86-46ca-98b6-d8b5d50b3ce7"},"vehicle_type_id":"4","last_reported":1750356882,"current_range_meters":13600,"station_id":"ce4bgv12rcd13ifvqcp0","pricing_plan_id":"cebpf4jnsgd1na2vs0mg"},{"bike_id":"ca22fa2e-c6e3-4f47-bb16-6f7833f5306c","system_id":"levelo_inurba_marseille","lat":43.28408,"lon":5.34995,"is_reserved":false,"is_disabled":false,"rental_uris":{"android":"levelo://app?vid=ca22fa2e-c6e3-4f47-bb16-6f7833f5306c","ios":"levelo://app?vid=ca22fa2e-c6e3-4f47-bb16-6f7833f5306c"},"vehicle_type_id":"4","last_reported":1750356882,"current_range_meters":13600,"station_id":"ce4bhbh2rcd13ifvqepg","pricing_plan_id":"cebpf4jnsgd1na2vs0mg"},{"bike_id":"e7eabd8f-40c3-4451-8d37-862201a8aba6","system_id":"levelo_inurba_marseille","lat":43.28433,"lon":5.34998,"is_reserved":false,"is_disabled":false,"rental_uris":{"android":"levelo://app?vid=e7eabd8f-40c3-4451-8d37-862201a8aba6","ios":"levelo://app?vid=e7eabd8f-40c3-4451-8d37-862201a8aba6"},"vehicle_type_id":"4","last_reported":1750356882,"current_range_meters":13600,"station_id":"ce4bhbh2rcd13ifvqepg","pricing_plan_id":"cebpf4jnsgd1na2vs0mg"},{"bike_id":"83e70d00-3bef-4f45-a076-9d0dc97a73f9","system_id":"levelo_inurba_marseille","lat":43.28263,"lon":5.35071,"is_reserved":false,"is_disabled":false,"rental_uris":{"android":"levelo://app?vid=83e70d00-3bef-4f45-a076-9d0dc97a73f9","ios":"levelo://app?vid=83e70d00-3bef-4f45-a076-9d0dc97a73f9"},"vehicle_type_id":"4","last_reported":1750356882,"current_range_meters":13600,"station_id":"ce4bhbp2rcd13ifvqerg","pricing_plan_id":"cebpf4jnsgd1na2vs0mg"},{"bike_id":"ebe57c13-e1cb-404b-84d4-2859dde7b8d7","system_id":"levelo_inurba_marseille","lat":43.24801,"lon":5.37445,"is_reserved":false,"is_disabled":false,"rental_uris":{"android":"levelo://app?vid=ebe57c13-e1cb-404b-84d4-2859dde7b8d7","ios":"levelo://app?vid=ebe57c13-e1cb-404b-84d4-2859dde7b8d7"},"vehicle_type_id":"4","last_reported":1750356882,"current_range_meters":14000,"station_id":"ce4bhgh2rcd13ifvqfb0","pricing_plan_id":"cebpf4jnsgd1na2vs0mg"},{"bike_id":"abb01f2e-5222-4a09-8518-9fd8e805a0b7","system_id":"levelo_inurba_marseille","lat":43.29895,"lon":5.43671,"is_reserved":false,"is_disabled":false,"rental_uris":{"android":"levelo://app?vid=abb01f2e-5222-4a09-8518-9fd8e805a0b7","ios":"levelo://app?vid=abb01f2e-5222-4a09-8518-9fd8e805a0b7"},"vehicle_type_id":"4","last_reported":1750356882,"current_range_meters":14000,"station_id":"ce4bhpp2rcd13ifvqhfg","pricing_plan_id":"cebpf4jnsgd1na2vs0mg"},{"bike_id":"5b43db9d-b35a-477e-af1d-a0f3964d74db","system_id":"levelo_inurba_marseille","lat":43.33031,"lon":5.39051,"is_reserved":false,"is_disabled":false,"rental_uris":{"android":"levelo://app?vid=5b43db9d-b35a-477e-af1d-a0f3964d74db","ios":"levelo://app?vid=5b43db9d-b35a-477e-af1d-a0f3964d74db"},"vehicle_type_id":"4","last_reported":1750356882,"current_range_meters":14000,"station_id":"ce4bhr92rcd13ifvqhrg","pricing_plan_id":"cebpf4jnsgd1na2vs0mg"},{"bike_id":"4840f739-2d9a-4e6f-94cc-cdc9e82caab7","system_id":"levelo_inurba_marseille","lat":43.23065,"lon":5.35501,"is_reserved":false,"is_disabled":false,"rental_uris":{"android":"levelo://app?vid=4840f739-2d9a-4e6f-94cc-cdc9e82caab7","ios":"levelo://app?vid=4840f739-2d9a-4e6f-94cc-cdc9e82caab7"},"vehicle_type_id":"4","last_reported":1750356882,"current_range_meters":14000,"station_id":"cpo3342slgdg3j2ifvpg","pricing_plan_id":"cebpf4jnsgd1na2vs0mg"},{"bike_id":"d9b2950a-cd4b-488f-8f1a-b2421b953666","system_id":"levelo_inurba_marseille","lat":43.31471,"lon":5.39235,"is_reserved":false,"is_disabled":false,"rental_uris":{"android":"levelo://app?vid=d9b2950a-cd4b-488f-8f1a-b2421b953666","ios":"levelo://app?vid=d9b2950a-cd4b-488f-8f1a-b2421b953666"},"vehicle_type_id":"4","last_reported":1750356882,"current_range_meters":14400,"station_id":"","pricing_plan_id":"cebpf4jnsgd1na2vs0mg"},{"bike_id":"a6fe0ec7-64ea-4b18-8695-9b78b78fc37d","system_id":"levelo_inurba_marseille","lat":43.27374,"lon":5.36253,"is_reserved":false,"is_disabled":false,"rental_uris":{"android":"levelo://app?vid=a6fe0ec7-64ea-4b18-8695-9b78b78fc37d","ios":"levelo://app?vid=a6fe0ec7-64ea-4b18-8695-9b78b78fc37d"},"vehicle_type_id":"4","last_reported":1750356882,"current_range_meters":14400,"station_id":"ce4bhbh2rcd13ifvqeo0","pricing_plan_id":"cebpf4jnsgd1na2vs0mg"},{"bike_id":"7509872b-e69f-4c65-8be1-db556f20f37b","system_id":"levelo_inurba_marseille","lat":43.286102,"lon":5.351052,"is_reserved":false,"is_disabled":false,"rental_uris":{"android":"levelo://app?vid=7509872b-e69f-4c65-8be1-db556f20f37b","ios":"levelo://app?vid=7509872b-e69f-4c65-8be1-db556f20f37b"},"vehicle_type_id":"4","last_reported":1750356882,"current_range_meters":14800,"station_id":"","pricing_plan_id":"cebpf4jnsgd1na2vs0mg"},{"bike_id":"60563cbb-9061-4006-8e41-2def95d43c6c","system_id":"levelo_inurba_marseille","lat":43.32726,"lon":5.39596,"is_reserved":false,"is_disabled":false,"rental_uris":{"android":"levelo://app?vid=60563cbb-9061-4006-8e41-2def95d43c6c","ios":"levelo://app?vid=60563cbb-9061-4006-8e41-2def95d43c6c"},"vehicle_type_id":"4","last_reported":1750356882,"current_range_meters":14800,"station_id":"","pricing_plan_id":"cebpf4jnsgd1na2vs0mg"},{"bike_id":"42a4548a-1b89-4f2f-96af-4c1887043eee","system_id":"levelo_inurba_marseille","lat":43.27375,"lon":5.3625,"is_reserved":false,"is_disabled":false,"rental_uris":{"android":"levelo://app?vid=42a4548a-1b89-4f2f-96af-4c1887043eee","ios":"levelo://app?vid=42a4548a-1b89-4f2f-96af-4c1887043eee"},"vehicle_type_id":"4","last_reported":1750356882,"current_range_meters":14800,"station_id":"ce4bhbh2rcd13ifvqeo0","pricing_plan_id":"cebpf4jnsgd1na2vs0mg"},{"bike_id":"612bf2c8-a7dc-44ea-b7ce-e813a5d9813c","system_id":"levelo_inurba_marseille","lat":43.26554,"lon":5.37288,"is_reserved":false,"is_disabled":false,"rental_uris":{"android":"levelo://app?vid=612bf2c8-a7dc-44ea-b7ce-e813a5d9813c","ios":"levelo://app?vid=612bf2c8-a7dc-44ea-b7ce-e813a5d9813c"},"vehicle_type_id":"4","last_reported":1750356882,"current_range_meters":14800,"station_id":"ce4bhg12rcd13ifvqf70","pricing_plan_id":"cebpf4jnsgd1na2vs0mg"},{"bike_id":"929c4302-9868-4a74-b3b4-93cc1bfb404c","system_id":"levelo_inurba_marseille","lat":43.291024,"lon":5.383244,"is_reserved":false,"is_disabled":false,"rental_uris":{"android":"levelo://app?vid=929c4302-9868-4a74-b3b4-93cc1bfb404c","ios":"levelo://app?vid=929c4302-9868-4a74-b3b4-93cc1bfb404c"},"vehicle_type_id":"4","last_reported":1750356882,"current_range_meters":15200,"station_id":"ce4bgj92rcd13ifvqbd0","pricing_plan_id":"cebpf4jnsgd1na2vs0mg"},{"bike_id":"499684b5-2ebd-4273-b39e-d4b95373f0a0","system_id":"levelo_inurba_marseille","lat":43.276154,"lon":5.36102,"is_reserved":false,"is_disabled":false,"rental_uris":{"android":"levelo://app?vid=499684b5-2ebd-4273-b39e-d4b95373f0a0","ios":"levelo://app?vid=499684b5-2ebd-4273-b39e-d4b95373f0a0"},"vehicle_type_id":"4","last_reported":1750356882,"current_range_meters":15200,"station_id":"ce4bgj92rcd13ifvqbe0","pricing_plan_id":"cebpf4jnsgd1na2vs0mg"},{"bike_id":"ffe8067f-ca30-4a27-b689-fd73e2978b94","system_id":"levelo_inurba_marseille","lat":43.26502,"lon":5.39541,"is_reserved":false,"is_disabled":false,"rental_uris":{"android":"levelo://app?vid=ffe8067f-ca30-4a27-b689-fd73e2978b94","ios":"levelo://app?vid=ffe8067f-ca30-4a27-b689-fd73e2978b94"},"vehicle_type_id":"4","last_reported":1750356882,"current_range_meters":15200,"station_id":"ce4bhi12rcd13ifvqfq0","pricing_plan_id":"cebpf4jnsgd1na2vs0mg"},{"bike_id":"9d29ab27-d960-47e6-bbfa-db9577e98425","system_id":"levelo_inurba_marseille","lat":43.28723,"lon":5.36095,"is_reserved":false,"is_disabled":false,"rental_uris":{"android":"levelo://app?vid=9d29ab27-d960-47e6-bbfa-db9577e98425","ios":"levelo://app?vid=9d29ab27-d960-47e6-bbfa-db9577e98425"},"vehicle_type_id":"4","last_reported":1750356882,"current_range_meters":15200,"station_id":"cki0cbj6b192h4jlfktg","pricing_plan_id":"cebpf4jnsgd1na2vs0mg"},{"bike_id":"f7574965-0667-4f3b-90e2-276750d028f1","system_id":"levelo_inurba_marseille","lat":43.33109,"lon":5.38249,"is_reserved":false,"is_disabled":false,"rental_uris":{"android":"levelo://app?vid=f7574965-0667-4f3b-90e2-276750d028f1","ios":"levelo://app?vid=f7574965-0667-4f3b-90e2-276750d028f1"},"vehicle_type_id":"4","last_reported":1750356882,"current_range_meters":16000,"station_id":"","pricing_plan_id":"cebpf4jnsgd1na2vs0mg"},{"bike_id":"df302568-acb4-4116-bc71-8136d0e95c3f","system_id":"levelo_inurba_marseille","lat":43.31752,"lon":5.375266,"is_reserved":false,"is_disabled":false,"rental_uris":{"android":"levelo://app?vid=df302568-acb4-4116-bc71-8136d0e95c3f","ios":"levelo://app?vid=df302568-acb4-4116-bc71-8136d0e95c3f"},"vehicle_type_id":"4","last_reported":1750356882,"current_range_meters":16000,"station_id":"ce4bgth2rcd13ifvqch0","pricing_plan_id":"cebpf4jnsgd1na2vs0mg"},{"bike_id":"fe75accb-bd3a-4946-b9b9-4541e6661814","system_id":"levelo_inurba_marseille","lat":43.2738,"lon":5.36259,"is_reserved":false,"is_disabled":false,"rental_uris":{"android":"levelo://app?vid=fe75accb-bd3a-4946-b9b9-4541e6661814","ios":"levelo://app?vid=fe75accb-bd3a-4946-b9b9-4541e6661814"},"vehicle_type_id":"4","last_reported":1750356882,"current_range_meters":16000,"station_id":"ce4bhbh2rcd13ifvqeo0","pricing_plan_id":"cebpf4jnsgd1na2vs0mg"},{"bike_id":"5c17f474-67ea-463c-abb4-6621c8a461db","system_id":"levelo_inurba_marseille","lat":43.28408,"lon":5.34993,"is_reserved":false,"is_disabled":false,"rental_uris":{"android":"levelo://app?vid=5c17f474-67ea-463c-abb4-6621c8a461db","ios":"levelo://app?vid=5c17f474-67ea-463c-abb4-6621c8a461db"},"vehicle_type_id":"4","last_reported":1750356882,"current_range_meters":16000,"station_id":"ce4bhbh2rcd13ifvqepg","pricing_plan_id":"cebpf4jnsgd1na2vs0mg"},{"bike_id":"54bbaa15-050c-4526-b172-09f06af97620","system_id":"levelo_inurba_marseille","lat":43.2841,"lon":5.34993,"is_reserved":false,"is_disabled":false,"rental_uris":{"android":"levelo://app?vid=54bbaa15-050c-4526-b172-09f06af97620","ios":"levelo://app?vid=54bbaa15-050c-4526-b172-09f06af97620"},"vehicle_type_id":"4","last_reported":1750356882,"current_range_meters":16000,"station_id":"ce4bhbh2rcd13ifvqepg","pricing_plan_id":"cebpf4jnsgd1na2vs0mg"},{"bike_id":"047668a4-56cb-4067-b536-e75e1833a74a","system_id":"levelo_inurba_marseille","lat":43.23195,"lon":5.35566,"is_reserved":false,"is_disabled":false,"rental_uris":{"android":"levelo://app?vid=047668a4-56cb-4067-b536-e75e1833a74a","ios":"levelo://app?vid=047668a4-56cb-4067-b536-e75e1833a74a"},"vehicle_type_id":"4","last_reported":1750356882,"current_range_meters":16000,"station_id":"ce4bhu92rcd13ifvqi70","pricing_plan_id":"cebpf4jnsgd1na2vs0mg"},{"bike_id":"dc39e9df-7330-4303-9cdd-6bb46e47798c","system_id":"levelo_inurba_marseille","lat":43.23062,"lon":5.35487,"is_reserved":false,"is_disabled":false,"rental_uris":{"android":"levelo://app?vid=dc39e9df-7330-4303-9cdd-6bb46e47798c","ios":"levelo://app?vid=dc39e9df-7330-4303-9cdd-6bb46e47798c"},"vehicle_type_id":"4","last_reported":1750356882,"current_range_meters":16000,"station_id":"cpo3342slgdg3j2ifvpg","pricing_plan_id":"cebpf4jnsgd1na2vs0mg"},{"bike_id":"9162aec5-32f1-41f4-9d5c-800317a33990","system_id":"levelo_inurba_marseille","lat":43.29009,"lon":5.35608,"is_reserved":false,"is_disabled":false,"rental_uris":{"android":"levelo://app?vid=9162aec5-32f1-41f4-9d5c-800317a33990","ios":"levelo://app?vid=9162aec5-32f1-41f4-9d5c-800317a33990"},"vehicle_type_id":"4","last_reported":1750356882,"current_range_meters":16400,"station_id":"ce4bhb92rcd13ifvqen0","pricing_plan_id":"cebpf4jnsgd1na2vs0mg"},{"bike_id":"4447f6d0-e11d-4e77-b2aa-3af0cbdb515f","system_id":"levelo_inurba_marseille","lat":43.2841,"lon":5.34999,"is_reserved":false,"is_disabled":false,"rental_uris":{"android":"levelo://app?vid=4447f6d0-e11d-4e77-b2aa-3af0cbdb515f","ios":"levelo://app?vid=4447f6d0-e11d-4e77-b2aa-3af0cbdb515f"},"vehicle_type_id":"4","last_reported":1750356882,"current_range_meters":16400,"station_id":"ce4bhbh2rcd13ifvqepg","pricing_plan_id":"cebpf4jnsgd1na2vs0mg"},{"bike_id":"adaeb88f-f9fe-467d-a342-0c5166479803","system_id":"levelo_inurba_marseille","lat":43.28611,"lon":5.35099,"is_reserved":false,"is_disabled":false,"rental_uris":{"android":"levelo://app?vid=adaeb88f-f9fe-467d-a342-0c5166479803","ios":"levelo://app?vid=adaeb88f-f9fe-467d-a342-0c5166479803"},"vehicle_type_id":"4","last_reported":1750356882,"current_range_meters":16400,"station_id":"ce4bhch2rcd13ifvqeug","pricing_plan_id":"cebpf4jnsgd1na2vs0mg"},{"bike_id":"7e65b096-aa08-41c8-9b2a-e94078d8b578","system_id":"levelo_inurba_marseille","lat":43.2119,"lon":5.35075,"is_reserved":false,"is_disabled":false,"rental_uris":{"android":"levelo://app?vid=7e65b096-aa08-41c8-9b2a-e94078d8b578","ios":"levelo://app?vid=7e65b096-aa08-41c8-9b2a-e94078d8b578"},"vehicle_type_id":"4","last_reported":1750356882,"current_range_meters":16400,"station_id":"st_cvj6sg6p6f1abm77japg","pricing_plan_id":"cebpf4jnsgd1na2vs0mg"},{"bike_id":"3c187be4-0017-40c8-900c-6377235516c6","system_id":"levelo_inurba_marseille","lat":43.3014,"lon":5.38786,"is_reserved":false,"is_disabled":false,"rental_uris":{"android":"levelo://app?vid=3c187be4-0017-40c8-900c-6377235516c6","ios":"levelo://app?vid=3c187be4-0017-40c8-900c-6377235516c6"},"vehicle_type_id":"4","last_reported":1750356882,"current_range_meters":16800,"station_id":"ce4bghh2rcd13ifvqb60","pricing_plan_id":"cebpf4jnsgd1na2vs0mg"},{"bike_id":"83c899d2-570e-43d7-8a33-782e584c49fc","system_id":"levelo_inurba_marseille","lat":43.28416,"lon":5.34989,"is_reserved":false,"is_disabled":false,"rental_uris":{"android":"levelo://app?vid=83c899d2-570e-43d7-8a33-782e584c49fc","ios":"levelo://app?vid=83c899d2-570e-43d7-8a33-782e584c49fc"},"vehicle_type_id":"4","last_reported":1750356882,"current_range_meters":16800,"station_id":"ce4bhbh2rcd13ifvqepg","pricing_plan_id":"cebpf4jnsgd1na2vs0mg"},{"bike_id":"b0efb788-1e81-4305-a92c-82afe472350f","system_id":"levelo_inurba_marseille","lat":43.26548,"lon":5.37289,"is_reserved":false,"is_disabled":false,"rental_uris":{"android":"levelo://app?vid=b0efb788-1e81-4305-a92c-82afe472350f","ios":"levelo://app?vid=b0efb788-1e81-4305-a92c-82afe472350f"},"vehicle_type_id":"4","last_reported":1750356882,"current_range_meters":16800,"station_id":"ce4bhg12rcd13ifvqf70","pricing_plan_id":"cebpf4jnsgd1na2vs0mg"},{"bike_id":"60fbb379-1db5-47b0-b9f4-d2194e8f31a7","system_id":"levelo_inurba_marseille","lat":43.24805,"lon":5.37457,"is_reserved":false,"is_disabled":false,"rental_uris":{"android":"levelo://app?vid=60fbb379-1db5-47b0-b9f4-d2194e8f31a7","ios":"levelo://app?vid=60fbb379-1db5-47b0-b9f4-d2194e8f31a7"},"vehicle_type_id":"4","last_reported":1750356882,"current_range_meters":16800,"station_id":"ce4bhgh2rcd13ifvqfb0","pricing_plan_id":"cebpf4jnsgd1na2vs0mg"},{"bike_id":"6b0821b9-eaf0-452c-8f43-c8a53434f65f","system_id":"levelo_inurba_marseille","lat":43.30801,"lon":5.4353,"is_reserved":false,"is_disabled":false,"rental_uris":{"android":"levelo://app?vid=6b0821b9-eaf0-452c-8f43-c8a53434f65f","ios":"levelo://app?vid=6b0821b9-eaf0-452c-8f43-c8a53434f65f"},"vehicle_type_id":"4","last_reported":1750356882,"current_range_meters":16800,"station_id":"ce4bhph2rcd13ifvqheg","pricing_plan_id":"cebpf4jnsgd1na2vs0mg"},{"bike_id":"02446148-c9f7-4f78-b18f-149730da9a75","system_id":"levelo_inurba_marseille","lat":43.2321,"lon":5.35546,"is_reserved":false,"is_disabled":false,"rental_uris":{"android":"levelo://app?vid=02446148-c9f7-4f78-b18f-149730da9a75","ios":"levelo://app?vid=02446148-c9f7-4f78-b18f-149730da9a75"},"vehicle_type_id":"4","last_reported":1750356882,"current_range_meters":16800,"station_id":"ce4bhu92rcd13ifvqi70","pricing_plan_id":"cebpf4jnsgd1na2vs0mg"},{"bike_id":"7f448af5-c33f-44b2-b7ed-f808a1034d2e","system_id":"levelo_inurba_marseille","lat":43.27617,"lon":5.361046,"is_reserved":false,"is_disabled":false,"rental_uris":{"android":"levelo://app?vid=7f448af5-c33f-44b2-b7ed-f808a1034d2e","ios":"levelo://app?vid=7f448af5-c33f-44b2-b7ed-f808a1034d2e"},"vehicle_type_id":"4","last_reported":1750356882,"current_range_meters":17200,"station_id":"ce4bgj92rcd13ifvqbe0","pricing_plan_id":"cebpf4jnsgd1na2vs0mg"},{"bike_id":"c88df361-69db-4d1c-b5c8-9641a9f67be3","system_id":"levelo_inurba_marseille","lat":43.29937,"lon":5.36552,"is_reserved":false,"is_disabled":false,"rental_uris":{"android":"levelo://app?vid=c88df361-69db-4d1c-b5c8-9641a9f67be3","ios":"levelo://app?vid=c88df361-69db-4d1c-b5c8-9641a9f67be3"},"vehicle_type_id":"4","last_reported":1750356882,"current_range_meters":17200,"station_id":"ce4bgm92rcd13ifvqbr0","pricing_plan_id":"cebpf4jnsgd1na2vs0mg"},{"bike_id":"402cbb1a-9a62-4b03-978a-efb4fbd236bd","system_id":"levelo_inurba_marseille","lat":43.30887,"lon":5.39651,"is_reserved":false,"is_disabled":false,"rental_uris":{"android":"levelo://app?vid=402cbb1a-9a62-4b03-978a-efb4fbd236bd","ios":"levelo://app?vid=402cbb1a-9a62-4b03-978a-efb4fbd236bd"},"vehicle_type_id":"4","last_reported":1750356882,"current_range_meters":17200,"station_id":"ce4bh012rcd13ifvqcv0","pricing_plan_id":"cebpf4jnsgd1na2vs0mg"},{"bike_id":"784efc61-b1c0-4015-bd86-20f443ceb29d","system_id":"levelo_inurba_marseille","lat":43.23967,"lon":5.36634,"is_reserved":false,"is_disabled":false,"rental_uris":{"android":"levelo://app?vid=784efc61-b1c0-4015-bd86-20f443ceb29d","ios":"levelo://app?vid=784efc61-b1c0-4015-bd86-20f443ceb29d"},"vehicle_type_id":"4","last_reported":1750356882,"current_range_meters":17200,"station_id":"ce4bhi12rcd13ifvqfp0","pricing_plan_id":"cebpf4jnsgd1na2vs0mg"},{"bike_id":"650dfdbc-4825-47e6-ad0c-e18215952ca4","system_id":"levelo_inurba_marseille","lat":43.27368,"lon":5.36262,"is_reserved":false,"is_disabled":false,"rental_uris":{"android":"levelo://app?vid=650dfdbc-4825-47e6-ad0c-e18215952ca4","ios":"levelo://app?vid=650dfdbc-4825-47e6-ad0c-e18215952ca4"},"vehicle_type_id":"4","last_reported":1750356882,"current_range_meters":17600,"station_id":"ce4bhbh2rcd13ifvqeo0","pricing_plan_id":"cebpf4jnsgd1na2vs0mg"},{"bike_id":"f6c0d350-2c26-4d39-b9da-c98f1b8be9a6","system_id":"levelo_inurba_marseille","lat":43.28418,"lon":5.34977,"is_reserved":false,"is_disabled":false,"rental_uris":{"android":"levelo://app?vid=f6c0d350-2c26-4d39-b9da-c98f1b8be9a6","ios":"levelo://app?vid=f6c0d350-2c26-4d39-b9da-c98f1b8be9a6"},"vehicle_type_id":"4","last_reported":1750356882,"current_range_meters":17600,"station_id":"ce4bhbh2rcd13ifvqepg","pricing_plan_id":"cebpf4jnsgd1na2vs0mg"},{"bike_id":"cc34d586-b82f-4a34-8fa6-12192bd50232","system_id":"levelo_inurba_marseille","lat":43.28432,"lon":5.34975,"is_reserved":false,"is_disabled":false,"rental_uris":{"android":"levelo://app?vid=cc34d586-b82f-4a34-8fa6-12192bd50232","ios":"levelo://app?vid=cc34d586-b82f-4a34-8fa6-12192bd50232"},"vehicle_type_id":"4","last_reported":1750356882,"current_range_meters":17600,"station_id":"ce4bhbh2rcd13ifvqepg","pricing_plan_id":"cebpf4jnsgd1na2vs0mg"},{"bike_id":"6ed7a4ed-1299-4fbe-ba7b-fd3f5f373188","system_id":"levelo_inurba_marseille","lat":43.28615,"lon":5.35111,"is_reserved":false,"is_disabled":false,"rental_uris":{"android":"levelo://app?vid=6ed7a4ed-1299-4fbe-ba7b-fd3f5f373188","ios":"levelo://app?vid=6ed7a4ed-1299-4fbe-ba7b-fd3f5f373188"},"vehicle_type_id":"4","last_reported":1750356882,"current_range_meters":17600,"station_id":"ce4bhch2rcd13ifvqeug","pricing_plan_id":"cebpf4jnsgd1na2vs0mg"},{"bike_id":"f51767a0-f662-4817-878a-68f8cdd52fb2","system_id":"levelo_inurba_marseille","lat":43.24635,"lon":5.38901,"is_reserved":false,"is_disabled":false,"rental_uris":{"android":"levelo://app?vid=f51767a0-f662-4817-878a-68f8cdd52fb2","ios":"levelo://app?vid=f51767a0-f662-4817-878a-68f8cdd52fb2"},"vehicle_type_id":"4","last_reported":1750356882,"current_range_meters":17600,"station_id":"ce4bhg12rcd13ifvqf60","pricing_plan_id":"cebpf4jnsgd1na2vs0mg"},{"bike_id":"474fe8de-6467-4685-b711-e41603c5f858","system_id":"levelo_inurba_marseille","lat":43.28823,"lon":5.35249,"is_reserved":false,"is_disabled":false,"rental_uris":{"android":"levelo://app?vid=474fe8de-6467-4685-b711-e41603c5f858","ios":"levelo://app?vid=474fe8de-6467-4685-b711-e41603c5f858"},"vehicle_type_id":"4","last_reported":1750356882,"current_range_meters":18000,"station_id":"","pricing_plan_id":"cebpf4jnsgd1na2vs0mg"},{"bike_id":"7fb8f777-502e-4027-8e9f-d463bb7373be","system_id":"levelo_inurba_marseille","lat":43.29698,"lon":5.38053,"is_reserved":false,"is_disabled":false,"rental_uris":{"android":"levelo://app?vid=7fb8f777-502e-4027-8e9f-d463bb7373be","ios":"levelo://app?vid=7fb8f777-502e-4027-8e9f-d463bb7373be"},"vehicle_type_id":"4","last_reported":1750356882,"current_range_meters":18000,"station_id":"","pricing_plan_id":"cebpf4jnsgd1na2vs0mg"},{"bike_id":"efe79985-c7d4-439c-9a96-4a9eb763b390","system_id":"levelo_inurba_marseille","lat":43.33432,"lon":5.40082,"is_reserved":false,"is_disabled":false,"rental_uris":{"android":"levelo://app?vid=efe79985-c7d4-439c-9a96-4a9eb763b390","ios":"levelo://app?vid=efe79985-c7d4-439c-9a96-4a9eb763b390"},"vehicle_type_id":"4","last_reported":1750356882,"current_range_meters":18000,"station_id":"","pricing_plan_id":"cebpf4jnsgd1na2vs0mg"},{"bike_id":"e1457457-e720-4f90-8310-8ddd131c1a82","system_id":"levelo_inurba_marseille","lat":43.31366,"lon":5.385,"is_reserved":false,"is_disabled":false,"rental_uris":{"android":"levelo://app?vid=e1457457-e720-4f90-8310-8ddd131c1a82","ios":"levelo://app?vid=e1457457-e720-4f90-8310-8ddd131c1a82"},"vehicle_type_id":"4","last_reported":1750356882,"current_range_meters":18000,"station_id":"ce4bgt92rcd13ifvqcf0","pricing_plan_id":"cebpf4jnsgd1na2vs0mg"},{"bike_id":"27970314-2047-48cf-8f5a-47edda0d779f","system_id":"levelo_inurba_marseille","lat":43.28412,"lon":5.350013,"is_reserved":false,"is_disabled":false,"rental_uris":{"android":"levelo://app?vid=27970314-2047-48cf-8f5a-47edda0d779f","ios":"levelo://app?vid=27970314-2047-48cf-8f5a-47edda0d779f"},"vehicle_type_id":"4","last_reported":1750356882,"current_range_meters":18000,"station_id":"ce4bhbh2rcd13ifvqepg","pricing_plan_id":"cebpf4jnsgd1na2vs0mg"},{"bike_id":"e363306f-53a7-42d8-a215-bdbce499e1dd","system_id":"levelo_inurba_marseille","lat":43.28416,"lon":5.34998,"is_reserved":false,"is_disabled":false,"rental_uris":{"android":"levelo://app?vid=e363306f-53a7-42d8-a215-bdbce499e1dd","ios":"levelo://app?vid=e363306f-53a7-42d8-a215-bdbce499e1dd"},"vehicle_type_id":"4","last_reported":1750356882,"current_range_meters":18000,"station_id":"ce4bhbh2rcd13ifvqepg","pricing_plan_id":"cebpf4jnsgd1na2vs0mg"},{"bike_id":"738630f6-7a72-4df0-9151-9a1a929bddaf","system_id":"levelo_inurba_marseille","lat":43.25721,"lon":5.41113,"is_reserved":false,"is_disabled":false,"rental_uris":{"android":"levelo://app?vid=738630f6-7a72-4df0-9151-9a1a929bddaf","ios":"levelo://app?vid=738630f6-7a72-4df0-9151-9a1a929bddaf"},"vehicle_type_id":"4","last_reported":1750356882,"current_range_meters":18000,"station_id":"ce4bhkp2rcd13ifvqgd0","pricing_plan_id":"cebpf4jnsgd1na2vs0mg"},{"bike_id":"eec73ed1-f9d8-484a-b1a9-1a0d8215954d","system_id":"levelo_inurba_marseille","lat":43.26804,"lon":5.4027,"is_reserved":false,"is_disabled":false,"rental_uris":{"android":"levelo://app?vid=eec73ed1-f9d8-484a-b1a9-1a0d8215954d","ios":"levelo://app?vid=eec73ed1-f9d8-484a-b1a9-1a0d8215954d"},"vehicle_type_id":"4","last_reported":1750356882,"current_range_meters":18000,"station_id":"ce501612rcd8frsf0b60","pricing_plan_id":"cebpf4jnsgd1na2vs0mg"},{"bike_id":"3939df6a-c644-4caf-9fc0-3fbc572e8f68","system_id":"levelo_inurba_marseille","lat":43.28267,"lon":5.35115,"is_reserved":false,"is_disabled":false,"rental_uris":{"android":"levelo://app?vid=3939df6a-c644-4caf-9fc0-3fbc572e8f68","ios":"levelo://app?vid=3939df6a-c644-4caf-9fc0-3fbc572e8f68"},"vehicle_type_id":"4","last_reported":1750356882,"current_range_meters":18800,"station_id":"","pricing_plan_id":"cebpf4jnsgd1na2vs0mg"},{"bike_id":"986aefcf-9734-49a8-91f3-9cbe3a4b31e8","system_id":"levelo_inurba_marseille","lat":43.30794,"lon":5.38162,"is_reserved":false,"is_disabled":false,"rental_uris":{"android":"levelo://app?vid=986aefcf-9734-49a8-91f3-9cbe3a4b31e8","ios":"levelo://app?vid=986aefcf-9734-49a8-91f3-9cbe3a4b31e8"},"vehicle_type_id":"4","last_reported":1750356882,"current_range_meters":18800,"station_id":"ce4bgt12rcd13ifvqce0","pricing_plan_id":"cebpf4jnsgd1na2vs0mg"},{"bike_id":"8f956d3d-85c7-461a-9fa9-ce1882ec5441","system_id":"levelo_inurba_marseille","lat":43.28413,"lon":5.34982,"is_reserved":false,"is_disabled":false,"rental_uris":{"android":"levelo://app?vid=8f956d3d-85c7-461a-9fa9-ce1882ec5441","ios":"levelo://app?vid=8f956d3d-85c7-461a-9fa9-ce1882ec5441"},"vehicle_type_id":"4","last_reported":1750356882,"current_range_meters":18800,"station_id":"ce4bhbh2rcd13ifvqepg","pricing_plan_id":"cebpf4jnsgd1na2vs0mg"},{"bike_id":"d665f095-a9b3-466f-acb0-39936f0a2c1f","system_id":"levelo_inurba_marseille","lat":43.28497,"lon":5.37099,"is_reserved":false,"is_disabled":false,"rental_uris":{"android":"levelo://app?vid=d665f095-a9b3-466f-acb0-39936f0a2c1f","ios":"levelo://app?vid=d665f095-a9b3-466f-acb0-39936f0a2c1f"},"vehicle_type_id":"4","last_reported":1750356882,"current_range_meters":18800,"station_id":"ce4bht12rcd13ifvqi60","pricing_plan_id":"cebpf4jnsgd1na2vs0mg"},{"bike_id":"39ef9621-abc8-4224-9c70-d4b1653baf36","system_id":"levelo_inurba_marseille","lat":43.21187,"lon":5.35076,"is_reserved":false,"is_disabled":false,"rental_uris":{"android":"levelo://app?vid=39ef9621-abc8-4224-9c70-d4b1653baf36","ios":"levelo://app?vid=39ef9621-abc8-4224-9c70-d4b1653baf36"},"vehicle_type_id":"4","last_reported":1750356882,"current_range_meters":18800,"station_id":"st_cvj6sg6p6f1abm77japg","pricing_plan_id":"cebpf4jnsgd1na2vs0mg"},{"bike_id":"d40af265-11b5-43a6-9bb6-f910f57901ba","system_id":"levelo_inurba_marseille","lat":43.32925,"lon":5.38024,"is_reserved":false,"is_disabled":false,"rental_uris":{"android":"levelo://app?vid=d40af265-11b5-43a6-9bb6-f910f57901ba","ios":"levelo://app?vid=d40af265-11b5-43a6-9bb6-f910f57901ba"},"vehicle_type_id":"4","last_reported":1750356882,"current_range_meters":19200,"station_id":"","pricing_plan_id":"cebpf4jnsgd1na2vs0mg"},{"bike_id":"04dbab2d-6b88-4d52-a396-68b87b7818d9","system_id":"levelo_inurba_marseille","lat":43.29002,"lon":5.35614,"is_reserved":false,"is_disabled":false,"rental_uris":{"android":"levelo://app?vid=04dbab2d-6b88-4d52-a396-68b87b7818d9","ios":"levelo://app?vid=04dbab2d-6b88-4d52-a396-68b87b7818d9"},"vehicle_type_id":"4","last_reported":1750356882,"current_range_meters":19200,"station_id":"ce4bhb92rcd13ifvqen0","pricing_plan_id":"cebpf4jnsgd1na2vs0mg"},{"bike_id":"5e9ce673-6e01-45d7-9432-b638a9271450","system_id":"levelo_inurba_marseille","lat":43.27373,"lon":5.36252,"is_reserved":false,"is_disabled":false,"rental_uris":{"android":"levelo://app?vid=5e9ce673-6e01-45d7-9432-b638a9271450","ios":"levelo://app?vid=5e9ce673-6e01-45d7-9432-b638a9271450"},"vehicle_type_id":"4","last_reported":1750356882,"current_range_meters":19200,"station_id":"ce4bhbh2rcd13ifvqeo0","pricing_plan_id":"cebpf4jnsgd1na2vs0mg"},{"bike_id":"9ea34858-bd84-4c60-9087-2cfea5497d08","system_id":"levelo_inurba_marseille","lat":43.27379,"lon":5.36253,"is_reserved":false,"is_disabled":false,"rental_uris":{"android":"levelo://app?vid=9ea34858-bd84-4c60-9087-2cfea5497d08","ios":"levelo://app?vid=9ea34858-bd84-4c60-9087-2cfea5497d08"},"vehicle_type_id":"4","last_reported":1750356882,"current_range_meters":19200,"station_id":"ce4bhbh2rcd13ifvqeo0","pricing_plan_id":"cebpf4jnsgd1na2vs0mg"},{"bike_id":"d4c4bb36-02dd-4270-afd8-8909dbb361be","system_id":"levelo_inurba_marseille","lat":43.28418,"lon":5.34995,"is_reserved":false,"is_disabled":false,"rental_uris":{"android":"levelo://app?vid=d4c4bb36-02dd-4270-afd8-8909dbb361be","ios":"levelo://app?vid=d4c4bb36-02dd-4270-afd8-8909dbb361be"},"vehicle_type_id":"4","last_reported":1750356882,"current_range_meters":19200,"station_id":"ce4bhbh2rcd13ifvqepg","pricing_plan_id":"cebpf4jnsgd1na2vs0mg"},{"bike_id":"244bb61c-1772-46e6-8aa3-1f958b66c212","system_id":"levelo_inurba_marseille","lat":43.28413,"lon":5.34987,"is_reserved":false,"is_disabled":false,"rental_uris":{"android":"levelo://app?vid=244bb61c-1772-46e6-8aa3-1f958b66c212","ios":"levelo://app?vid=244bb61c-1772-46e6-8aa3-1f958b66c212"},"vehicle_type_id":"4","last_reported":1750356882,"current_range_meters":19200,"station_id":"ce4bhbh2rcd13ifvqepg","pricing_plan_id":"cebpf4jnsgd1na2vs0mg"},{"bike_id":"72ace9d9-c92b-49de-aef1-08296e13698c","system_id":"levelo_inurba_marseille","lat":43.28624,"lon":5.35084,"is_reserved":false,"is_disabled":false,"rental_uris":{"android":"levelo://app?vid=72ace9d9-c92b-49de-aef1-08296e13698c","ios":"levelo://app?vid=72ace9d9-c92b-49de-aef1-08296e13698c"},"vehicle_type_id":"4","last_reported":1750356882,"current_range_meters":19200,"station_id":"ce4bhch2rcd13ifvqeug","pricing_plan_id":"cebpf4jnsgd1na2vs0mg"},{"bike_id":"d07f9ea6-ad7e-4d22-b2da-949347136a3e","system_id":"levelo_inurba_marseille","lat":43.243882,"lon":5.370662,"is_reserved":false,"is_disabled":false,"rental_uris":{"android":"levelo://app?vid=d07f9ea6-ad7e-4d22-b2da-949347136a3e","ios":"levelo://app?vid=d07f9ea6-ad7e-4d22-b2da-949347136a3e"},"vehicle_type_id":"4","last_reported":1750356882,"current_range_meters":19200,"station_id":"ce4bhhh2rcd13ifvqfk0","pricing_plan_id":"cebpf4jnsgd1na2vs0mg"},{"bike_id":"e0222858-fdee-4e3d-a517-1dd356051947","system_id":"levelo_inurba_marseille","lat":43.24411,"lon":5.371,"is_reserved":false,"is_disabled":false,"rental_uris":{"android":"levelo://app?vid=e0222858-fdee-4e3d-a517-1dd356051947","ios":"levelo://app?vid=e0222858-fdee-4e3d-a517-1dd356051947"},"vehicle_type_id":"4","last_reported":1750356882,"current_range_meters":19200,"station_id":"ce4bhhh2rcd13ifvqfk0","pricing_plan_id":"cebpf4jnsgd1na2vs0mg"},{"bike_id":"dc540ba2-fb63-45eb-b83a-1826fb3d30b7","system_id":"levelo_inurba_marseille","lat":43.246099,"lon":5.392726,"is_reserved":false,"is_disabled":false,"rental_uris":{"android":"levelo://app?vid=dc540ba2-fb63-45eb-b83a-1826fb3d30b7","ios":"levelo://app?vid=dc540ba2-fb63-45eb-b83a-1826fb3d30b7"},"vehicle_type_id":"4","last_reported":1750356882,"current_range_meters":19600,"station_id":"","pricing_plan_id":"cebpf4jnsgd1na2vs0mg"},{"bike_id":"b7ed5262-8487-422f-bbf6-f77976d85ce8","system_id":"levelo_inurba_marseille","lat":43.30806,"lon":5.38159,"is_reserved":false,"is_disabled":false,"rental_uris":{"android":"levelo://app?vid=b7ed5262-8487-422f-bbf6-f77976d85ce8","ios":"levelo://app?vid=b7ed5262-8487-422f-bbf6-f77976d85ce8"},"vehicle_type_id":"4","last_reported":1750356882,"current_range_meters":19600,"station_id":"ce4bgt12rcd13ifvqce0","pricing_plan_id":"cebpf4jnsgd1na2vs0mg"},{"bike_id":"5b8c471e-9b75-48b6-9a82-2879cbf523af","system_id":"levelo_inurba_marseille","lat":43.29884,"lon":5.38894,"is_reserved":false,"is_disabled":false,"rental_uris":{"android":"levelo://app?vid=5b8c471e-9b75-48b6-9a82-2879cbf523af","ios":"levelo://app?vid=5b8c471e-9b75-48b6-9a82-2879cbf523af"},"vehicle_type_id":"4","last_reported":1750356882,"current_range_meters":19600,"station_id":"ce4bh392rcd13ifvqdl0","pricing_plan_id":"cebpf4jnsgd1na2vs0mg"},{"bike_id":"3d73606a-99eb-49f7-bce4-f07cf2bafb2b","system_id":"levelo_inurba_marseille","lat":43.2842,"lon":5.34978,"is_reserved":false,"is_disabled":false,"rental_uris":{"android":"levelo://app?vid=3d73606a-99eb-49f7-bce4-f07cf2bafb2b","ios":"levelo://app?vid=3d73606a-99eb-49f7-bce4-f07cf2bafb2b"},"vehicle_type_id":"4","last_reported":1750356882,"current_range_meters":19600,"station_id":"ce4bhbh2rcd13ifvqepg","pricing_plan_id":"cebpf4jnsgd1na2vs0mg"},{"bike_id":"88fad92b-88d9-42ec-a71b-4f6b84af3f5e","system_id":"levelo_inurba_marseille","lat":43.28418,"lon":5.35003,"is_reserved":false,"is_disabled":false,"rental_uris":{"android":"levelo://app?vid=88fad92b-88d9-42ec-a71b-4f6b84af3f5e","ios":"levelo://app?vid=88fad92b-88d9-42ec-a71b-4f6b84af3f5e"},"vehicle_type_id":"4","last_reported":1750356882,"current_range_meters":19600,"station_id":"ce4bhbh2rcd13ifvqepg","pricing_plan_id":"cebpf4jnsgd1na2vs0mg"},{"bike_id":"a1687005-d6a6-41d3-b60e-c23a83102fc3","system_id":"levelo_inurba_marseille","lat":43.28409,"lon":5.34997,"is_reserved":false,"is_disabled":false,"rental_uris":{"android":"levelo://app?vid=a1687005-d6a6-41d3-b60e-c23a83102fc3","ios":"levelo://app?vid=a1687005-d6a6-41d3-b60e-c23a83102fc3"},"vehicle_type_id":"4","last_reported":1750356882,"current_range_meters":19600,"station_id":"ce4bhbh2rcd13ifvqepg","pricing_plan_id":"cebpf4jnsgd1na2vs0mg"},