{"last_updated":1738955185,"ttl":60,"version":"2.2","data":{"bikes":[{"bike_id":"b8740638-8b15-4e39-9dd8-3d88c6eff33f","system_id":"levelo_inurba_marseille","lat":43.312301,"lon":5.368593,"is_reserved":false,"is_disabled":true,"rental_uris":{"android":"levelo://app?vid=b8740638-8b15-4e39-9dd8-3d88c6eff33f","ios":"levelo://app?vid=b8740638-8b15-4e39-9dd8-3d88c6eff33f"},"vehicle_type_id":"4","last_reported":1738955186,"current_range_meters":38800,"station_id":"ce4bgl92rcd13ifvqbq0","pricing_plan_id":"cebpf4jnsgd1na2vs0mg"},{"bike_id":"6c10f0d7-4244-4362-8fe1-6ba629525735","system_id":"levelo_inurba_marseille","lat":43.29041,"lon":5.38642,"is_reserved":false,"is_disabled":false,"rental_uris":{"android":"levelo://app?vid=6c10f0d7-4244-4362-8fe1-6ba629525735","ios":"levelo://app?vid=6c10f0d7-4244-4362-8fe1-6ba629525735"},"vehicle_type_id":"4","last_reported":1738955186,"current_range_meters":30800,"station_id":"ce4bh4p2rcd13ifvqe0g","pricing_plan_id":"cebpf4jnsgd1na2vs0mg"},{"bike_id":"ccdc6efe-ebdd-4ab0-9036-6ff3200f0168","system_id":"levelo_inurba_marseille","lat":43.27199,"lon":5.41001,"is_reserved":false,"is_disabled":true,"rental_uris":{"android":"levelo://app?vid=ccdc6efe-ebdd-4ab0-9036-6ff3200f0168","ios":"levelo://app?vid=ccdc6efe-ebdd-4ab0-9036-6ff3200f0168"},"vehicle_type_id":"4","last_reported":1738955186,"current_range_meters":30000,"station_id":"ce4bhl12rcd13ifvqgf0","pricing_plan_id":"cebpf4jnsgd1na2vs0mg"},{"bike_id":"feefdd7c-f4a3-48e3-8633-0e019ff3b8e3","system_id":"levelo_inurba_marseille","lat":43.292,"lon":5.35792,"is_reserved":false,"is_disabled":true,"rental_uris":{"android":"levelo://app?vid=feefdd7c-f4a3-48e3-8633-0e019ff3b8e3","ios":"levelo://app?vid=feefdd7c-f4a3-48e3-8633-0e019ff3b8e3"},"vehicle_type_id":"4","last_reported":1738955186,"current_range_meters":30800,"station_id":"ce4bhb12rcd13ifvqel0","pricing_plan_id":"cebpf4jnsgd1na2vs0mg"},{"bike_id":"ffceeb90-8336-42a8-bd58-8a13c64ab906","system_id":"levelo_inurba_marseille","lat":43.32277,"lon":5.3827,"is_reserved":false,"is_disabled":false,"rental_uris":{"android":"levelo://app?vid=ffceeb90-8336-42a8-bd58-8a13c64ab906","ios":"levelo://app?vid=ffceeb90-8336-42a8-bd58-8a13c64ab906"},"vehicle_type_id":"4","last_reported":1738955186,"current_range_meters":18000,"station_id":"ce4bhr12rcd13ifvqhqg","pricing_plan_id":"cebpf4jnsgd1na2vs0mg"},{"bike_id":"cfa7f1cc-5150-48ed-843c-f6960ddad1e1","system_id":"levelo_inurba_marseille","lat":43.26484,"lon":5.39551,"is_reserved":false,"is_disabled":true,"rental_uris":{"android":"levelo://app?vid=cfa7f1cc-5150-48ed-843c-f6960ddad1e1","ios":"levelo://app?vid=cfa7f1cc-5150-48ed-843c-f6960ddad1e1"},"vehicle_type_id":"4","last_reported":1738955186,"current_range_meters":18800,"station_id":"ce4bhi12rcd13ifvqfq0","pricing_plan_id":"cebpf4jnsgd1na2vs0mg"},{"bike_id":"869834ef-081d-4c07-9a40-2dddf9887edb","system_id":"levelo_inurba_marseille","lat":43.31724,"lon":5.42395,"is_reserved":false,"is_disabled":false,"rental_uris":{"android":"levelo://app?vid=869834ef-081d-4c07-9a40-2dddf9887edb","ios":"levelo://app?vid=869834ef-081d-4c07-9a40-2dddf9887edb"},"vehicle_type_id":"4","last_reported":1738955186,"current_range_meters":24800,"station_id":"ce4bhp92rcd13ifvqhbg","pricing_plan_id":"cebpf4jnsgd1na2vs0mg"},{"bike_id":"6b7fc38a-5e19-4029-9e7b-d290f7068a2e","system_id":"levelo_inurba_marseille","lat":43.27947,"lon":5.41043,"is_reserved":false,"is_disabled":false,"rental_uris":{"android":"levelo://app?vid=6b7fc38a-5e19-4029-9e7b-d290f7068a2e","ios":"levelo://app?vid=6b7fc38a-5e19-4029-9e7b-d290f7068a2e"},"vehicle_type_id":"4","last_reported":1738955186,"current_range_meters":24000,"station_id":"ce4bhnp2rcd13ifvqh0g","pricing_plan_id":"cebpf4jnsgd1na2vs0mg"},{"bike_id":"0b370460-2bdc-4346-a1f4-7aeb9dd2a707","system_id":"levelo_inurba_marseille","lat":43.28632,"lon":5.39138,"is_reserved":false,"is_disabled":true,"rental_uris":{"android":"levelo://app?vid=0b370460-2bdc-4346-a1f4-7aeb9dd2a707","ios":"levelo://app?vid=0b370460-2bdc-4346-a1f4-7aeb9dd2a707"},"vehicle_type_id":"4","last_reported":1738955186,"current_range_meters":14000,"station_id":"","pricing_plan_id":"cebpf4jnsgd1na2vs0mg"},{"bike_id":"952ab6ee-c71f-431a-a116-28c771dc3a24","system_id":"levelo_inurba_marseille","lat":43.27936,"lon":5.41053,"is_reserved":false,"is_disabled":true,"rental_uris":{"android":"levelo://app?vid=952ab6ee-c71f-431a-a116-28c771dc3a24","ios":"levelo://app?vid=952ab6ee-c71f-431a-a116-28c771dc3a24"},"vehicle_type_id":"4","last_reported":1738955186,"current_range_meters":6000,"station_id":"ce4bhnp2rcd13ifvqh0g","pricing_plan_id":"cebpf4jnsgd1na2vs0mg"},{"bike_id":"bc081c55-3595-4596-902f-6abff0d6318d","system_id":"levelo_inurba_marseille","lat":43.29008,"lon":5.35609,"is_reserved":false,"is_disabled":false,"rental_uris":{"android":"levelo://app?vid=bc081c55-3595-4596-902f-6abff0d6318d","ios":"levelo://app?vid=bc081c55-3595-4596-902f-6abff0d6318d"},"vehicle_type_id":"4","last_reported":1738955186,"current_range_meters":38800,"station_id":"ce4bhb92rcd13ifvqen0","pricing_plan_id":"cebpf4jnsgd1na2vs0mg"},{"bike_id":"ffdb6efc-7928-43a7-a4b4-0c9c4eb25b66","system_id":"levelo_inurba_marseille","lat":43.26927,"lon":5.40254,"is_reserved":false,"is_disabled":false,"rental_uris":{"android":"levelo://app?vid=ffdb6efc-7928-43a7-a4b4-0c9c4eb25b66","ios":"levelo://app?vid=ffdb6efc-7928-43a7-a4b4-0c9c4eb25b66"},"vehicle_type_id":"4","last_reported":1738955186,"current_range_meters":38800,"station_id":"cjm6bp8fraef2m0cb0m0","pricing_plan_id":"cebpf4jnsgd1na2vs0mg"},{"bike_id":"9d2d821d-ea65-43bf-85a0-8ef363c1f055","system_id":"levelo_inurba_marseille","lat":43.30136,"lon":5.38767,"is_reserved":false,"is_disabled":false,"rental_uris":{"android":"levelo://app?vid=9d2d821d-ea65-43bf-85a0-8ef363c1f055","ios":"levelo://app?vid=9d2d821d-ea65-43bf-85a0-8ef363c1f055"},"vehicle_type_id":"4","last_reported":1738955186,"current_range_meters":37600,"station_id":"ce4bhoh2rcd13ifvqh6g","pricing_plan_id":"cebpf4jnsgd1na2vs0mg"},{"bike_id":"8b8a41d5-332c-4712-9179-8e06d5a2d46e","system_id":"levelo_inurba_marseille","lat":43.303514,"lon":5.418746,"is_reserved":false,"is_disabled":false,"rental_uris":{"android":"levelo://app?vid=8b8a41d5-332c-4712-9179-8e06d5a2d46e","ios":"levelo://app?vid=8b8a41d5-332c-4712-9179-8e06d5a2d46e"},"vehicle_type_id":"4","last_reported":1738955186,"current_range_meters":20800,"station_id":"ce4bhop2rcd13ifvqh7g","pricing_plan_id":"cebpf4jnsgd1na2vs0mg"},{"bike_id":"0e3e205c-def0-409b-93d1-6bd9975a7ce8","system_id":"levelo_inurba_marseille","lat":43.337658,"lon":5.374389,"is_reserved":false,"is_disabled":false,"rental_uris":{"android":"levelo://app?vid=0e3e205c-def0-409b-93d1-6bd9975a7ce8","ios":"levelo://app?vid=0e3e205c-def0-409b-93d1-6bd9975a7ce8"},"vehicle_type_id":"4","last_reported":1738955186,"current_range_meters":5600,"station_id":"","pricing_plan_id":"cebpf4jnsgd1na2vs0mg"},{"bike_id":"1a04bf90-1508-4077-924d-e62c674b15bc","system_id":"levelo_inurba_marseille","lat":43.265572,"lon":5.37283,"is_reserved":false,"is_disabled":false,"rental_uris":{"android":"levelo://app?vid=1a04bf90-1508-4077-924d-e62c674b15bc","ios":"levelo://app?vid=1a04bf90-1508-4077-924d-e62c674b15bc"},"vehicle_type_id":"4","last_reported":1738955186,"current_range_meters":38000,"station_id":"ce4bhg12rcd13ifvqf70","pricing_plan_id":"cebpf4jnsgd1na2vs0mg"},{"bike_id":"6a3bf5dc-6406-4053-977a-019d33b4193c","system_id":"levelo_inurba_marseille","lat":43.28403,"lon":5.37529,"is_reserved":false,"is_disabled":true,"rental_uris":{"android":"levelo://app?vid=6a3bf5dc-6406-4053-977a-019d33b4193c","ios":"levelo://app?vid=6a3bf5dc-6406-4053-977a-019d33b4193c"},"vehicle_type_id":"4","last_reported":1738955186,"current_range_meters":31200,"station_id":"ce4bh412rcd13ifvqds0","pricing_plan_id":"cebpf4jnsgd1na2vs0mg"},{"bike_id":"163da632-ea58-4dd5-a9fa-b50809c78826","system_id":"levelo_inurba_marseille","lat":43.28001,"lon":5.40008,"is_reserved":false,"is_disabled":false,"rental_uris":{"android":"levelo://app?vid=163da632-ea58-4dd5-a9fa-b50809c78826","ios":"levelo://app?vid=163da632-ea58-4dd5-a9fa-b50809c78826"},"vehicle_type_id":"4","last_reported":1738955186,"current_range_meters":33200,"station_id":"ce4bho92rcd13ifvqh4g","pricing_plan_id":"cebpf4jnsgd1na2vs0mg"},{"bike_id":"2c49d3cf-ce31-4005-ac4b-228c9316e754","system_id":"levelo_inurba_marseille","lat":43.29093,"lon":5.38139,"is_reserved":false,"is_disabled":false,"rental_uris":{"android":"levelo://app?vid=2c49d3cf-ce31-4005-ac4b-228c9316e754","ios":"levelo://app?vid=2c49d3cf-ce31-4005-ac4b-228c9316e754"},"vehicle_type_id":"4","last_reported":1738955186,"current_range_meters":12800,"station_id":"ce4bh512rcd13ifvqe2g","pricing_plan_id":"cebpf4jnsgd1na2vs0mg"},{"bike_id":"dcb820ff-6b0f-4a38-a5e8-f49967d8d0d5","system_id":"levelo_inurba_marseille","lat":43.28697,"lon":5.3739,"is_reserved":false,"is_disabled":false,"rental_uris":{"android":"levelo://app?vid=dcb820ff-6b0f-4a38-a5e8-f49967d8d0d5","ios":"levelo://app?vid=dcb820ff-6b0f-4a38-a5e8-f49967d8d0d5"},"vehicle_type_id":"4","last_reported":1738955186,"current_range_meters":20400,"station_id":"ce4bh3p2rcd13ifvqdq0","pricing_plan_id":"cebpf4jnsgd1na2vs0mg"},{"bike_id":"453f193a-86d4-4632-99e1-d008b42cbd7f","system_id":"levelo_inurba_marseille","lat":43.27974,"lon":5.38732,"is_reserved":false,"is_disabled":true,"rental_uris":{"android":"levelo://app?vid=453f193a-86d4-4632-99e1-d008b42cbd7f","ios":"levelo://app?vid=453f193a-86d4-4632-99e1-d008b42cbd7f"},"vehicle_type_id":"4","last_reported":1738955186,"current_range_meters":1200,"station_id":"ce4bhg12rcd13ifvqf80","pricing_plan_id":"cebpf4jnsgd1na2vs0mg"},{"bike_id":"06bd393d-f5d8-4be6-8764-159361d0b0da","system_id":"levelo_inurba_marseille","lat":43.31709,"lon":5.3775,"is_reserved":false,"is_disabled":false,"rental_uris":{"android":"levelo://app?vid=06bd393d-f5d8-4be6-8764-159361d0b0da","ios":"levelo://app?vid=06bd393d-f5d8-4be6-8764-159361d0b0da"},"vehicle_type_id":"4","last_reported":1738955186,"current_range_meters":24800,"station_id":"ce4bgth2rcd13ifvqch0","pricing_plan_id":"cebpf4jnsgd1na2vs0mg"},{"bike_id":"6411bc62-420d-4cda-9405-5ec45c5030d4","system_id":"levelo_inurba_marseille","lat":43.26194,"lon":5.37462,"is_reserved":false,"is_disabled":false,"rental_uris":{"android":"levelo://app?vid=6411bc62-420d-4cda-9405-5ec45c5030d4","ios":"levelo://app?vid=6411bc62-420d-4cda-9405-5ec45c5030d4"},"vehicle_type_id":"4","last_reported":1738955186,"current_range_meters":35200,"station_id":"ce4bhgp2rcd13ifvqfc0","pricing_plan_id":"cebpf4jnsgd1na2vs0mg"},{"bike_id":"5deb610f-f630-4c7c-be42-0c35c32fca42","system_id":"levelo_inurba_marseille","lat":43.26934,"lon":5.40236,"is_reserved":false,"is_disabled":false,"rental_uris":{"android":"levelo://app?vid=5deb610f-f630-4c7c-be42-0c35c32fca42","ios":"levelo://app?vid=5deb610f-f630-4c7c-be42-0c35c32fca42"},"vehicle_type_id":"4","last_reported":1738955186,"current_range_meters":27600,"station_id":"cjm6bp8fraef2m0cb0m0","pricing_plan_id":"cebpf4jnsgd1na2vs0mg"},{"bike_id":"7cd494b8-458a-457c-ab37-823e425add05","system_id":"levelo_inurba_marseille","lat":43.25087,"lon":5.39521,"is_reserved":false,"is_disabled":false,"rental_uris":{"android":"levelo://app?vid=7cd494b8-458a-457c-ab37-823e425add05","ios":"levelo://app?vid=7cd494b8-458a-457c-ab37-823e425add05"},"vehicle_type_id":"4","last_reported":1738955186,"current_range_meters":20800,"station_id":"ce4bhm12rcd13ifvqgkg","pricing_plan_id":"cebpf4jnsgd1na2vs0mg"},{"bike_id":"d25bc6a0-30b5-4aa4-922b-fcf83a985386","system_id":"levelo_inurba_marseille","lat":43.2397,"lon":5.36633,"is_reserved":false,"is_disabled":false,"rental_uris":{"android":"levelo://app?vid=d25bc6a0-30b5-4aa4-922b-fcf83a985386","ios":"levelo://app?vid=d25bc6a0-30b5-4aa4-922b-fcf83a985386"},"vehicle_type_id":"4","last_reported":1738955186,"current_range_meters":36800,"station_id":"ce4bhi12rcd13ifvqfp0","pricing_plan_id":"cebpf4jnsgd1na2vs0mg"},{"bike_id":"84cc4604-8dac-444c-8582-1b88a13aabc2","system_id":"levelo_inurba_marseille","lat":43.28712,"lon":5.39984,"is_reserved":false,"is_disabled":true,"rental_uris":{"android":"levelo://app?vid=84cc4604-8dac-444c-8582-1b88a13aabc2","ios":"levelo://app?vid=84cc4604-8dac-444c-8582-1b88a13aabc2"},"vehicle_type_id":"4","last_reported":1738955186,"current_range_meters":0,"station_id":"ce4bho92rcd13ifvqh3g","pricing_plan_id":"cebpf4jnsgd1na2vs0mg"},{"bike_id":"b14feff6-424d-43a9-a2e2-58713c3ad09c","system_id":"levelo_inurba_marseille","lat":43.27804,"lon":5.40697,"is_reserved":false,"is_disabled":false,"rental_uris":{"android":"levelo://app?vid=b14feff6-424d-43a9-a2e2-58713c3ad09c","ios":"levelo://app?vid=b14feff6-424d-43a9-a2e2-58713c3ad09c"},"vehicle_type_id":"4","last_reported":1738955186,"current_range_meters":38800,"station_id":"ce4bhnh2rcd13ifvqgtg","pricing_plan_id":"cebpf4jnsgd1na2vs0mg"},{"bike_id":"2d6a2e4c-47bb-4bf8-8e22-1e9c987f8b16","system_id":"levelo_inurba_marseille","lat":43.23973,"lon":5.36605,"is_reserved":false,"is_disabled":false,"rental_uris":{"android":"levelo://app?vid=2d6a2e4c-47bb-4bf8-8e22-1e9c987f8b16","ios":"levelo://app?vid=2d6a2e4c-47bb-4bf8-8e22-1e9c987f8b16"},"vehicle_type_id":"4","last_reported":1738955186,"current_range_meters":16400,"station_id":"ce4bhi12rcd13ifvqfp0","pricing_plan_id":"cebpf4jnsgd1na2vs0mg"},{"bike_id":"0fa06630-abbc-49ce-bd8f-094dee956051","system_id":"levelo_inurba_marseille","lat":43.25717,"lon":5.41115,"is_reserved":false,"is_disabled":false,"rental_uris":{"android":"levelo://app?vid=0fa06630-abbc-49ce-bd8f-094dee956051","ios":"levelo://app?vid=0fa06630-abbc-49ce-bd8f-094dee956051"},"vehicle_type_id":"4","last_reported":1738955186,"current_range_meters":38400,"station_id":"ce4bhkp2rcd13ifvqgd0","pricing_plan_id":"cebpf4jnsgd1na2vs0mg"},{"bike_id":"984e66a9-958a-4ad4-8afe-42d9883f12f4","system_id":"levelo_inurba_marseille","lat":43.31709,"lon":5.37755,"is_reserved":false,"is_disabled":false,"rental_uris":{"android":"levelo://app?vid=984e66a9-958a-4ad4-8afe-42d9883f12f4","ios":"levelo://app?vid=984e66a9-958a-4ad4-8afe-42d9883f12f4"},"vehicle_type_id":"4","last_reported":1738955186,"current_range_meters":39200,"station_id":"ce4bgth2rcd13ifvqch0","pricing_plan_id":"cebpf4jnsgd1na2vs0mg"},{"bike_id":"098d220b-e449-43ea-8d6d-9fc78e0abad9","system_id":"levelo_inurba_marseille","lat":43.22928,"lon":5.35382,"is_reserved":false,"is_disabled":false,"rental_uris":{"android":"levelo://app?vid=098d220b-e449-43ea-8d6d-9fc78e0abad9","ios":"levelo://app?vid=098d220b-e449-43ea-8d6d-9fc78e0abad9"},"vehicle_type_id":"4","last_reported":1738955186,"current_range_meters":38800,"station_id":"cpo3532slgdg3j2ikp40","pricing_plan_id":"cebpf4jnsgd1na2vs0mg"},{"bike_id":"658b5f4a-4044-4ace-8264-664f029df52f","system_id":"levelo_inurba_marseille","lat":43.293778,"lon":5.378616,"is_reserved":false,"is_disabled":true,"rental_uris":{"android":"levelo://app?vid=658b5f4a-4044-4ace-8264-664f029df52f","ios":"levelo://app?vid=658b5f4a-4044-4ace-8264-664f029df52f"},"vehicle_type_id":"4","last_reported":1738955186,"current_range_meters":11600,"station_id":"ce4bgjh2rcd13ifvqbf0","pricing_plan_id":"cebpf4jnsgd1na2vs0mg"},{"bike_id":"014efb27-8a20-4364-96c1-56f79f380d86","system_id":"levelo_inurba_marseille","lat":43.30912,"lon":5.36676,"is_reserved":false,"is_disabled":true,"rental_uris":{"android":"levelo://app?vid=014efb27-8a20-4364-96c1-56f79f380d86","ios":"levelo://app?vid=014efb27-8a20-4364-96c1-56f79f380d86"},"vehicle_type_id":"4","last_reported":1738955186,"current_range_meters":800,"station_id":"","pricing_plan_id":"cebpf4jnsgd1na2vs0mg"},{"bike_id":"25265f47-6177-48e9-b4ee-d5d5e25bf867","system_id":"levelo_inurba_marseille","lat":43.25717,"lon":5.41104,"is_reserved":false,"is_disabled":false,"rental_uris":{"android":"levelo://app?vid=25265f47-6177-48e9-b4ee-d5d5e25bf867","ios":"levelo://app?vid=25265f47-6177-48e9-b4ee-d5d5e25bf867"},"vehicle_type_id":"4","last_reported":1738955186,"current_range_meters":16800,"station_id":"ce4bhkp2rcd13ifvqgd0","pricing_plan_id":"cebpf4jnsgd1na2vs0mg"},{"bike_id":"dd833579-84b0-4839-89ea-03d9e4d3eaf3","system_id":"levelo_inurba_marseille","lat":43.27373,"lon":5.36248,"is_reserved":false,"is_disabled":false,"rental_uris":{"android":"levelo://app?vid=dd833579-84b0-4839-89ea-03d9e4d3eaf3","ios":"levelo://app?vid=dd833579-84b0-4839-89ea-03d9e4d3eaf3"},"vehicle_type_id":"4","last_reported":1738955186,"current_range_meters":17600,"station_id":"ce4bhbh2rcd13ifvqeo0","pricing_plan_id":"cebpf4jnsgd1na2vs0mg"},{"bike_id":"8134c42b-15c7-43df-91b1-9cea8c89299b","system_id":"levelo_inurba_marseille","lat":43.25869,"lon":5.39901,"is_reserved":false,"is_disabled":false,"rental_uris":{"android":"levelo://app?vid=8134c42b-15c7-43df-91b1-9cea8c89299b","ios":"levelo://app?vid=8134c42b-15c7-43df-91b1-9cea8c89299b"},"vehicle_type_id":"4","last_reported":1738955186,"current_range_meters":38400,"station_id":"ce4bhl92rcd13ifvqghg","pricing_plan_id":"cebpf4jnsgd1na2vs0mg"},{"bike_id":"109d8d07-d605-45c4-912d-3e7b38f9a9ae","system_id":"levelo_inurba_marseille","lat":43.24169,"lon":5.36391,"is_reserved":false,"is_disabled":false,"rental_uris":{"android":"levelo://app?vid=109d8d07-d605-45c4-912d-3e7b38f9a9ae","ios":"levelo://app?vid=109d8d07-d605-45c4-912d-3e7b38f9a9ae"},"vehicle_type_id":"4","last_reported":1738955186,"current_range_meters":17200,"station_id":"cpo36qri1sfpv3e86is0","pricing_plan_id":"cebpf4jnsgd1na2vs0mg"},{"bike_id":"2ebd233c-fd15-4f13-9700-c155c053523f","system_id":"levelo_inurba_marseille","lat":43.25939,"lon":5.40842,"is_reserved":false,"is_disabled":true,"rental_uris":{"android":"levelo://app?vid=2ebd233c-fd15-4f13-9700-c155c053523f","ios":"levelo://app?vid=2ebd233c-fd15-4f13-9700-c155c053523f"},"vehicle_type_id":"4","last_reported":1738955186,"current_range_meters":27200,"station_id":"ce4bhm92rcd13ifvqglg","pricing_plan_id":"cebpf4jnsgd1na2vs0mg"},{"bike_id":"52d259a2-bf87-4ed7-9b7e-9067cdef56df","system_id":"levelo_inurba_marseille","lat":43.25112,"lon":5.40324,"is_reserved":false,"is_disabled":false,"rental_uris":{"android":"levelo://app?vid=52d259a2-bf87-4ed7-9b7e-9067cdef56df","ios":"levelo://app?vid=52d259a2-bf87-4ed7-9b7e-9067cdef56df"},"vehicle_type_id":"4","last_reported":1738955186,"current_range_meters":10000,"station_id":"ce4bhlh2rcd13ifvqgig","pricing_plan_id":"cebpf4jnsgd1na2vs0mg"},{"bike_id":"9060e4c6-935a-4749-b72c-a9a315d91b19","system_id":"levelo_inurba_marseille","lat":43.24679,"lon":5.3815,"is_reserved":false,"is_disabled":true,"rental_uris":{"android":"levelo://app?vid=9060e4c6-935a-4749-b72c-a9a315d91b19","ios":"levelo://app?vid=9060e4c6-935a-4749-b72c-a9a315d91b19"},"vehicle_type_id":"4","last_reported":1738955186,"current_range_meters":1200,"station_id":"ce4bhih2rcd13ifvqfr0","pricing_plan_id":"cebpf4jnsgd1na2vs0mg"},{"bike_id":"da42ddbd-b08b-41f4-b5ea-594da99eb78a","system_id":"levelo_inurba_marseille","lat":43.3043,"lon":5.39765,"is_reserved":false,"is_disabled":true,"rental_uris":{"android":"levelo://app?vid=da42ddbd-b08b-41f4-b5ea-594da99eb78a","ios":"levelo://app?vid=da42ddbd-b08b-41f4-b5ea-594da99eb78a"},"vehicle_type_id":"4","last_reported":1738955186,"current_range_meters":0,"station_id":"ce4bh092rcd13ifvqd20","pricing_plan_id":"cebpf4jnsgd1na2vs0mg"},{"bike_id":"1b068509-d731-4a9f-834b-80d35b08bfb2","system_id":"levelo_inurba_marseille","lat":43.280337,"lon":5.369504,"is_reserved":false,"is_disabled":false,"rental_uris":{"android":"levelo://app?vid=1b068509-d731-4a9f-834b-80d35b08bfb2","ios":"levelo://app?vid=1b068509-d731-4a9f-834b-80d35b08bfb2"},"vehicle_type_id":"4","last_reported":1738955186,"current_range_meters":30400,"station_id":"ce4bha12rcd13ifvqef0","pricing_plan_id":"cebpf4jnsgd1na2vs0mg"},{"bike_id":"c13ae62e-d5d6-4d3f-b979-0be4fe4644ed","system_id":"levelo_inurba_marseille","lat":43.2465,"lon":5.38169,"is_reserved":false,"is_disabled":false,"rental_uris":{"android":"levelo://app?vid=c13ae62e-d5d6-4d3f-b979-0be4fe4644ed","ios":"levelo://app?vid=c13ae62e-d5d6-4d3f-b979-0be4fe4644ed"},"vehicle_type_id":"4","last_reported":1738955186,"current_range_meters":24400,"station_id":"ce4bhih2rcd13ifvqfr0","pricing_plan_id":"cebpf4jnsgd1na2vs0mg"},{"bike_id":"e2e45959-6fb0-43e0-b711-cad9f816d2c3","system_id":"levelo_inurba_marseille","lat":43.30685,"lon":5.40093,"is_reserved":false,"is_disabled":false,"rental_uris":{"android":"levelo://app?vid=e2e45959-6fb0-43e0-b711-cad9f816d2c3","ios":"levelo://app?vid=e2e45959-6fb0-43e0-b711-cad9f816d2c3"},"vehicle_type_id":"4","last_reported":1738955186,"current_range_meters":38800,"station_id":"ce4bh112rcd13ifvqda0","pricing_plan_id":"cebpf4jnsgd1na2vs0mg"},{"bike_id":"a6792e62-445f-45b2-a8fc-ffc7321fb2fb","system_id":"levelo_inurba_marseille","lat":43.31292,"lon":5.40165,"is_reserved":false,"is_disabled":false,"rental_uris":{"android":"levelo://app?vid=a6792e62-445f-45b2-a8fc-ffc7321fb2fb","ios":"levelo://app?vid=a6792e62-445f-45b2-a8fc-ffc7321fb2fb"},"vehicle_type_id":"4","last_reported":1738955186,"current_range_meters":39200,"station_id":"ce4bh092rcd13ifvqd30","pricing_plan_id":"cebpf4jnsgd1na2vs0mg"},{"bike_id":"062ef627-163b-4b14-807b-a459c2049e25","system_id":"levelo_inurba_marseille","lat":43.27377,"lon":5.36248,"is_reserved":false,"is_disabled":false,"rental_uris":{"android":"levelo://app?vid=062ef627-163b-4b14-807b-a459c2049e25","ios":"levelo://app?vid=062ef627-163b-4b14-807b-a459c2049e25"},"vehicle_type_id":"4","last_reported":1738955186,"current_range_meters":38800,"station_id":"ce4bhbh2rcd13ifvqeo0","pricing_plan_id":"cebpf4jnsgd1na2vs0mg"},{"bike_id":"6986b042-d67b-490d-a174-01e67df97cbc","system_id":"levelo_inurba_marseille","lat":43.28411,"lon":5.34986,"is_reserved":false,"is_disabled":false,"rental_uris":{"android":"levelo://app?vid=6986b042-d67b-490d-a174-01e67df97cbc","ios":"levelo://app?vid=6986b042-d67b-490d-a174-01e67df97cbc"},"vehicle_type_id":"4","last_reported":1738955186,"current_range_meters":37600,"station_id":"ce4bhbh2rcd13ifvqepg","pricing_plan_id":"cebpf4jnsgd1na2vs0mg"},{"bike_id":"6fcdd030-2bc2-4ae6-a6fb-6b8417f36d6e","system_id":"levelo_inurba_marseille","lat":43.30145,"lon":5.37402,"is_reserved":false,"is_disabled":false,"rental_uris":{"android":"levelo://app?vid=6fcdd030-2bc2-4ae6-a6fb-6b8417f36d6e","ios":"levelo://app?vid=6fcdd030-2bc2-4ae6-a6fb-6b8417f36d6e"},"vehicle_type_id":"4","last_reported":1738955186,"current_range_meters":25600,"station_id":"ce4bgs92rcd13ifvqcc0","pricing_plan_id":"cebpf4jnsgd1na2vs0mg"},{"bike_id":"89912e32-c5f0-448f-82d2-e236e4d6d653","system_id":"levelo_inurba_marseille","lat":43.27794,"lon":5.39876,"is_reserved":false,"is_disabled":true,"rental_uris":{"android":"levelo://app?vid=89912e32-c5f0-448f-82d2-e236e4d6d653","ios":"levelo://app?vid=89912e32-c5f0-448f-82d2-e236e4d6d653"},"vehicle_type_id":"4","last_reported":1738955186,"current_range_meters":4000,"station_id":"","pricing_plan_id":"cebpf4jnsgd1na2vs0mg"},{"bike_id":"db77dce8-7a31-4822-b450-3e9aa52ac62f","system_id":"levelo_inurba_marseille","lat":43.3112,"lon":5.37779,"is_reserved":false,"is_disabled":false,"rental_uris":{"android":"levelo://app?vid=db77dce8-7a31-4822-b450-3e9aa52ac62f","ios":"levelo://app?vid=db77dce8-7a31-4822-b450-3e9aa52ac62f"},"vehicle_type_id":"4","last_reported":1738955186,"current_range_meters":4800,"station_id":"ce4bgt92rcd13ifvqcg0","pricing_plan_id":"cebpf4jnsgd1na2vs0mg"},{"bike_id":"279e4ffd-9367-44e5-9f56-c58a1ab49eca","system_id":"levelo_inurba_marseille","lat":43.24387,"lon":5.37056,"is_reserved":false,"is_disabled":false,"rental_uris":{"android":"levelo://app?vid=279e4ffd-9367-44e5-9f56-c58a1ab49eca","ios":"levelo://app?vid=279e4ffd-9367-44e5-9f56-c58a1ab49eca"},"vehicle_type_id":"4","last_reported":1738955186,"current_range_meters":18000,"station_id":"ce4bhhh2rcd13ifvqfk0","pricing_plan_id":"cebpf4jnsgd1na2vs0mg"},{"bike_id":"0bf01347-6573-47e0-a521-b69a20d13beb","system_id":"levelo_inurba_marseille","lat":43.30808,"lon":5.43538,"is_reserved":false,"is_disabled":false,"rental_uris":{"android":"levelo://app?vid=0bf01347-6573-47e0-a521-b69a20d13beb","ios":"levelo://app?vid=0bf01347-6573-47e0-a521-b69a20d13beb"},"vehicle_type_id":"4","last_reported":1738955186,"current_range_meters":39200,"station_id":"ce4bhph2rcd13ifvqheg","pricing_plan_id":"cebpf4jnsgd1na2vs0mg"},{"bike_id":"fb5a704f-a51b-458c-a6e9-f5586a789b94","system_id":"levelo_inurba_marseille","lat":43.24163,"lon":5.36401,"is_reserved":false,"is_disabled":false,"rental_uris":{"android":"levelo://app?vid=fb5a704f-a51b-458c-a6e9-f5586a789b94","ios":"levelo://app?vid=fb5a704f-a51b-458c-a6e9-f5586a789b94"},"vehicle_type_id":"4","last_reported":1738955186,"current_range_meters":38800,"station_id":"cpo36qri1sfpv3e86is0","pricing_plan_id":"cebpf4jnsgd1na2vs0mg"},{"bike_id":"f1c1e8ea-c768-43eb-bbb3-77dbe638329d","system_id":"levelo_inurba_marseille","lat":43.3228,"lon":5.38276,"is_reserved":false,"is_disabled":false,"rental_uris":{"android":"levelo://app?vid=f1c1e8ea-c768-43eb-bbb3-77dbe638329d","ios":"levelo://app?vid=f1c1e8ea-c768-43eb-bbb3-77dbe638329d"},"vehicle_type_id":"4","last_reported":1738955186,"current_range_meters":39200,"station_id":"ce4bhr12rcd13ifvqhqg","pricing_plan_id":"cebpf4jnsgd1na2vs0mg"},{"bike_id":"8d797448-0a09-4463-9803-677908ee7f27","system_id":"levelo_inurba_marseille","lat":43.27945,"lon":5.41044,"is_reserved":false,"is_disabled":false,"rental_uris":{"android":"levelo://app?vid=8d797448-0a09-4463-9803-677908ee7f27","ios":"levelo://app?vid=8d797448-0a09-4463-9803-677908ee7f27"},"vehicle_type_id":"4","last_reported":1738955186,"current_range_meters":16800,"station_id":"ce4bhnp2rcd13ifvqh0g","pricing_plan_id":"cebpf4jnsgd1na2vs0mg"},{"bike_id":"b73937ba-05e4-41c7-8959-6f24613e2797","system_id":"levelo_inurba_marseille","lat":43.229366,"lon":5.353776,"is_reserved":false,"is_disabled":false,"rental_uris":{"android":"levelo://app?vid=b73937ba-05e4-41c7-8959-6f24613e2797","ios":"levelo://app?vid=b73937ba-05e4-41c7-8959-6f24613e2797"},"vehicle_type_id":"4","last_reported":1738955186,"current_range_meters":32800,"station_id":"cpo3532slgdg3j2ikp40","pricing_plan_id":"cebpf4jnsgd1na2vs0mg"},{"bike_id":"d975e100-2a27-4e42-8101-7707ce7e9e5c","system_id":"levelo_inurba_marseille","lat":43.30309,"lon":5.36907,"is_reserved":false,"is_disabled":true,"rental_uris":{"android":"levelo://app?vid=d975e100-2a27-4e42-8101-7707ce7e9e5c","ios":"levelo://app?vid=d975e100-2a27-4e42-8101-7707ce7e9e5c"},"vehicle_type_id":"4","last_reported":1738955186,"current_range_meters":16000,"station_id":"ce4bgqh2rcd13ifvqc5g","pricing_plan_id":"cebpf4jnsgd1na2vs0mg"},{"bike_id":"798553ef-a9bb-436e-ad68-b9443c24a85b","system_id":"levelo_inurba_marseille","lat":43.33724,"lon":5.39192,"is_reserved":false,"is_disabled":false,"rental_uris":{"android":"levelo://app?vid=798553ef-a9bb-436e-ad68-b9443c24a85b","ios":"levelo://app?vid=798553ef-a9bb-436e-ad68-b9443c24a85b"},"vehicle_type_id":"4","last_reported":1738955186,"current_range_meters":24000,"station_id":"ce4bhr92rcd13ifvqhsg","pricing_plan_id":"cebpf4jnsgd1na2vs0mg"},{"bike_id":"ab54e2d0-4c2c-486a-84c7-811ed9008ddc","system_id":"levelo_inurba_marseille","lat":43.27855,"lon":5.42543,"is_reserved":false,"is_disabled":true,"rental_uris":{"android":"levelo://app?vid=ab54e2d0-4c2c-486a-84c7-811ed9008ddc","ios":"levelo://app?vid=ab54e2d0-4c2c-486a-84c7-811ed9008ddc"},"vehicle_type_id":"4","last_reported":1738955186,"current_range_meters":0,"station_id":"","pricing_plan_id":"cebpf4jnsgd1na2vs0mg"},{"bike_id":"43b43d06-f797-4161-9348-39640ab88e33","system_id":"levelo_inurba_marseille","lat":43.29295,"lon":5.37176,"is_reserved":false,"is_disabled":false,"rental_uris":{"android":"levelo://app?vid=43b43d06-f797-4161-9348-39640ab88e33","ios":"levelo://app?vid=43b43d06-f797-4161-9348-39640ab88e33"},"vehicle_type_id":"4","last_reported":1738955186,"current_range_meters":28000,"station_id":"ce4bgh92rcd13ifvqb40","pricing_plan_id":"cebpf4jnsgd1na2vs0mg"},{"bike_id":"c2c821e2-0d1e-474c-b4e1-d7116513e8ec","system_id":"levelo_inurba_marseille","lat":43.30347,"lon":5.41882,"is_reserved":false,"is_disabled":false,"rental_uris":{"android":"levelo://app?vid=c2c821e2-0d1e-474c-b4e1-d7116513e8ec","ios":"levelo://app?vid=c2c821e2-0d1e-474c-b4e1-d7116513e8ec"},"vehicle_type_id":"4","last_reported":1738955186,"current_range_meters":24400,"station_id":"ce4bhop2rcd13ifvqh7g","pricing_plan_id":"cebpf4jnsgd1na2vs0mg"},{"bike_id":"951ed9bf-4121-4416-a63f-c3610ed38718","system_id":"levelo_inurba_marseille","lat":43.287,"lon":5.39978,"is_reserved":false,"is_disabled":false,"rental_uris":{"android":"levelo://app?vid=951ed9bf-4121-4416-a63f-c3610ed38718","ios":"levelo://app?vid=951ed9bf-4121-4416-a63f-c3610ed38718"},"vehicle_type_id":"4","last_reported":1738955186,"current_range_meters":38800,"station_id":"ce4bho92rcd13ifvqh3g","pricing_plan_id":"cebpf4jnsgd1na2vs0mg"},{"bike_id":"ea3c45d5-300b-4422-954e-d1a4ff0ceaaa","system_id":"levelo_inurba_marseille","lat":43.30679,"lon":5.36982,"is_reserved":false,"is_disabled":false,"rental_uris":{"android":"levelo://app?vid=ea3c45d5-300b-4422-954e-d1a4ff0ceaaa","ios":"levelo://app?vid=ea3c45d5-300b-4422-954e-d1a4ff0ceaaa"},"vehicle_type_id":"4","last_reported":1738955186,"current_range_meters":25200,"station_id":"","pricing_plan_id":"cebpf4jnsgd1na2vs0mg"},{"bike_id":"6835673f-f138-4499-8bdd-83c3f3bccf33","system_id":"levelo_inurba_marseille","lat":43.28003,"lon":5.39974,"is_reserved":false,"is_disabled":false,"rental_uris":{"android":"levelo://app?vid=6835673f-f138-4499-8bdd-83c3f3bccf33","ios":"levelo://app?vid=6835673f-f138-4499-8bdd-83c3f3bccf33"},"vehicle_type_id":"4","last_reported":1738955186,"current_range_meters":38000,"station_id":"ce4bho92rcd13ifvqh4g","pricing_plan_id":"cebpf4jnsgd1na2vs0mg"},{"bike_id":"bb1bab95-412e-41ba-879a-c483b6ec0924","system_id":"levelo_inurba_marseille","lat":43.27791,"lon":5.40707,"is_reserved":false,"is_disabled":false,"rental_uris":{"android":"levelo://app?vid=bb1bab95-412e-41ba-879a-c483b6ec0924","ios":"levelo://app?vid=bb1bab95-412e-41ba-879a-c483b6ec0924"},"vehicle_type_id":"4","last_reported":1738955186,"current_range_meters":17200,"station_id":"ce4bhnh2rcd13ifvqgtg","pricing_plan_id":"cebpf4jnsgd1na2vs0mg"},{"bike_id":"22e2ae1d-8b8d-4b67-b51a-612a07d817eb","system_id":"levelo_inurba_marseille","lat":43.3046,"lon":5.39869,"is_reserved":false,"is_disabled":false,"rental_uris":{"android":"levelo://app?vid=22e2ae1d-8b8d-4b67-b51a-612a07d817eb","ios":"levelo://app?vid=22e2ae1d-8b8d-4b67-b51a-612a07d817eb"},"vehicle_type_id":"4","last_reported":1738955186,"current_range_meters":38400,"station_id":"","pricing_plan_id":"cebpf4jnsgd1na2vs0mg"},{"bike_id":"363f89dc-7a31-4716-bf7c-5e8b960f961f","system_id":"levelo_inurba_marseille","lat":43.310862,"lon":5.424278,"is_reserved":false,"is_disabled":false,"rental_uris":{"android":"levelo://app?vid=363f89dc-7a31-4716-bf7c-5e8b960f961f","ios":"levelo://app?vid=363f89dc-7a31-4716-bf7c-5e8b960f961f"},"vehicle_type_id":"4","last_reported":1738955186,"current_range_meters":38800,"station_id":"ce4bhp92rcd13ifvqhag","pricing_plan_id":"cebpf4jnsgd1na2vs0mg"},{"bike_id":"cf1ec810-f7ec-419a-8ceb-08d76d0efda3","system_id":"levelo_inurba_marseille","lat":43.26559,"lon":5.37284,"is_reserved":false,"is_disabled":false,"rental_uris":{"android":"levelo://app?vid=cf1ec810-f7ec-419a-8ceb-08d76d0efda3","ios":"levelo://app?vid=cf1ec810-f7ec-419a-8ceb-08d76d0efda3"},"vehicle_type_id":"4","last_reported":1738955186,"current_range_meters":22400,"station_id":"ce4bhg12rcd13ifvqf70","pricing_plan_id":"cebpf4jnsgd1na2vs0mg"},{"bike_id":"9b7a8c62-e473-4d07-971b-e94975d6428e","system_id":"levelo_inurba_marseille","lat":43.3237,"lon":5.38872,"is_reserved":false,"is_disabled":false,"rental_uris":{"android":"levelo://app?vid=9b7a8c62-e473-4d07-971b-e94975d6428e","ios":"levelo://app?vid=9b7a8c62-e473-4d07-971b-e94975d6428e"},"vehicle_type_id":"4","last_reported":1738955186,"current_range_meters":18800,"station_id":"ce4bhqp2rcd13ifvqhog","pricing_plan_id":"cebpf4jnsgd1na2vs0mg"},{"bike_id":"70ac1a4f-6f86-42ba-b8c6-93e2a4c4f9f8","system_id":"levelo_inurba_marseille","lat":43.25497,"lon":5.37644,"is_reserved":false,"is_disabled":false,"rental_uris":{"android":"levelo://app?vid=70ac1a4f-6f86-42ba-b8c6-93e2a4c4f9f8","ios":"levelo://app?vid=70ac1a4f-6f86-42ba-b8c6-93e2a4c4f9f8"},"vehicle_type_id":"4","last_reported":1738955186,"current_range_meters":8000,"station_id":"ce4bhh12rcd13ifvqff0","pricing_plan_id":"cebpf4jnsgd1na2vs0mg"},{"bike_id":"b6b93ca6-5723-4cfc-b699-bd7682cd884f","system_id":"levelo_inurba_marseille","lat":43.31713,"lon":5.40438,"is_reserved":false,"is_disabled":false,"rental_uris":{"android":"levelo://app?vid=b6b93ca6-5723-4cfc-b699-bd7682cd884f","ios":"levelo://app?vid=b6b93ca6-5723-4cfc-b699-bd7682cd884f"},"vehicle_type_id":"4","last_reported":1738955186,"current_range_meters":21600,"station_id":"ce4bh012rcd13ifvqd00","pricing_plan_id":"cebpf4jnsgd1na2vs0mg"},{"bike_id":"412348d0-e316-46bb-8138-df0a547a79ea","system_id":"levelo_inurba_marseille","lat":43.30895,"lon":5.39633,"is_reserved":false,"is_disabled":false,"rental_uris":{"android":"levelo://app?vid=412348d0-e316-46bb-8138-df0a547a79ea","ios":"levelo://app?vid=412348d0-e316-46bb-8138-df0a547a79ea"},"vehicle_type_id":"4","last_reported":1738955186,"current_range_meters":24000,"station_id":"ce4bh012rcd13ifvqcv0","pricing_plan_id":"cebpf4jnsgd1na2vs0mg"},{"bike_id":"91b25398-4a2b-422f-a447-193f254024b5","system_id":"levelo_inurba_marseille","lat":43.29576,"lon":5.39957,"is_reserved":false,"is_disabled":false,"rental_uris":{"android":"levelo://app?vid=91b25398-4a2b-422f-a447-193f254024b5","ios":"levelo://app?vid=91b25398-4a2b-422f-a447-193f254024b5"},"vehicle_type_id":"4","last_reported":1738955186,"current_range_meters":38400,"station_id":"ce4bh312rcd13ifvqdj0","pricing_plan_id":"cebpf4jnsgd1na2vs0mg"},{"bike_id":"0ccae692-16fa-48e3-88e0-236b5491d838","system_id":"levelo_inurba_marseille","lat":43.33729,"lon":5.39222,"is_reserved":false,"is_disabled":false,"rental_uris":{"android":"levelo://app?vid=0ccae692-16fa-48e3-88e0-236b5491d838","ios":"levelo://app?vid=0ccae692-16fa-48e3-88e0-236b5491d838"},"vehicle_type_id":"4","last_reported":1738955186,"current_range_meters":39200,"station_id":"ce4bhr92rcd13ifvqhsg","pricing_plan_id":"cebpf4jnsgd1na2vs0mg"},{"bike_id":"1cfe21f7-6157-4ffb-a163-41af87f64a95","system_id":"levelo_inurba_marseille","lat":43.28468,"lon":5.35885,"is_reserved":false,"is_disabled":false,"rental_uris":{"android":"levelo://app?vid=1cfe21f7-6157-4ffb-a163-41af87f64a95","ios":"levelo://app?vid=1cfe21f7-6157-4ffb-a163-41af87f64a95"},"vehicle_type_id":"4","last_reported":1738955186,"current_range_meters":38800,"station_id":"ce4bhah2rcd13ifvqei0","pricing_plan_id":"cebpf4jnsgd1na2vs0mg"},{"bike_id":"d1338860-6dee-47fb-b7fb-3face66852ff","system_id":"levelo_inurba_marseille","lat":43.28689,"lon":5.39979,"is_reserved":false,"is_disabled":false,"rental_uris":{"android":"levelo://app?vid=d1338860-6dee-47fb-b7fb-3face66852ff","ios":"levelo://app?vid=d1338860-6dee-47fb-b7fb-3face66852ff"},"vehicle_type_id":"4","last_reported":1738955186,"current_range_meters":38800,"station_id":"ce4bho92rcd13ifvqh3g","pricing_plan_id":"cebpf4jnsgd1na2vs0mg"},{"bike_id":"7ae94c93-eb94-4815-84f9-9906f6c78b33","system_id":"levelo_inurba_marseille","lat":43.3136,"lon":5.38492,"is_reserved":false,"is_disabled":false,"rental_uris":{"android":"levelo://app?vid=7ae94c93-eb94-4815-84f9-9906f6c78b33","ios":"levelo://app?vid=7ae94c93-eb94-4815-84f9-9906f6c78b33"},"vehicle_type_id":"4","last_reported":1738955186,"current_range_meters":36800,"station_id":"ce4bgt92rcd13ifvqcf0","pricing_plan_id":"cebpf4jnsgd1na2vs0mg"},{"bike_id":"9c39814e-9ead-4dd9-9c1d-b81cb16ad32a","system_id":"levelo_inurba_marseille","lat":43.30262,"lon":5.40068,"is_reserved":false,"is_disabled":true,"rental_uris":{"android":"levelo://app?vid=9c39814e-9ead-4dd9-9c1d-b81cb16ad32a","ios":"levelo://app?vid=9c39814e-9ead-4dd9-9c1d-b81cb16ad32a"},"vehicle_type_id":"4","last_reported":1738955186,"current_range_meters":800,"station_id":"ce4bgvh2rcd13ifvqcs0","pricing_plan_id":"cebpf4jnsgd1na2vs0mg"},{"bike_id":"c5afe4ed-432e-4c43-8e07-8a9cecbd1a94","system_id":"levelo_inurba_marseille","lat":43.2926,"lon":5.38448,"is_reserved":false,"is_disabled":false,"rental_uris":{"android":"levelo://app?vid=c5afe4ed-432e-4c43-8e07-8a9cecbd1a94","ios":"levelo://app?vid=c5afe4ed-432e-4c43-8e07-8a9cecbd1a94"},"vehicle_type_id":"4","last_reported":1738955186,"current_range_meters":38800,"station_id":"ce4bh692rcd13ifvqea0","pricing_plan_id":"cebpf4jnsgd1na2vs0mg"},{"bike_id":"4ff6396d-bcf3-4876-97c3-de72725e22c6","system_id":"levelo_inurba_marseille","lat":43.31712,"lon":5.43695,"is_reserved":false,"is_disabled":false,"rental_uris":{"android":"levelo://app?vid=4ff6396d-bcf3-4876-97c3-de72725e22c6","ios":"levelo://app?vid=4ff6396d-bcf3-4876-97c3-de72725e22c6"},"vehicle_type_id":"4","last_reported":1738955186,"current_range_meters":6400,"station_id":"ce4bhp92rcd13ifvqhcg","pricing_plan_id":"cebpf4jnsgd1na2vs0mg"},{"bike_id":"061ad218-5e14-42ca-9e7e-ab9e18d283ef","system_id":"levelo_inurba_marseille","lat":43.25862,"lon":5.39899,"is_reserved":false,"is_disabled":false,"rental_uris":{"android":"levelo://app?vid=061ad218-5e14-42ca-9e7e-ab9e18d283ef","ios":"levelo://app?vid=061ad218-5e14-42ca-9e7e-ab9e18d283ef"},"vehicle_type_id":"4","last_reported":1738955186,"current_range_meters":22400,"station_id":"ce4bhl92rcd13ifvqghg","pricing_plan_id":"cebpf4jnsgd1na2vs0mg"},{"bike_id":"a925dc3d-f1bb-45d1-8a1a-c5b4fe42d18e","system_id":"levelo_inurba_marseille","lat":43.29896,"lon":5.38893,"is_reserved":false,"is_disabled":false,"rental_uris":{"android":"levelo://app?vid=a925dc3d-f1bb-45d1-8a1a-c5b4fe42d18e","ios":"levelo://app?vid=a925dc3d-f1bb-45d1-8a1a-c5b4fe42d18e"},"vehicle_type_id":"4","last_reported":1738955186,"current_range_meters":24000,"station_id":"ce4bh392rcd13ifvqdl0","pricing_plan_id":"cebpf4jnsgd1na2vs0mg"},{"bike_id":"201ecfc8-9896-48c6-91ea-b68110b20dcc","system_id":"levelo_inurba_marseille","lat":43.278336,"lon":5.39197,"is_reserved":false,"is_disabled":true,"rental_uris":{"android":"levelo://app?vid=201ecfc8-9896-48c6-91ea-b68110b20dcc","ios":"levelo://app?vid=201ecfc8-9896-48c6-91ea-b68110b20dcc"},"vehicle_type_id":"4","last_reported":1738955186,"current_range_meters":0,"station_id":"ce4bhjp2rcd13ifvqga0","pricing_plan_id":"cebpf4jnsgd1na2vs0mg"},{"bike_id":"f67b7531-6c63-4f46-a9d4-4fdf588facb0","system_id":"levelo_inurba_marseille","lat":43.27858,"lon":5.40619,"is_reserved":false,"is_disabled":true,"rental_uris":{"android":"levelo://app?vid=f67b7531-6c63-4f46-a9d4-4fdf588facb0","ios":"levelo://app?vid=f67b7531-6c63-4f46-a9d4-4fdf588facb0"},"vehicle_type_id":"4","last_reported":1738955186,"current_range_meters":0,"station_id":"","pricing_plan_id":"cebpf4jnsgd1na2vs0mg"},{"bike_id":"b526e262-999e-484f-827d-51a1e672d63f","system_id":"levelo_inurba_marseille","lat":43.29305,"lon":5.37457,"is_reserved":false,"is_disabled":false,"rental_uris":{"android":"levelo://app?vid=b526e262-999e-484f-827d-51a1e672d63f","ios":"levelo://app?vid=b526e262-999e-484f-827d-51a1e672d63f"},"vehicle_type_id":"4","last_reported":1738955186,"current_range_meters":36000,"station_id":"ce4bgi12rcd13ifvqb70","pricing_plan_id":"cebpf4jnsgd1na2vs0mg"},{"bike_id":"ccc0d99a-4f06-4847-88ea-bfbf26a9a708","system_id":"levelo_inurba_marseille","lat":43.273679,"lon":5.362525,"is_reserved":false,"is_disabled":false,"rental_uris":{"android":"levelo://app?vid=ccc0d99a-4f06-4847-88ea-bfbf26a9a708","ios":"levelo://app?vid=ccc0d99a-4f06-4847-88ea-bfbf26a9a708"},"vehicle_type_id":"4","last_reported":1738955186,"current_range_meters":38800,"station_id":"ce4bhbh2rcd13ifvqeo0","pricing_plan_id":"cebpf4jnsgd1na2vs0mg"},{"bike_id":"1047ff1d-49b3-4860-859b-cb306bbb0b1e","system_id":"levelo_inurba_marseille","lat":43.2572,"lon":5.41794,"is_reserved":false,"is_disabled":false,"rental_uris":{"android":"levelo://app?vid=1047ff1d-49b3-4860-859b-cb306bbb0b1e","ios":"levelo://app?vid=1047ff1d-49b3-4860-859b-cb306bbb0b1e"},"vehicle_type_id":"4","last_reported":1738955186,"current_range_meters":6800,"station_id":"","pricing_plan_id":"cebpf4jnsgd1na2vs0mg"},{"bike_id":"a1ff6a73-36b2-4a61-a88f-8f0cc16371c7","system_id":"levelo_inurba_marseille","lat":43.26223,"lon":5.4044,"is_reserved":false,"is_disabled":false,"rental_uris":{"android":"levelo://app?vid=a1ff6a73-36b2-4a61-a88f-8f0cc16371c7","ios":"levelo://app?vid=a1ff6a73-36b2-4a61-a88f-8f0cc16371c7"},"vehicle_type_id":"4","last_reported":1738955186,"current_range_meters":36400,"station_id":"ce4bhmh2rcd13ifvqgmg","pricing_plan_id":"cebpf4jnsgd1na2vs0mg"},{"bike_id":"5a2d5dfd-03ec-4fe4-9110-6cf9df6cb751","system_id":"levelo_inurba_marseille","lat":43.28695,"lon":5.37945,"is_reserved":false,"is_disabled":true,"rental_uris":{"android":"levelo://app?vid=5a2d5dfd-03ec-4fe4-9110-6cf9df6cb751","ios":"levelo://app?vid=5a2d5dfd-03ec-4fe4-9110-6cf9df6cb751"},"vehicle_type_id":"4","last_reported":1738955186,"current_range_meters":26000,"station_id":"ce4bh9p2rcd13ifvqec0","pricing_plan_id":"cebpf4jnsgd1na2vs0mg"},{"bike_id":"359b6247-0c56-4066-9203-ed98a21ba5b2","system_id":"levelo_inurba_marseille","lat":43.27564,"lon":5.384253,"is_reserved":false,"is_disabled":false,"rental_uris":{"android":"levelo://app?vid=359b6247-0c56-4066-9203-ed98a21ba5b2","ios":"levelo://app?vid=359b6247-0c56-4066-9203-ed98a21ba5b2"},"vehicle_type_id":"4","last_reported":1738955186,"current_range_meters":39200,"station_id":"ce4bhh92rcd13ifvqfi0","pricing_plan_id":"cebpf4jnsgd1na2vs0mg"},{"bike_id":"114998f0-dfb0-494f-8117-273cb0fabd56","system_id":"levelo_inurba_marseille","lat":43.23187,"lon":5.39982,"is_reserved":false,"is_disabled":false,"rental_uris":{"android":"levelo://app?vid=114998f0-dfb0-494f-8117-273cb0fabd56","ios":"levelo://app?vid=114998f0-dfb0-494f-8117-273cb0fabd56"},"vehicle_type_id":"4","last_reported":1738955186,"current_range_meters":39200,"station_id":"ce4bhn12rcd13ifvqgqg","pricing_plan_id":"cebpf4jnsgd1na2vs0mg"},{"bike_id":"55c531ba-cb99-413a-81f9-84f3b3d5979e","system_id":"levelo_inurba_marseille","lat":43.229278,"lon":5.353746,"is_reserved":false,"is_disabled":false,"rental_uris":{"android":"levelo://app?vid=55c531ba-cb99-413a-81f9-84f3b3d5979e","ios":"levelo://app?vid=55c531ba-cb99-413a-81f9-84f3b3d5979e"},"vehicle_type_id":"4","last_reported":1738955186,"current_range_meters":24400,"station_id":"cpo3532slgdg3j2ikp40","pricing_plan_id":"cebpf4jnsgd1na2vs0mg"},{"bike_id":"be27c672-4d98-4138-8130-e02dbe5d41f9","system_id":"levelo_inurba_marseille","lat":43.2937,"lon":5.37865,"is_reserved":false,"is_disabled":false,"rental_uris":{"android":"levelo://app?vid=be27c672-4d98-4138-8130-e02dbe5d41f9","ios":"levelo://app?vid=be27c672-4d98-4138-8130-e02dbe5d41f9"},"vehicle_type_id":"4","last_reported":1738955186,"current_range_meters":38800,"station_id":"ce4bgjh2rcd13ifvqbf0","pricing_plan_id":"cebpf4jnsgd1na2vs0mg"},{"bike_id":"1e3b6a96-cbed-473d-ab34-026bfd583da7","system_id":"levelo_inurba_marseille","lat":43.29306,"lon":5.3718,"is_reserved":false,"is_disabled":false,"rental_uris":{"android":"levelo://app?vid=1e3b6a96-cbed-473d-ab34-026bfd583da7","ios":"levelo://app?vid=1e3b6a96-cbed-473d-ab34-026bfd583da7"},"vehicle_type_id":"4","last_reported":1738955186,"current_range_meters":24400,"station_id":"ce4bgh92rcd13ifvqb40","pricing_plan_id":"cebpf4jnsgd1na2vs0mg"},{"bike_id":"eeb1626b-d9a7-4181-8530-ac28fa96e047","system_id":"levelo_inurba_marseille","lat":43.29069,"lon":5.3589,"is_reserved":false,"is_disabled":false,"rental_uris":{"android":"levelo://app?vid=eeb1626b-d9a7-4181-8530-ac28fa96e047","ios":"levelo://app?vid=eeb1626b-d9a7-4181-8530-ac28fa96e047"},"vehicle_type_id":"4","last_reported":1738955186,"current_range_meters":38400,"station_id":"ce4bha92rcd13ifvqeg0","pricing_plan_id":"cebpf4jnsgd1na2vs0mg"},{"bike_id":"8c08c6a2-3404-4d8b-b103-439efea13c08","system_id":"levelo_inurba_marseille","lat":43.27952,"lon":5.41045,"is_reserved":false,"is_disabled":false,"rental_uris":{"android":"levelo://app?vid=8c08c6a2-3404-4d8b-b103-439efea13c08","ios":"levelo://app?vid=8c08c6a2-3404-4d8b-b103-439efea13c08"},"vehicle_type_id":"4","last_reported":1738955186,"current_range_meters":14400,"station_id":"ce4bhnp2rcd13ifvqh0g","pricing_plan_id":"cebpf4jnsgd1na2vs0mg"},{"bike_id":"42b00d6b-70d0-4750-bdd2-377deb18497e","system_id":"levelo_inurba_marseille","lat":43.22932,"lon":5.35388,"is_reserved":false,"is_disabled":false,"rental_uris":{"android":"levelo://app?vid=42b00d6b-70d0-4750-bdd2-377deb18497e","ios":"levelo://app?vid=42b00d6b-70d0-4750-bdd2-377deb18497e"},"vehicle_type_id":"4","last_reported":1738955186,"current_range_meters":27200,"station_id":"cpo3532slgdg3j2ikp40","pricing_plan_id":"cebpf4jnsgd1na2vs0mg"},{"bike_id":"aabb1cdc-f06b-4055-9f74-754a33430498","system_id":"levelo_inurba_marseille","lat":43.309247,"lon":5.401519,"is_reserved":false,"is_disabled":false,"rental_uris":{"android":"levelo://app?vid=aabb1cdc-f06b-4055-9f74-754a33430498","ios":"levelo://app?vid=aabb1cdc-f06b-4055-9f74-754a33430498"},"vehicle_type_id":"4","last_reported":1738955186,"current_range_meters":35200,"station_id":"ce4bgvp2rcd13ifvqct0","pricing_plan_id":"cebpf4jnsgd1na2vs0mg"},{"bike_id":"d26811a1-4240-4c38-9630-b44ae6b37a73","system_id":"levelo_inurba_marseille","lat":43.28157,"lon":5.42645,"is_reserved":false,"is_disabled":false,"rental_uris":{"android":"levelo://app?vid=d26811a1-4240-4c38-9630-b44ae6b37a73","ios":"levelo://app?vid=d26811a1-4240-4c38-9630-b44ae6b37a73"},"vehicle_type_id":"4","last_reported":1738955186,"current_range_meters":28400,"station_id":"ce4bhnh2rcd13ifvqgug","pricing_plan_id":"cebpf4jnsgd1na2vs0mg"},{"bike_id":"ea3d872f-e26a-4c91-8a3d-8dd3be540b63","system_id":"levelo_inurba_marseille","lat":43.31175,"lon":5.38718,"is_reserved":false,"is_disabled":false,"rental_uris":{"android":"levelo://app?vid=ea3d872f-e26a-4c91-8a3d-8dd3be540b63","ios":"levelo://app?vid=ea3d872f-e26a-4c91-8a3d-8dd3be540b63"},"vehicle_type_id":"4","last_reported":1738955186,"current_range_meters":8800,"station_id":"ce4bgv12rcd13ifvqcp0","pricing_plan_id":"cebpf4jnsgd1na2vs0mg"},{"bike_id":"f1bbac45-5b32-4b97-b4ef-d7ee065546b1","system_id":"levelo_inurba_marseille","lat":43.26034,"lon":5.37546,"is_reserved":false,"is_disabled":false,"rental_uris":{"android":"levelo://app?vid=f1bbac45-5b32-4b97-b4ef-d7ee065546b1","ios":"levelo://app?vid=f1bbac45-5b32-4b97-b4ef-d7ee065546b1"},"vehicle_type_id":"4","last_reported":1738955186,"current_range_meters":36800,"station_id":"ce4bhgh2rcd13ifvqfa0","pricing_plan_id":"cebpf4jnsgd1na2vs0mg"},{"bike_id":"3a959277-7982-4e64-8356-0ff2ab30f7da","system_id":"levelo_inurba_marseille","lat":43.26184,"lon":5.3744,"is_reserved":false,"is_disabled":false,"rental_uris":{"android":"levelo://app?vid=3a959277-7982-4e64-8356-0ff2ab30f7da","ios":"levelo://app?vid=3a959277-7982-4e64-8356-0ff2ab30f7da"},"vehicle_type_id":"4","last_reported":1738955186,"current_range_meters":26800,"station_id":"ce4bhgp2rcd13ifvqfc0","pricing_plan_id":"cebpf4jnsgd1na2vs0mg"},{"bike_id":"b0e32001-4ece-4f86-9445-59f523279fb0","system_id":"levelo_inurba_marseille","lat":43.2656,"lon":5.39018,"is_reserved":false,"is_disabled":false,"rental_uris":{"android":"levelo://app?vid=b0e32001-4ece-4f86-9445-59f523279fb0","ios":"levelo://app?vid=b0e32001-4ece-4f86-9445-59f523279fb0"},"vehicle_type_id":"4","last_reported":1738955186,"current_range_meters":10800,"station_id":"ce4bhe12rcd13ifvqf30","pricing_plan_id":"cebpf4jnsgd1na2vs0mg"},{"bike_id":"480c1ea6-85b2-413d-91f0-43d3624cb198","system_id":"levelo_inurba_marseille","lat":43.26694,"lon":5.38259,"is_reserved":false,"is_disabled":false,"rental_uris":{"android":"levelo://app?vid=480c1ea6-85b2-413d-91f0-43d3624cb198","ios":"levelo://app?vid=480c1ea6-85b2-413d-91f0-43d3624cb198"},"vehicle_type_id":"4","last_reported":1738955186,"current_range_meters":26000,"station_id":"ce4bhg92rcd13ifvqf90","pricing_plan_id":"cebpf4jnsgd1na2vs0mg"},{"bike_id":"3c434100-0ec7-4174-be49-81df709efba1","system_id":"levelo_inurba_marseille","lat":43.26496,"lon":5.39549,"is_reserved":false,"is_disabled":false,"rental_uris":{"android":"levelo://app?vid=3c434100-0ec7-4174-be49-81df709efba1","ios":"levelo://app?vid=3c434100-0ec7-4174-be49-81df709efba1"},"vehicle_type_id":"4","last_reported":1738955186,"current_range_meters":27200,"station_id":"ce4bhi12rcd13ifvqfq0","pricing_plan_id":"cebpf4jnsgd1na2vs0mg"},{"bike_id":"c6fc4b4a-5347-4905-8d96-67ea4d004656","system_id":"levelo_inurba_marseille","lat":43.23197,"lon":5.3555,"is_reserved":false,"is_disabled":false,"rental_uris":{"android":"levelo://app?vid=c6fc4b4a-5347-4905-8d96-67ea4d004656","ios":"levelo://app?vid=c6fc4b4a-5347-4905-8d96-67ea4d004656"},"vehicle_type_id":"4","last_reported":1738955186,"current_range_meters":9600,"station_id":"ce4bhu92rcd13ifvqi70","pricing_plan_id":"cebpf4jnsgd1na2vs0mg"},{"bike_id":"1da8b17b-ad28-4780-a711-431647c244ed","system_id":"levelo_inurba_marseille","lat":43.23964,"lon":5.36633,"is_reserved":false,"is_disabled":false,"rental_uris":{"android":"levelo://app?vid=1da8b17b-ad28-4780-a711-431647c244ed","ios":"levelo://app?vid=1da8b17b-ad28-4780-a711-431647c244ed"},"vehicle_type_id":"4","last_reported":1738955186,"current_range_meters":27600,"station_id":"ce4bhi12rcd13ifvqfp0","pricing_plan_id":"cebpf4jnsgd1na2vs0mg"},{"bike_id":"b1db3003-a515-433c-b006-a61b3558f325","system_id":"levelo_inurba_marseille","lat":43.30223,"lon":5.39451,"is_reserved":false,"is_disabled":true,"rental_uris":{"android":"levelo://app?vid=b1db3003-a515-433c-b006-a61b3558f325","ios":"levelo://app?vid=b1db3003-a515-433c-b006-a61b3558f325"},"vehicle_type_id":"4","last_reported":1738955186,"current_range_meters":38800,"station_id":"ce4bh0p2rcd13ifvqd70","pricing_plan_id":"cebpf4jnsgd1na2vs0mg"},{"bike_id":"fbaa4dd0-2b99-4be8-b9de-40c8274ed4d8","system_id":"levelo_inurba_marseille","lat":43.28944,"lon":5.36642,"is_reserved":false,"is_disabled":false,"rental_uris":{"android":"levelo://app?vid=fbaa4dd0-2b99-4be8-b9de-40c8274ed4d8","ios":"levelo://app?vid=fbaa4dd0-2b99-4be8-b9de-40c8274ed4d8"},"vehicle_type_id":"4","last_reported":1738955186,"current_range_meters":32000,"station_id":"ce4bhap2rcd13ifvqek0","pricing_plan_id":"cebpf4jnsgd1na2vs0mg"},{"bike_id":"92048128-7a92-4daa-a371-dfa471d7dc4e","system_id":"levelo_inurba_marseille","lat":43.29295,"lon":5.37174,"is_reserved":false,"is_disabled":false,"rental_uris":{"android":"levelo://app?vid=92048128-7a92-4daa-a371-dfa471d7dc4e","ios":"levelo://app?vid=92048128-7a92-4daa-a371-dfa471d7dc4e"},"vehicle_type_id":"4","last_reported":1738955186,"current_range_meters":14800,"station_id":"ce4bgh92rcd13ifvqb40","pricing_plan_id":"cebpf4jnsgd1na2vs0mg"},{"bike_id":"33655221-3d4d-4073-9a36-8f8c70d25bca","system_id":"levelo_inurba_marseille","lat":43.2894,"lon":5.39623,"is_reserved":false,"is_disabled":false,"rental_uris":{"android":"levelo://app?vid=33655221-3d4d-4073-9a36-8f8c70d25bca","ios":"levelo://app?vid=33655221-3d4d-4073-9a36-8f8c70d25bca"},"vehicle_type_id":"4","last_reported":1738955186,"current_range_meters":16000,"station_id":"ce4bh3h2rcd13ifvqdn0","pricing_plan_id":"cebpf4jnsgd1na2vs0mg"},{"bike_id":"e408d721-1719-4f3b-bfb2-ee76b97560c7","system_id":"levelo_inurba_marseille","lat":43.24649,"lon":5.38898,"is_reserved":false,"is_disabled":false,"rental_uris":{"android":"levelo://app?vid=e408d721-1719-4f3b-bfb2-ee76b97560c7","ios":"levelo://app?vid=e408d721-1719-4f3b-bfb2-ee76b97560c7"},"vehicle_type_id":"4","last_reported":1738955186,"current_range_meters":38800,"station_id":"ce4bhg12rcd13ifvqf60","pricing_plan_id":"cebpf4jnsgd1na2vs0mg"},{"bike_id":"ae7c8ab6-5e5b-41c7-a7f9-b9784df9487d","system_id":"levelo_inurba_marseille","lat":43.30795,"lon":5.38148,"is_reserved":false,"is_disabled":false,"rental_uris":{"android":"levelo://app?vid=ae7c8ab6-5e5b-41c7-a7f9-b9784df9487d","ios":"levelo://app?vid=ae7c8ab6-5e5b-41c7-a7f9-b9784df9487d"},"vehicle_type_id":"4","last_reported":1738955186,"current_range_meters":38000,"station_id":"ce4bgt12rcd13ifvqce0","pricing_plan_id":"cebpf4jnsgd1na2vs0mg"},{"bike_id":"b535402c-25ad-4274-bf8f-573a8931886f","system_id":"levelo_inurba_marseille","lat":43.33009,"lon":5.39039,"is_reserved":false,"is_disabled":false,"rental_uris":{"android":"levelo://app?vid=b535402c-25ad-4274-bf8f-573a8931886f","ios":"levelo://app?vid=b535402c-25ad-4274-bf8f-573a8931886f"},"vehicle_type_id":"4","last_reported":1738955186,"current_range_meters":38800,"station_id":"ce4bhr92rcd13ifvqhrg","pricing_plan_id":"cebpf4jnsgd1na2vs0mg"},{"bike_id":"c8467e20-c52a-4fa4-90f2-f69c646cb59f","system_id":"levelo_inurba_marseille","lat":43.308,"lon":5.43521,"is_reserved":false,"is_disabled":false,"rental_uris":{"android":"levelo://app?vid=c8467e20-c52a-4fa4-90f2-f69c646cb59f","ios":"levelo://app?vid=c8467e20-c52a-4fa4-90f2-f69c646cb59f"},"vehicle_type_id":"4","last_reported":1738955186,"current_range_meters":32000,"station_id":"ce4bhph2rcd13ifvqheg","pricing_plan_id":"cebpf4jnsgd1na2vs0mg"},{"bike_id":"0e58dbcc-36c7-460d-a1ed-2ae11f4b092f","system_id":"levelo_inurba_marseille","lat":43.29682,"lon":5.37304,"is_reserved":false,"is_disabled":false,"rental_uris":{"android":"levelo://app?vid=0e58dbcc-36c7-460d-a1ed-2ae11f4b092f","ios":"levelo://app?vid=0e58dbcc-36c7-460d-a1ed-2ae11f4b092f"},"vehicle_type_id":"4","last_reported":1738955186,"current_range_meters":37600,"station_id":"ce4bgk12rcd13ifvqbj0","pricing_plan_id":"cebpf4jnsgd1na2vs0mg"},{"bike_id":"24ee18a7-3698-4a44-8788-a183b551075c","system_id":"levelo_inurba_marseille","lat":43.26192,"lon":5.37447,"is_reserved":false,"is_disabled":false,"rental_uris":{"android":"levelo://app?vid=24ee18a7-3698-4a44-8788-a183b551075c","ios":"levelo://app?vid=24ee18a7-3698-4a44-8788-a183b551075c"},"vehicle_type_id":"4","last_reported":1738955186,"current_range_meters":38800,"station_id":"ce4bhgp2rcd13ifvqfc0","pricing_plan_id":"cebpf4jnsgd1na2vs0mg"},{"bike_id":"50556afe-291c-479b-ab44-06a8395200d8","system_id":"levelo_inurba_marseille","lat":43.30303,"lon":5.3923,"is_reserved":false,"is_disabled":false,"rental_uris":{"android":"levelo://app?vid=50556afe-291c-479b-ab44-06a8395200d8","ios":"levelo://app?vid=50556afe-291c-479b-ab44-06a8395200d8"},"vehicle_type_id":"4","last_reported":1738955186,"current_range_meters":38800,"station_id":"ce4bgkh2rcd13ifvqbk0","pricing_plan_id":"cebpf4jnsgd1na2vs0mg"},{"bike_id":"8b7ff651-145e-4b6f-b73e-f6e79c9f6087","system_id":"levelo_inurba_marseille","lat":43.31165,"lon":5.38713,"is_reserved":false,"is_disabled":false,"rental_uris":{"android":"levelo://app?vid=8b7ff651-145e-4b6f-b73e-f6e79c9f6087","ios":"levelo://app?vid=8b7ff651-145e-4b6f-b73e-f6e79c9f6087"},"vehicle_type_id":"4","last_reported":1738955186,"current_range_meters":38400,"station_id":"ce4bgv12rcd13ifvqcp0","pricing_plan_id":"cebpf4jnsgd1na2vs0mg"},{"bike_id":"0197f52a-7fe4-448e-93cf-8bdd2aecb08b","system_id":"levelo_inurba_marseille","lat":43.2762,"lon":5.36124,"is_reserved":false,"is_disabled":false,"rental_uris":{"android":"levelo://app?vid=0197f52a-7fe4-448e-93cf-8bdd2aecb08b","ios":"levelo://app?vid=0197f52a-7fe4-448e-93cf-8bdd2aecb08b"},"vehicle_type_id":"4","last_reported":1738955186,"current_range_meters":18800,"station_id":"ce4bgj92rcd13ifvqbe0","pricing_plan_id":"cebpf4jnsgd1na2vs0mg"},{"bike_id":"3eedb533-60be-417d-965d-a013ad266d09","system_id":"levelo_inurba_marseille","lat":43.27079,"lon":5.42286,"is_reserved":false,"is_disabled":false,"rental_uris":{"android":"levelo://app?vid=3eedb533-60be-417d-965d-a013ad266d09","ios":"levelo://app?vid=3eedb533-60be-417d-965d-a013ad266d09"},"vehicle_type_id":"4","last_reported":1738955186,"current_range_meters":38800,"station_id":"ce4bhk92rcd13ifvqgb0","pricing_plan_id":"cebpf4jnsgd1na2vs0mg"},{"bike_id":"9563d2a6-bf60-4758-bc3e-9491576f38e3","system_id":"levelo_inurba_marseille","lat":43.31643,"lon":5.38959,"is_reserved":false,"is_disabled":false,"rental_uris":{"android":"levelo://app?vid=9563d2a6-bf60-4758-bc3e-9491576f38e3","ios":"levelo://app?vid=9563d2a6-bf60-4758-bc3e-9491576f38e3"},"vehicle_type_id":"4","last_reported":1738955186,"current_range_meters":38000,"station_id":"","pricing_plan_id":"cebpf4jnsgd1na2vs0mg"},{"bike_id":"a3ac650b-23b8-4173-a83c-0e459b467a5b","system_id":"levelo_inurba_marseille","lat":43.29248,"lon":5.40907,"is_reserved":false,"is_disabled":false,"rental_uris":{"android":"levelo://app?vid=a3ac650b-23b8-4173-a83c-0e459b467a5b","ios":"levelo://app?vid=a3ac650b-23b8-4173-a83c-0e459b467a5b"},"vehicle_type_id":"4","last_reported":1738955186,"current_range_meters":12000,"station_id":"ce4bh192rcd13ifvqdc0","pricing_plan_id":"cebpf4jnsgd1na2vs0mg"},{"bike_id":"befb5b6b-67f1-40f2-b4f1-f2e1c95c0f34","system_id":"levelo_inurba_marseille","lat":43.28846,"lon":5.35837,"is_reserved":false,"is_disabled":false,"rental_uris":{"android":"levelo://app?vid=befb5b6b-67f1-40f2-b4f1-f2e1c95c0f34","ios":"levelo://app?vid=befb5b6b-67f1-40f2-b4f1-f2e1c95c0f34"},"vehicle_type_id":"4","last_reported":1738955186,"current_range_meters":34000,"station_id":"ce4bhb12rcd13ifvqem0","pricing_plan_id":"cebpf4jnsgd1na2vs0mg"},{"bike_id":"703c1590-66fc-4814-a618-2cdaec434ec1","system_id":"levelo_inurba_marseille","lat":43.30941,"lon":5.40141,"is_reserved":false,"is_disabled":false,"rental_uris":{"android":"levelo://app?vid=703c1590-66fc-4814-a618-2cdaec434ec1","ios":"levelo://app?vid=703c1590-66fc-4814-a618-2cdaec434ec1"},"vehicle_type_id":"4","last_reported":1738955186,"current_range_meters":20400,"station_id":"ce4bgvp2rcd13ifvqct0","pricing_plan_id":"cebpf4jnsgd1na2vs0mg"},{"bike_id":"59903c59-2e9e-43b1-8a37-af2b6126a2d3","system_id":"levelo_inurba_marseille","lat":43.29308,"lon":5.37178,"is_reserved":false,"is_disabled":false,"rental_uris":{"android":"levelo://app?vid=59903c59-2e9e-43b1-8a37-af2b6126a2d3","ios":"levelo://app?vid=59903c59-2e9e-43b1-8a37-af2b6126a2d3"},"vehicle_type_id":"4","last_reported":1738955186,"current_range_meters":27200,"station_id":"ce4bgh92rcd13ifvqb40","pricing_plan_id":"cebpf4jnsgd1na2vs0mg"},{"bike_id":"48e4415f-4bfa-4dd7-b8c6-72b96454ae71","system_id":"levelo_inurba_marseille","lat":43.26808,"lon":5.40262,"is_reserved":false,"is_disabled":false,"rental_uris":{"android":"levelo://app?vid=48e4415f-4bfa-4dd7-b8c6-72b96454ae71","ios":"levelo://app?vid=48e4415f-4bfa-4dd7-b8c6-72b96454ae71"},"vehicle_type_id":"4","last_reported":1738955186,"current_range_meters":39200,"station_id":"ce501612rcd8frsf0b60","pricing_plan_id":"cebpf4jnsgd1na2vs0mg"},{"bike_id":"86e7fe57-f8b6-4306-adb2-c48a1d6d6515","system_id":"levelo_inurba_marseille","lat":43.25726,"lon":5.41106,"is_reserved":false,"is_disabled":false,"rental_uris":{"android":"levelo://app?vid=86e7fe57-f8b6-4306-adb2-c48a1d6d6515","ios":"levelo://app?vid=86e7fe57-f8b6-4306-adb2-c48a1d6d6515"},"vehicle_type_id":"4","last_reported":1738955186,"current_range_meters":38800,"station_id":"ce4bhkp2rcd13ifvqgd0","pricing_plan_id":"cebpf4jnsgd1na2vs0mg"},{"bike_id":"3a4e5e2e-29e0-43a3-be62-8939165a3791","system_id":"levelo_inurba_marseille","lat":43.30795,"lon":5.38162,"is_reserved":false,"is_disabled":false,"rental_uris":{"android":"levelo://app?vid=3a4e5e2e-29e0-43a3-be62-8939165a3791","ios":"levelo://app?vid=3a4e5e2e-29e0-43a3-be62-8939165a3791"},"vehicle_type_id":"4","last_reported":1738955186,"current_range_meters":35200,"station_id":"ce4bgt12rcd13ifvqce0","pricing_plan_id":"cebpf4jnsgd1na2vs0mg"},{"bike_id":"20d6c88e-47e3-45a3-b6e5-c8978ffca51a","system_id":"levelo_inurba_marseille","lat":43.30312,"lon":5.39221,"is_reserved":false,"is_disabled":true,"rental_uris":{"android":"levelo://app?vid=20d6c88e-47e3-45a3-b6e5-c8978ffca51a","ios":"levelo://app?vid=20d6c88e-47e3-45a3-b6e5-c8978ffca51a"},"vehicle_type_id":"4","last_reported":1738955186,"current_range_meters":8400,"station_id":"ce4bgkh2rcd13ifvqbk0","pricing_plan_id":"cebpf4jnsgd1na2vs0mg"},{"bike_id":"2e7629af-07d3-4712-944b-9c2c492ddabb","system_id":"levelo_inurba_marseille","lat":43.29274,"lon":5.36842,"is_reserved":false,"is_disabled":false,"rental_uris":{"android":"levelo://app?vid=2e7629af-07d3-4712-944b-9c2c492ddabb","ios":"levelo://app?vid=2e7629af-07d3-4712-944b-9c2c492ddabb"},"vehicle_type_id":"4","last_reported":1738955186,"current_range_meters":32000,"station_id":"ce4bhbp2rcd13ifvqesg","pricing_plan_id":"cebpf4jnsgd1na2vs0mg"},{"bike_id":"be03eb0a-4597-4fef-8e89-e0a6de105fab","system_id":"levelo_inurba_marseille","lat":43.32342,"lon":5.40619,"is_reserved":false,"is_disabled":false,"rental_uris":{"android":"levelo://app?vid=be03eb0a-4597-4fef-8e89-e0a6de105fab","ios":"levelo://app?vid=be03eb0a-4597-4fef-8e89-e0a6de105fab"},"vehicle_type_id":"4","last_reported":1738955186,"current_range_meters":38400,"station_id":"ce4bhq92rcd13ifvqhjg","pricing_plan_id":"cebpf4jnsgd1na2vs0mg"},{"bike_id":"735deecb-ed88-4c68-a6d5-48850c716a0c","system_id":"levelo_inurba_marseille","lat":43.32339,"lon":5.40626,"is_reserved":false,"is_disabled":false,"rental_uris":{"android":"levelo://app?vid=735deecb-ed88-4c68-a6d5-48850c716a0c","ios":"levelo://app?vid=735deecb-ed88-4c68-a6d5-48850c716a0c"},"vehicle_type_id":"4","last_reported":1738955186,"current_range_meters":38400,"station_id":"ce4bhq92rcd13ifvqhjg","pricing_plan_id":"cebpf4jnsgd1na2vs0mg"},{"bike_id":"f1f77a65-168d-4334-be82-b755abecc6f3","system_id":"levelo_inurba_marseille","lat":43.30544,"lon":5.38427,"is_reserved":false,"is_disabled":false,"rental_uris":{"android":"levelo://app?vid=f1f77a65-168d-4334-be82-b755abecc6f3","ios":"levelo://app?vid=f1f77a65-168d-4334-be82-b755abecc6f3"},"vehicle_type_id":"4","last_reported":1738955186,"current_range_meters":9600,"station_id":"ce4bgg92rcd13ifvqb30","pricing_plan_id":"cebpf4jnsgd1na2vs0mg"},{"bike_id":"ed2947c7-416b-4f25-b15f-def172dbc755","system_id":"levelo_inurba_marseille","lat":43.3059,"lon":5.3655,"is_reserved":false,"is_disabled":false,"rental_uris":{"android":"levelo://app?vid=ed2947c7-416b-4f25-b15f-def172dbc755","ios":"levelo://app?vid=ed2947c7-416b-4f25-b15f-def172dbc755"},"vehicle_type_id":"4","last_reported":1738955186,"current_range_meters":35200,"station_id":"ce4bgs12rcd13ifvqcag","pricing_plan_id":"cebpf4jnsgd1na2vs0mg"},{"bike_id":"6de6674e-2a92-47e9-b14b-a5be24be1a2b","system_id":"levelo_inurba_marseille","lat":43.26209,"lon":5.3744,"is_reserved":false,"is_disabled":false,"rental_uris":{"android":"levelo://app?vid=6de6674e-2a92-47e9-b14b-a5be24be1a2b","ios":"levelo://app?vid=6de6674e-2a92-47e9-b14b-a5be24be1a2b"},"vehicle_type_id":"4","last_reported":1738955186,"current_range_meters":2800,"station_id":"ce4bhgp2rcd13ifvqfc0","pricing_plan_id":"cebpf4jnsgd1na2vs0mg"},{"bike_id":"4dbdfd8e-777a-4d7e-b2fa-95225e24aa6e","system_id":"levelo_inurba_marseille","lat":43.30791,"lon":5.38158,"is_reserved":false,"is_disabled":false,"rental_uris":{"android":"levelo://app?vid=4dbdfd8e-777a-4d7e-b2fa-95225e24aa6e","ios":"levelo://app?vid=4dbdfd8e-777a-4d7e-b2fa-95225e24aa6e"},"vehicle_type_id":"4","last_reported":1738955186,"current_range_meters":20000,"station_id":"ce4bgt12rcd13ifvqce0","pricing_plan_id":"cebpf4jnsgd1na2vs0mg"},{"bike_id":"21c23e3f-46f9-4595-9668-722a07efb801","system_id":"levelo_inurba_marseille","lat":43.29302,"lon":5.37182,"is_reserved":false,"is_disabled":false,"rental_uris":{"android":"levelo://app?vid=21c23e3f-46f9-4595-9668-722a07efb801","ios":"levelo://app?vid=21c23e3f-46f9-4595-9668-722a07efb801"},"vehicle_type_id":"4","last_reported":1738955186,"current_range_meters":32800,"station_id":"ce4bgh92rcd13ifvqb40","pricing_plan_id":"cebpf4jnsgd1na2vs0mg"},{"bike_id":"78ecc04f-c6b4-4a42-9dab-0f7e815391e1","system_id":"levelo_inurba_marseille","lat":43.29419,"lon":5.38631,"is_reserved":false,"is_disabled":false,"rental_uris":{"android":"levelo://app?vid=78ecc04f-c6b4-4a42-9dab-0f7e815391e1","ios":"levelo://app?vid=78ecc04f-c6b4-4a42-9dab-0f7e815391e1"},"vehicle_type_id":"4","last_reported":1738955186,"current_range_meters":38000,"station_id":"ce4bh2h2rcd13ifvqdh0","pricing_plan_id":"cebpf4jnsgd1na2vs0mg"},{"bike_id":"a72cdeb8-b07a-4fcc-a8c7-f3da7402cd9e","system_id":"levelo_inurba_marseille","lat":43.30908,"lon":5.36855,"is_reserved":false,"is_disabled":false,"rental_uris":{"android":"levelo://app?vid=a72cdeb8-b07a-4fcc-a8c7-f3da7402cd9e","ios":"levelo://app?vid=a72cdeb8-b07a-4fcc-a8c7-f3da7402cd9e"},"vehicle_type_id":"4","last_reported":1738955186,"current_range_meters":17600,"station_id":"ce4bgn92rcd13ifvqbvg","pricing_plan_id":"cebpf4jnsgd1na2vs0mg"},{"bike_id":"085ce127-47fd-4717-af3a-960d5a856a09","system_id":"levelo_inurba_marseille","lat":43.30878,"lon":5.37194,"is_reserved":false,"is_disabled":false,"rental_uris":{"android":"levelo://app?vid=085ce127-47fd-4717-af3a-960d5a856a09","ios":"levelo://app?vid=085ce127-47fd-4717-af3a-960d5a856a09"},"vehicle_type_id":"4","last_reported":1738955186,"current_range_meters":30000,"station_id":"ce4bguh2rcd13ifvqckg","pricing_plan_id":"cebpf4jnsgd1na2vs0mg"},{"bike_id":"b9f6953b-deb3-4c85-8260-f7a2e1494b80","system_id":"levelo_inurba_marseille","lat":43.30672,"lon":5.40068,"is_reserved":false,"is_disabled":false,"rental_uris":{"android":"levelo://app?vid=b9f6953b-deb3-4c85-8260-f7a2e1494b80","ios":"levelo://app?vid=b9f6953b-deb3-4c85-8260-f7a2e1494b80"},"vehicle_type_id":"4","last_reported":1738955186,"current_range_meters":29600,"station_id":"ce4bh112rcd13ifvqda0","pricing_plan_id":"cebpf4jnsgd1na2vs0mg"},{"bike_id":"cb19e6c5-8d1f-4fcb-ad62-56606870521b","system_id":"levelo_inurba_marseille","lat":43.295313,"lon":5.385407,"is_reserved":false,"is_disabled":false,"rental_uris":{"android":"levelo://app?vid=cb19e6c5-8d1f-4fcb-ad62-56606870521b","ios":"levelo://app?vid=cb19e6c5-8d1f-4fcb-ad62-56606870521b"},"vehicle_type_id":"4","last_reported":1738955186,"current_range_meters":30800,"station_id":"ce4bgih2rcd13ifvqba0","pricing_plan_id":"cebpf4jnsgd1na2vs0mg"},{"bike_id":"c5789181-d252-4c46-b75d-908f3a6a38fe","system_id":"levelo_inurba_marseille","lat":43.33743,"lon":5.39188,"is_reserved":false,"is_disabled":false,"rental_uris":{"android":"levelo://app?vid=c5789181-d252-4c46-b75d-908f3a6a38fe","ios":"levelo://app?vid=c5789181-d252-4c46-b75d-908f3a6a38fe"},"vehicle_type_id":"4","last_reported":1738955186,"current_range_meters":38800,"station_id":"ce4bhr92rcd13ifvqhsg","pricing_plan_id":"cebpf4jnsgd1na2vs0mg"},{"bike_id":"1421091f-d9bd-4f1c-be63-477178bb18b4","system_id":"levelo_inurba_marseille","lat":43.26682,"lon":5.38271,"is_reserved":false,"is_disabled":false,"rental_uris":{"android":"levelo://app?vid=1421091f-d9bd-4f1c-be63-477178bb18b4","ios":"levelo://app?vid=1421091f-d9bd-4f1c-be63-477178bb18b4"},"vehicle_type_id":"4","last_reported":1738955186,"current_range_meters":33200,"station_id":"ce4bhg92rcd13ifvqf90","pricing_plan_id":"cebpf4jnsgd1na2vs0mg"},{"bike_id":"d8366f96-842f-49f2-85e7-1920941ffc50","system_id":"levelo_inurba_marseille","lat":43.3091,"lon":5.3684,"is_reserved":false,"is_disabled":false,"rental_uris":{"android":"levelo://app?vid=d8366f96-842f-49f2-85e7-1920941ffc50","ios":"levelo://app?vid=d8366f96-842f-49f2-85e7-1920941ffc50"},"vehicle_type_id":"4","last_reported":1738955186,"current_range_meters":28800,"station_id":"ce4bgn92rcd13ifvqbvg","pricing_plan_id":"cebpf4jnsgd1na2vs0mg"},{"bike_id":"b8a288ef-4349-437d-a22a-753084f41b03","system_id":"levelo_inurba_marseille","lat":43.31776,"lon":5.39017,"is_reserved":false,"is_disabled":false,"rental_uris":{"android":"levelo://app?vid=b8a288ef-4349-437d-a22a-753084f41b03","ios":"levelo://app?vid=b8a288ef-4349-437d-a22a-753084f41b03"},"vehicle_type_id":"4","last_reported":1738955186,"current_range_meters":38400,"station_id":"ce4bhqp2rcd13ifvqhng","pricing_plan_id":"cebpf4jnsgd1na2vs0mg"},{"bike_id":"4b346763-af4b-47bb-8f20-016bb4fee202","system_id":"levelo_inurba_marseille","lat":43.27815,"lon":5.40716,"is_reserved":false,"is_disabled":false,"rental_uris":{"android":"levelo://app?vid=4b346763-af4b-47bb-8f20-016bb4fee202","ios":"levelo://app?vid=4b346763-af4b-47bb-8f20-016bb4fee202"},"vehicle_type_id":"4","last_reported":1738955186,"current_range_meters":39200,"station_id":"ce4bhnh2rcd13ifvqgtg","pricing_plan_id":"cebpf4jnsgd1na2vs0mg"},{"bike_id":"d6ba4340-da13-4b9a-9fa6-901f73e2edaa","system_id":"levelo_inurba_marseille","lat":43.28111,"lon":5.37835,"is_reserved":false,"is_disabled":false,"rental_uris":{"android":"levelo://app?vid=d6ba4340-da13-4b9a-9fa6-901f73e2edaa","ios":"levelo://app?vid=d6ba4340-da13-4b9a-9fa6-901f73e2edaa"},"vehicle_type_id":"4","last_reported":1738955186,"current_range_meters":31200,"station_id":"ce4bha12rcd13ifvqee0","pricing_plan_id":"cebpf4jnsgd1na2vs0mg"},{"bike_id":"aae504f5-5274-47a3-8d28-27a04323e44f","system_id":"levelo_inurba_marseille","lat":43.24162,"lon":5.39725,"is_reserved":false,"is_disabled":false,"rental_uris":{"android":"levelo://app?vid=aae504f5-5274-47a3-8d28-27a04323e44f","ios":"levelo://app?vid=aae504f5-5274-47a3-8d28-27a04323e44f"},"vehicle_type_id":"4","last_reported":1738955186,"current_range_meters":3600,"station_id":"ce4bhn12rcd13ifvqgpg","pricing_plan_id":"cebpf4jnsgd1na2vs0mg"},{"bike_id":"61041424-c073-4522-a5e8-ef1451d04835","system_id":"levelo_inurba_marseille","lat":43.30595,"lon":5.37238,"is_reserved":false,"is_disabled":false,"rental_uris":{"android":"levelo://app?vid=61041424-c073-4522-a5e8-ef1451d04835","ios":"levelo://app?vid=61041424-c073-4522-a5e8-ef1451d04835"},"vehicle_type_id":"4","last_reported":1738955186,"current_range_meters":32000,"station_id":"ce4bgqh2rcd13ifvqc4g","pricing_plan_id":"cebpf4jnsgd1na2vs0mg"},{"bike_id":"9df291fb-1aaa-46e9-b45f-323e94d6df84","system_id":"levelo_inurba_marseille","lat":43.29649,"lon":5.37164,"is_reserved":false,"is_disabled":false,"rental_uris":{"android":"levelo://app?vid=9df291fb-1aaa-46e9-b45f-323e94d6df84","ios":"levelo://app?vid=9df291fb-1aaa-46e9-b45f-323e94d6df84"},"vehicle_type_id":"4","last_reported":1738955186,"current_range_meters":36400,"station_id":"ce4bgnh2rcd13ifvqc0g","pricing_plan_id":"cebpf4jnsgd1na2vs0mg"},{"bike_id":"33f37d6b-08fe-4642-b4da-79d2133e4243","system_id":"levelo_inurba_marseille","lat":43.27304,"lon":5.42315,"is_reserved":false,"is_disabled":true,"rental_uris":{"android":"levelo://app?vid=33f37d6b-08fe-4642-b4da-79d2133e4243","ios":"levelo://app?vid=33f37d6b-08fe-4642-b4da-79d2133e4243"},"vehicle_type_id":"4","last_reported":1738955186,"current_range_meters":0,"station_id":"","pricing_plan_id":"cebpf4jnsgd1na2vs0mg"},{"bike_id":"118b1d9a-bc00-428d-ac60-6949e2e1ff6b","system_id":"levelo_inurba_marseille","lat":43.24802,"lon":5.37451,"is_reserved":false,"is_disabled":false,"rental_uris":{"android":"levelo://app?vid=118b1d9a-bc00-428d-ac60-6949e2e1ff6b","ios":"levelo://app?vid=118b1d9a-bc00-428d-ac60-6949e2e1ff6b"},"vehicle_type_id":"4","last_reported":1738955186,"current_range_meters":36400,"station_id":"ce4bhgh2rcd13ifvqfb0","pricing_plan_id":"cebpf4jnsgd1na2vs0mg"},{"bike_id":"10498f6b-01c8-4f11-8439-79270cb5ef36","system_id":"levelo_inurba_marseille","lat":43.30136,"lon":5.39868,"is_reserved":false,"is_disabled":false,"rental_uris":{"android":"levelo://app?vid=10498f6b-01c8-4f11-8439-79270cb5ef36","ios":"levelo://app?vid=10498f6b-01c8-4f11-8439-79270cb5ef36"},"vehicle_type_id":"4","last_reported":1738955186,"current_range_meters":38800,"station_id":"ce4bh0h2rcd13ifvqd40","pricing_plan_id":"cebpf4jnsgd1na2vs0mg"},{"bike_id":"c1011d45-0e30-48f4-9c83-9de4a4d17063","system_id":"levelo_inurba_marseille","lat":43.29351,"lon":5.42842,"is_reserved":false,"is_disabled":false,"rental_uris":{"android":"levelo://app?vid=c1011d45-0e30-48f4-9c83-9de4a4d17063","ios":"levelo://app?vid=c1011d45-0e30-48f4-9c83-9de4a4d17063"},"vehicle_type_id":"4","last_reported":1738955186,"current_range_meters":19600,"station_id":"","pricing_plan_id":"cebpf4jnsgd1na2vs0mg"},{"bike_id":"d94da8e2-a1f1-46e4-bb51-ac3d4a761980","system_id":"levelo_inurba_marseille","lat":43.25831,"lon":5.39425,"is_reserved":false,"is_disabled":false,"rental_uris":{"android":"levelo://app?vid=d94da8e2-a1f1-46e4-bb51-ac3d4a761980","ios":"levelo://app?vid=d94da8e2-a1f1-46e4-bb51-ac3d4a761980"},"vehicle_type_id":"4","last_reported":1738955186,"current_range_meters":38800,"station_id":"ce4bhip2rcd13ifvqft0","pricing_plan_id":"cebpf4jnsgd1na2vs0mg"},{"bike_id":"616062e4-19db-444e-bc13-a16a639c15cb","system_id":"levelo_inurba_marseille","lat":43.30636,"lon":5.40117,"is_reserved":false,"is_disabled":true,"rental_uris":{"android":"levelo://app?vid=616062e4-19db-444e-bc13-a16a639c15cb","ios":"levelo://app?vid=616062e4-19db-444e-bc13-a16a639c15cb"},"vehicle_type_id":"4","last_reported":1738955186,"current_range_meters":7200,"station_id":"ce4bh112rcd13ifvqda0","pricing_plan_id":"cebpf4jnsgd1na2vs0mg"},{"bike_id":"adea3fe0-0d5f-493f-bc7a-8db19cd779cc","system_id":"levelo_inurba_marseille","lat":43.26201,"lon":5.37927,"is_reserved":false,"is_disabled":false,"rental_uris":{"android":"levelo://app?vid=adea3fe0-0d5f-493f-bc7a-8db19cd779cc","ios":"levelo://app?vid=adea3fe0-0d5f-493f-bc7a-8db19cd779cc"},"vehicle_type_id":"4","last_reported":1738955186,"current_range_meters":36400,"station_id":"ce4bhjp2rcd13ifvqg90","pricing_plan_id":"cebpf4jnsgd1na2vs0mg"},{"bike_id":"e01214fb-2b7e-431d-b041-1bfa5bb453c9","system_id":"levelo_inurba_marseille","lat":43.30467,"lon":5.3792,"is_reserved":false,"is_disabled":false,"rental_uris":{"android":"levelo://app?vid=e01214fb-2b7e-431d-b041-1bfa5bb453c9","ios":"levelo://app?vid=e01214fb-2b7e-431d-b041-1bfa5bb453c9"},"vehicle_type_id":"4","last_reported":1738955186,"current_range_meters":28000,"station_id":"ce4bgup2rcd13ifvqcn0","pricing_plan_id":"cebpf4jnsgd1na2vs0mg"},{"bike_id":"889ef476-f99b-42ff-95f8-28ea11857507","system_id":"levelo_inurba_marseille","lat":43.23969,"lon":5.36631,"is_reserved":false,"is_disabled":false,"rental_uris":{"android":"levelo://app?vid=889ef476-f99b-42ff-95f8-28ea11857507","ios":"levelo://app?vid=889ef476-f99b-42ff-95f8-28ea11857507"},"vehicle_type_id":"4","last_reported":1738955186,"current_range_meters":35200,"station_id":"ce4bhi12rcd13ifvqfp0","pricing_plan_id":"cebpf4jnsgd1na2vs0mg"},{"bike_id":"2e45d347-f2a9-4c8e-b5da-d3e56e0bf649","system_id":"levelo_inurba_marseille","lat":43.2319,"lon":5.39984,"is_reserved":false,"is_disabled":false,"rental_uris":{"android":"levelo://app?vid=2e45d347-f2a9-4c8e-b5da-d3e56e0bf649","ios":"levelo://app?vid=2e45d347-f2a9-4c8e-b5da-d3e56e0bf649"},"vehicle_type_id":"4","last_reported":1738955186,"current_range_meters":9600,"station_id":"ce4bhn12rcd13ifvqgqg","pricing_plan_id":"cebpf4jnsgd1na2vs0mg"},{"bike_id":"b1bcd880-b0f3-4996-aa46-f671e2380f79","system_id":"levelo_inurba_marseille","lat":43.30304,"lon":5.3922,"is_reserved":false,"is_disabled":false,"rental_uris":{"android":"levelo://app?vid=b1bcd880-b0f3-4996-aa46-f671e2380f79","ios":"levelo://app?vid=b1bcd880-b0f3-4996-aa46-f671e2380f79"},"vehicle_type_id":"4","last_reported":1738955186,"current_range_meters":39200,"station_id":"ce4bgkh2rcd13ifvqbk0","pricing_plan_id":"cebpf4jnsgd1na2vs0mg"},{"bike_id":"aee60cfb-7586-4f94-9113-47cfd9d66739","system_id":"levelo_inurba_marseille","lat":43.28159,"lon":5.4264,"is_reserved":false,"is_disabled":true,"rental_uris":{"android":"levelo://app?vid=aee60cfb-7586-4f94-9113-47cfd9d66739","ios":"levelo://app?vid=aee60cfb-7586-4f94-9113-47cfd9d66739"},"vehicle_type_id":"4","last_reported":1738955186,"current_range_meters":400,"station_id":"ce4bhnh2rcd13ifvqgug","pricing_plan_id":"cebpf4jnsgd1na2vs0mg"},{"bike_id":"fd741a2c-6090-4746-8e0c-a3bcf67c55a8","system_id":"levelo_inurba_marseille","lat":43.231526,"lon":5.437011,"is_reserved":false,"is_disabled":true,"rental_uris":{"android":"levelo://app?vid=fd741a2c-6090-4746-8e0c-a3bcf67c55a8","ios":"levelo://app?vid=fd741a2c-6090-4746-8e0c-a3bcf67c55a8"},"vehicle_type_id":"4","last_reported":1738955186,"current_range_meters":0,"station_id":"ce4bhmp2rcd13ifvqgog","pricing_plan_id":"cebpf4jnsgd1na2vs0mg"},{"bike_id":"f2df57fd-48fb-42b4-9b53-5e639c9b06ad","system_id":"levelo_inurba_marseille","lat":43.32365,"lon":5.388971,"is_reserved":false,"is_disabled":false,"rental_uris":{"android":"levelo://app?vid=f2df57fd-48fb-42b4-9b53-5e639c9b06ad","ios":"levelo://app?vid=f2df57fd-48fb-42b4-9b53-5e639c9b06ad"},"vehicle_type_id":"4","last_reported":1738955186,"current_range_meters":36800,"station_id":"ce4bhqp2rcd13ifvqhog","pricing_plan_id":"cebpf4jnsgd1na2vs0mg"},{"bike_id":"0db2bfd7-2ca1-4f77-9597-ebb3b2c72fef","system_id":"levelo_inurba_marseille","lat":43.27373,"lon":5.3627,"is_reserved":false,"is_disabled":false,"rental_uris":{"android":"levelo://app?vid=0db2bfd7-2ca1-4f77-9597-ebb3b2c72fef","ios":"levelo://app?vid=0db2bfd7-2ca1-4f77-9597-ebb3b2c72fef"},"vehicle_type_id":"4","last_reported":1738955186,"current_range_meters":20800,"station_id":"ce4bhbh2rcd13ifvqeo0","pricing_plan_id":"cebpf4jnsgd1na2vs0mg"},{"bike_id":"169f7370-d5f4-4ed1-96a4-c5bf0b3d5793","system_id":"levelo_inurba_marseille","lat":43.30953,"lon":5.39036,"is_reserved":false,"is_disabled":false,"rental_uris":{"android":"levelo://app?vid=169f7370-d5f4-4ed1-96a4-c5bf0b3d5793","ios":"levelo://app?vid=169f7370-d5f4-4ed1-96a4-c5bf0b3d5793"},"vehicle_type_id":"4","last_reported":1738955186,"current_range_meters":4400,"station_id":"ce4bgup2rcd13ifvqco0","pricing_plan_id":"cebpf4jnsgd1na2vs0mg"},{"bike_id":"59db9156-837c-4bef-bdf0-6cb05d00fb23","system_id":"levelo_inurba_marseille","lat":43.24166,"lon":5.36399,"is_reserved":false,"is_disabled":false,"rental_uris":{"android":"levelo://app?vid=59db9156-837c-4bef-bdf0-6cb05d00fb23","ios":"levelo://app?vid=59db9156-837c-4bef-bdf0-6cb05d00fb23"},"vehicle_type_id":"4","last_reported":1738955186,"current_range_meters":30400,"station_id":"cpo36qri1sfpv3e86is0","pricing_plan_id":"cebpf4jnsgd1na2vs0mg"},{"bike_id":"da2d8c01-630b-457d-a9b4-7854372e8eba","system_id":"levelo_inurba_marseille","lat":43.30486,"lon":5.36804,"is_reserved":false,"is_disabled":false,"rental_uris":{"android":"levelo://app?vid=da2d8c01-630b-457d-a9b4-7854372e8eba","ios":"levelo://app?vid=da2d8c01-630b-457d-a9b4-7854372e8eba"},"vehicle_type_id":"4","last_reported":1738955186,"current_range_meters":22400,"station_id":"","pricing_plan_id":"cebpf4jnsgd1na2vs0mg"},{"bike_id":"19c91191-64ee-4803-94d7-14a4a66340df","system_id":"levelo_inurba_marseille","lat":43.31715,"lon":5.42399,"is_reserved":false,"is_disabled":true,"rental_uris":{"android":"levelo://app?vid=19c91191-64ee-4803-94d7-14a4a66340df","ios":"levelo://app?vid=19c91191-64ee-4803-94d7-14a4a66340df"},"vehicle_type_id":"4","last_reported":1738955186,"current_range_meters":0,"station_id":"ce4bhp92rcd13ifvqhbg","pricing_plan_id":"cebpf4jnsgd1na2vs0mg"},{"bike_id":"253b4999-41c5-4f79-8ef7-b17022cf04e3","system_id":"levelo_inurba_marseille","lat":43.33023,"lon":5.39036,"is_reserved":false,"is_disabled":false,"rental_uris":{"android":"levelo://app?vid=253b4999-41c5-4f79-8ef7-b17022cf04e3","ios":"levelo://app?vid=253b4999-41c5-4f79-8ef7-b17022cf04e3"},"vehicle_type_id":"4","last_reported":1738955186,"current_range_meters":37600,"station_id":"ce4bhr92rcd13ifvqhrg","pricing_plan_id":"cebpf4jnsgd1na2vs0mg"},{"bike_id":"426e09ee-9e79-4472-8ad7-7e9f8628bd00","system_id":"levelo_inurba_marseille","lat":43.24663,"lon":5.38152,"is_reserved":false,"is_disabled":false,"rental_uris":{"android":"levelo://app?vid=426e09ee-9e79-4472-8ad7-7e9f8628bd00","ios":"levelo://app?vid=426e09ee-9e79-4472-8ad7-7e9f8628bd00"},"vehicle_type_id":"4","last_reported":1738955186,"current_range_meters":10800,"station_id":"ce4bhih2rcd13ifvqfr0","pricing_plan_id":"cebpf4jnsgd1na2vs0mg"},{"bike_id":"de295655-2dda-46a2-bf20-1c646117ad88","system_id":"levelo_inurba_marseille","lat":43.308,"lon":5.43524,"is_reserved":false,"is_disabled":false,"rental_uris":{"android":"levelo://app?vid=de295655-2dda-46a2-bf20-1c646117ad88","ios":"levelo://app?vid=de295655-2dda-46a2-bf20-1c646117ad88"},"vehicle_type_id":"4","last_reported":1738955186,"current_range_meters":39200,"station_id":"ce4bhph2rcd13ifvqheg","pricing_plan_id":"cebpf4jnsgd1na2vs0mg"},{"bike_id":"41d1cdfd-9d6c-4f89-b944-155694e0f0da","system_id":"levelo_inurba_marseille","lat":43.30448,"lon":5.38886,"is_reserved":false,"is_disabled":false,"rental_uris":{"android":"levelo://app?vid=41d1cdfd-9d6c-4f89-b944-155694e0f0da","ios":"levelo://app?vid=41d1cdfd-9d6c-4f89-b944-155694e0f0da"},"vehicle_type_id":"4","last_reported":1738955186,"current_range_meters":7200,"station_id":"ce4bgk12rcd13ifvqbi0","pricing_plan_id":"cebpf4jnsgd1na2vs0mg"},{"bike_id":"4e0b88b7-802a-44d7-8ca8-f331fc880877","system_id":"levelo_inurba_marseille","lat":43.24548,"lon":5.39519,"is_reserved":false,"is_disabled":false,"rental_uris":{"android":"levelo://app?vid=4e0b88b7-802a-44d7-8ca8-f331fc880877","ios":"levelo://app?vid=4e0b88b7-802a-44d7-8ca8-f331fc880877"},"vehicle_type_id":"4","last_reported":1738955186,"current_range_meters":20000,"station_id":"ce4bhlp2rcd13ifvqgjg","pricing_plan_id":"cebpf4jnsgd1na2vs0mg"},{"bike_id":"63502e7d-71b3-44d6-b82d-6352b6e3809f","system_id":"levelo_inurba_marseille","lat":43.25834,"lon":5.39438,"is_reserved":false,"is_disabled":false,"rental_uris":{"android":"levelo://app?vid=63502e7d-71b3-44d6-b82d-6352b6e3809f","ios":"levelo://app?vid=63502e7d-71b3-44d6-b82d-6352b6e3809f"},"vehicle_type_id":"4","last_reported":1738955186,"current_range_meters":36400,"station_id":"ce4bhip2rcd13ifvqft0","pricing_plan_id":"cebpf4jnsgd1na2vs0mg"},{"bike_id":"54bc081f-58f2-4ed7-bb64-5dac5c7e1c26","system_id":"levelo_inurba_marseille","lat":43.27621,"lon":5.36106,"is_reserved":false,"is_disabled":false,"rental_uris":{"android":"levelo://app?vid=54bc081f-58f2-4ed7-bb64-5dac5c7e1c26","ios":"levelo://app?vid=54bc081f-58f2-4ed7-bb64-5dac5c7e1c26"},"vehicle_type_id":"4","last_reported":1738955186,"current_range_meters":18800,"station_id":"ce4bgj92rcd13ifvqbe0","pricing_plan_id":"cebpf4jnsgd1na2vs0mg"},{"bike_id":"375e0cd2-469f-4762-942a-816fe40f9032","system_id":"levelo_inurba_marseille","lat":43.30914,"lon":5.36853,"is_reserved":false,"is_disabled":false,"rental_uris":{"android":"levelo://app?vid=375e0cd2-469f-4762-942a-816fe40f9032","ios":"levelo://app?vid=375e0cd2-469f-4762-942a-816fe40f9032"},"vehicle_type_id":"4","last_reported":1738955186,"current_range_meters":17600,"station_id":"ce4bgn92rcd13ifvqbvg","pricing_plan_id":"cebpf4jnsgd1na2vs0mg"},{"bike_id":"bf632409-033b-4e98-8d00-ae0a70719868","system_id":"levelo_inurba_marseille","lat":43.23193,"lon":5.3997,"is_reserved":false,"is_disabled":false,"rental_uris":{"android":"levelo://app?vid=bf632409-033b-4e98-8d00-ae0a70719868","ios":"levelo://app?vid=bf632409-033b-4e98-8d00-ae0a70719868"},"vehicle_type_id":"4","last_reported":1738955186,"current_range_meters":38800,"station_id":"ce4bhn12rcd13ifvqgqg","pricing_plan_id":"cebpf4jnsgd1na2vs0mg"},{"bike_id":"5d1dacf3-3fa1-40ba-8373-ce163dd2d283","system_id":"levelo_inurba_marseille","lat":43.26194,"lon":5.37949,"is_reserved":false,"is_disabled":false,"rental_uris":{"android":"levelo://app?vid=5d1dacf3-3fa1-40ba-8373-ce163dd2d283","ios":"levelo://app?vid=5d1dacf3-3fa1-40ba-8373-ce163dd2d283"},"vehicle_type_id":"4","last_reported":1738955186,"current_range_meters":38800,"station_id":"ce4bhjp2rcd13ifvqg90","pricing_plan_id":"cebpf4jnsgd1na2vs0mg"},{"bike_id":"37db5fc9-0f62-46fc-91e6-628868788ccc","system_id":"levelo_inurba_marseille","lat":43.28998,"lon":5.35607,"is_reserved":false,"is_disabled":false,"rental_uris":{"android":"levelo://app?vid=37db5fc9-0f62-46fc-91e6-628868788ccc","ios":"levelo://app?vid=37db5fc9-0f62-46fc-91e6-628868788ccc"},"vehicle_type_id":"4","last_reported":1738955186,"current_range_meters":39200,"station_id":"ce4bhb92rcd13ifvqen0","pricing_plan_id":"cebpf4jnsgd1na2vs0mg"},{"bike_id":"6ff781d1-2621-44d1-b299-83b571f09432","system_id":"levelo_inurba_marseille","lat":43.3406,"lon":5.3852,"is_reserved":false,"is_disabled":false,"rental_uris":{"android":"levelo://app?vid=6ff781d1-2621-44d1-b299-83b571f09432","ios":"levelo://app?vid=6ff781d1-2621-44d1-b299-83b571f09432"},"vehicle_type_id":"4","last_reported":1738955186,"current_range_meters":6800,"station_id":"","pricing_plan_id":"cebpf4jnsgd1na2vs0mg"},{"bike_id":"a2e733be-b3e3-470d-b20e-7d85b62390d1","system_id":"levelo_inurba_marseille","lat":43.30083,"lon":5.3907,"is_reserved":false,"is_disabled":false,"rental_uris":{"android":"levelo://app?vid=a2e733be-b3e3-470d-b20e-7d85b62390d1","ios":"levelo://app?vid=a2e733be-b3e3-470d-b20e-7d85b62390d1"},"vehicle_type_id":"4","last_reported":1738955186,"current_range_meters":24800,"station_id":"ce4bh192rcd13ifvqdb0","pricing_plan_id":"cebpf4jnsgd1na2vs0mg"},{"bike_id":"2e7bd61f-e5b8-4f15-8770-276e298dc684","system_id":"levelo_inurba_marseille","lat":43.3036,"lon":5.41877,"is_reserved":false,"is_disabled":false,"rental_uris":{"android":"levelo://app?vid=2e7bd61f-e5b8-4f15-8770-276e298dc684","ios":"levelo://app?vid=2e7bd61f-e5b8-4f15-8770-276e298dc684"},"vehicle_type_id":"4","last_reported":1738955186,"current_range_meters":9200,"station_id":"ce4bhop2rcd13ifvqh7g","pricing_plan_id":"cebpf4jnsgd1na2vs0mg"},{"bike_id":"7abed690-08ef-45b9-9f1c-53575137024f","system_id":"levelo_inurba_marseille","lat":43.2803,"lon":5.36942,"is_reserved":false,"is_disabled":false,"rental_uris":{"android":"levelo://app?vid=7abed690-08ef-45b9-9f1c-53575137024f","ios":"levelo://app?vid=7abed690-08ef-45b9-9f1c-53575137024f"},"vehicle_type_id":"4","last_reported":1738955186,"current_range_meters":33200,"station_id":"ce4bha12rcd13ifvqef0","pricing_plan_id":"cebpf4jnsgd1na2vs0mg"},{"bike_id":"8bec6f5e-e450-4c2b-8557-aced9db82d7a","system_id":"levelo_inurba_marseille","lat":43.25698,"lon":5.41105,"is_reserved":false,"is_disabled":false,"rental_uris":{"android":"levelo://app?vid=8bec6f5e-e450-4c2b-8557-aced9db82d7a","ios":"levelo://app?vid=8bec6f5e-e450-4c2b-8557-aced9db82d7a"},"vehicle_type_id":"4","last_reported":1738955186,"current_range_meters":38400,"station_id":"ce4bhkp2rcd13ifvqgd0","pricing_plan_id":"cebpf4jnsgd1na2vs0mg"},{"bike_id":"013966e3-238f-4f27-83d7-59548e859f1f","system_id":"levelo_inurba_marseille","lat":43.295838,"lon":5.367374,"is_reserved":false,"is_disabled":false,"rental_uris":{"android":"levelo://app?vid=013966e3-238f-4f27-83d7-59548e859f1f","ios":"levelo://app?vid=013966e3-238f-4f27-83d7-59548e859f1f"},"vehicle_type_id":"4","last_reported":1738955186,"current_range_meters":38800,"station_id":"ce4bgph2rcd13ifvqc2g","pricing_plan_id":"cebpf4jnsgd1na2vs0mg"},{"bike_id":"136b7431-fe25-4be5-acba-3a2786dece70","system_id":"levelo_inurba_marseille","lat":43.2942,"lon":5.38623,"is_reserved":false,"is_disabled":false,"rental_uris":{"android":"levelo://app?vid=136b7431-fe25-4be5-acba-3a2786dece70","ios":"levelo://app?vid=136b7431-fe25-4be5-acba-3a2786dece70"},"vehicle_type_id":"4","last_reported":1738955186,"current_range_meters":39200,"station_id":"ce4bh2h2rcd13ifvqdh0","pricing_plan_id":"cebpf4jnsgd1na2vs0mg"},{"bike_id":"3c0d9b02-9e04-4435-80a8-412f18d2d69c","system_id":"levelo_inurba_marseille","lat":43.27683,"lon":5.38877,"is_reserved":false,"is_disabled":false,"rental_uris":{"android":"levelo://app?vid=3c0d9b02-9e04-4435-80a8-412f18d2d69c","ios":"levelo://app?vid=3c0d9b02-9e04-4435-80a8-412f18d2d69c"},"vehicle_type_id":"4","last_reported":1738955186,"current_range_meters":32800,"station_id":"ce4bhi12rcd13ifvqfo0","pricing_plan_id":"cebpf4jnsgd1na2vs0mg"},{"bike_id":"59379d68-7d67-41b1-ab63-4459b0164b78","system_id":"levelo_inurba_marseille","lat":43.2569,"lon":5.41103,"is_reserved":false,"is_disabled":false,"rental_uris":{"android":"levelo://app?vid=59379d68-7d67-41b1-ab63-4459b0164b78","ios":"levelo://app?vid=59379d68-7d67-41b1-ab63-4459b0164b78"},"vehicle_type_id":"4","last_reported":1738955186,"current_range_meters":14400,"station_id":"ce4bhkp2rcd13ifvqgd0","pricing_plan_id":"cebpf4jnsgd1na2vs0mg"},{"bike_id":"957f8b7e-d828-49bc-a82c-23988c526e55","system_id":"levelo_inurba_marseille","lat":43.2896,"lon":5.36655,"is_reserved":false,"is_disabled":true,"rental_uris":{"android":"levelo://app?vid=957f8b7e-d828-49bc-a82c-23988c526e55","ios":"levelo://app?vid=957f8b7e-d828-49bc-a82c-23988c526e55"},"vehicle_type_id":"4","last_reported":1738955186,"current_range_meters":38400,"station_id":"ce4bhap2rcd13ifvqek0","pricing_plan_id":"cebpf4jnsgd1na2vs0mg"},{"bike_id":"d3018d1b-fc84-4a4e-9c37-e4bbed964e9d","system_id":"levelo_inurba_marseille","lat":43.31758,"lon":5.39011,"is_reserved":false,"is_disabled":false,"rental_uris":{"android":"levelo://app?vid=d3018d1b-fc84-4a4e-9c37-e4bbed964e9d","ios":"levelo://app?vid=d3018d1b-fc84-4a4e-9c37-e4bbed964e9d"},"vehicle_type_id":"4","last_reported":1738955186,"current_range_meters":28000,"station_id":"ce4bhqp2rcd13ifvqhng","pricing_plan_id":"cebpf4jnsgd1na2vs0mg"},{"bike_id":"6bdce455-5d4b-433c-9bae-45e9d99a5cad","system_id":"levelo_inurba_marseille","lat":43.31228,"lon":5.36854,"is_reserved":false,"is_disabled":false,"rental_uris":{"android":"levelo://app?vid=6bdce455-5d4b-433c-9bae-45e9d99a5cad","ios":"levelo://app?vid=6bdce455-5d4b-433c-9bae-45e9d99a5cad"},"vehicle_type_id":"4","last_reported":1738955186,"current_range_meters":6800,"station_id":"ce4bgl92rcd13ifvqbq0","pricing_plan_id":"cebpf4jnsgd1na2vs0mg"},{"bike_id":"f761df35-c0ba-4efa-9656-e869d826662f","system_id":"levelo_inurba_marseille","lat":43.29826,"lon":5.36315,"is_reserved":false,"is_disabled":true,"rental_uris":{"android":"levelo://app?vid=f761df35-c0ba-4efa-9656-e869d826662f","ios":"levelo://app?vid=f761df35-c0ba-4efa-9656-e869d826662f"},"vehicle_type_id":"4","last_reported":1738955186,"current_range_meters":35200,"station_id":"ce4bgpp2rcd13ifvqc3g","pricing_plan_id":"cebpf4jnsgd1na2vs0mg"},{"bike_id":"4102fc6c-e365-41e0-9416-211e5673c09f","system_id":"levelo_inurba_marseille","lat":43.28716,"lon":5.3737,"is_reserved":false,"is_disabled":false,"rental_uris":{"android":"levelo://app?vid=4102fc6c-e365-41e0-9416-211e5673c09f","ios":"levelo://app?vid=4102fc6c-e365-41e0-9416-211e5673c09f"},"vehicle_type_id":"4","last_reported":1738955186,"current_range_meters":16800,"station_id":"ce4bh3p2rcd13ifvqdq0","pricing_plan_id":"cebpf4jnsgd1na2vs0mg"},{"bike_id":"826ab98d-0da8-4d31-b2a6-6ec434732aa9","system_id":"levelo_inurba_marseille","lat":43.28926,"lon":5.38413,"is_reserved":false,"is_disabled":true,"rental_uris":{"android":"levelo://app?vid=826ab98d-0da8-4d31-b2a6-6ec434732aa9","ios":"levelo://app?vid=826ab98d-0da8-4d31-b2a6-6ec434732aa9"},"vehicle_type_id":"4","last_reported":1738955186,"current_range_meters":16800,"station_id":"ce4bh612rcd13ifvqe6g","pricing_plan_id":"cebpf4jnsgd1na2vs0mg"},{"bike_id":"ea35513b-8d44-4075-be9b-3ae914429423","system_id":"levelo_inurba_marseille","lat":43.29553,"lon":5.42295,"is_reserved":false,"is_disabled":false,"rental_uris":{"android":"levelo://app?vid=ea35513b-8d44-4075-be9b-3ae914429423","ios":"levelo://app?vid=ea35513b-8d44-4075-be9b-3ae914429423"},"vehicle_type_id":"4","last_reported":1738955186,"current_range_meters":13600,"station_id":"ce4bhph2rcd13ifvqhdg","pricing_plan_id":"cebpf4jnsgd1na2vs0mg"},{"bike_id":"b8559aaa-d80d-4c2e-9da7-b2be079c1eba","system_id":"levelo_inurba_marseille","lat":43.27553,"lon":5.38416,"is_reserved":false,"is_disabled":false,"rental_uris":{"android":"levelo://app?vid=b8559aaa-d80d-4c2e-9da7-b2be079c1eba","ios":"levelo://app?vid=b8559aaa-d80d-4c2e-9da7-b2be079c1eba"},"vehicle_type_id":"4","last_reported":1738955186,"current_range_meters":32000,"station_id":"ce4bhh92rcd13ifvqfi0","pricing_plan_id":"cebpf4jnsgd1na2vs0mg"},{"bike_id":"441727f6-a708-443b-9f07-357e088f877f","system_id":"levelo_inurba_marseille","lat":43.28711,"lon":5.37933,"is_reserved":false,"is_disabled":false,"rental_uris":{"android":"levelo://app?vid=441727f6-a708-443b-9f07-357e088f877f","ios":"levelo://app?vid=441727f6-a708-443b-9f07-357e088f877f"},"vehicle_type_id":"4","last_reported":1738955186,"current_range_meters":28800,"station_id":"ce4bh9p2rcd13ifvqec0","pricing_plan_id":"cebpf4jnsgd1na2vs0mg"},{"bike_id":"0c8fdcfc-7a65-473e-beb8-b30dcda84b25","system_id":"levelo_inurba_marseille","lat":43.29279,"lon":5.40109,"is_reserved":false,"is_disabled":false,"rental_uris":{"android":"levelo://app?vid=0c8fdcfc-7a65-473e-beb8-b30dcda84b25","ios":"levelo://app?vid=0c8fdcfc-7a65-473e-beb8-b30dcda84b25"},"vehicle_type_id":"4","last_reported":1738955186,"current_range_meters":17200,"station_id":"ce4bh312rcd13ifvqdk0","pricing_plan_id":"cebpf4jnsgd1na2vs0mg"},{"bike_id":"e82fa571-a0a5-482d-a191-562866bf1df5","system_id":"levelo_inurba_marseille","lat":43.27371,"lon":5.36252,"is_reserved":false,"is_disabled":false,"rental_uris":{"android":"levelo://app?vid=e82fa571-a0a5-482d-a191-562866bf1df5","ios":"levelo://app?vid=e82fa571-a0a5-482d-a191-562866bf1df5"},"vehicle_type_id":"4","last_reported":1738955186,"current_range_meters":38800,"station_id":"ce4bhbh2rcd13ifvqeo0","pricing_plan_id":"cebpf4jnsgd1na2vs0mg"},{"bike_id":"54821b8f-03ba-4360-abc1-91db00db4644","system_id":"levelo_inurba_marseille","lat":43.25507,"lon":5.3765,"is_reserved":false,"is_disabled":false,"rental_uris":{"android":"levelo://app?vid=54821b8f-03ba-4360-abc1-91db00db4644","ios":"levelo://app?vid=54821b8f-03ba-4360-abc1-91db00db4644"},"vehicle_type_id":"4","last_reported":1738955186,"current_range_meters":39200,"station_id":"ce4bhh12rcd13ifvqff0","pricing_plan_id":"cebpf4jnsgd1na2vs0mg"},{"bike_id":"a6e1b439-04e4-421f-a5a6-259ce9531499","system_id":"levelo_inurba_marseille","lat":43.27057,"lon":5.40274,"is_reserved":false,"is_disabled":false,"rental_uris":{"android":"levelo://app?vid=a6e1b439-04e4-421f-a5a6-259ce9531499","ios":"levelo://app?vid=a6e1b439-04e4-421f-a5a6-259ce9531499"},"vehicle_type_id":"4","last_reported":1738955186,"current_range_meters":33600,"station_id":"ce4bhk92rcd13ifvqgc0","pricing_plan_id":"cebpf4jnsgd1na2vs0mg"},{"bike_id":"3d9e8870-3e96-498e-8528-7cac12a72a04","system_id":"levelo_inurba_marseille","lat":43.265606,"lon":5.372867,"is_reserved":false,"is_disabled":false,"rental_uris":{"android":"levelo://app?vid=3d9e8870-3e96-498e-8528-7cac12a72a04","ios":"levelo://app?vid=3d9e8870-3e96-498e-8528-7cac12a72a04"},"vehicle_type_id":"4","last_reported":1738955186,"current_range_meters":11600,"station_id":"ce4bhg12rcd13ifvqf70","pricing_plan_id":"cebpf4jnsgd1na2vs0mg"},{"bike_id":"f2c95435-89d7-463c-81ce-24c197568e58","system_id":"levelo_inurba_marseille","lat":43.31483,"lon":5.37306,"is_reserved":false,"is_disabled":false,"rental_uris":{"android":"levelo://app?vid=f2c95435-89d7-463c-81ce-24c197568e58","ios":"levelo://app?vid=f2c95435-89d7-463c-81ce-24c197568e58"},"vehicle_type_id":"4","last_reported":1738955186,"current_range_meters":32000,"station_id":"ce4bgt12rcd13ifvqcd0","pricing_plan_id":"cebpf4jnsgd1na2vs0mg"},{"bike_id":"5a555dc4-1882-4177-904a-2bcbd0f42bab","system_id":"levelo_inurba_marseille","lat":43.25728,"lon":5.41107,"is_reserved":false,"is_disabled":false,"rental_uris":{"android":"levelo://app?vid=5a555dc4-1882-4177-904a-2bcbd0f42bab","ios":"levelo://app?vid=5a555dc4-1882-4177-904a-2bcbd0f42bab"},"vehicle_type_id":"4","last_reported":1738955186,"current_range_meters":17600,"station_id":"ce4bhkp2rcd13ifvqgd0","pricing_plan_id":"cebpf4jnsgd1na2vs0mg"},{"bike_id":"6309769f-86e4-4e0d-aa5a-cd929527bc1b","system_id":"levelo_inurba_marseille","lat":43.298371,"lon":5.36274,"is_reserved":false,"is_disabled":false,"rental_uris":{"android":"levelo://app?vid=6309769f-86e4-4e0d-aa5a-cd929527bc1b","ios":"levelo://app?vid=6309769f-86e4-4e0d-aa5a-cd929527bc1b"},"vehicle_type_id":"4","last_reported":1738955186,"current_range_meters":12800,"station_id":"ce4bgpp2rcd13ifvqc3g","pricing_plan_id":"cebpf4jnsgd1na2vs0mg"},{"bike_id":"617c8a11-05d4-4638-8182-754b4aecd1f8","system_id":"levelo_inurba_marseille","lat":43.25577,"lon":5.38247,"is_reserved":false,"is_disabled":false,"rental_uris":{"android":"levelo://app?vid=617c8a11-05d4-4638-8182-754b4aecd1f8","ios":"levelo://app?vid=617c8a11-05d4-4638-8182-754b4aecd1f8"},"vehicle_type_id":"4","last_reported":1738955186,"current_range_meters":9600,"station_id":"ce4bhih2rcd13ifvqfs0","pricing_plan_id":"cebpf4jnsgd1na2vs0mg"},{"bike_id":"7787fd6a-b438-4775-831e-4f7d592ebf87","system_id":"levelo_inurba_marseille","lat":43.31178,"lon":5.38706,"is_reserved":false,"is_disabled":false,"rental_uris":{"android":"levelo://app?vid=7787fd6a-b438-4775-831e-4f7d592ebf87","ios":"levelo://app?vid=7787fd6a-b438-4775-831e-4f7d592ebf87"},"vehicle_type_id":"4","last_reported":1738955186,"current_range_meters":8800,"station_id":"ce4bgv12rcd13ifvqcp0","pricing_plan_id":"cebpf4jnsgd1na2vs0mg"},{"bike_id":"2b81af3c-387b-426d-aec4-b8105fa9a8d1","system_id":"levelo_inurba_marseille","lat":43.29525,"lon":5.39407,"is_reserved":false,"is_disabled":true,"rental_uris":{"android":"levelo://app?vid=2b81af3c-387b-426d-aec4-b8105fa9a8d1","ios":"levelo://app?vid=2b81af3c-387b-426d-aec4-b8105fa9a8d1"},"vehicle_type_id":"4","last_reported":1738955186,"current_range_meters":37600,"station_id":"ce4bh292rcd13ifvqdf0","pricing_plan_id":"cebpf4jnsgd1na2vs0mg"},{"bike_id":"1fdc1eb7-57d1-4c4b-a471-8275e113bf60","system_id":"levelo_inurba_marseille","lat":43.28152,"lon":5.42639,"is_reserved":false,"is_disabled":false,"rental_uris":{"android":"levelo://app?vid=1fdc1eb7-57d1-4c4b-a471-8275e113bf60","ios":"levelo://app?vid=1fdc1eb7-57d1-4c4b-a471-8275e113bf60"},"vehicle_type_id":"4","last_reported":1738955186,"current_range_meters":4000,"station_id":"ce4bhnh2rcd13ifvqgug","pricing_plan_id":"cebpf4jnsgd1na2vs0mg"},{"bike_id":"65b93af7-02d1-426c-8b10-b3c3784727fa","system_id":"levelo_inurba_marseille","lat":43.30295,"lon":5.39208,"is_reserved":false,"is_disabled":false,"rental_uris":{"android":"levelo://app?vid=65b93af7-02d1-426c-8b10-b3c3784727fa","ios":"levelo://app?vid=65b93af7-02d1-426c-8b10-b3c3784727fa"},"vehicle_type_id":"4","last_reported":1738955186,"current_range_meters":38800,"station_id":"ce4bgkh2rcd13ifvqbk0","pricing_plan_id":"cebpf4jnsgd1na2vs0mg"},{"bike_id":"8eecc113-9b29-4d7f-9f10-17488720aa4b","system_id":"levelo_inurba_marseille","lat":43.28736,"lon":5.36077,"is_reserved":false,"is_disabled":false,"rental_uris":{"android":"levelo://app?vid=8eecc113-9b29-4d7f-9f10-17488720aa4b","ios":"levelo://app?vid=8eecc113-9b29-4d7f-9f10-17488720aa4b"},"vehicle_type_id":"4","last_reported":1738955186,"current_range_meters":27200,"station_id":"cki0cbj6b192h4jlfktg","pricing_plan_id":"cebpf4jnsgd1na2vs0mg"},{"bike_id":"ad78b16e-037f-41c7-a44c-60b2d1312ac5","system_id":"levelo_inurba_marseille","lat":43.29973,"lon":5.38482,"is_reserved":false,"is_disabled":false,"rental_uris":{"android":"levelo://app?vid=ad78b16e-037f-41c7-a44c-60b2d1312ac5","ios":"levelo://app?vid=ad78b16e-037f-41c7-a44c-60b2d1312ac5"},"vehicle_type_id":"4","last_reported":1738955186,"current_range_meters":39200,"station_id":"ce4bgj92rcd13ifvqbd0","pricing_plan_id":"cebpf4jnsgd1na2vs0mg"},{"bike_id":"a3500c84-92a9-410c-93ee-1b7718621add","system_id":"levelo_inurba_marseille","lat":43.29022,"lon":5.38654,"is_reserved":false,"is_disabled":false,"rental_uris":{"android":"levelo://app?vid=a3500c84-92a9-410c-93ee-1b7718621add","ios":"levelo://app?vid=a3500c84-92a9-410c-93ee-1b7718621add"},"vehicle_type_id":"4","last_reported":1738955186,"current_range_meters":2800,"station_id":"ce4bh4p2rcd13ifvqe0g","pricing_plan_id":"cebpf4jnsgd1na2vs0mg"},{"bike_id":"58cb614b-5c06-460c-a248-e343d088c629","system_id":"levelo_inurba_marseille","lat":43.30201,"lon":5.397436,"is_reserved":false,"is_disabled":false,"rental_uris":{"android":"levelo://app?vid=58cb614b-5c06-460c-a248-e343d088c629","ios":"levelo://app?vid=58cb614b-5c06-460c-a248-e343d088c629"},"vehicle_type_id":"4","last_reported":1738955186,"current_range_meters":38800,"station_id":"ce4bgv12rcd13ifvqcp0","pricing_plan_id":"cebpf4jnsgd1na2vs0mg"},{"bike_id":"7e8934a8-a131-465e-9b3f-51e625c13b61","system_id":"levelo_inurba_marseille","lat":43.240186,"lon":5.366631,"is_reserved":false,"is_disabled":false,"rental_uris":{"android":"levelo://app?vid=7e8934a8-a131-465e-9b3f-51e625c13b61","ios":"levelo://app?vid=7e8934a8-a131-465e-9b3f-51e625c13b61"},"vehicle_type_id":"4","last_reported":1738955186,"current_range_meters":28400,"station_id":"ce4bhi12rcd13ifvqfp0","pricing_plan_id":"cebpf4jnsgd1na2vs0mg"},