{"last_updated":1743019870,"ttl":60,"version":"2.2","data":{"bikes":[{"bike_id":"bf6d3711-68f5-4721-8ea8-2d0601182f38","system_id":"levelo_inurba_marseille","lat":43.33746,"lon":5.3745,"is_reserved":false,"is_disabled":true,"rental_uris":{"android":"levelo://app?vid=bf6d3711-68f5-4721-8ea8-2d0601182f38","ios":"levelo://app?vid=bf6d3711-68f5-4721-8ea8-2d0601182f38"},"vehicle_type_id":"4","last_reported":1743019870,"current_range_meters":0,"station_id":"","pricing_plan_id":"cebpf4jnsgd1na2vs0mg"},{"bike_id":"fc8e8371-f4e9-4721-bc19-563801e389dc","system_id":"levelo_inurba_marseille","lat":43.337444,"lon":5.374475,"is_reserved":false,"is_disabled":false,"rental_uris":{"android":"levelo://app?vid=fc8e8371-f4e9-4721-bc19-563801e389dc","ios":"levelo://app?vid=fc8e8371-f4e9-4721-bc19-563801e389dc"},"vehicle_type_id":"4","last_reported":1743019870,"current_range_meters":14400,"station_id":"","pricing_plan_id":"cebpf4jnsgd1na2vs0mg"},{"bike_id":"7ff8bbfb-d8a6-4f7f-b963-3cef9e7a8262","system_id":"levelo_inurba_marseille","lat":43.31453,"lon":5.36973,"is_reserved":false,"is_disabled":true,"rental_uris":{"android":"levelo://app?vid=7ff8bbfb-d8a6-4f7f-b963-3cef9e7a8262","ios":"levelo://app?vid=7ff8bbfb-d8a6-4f7f-b963-3cef9e7a8262"},"vehicle_type_id":"4","last_reported":1743019870,"current_range_meters":0,"station_id":"","pricing_plan_id":"cebpf4jnsgd1na2vs0mg"},{"bike_id":"54739101-93ac-4ff2-ac89-3384dd1e877c","system_id":"levelo_inurba_marseille","lat":43.31538,"lon":5.37887,"is_reserved":false,"is_disabled":true,"rental_uris":{"android":"levelo://app?vid=54739101-93ac-4ff2-ac89-3384dd1e877c","ios":"levelo://app?vid=54739101-93ac-4ff2-ac89-3384dd1e877c"},"vehicle_type_id":"4","last_reported":1743019870,"current_range_meters":0,"station_id":"","pricing_plan_id":"cebpf4jnsgd1na2vs0mg"},{"bike_id":"7aa5d23e-bead-485a-b0ac-d4b747624bed","system_id":"levelo_inurba_marseille","lat":43.248955,"lon":5.394066,"is_reserved":false,"is_disabled":true,"rental_uris":{"android":"levelo://app?vid=7aa5d23e-bead-485a-b0ac-d4b747624bed","ios":"levelo://app?vid=7aa5d23e-bead-485a-b0ac-d4b747624bed"},"vehicle_type_id":"4","last_reported":1743019870,"current_range_meters":0,"station_id":"","pricing_plan_id":"cebpf4jnsgd1na2vs0mg"},{"bike_id":"306bbe1b-255e-465f-9c82-619129be6b5a","system_id":"levelo_inurba_marseille","lat":43.26566,"lon":5.39641,"is_reserved":false,"is_disabled":true,"rental_uris":{"android":"levelo://app?vid=306bbe1b-255e-465f-9c82-619129be6b5a","ios":"levelo://app?vid=306bbe1b-255e-465f-9c82-619129be6b5a"},"vehicle_type_id":"4","last_reported":1743019870,"current_range_meters":0,"station_id":"","pricing_plan_id":"cebpf4jnsgd1na2vs0mg"},{"bike_id":"e61fc179-1c09-455a-a696-7a3200ce9a90","system_id":"levelo_inurba_marseille","lat":43.33761,"lon":5.37489,"is_reserved":false,"is_disabled":true,"rental_uris":{"android":"levelo://app?vid=e61fc179-1c09-455a-a696-7a3200ce9a90","ios":"levelo://app?vid=e61fc179-1c09-455a-a696-7a3200ce9a90"},"vehicle_type_id":"4","last_reported":1743019870,"current_range_meters":0,"station_id":"","pricing_plan_id":"cebpf4jnsgd1na2vs0mg"},{"bike_id":"85e0387b-d919-4395-ba8a-4e5e1544b356","system_id":"levelo_inurba_marseille","lat":43.29739,"lon":5.38001,"is_reserved":false,"is_disabled":true,"rental_uris":{"android":"levelo://app?vid=85e0387b-d919-4395-ba8a-4e5e1544b356","ios":"levelo://app?vid=85e0387b-d919-4395-ba8a-4e5e1544b356"},"vehicle_type_id":"4","last_reported":1743019870,"current_range_meters":0,"station_id":"","pricing_plan_id":"cebpf4jnsgd1na2vs0mg"},{"bike_id":"3f1942bc-48a1-4a1c-ae8d-47211bed370b","system_id":"levelo_inurba_marseille","lat":43.33768,"lon":5.3749,"is_reserved":false,"is_disabled":true,"rental_uris":{"android":"levelo://app?vid=3f1942bc-48a1-4a1c-ae8d-47211bed370b","ios":"levelo://app?vid=3f1942bc-48a1-4a1c-ae8d-47211bed370b"},"vehicle_type_id":"4","last_reported":1743019870,"current_range_meters":0,"station_id":"","pricing_plan_id":"cebpf4jnsgd1na2vs0mg"},{"bike_id":"30cf62f7-23e6-4765-817b-8c01ee0d1dae","system_id":"levelo_inurba_marseille","lat":43.27852,"lon":5.38765,"is_reserved":false,"is_disabled":true,"rental_uris":{"android":"levelo://app?vid=30cf62f7-23e6-4765-817b-8c01ee0d1dae","ios":"levelo://app?vid=30cf62f7-23e6-4765-817b-8c01ee0d1dae"},"vehicle_type_id":"4","last_reported":1743019870,"current_range_meters":0,"station_id":"","pricing_plan_id":"cebpf4jnsgd1na2vs0mg"},{"bike_id":"d1cc8402-4815-4d58-9436-d62afd4808c1","system_id":"levelo_inurba_marseille","lat":43.32187,"lon":5.39204,"is_reserved":false,"is_disabled":true,"rental_uris":{"android":"levelo://app?vid=d1cc8402-4815-4d58-9436-d62afd4808c1","ios":"levelo://app?vid=d1cc8402-4815-4d58-9436-d62afd4808c1"},"vehicle_type_id":"4","last_reported":1743019870,"current_range_meters":0,"station_id":"","pricing_plan_id":"cebpf4jnsgd1na2vs0mg"},{"bike_id":"634c433d-3db3-4fd8-8be9-8b653dae530e","system_id":"levelo_inurba_marseille","lat":43.28029,"lon":5.38986,"is_reserved":false,"is_disabled":true,"rental_uris":{"android":"levelo://app?vid=634c433d-3db3-4fd8-8be9-8b653dae530e","ios":"levelo://app?vid=634c433d-3db3-4fd8-8be9-8b653dae530e"},"vehicle_type_id":"4","last_reported":1743019870,"current_range_meters":0,"station_id":"","pricing_plan_id":"cebpf4jnsgd1na2vs0mg"},{"bike_id":"e2101a35-a640-420f-af9b-3e89680281ef","system_id":"levelo_inurba_marseille","lat":43.280781,"lon":5.421706,"is_reserved":false,"is_disabled":true,"rental_uris":{"android":"levelo://app?vid=e2101a35-a640-420f-af9b-3e89680281ef","ios":"levelo://app?vid=e2101a35-a640-420f-af9b-3e89680281ef"},"vehicle_type_id":"4","last_reported":1743019870,"current_range_meters":0,"station_id":"","pricing_plan_id":"cebpf4jnsgd1na2vs0mg"},{"bike_id":"932d96d2-e6e3-413b-ad7a-a06419243b11","system_id":"levelo_inurba_marseille","lat":43.29311,"lon":5.3719,"is_reserved":false,"is_disabled":true,"rental_uris":{"android":"levelo://app?vid=932d96d2-e6e3-413b-ad7a-a06419243b11","ios":"levelo://app?vid=932d96d2-e6e3-413b-ad7a-a06419243b11"},"vehicle_type_id":"4","last_reported":1743019870,"current_range_meters":0,"station_id":"ce4bgh92rcd13ifvqb40","pricing_plan_id":"cebpf4jnsgd1na2vs0mg"},{"bike_id":"524321e4-4052-4081-b562-4a7dd0eca7a2","system_id":"levelo_inurba_marseille","lat":43.29533,"lon":5.38538,"is_reserved":false,"is_disabled":true,"rental_uris":{"android":"levelo://app?vid=524321e4-4052-4081-b562-4a7dd0eca7a2","ios":"levelo://app?vid=524321e4-4052-4081-b562-4a7dd0eca7a2"},"vehicle_type_id":"4","last_reported":1743019870,"current_range_meters":0,"station_id":"ce4bgih2rcd13ifvqba0","pricing_plan_id":"cebpf4jnsgd1na2vs0mg"},{"bike_id":"e94d6f05-431f-4a83-87e1-565615f18a18","system_id":"levelo_inurba_marseille","lat":43.29966,"lon":5.38521,"is_reserved":false,"is_disabled":true,"rental_uris":{"android":"levelo://app?vid=e94d6f05-431f-4a83-87e1-565615f18a18","ios":"levelo://app?vid=e94d6f05-431f-4a83-87e1-565615f18a18"},"vehicle_type_id":"4","last_reported":1743019870,"current_range_meters":0,"station_id":"ce4bgj92rcd13ifvqbd0","pricing_plan_id":"cebpf4jnsgd1na2vs0mg"},{"bike_id":"340feb7e-6115-4215-b79a-47e584c4bd32","system_id":"levelo_inurba_marseille","lat":43.29375,"lon":5.37848,"is_reserved":false,"is_disabled":true,"rental_uris":{"android":"levelo://app?vid=340feb7e-6115-4215-b79a-47e584c4bd32","ios":"levelo://app?vid=340feb7e-6115-4215-b79a-47e584c4bd32"},"vehicle_type_id":"4","last_reported":1743019870,"current_range_meters":0,"station_id":"ce4bgjh2rcd13ifvqbf0","pricing_plan_id":"cebpf4jnsgd1na2vs0mg"},{"bike_id":"46981bd1-7d36-44cb-81f1-ba7b87c37c05","system_id":"levelo_inurba_marseille","lat":43.3079,"lon":5.3816,"is_reserved":false,"is_disabled":true,"rental_uris":{"android":"levelo://app?vid=46981bd1-7d36-44cb-81f1-ba7b87c37c05","ios":"levelo://app?vid=46981bd1-7d36-44cb-81f1-ba7b87c37c05"},"vehicle_type_id":"4","last_reported":1743019870,"current_range_meters":0,"station_id":"ce4bgt12rcd13ifvqce0","pricing_plan_id":"cebpf4jnsgd1na2vs0mg"},{"bike_id":"d8822465-1bb5-48ce-84bd-aee9d07dd87b","system_id":"levelo_inurba_marseille","lat":43.31353,"lon":5.38517,"is_reserved":false,"is_disabled":true,"rental_uris":{"android":"levelo://app?vid=d8822465-1bb5-48ce-84bd-aee9d07dd87b","ios":"levelo://app?vid=d8822465-1bb5-48ce-84bd-aee9d07dd87b"},"vehicle_type_id":"4","last_reported":1743019870,"current_range_meters":0,"station_id":"ce4bgt92rcd13ifvqcf0","pricing_plan_id":"cebpf4jnsgd1na2vs0mg"},{"bike_id":"965640ae-e2dd-410d-a86a-e406eadbcf08","system_id":"levelo_inurba_marseille","lat":43.31074,"lon":5.3835,"is_reserved":false,"is_disabled":true,"rental_uris":{"android":"levelo://app?vid=965640ae-e2dd-410d-a86a-e406eadbcf08","ios":"levelo://app?vid=965640ae-e2dd-410d-a86a-e406eadbcf08"},"vehicle_type_id":"4","last_reported":1743019870,"current_range_meters":0,"station_id":"ce4bgv92rcd13ifvqcr0","pricing_plan_id":"cebpf4jnsgd1na2vs0mg"},{"bike_id":"27990568-daab-4ba3-94e8-02bf82daeb9c","system_id":"levelo_inurba_marseille","lat":43.2964,"lon":5.40577,"is_reserved":false,"is_disabled":true,"rental_uris":{"android":"levelo://app?vid=27990568-daab-4ba3-94e8-02bf82daeb9c","ios":"levelo://app?vid=27990568-daab-4ba3-94e8-02bf82daeb9c"},"vehicle_type_id":"4","last_reported":1743019870,"current_range_meters":0,"station_id":"ce4bh0h2rcd13ifvqd60","pricing_plan_id":"cebpf4jnsgd1na2vs0mg"},{"bike_id":"f9284b08-c420-4946-9729-d37207ec56b6","system_id":"levelo_inurba_marseille","lat":43.29564,"lon":5.39968,"is_reserved":false,"is_disabled":true,"rental_uris":{"android":"levelo://app?vid=f9284b08-c420-4946-9729-d37207ec56b6","ios":"levelo://app?vid=f9284b08-c420-4946-9729-d37207ec56b6"},"vehicle_type_id":"4","last_reported":1743019870,"current_range_meters":0,"station_id":"ce4bh312rcd13ifvqdj0","pricing_plan_id":"cebpf4jnsgd1na2vs0mg"},{"bike_id":"2b267cda-6d7c-4a54-aba5-c7774f5a2bc2","system_id":"levelo_inurba_marseille","lat":43.2927,"lon":5.38454,"is_reserved":false,"is_disabled":true,"rental_uris":{"android":"levelo://app?vid=2b267cda-6d7c-4a54-aba5-c7774f5a2bc2","ios":"levelo://app?vid=2b267cda-6d7c-4a54-aba5-c7774f5a2bc2"},"vehicle_type_id":"4","last_reported":1743019870,"current_range_meters":0,"station_id":"ce4bh692rcd13ifvqea0","pricing_plan_id":"cebpf4jnsgd1na2vs0mg"},{"bike_id":"5965f905-d993-4b83-bcf6-d6e153a3906a","system_id":"levelo_inurba_marseille","lat":43.26687,"lon":5.38257,"is_reserved":false,"is_disabled":true,"rental_uris":{"android":"levelo://app?vid=5965f905-d993-4b83-bcf6-d6e153a3906a","ios":"levelo://app?vid=5965f905-d993-4b83-bcf6-d6e153a3906a"},"vehicle_type_id":"4","last_reported":1743019870,"current_range_meters":0,"station_id":"ce4bhg92rcd13ifvqf90","pricing_plan_id":"cebpf4jnsgd1na2vs0mg"},{"bike_id":"278653b4-b3af-48be-8aa9-d52374f689b4","system_id":"levelo_inurba_marseille","lat":43.26214,"lon":5.37439,"is_reserved":false,"is_disabled":true,"rental_uris":{"android":"levelo://app?vid=278653b4-b3af-48be-8aa9-d52374f689b4","ios":"levelo://app?vid=278653b4-b3af-48be-8aa9-d52374f689b4"},"vehicle_type_id":"4","last_reported":1743019870,"current_range_meters":0,"station_id":"ce4bhgp2rcd13ifvqfc0","pricing_plan_id":"cebpf4jnsgd1na2vs0mg"},{"bike_id":"b3111fd1-87ff-4aae-9bf9-f8f641243357","system_id":"levelo_inurba_marseille","lat":43.27319,"lon":5.39105,"is_reserved":false,"is_disabled":true,"rental_uris":{"android":"levelo://app?vid=b3111fd1-87ff-4aae-9bf9-f8f641243357","ios":"levelo://app?vid=b3111fd1-87ff-4aae-9bf9-f8f641243357"},"vehicle_type_id":"4","last_reported":1743019870,"current_range_meters":0,"station_id":"ce4bhgp2rcd13ifvqfe0","pricing_plan_id":"cebpf4jnsgd1na2vs0mg"},{"bike_id":"61a51743-881d-44a7-851e-6df0c8ec89b1","system_id":"levelo_inurba_marseille","lat":43.32277,"lon":5.38281,"is_reserved":false,"is_disabled":true,"rental_uris":{"android":"levelo://app?vid=61a51743-881d-44a7-851e-6df0c8ec89b1","ios":"levelo://app?vid=61a51743-881d-44a7-851e-6df0c8ec89b1"},"vehicle_type_id":"4","last_reported":1743019870,"current_range_meters":0,"station_id":"ce4bhr12rcd13ifvqhqg","pricing_plan_id":"cebpf4jnsgd1na2vs0mg"},{"bike_id":"bc2598eb-f16b-455d-a84d-ad9e67187a6e","system_id":"levelo_inurba_marseille","lat":43.32102,"lon":5.36785,"is_reserved":false,"is_disabled":true,"rental_uris":{"android":"levelo://app?vid=bc2598eb-f16b-455d-a84d-ad9e67187a6e","ios":"levelo://app?vid=bc2598eb-f16b-455d-a84d-ad9e67187a6e"},"vehicle_type_id":"4","last_reported":1743019870,"current_range_meters":0,"station_id":"ce4bhrh2rcd13ifvqhug","pricing_plan_id":"cebpf4jnsgd1na2vs0mg"},{"bike_id":"ac814373-eebe-4675-8eac-c790f0e38e58","system_id":"levelo_inurba_marseille","lat":43.284163,"lon":5.387883,"is_reserved":false,"is_disabled":true,"rental_uris":{"android":"levelo://app?vid=ac814373-eebe-4675-8eac-c790f0e38e58","ios":"levelo://app?vid=ac814373-eebe-4675-8eac-c790f0e38e58"},"vehicle_type_id":"4","last_reported":1743019870,"current_range_meters":400,"station_id":"","pricing_plan_id":"cebpf4jnsgd1na2vs0mg"},{"bike_id":"f3bdd237-dc92-4da8-a44a-ae533b35ce2f","system_id":"levelo_inurba_marseille","lat":43.26482,"lon":5.39658,"is_reserved":false,"is_disabled":true,"rental_uris":{"android":"levelo://app?vid=f3bdd237-dc92-4da8-a44a-ae533b35ce2f","ios":"levelo://app?vid=f3bdd237-dc92-4da8-a44a-ae533b35ce2f"},"vehicle_type_id":"4","last_reported":1743019870,"current_range_meters":400,"station_id":"ce4bhi12rcd13ifvqfq0","pricing_plan_id":"cebpf4jnsgd1na2vs0mg"},{"bike_id":"29deb7b3-12ff-4dae-a526-7e13c139892a","system_id":"levelo_inurba_marseille","lat":43.2932,"lon":5.37677,"is_reserved":false,"is_disabled":true,"rental_uris":{"android":"levelo://app?vid=29deb7b3-12ff-4dae-a526-7e13c139892a","ios":"levelo://app?vid=29deb7b3-12ff-4dae-a526-7e13c139892a"},"vehicle_type_id":"4","last_reported":1743019870,"current_range_meters":800,"station_id":"","pricing_plan_id":"cebpf4jnsgd1na2vs0mg"},{"bike_id":"e7e9a2c4-6481-46ee-8200-bd809aab3df3","system_id":"levelo_inurba_marseille","lat":43.301575,"lon":5.392927,"is_reserved":false,"is_disabled":true,"rental_uris":{"android":"levelo://app?vid=e7e9a2c4-6481-46ee-8200-bd809aab3df3","ios":"levelo://app?vid=e7e9a2c4-6481-46ee-8200-bd809aab3df3"},"vehicle_type_id":"4","last_reported":1743019870,"current_range_meters":800,"station_id":"ce4bgvp2rcd13ifvqct0","pricing_plan_id":"cebpf4jnsgd1na2vs0mg"},{"bike_id":"d12b47a2-cc23-4655-904a-f03dc8b7003b","system_id":"levelo_inurba_marseille","lat":43.29527,"lon":5.39402,"is_reserved":false,"is_disabled":true,"rental_uris":{"android":"levelo://app?vid=d12b47a2-cc23-4655-904a-f03dc8b7003b","ios":"levelo://app?vid=d12b47a2-cc23-4655-904a-f03dc8b7003b"},"vehicle_type_id":"4","last_reported":1743019870,"current_range_meters":800,"station_id":"ce4bh292rcd13ifvqdf0","pricing_plan_id":"cebpf4jnsgd1na2vs0mg"},{"bike_id":"269cf01e-b743-4c97-856a-a69e603b5d6e","system_id":"levelo_inurba_marseille","lat":43.29562,"lon":5.39987,"is_reserved":false,"is_disabled":true,"rental_uris":{"android":"levelo://app?vid=269cf01e-b743-4c97-856a-a69e603b5d6e","ios":"levelo://app?vid=269cf01e-b743-4c97-856a-a69e603b5d6e"},"vehicle_type_id":"4","last_reported":1743019870,"current_range_meters":800,"station_id":"ce4bh312rcd13ifvqdj0","pricing_plan_id":"cebpf4jnsgd1na2vs0mg"},{"bike_id":"9a6327b3-afba-4858-920a-45f8b7d833f6","system_id":"levelo_inurba_marseille","lat":43.29169,"lon":5.371624,"is_reserved":false,"is_disabled":true,"rental_uris":{"android":"levelo://app?vid=9a6327b3-afba-4858-920a-45f8b7d833f6","ios":"levelo://app?vid=9a6327b3-afba-4858-920a-45f8b7d833f6"},"vehicle_type_id":"4","last_reported":1743019870,"current_range_meters":800,"station_id":"ce4bha92rcd13ifvqeh0","pricing_plan_id":"cebpf4jnsgd1na2vs0mg"},{"bike_id":"5e128f69-0160-4818-9adc-d8f4a518b49b","system_id":"levelo_inurba_marseille","lat":43.30294,"lon":5.39202,"is_reserved":false,"is_disabled":true,"rental_uris":{"android":"levelo://app?vid=5e128f69-0160-4818-9adc-d8f4a518b49b","ios":"levelo://app?vid=5e128f69-0160-4818-9adc-d8f4a518b49b"},"vehicle_type_id":"4","last_reported":1743019870,"current_range_meters":1200,"station_id":"ce4bgkh2rcd13ifvqbk0","pricing_plan_id":"cebpf4jnsgd1na2vs0mg"},{"bike_id":"792192de-8840-4227-9fde-476c0159a2af","system_id":"levelo_inurba_marseille","lat":43.31345,"lon":5.38533,"is_reserved":false,"is_disabled":true,"rental_uris":{"android":"levelo://app?vid=792192de-8840-4227-9fde-476c0159a2af","ios":"levelo://app?vid=792192de-8840-4227-9fde-476c0159a2af"},"vehicle_type_id":"4","last_reported":1743019870,"current_range_meters":1200,"station_id":"ce4bgt92rcd13ifvqcf0","pricing_plan_id":"cebpf4jnsgd1na2vs0mg"},{"bike_id":"bd35b3d6-e9a7-4cfd-a3a1-2848030447f7","system_id":"levelo_inurba_marseille","lat":43.29887,"lon":5.38921,"is_reserved":false,"is_disabled":true,"rental_uris":{"android":"levelo://app?vid=bd35b3d6-e9a7-4cfd-a3a1-2848030447f7","ios":"levelo://app?vid=bd35b3d6-e9a7-4cfd-a3a1-2848030447f7"},"vehicle_type_id":"4","last_reported":1743019870,"current_range_meters":1200,"station_id":"ce4bh392rcd13ifvqdl0","pricing_plan_id":"cebpf4jnsgd1na2vs0mg"},{"bike_id":"30737c21-e013-4fe4-a20b-6530d8f874a6","system_id":"levelo_inurba_marseille","lat":43.29873,"lon":5.38902,"is_reserved":false,"is_disabled":true,"rental_uris":{"android":"levelo://app?vid=30737c21-e013-4fe4-a20b-6530d8f874a6","ios":"levelo://app?vid=30737c21-e013-4fe4-a20b-6530d8f874a6"},"vehicle_type_id":"4","last_reported":1743019870,"current_range_meters":1200,"station_id":"ce4bh392rcd13ifvqdl0","pricing_plan_id":"cebpf4jnsgd1na2vs0mg"},{"bike_id":"59ecc2bb-90e6-45fc-bd08-e3ece39964d0","system_id":"levelo_inurba_marseille","lat":43.23183,"lon":5.39991,"is_reserved":false,"is_disabled":true,"rental_uris":{"android":"levelo://app?vid=59ecc2bb-90e6-45fc-bd08-e3ece39964d0","ios":"levelo://app?vid=59ecc2bb-90e6-45fc-bd08-e3ece39964d0"},"vehicle_type_id":"4","last_reported":1743019870,"current_range_meters":1200,"station_id":"ce4bhn12rcd13ifvqgqg","pricing_plan_id":"cebpf4jnsgd1na2vs0mg"},{"bike_id":"92f2765e-66ad-4759-89a7-5a096f542dfc","system_id":"levelo_inurba_marseille","lat":43.27811,"lon":5.40712,"is_reserved":false,"is_disabled":true,"rental_uris":{"android":"levelo://app?vid=92f2765e-66ad-4759-89a7-5a096f542dfc","ios":"levelo://app?vid=92f2765e-66ad-4759-89a7-5a096f542dfc"},"vehicle_type_id":"4","last_reported":1743019870,"current_range_meters":1200,"station_id":"ce4bhnh2rcd13ifvqgtg","pricing_plan_id":"cebpf4jnsgd1na2vs0mg"},{"bike_id":"2b7cb951-03a2-4661-9ae4-4caf1591ddb1","system_id":"levelo_inurba_marseille","lat":43.262878,"lon":5.40463,"is_reserved":false,"is_disabled":true,"rental_uris":{"android":"levelo://app?vid=2b7cb951-03a2-4661-9ae4-4caf1591ddb1","ios":"levelo://app?vid=2b7cb951-03a2-4661-9ae4-4caf1591ddb1"},"vehicle_type_id":"4","last_reported":1743019870,"current_range_meters":1600,"station_id":"","pricing_plan_id":"cebpf4jnsgd1na2vs0mg"},{"bike_id":"eca68039-8753-435c-8a9c-b4026c8f2823","system_id":"levelo_inurba_marseille","lat":43.293091,"lon":5.371795,"is_reserved":false,"is_disabled":true,"rental_uris":{"android":"levelo://app?vid=eca68039-8753-435c-8a9c-b4026c8f2823","ios":"levelo://app?vid=eca68039-8753-435c-8a9c-b4026c8f2823"},"vehicle_type_id":"4","last_reported":1743019870,"current_range_meters":1600,"station_id":"ce4bgh92rcd13ifvqb40","pricing_plan_id":"cebpf4jnsgd1na2vs0mg"},{"bike_id":"67928d77-9e56-448d-8382-642704cc4463","system_id":"levelo_inurba_marseille","lat":43.295654,"lon":5.375229,"is_reserved":false,"is_disabled":true,"rental_uris":{"android":"levelo://app?vid=67928d77-9e56-448d-8382-642704cc4463","ios":"levelo://app?vid=67928d77-9e56-448d-8382-642704cc4463"},"vehicle_type_id":"4","last_reported":1743019870,"current_range_meters":1600,"station_id":"ce4bgkp2rcd13ifvqbmg","pricing_plan_id":"cebpf4jnsgd1na2vs0mg"},{"bike_id":"7ff8c1f8-9601-4544-b808-c2fb235473f3","system_id":"levelo_inurba_marseille","lat":43.27809,"lon":5.40738,"is_reserved":false,"is_disabled":true,"rental_uris":{"android":"levelo://app?vid=7ff8c1f8-9601-4544-b808-c2fb235473f3","ios":"levelo://app?vid=7ff8c1f8-9601-4544-b808-c2fb235473f3"},"vehicle_type_id":"4","last_reported":1743019870,"current_range_meters":1600,"station_id":"ce4bhnh2rcd13ifvqgtg","pricing_plan_id":"cebpf4jnsgd1na2vs0mg"},{"bike_id":"ccd657dd-34cc-4d86-b636-8bef73a6c6a1","system_id":"levelo_inurba_marseille","lat":43.32113,"lon":5.3678,"is_reserved":false,"is_disabled":true,"rental_uris":{"android":"levelo://app?vid=ccd657dd-34cc-4d86-b636-8bef73a6c6a1","ios":"levelo://app?vid=ccd657dd-34cc-4d86-b636-8bef73a6c6a1"},"vehicle_type_id":"4","last_reported":1743019870,"current_range_meters":1600,"station_id":"ce4bhrh2rcd13ifvqhug","pricing_plan_id":"cebpf4jnsgd1na2vs0mg"},{"bike_id":"80420c83-94fc-4929-a66b-5fc6f7c139bd","system_id":"levelo_inurba_marseille","lat":43.28355,"lon":5.38109,"is_reserved":false,"is_disabled":true,"rental_uris":{"android":"levelo://app?vid=80420c83-94fc-4929-a66b-5fc6f7c139bd","ios":"levelo://app?vid=80420c83-94fc-4929-a66b-5fc6f7c139bd"},"vehicle_type_id":"4","last_reported":1743019870,"current_range_meters":2000,"station_id":"ce4bh412rcd13ifvqdr0","pricing_plan_id":"cebpf4jnsgd1na2vs0mg"},{"bike_id":"76f2fa80-62e0-43ec-97ec-d380666c82e9","system_id":"levelo_inurba_marseille","lat":43.28463,"lon":5.35877,"is_reserved":false,"is_disabled":false,"rental_uris":{"android":"levelo://app?vid=76f2fa80-62e0-43ec-97ec-d380666c82e9","ios":"levelo://app?vid=76f2fa80-62e0-43ec-97ec-d380666c82e9"},"vehicle_type_id":"4","last_reported":1743019870,"current_range_meters":2000,"station_id":"ce4bhah2rcd13ifvqei0","pricing_plan_id":"cebpf4jnsgd1na2vs0mg"},{"bike_id":"0c9cada4-2764-4013-a528-15089818cb84","system_id":"levelo_inurba_marseille","lat":43.27763,"lon":5.4116,"is_reserved":false,"is_disabled":false,"rental_uris":{"android":"levelo://app?vid=0c9cada4-2764-4013-a528-15089818cb84","ios":"levelo://app?vid=0c9cada4-2764-4013-a528-15089818cb84"},"vehicle_type_id":"4","last_reported":1743019870,"current_range_meters":2800,"station_id":"","pricing_plan_id":"cebpf4jnsgd1na2vs0mg"},{"bike_id":"ce5002d0-22b0-47a4-9431-84e5ea41508b","system_id":"levelo_inurba_marseille","lat":43.26558,"lon":5.37271,"is_reserved":false,"is_disabled":false,"rental_uris":{"android":"levelo://app?vid=ce5002d0-22b0-47a4-9431-84e5ea41508b","ios":"levelo://app?vid=ce5002d0-22b0-47a4-9431-84e5ea41508b"},"vehicle_type_id":"4","last_reported":1743019870,"current_range_meters":2800,"station_id":"ce4bhg12rcd13ifvqf70","pricing_plan_id":"cebpf4jnsgd1na2vs0mg"},{"bike_id":"c1cacb46-ff93-49b6-b36b-999ec0b6e796","system_id":"levelo_inurba_marseille","lat":43.317559,"lon":5.390154,"is_reserved":false,"is_disabled":false,"rental_uris":{"android":"levelo://app?vid=c1cacb46-ff93-49b6-b36b-999ec0b6e796","ios":"levelo://app?vid=c1cacb46-ff93-49b6-b36b-999ec0b6e796"},"vehicle_type_id":"4","last_reported":1743019870,"current_range_meters":2800,"station_id":"ce4bhqp2rcd13ifvqhng","pricing_plan_id":"cebpf4jnsgd1na2vs0mg"},{"bike_id":"cd20d16a-032a-4ea7-a430-255e9d8a59c5","system_id":"levelo_inurba_marseille","lat":43.28301,"lon":5.40771,"is_reserved":false,"is_disabled":false,"rental_uris":{"android":"levelo://app?vid=cd20d16a-032a-4ea7-a430-255e9d8a59c5","ios":"levelo://app?vid=cd20d16a-032a-4ea7-a430-255e9d8a59c5"},"vehicle_type_id":"4","last_reported":1743019870,"current_range_meters":3200,"station_id":"","pricing_plan_id":"cebpf4jnsgd1na2vs0mg"},{"bike_id":"ff216dc2-7427-46ea-a399-3165a518fcf3","system_id":"levelo_inurba_marseille","lat":43.28564,"lon":5.39491,"is_reserved":false,"is_disabled":false,"rental_uris":{"android":"levelo://app?vid=ff216dc2-7427-46ea-a399-3165a518fcf3","ios":"levelo://app?vid=ff216dc2-7427-46ea-a399-3165a518fcf3"},"vehicle_type_id":"4","last_reported":1743019870,"current_range_meters":3200,"station_id":"ce4bh292rcd13ifvqdg0","pricing_plan_id":"cebpf4jnsgd1na2vs0mg"},{"bike_id":"1ee2b86a-2f89-4c64-8015-bd2df371c39e","system_id":"levelo_inurba_marseille","lat":43.29251,"lon":5.3844,"is_reserved":false,"is_disabled":false,"rental_uris":{"android":"levelo://app?vid=1ee2b86a-2f89-4c64-8015-bd2df371c39e","ios":"levelo://app?vid=1ee2b86a-2f89-4c64-8015-bd2df371c39e"},"vehicle_type_id":"4","last_reported":1743019870,"current_range_meters":3200,"station_id":"ce4bh692rcd13ifvqea0","pricing_plan_id":"cebpf4jnsgd1na2vs0mg"},{"bike_id":"e88119b7-a718-4321-b2dc-884b54d91595","system_id":"levelo_inurba_marseille","lat":43.30777,"lon":5.37663,"is_reserved":false,"is_disabled":false,"rental_uris":{"android":"levelo://app?vid=e88119b7-a718-4321-b2dc-884b54d91595","ios":"levelo://app?vid=e88119b7-a718-4321-b2dc-884b54d91595"},"vehicle_type_id":"4","last_reported":1743019870,"current_range_meters":3600,"station_id":"ce4bgv92rcd13ifvqcq0","pricing_plan_id":"cebpf4jnsgd1na2vs0mg"},{"bike_id":"4206210a-54b0-436f-aef1-a0abd8c119a4","system_id":"levelo_inurba_marseille","lat":43.29194,"lon":5.3933,"is_reserved":false,"is_disabled":false,"rental_uris":{"android":"levelo://app?vid=4206210a-54b0-436f-aef1-a0abd8c119a4","ios":"levelo://app?vid=4206210a-54b0-436f-aef1-a0abd8c119a4"},"vehicle_type_id":"4","last_reported":1743019870,"current_range_meters":3600,"station_id":"ce4bh192rcd13ifvqdd0","pricing_plan_id":"cebpf4jnsgd1na2vs0mg"},{"bike_id":"f31d5f56-2cdf-4f72-a4d3-1f89d3123ad2","system_id":"levelo_inurba_marseille","lat":43.29315,"lon":5.37177,"is_reserved":false,"is_disabled":false,"rental_uris":{"android":"levelo://app?vid=f31d5f56-2cdf-4f72-a4d3-1f89d3123ad2","ios":"levelo://app?vid=f31d5f56-2cdf-4f72-a4d3-1f89d3123ad2"},"vehicle_type_id":"4","last_reported":1743019870,"current_range_meters":4000,"station_id":"ce4bgh92rcd13ifvqb40","pricing_plan_id":"cebpf4jnsgd1na2vs0mg"},{"bike_id":"b29607b0-63c4-4a36-b581-1bae45324cc0","system_id":"levelo_inurba_marseille","lat":43.31366,"lon":5.384937,"is_reserved":false,"is_disabled":false,"rental_uris":{"android":"levelo://app?vid=b29607b0-63c4-4a36-b581-1bae45324cc0","ios":"levelo://app?vid=b29607b0-63c4-4a36-b581-1bae45324cc0"},"vehicle_type_id":"4","last_reported":1743019870,"current_range_meters":4000,"station_id":"ce4bgt92rcd13ifvqcf0","pricing_plan_id":"cebpf4jnsgd1na2vs0mg"},{"bike_id":"63342f59-e3a2-4228-b174-6eb599d80bbc","system_id":"levelo_inurba_marseille","lat":43.27365,"lon":5.36254,"is_reserved":false,"is_disabled":false,"rental_uris":{"android":"levelo://app?vid=63342f59-e3a2-4228-b174-6eb599d80bbc","ios":"levelo://app?vid=63342f59-e3a2-4228-b174-6eb599d80bbc"},"vehicle_type_id":"4","last_reported":1743019870,"current_range_meters":4000,"station_id":"ce4bhbh2rcd13ifvqeo0","pricing_plan_id":"cebpf4jnsgd1na2vs0mg"},{"bike_id":"611994a1-527e-4185-8009-a399204da174","system_id":"levelo_inurba_marseille","lat":43.29253,"lon":5.37621,"is_reserved":false,"is_disabled":false,"rental_uris":{"android":"levelo://app?vid=611994a1-527e-4185-8009-a399204da174","ios":"levelo://app?vid=611994a1-527e-4185-8009-a399204da174"},"vehicle_type_id":"4","last_reported":1743019870,"current_range_meters":4400,"station_id":"ce4bgi12rcd13ifvqb80","pricing_plan_id":"cebpf4jnsgd1na2vs0mg"},{"bike_id":"1e70a30c-274d-4dc0-9e56-d7d63a4419ca","system_id":"levelo_inurba_marseille","lat":43.29779,"lon":5.38107,"is_reserved":false,"is_disabled":false,"rental_uris":{"android":"levelo://app?vid=1e70a30c-274d-4dc0-9e56-d7d63a4419ca","ios":"levelo://app?vid=1e70a30c-274d-4dc0-9e56-d7d63a4419ca"},"vehicle_type_id":"4","last_reported":1743019870,"current_range_meters":4400,"station_id":"ce4bgip2rcd13ifvqbb0","pricing_plan_id":"cebpf4jnsgd1na2vs0mg"},{"bike_id":"c71cb402-feb8-4847-95e2-d161535620e5","system_id":"levelo_inurba_marseille","lat":43.2963,"lon":5.40595,"is_reserved":false,"is_disabled":false,"rental_uris":{"android":"levelo://app?vid=c71cb402-feb8-4847-95e2-d161535620e5","ios":"levelo://app?vid=c71cb402-feb8-4847-95e2-d161535620e5"},"vehicle_type_id":"4","last_reported":1743019870,"current_range_meters":4400,"station_id":"ce4bh0h2rcd13ifvqd60","pricing_plan_id":"cebpf4jnsgd1na2vs0mg"},{"bike_id":"da2cd919-11aa-414b-9487-f73f83a74beb","system_id":"levelo_inurba_marseille","lat":43.30209,"lon":5.39476,"is_reserved":false,"is_disabled":false,"rental_uris":{"android":"levelo://app?vid=da2cd919-11aa-414b-9487-f73f83a74beb","ios":"levelo://app?vid=da2cd919-11aa-414b-9487-f73f83a74beb"},"vehicle_type_id":"4","last_reported":1743019870,"current_range_meters":4400,"station_id":"ce4bh0p2rcd13ifvqd70","pricing_plan_id":"cebpf4jnsgd1na2vs0mg"},{"bike_id":"dd81a42c-daa7-4941-9625-99c6c37743b1","system_id":"levelo_inurba_marseille","lat":43.29404,"lon":5.38602,"is_reserved":false,"is_disabled":false,"rental_uris":{"android":"levelo://app?vid=dd81a42c-daa7-4941-9625-99c6c37743b1","ios":"levelo://app?vid=dd81a42c-daa7-4941-9625-99c6c37743b1"},"vehicle_type_id":"4","last_reported":1743019870,"current_range_meters":4400,"station_id":"ce4bh2h2rcd13ifvqdh0","pricing_plan_id":"cebpf4jnsgd1na2vs0mg"},{"bike_id":"8f44946b-f6d7-4ade-8fa9-f5b85dd410a4","system_id":"levelo_inurba_marseille","lat":43.29423,"lon":5.38632,"is_reserved":false,"is_disabled":false,"rental_uris":{"android":"levelo://app?vid=8f44946b-f6d7-4ade-8fa9-f5b85dd410a4","ios":"levelo://app?vid=8f44946b-f6d7-4ade-8fa9-f5b85dd410a4"},"vehicle_type_id":"4","last_reported":1743019870,"current_range_meters":4400,"station_id":"ce4bh2h2rcd13ifvqdh0","pricing_plan_id":"cebpf4jnsgd1na2vs0mg"},{"bike_id":"9caa4928-dde6-4b68-8169-90adf69793c3","system_id":"levelo_inurba_marseille","lat":43.25114,"lon":5.40285,"is_reserved":false,"is_disabled":false,"rental_uris":{"android":"levelo://app?vid=9caa4928-dde6-4b68-8169-90adf69793c3","ios":"levelo://app?vid=9caa4928-dde6-4b68-8169-90adf69793c3"},"vehicle_type_id":"4","last_reported":1743019870,"current_range_meters":4400,"station_id":"ce4bhlh2rcd13ifvqgig","pricing_plan_id":"cebpf4jnsgd1na2vs0mg"},{"bike_id":"9fd0c747-76a4-43a2-9187-0a47fc49629f","system_id":"levelo_inurba_marseille","lat":43.299305,"lon":5.381499,"is_reserved":false,"is_disabled":false,"rental_uris":{"android":"levelo://app?vid=9fd0c747-76a4-43a2-9187-0a47fc49629f","ios":"levelo://app?vid=9fd0c747-76a4-43a2-9187-0a47fc49629f"},"vehicle_type_id":"4","last_reported":1743019870,"current_range_meters":4800,"station_id":"ce4bgi92rcd13ifvqb90","pricing_plan_id":"cebpf4jnsgd1na2vs0mg"},{"bike_id":"38c86b61-7eb5-48f6-96ab-cdec5ec805a0","system_id":"levelo_inurba_marseille","lat":43.27934,"lon":5.37971,"is_reserved":false,"is_disabled":false,"rental_uris":{"android":"levelo://app?vid=38c86b61-7eb5-48f6-96ab-cdec5ec805a0","ios":"levelo://app?vid=38c86b61-7eb5-48f6-96ab-cdec5ec805a0"},"vehicle_type_id":"4","last_reported":1743019870,"current_range_meters":4800,"station_id":"ce4bhf92rcd13ifvqf50","pricing_plan_id":"cebpf4jnsgd1na2vs0mg"},{"bike_id":"f393c367-4b1a-4822-a11c-2fc8e333083c","system_id":"levelo_inurba_marseille","lat":43.24658,"lon":5.389,"is_reserved":false,"is_disabled":false,"rental_uris":{"android":"levelo://app?vid=f393c367-4b1a-4822-a11c-2fc8e333083c","ios":"levelo://app?vid=f393c367-4b1a-4822-a11c-2fc8e333083c"},"vehicle_type_id":"4","last_reported":1743019870,"current_range_meters":4800,"station_id":"ce4bhg12rcd13ifvqf60","pricing_plan_id":"cebpf4jnsgd1na2vs0mg"},{"bike_id":"402cc30d-39ca-4056-ad42-effd69fbd9c9","system_id":"levelo_inurba_marseille","lat":43.24087,"lon":5.37763,"is_reserved":false,"is_disabled":false,"rental_uris":{"android":"levelo://app?vid=402cc30d-39ca-4056-ad42-effd69fbd9c9","ios":"levelo://app?vid=402cc30d-39ca-4056-ad42-effd69fbd9c9"},"vehicle_type_id":"4","last_reported":1743019870,"current_range_meters":4800,"station_id":"ce4bhnp2rcd13ifvqgvg","pricing_plan_id":"cebpf4jnsgd1na2vs0mg"},{"bike_id":"c987315b-c2f4-4cef-9907-a198f1f04f5a","system_id":"levelo_inurba_marseille","lat":43.27993,"lon":5.40084,"is_reserved":false,"is_disabled":false,"rental_uris":{"android":"levelo://app?vid=c987315b-c2f4-4cef-9907-a198f1f04f5a","ios":"levelo://app?vid=c987315b-c2f4-4cef-9907-a198f1f04f5a"},"vehicle_type_id":"4","last_reported":1743019870,"current_range_meters":5600,"station_id":"","pricing_plan_id":"cebpf4jnsgd1na2vs0mg"},{"bike_id":"402a9b76-cdab-49c4-ab3a-f72d2a0949f7","system_id":"levelo_inurba_marseille","lat":43.31214,"lon":5.36884,"is_reserved":false,"is_disabled":false,"rental_uris":{"android":"levelo://app?vid=402a9b76-cdab-49c4-ab3a-f72d2a0949f7","ios":"levelo://app?vid=402a9b76-cdab-49c4-ab3a-f72d2a0949f7"},"vehicle_type_id":"4","last_reported":1743019870,"current_range_meters":5600,"station_id":"ce4bgl92rcd13ifvqbq0","pricing_plan_id":"cebpf4jnsgd1na2vs0mg"},{"bike_id":"fa184a62-ebc9-4b97-9381-e47cf28c2b04","system_id":"levelo_inurba_marseille","lat":43.31173,"lon":5.38707,"is_reserved":false,"is_disabled":false,"rental_uris":{"android":"levelo://app?vid=fa184a62-ebc9-4b97-9381-e47cf28c2b04","ios":"levelo://app?vid=fa184a62-ebc9-4b97-9381-e47cf28c2b04"},"vehicle_type_id":"4","last_reported":1743019870,"current_range_meters":5600,"station_id":"ce4bgv12rcd13ifvqcp0","pricing_plan_id":"cebpf4jnsgd1na2vs0mg"},{"bike_id":"b4d7eb15-98b2-48a3-b847-656ae538b642","system_id":"levelo_inurba_marseille","lat":43.292518,"lon":5.409053,"is_reserved":false,"is_disabled":false,"rental_uris":{"android":"levelo://app?vid=b4d7eb15-98b2-48a3-b847-656ae538b642","ios":"levelo://app?vid=b4d7eb15-98b2-48a3-b847-656ae538b642"},"vehicle_type_id":"4","last_reported":1743019870,"current_range_meters":5600,"station_id":"ce4bh192rcd13ifvqdc0","pricing_plan_id":"cebpf4jnsgd1na2vs0mg"},{"bike_id":"b743da05-6571-4c50-ad94-ef8652b221a0","system_id":"levelo_inurba_marseille","lat":43.29418,"lon":5.38609,"is_reserved":false,"is_disabled":false,"rental_uris":{"android":"levelo://app?vid=b743da05-6571-4c50-ad94-ef8652b221a0","ios":"levelo://app?vid=b743da05-6571-4c50-ad94-ef8652b221a0"},"vehicle_type_id":"4","last_reported":1743019870,"current_range_meters":5600,"station_id":"ce4bh2h2rcd13ifvqdh0","pricing_plan_id":"cebpf4jnsgd1na2vs0mg"},{"bike_id":"3fee6564-be60-4c1b-8198-3d36debfbaa7","system_id":"levelo_inurba_marseille","lat":43.28616,"lon":5.3511,"is_reserved":false,"is_disabled":false,"rental_uris":{"android":"levelo://app?vid=3fee6564-be60-4c1b-8198-3d36debfbaa7","ios":"levelo://app?vid=3fee6564-be60-4c1b-8198-3d36debfbaa7"},"vehicle_type_id":"4","last_reported":1743019870,"current_range_meters":5600,"station_id":"ce4bhch2rcd13ifvqeug","pricing_plan_id":"cebpf4jnsgd1na2vs0mg"},{"bike_id":"5f59506e-ebc3-476c-8f00-58086387366d","system_id":"levelo_inurba_marseille","lat":43.25827,"lon":5.39437,"is_reserved":false,"is_disabled":false,"rental_uris":{"android":"levelo://app?vid=5f59506e-ebc3-476c-8f00-58086387366d","ios":"levelo://app?vid=5f59506e-ebc3-476c-8f00-58086387366d"},"vehicle_type_id":"4","last_reported":1743019870,"current_range_meters":5600,"station_id":"ce4bhip2rcd13ifvqft0","pricing_plan_id":"cebpf4jnsgd1na2vs0mg"},{"bike_id":"bf24ded8-23e1-417c-b5d8-5c062c9776ae","system_id":"levelo_inurba_marseille","lat":43.2318,"lon":5.39989,"is_reserved":false,"is_disabled":false,"rental_uris":{"android":"levelo://app?vid=bf24ded8-23e1-417c-b5d8-5c062c9776ae","ios":"levelo://app?vid=bf24ded8-23e1-417c-b5d8-5c062c9776ae"},"vehicle_type_id":"4","last_reported":1743019870,"current_range_meters":5600,"station_id":"ce4bhn12rcd13ifvqgqg","pricing_plan_id":"cebpf4jnsgd1na2vs0mg"},{"bike_id":"7e628bd8-f74d-4310-8492-8512d6f315fe","system_id":"levelo_inurba_marseille","lat":43.23206,"lon":5.39964,"is_reserved":false,"is_disabled":false,"rental_uris":{"android":"levelo://app?vid=7e628bd8-f74d-4310-8492-8512d6f315fe","ios":"levelo://app?vid=7e628bd8-f74d-4310-8492-8512d6f315fe"},"vehicle_type_id":"4","last_reported":1743019870,"current_range_meters":5600,"station_id":"ce4bhn12rcd13ifvqgqg","pricing_plan_id":"cebpf4jnsgd1na2vs0mg"},{"bike_id":"77823725-c761-49bc-902c-64c32b686ae7","system_id":"levelo_inurba_marseille","lat":43.230638,"lon":5.354953,"is_reserved":false,"is_disabled":false,"rental_uris":{"android":"levelo://app?vid=77823725-c761-49bc-902c-64c32b686ae7","ios":"levelo://app?vid=77823725-c761-49bc-902c-64c32b686ae7"},"vehicle_type_id":"4","last_reported":1743019870,"current_range_meters":5600,"station_id":"cpo3342slgdg3j2ifvpg","pricing_plan_id":"cebpf4jnsgd1na2vs0mg"},{"bike_id":"b9760421-750e-4656-8e67-3c9ad37b93d6","system_id":"levelo_inurba_marseille","lat":43.30453,"lon":5.38889,"is_reserved":false,"is_disabled":false,"rental_uris":{"android":"levelo://app?vid=b9760421-750e-4656-8e67-3c9ad37b93d6","ios":"levelo://app?vid=b9760421-750e-4656-8e67-3c9ad37b93d6"},"vehicle_type_id":"4","last_reported":1743019870,"current_range_meters":6000,"station_id":"ce4bgk12rcd13ifvqbi0","pricing_plan_id":"cebpf4jnsgd1na2vs0mg"},{"bike_id":"800c90c2-47b1-4851-b94d-37718a43906d","system_id":"levelo_inurba_marseille","lat":43.31481,"lon":5.37305,"is_reserved":false,"is_disabled":false,"rental_uris":{"android":"levelo://app?vid=800c90c2-47b1-4851-b94d-37718a43906d","ios":"levelo://app?vid=800c90c2-47b1-4851-b94d-37718a43906d"},"vehicle_type_id":"4","last_reported":1743019870,"current_range_meters":6000,"station_id":"ce4bgt12rcd13ifvqcd0","pricing_plan_id":"cebpf4jnsgd1na2vs0mg"},{"bike_id":"3cd9b5bc-fba0-4545-94d0-e86f3d302f0f","system_id":"levelo_inurba_marseille","lat":43.28158,"lon":5.42662,"is_reserved":false,"is_disabled":false,"rental_uris":{"android":"levelo://app?vid=3cd9b5bc-fba0-4545-94d0-e86f3d302f0f","ios":"levelo://app?vid=3cd9b5bc-fba0-4545-94d0-e86f3d302f0f"},"vehicle_type_id":"4","last_reported":1743019870,"current_range_meters":6000,"station_id":"ce4bhnh2rcd13ifvqgug","pricing_plan_id":"cebpf4jnsgd1na2vs0mg"},{"bike_id":"ea058543-5b6a-48af-855d-c8588b5d0075","system_id":"levelo_inurba_marseille","lat":43.28161,"lon":5.42652,"is_reserved":false,"is_disabled":false,"rental_uris":{"android":"levelo://app?vid=ea058543-5b6a-48af-855d-c8588b5d0075","ios":"levelo://app?vid=ea058543-5b6a-48af-855d-c8588b5d0075"},"vehicle_type_id":"4","last_reported":1743019870,"current_range_meters":6000,"station_id":"ce4bhnh2rcd13ifvqgug","pricing_plan_id":"cebpf4jnsgd1na2vs0mg"},{"bike_id":"4e288369-5456-4239-a0ac-26a0af038ae6","system_id":"levelo_inurba_marseille","lat":43.29291,"lon":5.37457,"is_reserved":false,"is_disabled":false,"rental_uris":{"android":"levelo://app?vid=4e288369-5456-4239-a0ac-26a0af038ae6","ios":"levelo://app?vid=4e288369-5456-4239-a0ac-26a0af038ae6"},"vehicle_type_id":"4","last_reported":1743019870,"current_range_meters":6400,"station_id":"ce4bgi12rcd13ifvqb70","pricing_plan_id":"cebpf4jnsgd1na2vs0mg"},{"bike_id":"02ad8c22-e081-411e-88d5-20a7dac6d9a6","system_id":"levelo_inurba_marseille","lat":43.2994,"lon":5.36539,"is_reserved":false,"is_disabled":false,"rental_uris":{"android":"levelo://app?vid=02ad8c22-e081-411e-88d5-20a7dac6d9a6","ios":"levelo://app?vid=02ad8c22-e081-411e-88d5-20a7dac6d9a6"},"vehicle_type_id":"4","last_reported":1743019870,"current_range_meters":6400,"station_id":"ce4bgm92rcd13ifvqbr0","pricing_plan_id":"cebpf4jnsgd1na2vs0mg"},{"bike_id":"cfb94627-63fd-4588-ba07-97ec13253103","system_id":"levelo_inurba_marseille","lat":43.31072,"lon":5.38356,"is_reserved":false,"is_disabled":false,"rental_uris":{"android":"levelo://app?vid=cfb94627-63fd-4588-ba07-97ec13253103","ios":"levelo://app?vid=cfb94627-63fd-4588-ba07-97ec13253103"},"vehicle_type_id":"4","last_reported":1743019870,"current_range_meters":6400,"station_id":"ce4bgv92rcd13ifvqcr0","pricing_plan_id":"cebpf4jnsgd1na2vs0mg"},{"bike_id":"2e5e087f-e6ae-43b2-a7b3-4d878496512d","system_id":"levelo_inurba_marseille","lat":43.29265,"lon":5.38436,"is_reserved":false,"is_disabled":false,"rental_uris":{"android":"levelo://app?vid=2e5e087f-e6ae-43b2-a7b3-4d878496512d","ios":"levelo://app?vid=2e5e087f-e6ae-43b2-a7b3-4d878496512d"},"vehicle_type_id":"4","last_reported":1743019870,"current_range_meters":6400,"station_id":"ce4bh692rcd13ifvqea0","pricing_plan_id":"cebpf4jnsgd1na2vs0mg"},{"bike_id":"39045b19-ef4e-4445-9d2c-ca438ed9e414","system_id":"levelo_inurba_marseille","lat":43.26497,"lon":5.39547,"is_reserved":false,"is_disabled":false,"rental_uris":{"android":"levelo://app?vid=39045b19-ef4e-4445-9d2c-ca438ed9e414","ios":"levelo://app?vid=39045b19-ef4e-4445-9d2c-ca438ed9e414"},"vehicle_type_id":"4","last_reported":1743019870,"current_range_meters":6400,"station_id":"ce4bhi12rcd13ifvqfq0","pricing_plan_id":"cebpf4jnsgd1na2vs0mg"},{"bike_id":"223c2160-e20d-492b-8baa-4483b9f66675","system_id":"levelo_inurba_marseille","lat":43.25717,"lon":5.41116,"is_reserved":false,"is_disabled":false,"rental_uris":{"android":"levelo://app?vid=223c2160-e20d-492b-8baa-4483b9f66675","ios":"levelo://app?vid=223c2160-e20d-492b-8baa-4483b9f66675"},"vehicle_type_id":"4","last_reported":1743019870,"current_range_meters":6400,"station_id":"ce4bhkp2rcd13ifvqgd0","pricing_plan_id":"cebpf4jnsgd1na2vs0mg"},{"bike_id":"e20b7165-be11-4528-a01e-1ae8a0bf1ac6","system_id":"levelo_inurba_marseille","lat":43.25113,"lon":5.40316,"is_reserved":false,"is_disabled":false,"rental_uris":{"android":"levelo://app?vid=e20b7165-be11-4528-a01e-1ae8a0bf1ac6","ios":"levelo://app?vid=e20b7165-be11-4528-a01e-1ae8a0bf1ac6"},"vehicle_type_id":"4","last_reported":1743019870,"current_range_meters":6400,"station_id":"ce4bhlh2rcd13ifvqgig","pricing_plan_id":"cebpf4jnsgd1na2vs0mg"},{"bike_id":"89d0c050-f2f0-4078-b3c8-ae38cad468e2","system_id":"levelo_inurba_marseille","lat":43.27817,"lon":5.40717,"is_reserved":false,"is_disabled":false,"rental_uris":{"android":"levelo://app?vid=89d0c050-f2f0-4078-b3c8-ae38cad468e2","ios":"levelo://app?vid=89d0c050-f2f0-4078-b3c8-ae38cad468e2"},"vehicle_type_id":"4","last_reported":1743019870,"current_range_meters":6400,"station_id":"ce4bhnh2rcd13ifvqgtg","pricing_plan_id":"cebpf4jnsgd1na2vs0mg"},{"bike_id":"6633349b-54ae-41b8-88d5-61ec5d012302","system_id":"levelo_inurba_marseille","lat":43.32106,"lon":5.36774,"is_reserved":false,"is_disabled":false,"rental_uris":{"android":"levelo://app?vid=6633349b-54ae-41b8-88d5-61ec5d012302","ios":"levelo://app?vid=6633349b-54ae-41b8-88d5-61ec5d012302"},"vehicle_type_id":"4","last_reported":1743019870,"current_range_meters":6400,"station_id":"ce4bhrh2rcd13ifvqhug","pricing_plan_id":"cebpf4jnsgd1na2vs0mg"},{"bike_id":"e157512c-8da5-4b6e-9c01-be7b95c5d97c","system_id":"levelo_inurba_marseille","lat":43.26819,"lon":5.40263,"is_reserved":false,"is_disabled":false,"rental_uris":{"android":"levelo://app?vid=e157512c-8da5-4b6e-9c01-be7b95c5d97c","ios":"levelo://app?vid=e157512c-8da5-4b6e-9c01-be7b95c5d97c"},"vehicle_type_id":"4","last_reported":1743019870,"current_range_meters":6400,"station_id":"ce501612rcd8frsf0b60","pricing_plan_id":"cebpf4jnsgd1na2vs0mg"},{"bike_id":"2bc60d58-eca8-489a-9ab7-436d7b576939","system_id":"levelo_inurba_marseille","lat":43.29943,"lon":5.43646,"is_reserved":false,"is_disabled":false,"rental_uris":{"android":"levelo://app?vid=2bc60d58-eca8-489a-9ab7-436d7b576939","ios":"levelo://app?vid=2bc60d58-eca8-489a-9ab7-436d7b576939"},"vehicle_type_id":"4","last_reported":1743019870,"current_range_meters":6800,"station_id":"","pricing_plan_id":"cebpf4jnsgd1na2vs0mg"},{"bike_id":"5a4d2d11-ceeb-4cba-9eb4-ee508fac38b2","system_id":"levelo_inurba_marseille","lat":43.29529,"lon":5.38559,"is_reserved":false,"is_disabled":false,"rental_uris":{"android":"levelo://app?vid=5a4d2d11-ceeb-4cba-9eb4-ee508fac38b2","ios":"levelo://app?vid=5a4d2d11-ceeb-4cba-9eb4-ee508fac38b2"},"vehicle_type_id":"4","last_reported":1743019870,"current_range_meters":6800,"station_id":"ce4bgih2rcd13ifvqba0","pricing_plan_id":"cebpf4jnsgd1na2vs0mg"},{"bike_id":"aae89eff-7518-436e-ad80-07c92e9a8d3c","system_id":"levelo_inurba_marseille","lat":43.29527,"lon":5.38556,"is_reserved":false,"is_disabled":false,"rental_uris":{"android":"levelo://app?vid=aae89eff-7518-436e-ad80-07c92e9a8d3c","ios":"levelo://app?vid=aae89eff-7518-436e-ad80-07c92e9a8d3c"},"vehicle_type_id":"4","last_reported":1743019870,"current_range_meters":6800,"station_id":"ce4bgih2rcd13ifvqba0","pricing_plan_id":"cebpf4jnsgd1na2vs0mg"},{"bike_id":"e4c9930c-da48-4a3f-bb40-705a4acd3547","system_id":"levelo_inurba_marseille","lat":43.30799,"lon":5.38152,"is_reserved":false,"is_disabled":false,"rental_uris":{"android":"levelo://app?vid=e4c9930c-da48-4a3f-bb40-705a4acd3547","ios":"levelo://app?vid=e4c9930c-da48-4a3f-bb40-705a4acd3547"},"vehicle_type_id":"4","last_reported":1743019870,"current_range_meters":6800,"station_id":"ce4bgt12rcd13ifvqce0","pricing_plan_id":"cebpf4jnsgd1na2vs0mg"},{"bike_id":"18eb9b01-5f0d-4cc3-b4a9-2837e0190f25","system_id":"levelo_inurba_marseille","lat":43.304356,"lon":5.388914,"is_reserved":false,"is_disabled":false,"rental_uris":{"android":"levelo://app?vid=18eb9b01-5f0d-4cc3-b4a9-2837e0190f25","ios":"levelo://app?vid=18eb9b01-5f0d-4cc3-b4a9-2837e0190f25"},"vehicle_type_id":"4","last_reported":1743019870,"current_range_meters":6800,"station_id":"ce4bh012rcd13ifvqcv0","pricing_plan_id":"cebpf4jnsgd1na2vs0mg"},{"bike_id":"bcb027de-f21c-46df-af65-77148866e56b","system_id":"levelo_inurba_marseille","lat":43.29418,"lon":5.38627,"is_reserved":false,"is_disabled":false,"rental_uris":{"android":"levelo://app?vid=bcb027de-f21c-46df-af65-77148866e56b","ios":"levelo://app?vid=bcb027de-f21c-46df-af65-77148866e56b"},"vehicle_type_id":"4","last_reported":1743019870,"current_range_meters":6800,"station_id":"ce4bh2h2rcd13ifvqdh0","pricing_plan_id":"cebpf4jnsgd1na2vs0mg"},{"bike_id":"4b70fe31-cbd2-4faf-90b9-9ee480e2b42f","system_id":"levelo_inurba_marseille","lat":43.29271,"lon":5.38427,"is_reserved":false,"is_disabled":false,"rental_uris":{"android":"levelo://app?vid=4b70fe31-cbd2-4faf-90b9-9ee480e2b42f","ios":"levelo://app?vid=4b70fe31-cbd2-4faf-90b9-9ee480e2b42f"},"vehicle_type_id":"4","last_reported":1743019870,"current_range_meters":6800,"station_id":"ce4bh692rcd13ifvqea0","pricing_plan_id":"cebpf4jnsgd1na2vs0mg"},{"bike_id":"6c5d1ce0-6a25-4996-b766-77b6b895e23f","system_id":"levelo_inurba_marseille","lat":43.292569,"lon":5.384396,"is_reserved":false,"is_disabled":false,"rental_uris":{"android":"levelo://app?vid=6c5d1ce0-6a25-4996-b766-77b6b895e23f","ios":"levelo://app?vid=6c5d1ce0-6a25-4996-b766-77b6b895e23f"},"vehicle_type_id":"4","last_reported":1743019870,"current_range_meters":6800,"station_id":"ce4bh692rcd13ifvqea0","pricing_plan_id":"cebpf4jnsgd1na2vs0mg"},{"bike_id":"d5804ad3-33e7-454e-b7d4-322b214049f7","system_id":"levelo_inurba_marseille","lat":43.24684,"lon":5.38128,"is_reserved":false,"is_disabled":false,"rental_uris":{"android":"levelo://app?vid=d5804ad3-33e7-454e-b7d4-322b214049f7","ios":"levelo://app?vid=d5804ad3-33e7-454e-b7d4-322b214049f7"},"vehicle_type_id":"4","last_reported":1743019870,"current_range_meters":6800,"station_id":"ce4bhih2rcd13ifvqfr0","pricing_plan_id":"cebpf4jnsgd1na2vs0mg"},{"bike_id":"000afce6-6f60-4b8a-a87b-213d6105417e","system_id":"levelo_inurba_marseille","lat":43.26192,"lon":5.37923,"is_reserved":false,"is_disabled":false,"rental_uris":{"android":"levelo://app?vid=000afce6-6f60-4b8a-a87b-213d6105417e","ios":"levelo://app?vid=000afce6-6f60-4b8a-a87b-213d6105417e"},"vehicle_type_id":"4","last_reported":1743019870,"current_range_meters":6800,"station_id":"ce4bhjp2rcd13ifvqg90","pricing_plan_id":"cebpf4jnsgd1na2vs0mg"},{"bike_id":"d2d4a013-da47-429f-9400-c6da6763f452","system_id":"levelo_inurba_marseille","lat":43.27827,"lon":5.40706,"is_reserved":false,"is_disabled":false,"rental_uris":{"android":"levelo://app?vid=d2d4a013-da47-429f-9400-c6da6763f452","ios":"levelo://app?vid=d2d4a013-da47-429f-9400-c6da6763f452"},"vehicle_type_id":"4","last_reported":1743019870,"current_range_meters":6800,"station_id":"ce4bhnh2rcd13ifvqgtg","pricing_plan_id":"cebpf4jnsgd1na2vs0mg"},{"bike_id":"8b0643ce-934f-49d4-aae3-32dc3ec1ff83","system_id":"levelo_inurba_marseille","lat":43.28167,"lon":5.42637,"is_reserved":false,"is_disabled":false,"rental_uris":{"android":"levelo://app?vid=8b0643ce-934f-49d4-aae3-32dc3ec1ff83","ios":"levelo://app?vid=8b0643ce-934f-49d4-aae3-32dc3ec1ff83"},"vehicle_type_id":"4","last_reported":1743019870,"current_range_meters":6800,"station_id":"ce4bhnh2rcd13ifvqgug","pricing_plan_id":"cebpf4jnsgd1na2vs0mg"},{"bike_id":"3caf9297-9162-427d-b86d-54632f9b80d9","system_id":"levelo_inurba_marseille","lat":43.27827,"lon":5.40784,"is_reserved":false,"is_disabled":false,"rental_uris":{"android":"levelo://app?vid=3caf9297-9162-427d-b86d-54632f9b80d9","ios":"levelo://app?vid=3caf9297-9162-427d-b86d-54632f9b80d9"},"vehicle_type_id":"4","last_reported":1743019870,"current_range_meters":7200,"station_id":"","pricing_plan_id":"cebpf4jnsgd1na2vs0mg"},{"bike_id":"fbbe3ced-5dc9-4292-b830-13475d35a585","system_id":"levelo_inurba_marseille","lat":43.29255,"lon":5.37621,"is_reserved":false,"is_disabled":false,"rental_uris":{"android":"levelo://app?vid=fbbe3ced-5dc9-4292-b830-13475d35a585","ios":"levelo://app?vid=fbbe3ced-5dc9-4292-b830-13475d35a585"},"vehicle_type_id":"4","last_reported":1743019870,"current_range_meters":7200,"station_id":"ce4bgi12rcd13ifvqb80","pricing_plan_id":"cebpf4jnsgd1na2vs0mg"},{"bike_id":"2477d515-77b2-4a18-be08-bc056da7f2c1","system_id":"levelo_inurba_marseille","lat":43.299606,"lon":5.385088,"is_reserved":false,"is_disabled":false,"rental_uris":{"android":"levelo://app?vid=2477d515-77b2-4a18-be08-bc056da7f2c1","ios":"levelo://app?vid=2477d515-77b2-4a18-be08-bc056da7f2c1"},"vehicle_type_id":"4","last_reported":1743019870,"current_range_meters":7200,"station_id":"ce4bgj92rcd13ifvqbd0","pricing_plan_id":"cebpf4jnsgd1na2vs0mg"},{"bike_id":"2f47bda1-d7e6-4f6b-9769-25b722b72d35","system_id":"levelo_inurba_marseille","lat":43.29603,"lon":5.38094,"is_reserved":false,"is_disabled":false,"rental_uris":{"android":"levelo://app?vid=2f47bda1-d7e6-4f6b-9769-25b722b72d35","ios":"levelo://app?vid=2f47bda1-d7e6-4f6b-9769-25b722b72d35"},"vehicle_type_id":"4","last_reported":1743019870,"current_range_meters":7200,"station_id":"ce4bgl12rcd13ifvqbo0","pricing_plan_id":"cebpf4jnsgd1na2vs0mg"},{"bike_id":"fc2186a3-9143-4ddc-a7af-47ab8ad9a861","system_id":"levelo_inurba_marseille","lat":43.31119,"lon":5.37761,"is_reserved":false,"is_disabled":false,"rental_uris":{"android":"levelo://app?vid=fc2186a3-9143-4ddc-a7af-47ab8ad9a861","ios":"levelo://app?vid=fc2186a3-9143-4ddc-a7af-47ab8ad9a861"},"vehicle_type_id":"4","last_reported":1743019870,"current_range_meters":7200,"station_id":"ce4bgt92rcd13ifvqcg0","pricing_plan_id":"cebpf4jnsgd1na2vs0mg"},{"bike_id":"947852ec-3c24-43a6-9900-9a5f52f8190a","system_id":"levelo_inurba_marseille","lat":43.29563,"lon":5.40005,"is_reserved":false,"is_disabled":false,"rental_uris":{"android":"levelo://app?vid=947852ec-3c24-43a6-9900-9a5f52f8190a","ios":"levelo://app?vid=947852ec-3c24-43a6-9900-9a5f52f8190a"},"vehicle_type_id":"4","last_reported":1743019870,"current_range_meters":7200,"station_id":"ce4bh312rcd13ifvqdj0","pricing_plan_id":"cebpf4jnsgd1na2vs0mg"},{"bike_id":"35f90be2-86ff-4f25-b093-7bbac3fdecec","system_id":"levelo_inurba_marseille","lat":43.28467,"lon":5.38429,"is_reserved":false,"is_disabled":false,"rental_uris":{"android":"levelo://app?vid=35f90be2-86ff-4f25-b093-7bbac3fdecec","ios":"levelo://app?vid=35f90be2-86ff-4f25-b093-7bbac3fdecec"},"vehicle_type_id":"4","last_reported":1743019870,"current_range_meters":7200,"station_id":"ce4bh512rcd13ifvqe3g","pricing_plan_id":"cebpf4jnsgd1na2vs0mg"},{"bike_id":"98dd18d1-9188-4768-b3e5-cf0b45b36a9a","system_id":"levelo_inurba_marseille","lat":43.24809,"lon":5.374552,"is_reserved":false,"is_disabled":false,"rental_uris":{"android":"levelo://app?vid=98dd18d1-9188-4768-b3e5-cf0b45b36a9a","ios":"levelo://app?vid=98dd18d1-9188-4768-b3e5-cf0b45b36a9a"},"vehicle_type_id":"4","last_reported":1743019870,"current_range_meters":7200,"station_id":"ce4bhgh2rcd13ifvqfb0","pricing_plan_id":"cebpf4jnsgd1na2vs0mg"},{"bike_id":"d0b79d47-e71e-4e16-86e5-742b427da272","system_id":"levelo_inurba_marseille","lat":43.26078,"lon":5.394,"is_reserved":false,"is_disabled":false,"rental_uris":{"android":"levelo://app?vid=d0b79d47-e71e-4e16-86e5-742b427da272","ios":"levelo://app?vid=d0b79d47-e71e-4e16-86e5-742b427da272"},"vehicle_type_id":"4","last_reported":1743019870,"current_range_meters":7200,"station_id":"ce4bhh92rcd13ifvqfj0","pricing_plan_id":"cebpf4jnsgd1na2vs0mg"},{"bike_id":"3789873a-1dd9-4f31-847a-52f0d7019a2f","system_id":"levelo_inurba_marseille","lat":43.23957,"lon":5.36643,"is_reserved":false,"is_disabled":false,"rental_uris":{"android":"levelo://app?vid=3789873a-1dd9-4f31-847a-52f0d7019a2f","ios":"levelo://app?vid=3789873a-1dd9-4f31-847a-52f0d7019a2f"},"vehicle_type_id":"4","last_reported":1743019870,"current_range_meters":7200,"station_id":"ce4bhi12rcd13ifvqfp0","pricing_plan_id":"cebpf4jnsgd1na2vs0mg"},{"bike_id":"8a2ac80f-a9df-4cac-bfdf-aa7fcca54ef9","system_id":"levelo_inurba_marseille","lat":43.250956,"lon":5.395194,"is_reserved":false,"is_disabled":false,"rental_uris":{"android":"levelo://app?vid=8a2ac80f-a9df-4cac-bfdf-aa7fcca54ef9","ios":"levelo://app?vid=8a2ac80f-a9df-4cac-bfdf-aa7fcca54ef9"},"vehicle_type_id":"4","last_reported":1743019870,"current_range_meters":7200,"station_id":"ce4bhm12rcd13ifvqgkg","pricing_plan_id":"cebpf4jnsgd1na2vs0mg"},{"bike_id":"ba514c16-180b-4665-976e-3f1f27c9c0d0","system_id":"levelo_inurba_marseille","lat":43.27828,"lon":5.40731,"is_reserved":false,"is_disabled":false,"rental_uris":{"android":"levelo://app?vid=ba514c16-180b-4665-976e-3f1f27c9c0d0","ios":"levelo://app?vid=ba514c16-180b-4665-976e-3f1f27c9c0d0"},"vehicle_type_id":"4","last_reported":1743019870,"current_range_meters":7200,"station_id":"ce4bhnh2rcd13ifvqgtg","pricing_plan_id":"cebpf4jnsgd1na2vs0mg"},{"bike_id":"589f1146-20bc-4a88-9ab7-60ee275b3000","system_id":"levelo_inurba_marseille","lat":43.29715,"lon":5.38026,"is_reserved":false,"is_disabled":false,"rental_uris":{"android":"levelo://app?vid=589f1146-20bc-4a88-9ab7-60ee275b3000","ios":"levelo://app?vid=589f1146-20bc-4a88-9ab7-60ee275b3000"},"vehicle_type_id":"4","last_reported":1743019870,"current_range_meters":8000,"station_id":"","pricing_plan_id":"cebpf4jnsgd1na2vs0mg"},{"bike_id":"c9757738-5699-4f4d-8ebd-5b5fc92ea556","system_id":"levelo_inurba_marseille","lat":43.30166,"lon":5.38749,"is_reserved":false,"is_disabled":false,"rental_uris":{"android":"levelo://app?vid=c9757738-5699-4f4d-8ebd-5b5fc92ea556","ios":"levelo://app?vid=c9757738-5699-4f4d-8ebd-5b5fc92ea556"},"vehicle_type_id":"4","last_reported":1743019870,"current_range_meters":8000,"station_id":"ce4bghh2rcd13ifvqb60","pricing_plan_id":"cebpf4jnsgd1na2vs0mg"},{"bike_id":"ac37fc9a-d817-4016-9ca1-892c24fc68b0","system_id":"levelo_inurba_marseille","lat":43.29946,"lon":5.38571,"is_reserved":false,"is_disabled":false,"rental_uris":{"android":"levelo://app?vid=ac37fc9a-d817-4016-9ca1-892c24fc68b0","ios":"levelo://app?vid=ac37fc9a-d817-4016-9ca1-892c24fc68b0"},"vehicle_type_id":"4","last_reported":1743019870,"current_range_meters":8000,"station_id":"ce4bgj92rcd13ifvqbd0","pricing_plan_id":"cebpf4jnsgd1na2vs0mg"},{"bike_id":"92ebc5a6-0d9f-45da-9a83-4dce7e1f76a7","system_id":"levelo_inurba_marseille","lat":43.311644,"lon":5.387324,"is_reserved":false,"is_disabled":false,"rental_uris":{"android":"levelo://app?vid=92ebc5a6-0d9f-45da-9a83-4dce7e1f76a7","ios":"levelo://app?vid=92ebc5a6-0d9f-45da-9a83-4dce7e1f76a7"},"vehicle_type_id":"4","last_reported":1743019870,"current_range_meters":8000,"station_id":"ce4bgv12rcd13ifvqcp0","pricing_plan_id":"cebpf4jnsgd1na2vs0mg"},{"bike_id":"6493a410-ba38-4b48-997d-2b0a0413cba6","system_id":"levelo_inurba_marseille","lat":43.30889,"lon":5.39649,"is_reserved":false,"is_disabled":false,"rental_uris":{"android":"levelo://app?vid=6493a410-ba38-4b48-997d-2b0a0413cba6","ios":"levelo://app?vid=6493a410-ba38-4b48-997d-2b0a0413cba6"},"vehicle_type_id":"4","last_reported":1743019870,"current_range_meters":8000,"station_id":"ce4bh012rcd13ifvqcv0","pricing_plan_id":"cebpf4jnsgd1na2vs0mg"},{"bike_id":"8654e62d-5293-468f-801d-5e2a7e4cf0b3","system_id":"levelo_inurba_marseille","lat":43.29409,"lon":5.38613,"is_reserved":false,"is_disabled":false,"rental_uris":{"android":"levelo://app?vid=8654e62d-5293-468f-801d-5e2a7e4cf0b3","ios":"levelo://app?vid=8654e62d-5293-468f-801d-5e2a7e4cf0b3"},"vehicle_type_id":"4","last_reported":1743019870,"current_range_meters":8000,"station_id":"ce4bh2h2rcd13ifvqdh0","pricing_plan_id":"cebpf4jnsgd1na2vs0mg"},{"bike_id":"8e9a7e2d-3588-489c-9aca-78d965d18399","system_id":"levelo_inurba_marseille","lat":43.29261,"lon":5.38434,"is_reserved":false,"is_disabled":false,"rental_uris":{"android":"levelo://app?vid=8e9a7e2d-3588-489c-9aca-78d965d18399","ios":"levelo://app?vid=8e9a7e2d-3588-489c-9aca-78d965d18399"},"vehicle_type_id":"4","last_reported":1743019870,"current_range_meters":8000,"station_id":"ce4bh692rcd13ifvqea0","pricing_plan_id":"cebpf4jnsgd1na2vs0mg"},{"bike_id":"81154235-8ef8-43eb-84ca-25a6f1ffd2d5","system_id":"levelo_inurba_marseille","lat":43.25685,"lon":5.41062,"is_reserved":false,"is_disabled":false,"rental_uris":{"android":"levelo://app?vid=81154235-8ef8-43eb-84ca-25a6f1ffd2d5","ios":"levelo://app?vid=81154235-8ef8-43eb-84ca-25a6f1ffd2d5"},"vehicle_type_id":"4","last_reported":1743019870,"current_range_meters":8000,"station_id":"ce4bhkp2rcd13ifvqgd0","pricing_plan_id":"cebpf4jnsgd1na2vs0mg"},{"bike_id":"494edb5c-8886-472a-b4b2-0033adc0ccbd","system_id":"levelo_inurba_marseille","lat":43.23178,"lon":5.4001,"is_reserved":false,"is_disabled":false,"rental_uris":{"android":"levelo://app?vid=494edb5c-8886-472a-b4b2-0033adc0ccbd","ios":"levelo://app?vid=494edb5c-8886-472a-b4b2-0033adc0ccbd"},"vehicle_type_id":"4","last_reported":1743019870,"current_range_meters":8000,"station_id":"ce4bhn12rcd13ifvqgqg","pricing_plan_id":"cebpf4jnsgd1na2vs0mg"},{"bike_id":"316628de-9261-4f78-bc0d-0476a50caf90","system_id":"levelo_inurba_marseille","lat":43.29887,"lon":5.43628,"is_reserved":false,"is_disabled":false,"rental_uris":{"android":"levelo://app?vid=316628de-9261-4f78-bc0d-0476a50caf90","ios":"levelo://app?vid=316628de-9261-4f78-bc0d-0476a50caf90"},"vehicle_type_id":"4","last_reported":1743019870,"current_range_meters":8000,"station_id":"ce4bhpp2rcd13ifvqhfg","pricing_plan_id":"cebpf4jnsgd1na2vs0mg"},{"bike_id":"ecfbe1b6-91a4-4967-b2f4-1915901f3187","system_id":"levelo_inurba_marseille","lat":43.31786,"lon":5.3902,"is_reserved":false,"is_disabled":false,"rental_uris":{"android":"levelo://app?vid=ecfbe1b6-91a4-4967-b2f4-1915901f3187","ios":"levelo://app?vid=ecfbe1b6-91a4-4967-b2f4-1915901f3187"},"vehicle_type_id":"4","last_reported":1743019870,"current_range_meters":8000,"station_id":"ce4bhqp2rcd13ifvqhng","pricing_plan_id":"cebpf4jnsgd1na2vs0mg"},{"bike_id":"a5fb06d1-c469-4515-9522-548b956fd2b3","system_id":"levelo_inurba_marseille","lat":43.31748,"lon":5.39032,"is_reserved":false,"is_disabled":false,"rental_uris":{"android":"levelo://app?vid=a5fb06d1-c469-4515-9522-548b956fd2b3","ios":"levelo://app?vid=a5fb06d1-c469-4515-9522-548b956fd2b3"},"vehicle_type_id":"4","last_reported":1743019870,"current_range_meters":8000,"station_id":"ce4bhqp2rcd13ifvqhng","pricing_plan_id":"cebpf4jnsgd1na2vs0mg"},{"bike_id":"144d798a-c5e8-4897-9c97-691f4421fcf7","system_id":"levelo_inurba_marseille","lat":43.2873,"lon":5.36079,"is_reserved":false,"is_disabled":false,"rental_uris":{"android":"levelo://app?vid=144d798a-c5e8-4897-9c97-691f4421fcf7","ios":"levelo://app?vid=144d798a-c5e8-4897-9c97-691f4421fcf7"},"vehicle_type_id":"4","last_reported":1743019870,"current_range_meters":8000,"station_id":"cki0cbj6b192h4jlfktg","pricing_plan_id":"cebpf4jnsgd1na2vs0mg"},{"bike_id":"32a57ef7-6cbb-43b3-bba8-2545314a1282","system_id":"levelo_inurba_marseille","lat":43.28716,"lon":5.37407,"is_reserved":false,"is_disabled":false,"rental_uris":{"android":"levelo://app?vid=32a57ef7-6cbb-43b3-bba8-2545314a1282","ios":"levelo://app?vid=32a57ef7-6cbb-43b3-bba8-2545314a1282"},"vehicle_type_id":"4","last_reported":1743019870,"current_range_meters":8400,"station_id":"ce4bh3p2rcd13ifvqdq0","pricing_plan_id":"cebpf4jnsgd1na2vs0mg"},{"bike_id":"cf5aaf9d-591c-401b-8554-050db64bf1b7","system_id":"levelo_inurba_marseille","lat":43.29253,"lon":5.38443,"is_reserved":false,"is_disabled":false,"rental_uris":{"android":"levelo://app?vid=cf5aaf9d-591c-401b-8554-050db64bf1b7","ios":"levelo://app?vid=cf5aaf9d-591c-401b-8554-050db64bf1b7"},"vehicle_type_id":"4","last_reported":1743019870,"current_range_meters":8400,"station_id":"ce4bh692rcd13ifvqea0","pricing_plan_id":"cebpf4jnsgd1na2vs0mg"},{"bike_id":"4d6d8a3e-5cdb-4d7b-bbad-abcfee7897a7","system_id":"levelo_inurba_marseille","lat":43.28031,"lon":5.36953,"is_reserved":false,"is_disabled":false,"rental_uris":{"android":"levelo://app?vid=4d6d8a3e-5cdb-4d7b-bbad-abcfee7897a7","ios":"levelo://app?vid=4d6d8a3e-5cdb-4d7b-bbad-abcfee7897a7"},"vehicle_type_id":"4","last_reported":1743019870,"current_range_meters":8400,"station_id":"ce4bha12rcd13ifvqef0","pricing_plan_id":"cebpf4jnsgd1na2vs0mg"},{"bike_id":"a6dd5bb8-14a7-4711-a5b0-0c3a5674329c","system_id":"levelo_inurba_marseille","lat":43.28841,"lon":5.35844,"is_reserved":false,"is_disabled":false,"rental_uris":{"android":"levelo://app?vid=a6dd5bb8-14a7-4711-a5b0-0c3a5674329c","ios":"levelo://app?vid=a6dd5bb8-14a7-4711-a5b0-0c3a5674329c"},"vehicle_type_id":"4","last_reported":1743019870,"current_range_meters":8400,"station_id":"ce4bhb12rcd13ifvqem0","pricing_plan_id":"cebpf4jnsgd1na2vs0mg"},{"bike_id":"c39fa68f-2d89-4cb3-9e61-82e1bd60a3d1","system_id":"levelo_inurba_marseille","lat":43.26061,"lon":5.3939,"is_reserved":false,"is_disabled":false,"rental_uris":{"android":"levelo://app?vid=c39fa68f-2d89-4cb3-9e61-82e1bd60a3d1","ios":"levelo://app?vid=c39fa68f-2d89-4cb3-9e61-82e1bd60a3d1"},"vehicle_type_id":"4","last_reported":1743019870,"current_range_meters":8400,"station_id":"ce4bhh92rcd13ifvqfj0","pricing_plan_id":"cebpf4jnsgd1na2vs0mg"},{"bike_id":"eeaef509-680b-4e54-938b-2a07d9dee3b3","system_id":"levelo_inurba_marseille","lat":43.25827,"lon":5.39444,"is_reserved":false,"is_disabled":false,"rental_uris":{"android":"levelo://app?vid=eeaef509-680b-4e54-938b-2a07d9dee3b3","ios":"levelo://app?vid=eeaef509-680b-4e54-938b-2a07d9dee3b3"},"vehicle_type_id":"4","last_reported":1743019870,"current_range_meters":8400,"station_id":"ce4bhip2rcd13ifvqft0","pricing_plan_id":"cebpf4jnsgd1na2vs0mg"},{"bike_id":"f331f4a0-921f-47e2-bc64-3b6ed88b17e3","system_id":"levelo_inurba_marseille","lat":43.27179,"lon":5.40991,"is_reserved":false,"is_disabled":false,"rental_uris":{"android":"levelo://app?vid=f331f4a0-921f-47e2-bc64-3b6ed88b17e3","ios":"levelo://app?vid=f331f4a0-921f-47e2-bc64-3b6ed88b17e3"},"vehicle_type_id":"4","last_reported":1743019870,"current_range_meters":8400,"station_id":"ce4bhl12rcd13ifvqgf0","pricing_plan_id":"cebpf4jnsgd1na2vs0mg"},{"bike_id":"573087b6-76af-4403-a986-3833782f0927","system_id":"levelo_inurba_marseille","lat":43.231888,"lon":5.399912,"is_reserved":false,"is_disabled":false,"rental_uris":{"android":"levelo://app?vid=573087b6-76af-4403-a986-3833782f0927","ios":"levelo://app?vid=573087b6-76af-4403-a986-3833782f0927"},"vehicle_type_id":"4","last_reported":1743019870,"current_range_meters":8400,"station_id":"ce4bhn12rcd13ifvqgqg","pricing_plan_id":"cebpf4jnsgd1na2vs0mg"},{"bike_id":"34686373-e89c-419a-b761-12da58c90701","system_id":"levelo_inurba_marseille","lat":43.27812,"lon":5.40713,"is_reserved":false,"is_disabled":false,"rental_uris":{"android":"levelo://app?vid=34686373-e89c-419a-b761-12da58c90701","ios":"levelo://app?vid=34686373-e89c-419a-b761-12da58c90701"},"vehicle_type_id":"4","last_reported":1743019870,"current_range_meters":8400,"station_id":"ce4bhnh2rcd13ifvqgtg","pricing_plan_id":"cebpf4jnsgd1na2vs0mg"},{"bike_id":"41e5f267-ce12-4d49-85f8-a37604430f8e","system_id":"levelo_inurba_marseille","lat":43.22939,"lon":5.35399,"is_reserved":false,"is_disabled":false,"rental_uris":{"android":"levelo://app?vid=41e5f267-ce12-4d49-85f8-a37604430f8e","ios":"levelo://app?vid=41e5f267-ce12-4d49-85f8-a37604430f8e"},"vehicle_type_id":"4","last_reported":1743019870,"current_range_meters":8400,"station_id":"cpo3532slgdg3j2ikp40","pricing_plan_id":"cebpf4jnsgd1na2vs0mg"},{"bike_id":"94506505-2fcc-41e6-9625-b8826d1b4d3e","system_id":"levelo_inurba_marseille","lat":43.27833,"lon":5.40657,"is_reserved":false,"is_disabled":false,"rental_uris":{"android":"levelo://app?vid=94506505-2fcc-41e6-9625-b8826d1b4d3e","ios":"levelo://app?vid=94506505-2fcc-41e6-9625-b8826d1b4d3e"},"vehicle_type_id":"4","last_reported":1743019870,"current_range_meters":8800,"station_id":"","pricing_plan_id":"cebpf4jnsgd1na2vs0mg"},{"bike_id":"01cbffb0-3fb0-4769-96f8-4c2dd20b8277","system_id":"levelo_inurba_marseille","lat":43.28546,"lon":5.4058,"is_reserved":false,"is_disabled":false,"rental_uris":{"android":"levelo://app?vid=01cbffb0-3fb0-4769-96f8-4c2dd20b8277","ios":"levelo://app?vid=01cbffb0-3fb0-4769-96f8-4c2dd20b8277"},"vehicle_type_id":"4","last_reported":1743019870,"current_range_meters":8800,"station_id":"","pricing_plan_id":"cebpf4jnsgd1na2vs0mg"},{"bike_id":"974f5876-effd-44d0-911c-76ea7a107a8c","system_id":"levelo_inurba_marseille","lat":43.33358,"lon":5.35981,"is_reserved":false,"is_disabled":false,"rental_uris":{"android":"levelo://app?vid=974f5876-effd-44d0-911c-76ea7a107a8c","ios":"levelo://app?vid=974f5876-effd-44d0-911c-76ea7a107a8c"},"vehicle_type_id":"4","last_reported":1743019870,"current_range_meters":8800,"station_id":"","pricing_plan_id":"cebpf4jnsgd1na2vs0mg"},{"bike_id":"f7795d03-1d4c-4e0f-b5b5-654e498e3de2","system_id":"levelo_inurba_marseille","lat":43.30603,"lon":5.37234,"is_reserved":false,"is_disabled":false,"rental_uris":{"android":"levelo://app?vid=f7795d03-1d4c-4e0f-b5b5-654e498e3de2","ios":"levelo://app?vid=f7795d03-1d4c-4e0f-b5b5-654e498e3de2"},"vehicle_type_id":"4","last_reported":1743019870,"current_range_meters":8800,"station_id":"ce4bgqh2rcd13ifvqc4g","pricing_plan_id":"cebpf4jnsgd1na2vs0mg"},{"bike_id":"d471d60b-e3c7-4c05-9d18-63914e120d36","system_id":"levelo_inurba_marseille","lat":43.30436,"lon":5.39754,"is_reserved":false,"is_disabled":false,"rental_uris":{"android":"levelo://app?vid=d471d60b-e3c7-4c05-9d18-63914e120d36","ios":"levelo://app?vid=d471d60b-e3c7-4c05-9d18-63914e120d36"},"vehicle_type_id":"4","last_reported":1743019870,"current_range_meters":8800,"station_id":"ce4bh092rcd13ifvqd20","pricing_plan_id":"cebpf4jnsgd1na2vs0mg"},{"bike_id":"a01a2189-8b32-4968-87fa-f3888542280a","system_id":"levelo_inurba_marseille","lat":43.28699,"lon":5.37405,"is_reserved":false,"is_disabled":false,"rental_uris":{"android":"levelo://app?vid=a01a2189-8b32-4968-87fa-f3888542280a","ios":"levelo://app?vid=a01a2189-8b32-4968-87fa-f3888542280a"},"vehicle_type_id":"4","last_reported":1743019870,"current_range_meters":8800,"station_id":"ce4bh3p2rcd13ifvqdq0","pricing_plan_id":"cebpf4jnsgd1na2vs0mg"},{"bike_id":"80222673-fbc9-4811-bc3b-995746ca5c08","system_id":"levelo_inurba_marseille","lat":43.27806,"lon":5.40728,"is_reserved":false,"is_disabled":false,"rental_uris":{"android":"levelo://app?vid=80222673-fbc9-4811-bc3b-995746ca5c08","ios":"levelo://app?vid=80222673-fbc9-4811-bc3b-995746ca5c08"},"vehicle_type_id":"4","last_reported":1743019870,"current_range_meters":8800,"station_id":"ce4bhnh2rcd13ifvqgtg","pricing_plan_id":"cebpf4jnsgd1na2vs0mg"},{"bike_id":"30e92b79-8ced-401f-bac3-1067dc00dffa","system_id":"levelo_inurba_marseille","lat":43.27808,"lon":5.40724,"is_reserved":false,"is_disabled":false,"rental_uris":{"android":"levelo://app?vid=30e92b79-8ced-401f-bac3-1067dc00dffa","ios":"levelo://app?vid=30e92b79-8ced-401f-bac3-1067dc00dffa"},"vehicle_type_id":"4","last_reported":1743019870,"current_range_meters":8800,"station_id":"ce4bhnh2rcd13ifvqgtg","pricing_plan_id":"cebpf4jnsgd1na2vs0mg"},{"bike_id":"42b0ca94-a44e-49c3-85f7-0688df7be4e4","system_id":"levelo_inurba_marseille","lat":43.31764,"lon":5.39017,"is_reserved":false,"is_disabled":false,"rental_uris":{"android":"levelo://app?vid=42b0ca94-a44e-49c3-85f7-0688df7be4e4","ios":"levelo://app?vid=42b0ca94-a44e-49c3-85f7-0688df7be4e4"},"vehicle_type_id":"4","last_reported":1743019870,"current_range_meters":8800,"station_id":"ce4bhqp2rcd13ifvqhng","pricing_plan_id":"cebpf4jnsgd1na2vs0mg"},{"bike_id":"8a9602e7-e6f2-4dac-845f-cea224e49dd5","system_id":"levelo_inurba_marseille","lat":43.23063,"lon":5.35492,"is_reserved":false,"is_disabled":false,"rental_uris":{"android":"levelo://app?vid=8a9602e7-e6f2-4dac-845f-cea224e49dd5","ios":"levelo://app?vid=8a9602e7-e6f2-4dac-845f-cea224e49dd5"},"vehicle_type_id":"4","last_reported":1743019870,"current_range_meters":8800,"station_id":"cpo3342slgdg3j2ifvpg","pricing_plan_id":"cebpf4jnsgd1na2vs0mg"},{"bike_id":"5f18c038-0d3d-41e5-b03a-cf1226490d1b","system_id":"levelo_inurba_marseille","lat":43.29423,"lon":5.38648,"is_reserved":false,"is_disabled":false,"rental_uris":{"android":"levelo://app?vid=5f18c038-0d3d-41e5-b03a-cf1226490d1b","ios":"levelo://app?vid=5f18c038-0d3d-41e5-b03a-cf1226490d1b"},"vehicle_type_id":"4","last_reported":1743019870,"current_range_meters":9200,"station_id":"ce4bh2h2rcd13ifvqdh0","pricing_plan_id":"cebpf4jnsgd1na2vs0mg"},{"bike_id":"fc239ae3-8909-4224-b205-b6e4298f0342","system_id":"levelo_inurba_marseille","lat":43.2953,"lon":5.39029,"is_reserved":false,"is_disabled":false,"rental_uris":{"android":"levelo://app?vid=fc239ae3-8909-4224-b205-b6e4298f0342","ios":"levelo://app?vid=fc239ae3-8909-4224-b205-b6e4298f0342"},"vehicle_type_id":"4","last_reported":1743019870,"current_range_meters":9200,"station_id":"ce4bh3p2rcd13ifvqdp0","pricing_plan_id":"cebpf4jnsgd1na2vs0mg"},{"bike_id":"5eaa1c72-3281-4981-beb8-111db4db70f3","system_id":"levelo_inurba_marseille","lat":43.292686,"lon":5.384564,"is_reserved":false,"is_disabled":false,"rental_uris":{"android":"levelo://app?vid=5eaa1c72-3281-4981-beb8-111db4db70f3","ios":"levelo://app?vid=5eaa1c72-3281-4981-beb8-111db4db70f3"},"vehicle_type_id":"4","last_reported":1743019870,"current_range_meters":9200,"station_id":"ce4bh692rcd13ifvqea0","pricing_plan_id":"cebpf4jnsgd1na2vs0mg"},{"bike_id":"c80aa782-5a1c-49dc-82a9-5a6684179a01","system_id":"levelo_inurba_marseille","lat":43.2811,"lon":5.37846,"is_reserved":false,"is_disabled":false,"rental_uris":{"android":"levelo://app?vid=c80aa782-5a1c-49dc-82a9-5a6684179a01","ios":"levelo://app?vid=c80aa782-5a1c-49dc-82a9-5a6684179a01"},"vehicle_type_id":"4","last_reported":1743019870,"current_range_meters":9200,"station_id":"ce4bha12rcd13ifvqee0","pricing_plan_id":"cebpf4jnsgd1na2vs0mg"},{"bike_id":"a72ddd6c-98c0-46ce-a18d-5861fba07292","system_id":"levelo_inurba_marseille","lat":43.28018,"lon":5.36952,"is_reserved":false,"is_disabled":false,"rental_uris":{"android":"levelo://app?vid=a72ddd6c-98c0-46ce-a18d-5861fba07292","ios":"levelo://app?vid=a72ddd6c-98c0-46ce-a18d-5861fba07292"},"vehicle_type_id":"4","last_reported":1743019870,"current_range_meters":9200,"station_id":"ce4bha12rcd13ifvqef0","pricing_plan_id":"cebpf4jnsgd1na2vs0mg"},{"bike_id":"0a6002c5-2e94-419c-9846-07e4397e2530","system_id":"levelo_inurba_marseille","lat":43.25819,"lon":5.39435,"is_reserved":false,"is_disabled":false,"rental_uris":{"android":"levelo://app?vid=0a6002c5-2e94-419c-9846-07e4397e2530","ios":"levelo://app?vid=0a6002c5-2e94-419c-9846-07e4397e2530"},"vehicle_type_id":"4","last_reported":1743019870,"current_range_meters":9200,"station_id":"ce4bhip2rcd13ifvqft0","pricing_plan_id":"cebpf4jnsgd1na2vs0mg"},{"bike_id":"da155e19-5157-4f97-8747-0c15b0609608","system_id":"levelo_inurba_marseille","lat":43.25726,"lon":5.41121,"is_reserved":false,"is_disabled":false,"rental_uris":{"android":"levelo://app?vid=da155e19-5157-4f97-8747-0c15b0609608","ios":"levelo://app?vid=da155e19-5157-4f97-8747-0c15b0609608"},"vehicle_type_id":"4","last_reported":1743019870,"current_range_meters":9200,"station_id":"ce4bhkp2rcd13ifvqgd0","pricing_plan_id":"cebpf4jnsgd1na2vs0mg"},{"bike_id":"983b7281-f42c-45fd-af97-37be8dfecc62","system_id":"levelo_inurba_marseille","lat":43.2782,"lon":5.40729,"is_reserved":false,"is_disabled":false,"rental_uris":{"android":"levelo://app?vid=983b7281-f42c-45fd-af97-37be8dfecc62","ios":"levelo://app?vid=983b7281-f42c-45fd-af97-37be8dfecc62"},"vehicle_type_id":"4","last_reported":1743019870,"current_range_meters":9200,"station_id":"ce4bhnh2rcd13ifvqgtg","pricing_plan_id":"cebpf4jnsgd1na2vs0mg"},{"bike_id":"fa6aeafd-60f6-463d-a63b-28d62c1d9ce3","system_id":"levelo_inurba_marseille","lat":43.27815,"lon":5.40702,"is_reserved":false,"is_disabled":false,"rental_uris":{"android":"levelo://app?vid=fa6aeafd-60f6-463d-a63b-28d62c1d9ce3","ios":"levelo://app?vid=fa6aeafd-60f6-463d-a63b-28d62c1d9ce3"},"vehicle_type_id":"4","last_reported":1743019870,"current_range_meters":9200,"station_id":"ce4bhnh2rcd13ifvqgtg","pricing_plan_id":"cebpf4jnsgd1na2vs0mg"},{"bike_id":"84a7a785-5392-42bc-8088-fb903bcc7f5c","system_id":"levelo_inurba_marseille","lat":43.23058,"lon":5.355,"is_reserved":false,"is_disabled":false,"rental_uris":{"android":"levelo://app?vid=84a7a785-5392-42bc-8088-fb903bcc7f5c","ios":"levelo://app?vid=84a7a785-5392-42bc-8088-fb903bcc7f5c"},"vehicle_type_id":"4","last_reported":1743019870,"current_range_meters":9200,"station_id":"cpo3342slgdg3j2ifvpg","pricing_plan_id":"cebpf4jnsgd1na2vs0mg"},{"bike_id":"d45a2f6c-957b-46cd-bd89-ee8e58d1536e","system_id":"levelo_inurba_marseille","lat":43.27731,"lon":5.40784,"is_reserved":false,"is_disabled":false,"rental_uris":{"android":"levelo://app?vid=d45a2f6c-957b-46cd-bd89-ee8e58d1536e","ios":"levelo://app?vid=d45a2f6c-957b-46cd-bd89-ee8e58d1536e"},"vehicle_type_id":"4","last_reported":1743019870,"current_range_meters":9600,"station_id":"","pricing_plan_id":"cebpf4jnsgd1na2vs0mg"},{"bike_id":"3ebcb0b0-3bd6-455e-9b12-2091542e2b7d","system_id":"levelo_inurba_marseille","lat":43.31449,"lon":5.37386,"is_reserved":false,"is_disabled":false,"rental_uris":{"android":"levelo://app?vid=3ebcb0b0-3bd6-455e-9b12-2091542e2b7d","ios":"levelo://app?vid=3ebcb0b0-3bd6-455e-9b12-2091542e2b7d"},"vehicle_type_id":"4","last_reported":1743019870,"current_range_meters":9600,"station_id":"","pricing_plan_id":"cebpf4jnsgd1na2vs0mg"},{"bike_id":"dbe6eb89-5298-4f04-96c2-8a6bec8f0c17","system_id":"levelo_inurba_marseille","lat":43.29891,"lon":5.39714,"is_reserved":false,"is_disabled":false,"rental_uris":{"android":"levelo://app?vid=dbe6eb89-5298-4f04-96c2-8a6bec8f0c17","ios":"levelo://app?vid=dbe6eb89-5298-4f04-96c2-8a6bec8f0c17"},"vehicle_type_id":"4","last_reported":1743019870,"current_range_meters":9600,"station_id":"ce4bh0h2rcd13ifvqd50","pricing_plan_id":"cebpf4jnsgd1na2vs0mg"},{"bike_id":"ba4fd03a-8cdc-4f21-a659-c30c90dd4945","system_id":"levelo_inurba_marseille","lat":43.29436,"lon":5.38604,"is_reserved":false,"is_disabled":false,"rental_uris":{"android":"levelo://app?vid=ba4fd03a-8cdc-4f21-a659-c30c90dd4945","ios":"levelo://app?vid=ba4fd03a-8cdc-4f21-a659-c30c90dd4945"},"vehicle_type_id":"4","last_reported":1743019870,"current_range_meters":9600,"station_id":"ce4bh2h2rcd13ifvqdh0","pricing_plan_id":"cebpf4jnsgd1na2vs0mg"},{"bike_id":"7a38a239-0e01-40b9-95a2-ba6a7fbd0991","system_id":"levelo_inurba_marseille","lat":43.284815,"lon":5.384111,"is_reserved":false,"is_disabled":false,"rental_uris":{"android":"levelo://app?vid=7a38a239-0e01-40b9-95a2-ba6a7fbd0991","ios":"levelo://app?vid=7a38a239-0e01-40b9-95a2-ba6a7fbd0991"},"vehicle_type_id":"4","last_reported":1743019870,"current_range_meters":9600,"station_id":"ce4bh512rcd13ifvqe3g","pricing_plan_id":"cebpf4jnsgd1na2vs0mg"},{"bike_id":"c6668cfc-d015-448a-86e0-3e4d23467d58","system_id":"levelo_inurba_marseille","lat":43.284776,"lon":5.384215,"is_reserved":false,"is_disabled":false,"rental_uris":{"android":"levelo://app?vid=c6668cfc-d015-448a-86e0-3e4d23467d58","ios":"levelo://app?vid=c6668cfc-d015-448a-86e0-3e4d23467d58"},"vehicle_type_id":"4","last_reported":1743019870,"current_range_meters":9600,"station_id":"ce4bh512rcd13ifvqe3g","pricing_plan_id":"cebpf4jnsgd1na2vs0mg"},{"bike_id":"75d929dd-8790-4bc4-8f76-cddf94e4ef97","system_id":"levelo_inurba_marseille","lat":43.2927,"lon":5.384337,"is_reserved":false,"is_disabled":false,"rental_uris":{"android":"levelo://app?vid=75d929dd-8790-4bc4-8f76-cddf94e4ef97","ios":"levelo://app?vid=75d929dd-8790-4bc4-8f76-cddf94e4ef97"},"vehicle_type_id":"4","last_reported":1743019870,"current_range_meters":9600,"station_id":"ce4bh692rcd13ifvqea0","pricing_plan_id":"cebpf4jnsgd1na2vs0mg"},{"bike_id":"22212681-9808-446a-addb-6cd089c9507f","system_id":"levelo_inurba_marseille","lat":43.28677,"lon":5.36354,"is_reserved":false,"is_disabled":false,"rental_uris":{"android":"levelo://app?vid=22212681-9808-446a-addb-6cd089c9507f","ios":"levelo://app?vid=22212681-9808-446a-addb-6cd089c9507f"},"vehicle_type_id":"4","last_reported":1743019870,"current_range_meters":9600,"station_id":"ce4bhah2rcd13ifvqej0","pricing_plan_id":"cebpf4jnsgd1na2vs0mg"},{"bike_id":"44b3becc-57ea-43ab-89af-8793996f6db6","system_id":"levelo_inurba_marseille","lat":43.2979,"lon":5.39335,"is_reserved":false,"is_disabled":false,"rental_uris":{"android":"levelo://app?vid=44b3becc-57ea-43ab-89af-8793996f6db6","ios":"levelo://app?vid=44b3becc-57ea-43ab-89af-8793996f6db6"},"vehicle_type_id":"4","last_reported":1743019870,"current_range_meters":9600,"station_id":"chh1huq6cuj3fo74tm60","pricing_plan_id":"cebpf4jnsgd1na2vs0mg"},{"bike_id":"ed10d380-daff-4f6d-9ab4-e28915fa2c27","system_id":"levelo_inurba_marseille","lat":43.295258,"lon":5.38541,"is_reserved":false,"is_disabled":false,"rental_uris":{"android":"levelo://app?vid=ed10d380-daff-4f6d-9ab4-e28915fa2c27","ios":"levelo://app?vid=ed10d380-daff-4f6d-9ab4-e28915fa2c27"},"vehicle_type_id":"4","last_reported":1743019870,"current_range_meters":10000,"station_id":"ce4bghh2rcd13ifvqb60","pricing_plan_id":"cebpf4jnsgd1na2vs0mg"},{"bike_id":"bcc33c46-2f2e-4bea-9368-e16628700258","system_id":"levelo_inurba_marseille","lat":43.29573,"lon":5.38165,"is_reserved":false,"is_disabled":false,"rental_uris":{"android":"levelo://app?vid=bcc33c46-2f2e-4bea-9368-e16628700258","ios":"levelo://app?vid=bcc33c46-2f2e-4bea-9368-e16628700258"},"vehicle_type_id":"4","last_reported":1743019870,"current_range_meters":10000,"station_id":"ce4bgl12rcd13ifvqbo0","pricing_plan_id":"cebpf4jnsgd1na2vs0mg"},{"bike_id":"caea8f0b-99cc-4db4-8e01-49a1994e23c1","system_id":"levelo_inurba_marseille","lat":43.30807,"lon":5.381562,"is_reserved":false,"is_disabled":false,"rental_uris":{"android":"levelo://app?vid=caea8f0b-99cc-4db4-8e01-49a1994e23c1","ios":"levelo://app?vid=caea8f0b-99cc-4db4-8e01-49a1994e23c1"},"vehicle_type_id":"4","last_reported":1743019870,"current_range_meters":10000,"station_id":"ce4bgt12rcd13ifvqce0","pricing_plan_id":"cebpf4jnsgd1na2vs0mg"},{"bike_id":"dd6c817f-9dd1-461c-8966-5dc19d9e6d2c","system_id":"levelo_inurba_marseille","lat":43.29423,"lon":5.386255,"is_reserved":false,"is_disabled":false,"rental_uris":{"android":"levelo://app?vid=dd6c817f-9dd1-461c-8966-5dc19d9e6d2c","ios":"levelo://app?vid=dd6c817f-9dd1-461c-8966-5dc19d9e6d2c"},"vehicle_type_id":"4","last_reported":1743019870,"current_range_meters":10000,"station_id":"ce4bh2h2rcd13ifvqdh0","pricing_plan_id":"cebpf4jnsgd1na2vs0mg"},{"bike_id":"4c92415f-a819-4ef2-818f-79c984694101","system_id":"levelo_inurba_marseille","lat":43.2953,"lon":5.39033,"is_reserved":false,"is_disabled":false,"rental_uris":{"android":"levelo://app?vid=4c92415f-a819-4ef2-818f-79c984694101","ios":"levelo://app?vid=4c92415f-a819-4ef2-818f-79c984694101"},"vehicle_type_id":"4","last_reported":1743019870,"current_range_meters":10000,"station_id":"ce4bh3p2rcd13ifvqdp0","pricing_plan_id":"cebpf4jnsgd1na2vs0mg"},{"bike_id":"b9ab712c-57dc-45bf-b4d6-b9ecdf6edd13","system_id":"levelo_inurba_marseille","lat":43.289324,"lon":5.384071,"is_reserved":false,"is_disabled":false,"rental_uris":{"android":"levelo://app?vid=b9ab712c-57dc-45bf-b4d6-b9ecdf6edd13","ios":"levelo://app?vid=b9ab712c-57dc-45bf-b4d6-b9ecdf6edd13"},"vehicle_type_id":"4","last_reported":1743019870,"current_range_meters":10000,"station_id":"ce4bh612rcd13ifvqe6g","pricing_plan_id":"cebpf4jnsgd1na2vs0mg"},{"bike_id":"8776e27b-0f90-41ea-ba59-3697a608b87b","system_id":"levelo_inurba_marseille","lat":43.292647,"lon":5.384476,"is_reserved":false,"is_disabled":false,"rental_uris":{"android":"levelo://app?vid=8776e27b-0f90-41ea-ba59-3697a608b87b","ios":"levelo://app?vid=8776e27b-0f90-41ea-ba59-3697a608b87b"},"vehicle_type_id":"4","last_reported":1743019870,"current_range_meters":10000,"station_id":"ce4bh692rcd13ifvqea0","pricing_plan_id":"cebpf4jnsgd1na2vs0mg"},{"bike_id":"6cbc70a1-50bf-4d04-a061-6364758397aa","system_id":"levelo_inurba_marseille","lat":43.292653,"lon":5.384347,"is_reserved":false,"is_disabled":false,"rental_uris":{"android":"levelo://app?vid=6cbc70a1-50bf-4d04-a061-6364758397aa","ios":"levelo://app?vid=6cbc70a1-50bf-4d04-a061-6364758397aa"},"vehicle_type_id":"4","last_reported":1743019870,"current_range_meters":10000,"station_id":"ce4bh692rcd13ifvqea0","pricing_plan_id":"cebpf4jnsgd1na2vs0mg"},{"bike_id":"1f832459-222b-42fa-b88e-b9eccf46e63a","system_id":"levelo_inurba_marseille","lat":43.28853,"lon":5.358585,"is_reserved":false,"is_disabled":false,"rental_uris":{"android":"levelo://app?vid=1f832459-222b-42fa-b88e-b9eccf46e63a","ios":"levelo://app?vid=1f832459-222b-42fa-b88e-b9eccf46e63a"},"vehicle_type_id":"4","last_reported":1743019870,"current_range_meters":10000,"station_id":"ce4bhb12rcd13ifvqem0","pricing_plan_id":"cebpf4jnsgd1na2vs0mg"},{"bike_id":"b6980b49-301b-45d5-9400-27ace4828d1c","system_id":"levelo_inurba_marseille","lat":43.23143,"lon":5.43712,"is_reserved":false,"is_disabled":false,"rental_uris":{"android":"levelo://app?vid=b6980b49-301b-45d5-9400-27ace4828d1c","ios":"levelo://app?vid=b6980b49-301b-45d5-9400-27ace4828d1c"},"vehicle_type_id":"4","last_reported":1743019870,"current_range_meters":10000,"station_id":"ce4bhmp2rcd13ifvqgog","pricing_plan_id":"cebpf4jnsgd1na2vs0mg"},{"bike_id":"67d3c8c2-e873-44b6-a622-5f7452e3a364","system_id":"levelo_inurba_marseille","lat":43.27816,"lon":5.40721,"is_reserved":false,"is_disabled":false,"rental_uris":{"android":"levelo://app?vid=67d3c8c2-e873-44b6-a622-5f7452e3a364","ios":"levelo://app?vid=67d3c8c2-e873-44b6-a622-5f7452e3a364"},"vehicle_type_id":"4","last_reported":1743019870,"current_range_meters":10000,"station_id":"ce4bhnh2rcd13ifvqgtg","pricing_plan_id":"cebpf4jnsgd1na2vs0mg"},{"bike_id":"32a25e14-2de5-4f63-80c6-d4e106bf5145","system_id":"levelo_inurba_marseille","lat":43.27816,"lon":5.40721,"is_reserved":false,"is_disabled":false,"rental_uris":{"android":"levelo://app?vid=32a25e14-2de5-4f63-80c6-d4e106bf5145","ios":"levelo://app?vid=32a25e14-2de5-4f63-80c6-d4e106bf5145"},"vehicle_type_id":"4","last_reported":1743019870,"current_range_meters":10000,"station_id":"ce4bhnh2rcd13ifvqgtg","pricing_plan_id":"cebpf4jnsgd1na2vs0mg"},{"bike_id":"2fe546b8-fa69-42c4-ae8f-4b3f4b863d6b","system_id":"levelo_inurba_marseille","lat":43.28144,"lon":5.42645,"is_reserved":false,"is_disabled":false,"rental_uris":{"android":"levelo://app?vid=2fe546b8-fa69-42c4-ae8f-4b3f4b863d6b","ios":"levelo://app?vid=2fe546b8-fa69-42c4-ae8f-4b3f4b863d6b"},"vehicle_type_id":"4","last_reported":1743019870,"current_range_meters":10000,"station_id":"ce4bhnh2rcd13ifvqgug","pricing_plan_id":"cebpf4jnsgd1na2vs0mg"},{"bike_id":"aa3f3be9-0667-4ae5-89a7-efe6b1708560","system_id":"levelo_inurba_marseille","lat":43.28152,"lon":5.42653,"is_reserved":false,"is_disabled":false,"rental_uris":{"android":"levelo://app?vid=aa3f3be9-0667-4ae5-89a7-efe6b1708560","ios":"levelo://app?vid=aa3f3be9-0667-4ae5-89a7-efe6b1708560"},"vehicle_type_id":"4","last_reported":1743019870,"current_range_meters":10000,"station_id":"ce4bhnh2rcd13ifvqgug","pricing_plan_id":"cebpf4jnsgd1na2vs0mg"},{"bike_id":"c8985085-af47-4297-8dd0-86223825d5be","system_id":"levelo_inurba_marseille","lat":43.268053,"lon":5.402736,"is_reserved":false,"is_disabled":false,"rental_uris":{"android":"levelo://app?vid=c8985085-af47-4297-8dd0-86223825d5be","ios":"levelo://app?vid=c8985085-af47-4297-8dd0-86223825d5be"},"vehicle_type_id":"4","last_reported":1743019870,"current_range_meters":10000,"station_id":"ce501612rcd8frsf0b60","pricing_plan_id":"cebpf4jnsgd1na2vs0mg"},{"bike_id":"b3dd1b67-e6bb-4570-ade6-45a9f3b0a069","system_id":"levelo_inurba_marseille","lat":43.29298,"lon":5.37176,"is_reserved":false,"is_disabled":false,"rental_uris":{"android":"levelo://app?vid=b3dd1b67-e6bb-4570-ade6-45a9f3b0a069","ios":"levelo://app?vid=b3dd1b67-e6bb-4570-ade6-45a9f3b0a069"},"vehicle_type_id":"4","last_reported":1743019870,"current_range_meters":10800,"station_id":"ce4bgh92rcd13ifvqb40","pricing_plan_id":"cebpf4jnsgd1na2vs0mg"},{"bike_id":"89a79d1f-6daf-4f84-9550-8f9747028198","system_id":"levelo_inurba_marseille","lat":43.298358,"lon":5.362663,"is_reserved":false,"is_disabled":false,"rental_uris":{"android":"levelo://app?vid=89a79d1f-6daf-4f84-9550-8f9747028198","ios":"levelo://app?vid=89a79d1f-6daf-4f84-9550-8f9747028198"},"vehicle_type_id":"4","last_reported":1743019870,"current_range_meters":10800,"station_id":"ce4bgpp2rcd13ifvqc3g","pricing_plan_id":"cebpf4jnsgd1na2vs0mg"},{"bike_id":"c3aff0f9-667c-4f65-b858-df9dcf6bc61c","system_id":"levelo_inurba_marseille","lat":43.30515,"lon":5.36542,"is_reserved":false,"is_disabled":false,"rental_uris":{"android":"levelo://app?vid=c3aff0f9-667c-4f65-b858-df9dcf6bc61c","ios":"levelo://app?vid=c3aff0f9-667c-4f65-b858-df9dcf6bc61c"},"vehicle_type_id":"4","last_reported":1743019870,"current_range_meters":10800,"station_id":"ce4bgs12rcd13ifvqcag","pricing_plan_id":"cebpf4jnsgd1na2vs0mg"},{"bike_id":"7a2424ec-cc90-49b7-af08-b008e7091504","system_id":"levelo_inurba_marseille","lat":43.3081,"lon":5.3816,"is_reserved":false,"is_disabled":false,"rental_uris":{"android":"levelo://app?vid=7a2424ec-cc90-49b7-af08-b008e7091504","ios":"levelo://app?vid=7a2424ec-cc90-49b7-af08-b008e7091504"},"vehicle_type_id":"4","last_reported":1743019870,"current_range_meters":10800,"station_id":"ce4bgt12rcd13ifvqce0","pricing_plan_id":"cebpf4jnsgd1na2vs0mg"},{"bike_id":"92740cd8-0c17-439b-aa2a-7afa649be02d","system_id":"levelo_inurba_marseille","lat":43.29539,"lon":5.3904,"is_reserved":false,"is_disabled":false,"rental_uris":{"android":"levelo://app?vid=92740cd8-0c17-439b-aa2a-7afa649be02d","ios":"levelo://app?vid=92740cd8-0c17-439b-aa2a-7afa649be02d"},"vehicle_type_id":"4","last_reported":1743019870,"current_range_meters":10800,"station_id":"ce4bh3p2rcd13ifvqdp0","pricing_plan_id":"cebpf4jnsgd1na2vs0mg"},{"bike_id":"68664748-53bb-4ce6-b583-334399786fed","system_id":"levelo_inurba_marseille","lat":43.27992,"lon":5.40028,"is_reserved":false,"is_disabled":false,"rental_uris":{"android":"levelo://app?vid=68664748-53bb-4ce6-b583-334399786fed","ios":"levelo://app?vid=68664748-53bb-4ce6-b583-334399786fed"},"vehicle_type_id":"4","last_reported":1743019870,"current_range_meters":10800,"station_id":"ce4bho92rcd13ifvqh4g","pricing_plan_id":"cebpf4jnsgd1na2vs0mg"},{"bike_id":"585c19d1-9fab-41e3-a4b5-c312cbd30ffe","system_id":"levelo_inurba_marseille","lat":43.28002,"lon":5.40017,"is_reserved":false,"is_disabled":false,"rental_uris":{"android":"levelo://app?vid=585c19d1-9fab-41e3-a4b5-c312cbd30ffe","ios":"levelo://app?vid=585c19d1-9fab-41e3-a4b5-c312cbd30ffe"},"vehicle_type_id":"4","last_reported":1743019870,"current_range_meters":10800,"station_id":"ce4bho92rcd13ifvqh4g","pricing_plan_id":"cebpf4jnsgd1na2vs0mg"},{"bike_id":"2623a753-dcde-4ffa-9bf1-3275e6037e7a","system_id":"levelo_inurba_marseille","lat":43.32464,"lon":5.36557,"is_reserved":false,"is_disabled":false,"rental_uris":{"android":"levelo://app?vid=2623a753-dcde-4ffa-9bf1-3275e6037e7a","ios":"levelo://app?vid=2623a753-dcde-4ffa-9bf1-3275e6037e7a"},"vehicle_type_id":"4","last_reported":1743019870,"current_range_meters":10800,"station_id":"ce4bhs12rcd13ifvqhvg","pricing_plan_id":"cebpf4jnsgd1na2vs0mg"},{"bike_id":"85d0fa0c-b5b9-41cd-ba43-951901672dab","system_id":"levelo_inurba_marseille","lat":43.25616,"lon":5.38977,"is_reserved":false,"is_disabled":false,"rental_uris":{"android":"levelo://app?vid=85d0fa0c-b5b9-41cd-ba43-951901672dab","ios":"levelo://app?vid=85d0fa0c-b5b9-41cd-ba43-951901672dab"},"vehicle_type_id":"4","last_reported":1743019870,"current_range_meters":11200,"station_id":"","pricing_plan_id":"cebpf4jnsgd1na2vs0mg"},{"bike_id":"6ab6b099-574d-454a-84a7-96bb5f8025c5","system_id":"levelo_inurba_marseille","lat":43.3117,"lon":5.387132,"is_reserved":false,"is_disabled":false,"rental_uris":{"android":"levelo://app?vid=6ab6b099-574d-454a-84a7-96bb5f8025c5","ios":"levelo://app?vid=6ab6b099-574d-454a-84a7-96bb5f8025c5"},"vehicle_type_id":"4","last_reported":1743019870,"current_range_meters":11200,"station_id":"ce4bgv12rcd13ifvqcp0","pricing_plan_id":"cebpf4jnsgd1na2vs0mg"},{"bike_id":"c8f5249a-eba4-481e-aa5d-781550223a6d","system_id":"levelo_inurba_marseille","lat":43.31754,"lon":5.39022,"is_reserved":false,"is_disabled":false,"rental_uris":{"android":"levelo://app?vid=c8f5249a-eba4-481e-aa5d-781550223a6d","ios":"levelo://app?vid=c8f5249a-eba4-481e-aa5d-781550223a6d"},"vehicle_type_id":"4","last_reported":1743019870,"current_range_meters":11200,"station_id":"ce4bhqp2rcd13ifvqhng","pricing_plan_id":"cebpf4jnsgd1na2vs0mg"},{"bike_id":"4f34d3f6-8d03-4a17-8088-4f84a5a8c408","system_id":"levelo_inurba_marseille","lat":43.30435,"lon":5.38885,"is_reserved":false,"is_disabled":false,"rental_uris":{"android":"levelo://app?vid=4f34d3f6-8d03-4a17-8088-4f84a5a8c408","ios":"levelo://app?vid=4f34d3f6-8d03-4a17-8088-4f84a5a8c408"},"vehicle_type_id":"4","last_reported":1743019870,"current_range_meters":11600,"station_id":"ce4bgk12rcd13ifvqbi0","pricing_plan_id":"cebpf4jnsgd1na2vs0mg"},{"bike_id":"34945b58-cca9-4c5e-b6a6-bcb4dde68a2e","system_id":"levelo_inurba_marseille","lat":43.26567,"lon":5.39026,"is_reserved":false,"is_disabled":false,"rental_uris":{"android":"levelo://app?vid=34945b58-cca9-4c5e-b6a6-bcb4dde68a2e","ios":"levelo://app?vid=34945b58-cca9-4c5e-b6a6-bcb4dde68a2e"},"vehicle_type_id":"4","last_reported":1743019870,"current_range_meters":11600,"station_id":"ce4bhap2rcd13ifvqek0","pricing_plan_id":"cebpf4jnsgd1na2vs0mg"},{"bike_id":"aa0fbdd1-dcac-4943-801e-2ad0aec9c72f","system_id":"levelo_inurba_marseille","lat":43.2756,"lon":5.38426,"is_reserved":false,"is_disabled":false,"rental_uris":{"android":"levelo://app?vid=aa0fbdd1-dcac-4943-801e-2ad0aec9c72f","ios":"levelo://app?vid=aa0fbdd1-dcac-4943-801e-2ad0aec9c72f"},"vehicle_type_id":"4","last_reported":1743019870,"current_range_meters":11600,"station_id":"ce4bhh92rcd13ifvqfi0","pricing_plan_id":"cebpf4jnsgd1na2vs0mg"},{"bike_id":"2f69c259-678f-4dc6-9847-fd43204ee42a","system_id":"levelo_inurba_marseille","lat":43.25088,"lon":5.39514,"is_reserved":false,"is_disabled":false,"rental_uris":{"android":"levelo://app?vid=2f69c259-678f-4dc6-9847-fd43204ee42a","ios":"levelo://app?vid=2f69c259-678f-4dc6-9847-fd43204ee42a"},"vehicle_type_id":"4","last_reported":1743019870,"current_range_meters":11600,"station_id":"ce4bhm12rcd13ifvqgkg","pricing_plan_id":"cebpf4jnsgd1na2vs0mg"},{"bike_id":"72ff2873-eb3d-4526-97dc-a6ed38586447","system_id":"levelo_inurba_marseille","lat":43.27826,"lon":5.40716,"is_reserved":false,"is_disabled":false,"rental_uris":{"android":"levelo://app?vid=72ff2873-eb3d-4526-97dc-a6ed38586447","ios":"levelo://app?vid=72ff2873-eb3d-4526-97dc-a6ed38586447"},"vehicle_type_id":"4","last_reported":1743019870,"current_range_meters":11600,"station_id":"ce4bhnh2rcd13ifvqgtg","pricing_plan_id":"cebpf4jnsgd1na2vs0mg"},{"bike_id":"3fce88a9-e982-41c6-b1c3-afb5c6995d96","system_id":"levelo_inurba_marseille","lat":43.27814,"lon":5.40715,"is_reserved":false,"is_disabled":false,"rental_uris":{"android":"levelo://app?vid=3fce88a9-e982-41c6-b1c3-afb5c6995d96","ios":"levelo://app?vid=3fce88a9-e982-41c6-b1c3-afb5c6995d96"},"vehicle_type_id":"4","last_reported":1743019870,"current_range_meters":11600,"station_id":"ce4bhnh2rcd13ifvqgtg","pricing_plan_id":"cebpf4jnsgd1na2vs0mg"},{"bike_id":"4b176576-018b-4453-9289-e56db5933856","system_id":"levelo_inurba_marseille","lat":43.299347,"lon":5.385983,"is_reserved":false,"is_disabled":false,"rental_uris":{"android":"levelo://app?vid=4b176576-018b-4453-9289-e56db5933856","ios":"levelo://app?vid=4b176576-018b-4453-9289-e56db5933856"},"vehicle_type_id":"4","last_reported":1743019870,"current_range_meters":12000,"station_id":"","pricing_plan_id":"cebpf4jnsgd1na2vs0mg"},{"bike_id":"64a80339-bf6f-4a33-86df-e628503671f2","system_id":"levelo_inurba_marseille","lat":43.29786,"lon":5.38116,"is_reserved":false,"is_disabled":false,"rental_uris":{"android":"levelo://app?vid=64a80339-bf6f-4a33-86df-e628503671f2","ios":"levelo://app?vid=64a80339-bf6f-4a33-86df-e628503671f2"},"vehicle_type_id":"4","last_reported":1743019870,"current_range_meters":12000,"station_id":"ce4bgip2rcd13ifvqbb0","pricing_plan_id":"cebpf4jnsgd1na2vs0mg"},{"bike_id":"6ad4e9d6-3b88-477f-83f1-22e699f16a6e","system_id":"levelo_inurba_marseille","lat":43.29773,"lon":5.37101,"is_reserved":false,"is_disabled":false,"rental_uris":{"android":"levelo://app?vid=6ad4e9d6-3b88-477f-83f1-22e699f16a6e","ios":"levelo://app?vid=6ad4e9d6-3b88-477f-83f1-22e699f16a6e"},"vehicle_type_id":"4","last_reported":1743019870,"current_range_meters":12000,"station_id":"ce4bgop2rcd13ifvqc1g","pricing_plan_id":"cebpf4jnsgd1na2vs0mg"},{"bike_id":"013d8f19-5469-44d6-b1cc-9199a501e7c5","system_id":"levelo_inurba_marseille","lat":43.3079,"lon":5.37648,"is_reserved":false,"is_disabled":false,"rental_uris":{"android":"levelo://app?vid=013d8f19-5469-44d6-b1cc-9199a501e7c5","ios":"levelo://app?vid=013d8f19-5469-44d6-b1cc-9199a501e7c5"},"vehicle_type_id":"4","last_reported":1743019870,"current_range_meters":12000,"station_id":"ce4bgv92rcd13ifvqcq0","pricing_plan_id":"cebpf4jnsgd1na2vs0mg"},{"bike_id":"ac52b5e2-fa03-49aa-ae52-129b45453363","system_id":"levelo_inurba_marseille","lat":43.28944,"lon":5.3639,"is_reserved":false,"is_disabled":false,"rental_uris":{"android":"levelo://app?vid=ac52b5e2-fa03-49aa-ae52-129b45453363","ios":"levelo://app?vid=ac52b5e2-fa03-49aa-ae52-129b45453363"},"vehicle_type_id":"4","last_reported":1743019870,"current_range_meters":12000,"station_id":"ce4bhc92rcd13ifvqetg","pricing_plan_id":"cebpf4jnsgd1na2vs0mg"},{"bike_id":"76ffd1c7-ca41-4861-818a-984a79c5146a","system_id":"levelo_inurba_marseille","lat":43.24077,"lon":5.37759,"is_reserved":false,"is_disabled":false,"rental_uris":{"android":"levelo://app?vid=76ffd1c7-ca41-4861-818a-984a79c5146a","ios":"levelo://app?vid=76ffd1c7-ca41-4861-818a-984a79c5146a"},"vehicle_type_id":"4","last_reported":1743019870,"current_range_meters":12000,"station_id":"ce4bhnp2rcd13ifvqgvg","pricing_plan_id":"cebpf4jnsgd1na2vs0mg"},{"bike_id":"ce6fb305-2ce9-42a2-a222-e7a3d9e1b14e","system_id":"levelo_inurba_marseille","lat":43.33021,"lon":5.39029,"is_reserved":false,"is_disabled":false,"rental_uris":{"android":"levelo://app?vid=ce6fb305-2ce9-42a2-a222-e7a3d9e1b14e","ios":"levelo://app?vid=ce6fb305-2ce9-42a2-a222-e7a3d9e1b14e"},"vehicle_type_id":"4","last_reported":1743019870,"current_range_meters":12000,"station_id":"ce4bhr92rcd13ifvqhrg","pricing_plan_id":"cebpf4jnsgd1na2vs0mg"},{"bike_id":"5858988e-240b-451f-a0a5-81697b8307fc","system_id":"levelo_inurba_marseille","lat":43.30436,"lon":5.38883,"is_reserved":false,"is_disabled":false,"rental_uris":{"android":"levelo://app?vid=5858988e-240b-451f-a0a5-81697b8307fc","ios":"levelo://app?vid=5858988e-240b-451f-a0a5-81697b8307fc"},"vehicle_type_id":"4","last_reported":1743019870,"current_range_meters":12400,"station_id":"ce4bgk12rcd13ifvqbi0","pricing_plan_id":"cebpf4jnsgd1na2vs0mg"},{"bike_id":"2d397352-0282-4a09-903f-46b597180291","system_id":"levelo_inurba_marseille","lat":43.2962,"lon":5.37167,"is_reserved":false,"is_disabled":false,"rental_uris":{"android":"levelo://app?vid=2d397352-0282-4a09-903f-46b597180291","ios":"levelo://app?vid=2d397352-0282-4a09-903f-46b597180291"},"vehicle_type_id":"4","last_reported":1743019870,"current_range_meters":12400,"station_id":"ce4bgnh2rcd13ifvqc0g","pricing_plan_id":"cebpf4jnsgd1na2vs0mg"},{"bike_id":"54e67b15-5609-498d-89ef-061094ddaf45","system_id":"levelo_inurba_marseille","lat":43.31171,"lon":5.38726,"is_reserved":false,"is_disabled":false,"rental_uris":{"android":"levelo://app?vid=54e67b15-5609-498d-89ef-061094ddaf45","ios":"levelo://app?vid=54e67b15-5609-498d-89ef-061094ddaf45"},"vehicle_type_id":"4","last_reported":1743019870,"current_range_meters":12800,"station_id":"ce4bgv12rcd13ifvqcp0","pricing_plan_id":"cebpf4jnsgd1na2vs0mg"},{"bike_id":"6be9d948-8834-4b82-87cb-c00dea0ade79","system_id":"levelo_inurba_marseille","lat":43.291911,"lon":5.393141,"is_reserved":false,"is_disabled":false,"rental_uris":{"android":"levelo://app?vid=6be9d948-8834-4b82-87cb-c00dea0ade79","ios":"levelo://app?vid=6be9d948-8834-4b82-87cb-c00dea0ade79"},"vehicle_type_id":"4","last_reported":1743019870,"current_range_meters":12800,"station_id":"ce4bh192rcd13ifvqdd0","pricing_plan_id":"cebpf4jnsgd1na2vs0mg"},{"bike_id":"01459400-348a-459c-9d59-1cf7d9802f30","system_id":"levelo_inurba_marseille","lat":43.29242,"lon":5.38398,"is_reserved":false,"is_disabled":false,"rental_uris":{"android":"levelo://app?vid=01459400-348a-459c-9d59-1cf7d9802f30","ios":"levelo://app?vid=01459400-348a-459c-9d59-1cf7d9802f30"},"vehicle_type_id":"4","last_reported":1743019870,"current_range_meters":12800,"station_id":"ce4bh692rcd13ifvqea0","pricing_plan_id":"cebpf4jnsgd1na2vs0mg"},{"bike_id":"f4663e34-eab4-4453-9182-f9b89b698162","system_id":"levelo_inurba_marseille","lat":43.29954,"lon":5.38521,"is_reserved":false,"is_disabled":false,"rental_uris":{"android":"levelo://app?vid=f4663e34-eab4-4453-9182-f9b89b698162","ios":"levelo://app?vid=f4663e34-eab4-4453-9182-f9b89b698162"},"vehicle_type_id":"4","last_reported":1743019870,"current_range_meters":13600,"station_id":"ce4bgj92rcd13ifvqbd0","pricing_plan_id":"cebpf4jnsgd1na2vs0mg"},{"bike_id":"a2cb508e-3af5-4336-9a7c-d52e65239c29","system_id":"levelo_inurba_marseille","lat":43.29784,"lon":5.3711,"is_reserved":false,"is_disabled":false,"rental_uris":{"android":"levelo://app?vid=a2cb508e-3af5-4336-9a7c-d52e65239c29","ios":"levelo://app?vid=a2cb508e-3af5-4336-9a7c-d52e65239c29"},"vehicle_type_id":"4","last_reported":1743019870,"current_range_meters":13600,"station_id":"ce4bgop2rcd13ifvqc1g","pricing_plan_id":"cebpf4jnsgd1na2vs0mg"},{"bike_id":"9be70733-6c6c-4c05-89e4-0e3b73501b2d","system_id":"levelo_inurba_marseille","lat":43.29443,"lon":5.38617,"is_reserved":false,"is_disabled":false,"rental_uris":{"android":"levelo://app?vid=9be70733-6c6c-4c05-89e4-0e3b73501b2d","ios":"levelo://app?vid=9be70733-6c6c-4c05-89e4-0e3b73501b2d"},"vehicle_type_id":"4","last_reported":1743019870,"current_range_meters":13600,"station_id":"ce4bh2h2rcd13ifvqdh0","pricing_plan_id":"cebpf4jnsgd1na2vs0mg"},{"bike_id":"19d74509-fefc-4037-b916-b59ac3ad8ab9","system_id":"levelo_inurba_marseille","lat":43.29264,"lon":5.38439,"is_reserved":false,"is_disabled":false,"rental_uris":{"android":"levelo://app?vid=19d74509-fefc-4037-b916-b59ac3ad8ab9","ios":"levelo://app?vid=19d74509-fefc-4037-b916-b59ac3ad8ab9"},"vehicle_type_id":"4","last_reported":1743019870,"current_range_meters":13600,"station_id":"ce4bh692rcd13ifvqea0","pricing_plan_id":"cebpf4jnsgd1na2vs0mg"},{"bike_id":"1b036368-9f49-48a1-b87f-7e268d514fd1","system_id":"levelo_inurba_marseille","lat":43.28938,"lon":5.36389,"is_reserved":false,"is_disabled":false,"rental_uris":{"android":"levelo://app?vid=1b036368-9f49-48a1-b87f-7e268d514fd1","ios":"levelo://app?vid=1b036368-9f49-48a1-b87f-7e268d514fd1"},"vehicle_type_id":"4","last_reported":1743019870,"current_range_meters":13600,"station_id":"ce4bhc92rcd13ifvqetg","pricing_plan_id":"cebpf4jnsgd1na2vs0mg"},{"bike_id":"9e055384-a636-40cc-a4e5-f9a8753e116a","system_id":"levelo_inurba_marseille","lat":43.248,"lon":5.37453,"is_reserved":false,"is_disabled":false,"rental_uris":{"android":"levelo://app?vid=9e055384-a636-40cc-a4e5-f9a8753e116a","ios":"levelo://app?vid=9e055384-a636-40cc-a4e5-f9a8753e116a"},"vehicle_type_id":"4","last_reported":1743019870,"current_range_meters":13600,"station_id":"ce4bhgh2rcd13ifvqfb0","pricing_plan_id":"cebpf4jnsgd1na2vs0mg"},