{"last_updated":1784483289,"ttl":60,"version":"2.2","data":{"bikes":[{"bike_id":"ba0c28b1-8732-48e2-8079-f25b2b3fbc3c","system_id":"levelo_inurba_marseille","lat":43.337444,"lon":5.374475,"is_reserved":false,"is_disabled":false,"rental_uris":{"android":"levelo://app?vid=ba0c28b1-8732-48e2-8079-f25b2b3fbc3c","ios":"levelo://app?vid=ba0c28b1-8732-48e2-8079-f25b2b3fbc3c"},"vehicle_type_id":"4","last_reported":1784483290,"current_range_meters":0,"station_id":"","pricing_plan_id":"cebpf4jnsgd1na2vs0mg"},{"bike_id":"b4a0efc4-ed79-47bb-8fc8-25f6cf1a9ba2","system_id":"levelo_inurba_marseille","lat":43.22535,"lon":5.34828,"is_reserved":false,"is_disabled":false,"rental_uris":{"android":"levelo://app?vid=b4a0efc4-ed79-47bb-8fc8-25f6cf1a9ba2","ios":"levelo://app?vid=b4a0efc4-ed79-47bb-8fc8-25f6cf1a9ba2"},"vehicle_type_id":"4","last_reported":1784483290,"current_range_meters":38400,"station_id":"","pricing_plan_id":"cebpf4jnsgd1na2vs0mg"},{"bike_id":"a966e85f-68d2-4c23-8395-3915ebf05c3e","system_id":"levelo_inurba_marseille","lat":43.33562,"lon":5.37462,"is_reserved":false,"is_disabled":false,"rental_uris":{"android":"levelo://app?vid=a966e85f-68d2-4c23-8395-3915ebf05c3e","ios":"levelo://app?vid=a966e85f-68d2-4c23-8395-3915ebf05c3e"},"vehicle_type_id":"4","last_reported":1784483290,"current_range_meters":10800,"station_id":"st_d46tts09ee8s73dlu43g","pricing_plan_id":"cebpf4jnsgd1na2vs0mg"},{"bike_id":"63dc20ac-90f4-4eae-ac6c-d24ae13a7929","system_id":"levelo_inurba_marseille","lat":43.25341,"lon":5.42166,"is_reserved":false,"is_disabled":false,"rental_uris":{"android":"levelo://app?vid=63dc20ac-90f4-4eae-ac6c-d24ae13a7929","ios":"levelo://app?vid=63dc20ac-90f4-4eae-ac6c-d24ae13a7929"},"vehicle_type_id":"4","last_reported":1784483290,"current_range_meters":28000,"station_id":"st_d2m65c5bi1j21697t3ng","pricing_plan_id":"cebpf4jnsgd1na2vs0mg"},{"bike_id":"d25cb175-f6f0-4ca6-af5c-26ddb80c6880","system_id":"levelo_inurba_marseille","lat":43.27383,"lon":5.36238,"is_reserved":false,"is_disabled":false,"rental_uris":{"android":"levelo://app?vid=d25cb175-f6f0-4ca6-af5c-26ddb80c6880","ios":"levelo://app?vid=d25cb175-f6f0-4ca6-af5c-26ddb80c6880"},"vehicle_type_id":"4","last_reported":1784483290,"current_range_meters":9600,"station_id":"ce4bhbh2rcd13ifvqeo0","pricing_plan_id":"cebpf4jnsgd1na2vs0mg"},{"bike_id":"923e71c1-019f-4e76-ba0d-5506da98b4d5","system_id":"levelo_inurba_marseille","lat":43.25084,"lon":5.39514,"is_reserved":false,"is_disabled":false,"rental_uris":{"android":"levelo://app?vid=923e71c1-019f-4e76-ba0d-5506da98b4d5","ios":"levelo://app?vid=923e71c1-019f-4e76-ba0d-5506da98b4d5"},"vehicle_type_id":"4","last_reported":1784483290,"current_range_meters":32400,"station_id":"ce4bhm12rcd13ifvqgkg","pricing_plan_id":"cebpf4jnsgd1na2vs0mg"},{"bike_id":"5a8d9266-f0fd-4ab9-8de4-43bb599823d5","system_id":"levelo_inurba_marseille","lat":43.26218,"lon":5.38768,"is_reserved":false,"is_disabled":false,"rental_uris":{"android":"levelo://app?vid=5a8d9266-f0fd-4ab9-8de4-43bb599823d5","ios":"levelo://app?vid=5a8d9266-f0fd-4ab9-8de4-43bb599823d5"},"vehicle_type_id":"4","last_reported":1784483290,"current_range_meters":23200,"station_id":"st_d8gjfg747rts73coq3b0","pricing_plan_id":"cebpf4jnsgd1na2vs0mg"},{"bike_id":"d82ff212-3daa-4ef7-97b1-31e890a6719e","system_id":"levelo_inurba_marseille","lat":43.24169,"lon":5.36396,"is_reserved":false,"is_disabled":false,"rental_uris":{"android":"levelo://app?vid=d82ff212-3daa-4ef7-97b1-31e890a6719e","ios":"levelo://app?vid=d82ff212-3daa-4ef7-97b1-31e890a6719e"},"vehicle_type_id":"4","last_reported":1784483290,"current_range_meters":29600,"station_id":"cpo36qri1sfpv3e86is0","pricing_plan_id":"cebpf4jnsgd1na2vs0mg"},{"bike_id":"14f453ad-1979-4bdf-bd4b-0d763e7231e8","system_id":"levelo_inurba_marseille","lat":43.23307,"lon":5.39874,"is_reserved":false,"is_disabled":true,"rental_uris":{"android":"levelo://app?vid=14f453ad-1979-4bdf-bd4b-0d763e7231e8","ios":"levelo://app?vid=14f453ad-1979-4bdf-bd4b-0d763e7231e8"},"vehicle_type_id":"4","last_reported":1784483290,"current_range_meters":0,"station_id":"","pricing_plan_id":"cebpf4jnsgd1na2vs0mg"},{"bike_id":"7e40263c-de21-4c2c-9612-fc212b319ebb","system_id":"levelo_inurba_marseille","lat":43.24391,"lon":5.37062,"is_reserved":false,"is_disabled":false,"rental_uris":{"android":"levelo://app?vid=7e40263c-de21-4c2c-9612-fc212b319ebb","ios":"levelo://app?vid=7e40263c-de21-4c2c-9612-fc212b319ebb"},"vehicle_type_id":"4","last_reported":1784483290,"current_range_meters":8000,"station_id":"ce4bhhh2rcd13ifvqfk0","pricing_plan_id":"cebpf4jnsgd1na2vs0mg"},{"bike_id":"e71494cd-d4a8-436a-a5c6-260a2924500e","system_id":"levelo_inurba_marseille","lat":43.26222,"lon":5.38765,"is_reserved":false,"is_disabled":true,"rental_uris":{"android":"levelo://app?vid=e71494cd-d4a8-436a-a5c6-260a2924500e","ios":"levelo://app?vid=e71494cd-d4a8-436a-a5c6-260a2924500e"},"vehicle_type_id":"4","last_reported":1784483290,"current_range_meters":24400,"station_id":"st_d8gjfg747rts73coq3b0","pricing_plan_id":"cebpf4jnsgd1na2vs0mg"},{"bike_id":"661a48b2-2a3b-4341-ba7f-18771415c6d8","system_id":"levelo_inurba_marseille","lat":43.27067,"lon":5.38303,"is_reserved":false,"is_disabled":false,"rental_uris":{"android":"levelo://app?vid=661a48b2-2a3b-4341-ba7f-18771415c6d8","ios":"levelo://app?vid=661a48b2-2a3b-4341-ba7f-18771415c6d8"},"vehicle_type_id":"4","last_reported":1784483290,"current_range_meters":40000,"station_id":"st_d3n2fo6cfp8s73cte1j0","pricing_plan_id":"cebpf4jnsgd1na2vs0mg"},{"bike_id":"80ef3a4a-1855-4d8a-9848-be3a53762315","system_id":"levelo_inurba_marseille","lat":43.31528,"lon":5.38034,"is_reserved":false,"is_disabled":false,"rental_uris":{"android":"levelo://app?vid=80ef3a4a-1855-4d8a-9848-be3a53762315","ios":"levelo://app?vid=80ef3a4a-1855-4d8a-9848-be3a53762315"},"vehicle_type_id":"4","last_reported":1784483290,"current_range_meters":25600,"station_id":"ce4bhsp2rcd13ifvqi50","pricing_plan_id":"cebpf4jnsgd1na2vs0mg"},{"bike_id":"bedff844-9130-492b-a7c3-37d670bbb559","system_id":"levelo_inurba_marseille","lat":43.32355,"lon":5.3675,"is_reserved":false,"is_disabled":false,"rental_uris":{"android":"levelo://app?vid=bedff844-9130-492b-a7c3-37d670bbb559","ios":"levelo://app?vid=bedff844-9130-492b-a7c3-37d670bbb559"},"vehicle_type_id":"4","last_reported":1784483290,"current_range_meters":38400,"station_id":"ce4bhsh2rcd13ifvqi2g","pricing_plan_id":"cebpf4jnsgd1na2vs0mg"},{"bike_id":"5d448b2e-1624-4879-b542-e6d83138ed48","system_id":"levelo_inurba_marseille","lat":43.28666,"lon":5.3634,"is_reserved":false,"is_disabled":false,"rental_uris":{"android":"levelo://app?vid=5d448b2e-1624-4879-b542-e6d83138ed48","ios":"levelo://app?vid=5d448b2e-1624-4879-b542-e6d83138ed48"},"vehicle_type_id":"4","last_reported":1784483290,"current_range_meters":26000,"station_id":"ce4bhah2rcd13ifvqej0","pricing_plan_id":"cebpf4jnsgd1na2vs0mg"},{"bike_id":"9ce1c7ee-e3ec-4f19-9fd3-cbc8c6325b36","system_id":"levelo_inurba_marseille","lat":43.27552,"lon":5.38421,"is_reserved":false,"is_disabled":false,"rental_uris":{"android":"levelo://app?vid=9ce1c7ee-e3ec-4f19-9fd3-cbc8c6325b36","ios":"levelo://app?vid=9ce1c7ee-e3ec-4f19-9fd3-cbc8c6325b36"},"vehicle_type_id":"4","last_reported":1784483290,"current_range_meters":9200,"station_id":"ce4bhh92rcd13ifvqfi0","pricing_plan_id":"cebpf4jnsgd1na2vs0mg"},{"bike_id":"782b1af0-c1a6-4cbf-a06c-7d7141b4ffdc","system_id":"levelo_inurba_marseille","lat":43.23137,"lon":5.43722,"is_reserved":false,"is_disabled":false,"rental_uris":{"android":"levelo://app?vid=782b1af0-c1a6-4cbf-a06c-7d7141b4ffdc","ios":"levelo://app?vid=782b1af0-c1a6-4cbf-a06c-7d7141b4ffdc"},"vehicle_type_id":"4","last_reported":1784483290,"current_range_meters":30000,"station_id":"ce4bhmp2rcd13ifvqgog","pricing_plan_id":"cebpf4jnsgd1na2vs0mg"},{"bike_id":"a070180e-2aba-47ac-9d70-6e5e7182ba7f","system_id":"levelo_inurba_marseille","lat":43.30411,"lon":5.4127,"is_reserved":false,"is_disabled":false,"rental_uris":{"android":"levelo://app?vid=a070180e-2aba-47ac-9d70-6e5e7182ba7f","ios":"levelo://app?vid=a070180e-2aba-47ac-9d70-6e5e7182ba7f"},"vehicle_type_id":"4","last_reported":1784483290,"current_range_meters":39200,"station_id":"ce4bhop2rcd13ifvqh8g","pricing_plan_id":"cebpf4jnsgd1na2vs0mg"},{"bike_id":"32ed2206-662d-4dc8-8aec-718d76ff8fe4","system_id":"levelo_inurba_marseille","lat":43.27996,"lon":5.41659,"is_reserved":false,"is_disabled":false,"rental_uris":{"android":"levelo://app?vid=32ed2206-662d-4dc8-8aec-718d76ff8fe4","ios":"levelo://app?vid=32ed2206-662d-4dc8-8aec-718d76ff8fe4"},"vehicle_type_id":"4","last_reported":1784483290,"current_range_meters":36400,"station_id":"ce4bho12rcd13ifvqh1g","pricing_plan_id":"cebpf4jnsgd1na2vs0mg"},{"bike_id":"fd44db52-2137-49f3-8d2b-a4d3bd7fb764","system_id":"levelo_inurba_marseille","lat":43.31499,"lon":5.37295,"is_reserved":false,"is_disabled":false,"rental_uris":{"android":"levelo://app?vid=fd44db52-2137-49f3-8d2b-a4d3bd7fb764","ios":"levelo://app?vid=fd44db52-2137-49f3-8d2b-a4d3bd7fb764"},"vehicle_type_id":"4","last_reported":1784483290,"current_range_meters":18000,"station_id":"ce4bgt12rcd13ifvqcd0","pricing_plan_id":"cebpf4jnsgd1na2vs0mg"},{"bike_id":"0ecdb674-3c3c-46be-9a7b-0387e7579f88","system_id":"levelo_inurba_marseille","lat":43.24464,"lon":5.4253,"is_reserved":false,"is_disabled":false,"rental_uris":{"android":"levelo://app?vid=0ecdb674-3c3c-46be-9a7b-0387e7579f88","ios":"levelo://app?vid=0ecdb674-3c3c-46be-9a7b-0387e7579f88"},"vehicle_type_id":"4","last_reported":1784483290,"current_range_meters":28400,"station_id":"st_d4a3vfp97mjs738cd8kg","pricing_plan_id":"cebpf4jnsgd1na2vs0mg"},{"bike_id":"129ac767-2638-4c48-b9ca-8da71d89525b","system_id":"levelo_inurba_marseille","lat":43.23888,"lon":5.37457,"is_reserved":false,"is_disabled":false,"rental_uris":{"android":"levelo://app?vid=129ac767-2638-4c48-b9ca-8da71d89525b","ios":"levelo://app?vid=129ac767-2638-4c48-b9ca-8da71d89525b"},"vehicle_type_id":"4","last_reported":1784483290,"current_range_meters":28000,"station_id":"st_d6sm7csbq4hs73f8fpjg","pricing_plan_id":"cebpf4jnsgd1na2vs0mg"},{"bike_id":"556ade05-89c6-4fc2-841a-19a971ed6829","system_id":"levelo_inurba_marseille","lat":43.29184,"lon":5.35791,"is_reserved":false,"is_disabled":false,"rental_uris":{"android":"levelo://app?vid=556ade05-89c6-4fc2-841a-19a971ed6829","ios":"levelo://app?vid=556ade05-89c6-4fc2-841a-19a971ed6829"},"vehicle_type_id":"4","last_reported":1784483290,"current_range_meters":39200,"station_id":"ce4bhb12rcd13ifvqel0","pricing_plan_id":"cebpf4jnsgd1na2vs0mg"},{"bike_id":"79770dbe-b7ee-4862-83a0-f50349fdc104","system_id":"levelo_inurba_marseille","lat":43.27315,"lon":5.39089,"is_reserved":false,"is_disabled":false,"rental_uris":{"android":"levelo://app?vid=79770dbe-b7ee-4862-83a0-f50349fdc104","ios":"levelo://app?vid=79770dbe-b7ee-4862-83a0-f50349fdc104"},"vehicle_type_id":"4","last_reported":1784483290,"current_range_meters":14800,"station_id":"ce4bhgp2rcd13ifvqfe0","pricing_plan_id":"cebpf4jnsgd1na2vs0mg"},{"bike_id":"cd0ba67f-b273-4442-8ed6-7c4211b05046","system_id":"levelo_inurba_marseille","lat":43.2963,"lon":5.37153,"is_reserved":false,"is_disabled":false,"rental_uris":{"android":"levelo://app?vid=cd0ba67f-b273-4442-8ed6-7c4211b05046","ios":"levelo://app?vid=cd0ba67f-b273-4442-8ed6-7c4211b05046"},"vehicle_type_id":"4","last_reported":1784483290,"current_range_meters":38800,"station_id":"","pricing_plan_id":"cebpf4jnsgd1na2vs0mg"},{"bike_id":"cd51f461-b6b3-4a67-8a6c-7f85b9f282bd","system_id":"levelo_inurba_marseille","lat":43.27905,"lon":5.38008,"is_reserved":false,"is_disabled":false,"rental_uris":{"android":"levelo://app?vid=cd51f461-b6b3-4a67-8a6c-7f85b9f282bd","ios":"levelo://app?vid=cd51f461-b6b3-4a67-8a6c-7f85b9f282bd"},"vehicle_type_id":"4","last_reported":1784483290,"current_range_meters":18000,"station_id":"ce4bhf92rcd13ifvqf50","pricing_plan_id":"cebpf4jnsgd1na2vs0mg"},{"bike_id":"ef58ecff-3f6f-421a-8bcb-1c3563ad8889","system_id":"levelo_inurba_marseille","lat":43.24962,"lon":5.3897,"is_reserved":false,"is_disabled":false,"rental_uris":{"android":"levelo://app?vid=ef58ecff-3f6f-421a-8bcb-1c3563ad8889","ios":"levelo://app?vid=ef58ecff-3f6f-421a-8bcb-1c3563ad8889"},"vehicle_type_id":"4","last_reported":1784483290,"current_range_meters":6000,"station_id":"","pricing_plan_id":"cebpf4jnsgd1na2vs0mg"},{"bike_id":"ef6880d0-6944-4f6a-8f40-6662368b8f75","system_id":"levelo_inurba_marseille","lat":43.3171,"lon":5.43713,"is_reserved":false,"is_disabled":false,"rental_uris":{"android":"levelo://app?vid=ef6880d0-6944-4f6a-8f40-6662368b8f75","ios":"levelo://app?vid=ef6880d0-6944-4f6a-8f40-6662368b8f75"},"vehicle_type_id":"4","last_reported":1784483290,"current_range_meters":39200,"station_id":"ce4bhp92rcd13ifvqhcg","pricing_plan_id":"cebpf4jnsgd1na2vs0mg"},{"bike_id":"a9980c70-8710-4935-a17b-03702e6ebda9","system_id":"levelo_inurba_marseille","lat":43.32552,"lon":5.41463,"is_reserved":false,"is_disabled":false,"rental_uris":{"android":"levelo://app?vid=a9980c70-8710-4935-a17b-03702e6ebda9","ios":"levelo://app?vid=a9980c70-8710-4935-a17b-03702e6ebda9"},"vehicle_type_id":"4","last_reported":1784483290,"current_range_meters":36800,"station_id":"ce4bhq12rcd13ifvqhhg","pricing_plan_id":"cebpf4jnsgd1na2vs0mg"},{"bike_id":"7b9235ed-e818-46a6-a3a4-5dee1d4c2fc7","system_id":"levelo_inurba_marseille","lat":43.25503,"lon":5.37653,"is_reserved":false,"is_disabled":false,"rental_uris":{"android":"levelo://app?vid=7b9235ed-e818-46a6-a3a4-5dee1d4c2fc7","ios":"levelo://app?vid=7b9235ed-e818-46a6-a3a4-5dee1d4c2fc7"},"vehicle_type_id":"4","last_reported":1784483290,"current_range_meters":6800,"station_id":"ce4bhh12rcd13ifvqff0","pricing_plan_id":"cebpf4jnsgd1na2vs0mg"},{"bike_id":"df69553b-5b22-4932-89f4-db3c101a3133","system_id":"levelo_inurba_marseille","lat":43.30381,"lon":5.42489,"is_reserved":false,"is_disabled":false,"rental_uris":{"android":"levelo://app?vid=df69553b-5b22-4932-89f4-db3c101a3133","ios":"levelo://app?vid=df69553b-5b22-4932-89f4-db3c101a3133"},"vehicle_type_id":"4","last_reported":1784483290,"current_range_meters":39200,"station_id":"ce4bhoh2rcd13ifvqh6g","pricing_plan_id":"cebpf4jnsgd1na2vs0mg"},{"bike_id":"d183c213-4177-4bf2-b9e0-24872be8a9c8","system_id":"levelo_inurba_marseille","lat":43.28476,"lon":5.48381,"is_reserved":false,"is_disabled":false,"rental_uris":{"android":"levelo://app?vid=d183c213-4177-4bf2-b9e0-24872be8a9c8","ios":"levelo://app?vid=d183c213-4177-4bf2-b9e0-24872be8a9c8"},"vehicle_type_id":"4","last_reported":1784483290,"current_range_meters":13600,"station_id":"st_d3svhcjqgbts73a3dn0g","pricing_plan_id":"cebpf4jnsgd1na2vs0mg"},{"bike_id":"b7ee5136-5355-40b7-8621-0df5f665299b","system_id":"levelo_inurba_marseille","lat":43.29212,"lon":5.36064,"is_reserved":false,"is_disabled":false,"rental_uris":{"android":"levelo://app?vid=b7ee5136-5355-40b7-8621-0df5f665299b","ios":"levelo://app?vid=b7ee5136-5355-40b7-8621-0df5f665299b"},"vehicle_type_id":"4","last_reported":1784483290,"current_range_meters":36800,"station_id":"","pricing_plan_id":"cebpf4jnsgd1na2vs0mg"},{"bike_id":"5b140ca2-b769-446c-acb6-6062f258100b","system_id":"levelo_inurba_marseille","lat":43.24391,"lon":5.3704,"is_reserved":false,"is_disabled":true,"rental_uris":{"android":"levelo://app?vid=5b140ca2-b769-446c-acb6-6062f258100b","ios":"levelo://app?vid=5b140ca2-b769-446c-acb6-6062f258100b"},"vehicle_type_id":"4","last_reported":1784483290,"current_range_meters":0,"station_id":"ce4bhhh2rcd13ifvqfk0","pricing_plan_id":"cebpf4jnsgd1na2vs0mg"},{"bike_id":"17e4be99-494c-4c9f-8720-fc080f3b6be4","system_id":"levelo_inurba_marseille","lat":43.29862,"lon":5.3758,"is_reserved":false,"is_disabled":false,"rental_uris":{"android":"levelo://app?vid=17e4be99-494c-4c9f-8720-fc080f3b6be4","ios":"levelo://app?vid=17e4be99-494c-4c9f-8720-fc080f3b6be4"},"vehicle_type_id":"4","last_reported":1784483290,"current_range_meters":3200,"station_id":"","pricing_plan_id":"cebpf4jnsgd1na2vs0mg"},{"bike_id":"19332984-a4af-4893-9a3d-2c03e4769c2a","system_id":"levelo_inurba_marseille","lat":43.28459,"lon":5.35884,"is_reserved":false,"is_disabled":false,"rental_uris":{"android":"levelo://app?vid=19332984-a4af-4893-9a3d-2c03e4769c2a","ios":"levelo://app?vid=19332984-a4af-4893-9a3d-2c03e4769c2a"},"vehicle_type_id":"4","last_reported":1784483290,"current_range_meters":16400,"station_id":"ce4bhah2rcd13ifvqei0","pricing_plan_id":"cebpf4jnsgd1na2vs0mg"},{"bike_id":"fe15ad90-aa2c-4ebb-826e-225ff0bf6e3f","system_id":"levelo_inurba_marseille","lat":43.2937,"lon":5.37841,"is_reserved":false,"is_disabled":true,"rental_uris":{"android":"levelo://app?vid=fe15ad90-aa2c-4ebb-826e-225ff0bf6e3f","ios":"levelo://app?vid=fe15ad90-aa2c-4ebb-826e-225ff0bf6e3f"},"vehicle_type_id":"4","last_reported":1784483290,"current_range_meters":1600,"station_id":"ce4bgjh2rcd13ifvqbf0","pricing_plan_id":"cebpf4jnsgd1na2vs0mg"},{"bike_id":"63c1781a-36c2-4a4a-9f14-acd6b65eaf1b","system_id":"levelo_inurba_marseille","lat":43.29528,"lon":5.38531,"is_reserved":false,"is_disabled":false,"rental_uris":{"android":"levelo://app?vid=63c1781a-36c2-4a4a-9f14-acd6b65eaf1b","ios":"levelo://app?vid=63c1781a-36c2-4a4a-9f14-acd6b65eaf1b"},"vehicle_type_id":"4","last_reported":1784483290,"current_range_meters":36000,"station_id":"ce4bgih2rcd13ifvqba0","pricing_plan_id":"cebpf4jnsgd1na2vs0mg"},{"bike_id":"92f9377a-62ba-495b-8de9-1750140cdb94","system_id":"levelo_inurba_marseille","lat":43.29633,"lon":5.37137,"is_reserved":false,"is_disabled":true,"rental_uris":{"android":"levelo://app?vid=92f9377a-62ba-495b-8de9-1750140cdb94","ios":"levelo://app?vid=92f9377a-62ba-495b-8de9-1750140cdb94"},"vehicle_type_id":"4","last_reported":1784483290,"current_range_meters":26800,"station_id":"","pricing_plan_id":"cebpf4jnsgd1na2vs0mg"},{"bike_id":"36fe0f4a-2984-4ec5-b6ca-df8f64d9102f","system_id":"levelo_inurba_marseille","lat":43.27178,"lon":5.4099,"is_reserved":false,"is_disabled":true,"rental_uris":{"android":"levelo://app?vid=36fe0f4a-2984-4ec5-b6ca-df8f64d9102f","ios":"levelo://app?vid=36fe0f4a-2984-4ec5-b6ca-df8f64d9102f"},"vehicle_type_id":"4","last_reported":1784483290,"current_range_meters":28400,"station_id":"ce4bhl12rcd13ifvqgf0","pricing_plan_id":"cebpf4jnsgd1na2vs0mg"},{"bike_id":"da8dd3ab-5d6c-4c12-8f65-59626a23c0ea","system_id":"levelo_inurba_marseille","lat":43.26489,"lon":5.39548,"is_reserved":false,"is_disabled":false,"rental_uris":{"android":"levelo://app?vid=da8dd3ab-5d6c-4c12-8f65-59626a23c0ea","ios":"levelo://app?vid=da8dd3ab-5d6c-4c12-8f65-59626a23c0ea"},"vehicle_type_id":"4","last_reported":1784483290,"current_range_meters":26000,"station_id":"ce4bhi12rcd13ifvqfq0","pricing_plan_id":"cebpf4jnsgd1na2vs0mg"},{"bike_id":"56936ed9-ced3-4a44-b1c3-a594e07664c9","system_id":"levelo_inurba_marseille","lat":43.29007,"lon":5.38115,"is_reserved":false,"is_disabled":true,"rental_uris":{"android":"levelo://app?vid=56936ed9-ced3-4a44-b1c3-a594e07664c9","ios":"levelo://app?vid=56936ed9-ced3-4a44-b1c3-a594e07664c9"},"vehicle_type_id":"4","last_reported":1784483290,"current_range_meters":2000,"station_id":"ce4bh4p2rcd13ifvqe1g","pricing_plan_id":"cebpf4jnsgd1na2vs0mg"},{"bike_id":"c2e7fe27-d2b0-440e-b62d-ead50feed951","system_id":"levelo_inurba_marseille","lat":43.29476,"lon":5.43319,"is_reserved":false,"is_disabled":false,"rental_uris":{"android":"levelo://app?vid=c2e7fe27-d2b0-440e-b62d-ead50feed951","ios":"levelo://app?vid=c2e7fe27-d2b0-440e-b62d-ead50feed951"},"vehicle_type_id":"4","last_reported":1784483290,"current_range_meters":39200,"station_id":"st_d3j5ugp08ojc73fj9d10","pricing_plan_id":"cebpf4jnsgd1na2vs0mg"},{"bike_id":"68487660-d0f8-4357-a041-ea23c3836a53","system_id":"levelo_inurba_marseille","lat":43.26184,"lon":5.37468,"is_reserved":false,"is_disabled":false,"rental_uris":{"android":"levelo://app?vid=68487660-d0f8-4357-a041-ea23c3836a53","ios":"levelo://app?vid=68487660-d0f8-4357-a041-ea23c3836a53"},"vehicle_type_id":"4","last_reported":1784483290,"current_range_meters":36400,"station_id":"ce4bhgp2rcd13ifvqfc0","pricing_plan_id":"cebpf4jnsgd1na2vs0mg"},{"bike_id":"5b8c0c23-a01a-4662-a9be-35d868455eb2","system_id":"levelo_inurba_marseille","lat":43.29255,"lon":5.38436,"is_reserved":false,"is_disabled":false,"rental_uris":{"android":"levelo://app?vid=5b8c0c23-a01a-4662-a9be-35d868455eb2","ios":"levelo://app?vid=5b8c0c23-a01a-4662-a9be-35d868455eb2"},"vehicle_type_id":"4","last_reported":1784483290,"current_range_meters":40000,"station_id":"ce4bh692rcd13ifvqea0","pricing_plan_id":"cebpf4jnsgd1na2vs0mg"},{"bike_id":"2623e023-e953-40ac-8068-15d2169ca99d","system_id":"levelo_inurba_marseille","lat":43.28709,"lon":5.46693,"is_reserved":false,"is_disabled":false,"rental_uris":{"android":"levelo://app?vid=2623e023-e953-40ac-8068-15d2169ca99d","ios":"levelo://app?vid=2623e023-e953-40ac-8068-15d2169ca99d"},"vehicle_type_id":"4","last_reported":1784483290,"current_range_meters":37600,"station_id":"st_d6tc3vkotcvc738tfjhg","pricing_plan_id":"cebpf4jnsgd1na2vs0mg"},{"bike_id":"1fabaaec-ee49-484e-a010-c578e8dd69a9","system_id":"levelo_inurba_marseille","lat":43.31216,"lon":5.36896,"is_reserved":false,"is_disabled":false,"rental_uris":{"android":"levelo://app?vid=1fabaaec-ee49-484e-a010-c578e8dd69a9","ios":"levelo://app?vid=1fabaaec-ee49-484e-a010-c578e8dd69a9"},"vehicle_type_id":"4","last_reported":1784483290,"current_range_meters":9600,"station_id":"ce4bgl92rcd13ifvqbq0","pricing_plan_id":"cebpf4jnsgd1na2vs0mg"},{"bike_id":"36f21198-d682-4b34-8677-c926627a40be","system_id":"levelo_inurba_marseille","lat":43.31479,"lon":5.37304,"is_reserved":false,"is_disabled":false,"rental_uris":{"android":"levelo://app?vid=36f21198-d682-4b34-8677-c926627a40be","ios":"levelo://app?vid=36f21198-d682-4b34-8677-c926627a40be"},"vehicle_type_id":"4","last_reported":1784483290,"current_range_meters":23200,"station_id":"ce4bgt12rcd13ifvqcd0","pricing_plan_id":"cebpf4jnsgd1na2vs0mg"},{"bike_id":"90fd9e21-a9e5-4ba9-ba28-3da8875c3ef6","system_id":"levelo_inurba_marseille","lat":43.27883,"lon":5.35503,"is_reserved":false,"is_disabled":false,"rental_uris":{"android":"levelo://app?vid=90fd9e21-a9e5-4ba9-ba28-3da8875c3ef6","ios":"levelo://app?vid=90fd9e21-a9e5-4ba9-ba28-3da8875c3ef6"},"vehicle_type_id":"4","last_reported":1784483290,"current_range_meters":27600,"station_id":"","pricing_plan_id":"cebpf4jnsgd1na2vs0mg"},{"bike_id":"108b77fc-af18-450d-af7a-b371c96698b1","system_id":"levelo_inurba_marseille","lat":43.2587,"lon":5.39889,"is_reserved":false,"is_disabled":true,"rental_uris":{"android":"levelo://app?vid=108b77fc-af18-450d-af7a-b371c96698b1","ios":"levelo://app?vid=108b77fc-af18-450d-af7a-b371c96698b1"},"vehicle_type_id":"4","last_reported":1784483290,"current_range_meters":0,"station_id":"ce4bhl92rcd13ifvqghg","pricing_plan_id":"cebpf4jnsgd1na2vs0mg"},{"bike_id":"74efc063-dc1a-4dca-a38f-9f6dd5d87911","system_id":"levelo_inurba_marseille","lat":43.30532,"lon":5.36733,"is_reserved":false,"is_disabled":false,"rental_uris":{"android":"levelo://app?vid=74efc063-dc1a-4dca-a38f-9f6dd5d87911","ios":"levelo://app?vid=74efc063-dc1a-4dca-a38f-9f6dd5d87911"},"vehicle_type_id":"4","last_reported":1784483290,"current_range_meters":12800,"station_id":"ce4bgrp2rcd13ifvqc9g","pricing_plan_id":"cebpf4jnsgd1na2vs0mg"},{"bike_id":"1aba4b2e-71a6-4e82-8e9d-0b35db6f35c2","system_id":"levelo_inurba_marseille","lat":43.24165,"lon":5.364,"is_reserved":false,"is_disabled":false,"rental_uris":{"android":"levelo://app?vid=1aba4b2e-71a6-4e82-8e9d-0b35db6f35c2","ios":"levelo://app?vid=1aba4b2e-71a6-4e82-8e9d-0b35db6f35c2"},"vehicle_type_id":"4","last_reported":1784483290,"current_range_meters":39200,"station_id":"cpo36qri1sfpv3e86is0","pricing_plan_id":"cebpf4jnsgd1na2vs0mg"},{"bike_id":"863d0357-9100-4091-8be6-61d932e4e898","system_id":"levelo_inurba_marseille","lat":43.33756,"lon":5.37458,"is_reserved":false,"is_disabled":false,"rental_uris":{"android":"levelo://app?vid=863d0357-9100-4091-8be6-61d932e4e898","ios":"levelo://app?vid=863d0357-9100-4091-8be6-61d932e4e898"},"vehicle_type_id":"4","last_reported":1784483290,"current_range_meters":35200,"station_id":"","pricing_plan_id":"cebpf4jnsgd1na2vs0mg"},{"bike_id":"0d249168-c1b9-4fc1-a9ca-ee81dcabf286","system_id":"levelo_inurba_marseille","lat":43.30833,"lon":5.40432,"is_reserved":false,"is_disabled":false,"rental_uris":{"android":"levelo://app?vid=0d249168-c1b9-4fc1-a9ca-ee81dcabf286","ios":"levelo://app?vid=0d249168-c1b9-4fc1-a9ca-ee81dcabf286"},"vehicle_type_id":"4","last_reported":1784483290,"current_range_meters":9600,"station_id":"","pricing_plan_id":"cebpf4jnsgd1na2vs0mg"},{"bike_id":"479f6d73-289e-4a64-9a92-081a85c0df32","system_id":"levelo_inurba_marseille","lat":43.25105,"lon":5.40312,"is_reserved":false,"is_disabled":false,"rental_uris":{"android":"levelo://app?vid=479f6d73-289e-4a64-9a92-081a85c0df32","ios":"levelo://app?vid=479f6d73-289e-4a64-9a92-081a85c0df32"},"vehicle_type_id":"4","last_reported":1784483290,"current_range_meters":39200,"station_id":"ce4bhlh2rcd13ifvqgig","pricing_plan_id":"cebpf4jnsgd1na2vs0mg"},{"bike_id":"e81d39c5-de88-4670-b269-6cb2da305080","system_id":"levelo_inurba_marseille","lat":43.28157,"lon":5.42628,"is_reserved":false,"is_disabled":false,"rental_uris":{"android":"levelo://app?vid=e81d39c5-de88-4670-b269-6cb2da305080","ios":"levelo://app?vid=e81d39c5-de88-4670-b269-6cb2da305080"},"vehicle_type_id":"4","last_reported":1784483290,"current_range_meters":38800,"station_id":"ce4bhnh2rcd13ifvqgug","pricing_plan_id":"cebpf4jnsgd1na2vs0mg"},{"bike_id":"e15b712c-8cdd-47f2-8a02-fef2aa639098","system_id":"levelo_inurba_marseille","lat":43.21188,"lon":5.35069,"is_reserved":false,"is_disabled":false,"rental_uris":{"android":"levelo://app?vid=e15b712c-8cdd-47f2-8a02-fef2aa639098","ios":"levelo://app?vid=e15b712c-8cdd-47f2-8a02-fef2aa639098"},"vehicle_type_id":"4","last_reported":1784483290,"current_range_meters":6800,"station_id":"st_cvj6sg6p6f1abm77japg","pricing_plan_id":"cebpf4jnsgd1na2vs0mg"},{"bike_id":"8ba7f2d6-52d3-4c56-b19a-19a142e62779","system_id":"levelo_inurba_marseille","lat":43.24069,"lon":5.37747,"is_reserved":false,"is_disabled":false,"rental_uris":{"android":"levelo://app?vid=8ba7f2d6-52d3-4c56-b19a-19a142e62779","ios":"levelo://app?vid=8ba7f2d6-52d3-4c56-b19a-19a142e62779"},"vehicle_type_id":"4","last_reported":1784483290,"current_range_meters":9200,"station_id":"ce4bhnp2rcd13ifvqgvg","pricing_plan_id":"cebpf4jnsgd1na2vs0mg"},{"bike_id":"ffdafddb-edce-478b-b283-0a15f46a5cac","system_id":"levelo_inurba_marseille","lat":43.25857,"lon":5.39906,"is_reserved":false,"is_disabled":false,"rental_uris":{"android":"levelo://app?vid=ffdafddb-edce-478b-b283-0a15f46a5cac","ios":"levelo://app?vid=ffdafddb-edce-478b-b283-0a15f46a5cac"},"vehicle_type_id":"4","last_reported":1784483290,"current_range_meters":36000,"station_id":"ce4bhl92rcd13ifvqghg","pricing_plan_id":"cebpf4jnsgd1na2vs0mg"},{"bike_id":"87aac82d-66f0-4b38-9fc1-edd0f73106c1","system_id":"levelo_inurba_marseille","lat":43.27939,"lon":5.41037,"is_reserved":false,"is_disabled":false,"rental_uris":{"android":"levelo://app?vid=87aac82d-66f0-4b38-9fc1-edd0f73106c1","ios":"levelo://app?vid=87aac82d-66f0-4b38-9fc1-edd0f73106c1"},"vehicle_type_id":"4","last_reported":1784483290,"current_range_meters":6000,"station_id":"ce4bhnp2rcd13ifvqh0g","pricing_plan_id":"cebpf4jnsgd1na2vs0mg"},{"bike_id":"6a73d93c-6339-46f5-8ebc-d03b3464630c","system_id":"levelo_inurba_marseille","lat":43.26351,"lon":5.41058,"is_reserved":false,"is_disabled":false,"rental_uris":{"android":"levelo://app?vid=6a73d93c-6339-46f5-8ebc-d03b3464630c","ios":"levelo://app?vid=6a73d93c-6339-46f5-8ebc-d03b3464630c"},"vehicle_type_id":"4","last_reported":1784483290,"current_range_meters":31200,"station_id":"st_d4e5ca6na9uc73bfl5fg","pricing_plan_id":"cebpf4jnsgd1na2vs0mg"},{"bike_id":"f68023ce-5f61-45e8-beb8-d3b87ec1a04a","system_id":"levelo_inurba_marseille","lat":43.27997,"lon":5.40008,"is_reserved":false,"is_disabled":true,"rental_uris":{"android":"levelo://app?vid=f68023ce-5f61-45e8-beb8-d3b87ec1a04a","ios":"levelo://app?vid=f68023ce-5f61-45e8-beb8-d3b87ec1a04a"},"vehicle_type_id":"4","last_reported":1784483290,"current_range_meters":35200,"station_id":"ce4bho92rcd13ifvqh4g","pricing_plan_id":"cebpf4jnsgd1na2vs0mg"},{"bike_id":"505c470b-ac37-49d3-b636-d6566f7a1192","system_id":"levelo_inurba_marseille","lat":43.24813,"lon":5.37454,"is_reserved":false,"is_disabled":false,"rental_uris":{"android":"levelo://app?vid=505c470b-ac37-49d3-b636-d6566f7a1192","ios":"levelo://app?vid=505c470b-ac37-49d3-b636-d6566f7a1192"},"vehicle_type_id":"4","last_reported":1784483290,"current_range_meters":27600,"station_id":"ce4bhgh2rcd13ifvqfb0","pricing_plan_id":"cebpf4jnsgd1na2vs0mg"},{"bike_id":"eecb3542-df06-442b-9c81-4a55f4cee8fb","system_id":"levelo_inurba_marseille","lat":43.29189,"lon":5.35789,"is_reserved":false,"is_disabled":false,"rental_uris":{"android":"levelo://app?vid=eecb3542-df06-442b-9c81-4a55f4cee8fb","ios":"levelo://app?vid=eecb3542-df06-442b-9c81-4a55f4cee8fb"},"vehicle_type_id":"4","last_reported":1784483290,"current_range_meters":36000,"station_id":"ce4bhb12rcd13ifvqel0","pricing_plan_id":"cebpf4jnsgd1na2vs0mg"},{"bike_id":"cb5c8d0d-3a42-4a31-a1ff-d52c023bad1e","system_id":"levelo_inurba_marseille","lat":43.27988,"lon":5.38253,"is_reserved":false,"is_disabled":false,"rental_uris":{"android":"levelo://app?vid=cb5c8d0d-3a42-4a31-a1ff-d52c023bad1e","ios":"levelo://app?vid=cb5c8d0d-3a42-4a31-a1ff-d52c023bad1e"},"vehicle_type_id":"4","last_reported":1784483290,"current_range_meters":38800,"station_id":"","pricing_plan_id":"cebpf4jnsgd1na2vs0mg"},{"bike_id":"cf903313-73c0-4e88-bf9f-a4e6394c71eb","system_id":"levelo_inurba_marseille","lat":43.28605,"lon":5.39878,"is_reserved":false,"is_disabled":false,"rental_uris":{"android":"levelo://app?vid=cf903313-73c0-4e88-bf9f-a4e6394c71eb","ios":"levelo://app?vid=cf903313-73c0-4e88-bf9f-a4e6394c71eb"},"vehicle_type_id":"4","last_reported":1784483290,"current_range_meters":8400,"station_id":"st_d4a7ka997mjs738ck50g","pricing_plan_id":"cebpf4jnsgd1na2vs0mg"},{"bike_id":"64aa4e21-f7e1-4a0a-bc72-0a4378b4c5e7","system_id":"levelo_inurba_marseille","lat":43.27375,"lon":5.36252,"is_reserved":false,"is_disabled":false,"rental_uris":{"android":"levelo://app?vid=64aa4e21-f7e1-4a0a-bc72-0a4378b4c5e7","ios":"levelo://app?vid=64aa4e21-f7e1-4a0a-bc72-0a4378b4c5e7"},"vehicle_type_id":"4","last_reported":1784483290,"current_range_meters":11600,"station_id":"ce4bhbh2rcd13ifvqeo0","pricing_plan_id":"cebpf4jnsgd1na2vs0mg"},{"bike_id":"834663dc-b688-4a9c-9405-405785a26871","system_id":"levelo_inurba_marseille","lat":43.30597,"lon":5.37221,"is_reserved":false,"is_disabled":false,"rental_uris":{"android":"levelo://app?vid=834663dc-b688-4a9c-9405-405785a26871","ios":"levelo://app?vid=834663dc-b688-4a9c-9405-405785a26871"},"vehicle_type_id":"4","last_reported":1784483290,"current_range_meters":20400,"station_id":"ce4bgqh2rcd13ifvqc4g","pricing_plan_id":"cebpf4jnsgd1na2vs0mg"},{"bike_id":"69785d44-5940-4d74-8237-76aca085ad02","system_id":"levelo_inurba_marseille","lat":43.23189,"lon":5.35547,"is_reserved":false,"is_disabled":true,"rental_uris":{"android":"levelo://app?vid=69785d44-5940-4d74-8237-76aca085ad02","ios":"levelo://app?vid=69785d44-5940-4d74-8237-76aca085ad02"},"vehicle_type_id":"4","last_reported":1784483290,"current_range_meters":0,"station_id":"ce4bhu92rcd13ifvqi70","pricing_plan_id":"cebpf4jnsgd1na2vs0mg"},{"bike_id":"5b8151a9-0906-420e-89ed-354d624d1e25","system_id":"levelo_inurba_marseille","lat":43.29031,"lon":5.38636,"is_reserved":false,"is_disabled":false,"rental_uris":{"android":"levelo://app?vid=5b8151a9-0906-420e-89ed-354d624d1e25","ios":"levelo://app?vid=5b8151a9-0906-420e-89ed-354d624d1e25"},"vehicle_type_id":"4","last_reported":1784483290,"current_range_meters":31200,"station_id":"ce4bh4p2rcd13ifvqe0g","pricing_plan_id":"cebpf4jnsgd1na2vs0mg"},{"bike_id":"7e62a1e7-e43e-4c6d-97fe-eb42228edf6d","system_id":"levelo_inurba_marseille","lat":43.26538,"lon":5.39373,"is_reserved":false,"is_disabled":false,"rental_uris":{"android":"levelo://app?vid=7e62a1e7-e43e-4c6d-97fe-eb42228edf6d","ios":"levelo://app?vid=7e62a1e7-e43e-4c6d-97fe-eb42228edf6d"},"vehicle_type_id":"4","last_reported":1784483290,"current_range_meters":7200,"station_id":"","pricing_plan_id":"cebpf4jnsgd1na2vs0mg"},{"bike_id":"32f1426e-4a2e-46e1-8b91-800ee9257883","system_id":"levelo_inurba_marseille","lat":43.26366,"lon":5.41081,"is_reserved":false,"is_disabled":false,"rental_uris":{"android":"levelo://app?vid=32f1426e-4a2e-46e1-8b91-800ee9257883","ios":"levelo://app?vid=32f1426e-4a2e-46e1-8b91-800ee9257883"},"vehicle_type_id":"4","last_reported":1784483290,"current_range_meters":30400,"station_id":"st_d4e5ca6na9uc73bfl5fg","pricing_plan_id":"cebpf4jnsgd1na2vs0mg"},{"bike_id":"7f598db7-7bdf-43ca-940a-3e1072b1241f","system_id":"levelo_inurba_marseille","lat":43.29225,"lon":5.36059,"is_reserved":false,"is_disabled":false,"rental_uris":{"android":"levelo://app?vid=7f598db7-7bdf-43ca-940a-3e1072b1241f","ios":"levelo://app?vid=7f598db7-7bdf-43ca-940a-3e1072b1241f"},"vehicle_type_id":"4","last_reported":1784483290,"current_range_meters":29600,"station_id":"","pricing_plan_id":"cebpf4jnsgd1na2vs0mg"},{"bike_id":"48b89ee5-e923-4e38-99f5-a3099d9d1497","system_id":"levelo_inurba_marseille","lat":43.28537,"lon":5.44084,"is_reserved":false,"is_disabled":false,"rental_uris":{"android":"levelo://app?vid=48b89ee5-e923-4e38-99f5-a3099d9d1497","ios":"levelo://app?vid=48b89ee5-e923-4e38-99f5-a3099d9d1497"},"vehicle_type_id":"4","last_reported":1784483290,"current_range_meters":3200,"station_id":"st_d3j3df2ikq2c7380ej80","pricing_plan_id":"cebpf4jnsgd1na2vs0mg"},{"bike_id":"24cd3240-e518-4e87-93f2-0d78c0915c9d","system_id":"levelo_inurba_marseille","lat":43.23054,"lon":5.35494,"is_reserved":false,"is_disabled":false,"rental_uris":{"android":"levelo://app?vid=24cd3240-e518-4e87-93f2-0d78c0915c9d","ios":"levelo://app?vid=24cd3240-e518-4e87-93f2-0d78c0915c9d"},"vehicle_type_id":"4","last_reported":1784483290,"current_range_meters":14000,"station_id":"cpo3342slgdg3j2ifvpg","pricing_plan_id":"cebpf4jnsgd1na2vs0mg"},{"bike_id":"81587832-75ed-49cd-91c3-f57f9b8cec45","system_id":"levelo_inurba_marseille","lat":43.29039,"lon":5.35881,"is_reserved":false,"is_disabled":true,"rental_uris":{"android":"levelo://app?vid=81587832-75ed-49cd-91c3-f57f9b8cec45","ios":"levelo://app?vid=81587832-75ed-49cd-91c3-f57f9b8cec45"},"vehicle_type_id":"4","last_reported":1784483290,"current_range_meters":39200,"station_id":"ce4bha92rcd13ifvqeg0","pricing_plan_id":"cebpf4jnsgd1na2vs0mg"},{"bike_id":"bf993a1d-6573-43fa-a3fa-2f3288b1a5c0","system_id":"levelo_inurba_marseille","lat":43.29257,"lon":5.38431,"is_reserved":false,"is_disabled":false,"rental_uris":{"android":"levelo://app?vid=bf993a1d-6573-43fa-a3fa-2f3288b1a5c0","ios":"levelo://app?vid=bf993a1d-6573-43fa-a3fa-2f3288b1a5c0"},"vehicle_type_id":"4","last_reported":1784483290,"current_range_meters":39200,"station_id":"ce4bh692rcd13ifvqea0","pricing_plan_id":"cebpf4jnsgd1na2vs0mg"},{"bike_id":"667cf3c4-5fbb-4a5c-b31d-badb56365dd1","system_id":"levelo_inurba_marseille","lat":43.30126,"lon":5.37437,"is_reserved":false,"is_disabled":false,"rental_uris":{"android":"levelo://app?vid=667cf3c4-5fbb-4a5c-b31d-badb56365dd1","ios":"levelo://app?vid=667cf3c4-5fbb-4a5c-b31d-badb56365dd1"},"vehicle_type_id":"4","last_reported":1784483290,"current_range_meters":8800,"station_id":"ce4bgs92rcd13ifvqcc0","pricing_plan_id":"cebpf4jnsgd1na2vs0mg"},{"bike_id":"3a0d4a93-cd14-4253-907e-beacdb1fa887","system_id":"levelo_inurba_marseille","lat":43.2761,"lon":5.35844,"is_reserved":false,"is_disabled":false,"rental_uris":{"android":"levelo://app?vid=3a0d4a93-cd14-4253-907e-beacdb1fa887","ios":"levelo://app?vid=3a0d4a93-cd14-4253-907e-beacdb1fa887"},"vehicle_type_id":"4","last_reported":1784483290,"current_range_meters":16800,"station_id":"","pricing_plan_id":"cebpf4jnsgd1na2vs0mg"},{"bike_id":"8af0df7e-cc30-46ec-af42-8ca23109e3a3","system_id":"levelo_inurba_marseille","lat":43.29478,"lon":5.43312,"is_reserved":false,"is_disabled":false,"rental_uris":{"android":"levelo://app?vid=8af0df7e-cc30-46ec-af42-8ca23109e3a3","ios":"levelo://app?vid=8af0df7e-cc30-46ec-af42-8ca23109e3a3"},"vehicle_type_id":"4","last_reported":1784483290,"current_range_meters":27200,"station_id":"st_d3j5ugp08ojc73fj9d10","pricing_plan_id":"cebpf4jnsgd1na2vs0mg"},{"bike_id":"e0b96ede-7743-41d8-824b-0110d15513b3","system_id":"levelo_inurba_marseille","lat":43.29229,"lon":5.36077,"is_reserved":false,"is_disabled":false,"rental_uris":{"android":"levelo://app?vid=e0b96ede-7743-41d8-824b-0110d15513b3","ios":"levelo://app?vid=e0b96ede-7743-41d8-824b-0110d15513b3"},"vehicle_type_id":"4","last_reported":1784483290,"current_range_meters":20000,"station_id":"","pricing_plan_id":"cebpf4jnsgd1na2vs0mg"},{"bike_id":"01bc0c2a-1ae2-43b4-a041-6e8cdae512b6","system_id":"levelo_inurba_marseille","lat":43.29836,"lon":5.36278,"is_reserved":false,"is_disabled":false,"rental_uris":{"android":"levelo://app?vid=01bc0c2a-1ae2-43b4-a041-6e8cdae512b6","ios":"levelo://app?vid=01bc0c2a-1ae2-43b4-a041-6e8cdae512b6"},"vehicle_type_id":"4","last_reported":1784483290,"current_range_meters":16000,"station_id":"ce4bgpp2rcd13ifvqc3g","pricing_plan_id":"cebpf4jnsgd1na2vs0mg"},{"bike_id":"41b9f830-c43f-422c-8925-b4ff2562a971","system_id":"levelo_inurba_marseille","lat":43.29264,"lon":5.38431,"is_reserved":false,"is_disabled":false,"rental_uris":{"android":"levelo://app?vid=41b9f830-c43f-422c-8925-b4ff2562a971","ios":"levelo://app?vid=41b9f830-c43f-422c-8925-b4ff2562a971"},"vehicle_type_id":"4","last_reported":1784483290,"current_range_meters":24000,"station_id":"ce4bh692rcd13ifvqea0","pricing_plan_id":"cebpf4jnsgd1na2vs0mg"},{"bike_id":"3a1e76c2-ccc6-4fe0-8b89-6a9fe53a660d","system_id":"levelo_inurba_marseille","lat":43.25522,"lon":5.37651,"is_reserved":false,"is_disabled":true,"rental_uris":{"android":"levelo://app?vid=3a1e76c2-ccc6-4fe0-8b89-6a9fe53a660d","ios":"levelo://app?vid=3a1e76c2-ccc6-4fe0-8b89-6a9fe53a660d"},"vehicle_type_id":"4","last_reported":1784483290,"current_range_meters":800,"station_id":"ce4bhh12rcd13ifvqff0","pricing_plan_id":"cebpf4jnsgd1na2vs0mg"},{"bike_id":"e18e61c0-7ccf-464d-9753-cfbdcb7c7074","system_id":"levelo_inurba_marseille","lat":43.27994,"lon":5.38696,"is_reserved":false,"is_disabled":false,"rental_uris":{"android":"levelo://app?vid=e18e61c0-7ccf-464d-9753-cfbdcb7c7074","ios":"levelo://app?vid=e18e61c0-7ccf-464d-9753-cfbdcb7c7074"},"vehicle_type_id":"4","last_reported":1784483290,"current_range_meters":32400,"station_id":"ce4bhg12rcd13ifvqf80","pricing_plan_id":"cebpf4jnsgd1na2vs0mg"},{"bike_id":"002f0f77-2509-42be-9859-c934948b6004","system_id":"levelo_inurba_marseille","lat":43.32354,"lon":5.36754,"is_reserved":false,"is_disabled":false,"rental_uris":{"android":"levelo://app?vid=002f0f77-2509-42be-9859-c934948b6004","ios":"levelo://app?vid=002f0f77-2509-42be-9859-c934948b6004"},"vehicle_type_id":"4","last_reported":1784483290,"current_range_meters":10800,"station_id":"ce4bhsh2rcd13ifvqi2g","pricing_plan_id":"cebpf4jnsgd1na2vs0mg"},{"bike_id":"69de49a0-b097-429e-9a31-cc9657d3b31e","system_id":"levelo_inurba_marseille","lat":43.24165,"lon":5.36389,"is_reserved":false,"is_disabled":false,"rental_uris":{"android":"levelo://app?vid=69de49a0-b097-429e-9a31-cc9657d3b31e","ios":"levelo://app?vid=69de49a0-b097-429e-9a31-cc9657d3b31e"},"vehicle_type_id":"4","last_reported":1784483290,"current_range_meters":13600,"station_id":"cpo36qri1sfpv3e86is0","pricing_plan_id":"cebpf4jnsgd1na2vs0mg"},{"bike_id":"092620de-3229-49c7-bf01-0e2c75aae87c","system_id":"levelo_inurba_marseille","lat":43.29025,"lon":5.35915,"is_reserved":false,"is_disabled":false,"rental_uris":{"android":"levelo://app?vid=092620de-3229-49c7-bf01-0e2c75aae87c","ios":"levelo://app?vid=092620de-3229-49c7-bf01-0e2c75aae87c"},"vehicle_type_id":"4","last_reported":1784483290,"current_range_meters":39200,"station_id":"ce4bha92rcd13ifvqeg0","pricing_plan_id":"cebpf4jnsgd1na2vs0mg"},{"bike_id":"2f02e79b-05f8-40cd-832b-9b9b78fb1551","system_id":"levelo_inurba_marseille","lat":43.292685,"lon":5.384394,"is_reserved":false,"is_disabled":false,"rental_uris":{"android":"levelo://app?vid=2f02e79b-05f8-40cd-832b-9b9b78fb1551","ios":"levelo://app?vid=2f02e79b-05f8-40cd-832b-9b9b78fb1551"},"vehicle_type_id":"4","last_reported":1784483290,"current_range_meters":4000,"station_id":"ce4bh692rcd13ifvqea0","pricing_plan_id":"cebpf4jnsgd1na2vs0mg"},{"bike_id":"258c79c8-115b-43a8-9763-ee7a5585ee7a","system_id":"levelo_inurba_marseille","lat":43.23203,"lon":5.35532,"is_reserved":false,"is_disabled":false,"rental_uris":{"android":"levelo://app?vid=258c79c8-115b-43a8-9763-ee7a5585ee7a","ios":"levelo://app?vid=258c79c8-115b-43a8-9763-ee7a5585ee7a"},"vehicle_type_id":"4","last_reported":1784483290,"current_range_meters":33600,"station_id":"ce4bhu92rcd13ifvqi70","pricing_plan_id":"cebpf4jnsgd1na2vs0mg"},{"bike_id":"c3a9828e-25b7-44e5-94df-e64a333e09b0","system_id":"levelo_inurba_marseille","lat":43.31504,"lon":5.37223,"is_reserved":false,"is_disabled":false,"rental_uris":{"android":"levelo://app?vid=c3a9828e-25b7-44e5-94df-e64a333e09b0","ios":"levelo://app?vid=c3a9828e-25b7-44e5-94df-e64a333e09b0"},"vehicle_type_id":"4","last_reported":1784483290,"current_range_meters":38800,"station_id":"","pricing_plan_id":"cebpf4jnsgd1na2vs0mg"},{"bike_id":"874b8daf-fd28-4b0c-ad41-540b837e3d96","system_id":"levelo_inurba_marseille","lat":43.31714,"lon":5.37757,"is_reserved":false,"is_disabled":false,"rental_uris":{"android":"levelo://app?vid=874b8daf-fd28-4b0c-ad41-540b837e3d96","ios":"levelo://app?vid=874b8daf-fd28-4b0c-ad41-540b837e3d96"},"vehicle_type_id":"4","last_reported":1784483290,"current_range_meters":30400,"station_id":"ce4bgth2rcd13ifvqch0","pricing_plan_id":"cebpf4jnsgd1na2vs0mg"},{"bike_id":"a7c42e62-f2d7-4f0f-96f4-b9d2418cea29","system_id":"levelo_inurba_marseille","lat":43.29621,"lon":5.40593,"is_reserved":false,"is_disabled":true,"rental_uris":{"android":"levelo://app?vid=a7c42e62-f2d7-4f0f-96f4-b9d2418cea29","ios":"levelo://app?vid=a7c42e62-f2d7-4f0f-96f4-b9d2418cea29"},"vehicle_type_id":"4","last_reported":1784483290,"current_range_meters":16400,"station_id":"ce4bh0h2rcd13ifvqd60","pricing_plan_id":"cebpf4jnsgd1na2vs0mg"},{"bike_id":"6b28d726-da17-43d5-bcda-effbbb66d552","system_id":"levelo_inurba_marseille","lat":43.26214,"lon":5.4166,"is_reserved":false,"is_disabled":false,"rental_uris":{"android":"levelo://app?vid=6b28d726-da17-43d5-bcda-effbbb66d552","ios":"levelo://app?vid=6b28d726-da17-43d5-bcda-effbbb66d552"},"vehicle_type_id":"4","last_reported":1784483290,"current_range_meters":28000,"station_id":"","pricing_plan_id":"cebpf4jnsgd1na2vs0mg"},{"bike_id":"411bd941-eb8a-4aaf-9c81-81af24914906","system_id":"levelo_inurba_marseille","lat":43.30148,"lon":5.39873,"is_reserved":false,"is_disabled":false,"rental_uris":{"android":"levelo://app?vid=411bd941-eb8a-4aaf-9c81-81af24914906","ios":"levelo://app?vid=411bd941-eb8a-4aaf-9c81-81af24914906"},"vehicle_type_id":"4","last_reported":1784483290,"current_range_meters":39200,"station_id":"ce4bh0h2rcd13ifvqd40","pricing_plan_id":"cebpf4jnsgd1na2vs0mg"},{"bike_id":"4f29de8e-41d7-4e1a-b83f-55ce32919a4b","system_id":"levelo_inurba_marseille","lat":43.29031,"lon":5.35892,"is_reserved":false,"is_disabled":false,"rental_uris":{"android":"levelo://app?vid=4f29de8e-41d7-4e1a-b83f-55ce32919a4b","ios":"levelo://app?vid=4f29de8e-41d7-4e1a-b83f-55ce32919a4b"},"vehicle_type_id":"4","last_reported":1784483290,"current_range_meters":19600,"station_id":"ce4bha92rcd13ifvqeg0","pricing_plan_id":"cebpf4jnsgd1na2vs0mg"},{"bike_id":"0f6ff1da-c9e3-42e7-a8d3-8280d1c0addc","system_id":"levelo_inurba_marseille","lat":43.33718,"lon":5.37415,"is_reserved":false,"is_disabled":false,"rental_uris":{"android":"levelo://app?vid=0f6ff1da-c9e3-42e7-a8d3-8280d1c0addc","ios":"levelo://app?vid=0f6ff1da-c9e3-42e7-a8d3-8280d1c0addc"},"vehicle_type_id":"4","last_reported":1784483290,"current_range_meters":27600,"station_id":"","pricing_plan_id":"cebpf4jnsgd1na2vs0mg"},{"bike_id":"1e628dec-3141-48e0-b510-1c285ab03f4c","system_id":"levelo_inurba_marseille","lat":43.26375,"lon":5.41093,"is_reserved":false,"is_disabled":false,"rental_uris":{"android":"levelo://app?vid=1e628dec-3141-48e0-b510-1c285ab03f4c","ios":"levelo://app?vid=1e628dec-3141-48e0-b510-1c285ab03f4c"},"vehicle_type_id":"4","last_reported":1784483290,"current_range_meters":35600,"station_id":"st_d4e5ca6na9uc73bfl5fg","pricing_plan_id":"cebpf4jnsgd1na2vs0mg"},{"bike_id":"8337f5b4-2806-4bc0-9f71-af183adb5db8","system_id":"levelo_inurba_marseille","lat":43.23822,"lon":5.43512,"is_reserved":false,"is_disabled":false,"rental_uris":{"android":"levelo://app?vid=8337f5b4-2806-4bc0-9f71-af183adb5db8","ios":"levelo://app?vid=8337f5b4-2806-4bc0-9f71-af183adb5db8"},"vehicle_type_id":"4","last_reported":1784483290,"current_range_meters":3200,"station_id":"","pricing_plan_id":"cebpf4jnsgd1na2vs0mg"},{"bike_id":"0d69c6ad-1581-485b-8bcd-d541c4976ef8","system_id":"levelo_inurba_marseille","lat":43.31888,"lon":5.36834,"is_reserved":false,"is_disabled":false,"rental_uris":{"android":"levelo://app?vid=0d69c6ad-1581-485b-8bcd-d541c4976ef8","ios":"levelo://app?vid=0d69c6ad-1581-485b-8bcd-d541c4976ef8"},"vehicle_type_id":"4","last_reported":1784483290,"current_range_meters":8400,"station_id":"st_d6o2h0d0559c73evc1b0","pricing_plan_id":"cebpf4jnsgd1na2vs0mg"},{"bike_id":"4de504f2-bbbf-4fb3-8447-f251a88f156d","system_id":"levelo_inurba_marseille","lat":43.29221,"lon":5.36039,"is_reserved":false,"is_disabled":false,"rental_uris":{"android":"levelo://app?vid=4de504f2-bbbf-4fb3-8447-f251a88f156d","ios":"levelo://app?vid=4de504f2-bbbf-4fb3-8447-f251a88f156d"},"vehicle_type_id":"4","last_reported":1784483290,"current_range_meters":38000,"station_id":"","pricing_plan_id":"cebpf4jnsgd1na2vs0mg"},{"bike_id":"5df40215-b8e5-4bc3-a294-eec636822919","system_id":"levelo_inurba_marseille","lat":43.2903,"lon":5.3756,"is_reserved":false,"is_disabled":false,"rental_uris":{"android":"levelo://app?vid=5df40215-b8e5-4bc3-a294-eec636822919","ios":"levelo://app?vid=5df40215-b8e5-4bc3-a294-eec636822919"},"vehicle_type_id":"4","last_reported":1784483290,"current_range_meters":32400,"station_id":"ce4bh692rcd13ifvqe90","pricing_plan_id":"cebpf4jnsgd1na2vs0mg"},{"bike_id":"ee06a958-7f2b-4eb7-a6b1-2d3112db17a0","system_id":"levelo_inurba_marseille","lat":43.31121,"lon":5.37787,"is_reserved":false,"is_disabled":false,"rental_uris":{"android":"levelo://app?vid=ee06a958-7f2b-4eb7-a6b1-2d3112db17a0","ios":"levelo://app?vid=ee06a958-7f2b-4eb7-a6b1-2d3112db17a0"},"vehicle_type_id":"4","last_reported":1784483290,"current_range_meters":37600,"station_id":"ce4bgt92rcd13ifvqcg0","pricing_plan_id":"cebpf4jnsgd1na2vs0mg"},{"bike_id":"9772ae11-9228-4434-979a-bcf5d3518e5e","system_id":"levelo_inurba_marseille","lat":43.23219,"lon":5.36569,"is_reserved":false,"is_disabled":false,"rental_uris":{"android":"levelo://app?vid=9772ae11-9228-4434-979a-bcf5d3518e5e","ios":"levelo://app?vid=9772ae11-9228-4434-979a-bcf5d3518e5e"},"vehicle_type_id":"4","last_reported":1784483290,"current_range_meters":33200,"station_id":"","pricing_plan_id":"cebpf4jnsgd1na2vs0mg"},{"bike_id":"50018d60-5cee-4e25-806f-789978a424f4","system_id":"levelo_inurba_marseille","lat":43.23254,"lon":5.35403,"is_reserved":false,"is_disabled":false,"rental_uris":{"android":"levelo://app?vid=50018d60-5cee-4e25-806f-789978a424f4","ios":"levelo://app?vid=50018d60-5cee-4e25-806f-789978a424f4"},"vehicle_type_id":"4","last_reported":1784483290,"current_range_meters":30000,"station_id":"","pricing_plan_id":"cebpf4jnsgd1na2vs0mg"},{"bike_id":"0caa8559-3e92-4f0d-9892-d3c33fb00528","system_id":"levelo_inurba_marseille","lat":43.26024,"lon":5.37549,"is_reserved":false,"is_disabled":false,"rental_uris":{"android":"levelo://app?vid=0caa8559-3e92-4f0d-9892-d3c33fb00528","ios":"levelo://app?vid=0caa8559-3e92-4f0d-9892-d3c33fb00528"},"vehicle_type_id":"4","last_reported":1784483290,"current_range_meters":38000,"station_id":"ce4bhgh2rcd13ifvqfa0","pricing_plan_id":"cebpf4jnsgd1na2vs0mg"},{"bike_id":"942148f9-90f2-4171-8f05-98ba0ca85bcb","system_id":"levelo_inurba_marseille","lat":43.28464,"lon":5.48397,"is_reserved":false,"is_disabled":false,"rental_uris":{"android":"levelo://app?vid=942148f9-90f2-4171-8f05-98ba0ca85bcb","ios":"levelo://app?vid=942148f9-90f2-4171-8f05-98ba0ca85bcb"},"vehicle_type_id":"4","last_reported":1784483290,"current_range_meters":36800,"station_id":"st_d3svhcjqgbts73a3dn0g","pricing_plan_id":"cebpf4jnsgd1na2vs0mg"},{"bike_id":"97d120bb-ef10-49a9-98fd-ea2eae127c57","system_id":"levelo_inurba_marseille","lat":43.2318,"lon":5.39972,"is_reserved":false,"is_disabled":false,"rental_uris":{"android":"levelo://app?vid=97d120bb-ef10-49a9-98fd-ea2eae127c57","ios":"levelo://app?vid=97d120bb-ef10-49a9-98fd-ea2eae127c57"},"vehicle_type_id":"4","last_reported":1784483290,"current_range_meters":38800,"station_id":"ce4bhn12rcd13ifvqgqg","pricing_plan_id":"cebpf4jnsgd1na2vs0mg"},{"bike_id":"63dd0d91-bc86-4a1c-b85c-5729b2265037","system_id":"levelo_inurba_marseille","lat":43.26848,"lon":5.39365,"is_reserved":false,"is_disabled":false,"rental_uris":{"android":"levelo://app?vid=63dd0d91-bc86-4a1c-b85c-5729b2265037","ios":"levelo://app?vid=63dd0d91-bc86-4a1c-b85c-5729b2265037"},"vehicle_type_id":"4","last_reported":1784483290,"current_range_meters":19200,"station_id":"","pricing_plan_id":"cebpf4jnsgd1na2vs0mg"},{"bike_id":"fa288643-b967-4c77-8362-0941ea5afa2f","system_id":"levelo_inurba_marseille","lat":43.23186,"lon":5.35538,"is_reserved":false,"is_disabled":false,"rental_uris":{"android":"levelo://app?vid=fa288643-b967-4c77-8362-0941ea5afa2f","ios":"levelo://app?vid=fa288643-b967-4c77-8362-0941ea5afa2f"},"vehicle_type_id":"4","last_reported":1784483290,"current_range_meters":39200,"station_id":"ce4bhu92rcd13ifvqi70","pricing_plan_id":"cebpf4jnsgd1na2vs0mg"},{"bike_id":"2a93def1-9840-4751-b465-b53bb0ce6123","system_id":"levelo_inurba_marseille","lat":43.22563,"lon":5.41624,"is_reserved":false,"is_disabled":false,"rental_uris":{"android":"levelo://app?vid=2a93def1-9840-4751-b465-b53bb0ce6123","ios":"levelo://app?vid=2a93def1-9840-4751-b465-b53bb0ce6123"},"vehicle_type_id":"4","last_reported":1784483290,"current_range_meters":6400,"station_id":"st_d2o4gvlbi1j2169b742g","pricing_plan_id":"cebpf4jnsgd1na2vs0mg"},{"bike_id":"f40f4ba5-87ce-4797-88c4-03b4eb30e2be","system_id":"levelo_inurba_marseille","lat":43.26543,"lon":5.37288,"is_reserved":false,"is_disabled":false,"rental_uris":{"android":"levelo://app?vid=f40f4ba5-87ce-4797-88c4-03b4eb30e2be","ios":"levelo://app?vid=f40f4ba5-87ce-4797-88c4-03b4eb30e2be"},"vehicle_type_id":"4","last_reported":1784483290,"current_range_meters":38800,"station_id":"ce4bhg12rcd13ifvqf70","pricing_plan_id":"cebpf4jnsgd1na2vs0mg"},{"bike_id":"d2b08bfe-8d05-4397-91e9-fe938a2b845f","system_id":"levelo_inurba_marseille","lat":43.27491,"lon":5.42447,"is_reserved":false,"is_disabled":false,"rental_uris":{"android":"levelo://app?vid=d2b08bfe-8d05-4397-91e9-fe938a2b845f","ios":"levelo://app?vid=d2b08bfe-8d05-4397-91e9-fe938a2b845f"},"vehicle_type_id":"4","last_reported":1784483290,"current_range_meters":28000,"station_id":"ce4bhn92rcd13ifvqgrg","pricing_plan_id":"cebpf4jnsgd1na2vs0mg"},{"bike_id":"03fcd601-c201-4cc6-a5f6-b2a687e2f004","system_id":"levelo_inurba_marseille","lat":43.29184,"lon":5.36318,"is_reserved":false,"is_disabled":false,"rental_uris":{"android":"levelo://app?vid=03fcd601-c201-4cc6-a5f6-b2a687e2f004","ios":"levelo://app?vid=03fcd601-c201-4cc6-a5f6-b2a687e2f004"},"vehicle_type_id":"4","last_reported":1784483290,"current_range_meters":26800,"station_id":"","pricing_plan_id":"cebpf4jnsgd1na2vs0mg"},{"bike_id":"4f242086-589c-406d-bdd8-41a82ced5a8d","system_id":"levelo_inurba_marseille","lat":43.231467,"lon":5.436974,"is_reserved":false,"is_disabled":false,"rental_uris":{"android":"levelo://app?vid=4f242086-589c-406d-bdd8-41a82ced5a8d","ios":"levelo://app?vid=4f242086-589c-406d-bdd8-41a82ced5a8d"},"vehicle_type_id":"4","last_reported":1784483290,"current_range_meters":21600,"station_id":"ce4bhmp2rcd13ifvqgog","pricing_plan_id":"cebpf4jnsgd1na2vs0mg"},{"bike_id":"e97d923d-d560-461e-94e7-6b746b3d8d92","system_id":"levelo_inurba_marseille","lat":43.32099,"lon":5.36778,"is_reserved":false,"is_disabled":false,"rental_uris":{"android":"levelo://app?vid=e97d923d-d560-461e-94e7-6b746b3d8d92","ios":"levelo://app?vid=e97d923d-d560-461e-94e7-6b746b3d8d92"},"vehicle_type_id":"4","last_reported":1784483290,"current_range_meters":22400,"station_id":"ce4bhrh2rcd13ifvqhug","pricing_plan_id":"cebpf4jnsgd1na2vs0mg"},{"bike_id":"b7aa1f7e-f948-4c85-8ebb-7af17d93841d","system_id":"levelo_inurba_marseille","lat":43.25226,"lon":5.4008,"is_reserved":false,"is_disabled":false,"rental_uris":{"android":"levelo://app?vid=b7aa1f7e-f948-4c85-8ebb-7af17d93841d","ios":"levelo://app?vid=b7aa1f7e-f948-4c85-8ebb-7af17d93841d"},"vehicle_type_id":"4","last_reported":1784483290,"current_range_meters":38000,"station_id":"","pricing_plan_id":"cebpf4jnsgd1na2vs0mg"},{"bike_id":"d56488c1-b78a-40ca-a296-b51941bf34bf","system_id":"levelo_inurba_marseille","lat":43.28457,"lon":5.3589,"is_reserved":false,"is_disabled":false,"rental_uris":{"android":"levelo://app?vid=d56488c1-b78a-40ca-a296-b51941bf34bf","ios":"levelo://app?vid=d56488c1-b78a-40ca-a296-b51941bf34bf"},"vehicle_type_id":"4","last_reported":1784483290,"current_range_meters":27600,"station_id":"ce4bhah2rcd13ifvqei0","pricing_plan_id":"cebpf4jnsgd1na2vs0mg"},{"bike_id":"a73f2824-04af-4eb1-8696-07548fb915c6","system_id":"levelo_inurba_marseille","lat":43.27066,"lon":5.42277,"is_reserved":false,"is_disabled":false,"rental_uris":{"android":"levelo://app?vid=a73f2824-04af-4eb1-8696-07548fb915c6","ios":"levelo://app?vid=a73f2824-04af-4eb1-8696-07548fb915c6"},"vehicle_type_id":"4","last_reported":1784483290,"current_range_meters":32400,"station_id":"ce4bhk92rcd13ifvqgb0","pricing_plan_id":"cebpf4jnsgd1na2vs0mg"},{"bike_id":"b59111d6-dbad-43ad-98c3-81e51339c76b","system_id":"levelo_inurba_marseille","lat":43.27169,"lon":5.40985,"is_reserved":false,"is_disabled":false,"rental_uris":{"android":"levelo://app?vid=b59111d6-dbad-43ad-98c3-81e51339c76b","ios":"levelo://app?vid=b59111d6-dbad-43ad-98c3-81e51339c76b"},"vehicle_type_id":"4","last_reported":1784483290,"current_range_meters":13600,"station_id":"ce4bhl12rcd13ifvqgf0","pricing_plan_id":"cebpf4jnsgd1na2vs0mg"},{"bike_id":"e845caaf-6f62-4afe-898b-175d7eec4dd5","system_id":"levelo_inurba_marseille","lat":43.29036,"lon":5.35906,"is_reserved":false,"is_disabled":false,"rental_uris":{"android":"levelo://app?vid=e845caaf-6f62-4afe-898b-175d7eec4dd5","ios":"levelo://app?vid=e845caaf-6f62-4afe-898b-175d7eec4dd5"},"vehicle_type_id":"4","last_reported":1784483290,"current_range_meters":6800,"station_id":"ce4bha92rcd13ifvqeg0","pricing_plan_id":"cebpf4jnsgd1na2vs0mg"},{"bike_id":"160b0153-3c70-4a0e-b0da-4ad40e9a3569","system_id":"levelo_inurba_marseille","lat":43.23375,"lon":5.41221,"is_reserved":false,"is_disabled":false,"rental_uris":{"android":"levelo://app?vid=160b0153-3c70-4a0e-b0da-4ad40e9a3569","ios":"levelo://app?vid=160b0153-3c70-4a0e-b0da-4ad40e9a3569"},"vehicle_type_id":"4","last_reported":1784483290,"current_range_meters":36000,"station_id":"st_d75pvndhf9lc73cqq3eg","pricing_plan_id":"cebpf4jnsgd1na2vs0mg"},{"bike_id":"de8175da-832f-4ca9-9a6c-0a4795adf223","system_id":"levelo_inurba_marseille","lat":43.27956,"lon":5.38724,"is_reserved":false,"is_disabled":false,"rental_uris":{"android":"levelo://app?vid=de8175da-832f-4ca9-9a6c-0a4795adf223","ios":"levelo://app?vid=de8175da-832f-4ca9-9a6c-0a4795adf223"},"vehicle_type_id":"4","last_reported":1784483290,"current_range_meters":29600,"station_id":"ce4bhg12rcd13ifvqf80","pricing_plan_id":"cebpf4jnsgd1na2vs0mg"},{"bike_id":"2fdd6e12-4053-40c7-8a9c-7c197c3b2ef6","system_id":"levelo_inurba_marseille","lat":43.32364,"lon":5.38886,"is_reserved":false,"is_disabled":false,"rental_uris":{"android":"levelo://app?vid=2fdd6e12-4053-40c7-8a9c-7c197c3b2ef6","ios":"levelo://app?vid=2fdd6e12-4053-40c7-8a9c-7c197c3b2ef6"},"vehicle_type_id":"4","last_reported":1784483290,"current_range_meters":24400,"station_id":"ce4bhqp2rcd13ifvqhog","pricing_plan_id":"cebpf4jnsgd1na2vs0mg"},{"bike_id":"3d4aa178-44db-467e-a1bd-4fcdf991f22c","system_id":"levelo_inurba_marseille","lat":43.31711,"lon":5.43709,"is_reserved":false,"is_disabled":false,"rental_uris":{"android":"levelo://app?vid=3d4aa178-44db-467e-a1bd-4fcdf991f22c","ios":"levelo://app?vid=3d4aa178-44db-467e-a1bd-4fcdf991f22c"},"vehicle_type_id":"4","last_reported":1784483290,"current_range_meters":40000,"station_id":"ce4bhp92rcd13ifvqhcg","pricing_plan_id":"cebpf4jnsgd1na2vs0mg"},{"bike_id":"78b472ae-7ca1-438d-a65f-f93d06645001","system_id":"levelo_inurba_marseille","lat":43.29218,"lon":5.36027,"is_reserved":false,"is_disabled":true,"rental_uris":{"android":"levelo://app?vid=78b472ae-7ca1-438d-a65f-f93d06645001","ios":"levelo://app?vid=78b472ae-7ca1-438d-a65f-f93d06645001"},"vehicle_type_id":"4","last_reported":1784483290,"current_range_meters":37600,"station_id":"","pricing_plan_id":"cebpf4jnsgd1na2vs0mg"},{"bike_id":"b92fa45f-7ca6-44ff-a370-2fb1bf869462","system_id":"levelo_inurba_marseille","lat":43.29036,"lon":5.37569,"is_reserved":false,"is_disabled":false,"rental_uris":{"android":"levelo://app?vid=b92fa45f-7ca6-44ff-a370-2fb1bf869462","ios":"levelo://app?vid=b92fa45f-7ca6-44ff-a370-2fb1bf869462"},"vehicle_type_id":"4","last_reported":1784483290,"current_range_meters":39200,"station_id":"ce4bh692rcd13ifvqe90","pricing_plan_id":"cebpf4jnsgd1na2vs0mg"},{"bike_id":"0c1d97c5-1fe1-4267-a485-4e8f52e392a9","system_id":"levelo_inurba_marseille","lat":43.30139,"lon":5.38059,"is_reserved":false,"is_disabled":false,"rental_uris":{"android":"levelo://app?vid=0c1d97c5-1fe1-4267-a485-4e8f52e392a9","ios":"levelo://app?vid=0c1d97c5-1fe1-4267-a485-4e8f52e392a9"},"vehicle_type_id":"4","last_reported":1784483290,"current_range_meters":10000,"station_id":"ce4bgjp2rcd13ifvqbh0","pricing_plan_id":"cebpf4jnsgd1na2vs0mg"},{"bike_id":"f31e71a2-8328-4ff9-9288-61f910dee152","system_id":"levelo_inurba_marseille","lat":43.26499,"lon":5.3952,"is_reserved":false,"is_disabled":false,"rental_uris":{"android":"levelo://app?vid=f31e71a2-8328-4ff9-9288-61f910dee152","ios":"levelo://app?vid=f31e71a2-8328-4ff9-9288-61f910dee152"},"vehicle_type_id":"4","last_reported":1784483290,"current_range_meters":36000,"station_id":"ce4bhi12rcd13ifvqfq0","pricing_plan_id":"cebpf4jnsgd1na2vs0mg"},{"bike_id":"348caf77-82d6-4562-a72e-c7becae0b0ae","system_id":"levelo_inurba_marseille","lat":43.230549,"lon":5.354901,"is_reserved":false,"is_disabled":false,"rental_uris":{"android":"levelo://app?vid=348caf77-82d6-4562-a72e-c7becae0b0ae","ios":"levelo://app?vid=348caf77-82d6-4562-a72e-c7becae0b0ae"},"vehicle_type_id":"4","last_reported":1784483290,"current_range_meters":36800,"station_id":"cpo3342slgdg3j2ifvpg","pricing_plan_id":"cebpf4jnsgd1na2vs0mg"},{"bike_id":"88b3333d-68df-42df-8ef7-a9a4f08abce5","system_id":"levelo_inurba_marseille","lat":43.22905,"lon":5.41509,"is_reserved":false,"is_disabled":false,"rental_uris":{"android":"levelo://app?vid=88b3333d-68df-42df-8ef7-a9a4f08abce5","ios":"levelo://app?vid=88b3333d-68df-42df-8ef7-a9a4f08abce5"},"vehicle_type_id":"4","last_reported":1784483290,"current_range_meters":17600,"station_id":"","pricing_plan_id":"cebpf4jnsgd1na2vs0mg"},{"bike_id":"035222c8-2604-4663-bc5d-7c9f7e488ee9","system_id":"levelo_inurba_marseille","lat":43.25551,"lon":5.37632,"is_reserved":false,"is_disabled":true,"rental_uris":{"android":"levelo://app?vid=035222c8-2604-4663-bc5d-7c9f7e488ee9","ios":"levelo://app?vid=035222c8-2604-4663-bc5d-7c9f7e488ee9"},"vehicle_type_id":"4","last_reported":1784483290,"current_range_meters":0,"station_id":"","pricing_plan_id":"cebpf4jnsgd1na2vs0mg"},{"bike_id":"50cc7a1f-02fb-419d-8d81-6e9140eed09a","system_id":"levelo_inurba_marseille","lat":43.26204,"lon":5.37453,"is_reserved":false,"is_disabled":false,"rental_uris":{"android":"levelo://app?vid=50cc7a1f-02fb-419d-8d81-6e9140eed09a","ios":"levelo://app?vid=50cc7a1f-02fb-419d-8d81-6e9140eed09a"},"vehicle_type_id":"4","last_reported":1784483290,"current_range_meters":36000,"station_id":"ce4bhgp2rcd13ifvqfc0","pricing_plan_id":"cebpf4jnsgd1na2vs0mg"},{"bike_id":"67cc13ec-7983-4e02-8476-a12d7f7e598e","system_id":"levelo_inurba_marseille","lat":43.26692,"lon":5.3826,"is_reserved":false,"is_disabled":false,"rental_uris":{"android":"levelo://app?vid=67cc13ec-7983-4e02-8476-a12d7f7e598e","ios":"levelo://app?vid=67cc13ec-7983-4e02-8476-a12d7f7e598e"},"vehicle_type_id":"4","last_reported":1784483290,"current_range_meters":20400,"station_id":"ce4bhg92rcd13ifvqf90","pricing_plan_id":"cebpf4jnsgd1na2vs0mg"},{"bike_id":"8d0d64a7-8bef-4335-8299-db0ba9dc3763","system_id":"levelo_inurba_marseille","lat":43.29562,"lon":5.37512,"is_reserved":false,"is_disabled":false,"rental_uris":{"android":"levelo://app?vid=8d0d64a7-8bef-4335-8299-db0ba9dc3763","ios":"levelo://app?vid=8d0d64a7-8bef-4335-8299-db0ba9dc3763"},"vehicle_type_id":"4","last_reported":1784483290,"current_range_meters":39200,"station_id":"ce4bgh92rcd13ifvqb50","pricing_plan_id":"cebpf4jnsgd1na2vs0mg"},{"bike_id":"3a65c32f-2435-4e03-96fa-0a76f1e46419","system_id":"levelo_inurba_marseille","lat":43.3266,"lon":5.40983,"is_reserved":false,"is_disabled":false,"rental_uris":{"android":"levelo://app?vid=3a65c32f-2435-4e03-96fa-0a76f1e46419","ios":"levelo://app?vid=3a65c32f-2435-4e03-96fa-0a76f1e46419"},"vehicle_type_id":"4","last_reported":1784483290,"current_range_meters":22400,"station_id":"ce4bhpp2rcd13ifvqhgg","pricing_plan_id":"cebpf4jnsgd1na2vs0mg"},{"bike_id":"b9bf91b1-f6c3-4792-a380-5b253e1ff4ad","system_id":"levelo_inurba_marseille","lat":43.23186,"lon":5.3554,"is_reserved":false,"is_disabled":false,"rental_uris":{"android":"levelo://app?vid=b9bf91b1-f6c3-4792-a380-5b253e1ff4ad","ios":"levelo://app?vid=b9bf91b1-f6c3-4792-a380-5b253e1ff4ad"},"vehicle_type_id":"4","last_reported":1784483290,"current_range_meters":28400,"station_id":"ce4bhu92rcd13ifvqi70","pricing_plan_id":"cebpf4jnsgd1na2vs0mg"},{"bike_id":"3331c6c8-0e15-49d1-8915-53d26d8aa8c2","system_id":"levelo_inurba_marseille","lat":43.30636,"lon":5.37265,"is_reserved":false,"is_disabled":false,"rental_uris":{"android":"levelo://app?vid=3331c6c8-0e15-49d1-8915-53d26d8aa8c2","ios":"levelo://app?vid=3331c6c8-0e15-49d1-8915-53d26d8aa8c2"},"vehicle_type_id":"4","last_reported":1784483290,"current_range_meters":30800,"station_id":"ce4bgqh2rcd13ifvqc4g","pricing_plan_id":"cebpf4jnsgd1na2vs0mg"},{"bike_id":"924a1626-5fd2-481c-9ed9-8d01de5a6be3","system_id":"levelo_inurba_marseille","lat":43.30541,"lon":5.38184,"is_reserved":false,"is_disabled":false,"rental_uris":{"android":"levelo://app?vid=924a1626-5fd2-481c-9ed9-8d01de5a6be3","ios":"levelo://app?vid=924a1626-5fd2-481c-9ed9-8d01de5a6be3"},"vehicle_type_id":"4","last_reported":1784483290,"current_range_meters":15200,"station_id":"","pricing_plan_id":"cebpf4jnsgd1na2vs0mg"},{"bike_id":"4f54c651-15d1-492f-8d09-70f1f809ad4f","system_id":"levelo_inurba_marseille","lat":43.27489,"lon":5.4254,"is_reserved":false,"is_disabled":false,"rental_uris":{"android":"levelo://app?vid=4f54c651-15d1-492f-8d09-70f1f809ad4f","ios":"levelo://app?vid=4f54c651-15d1-492f-8d09-70f1f809ad4f"},"vehicle_type_id":"4","last_reported":1784483290,"current_range_meters":14800,"station_id":"st_d8t4bh7nbrqs73arha60","pricing_plan_id":"cebpf4jnsgd1na2vs0mg"},{"bike_id":"7065528a-f292-4b1d-9927-6e05933d2cf0","system_id":"levelo_inurba_marseille","lat":43.22562,"lon":5.41622,"is_reserved":false,"is_disabled":false,"rental_uris":{"android":"levelo://app?vid=7065528a-f292-4b1d-9927-6e05933d2cf0","ios":"levelo://app?vid=7065528a-f292-4b1d-9927-6e05933d2cf0"},"vehicle_type_id":"4","last_reported":1784483290,"current_range_meters":22400,"station_id":"st_d2o4gvlbi1j2169b742g","pricing_plan_id":"cebpf4jnsgd1na2vs0mg"},{"bike_id":"862d8e62-6e66-4b66-a64b-9c49ce2182be","system_id":"levelo_inurba_marseille","lat":43.30377,"lon":5.4081,"is_reserved":false,"is_disabled":false,"rental_uris":{"android":"levelo://app?vid=862d8e62-6e66-4b66-a64b-9c49ce2182be","ios":"levelo://app?vid=862d8e62-6e66-4b66-a64b-9c49ce2182be"},"vehicle_type_id":"4","last_reported":1784483290,"current_range_meters":28400,"station_id":"","pricing_plan_id":"cebpf4jnsgd1na2vs0mg"},{"bike_id":"c4f6a186-c761-47e2-954d-e4704531176a","system_id":"levelo_inurba_marseille","lat":43.274252,"lon":5.394224,"is_reserved":false,"is_disabled":true,"rental_uris":{"android":"levelo://app?vid=c4f6a186-c761-47e2-954d-e4704531176a","ios":"levelo://app?vid=c4f6a186-c761-47e2-954d-e4704531176a"},"vehicle_type_id":"4","last_reported":1784483290,"current_range_meters":0,"station_id":"ce4bhdp2rcd13ifvqf20","pricing_plan_id":"cebpf4jnsgd1na2vs0mg"},{"bike_id":"11914078-231d-4077-9bc0-bdb34b6580e0","system_id":"levelo_inurba_marseille","lat":43.28096,"lon":5.37843,"is_reserved":false,"is_disabled":false,"rental_uris":{"android":"levelo://app?vid=11914078-231d-4077-9bc0-bdb34b6580e0","ios":"levelo://app?vid=11914078-231d-4077-9bc0-bdb34b6580e0"},"vehicle_type_id":"4","last_reported":1784483290,"current_range_meters":21600,"station_id":"ce4bha12rcd13ifvqee0","pricing_plan_id":"cebpf4jnsgd1na2vs0mg"},{"bike_id":"7e95463a-bc3b-4a8f-891b-aecd7964af17","system_id":"levelo_inurba_marseille","lat":43.28268,"lon":5.35059,"is_reserved":false,"is_disabled":true,"rental_uris":{"android":"levelo://app?vid=7e95463a-bc3b-4a8f-891b-aecd7964af17","ios":"levelo://app?vid=7e95463a-bc3b-4a8f-891b-aecd7964af17"},"vehicle_type_id":"4","last_reported":1784483290,"current_range_meters":19600,"station_id":"ce4bhbp2rcd13ifvqerg","pricing_plan_id":"cebpf4jnsgd1na2vs0mg"},{"bike_id":"e35b3037-ccf2-48a7-b6f2-14a77143bba4","system_id":"levelo_inurba_marseille","lat":43.32356,"lon":5.36751,"is_reserved":false,"is_disabled":false,"rental_uris":{"android":"levelo://app?vid=e35b3037-ccf2-48a7-b6f2-14a77143bba4","ios":"levelo://app?vid=e35b3037-ccf2-48a7-b6f2-14a77143bba4"},"vehicle_type_id":"4","last_reported":1784483290,"current_range_meters":26800,"station_id":"ce4bhsh2rcd13ifvqi2g","pricing_plan_id":"cebpf4jnsgd1na2vs0mg"},{"bike_id":"ce45fdf9-66bd-4414-8bb7-2bf3c4382875","system_id":"levelo_inurba_marseille","lat":43.29536,"lon":5.38543,"is_reserved":false,"is_disabled":false,"rental_uris":{"android":"levelo://app?vid=ce45fdf9-66bd-4414-8bb7-2bf3c4382875","ios":"levelo://app?vid=ce45fdf9-66bd-4414-8bb7-2bf3c4382875"},"vehicle_type_id":"4","last_reported":1784483290,"current_range_meters":16800,"station_id":"ce4bgih2rcd13ifvqba0","pricing_plan_id":"cebpf4jnsgd1na2vs0mg"},{"bike_id":"a95a8a52-5e8b-49d0-801c-082a69f2937e","system_id":"levelo_inurba_marseille","lat":43.290513,"lon":5.359062,"is_reserved":false,"is_disabled":false,"rental_uris":{"android":"levelo://app?vid=a95a8a52-5e8b-49d0-801c-082a69f2937e","ios":"levelo://app?vid=a95a8a52-5e8b-49d0-801c-082a69f2937e"},"vehicle_type_id":"4","last_reported":1784483290,"current_range_meters":23200,"station_id":"ce4bha92rcd13ifvqeg0","pricing_plan_id":"cebpf4jnsgd1na2vs0mg"},{"bike_id":"d45a7703-b8b6-4d3d-8cb6-56b1163da854","system_id":"levelo_inurba_marseille","lat":43.33726,"lon":5.39185,"is_reserved":false,"is_disabled":false,"rental_uris":{"android":"levelo://app?vid=d45a7703-b8b6-4d3d-8cb6-56b1163da854","ios":"levelo://app?vid=d45a7703-b8b6-4d3d-8cb6-56b1163da854"},"vehicle_type_id":"4","last_reported":1784483290,"current_range_meters":35200,"station_id":"ce4bhr92rcd13ifvqhsg","pricing_plan_id":"cebpf4jnsgd1na2vs0mg"},{"bike_id":"d3763a0c-6ecc-4e5b-830e-5883d835d782","system_id":"levelo_inurba_marseille","lat":43.31719,"lon":5.43718,"is_reserved":false,"is_disabled":false,"rental_uris":{"android":"levelo://app?vid=d3763a0c-6ecc-4e5b-830e-5883d835d782","ios":"levelo://app?vid=d3763a0c-6ecc-4e5b-830e-5883d835d782"},"vehicle_type_id":"4","last_reported":1784483290,"current_range_meters":14400,"station_id":"ce4bhp92rcd13ifvqhcg","pricing_plan_id":"cebpf4jnsgd1na2vs0mg"},{"bike_id":"2d3e69d2-558b-4a81-9733-0750aa7726ab","system_id":"levelo_inurba_marseille","lat":43.23052,"lon":5.35484,"is_reserved":false,"is_disabled":false,"rental_uris":{"android":"levelo://app?vid=2d3e69d2-558b-4a81-9733-0750aa7726ab","ios":"levelo://app?vid=2d3e69d2-558b-4a81-9733-0750aa7726ab"},"vehicle_type_id":"4","last_reported":1784483290,"current_range_meters":9200,"station_id":"cpo3342slgdg3j2ifvpg","pricing_plan_id":"cebpf4jnsgd1na2vs0mg"},{"bike_id":"e0b59b94-4abf-4e2b-8eca-155fc1c0b722","system_id":"levelo_inurba_marseille","lat":43.23064,"lon":5.35493,"is_reserved":false,"is_disabled":false,"rental_uris":{"android":"levelo://app?vid=e0b59b94-4abf-4e2b-8eca-155fc1c0b722","ios":"levelo://app?vid=e0b59b94-4abf-4e2b-8eca-155fc1c0b722"},"vehicle_type_id":"4","last_reported":1784483290,"current_range_meters":39200,"station_id":"cpo3342slgdg3j2ifvpg","pricing_plan_id":"cebpf4jnsgd1na2vs0mg"},{"bike_id":"371c3aa3-4cad-4284-8e37-097803c5c052","system_id":"levelo_inurba_marseille","lat":43.2847,"lon":5.40639,"is_reserved":false,"is_disabled":false,"rental_uris":{"android":"levelo://app?vid=371c3aa3-4cad-4284-8e37-097803c5c052","ios":"levelo://app?vid=371c3aa3-4cad-4284-8e37-097803c5c052"},"vehicle_type_id":"4","last_reported":1784483290,"current_range_meters":29600,"station_id":"","pricing_plan_id":"cebpf4jnsgd1na2vs0mg"},{"bike_id":"c7cecb57-a612-4f0f-95c1-48fe77048f0f","system_id":"levelo_inurba_marseille","lat":43.30946,"lon":5.39024,"is_reserved":false,"is_disabled":false,"rental_uris":{"android":"levelo://app?vid=c7cecb57-a612-4f0f-95c1-48fe77048f0f","ios":"levelo://app?vid=c7cecb57-a612-4f0f-95c1-48fe77048f0f"},"vehicle_type_id":"4","last_reported":1784483290,"current_range_meters":36800,"station_id":"ce4bgup2rcd13ifvqco0","pricing_plan_id":"cebpf4jnsgd1na2vs0mg"},{"bike_id":"b12b5a49-8a0a-4c11-a03c-1dfb26fb677b","system_id":"levelo_inurba_marseille","lat":43.2519,"lon":5.37315,"is_reserved":false,"is_disabled":false,"rental_uris":{"android":"levelo://app?vid=b12b5a49-8a0a-4c11-a03c-1dfb26fb677b","ios":"levelo://app?vid=b12b5a49-8a0a-4c11-a03c-1dfb26fb677b"},"vehicle_type_id":"4","last_reported":1784483290,"current_range_meters":21600,"station_id":"","pricing_plan_id":"cebpf4jnsgd1na2vs0mg"},{"bike_id":"714d28c5-8167-4c6f-80f1-d43e3e6a6e2d","system_id":"levelo_inurba_marseille","lat":43.28446,"lon":5.35868,"is_reserved":false,"is_disabled":false,"rental_uris":{"android":"levelo://app?vid=714d28c5-8167-4c6f-80f1-d43e3e6a6e2d","ios":"levelo://app?vid=714d28c5-8167-4c6f-80f1-d43e3e6a6e2d"},"vehicle_type_id":"4","last_reported":1784483290,"current_range_meters":34800,"station_id":"ce4bhah2rcd13ifvqei0","pricing_plan_id":"cebpf4jnsgd1na2vs0mg"},{"bike_id":"500fc680-95c4-4402-b0c4-fcb3bc3373a4","system_id":"levelo_inurba_marseille","lat":43.292225,"lon":5.360497,"is_reserved":false,"is_disabled":false,"rental_uris":{"android":"levelo://app?vid=500fc680-95c4-4402-b0c4-fcb3bc3373a4","ios":"levelo://app?vid=500fc680-95c4-4402-b0c4-fcb3bc3373a4"},"vehicle_type_id":"4","last_reported":1784483290,"current_range_meters":17600,"station_id":"","pricing_plan_id":"cebpf4jnsgd1na2vs0mg"},{"bike_id":"0d3e100f-48fe-47e1-bef7-0a1dcfcc4955","system_id":"levelo_inurba_marseille","lat":43.33712,"lon":5.39159,"is_reserved":false,"is_disabled":false,"rental_uris":{"android":"levelo://app?vid=0d3e100f-48fe-47e1-bef7-0a1dcfcc4955","ios":"levelo://app?vid=0d3e100f-48fe-47e1-bef7-0a1dcfcc4955"},"vehicle_type_id":"4","last_reported":1784483290,"current_range_meters":38800,"station_id":"ce4bhr92rcd13ifvqhsg","pricing_plan_id":"cebpf4jnsgd1na2vs0mg"},{"bike_id":"924ef0bd-8a10-4c11-8b14-dac4028ca078","system_id":"levelo_inurba_marseille","lat":43.32657,"lon":5.40976,"is_reserved":false,"is_disabled":false,"rental_uris":{"android":"levelo://app?vid=924ef0bd-8a10-4c11-8b14-dac4028ca078","ios":"levelo://app?vid=924ef0bd-8a10-4c11-8b14-dac4028ca078"},"vehicle_type_id":"4","last_reported":1784483290,"current_range_meters":6400,"station_id":"ce4bhpp2rcd13ifvqhgg","pricing_plan_id":"cebpf4jnsgd1na2vs0mg"},{"bike_id":"6f3b802c-0705-4e80-9c26-5c506d25e4b2","system_id":"levelo_inurba_marseille","lat":43.29377,"lon":5.37834,"is_reserved":false,"is_disabled":false,"rental_uris":{"android":"levelo://app?vid=6f3b802c-0705-4e80-9c26-5c506d25e4b2","ios":"levelo://app?vid=6f3b802c-0705-4e80-9c26-5c506d25e4b2"},"vehicle_type_id":"4","last_reported":1784483290,"current_range_meters":6800,"station_id":"ce4bgjh2rcd13ifvqbf0","pricing_plan_id":"cebpf4jnsgd1na2vs0mg"},{"bike_id":"22dae175-7f25-43bc-9daf-f7ba5536c470","system_id":"levelo_inurba_marseille","lat":43.28043,"lon":5.35355,"is_reserved":false,"is_disabled":true,"rental_uris":{"android":"levelo://app?vid=22dae175-7f25-43bc-9daf-f7ba5536c470","ios":"levelo://app?vid=22dae175-7f25-43bc-9daf-f7ba5536c470"},"vehicle_type_id":"4","last_reported":1784483290,"current_range_meters":0,"station_id":"","pricing_plan_id":"cebpf4jnsgd1na2vs0mg"},{"bike_id":"0e8ed7a2-dc9a-45a0-b3fb-c8ec617b127f","system_id":"levelo_inurba_marseille","lat":43.28147,"lon":5.37877,"is_reserved":false,"is_disabled":false,"rental_uris":{"android":"levelo://app?vid=0e8ed7a2-dc9a-45a0-b3fb-c8ec617b127f","ios":"levelo://app?vid=0e8ed7a2-dc9a-45a0-b3fb-c8ec617b127f"},"vehicle_type_id":"4","last_reported":1784483290,"current_range_meters":39200,"station_id":"","pricing_plan_id":"cebpf4jnsgd1na2vs0mg"},{"bike_id":"af9cb856-2a1a-4801-80cc-f305db9e72a7","system_id":"levelo_inurba_marseille","lat":43.25918,"lon":5.40897,"is_reserved":false,"is_disabled":false,"rental_uris":{"android":"levelo://app?vid=af9cb856-2a1a-4801-80cc-f305db9e72a7","ios":"levelo://app?vid=af9cb856-2a1a-4801-80cc-f305db9e72a7"},"vehicle_type_id":"4","last_reported":1784483290,"current_range_meters":36000,"station_id":"ce4bhm92rcd13ifvqglg","pricing_plan_id":"cebpf4jnsgd1na2vs0mg"},{"bike_id":"f2e99e15-43f6-4f80-8ebe-9fc9a7f04e85","system_id":"levelo_inurba_marseille","lat":43.29193,"lon":5.3932,"is_reserved":false,"is_disabled":false,"rental_uris":{"android":"levelo://app?vid=f2e99e15-43f6-4f80-8ebe-9fc9a7f04e85","ios":"levelo://app?vid=f2e99e15-43f6-4f80-8ebe-9fc9a7f04e85"},"vehicle_type_id":"4","last_reported":1784483290,"current_range_meters":19200,"station_id":"ce4bh192rcd13ifvqdd0","pricing_plan_id":"cebpf4jnsgd1na2vs0mg"},{"bike_id":"bf92e73f-5ebb-482e-9b16-38b660c0b75a","system_id":"levelo_inurba_marseille","lat":43.217429,"lon":5.346056,"is_reserved":false,"is_disabled":true,"rental_uris":{"android":"levelo://app?vid=bf92e73f-5ebb-482e-9b16-38b660c0b75a","ios":"levelo://app?vid=bf92e73f-5ebb-482e-9b16-38b660c0b75a"},"vehicle_type_id":"4","last_reported":1784483290,"current_range_meters":5600,"station_id":"st_cvj6r9ubvosntc0bgbag","pricing_plan_id":"cebpf4jnsgd1na2vs0mg"},{"bike_id":"98bce0f5-25e4-4db3-b698-d3dcf6d7b213","system_id":"levelo_inurba_marseille","lat":43.248,"lon":5.37446,"is_reserved":false,"is_disabled":false,"rental_uris":{"android":"levelo://app?vid=98bce0f5-25e4-4db3-b698-d3dcf6d7b213","ios":"levelo://app?vid=98bce0f5-25e4-4db3-b698-d3dcf6d7b213"},"vehicle_type_id":"4","last_reported":1784483290,"current_range_meters":20800,"station_id":"ce4bhgh2rcd13ifvqfb0","pricing_plan_id":"cebpf4jnsgd1na2vs0mg"},{"bike_id":"0ccdd5d1-13a3-4cc4-beee-acb9a334278d","system_id":"levelo_inurba_marseille","lat":43.23196,"lon":5.35553,"is_reserved":false,"is_disabled":false,"rental_uris":{"android":"levelo://app?vid=0ccdd5d1-13a3-4cc4-beee-acb9a334278d","ios":"levelo://app?vid=0ccdd5d1-13a3-4cc4-beee-acb9a334278d"},"vehicle_type_id":"4","last_reported":1784483290,"current_range_meters":39200,"station_id":"ce4bhu92rcd13ifvqi70","pricing_plan_id":"cebpf4jnsgd1na2vs0mg"},{"bike_id":"ed25373e-a7cc-4ffa-bb01-0b8e073362da","system_id":"levelo_inurba_marseille","lat":43.31237,"lon":5.36895,"is_reserved":false,"is_disabled":false,"rental_uris":{"android":"levelo://app?vid=ed25373e-a7cc-4ffa-bb01-0b8e073362da","ios":"levelo://app?vid=ed25373e-a7cc-4ffa-bb01-0b8e073362da"},"vehicle_type_id":"4","last_reported":1784483290,"current_range_meters":37600,"station_id":"ce4bgl92rcd13ifvqbq0","pricing_plan_id":"cebpf4jnsgd1na2vs0mg"},{"bike_id":"3ce46721-3bce-4a5c-a8cf-0762eca1ee9b","system_id":"levelo_inurba_marseille","lat":43.32499,"lon":5.36557,"is_reserved":false,"is_disabled":false,"rental_uris":{"android":"levelo://app?vid=3ce46721-3bce-4a5c-a8cf-0762eca1ee9b","ios":"levelo://app?vid=3ce46721-3bce-4a5c-a8cf-0762eca1ee9b"},"vehicle_type_id":"4","last_reported":1784483290,"current_range_meters":37600,"station_id":"ce4bhs12rcd13ifvqhvg","pricing_plan_id":"cebpf4jnsgd1na2vs0mg"},{"bike_id":"cb83cb54-d7e2-4e4c-b01d-6084c5ef1f75","system_id":"levelo_inurba_marseille","lat":43.26693,"lon":5.38262,"is_reserved":false,"is_disabled":false,"rental_uris":{"android":"levelo://app?vid=cb83cb54-d7e2-4e4c-b01d-6084c5ef1f75","ios":"levelo://app?vid=cb83cb54-d7e2-4e4c-b01d-6084c5ef1f75"},"vehicle_type_id":"4","last_reported":1784483290,"current_range_meters":39200,"station_id":"ce4bhg92rcd13ifvqf90","pricing_plan_id":"cebpf4jnsgd1na2vs0mg"},{"bike_id":"bf94bbb1-0344-4a40-9e3a-5c4e2673d65c","system_id":"levelo_inurba_marseille","lat":43.29938,"lon":5.36489,"is_reserved":false,"is_disabled":false,"rental_uris":{"android":"levelo://app?vid=bf94bbb1-0344-4a40-9e3a-5c4e2673d65c","ios":"levelo://app?vid=bf94bbb1-0344-4a40-9e3a-5c4e2673d65c"},"vehicle_type_id":"4","last_reported":1784483290,"current_range_meters":30800,"station_id":"","pricing_plan_id":"cebpf4jnsgd1na2vs0mg"},{"bike_id":"e33e7e56-b1af-4e57-9514-4de84c42a5c6","system_id":"levelo_inurba_marseille","lat":43.23955,"lon":5.36641,"is_reserved":false,"is_disabled":true,"rental_uris":{"android":"levelo://app?vid=e33e7e56-b1af-4e57-9514-4de84c42a5c6","ios":"levelo://app?vid=e33e7e56-b1af-4e57-9514-4de84c42a5c6"},"vehicle_type_id":"4","last_reported":1784483290,"current_range_meters":21600,"station_id":"ce4bhi12rcd13ifvqfp0","pricing_plan_id":"cebpf4jnsgd1na2vs0mg"},{"bike_id":"60e5ba35-9d2a-4f24-819c-3f7027a9a5b1","system_id":"levelo_inurba_marseille","lat":43.2919,"lon":5.39319,"is_reserved":false,"is_disabled":false,"rental_uris":{"android":"levelo://app?vid=60e5ba35-9d2a-4f24-819c-3f7027a9a5b1","ios":"levelo://app?vid=60e5ba35-9d2a-4f24-819c-3f7027a9a5b1"},"vehicle_type_id":"4","last_reported":1784483290,"current_range_meters":29600,"station_id":"ce4bh192rcd13ifvqdd0","pricing_plan_id":"cebpf4jnsgd1na2vs0mg"},{"bike_id":"7604574c-06cb-407e-9e16-b7858411e1bc","system_id":"levelo_inurba_marseille","lat":43.27808,"lon":5.40726,"is_reserved":false,"is_disabled":true,"rental_uris":{"android":"levelo://app?vid=7604574c-06cb-407e-9e16-b7858411e1bc","ios":"levelo://app?vid=7604574c-06cb-407e-9e16-b7858411e1bc"},"vehicle_type_id":"4","last_reported":1784483290,"current_range_meters":15200,"station_id":"ce4bhnh2rcd13ifvqgtg","pricing_plan_id":"cebpf4jnsgd1na2vs0mg"},{"bike_id":"600d3649-4b6d-473c-a715-d27921e00684","system_id":"levelo_inurba_marseille","lat":43.23192,"lon":5.35542,"is_reserved":false,"is_disabled":false,"rental_uris":{"android":"levelo://app?vid=600d3649-4b6d-473c-a715-d27921e00684","ios":"levelo://app?vid=600d3649-4b6d-473c-a715-d27921e00684"},"vehicle_type_id":"4","last_reported":1784483290,"current_range_meters":18000,"station_id":"ce4bhu92rcd13ifvqi70","pricing_plan_id":"cebpf4jnsgd1na2vs0mg"},{"bike_id":"4f5d180b-7df1-4bec-b4f8-45c82ca3cddb","system_id":"levelo_inurba_marseille","lat":43.28504,"lon":5.48376,"is_reserved":false,"is_disabled":false,"rental_uris":{"android":"levelo://app?vid=4f5d180b-7df1-4bec-b4f8-45c82ca3cddb","ios":"levelo://app?vid=4f5d180b-7df1-4bec-b4f8-45c82ca3cddb"},"vehicle_type_id":"4","last_reported":1784483290,"current_range_meters":26800,"station_id":"st_d3svhcjqgbts73a3dn0g","pricing_plan_id":"cebpf4jnsgd1na2vs0mg"},{"bike_id":"8601b829-59f8-4eab-bab2-2f8e891d8617","system_id":"levelo_inurba_marseille","lat":43.254993,"lon":5.376487,"is_reserved":false,"is_disabled":false,"rental_uris":{"android":"levelo://app?vid=8601b829-59f8-4eab-bab2-2f8e891d8617","ios":"levelo://app?vid=8601b829-59f8-4eab-bab2-2f8e891d8617"},"vehicle_type_id":"4","last_reported":1784483290,"current_range_meters":20000,"station_id":"ce4bhh12rcd13ifvqff0","pricing_plan_id":"cebpf4jnsgd1na2vs0mg"},{"bike_id":"05060649-1159-4341-98f1-9ef049a36f15","system_id":"levelo_inurba_marseille","lat":43.23904,"lon":5.37445,"is_reserved":false,"is_disabled":false,"rental_uris":{"android":"levelo://app?vid=05060649-1159-4341-98f1-9ef049a36f15","ios":"levelo://app?vid=05060649-1159-4341-98f1-9ef049a36f15"},"vehicle_type_id":"4","last_reported":1784483290,"current_range_meters":38800,"station_id":"st_d6sm7csbq4hs73f8fpjg","pricing_plan_id":"cebpf4jnsgd1na2vs0mg"},{"bike_id":"c7addd33-290f-4176-a36c-890bb30e3259","system_id":"levelo_inurba_marseille","lat":43.27997,"lon":5.40014,"is_reserved":false,"is_disabled":false,"rental_uris":{"android":"levelo://app?vid=c7addd33-290f-4176-a36c-890bb30e3259","ios":"levelo://app?vid=c7addd33-290f-4176-a36c-890bb30e3259"},"vehicle_type_id":"4","last_reported":1784483290,"current_range_meters":34800,"station_id":"ce4bho92rcd13ifvqh4g","pricing_plan_id":"cebpf4jnsgd1na2vs0mg"},{"bike_id":"9df5e7f3-1cb9-43a4-9683-68d4da00ac21","system_id":"levelo_inurba_marseille","lat":43.25005,"lon":5.38926,"is_reserved":false,"is_disabled":false,"rental_uris":{"android":"levelo://app?vid=9df5e7f3-1cb9-43a4-9683-68d4da00ac21","ios":"levelo://app?vid=9df5e7f3-1cb9-43a4-9683-68d4da00ac21"},"vehicle_type_id":"4","last_reported":1784483290,"current_range_meters":10800,"station_id":"ce4bhgp2rcd13ifvqfd0","pricing_plan_id":"cebpf4jnsgd1na2vs0mg"},{"bike_id":"5450c789-a3b5-4b2b-b675-738dbe9d501d","system_id":"levelo_inurba_marseille","lat":43.26205,"lon":5.37438,"is_reserved":false,"is_disabled":false,"rental_uris":{"android":"levelo://app?vid=5450c789-a3b5-4b2b-b675-738dbe9d501d","ios":"levelo://app?vid=5450c789-a3b5-4b2b-b675-738dbe9d501d"},"vehicle_type_id":"4","last_reported":1784483290,"current_range_meters":38000,"station_id":"ce4bhgp2rcd13ifvqfc0","pricing_plan_id":"cebpf4jnsgd1na2vs0mg"},{"bike_id":"7f583a3a-11c6-47a8-aaca-557ad999a980","system_id":"levelo_inurba_marseille","lat":43.29035,"lon":5.38622,"is_reserved":false,"is_disabled":false,"rental_uris":{"android":"levelo://app?vid=7f583a3a-11c6-47a8-aaca-557ad999a980","ios":"levelo://app?vid=7f583a3a-11c6-47a8-aaca-557ad999a980"},"vehicle_type_id":"4","last_reported":1784483290,"current_range_meters":32400,"station_id":"ce4bh4p2rcd13ifvqe0g","pricing_plan_id":"cebpf4jnsgd1na2vs0mg"},{"bike_id":"6dcae072-db9d-47d6-8753-8b202b7aab14","system_id":"levelo_inurba_marseille","lat":43.26375,"lon":5.41083,"is_reserved":false,"is_disabled":false,"rental_uris":{"android":"levelo://app?vid=6dcae072-db9d-47d6-8753-8b202b7aab14","ios":"levelo://app?vid=6dcae072-db9d-47d6-8753-8b202b7aab14"},"vehicle_type_id":"4","last_reported":1784483290,"current_range_meters":27600,"station_id":"st_d4e5ca6na9uc73bfl5fg","pricing_plan_id":"cebpf4jnsgd1na2vs0mg"},{"bike_id":"4deb96f7-77bc-4d03-b05f-9badc81e8841","system_id":"levelo_inurba_marseille","lat":43.225225,"lon":5.34832,"is_reserved":false,"is_disabled":false,"rental_uris":{"android":"levelo://app?vid=4deb96f7-77bc-4d03-b05f-9badc81e8841","ios":"levelo://app?vid=4deb96f7-77bc-4d03-b05f-9badc81e8841"},"vehicle_type_id":"4","last_reported":1784483290,"current_range_meters":15200,"station_id":"st_cvj5dfep6f1abm77gieg","pricing_plan_id":"cebpf4jnsgd1na2vs0mg"},{"bike_id":"659a68bc-86a6-4daf-9f1f-d3e7a32b91b8","system_id":"levelo_inurba_marseille","lat":43.232,"lon":5.35555,"is_reserved":false,"is_disabled":false,"rental_uris":{"android":"levelo://app?vid=659a68bc-86a6-4daf-9f1f-d3e7a32b91b8","ios":"levelo://app?vid=659a68bc-86a6-4daf-9f1f-d3e7a32b91b8"},"vehicle_type_id":"4","last_reported":1784483290,"current_range_meters":36400,"station_id":"ce4bhu92rcd13ifvqi70","pricing_plan_id":"cebpf4jnsgd1na2vs0mg"},{"bike_id":"de0708e4-f073-49f7-a6bd-13277f9be13d","system_id":"levelo_inurba_marseille","lat":43.29217,"lon":5.36045,"is_reserved":false,"is_disabled":false,"rental_uris":{"android":"levelo://app?vid=de0708e4-f073-49f7-a6bd-13277f9be13d","ios":"levelo://app?vid=de0708e4-f073-49f7-a6bd-13277f9be13d"},"vehicle_type_id":"4","last_reported":1784483290,"current_range_meters":6400,"station_id":"","pricing_plan_id":"cebpf4jnsgd1na2vs0mg"},{"bike_id":"0b9a8051-de27-4642-9944-0d7422b17bff","system_id":"levelo_inurba_marseille","lat":43.29302,"lon":5.37182,"is_reserved":false,"is_disabled":false,"rental_uris":{"android":"levelo://app?vid=0b9a8051-de27-4642-9944-0d7422b17bff","ios":"levelo://app?vid=0b9a8051-de27-4642-9944-0d7422b17bff"},"vehicle_type_id":"4","last_reported":1784483290,"current_range_meters":6400,"station_id":"ce4bgh92rcd13ifvqb40","pricing_plan_id":"cebpf4jnsgd1na2vs0mg"},{"bike_id":"d74108d3-d543-454b-97af-d06941c42c19","system_id":"levelo_inurba_marseille","lat":43.26934,"lon":5.38892,"is_reserved":false,"is_disabled":false,"rental_uris":{"android":"levelo://app?vid=d74108d3-d543-454b-97af-d06941c42c19","ios":"levelo://app?vid=d74108d3-d543-454b-97af-d06941c42c19"},"vehicle_type_id":"4","last_reported":1784483290,"current_range_meters":39200,"station_id":"ce4bhhh2rcd13ifvqfl0","pricing_plan_id":"cebpf4jnsgd1na2vs0mg"},{"bike_id":"0fd64a27-ac7d-4f5f-833c-0919e9d92b60","system_id":"levelo_inurba_marseille","lat":43.21204,"lon":5.35077,"is_reserved":false,"is_disabled":false,"rental_uris":{"android":"levelo://app?vid=0fd64a27-ac7d-4f5f-833c-0919e9d92b60","ios":"levelo://app?vid=0fd64a27-ac7d-4f5f-833c-0919e9d92b60"},"vehicle_type_id":"4","last_reported":1784483290,"current_range_meters":9600,"station_id":"st_cvj6sg6p6f1abm77japg","pricing_plan_id":"cebpf4jnsgd1na2vs0mg"},{"bike_id":"6e2d7e69-8df1-40a6-90f7-e69b5c931535","system_id":"levelo_inurba_marseille","lat":43.229331,"lon":5.353792,"is_reserved":false,"is_disabled":false,"rental_uris":{"android":"levelo://app?vid=6e2d7e69-8df1-40a6-90f7-e69b5c931535","ios":"levelo://app?vid=6e2d7e69-8df1-40a6-90f7-e69b5c931535"},"vehicle_type_id":"4","last_reported":1784483290,"current_range_meters":22000,"station_id":"st_cvj5dfep6f1abm77gieg","pricing_plan_id":"cebpf4jnsgd1na2vs0mg"},{"bike_id":"d3b82640-d84c-42c7-8c57-b5a14f4fcab5","system_id":"levelo_inurba_marseille","lat":43.30876,"lon":5.37205,"is_reserved":false,"is_disabled":false,"rental_uris":{"android":"levelo://app?vid=d3b82640-d84c-42c7-8c57-b5a14f4fcab5","ios":"levelo://app?vid=d3b82640-d84c-42c7-8c57-b5a14f4fcab5"},"vehicle_type_id":"4","last_reported":1784483290,"current_range_meters":30800,"station_id":"ce4bguh2rcd13ifvqckg","pricing_plan_id":"cebpf4jnsgd1na2vs0mg"},{"bike_id":"caee839e-3dfa-4533-aac6-88c6d8bfd134","system_id":"levelo_inurba_marseille","lat":43.31116,"lon":5.46461,"is_reserved":false,"is_disabled":false,"rental_uris":{"android":"levelo://app?vid=caee839e-3dfa-4533-aac6-88c6d8bfd134","ios":"levelo://app?vid=caee839e-3dfa-4533-aac6-88c6d8bfd134"},"vehicle_type_id":"4","last_reported":1784483290,"current_range_meters":12400,"station_id":"","pricing_plan_id":"cebpf4jnsgd1na2vs0mg"},{"bike_id":"532fbce2-449e-43f6-90f1-86ad9a42900c","system_id":"levelo_inurba_marseille","lat":43.290426,"lon":5.359156,"is_reserved":false,"is_disabled":false,"rental_uris":{"android":"levelo://app?vid=532fbce2-449e-43f6-90f1-86ad9a42900c","ios":"levelo://app?vid=532fbce2-449e-43f6-90f1-86ad9a42900c"},"vehicle_type_id":"4","last_reported":1784483290,"current_range_meters":20000,"station_id":"ce4bhch2rcd13ifvqeug","pricing_plan_id":"cebpf4jnsgd1na2vs0mg"},{"bike_id":"8441b51a-06f0-4242-bdd8-8bb1509f3a6b","system_id":"levelo_inurba_marseille","lat":43.31883,"lon":5.36794,"is_reserved":false,"is_disabled":false,"rental_uris":{"android":"levelo://app?vid=8441b51a-06f0-4242-bdd8-8bb1509f3a6b","ios":"levelo://app?vid=8441b51a-06f0-4242-bdd8-8bb1509f3a6b"},"vehicle_type_id":"4","last_reported":1784483290,"current_range_meters":22400,"station_id":"st_d6o2h0d0559c73evc1b0","pricing_plan_id":"cebpf4jnsgd1na2vs0mg"},{"bike_id":"50aa6815-cb65-48bd-999a-1d2dfbbe24c7","system_id":"levelo_inurba_marseille","lat":43.28478,"lon":5.48405,"is_reserved":false,"is_disabled":false,"rental_uris":{"android":"levelo://app?vid=50aa6815-cb65-48bd-999a-1d2dfbbe24c7","ios":"levelo://app?vid=50aa6815-cb65-48bd-999a-1d2dfbbe24c7"},"vehicle_type_id":"4","last_reported":1784483290,"current_range_meters":37600,"station_id":"st_d3svhcjqgbts73a3dn0g","pricing_plan_id":"cebpf4jnsgd1na2vs0mg"},{"bike_id":"9bb0fd1c-c37f-4b19-9d13-0a17680fd6fb","system_id":"levelo_inurba_marseille","lat":43.32105,"lon":5.36779,"is_reserved":false,"is_disabled":false,"rental_uris":{"android":"levelo://app?vid=9bb0fd1c-c37f-4b19-9d13-0a17680fd6fb","ios":"levelo://app?vid=9bb0fd1c-c37f-4b19-9d13-0a17680fd6fb"},"vehicle_type_id":"4","last_reported":1784483290,"current_range_meters":22400,"station_id":"ce4bhrh2rcd13ifvqhug","pricing_plan_id":"cebpf4jnsgd1na2vs0mg"},{"bike_id":"db12e44a-408d-4c00-b7a0-6212d324c015","system_id":"levelo_inurba_marseille","lat":43.25617,"lon":5.40489,"is_reserved":false,"is_disabled":false,"rental_uris":{"android":"levelo://app?vid=db12e44a-408d-4c00-b7a0-6212d324c015","ios":"levelo://app?vid=db12e44a-408d-4c00-b7a0-6212d324c015"},"vehicle_type_id":"4","last_reported":1784483290,"current_range_meters":38000,"station_id":"","pricing_plan_id":"cebpf4jnsgd1na2vs0mg"},{"bike_id":"24edfabe-0d7c-415b-8cf6-84bf60d5e889","system_id":"levelo_inurba_marseille","lat":43.2699,"lon":5.42809,"is_reserved":false,"is_disabled":false,"rental_uris":{"android":"levelo://app?vid=24edfabe-0d7c-415b-8cf6-84bf60d5e889","ios":"levelo://app?vid=24edfabe-0d7c-415b-8cf6-84bf60d5e889"},"vehicle_type_id":"4","last_reported":1784483290,"current_range_meters":8400,"station_id":"","pricing_plan_id":"cebpf4jnsgd1na2vs0mg"},{"bike_id":"763f10cc-9e2c-4046-85bb-e7f7b0ab2b4b","system_id":"levelo_inurba_marseille","lat":43.30126,"lon":5.43111,"is_reserved":false,"is_disabled":false,"rental_uris":{"android":"levelo://app?vid=763f10cc-9e2c-4046-85bb-e7f7b0ab2b4b","ios":"levelo://app?vid=763f10cc-9e2c-4046-85bb-e7f7b0ab2b4b"},"vehicle_type_id":"4","last_reported":1784483290,"current_range_meters":26800,"station_id":"st_d3js3co5814s73ftftug","pricing_plan_id":"cebpf4jnsgd1na2vs0mg"},{"bike_id":"5dc791db-6166-4056-a0fa-10fea7344f47","system_id":"levelo_inurba_marseille","lat":43.28097,"lon":5.37839,"is_reserved":false,"is_disabled":false,"rental_uris":{"android":"levelo://app?vid=5dc791db-6166-4056-a0fa-10fea7344f47","ios":"levelo://app?vid=5dc791db-6166-4056-a0fa-10fea7344f47"},"vehicle_type_id":"4","last_reported":1784483290,"current_range_meters":39200,"station_id":"ce4bha12rcd13ifvqee0","pricing_plan_id":"cebpf4jnsgd1na2vs0mg"},{"bike_id":"177048fc-396b-4b62-a7a6-10bbd096118b","system_id":"levelo_inurba_marseille","lat":43.30432,"lon":5.41259,"is_reserved":false,"is_disabled":false,"rental_uris":{"android":"levelo://app?vid=177048fc-396b-4b62-a7a6-10bbd096118b","ios":"levelo://app?vid=177048fc-396b-4b62-a7a6-10bbd096118b"},"vehicle_type_id":"4","last_reported":1784483290,"current_range_meters":39200,"station_id":"ce4bhop2rcd13ifvqh8g","pricing_plan_id":"cebpf4jnsgd1na2vs0mg"},{"bike_id":"1aa42a88-39f2-4228-91ae-0fdfcf692cbd","system_id":"levelo_inurba_marseille","lat":43.28419,"lon":5.34972,"is_reserved":false,"is_disabled":true,"rental_uris":{"android":"levelo://app?vid=1aa42a88-39f2-4228-91ae-0fdfcf692cbd","ios":"levelo://app?vid=1aa42a88-39f2-4228-91ae-0fdfcf692cbd"},"vehicle_type_id":"4","last_reported":1784483290,"current_range_meters":2000,"station_id":"ce4bhbh2rcd13ifvqepg","pricing_plan_id":"cebpf4jnsgd1na2vs0mg"},{"bike_id":"a86deb64-24a8-41a6-a9c7-d169fc97becf","system_id":"levelo_inurba_marseille","lat":43.33759,"lon":5.37448,"is_reserved":false,"is_disabled":false,"rental_uris":{"android":"levelo://app?vid=a86deb64-24a8-41a6-a9c7-d169fc97becf","ios":"levelo://app?vid=a86deb64-24a8-41a6-a9c7-d169fc97becf"},"vehicle_type_id":"4","last_reported":1784483290,"current_range_meters":27200,"station_id":"","pricing_plan_id":"cebpf4jnsgd1na2vs0mg"},{"bike_id":"81d49471-6406-426c-80d2-a2e26d070992","system_id":"levelo_inurba_marseille","lat":43.29179,"lon":5.35804,"is_reserved":false,"is_disabled":false,"rental_uris":{"android":"levelo://app?vid=81d49471-6406-426c-80d2-a2e26d070992","ios":"levelo://app?vid=81d49471-6406-426c-80d2-a2e26d070992"},"vehicle_type_id":"4","last_reported":1784483290,"current_range_meters":19600,"station_id":"ce4bhb12rcd13ifvqel0","pricing_plan_id":"cebpf4jnsgd1na2vs0mg"},{"bike_id":"109edf4f-22d5-4918-8a37-52e5a5c95481","system_id":"levelo_inurba_marseille","lat":43.2751,"lon":5.41579,"is_reserved":false,"is_disabled":false,"rental_uris":{"android":"levelo://app?vid=109edf4f-22d5-4918-8a37-52e5a5c95481","ios":"levelo://app?vid=109edf4f-22d5-4918-8a37-52e5a5c95481"},"vehicle_type_id":"4","last_reported":1784483290,"current_range_meters":39200,"station_id":"st_d6im8g6chgec73a5pndg","pricing_plan_id":"cebpf4jnsgd1na2vs0mg"},{"bike_id":"238dad80-3ae6-42e5-969d-e4cc9287131c","system_id":"levelo_inurba_marseille","lat":43.31902,"lon":5.36803,"is_reserved":false,"is_disabled":false,"rental_uris":{"android":"levelo://app?vid=238dad80-3ae6-42e5-969d-e4cc9287131c","ios":"levelo://app?vid=238dad80-3ae6-42e5-969d-e4cc9287131c"},"vehicle_type_id":"4","last_reported":1784483290,"current_range_meters":28000,"station_id":"st_d6o2h0d0559c73evc1b0","pricing_plan_id":"cebpf4jnsgd1na2vs0mg"},{"bike_id":"1c510e6c-6cd9-4f48-a99f-e3f2cdec051b","system_id":"levelo_inurba_marseille","lat":43.27488,"lon":5.42561,"is_reserved":false,"is_disabled":false,"rental_uris":{"android":"levelo://app?vid=1c510e6c-6cd9-4f48-a99f-e3f2cdec051b","ios":"levelo://app?vid=1c510e6c-6cd9-4f48-a99f-e3f2cdec051b"},"vehicle_type_id":"4","last_reported":1784483290,"current_range_meters":17600,"station_id":"st_d8t4bh7nbrqs73arha60","pricing_plan_id":"cebpf4jnsgd1na2vs0mg"},{"bike_id":"a91fb80e-7c1f-4ff7-96f1-e795b259af8a","system_id":"levelo_inurba_marseille","lat":43.28456,"lon":5.35891,"is_reserved":false,"is_disabled":false,"rental_uris":{"android":"levelo://app?vid=a91fb80e-7c1f-4ff7-96f1-e795b259af8a","ios":"levelo://app?vid=a91fb80e-7c1f-4ff7-96f1-e795b259af8a"},"vehicle_type_id":"4","last_reported":1784483290,"current_range_meters":39200,"station_id":"ce4bhah2rcd13ifvqei0","pricing_plan_id":"cebpf4jnsgd1na2vs0mg"},{"bike_id":"460e7061-d33a-420f-a44d-c78571fb416e","system_id":"levelo_inurba_marseille","lat":43.27419,"lon":5.39421,"is_reserved":false,"is_disabled":false,"rental_uris":{"android":"levelo://app?vid=460e7061-d33a-420f-a44d-c78571fb416e","ios":"levelo://app?vid=460e7061-d33a-420f-a44d-c78571fb416e"},"vehicle_type_id":"4","last_reported":1784483290,"current_range_meters":39200,"station_id":"ce4bhdp2rcd13ifvqf20","pricing_plan_id":"cebpf4jnsgd1na2vs0mg"},{"bike_id":"e711b206-c87e-46d1-80fe-dec86122b4d9","system_id":"levelo_inurba_marseille","lat":43.32357,"lon":5.36741,"is_reserved":false,"is_disabled":false,"rental_uris":{"android":"levelo://app?vid=e711b206-c87e-46d1-80fe-dec86122b4d9","ios":"levelo://app?vid=e711b206-c87e-46d1-80fe-dec86122b4d9"},"vehicle_type_id":"4","last_reported":1784483290,"current_range_meters":38400,"station_id":"ce4bhsh2rcd13ifvqi2g","pricing_plan_id":"cebpf4jnsgd1na2vs0mg"},{"bike_id":"c495356d-b689-4887-bc6f-0481bafce80c","system_id":"levelo_inurba_marseille","lat":43.22923,"lon":5.35324,"is_reserved":false,"is_disabled":false,"rental_uris":{"android":"levelo://app?vid=c495356d-b689-4887-bc6f-0481bafce80c","ios":"levelo://app?vid=c495356d-b689-4887-bc6f-0481bafce80c"},"vehicle_type_id":"4","last_reported":1784483290,"current_range_meters":22800,"station_id":"cpo3532slgdg3j2ikp40","pricing_plan_id":"cebpf4jnsgd1na2vs0mg"},{"bike_id":"c6c36e6d-e993-4b59-b17b-a0f9cab67c78","system_id":"levelo_inurba_marseille","lat":43.27908,"lon":5.3958,"is_reserved":false,"is_disabled":false,"rental_uris":{"android":"levelo://app?vid=c6c36e6d-e993-4b59-b17b-a0f9cab67c78","ios":"levelo://app?vid=c6c36e6d-e993-4b59-b17b-a0f9cab67c78"},"vehicle_type_id":"4","last_reported":1784483290,"current_range_meters":38400,"station_id":"ce4bhf92rcd13ifvqf40","pricing_plan_id":"cebpf4jnsgd1na2vs0mg"},{"bike_id":"513c1c8b-9b61-429d-a75a-59b066819cac","system_id":"levelo_inurba_marseille","lat":43.23196,"lon":5.35542,"is_reserved":false,"is_disabled":false,"rental_uris":{"android":"levelo://app?vid=513c1c8b-9b61-429d-a75a-59b066819cac","ios":"levelo://app?vid=513c1c8b-9b61-429d-a75a-59b066819cac"},"vehicle_type_id":"4","last_reported":1784483290,"current_range_meters":28400,"station_id":"ce4bhu92rcd13ifvqi70","pricing_plan_id":"cebpf4jnsgd1na2vs0mg"},{"bike_id":"66546ac8-95ef-4503-ac57-9c750e8ab4ef","system_id":"levelo_inurba_marseille","lat":43.29494,"lon":5.43305,"is_reserved":false,"is_disabled":false,"rental_uris":{"android":"levelo://app?vid=66546ac8-95ef-4503-ac57-9c750e8ab4ef","ios":"levelo://app?vid=66546ac8-95ef-4503-ac57-9c750e8ab4ef"},"vehicle_type_id":"4","last_reported":1784483290,"current_range_meters":32400,"station_id":"st_d3j5ugp08ojc73fj9d10","pricing_plan_id":"cebpf4jnsgd1na2vs0mg"},{"bike_id":"eb9856ed-ebc8-405a-b6ee-77ba8f8f3eca","system_id":"levelo_inurba_marseille","lat":43.31689,"lon":5.3875,"is_reserved":false,"is_disabled":false,"rental_uris":{"android":"levelo://app?vid=eb9856ed-ebc8-405a-b6ee-77ba8f8f3eca","ios":"levelo://app?vid=eb9856ed-ebc8-405a-b6ee-77ba8f8f3eca"},"vehicle_type_id":"4","last_reported":1784483290,"current_range_meters":19200,"station_id":"","pricing_plan_id":"cebpf4jnsgd1na2vs0mg"},{"bike_id":"1ae25f33-2c1e-4c2b-be27-05392385488f","system_id":"levelo_inurba_marseille","lat":43.29695,"lon":5.37275,"is_reserved":false,"is_disabled":true,"rental_uris":{"android":"levelo://app?vid=1ae25f33-2c1e-4c2b-be27-05392385488f","ios":"levelo://app?vid=1ae25f33-2c1e-4c2b-be27-05392385488f"},"vehicle_type_id":"4","last_reported":1784483290,"current_range_meters":5600,"station_id":"ce4bgk12rcd13ifvqbj0","pricing_plan_id":"cebpf4jnsgd1na2vs0mg"},{"bike_id":"b2f2bcff-6352-44ec-80a4-74d6dbbb379f","system_id":"levelo_inurba_marseille","lat":43.31607,"lon":5.39874,"is_reserved":false,"is_disabled":false,"rental_uris":{"android":"levelo://app?vid=b2f2bcff-6352-44ec-80a4-74d6dbbb379f","ios":"levelo://app?vid=b2f2bcff-6352-44ec-80a4-74d6dbbb379f"},"vehicle_type_id":"4","last_reported":1784483290,"current_range_meters":14800,"station_id":"","pricing_plan_id":"cebpf4jnsgd1na2vs0mg"},{"bike_id":"d1d0119f-6fb7-410a-a3ae-5f021d06f94d","system_id":"levelo_inurba_marseille","lat":43.24176,"lon":5.36372,"is_reserved":false,"is_disabled":false,"rental_uris":{"android":"levelo://app?vid=d1d0119f-6fb7-410a-a3ae-5f021d06f94d","ios":"levelo://app?vid=d1d0119f-6fb7-410a-a3ae-5f021d06f94d"},"vehicle_type_id":"4","last_reported":1784483290,"current_range_meters":16000,"station_id":"cpo36qri1sfpv3e86is0","pricing_plan_id":"cebpf4jnsgd1na2vs0mg"},{"bike_id":"8436be62-704b-451a-aa2b-b16220bc65d6","system_id":"levelo_inurba_marseille","lat":43.33763,"lon":5.37476,"is_reserved":false,"is_disabled":false,"rental_uris":{"android":"levelo://app?vid=8436be62-704b-451a-aa2b-b16220bc65d6","ios":"levelo://app?vid=8436be62-704b-451a-aa2b-b16220bc65d6"},"vehicle_type_id":"4","last_reported":1784483290,"current_range_meters":24000,"station_id":"","pricing_plan_id":"cebpf4jnsgd1na2vs0mg"},{"bike_id":"b58676e5-0965-4266-9d38-08fb6944eca6","system_id":"levelo_inurba_marseille","lat":43.27055,"lon":5.38305,"is_reserved":false,"is_disabled":false,"rental_uris":{"android":"levelo://app?vid=b58676e5-0965-4266-9d38-08fb6944eca6","ios":"levelo://app?vid=b58676e5-0965-4266-9d38-08fb6944eca6"},"vehicle_type_id":"4","last_reported":1784483290,"current_range_meters":28400,"station_id":"st_d3n2fo6cfp8s73cte1j0","pricing_plan_id":"cebpf4jnsgd1na2vs0mg"},