{"last_updated":1757927570,"ttl":60,"version":"2.2","data":{"bikes":[{"bike_id":"6cfc7cb9-9575-4001-bb07-979dc3e9cd92","system_id":"levelo_inurba_marseille","lat":43.29029,"lon":5.39965,"is_reserved":false,"is_disabled":false,"rental_uris":{"android":"levelo://app?vid=6cfc7cb9-9575-4001-bb07-979dc3e9cd92","ios":"levelo://app?vid=6cfc7cb9-9575-4001-bb07-979dc3e9cd92"},"vehicle_type_id":"4","last_reported":1757927570,"current_range_meters":2800,"station_id":"ce4bh392rcd13ifvqdm0","pricing_plan_id":"cebpf4jnsgd1na2vs0mg"},{"bike_id":"016950e1-7818-42ce-aac6-0e36f13f2873","system_id":"levelo_inurba_marseille","lat":43.30925,"lon":5.369,"is_reserved":false,"is_disabled":false,"rental_uris":{"android":"levelo://app?vid=016950e1-7818-42ce-aac6-0e36f13f2873","ios":"levelo://app?vid=016950e1-7818-42ce-aac6-0e36f13f2873"},"vehicle_type_id":"4","last_reported":1757927570,"current_range_meters":2800,"station_id":"ce4bgn92rcd13ifvqbvg","pricing_plan_id":"cebpf4jnsgd1na2vs0mg"},{"bike_id":"2b95d1b6-596a-4276-9845-89711ed212b3","system_id":"levelo_inurba_marseille","lat":43.25938,"lon":5.409,"is_reserved":false,"is_disabled":false,"rental_uris":{"android":"levelo://app?vid=2b95d1b6-596a-4276-9845-89711ed212b3","ios":"levelo://app?vid=2b95d1b6-596a-4276-9845-89711ed212b3"},"vehicle_type_id":"4","last_reported":1757927570,"current_range_meters":3200,"station_id":"ce4bhm92rcd13ifvqglg","pricing_plan_id":"cebpf4jnsgd1na2vs0mg"},{"bike_id":"d4c7f855-9374-4a76-8f77-b4ec4c31c8fc","system_id":"levelo_inurba_marseille","lat":43.2603,"lon":5.37549,"is_reserved":false,"is_disabled":false,"rental_uris":{"android":"levelo://app?vid=d4c7f855-9374-4a76-8f77-b4ec4c31c8fc","ios":"levelo://app?vid=d4c7f855-9374-4a76-8f77-b4ec4c31c8fc"},"vehicle_type_id":"4","last_reported":1757927570,"current_range_meters":3200,"station_id":"ce4bhgh2rcd13ifvqfa0","pricing_plan_id":"cebpf4jnsgd1na2vs0mg"},{"bike_id":"a24c4696-920b-4645-847f-87e0b46915a6","system_id":"levelo_inurba_marseille","lat":43.324442,"lon":5.425077,"is_reserved":false,"is_disabled":false,"rental_uris":{"android":"levelo://app?vid=a24c4696-920b-4645-847f-87e0b46915a6","ios":"levelo://app?vid=a24c4696-920b-4645-847f-87e0b46915a6"},"vehicle_type_id":"4","last_reported":1757927570,"current_range_meters":3600,"station_id":"","pricing_plan_id":"cebpf4jnsgd1na2vs0mg"},{"bike_id":"84be000e-b186-4e60-8aaa-b7a0f42a7175","system_id":"levelo_inurba_marseille","lat":43.337639,"lon":5.374332,"is_reserved":false,"is_disabled":false,"rental_uris":{"android":"levelo://app?vid=84be000e-b186-4e60-8aaa-b7a0f42a7175","ios":"levelo://app?vid=84be000e-b186-4e60-8aaa-b7a0f42a7175"},"vehicle_type_id":"4","last_reported":1757927570,"current_range_meters":3600,"station_id":"","pricing_plan_id":"cebpf4jnsgd1na2vs0mg"},{"bike_id":"0b5e7908-675a-4dd8-8db0-2307e1b5163d","system_id":"levelo_inurba_marseille","lat":43.32538,"lon":5.41426,"is_reserved":false,"is_disabled":false,"rental_uris":{"android":"levelo://app?vid=0b5e7908-675a-4dd8-8db0-2307e1b5163d","ios":"levelo://app?vid=0b5e7908-675a-4dd8-8db0-2307e1b5163d"},"vehicle_type_id":"4","last_reported":1757927570,"current_range_meters":3600,"station_id":"ce4bhq12rcd13ifvqhhg","pricing_plan_id":"cebpf4jnsgd1na2vs0mg"},{"bike_id":"8a1c985d-8abf-4ba0-95d4-d11dd91d05c0","system_id":"levelo_inurba_marseille","lat":43.29578,"lon":5.375254,"is_reserved":false,"is_disabled":false,"rental_uris":{"android":"levelo://app?vid=8a1c985d-8abf-4ba0-95d4-d11dd91d05c0","ios":"levelo://app?vid=8a1c985d-8abf-4ba0-95d4-d11dd91d05c0"},"vehicle_type_id":"4","last_reported":1757927570,"current_range_meters":3600,"station_id":"","pricing_plan_id":"cebpf4jnsgd1na2vs0mg"},{"bike_id":"2ca4fa8e-9484-4b2b-889e-a29b90864289","system_id":"levelo_inurba_marseille","lat":43.295345,"lon":5.375031,"is_reserved":false,"is_disabled":false,"rental_uris":{"android":"levelo://app?vid=2ca4fa8e-9484-4b2b-889e-a29b90864289","ios":"levelo://app?vid=2ca4fa8e-9484-4b2b-889e-a29b90864289"},"vehicle_type_id":"4","last_reported":1757927570,"current_range_meters":3600,"station_id":"ce4bgkp2rcd13ifvqbmg","pricing_plan_id":"cebpf4jnsgd1na2vs0mg"},{"bike_id":"4139ccef-c91b-4cf8-9bc3-346a6d084323","system_id":"levelo_inurba_marseille","lat":43.30451,"lon":5.37906,"is_reserved":false,"is_disabled":true,"rental_uris":{"android":"levelo://app?vid=4139ccef-c91b-4cf8-9bc3-346a6d084323","ios":"levelo://app?vid=4139ccef-c91b-4cf8-9bc3-346a6d084323"},"vehicle_type_id":"4","last_reported":1757927570,"current_range_meters":4000,"station_id":"ce4bgup2rcd13ifvqcn0","pricing_plan_id":"cebpf4jnsgd1na2vs0mg"},{"bike_id":"acad0b0b-5349-4514-8edc-1e81ad21cfbe","system_id":"levelo_inurba_marseille","lat":43.2892,"lon":5.38398,"is_reserved":false,"is_disabled":false,"rental_uris":{"android":"levelo://app?vid=acad0b0b-5349-4514-8edc-1e81ad21cfbe","ios":"levelo://app?vid=acad0b0b-5349-4514-8edc-1e81ad21cfbe"},"vehicle_type_id":"4","last_reported":1757927570,"current_range_meters":4000,"station_id":"ce4bh612rcd13ifvqe6g","pricing_plan_id":"cebpf4jnsgd1na2vs0mg"},{"bike_id":"ae2200e0-55fa-4d16-87bf-72ca65d67371","system_id":"levelo_inurba_marseille","lat":43.283799,"lon":5.38482,"is_reserved":false,"is_disabled":false,"rental_uris":{"android":"levelo://app?vid=ae2200e0-55fa-4d16-87bf-72ca65d67371","ios":"levelo://app?vid=ae2200e0-55fa-4d16-87bf-72ca65d67371"},"vehicle_type_id":"4","last_reported":1757927570,"current_range_meters":4000,"station_id":"","pricing_plan_id":"cebpf4jnsgd1na2vs0mg"},{"bike_id":"23fe38a0-3811-44fe-9389-8b896525efdb","system_id":"levelo_inurba_marseille","lat":43.27996,"lon":5.41663,"is_reserved":false,"is_disabled":false,"rental_uris":{"android":"levelo://app?vid=23fe38a0-3811-44fe-9389-8b896525efdb","ios":"levelo://app?vid=23fe38a0-3811-44fe-9389-8b896525efdb"},"vehicle_type_id":"4","last_reported":1757927570,"current_range_meters":3600,"station_id":"ce4bho12rcd13ifvqh1g","pricing_plan_id":"cebpf4jnsgd1na2vs0mg"},{"bike_id":"e03bd15c-c472-4f08-bc2f-c1b8a57b70fb","system_id":"levelo_inurba_marseille","lat":43.31085,"lon":5.40105,"is_reserved":false,"is_disabled":true,"rental_uris":{"android":"levelo://app?vid=e03bd15c-c472-4f08-bc2f-c1b8a57b70fb","ios":"levelo://app?vid=e03bd15c-c472-4f08-bc2f-c1b8a57b70fb"},"vehicle_type_id":"4","last_reported":1757927570,"current_range_meters":4000,"station_id":"","pricing_plan_id":"cebpf4jnsgd1na2vs0mg"},{"bike_id":"90b6c2c8-4803-4cbe-ac55-7b11770052b2","system_id":"levelo_inurba_marseille","lat":43.302619,"lon":5.377184,"is_reserved":false,"is_disabled":false,"rental_uris":{"android":"levelo://app?vid=90b6c2c8-4803-4cbe-ac55-7b11770052b2","ios":"levelo://app?vid=90b6c2c8-4803-4cbe-ac55-7b11770052b2"},"vehicle_type_id":"4","last_reported":1757927570,"current_range_meters":4400,"station_id":"ce4bguh2rcd13ifvqcj0","pricing_plan_id":"cebpf4jnsgd1na2vs0mg"},{"bike_id":"41c99949-9e67-41b4-8071-da07e4c5998a","system_id":"levelo_inurba_marseille","lat":43.28608,"lon":5.35119,"is_reserved":false,"is_disabled":false,"rental_uris":{"android":"levelo://app?vid=41c99949-9e67-41b4-8071-da07e4c5998a","ios":"levelo://app?vid=41c99949-9e67-41b4-8071-da07e4c5998a"},"vehicle_type_id":"4","last_reported":1757927570,"current_range_meters":4400,"station_id":"ce4bhch2rcd13ifvqeug","pricing_plan_id":"cebpf4jnsgd1na2vs0mg"},{"bike_id":"a636e0e2-16c5-483c-bbdf-5e05c9de7ea2","system_id":"levelo_inurba_marseille","lat":43.297009,"lon":5.377678,"is_reserved":false,"is_disabled":false,"rental_uris":{"android":"levelo://app?vid=a636e0e2-16c5-483c-bbdf-5e05c9de7ea2","ios":"levelo://app?vid=a636e0e2-16c5-483c-bbdf-5e05c9de7ea2"},"vehicle_type_id":"4","last_reported":1757927570,"current_range_meters":4400,"station_id":"ce4bgr92rcd13ifvqc7g","pricing_plan_id":"cebpf4jnsgd1na2vs0mg"},{"bike_id":"6a6ef12e-8154-47d3-af6c-d014b46c607f","system_id":"levelo_inurba_marseille","lat":43.33716,"lon":5.39192,"is_reserved":false,"is_disabled":false,"rental_uris":{"android":"levelo://app?vid=6a6ef12e-8154-47d3-af6c-d014b46c607f","ios":"levelo://app?vid=6a6ef12e-8154-47d3-af6c-d014b46c607f"},"vehicle_type_id":"4","last_reported":1757927570,"current_range_meters":4400,"station_id":"ce4bhr92rcd13ifvqhsg","pricing_plan_id":"cebpf4jnsgd1na2vs0mg"},{"bike_id":"4d9cadef-0eab-47c3-b8f2-ca30a9d42123","system_id":"levelo_inurba_marseille","lat":43.30597,"lon":5.37228,"is_reserved":false,"is_disabled":false,"rental_uris":{"android":"levelo://app?vid=4d9cadef-0eab-47c3-b8f2-ca30a9d42123","ios":"levelo://app?vid=4d9cadef-0eab-47c3-b8f2-ca30a9d42123"},"vehicle_type_id":"4","last_reported":1757927570,"current_range_meters":4400,"station_id":"ce4bgqh2rcd13ifvqc4g","pricing_plan_id":"cebpf4jnsgd1na2vs0mg"},{"bike_id":"46abccb2-8643-462f-83c6-11d19b9f7030","system_id":"levelo_inurba_marseille","lat":43.28055,"lon":5.38867,"is_reserved":false,"is_disabled":true,"rental_uris":{"android":"levelo://app?vid=46abccb2-8643-462f-83c6-11d19b9f7030","ios":"levelo://app?vid=46abccb2-8643-462f-83c6-11d19b9f7030"},"vehicle_type_id":"4","last_reported":1757927570,"current_range_meters":4400,"station_id":"","pricing_plan_id":"cebpf4jnsgd1na2vs0mg"},{"bike_id":"4891d751-b66c-4a3d-89d5-78926b795844","system_id":"levelo_inurba_marseille","lat":43.337444,"lon":5.374475,"is_reserved":false,"is_disabled":false,"rental_uris":{"android":"levelo://app?vid=4891d751-b66c-4a3d-89d5-78926b795844","ios":"levelo://app?vid=4891d751-b66c-4a3d-89d5-78926b795844"},"vehicle_type_id":"4","last_reported":1757927570,"current_range_meters":4800,"station_id":"","pricing_plan_id":"cebpf4jnsgd1na2vs0mg"},{"bike_id":"9a45254c-c77a-469d-8fa3-a3fa05a580ba","system_id":"levelo_inurba_marseille","lat":43.27151,"lon":5.3869,"is_reserved":false,"is_disabled":false,"rental_uris":{"android":"levelo://app?vid=9a45254c-c77a-469d-8fa3-a3fa05a580ba","ios":"levelo://app?vid=9a45254c-c77a-469d-8fa3-a3fa05a580ba"},"vehicle_type_id":"4","last_reported":1757927570,"current_range_meters":4800,"station_id":"","pricing_plan_id":"cebpf4jnsgd1na2vs0mg"},{"bike_id":"0f8294f8-2835-4ac9-bcae-4b0cc3f5cbb9","system_id":"levelo_inurba_marseille","lat":43.29028,"lon":5.38648,"is_reserved":false,"is_disabled":false,"rental_uris":{"android":"levelo://app?vid=0f8294f8-2835-4ac9-bcae-4b0cc3f5cbb9","ios":"levelo://app?vid=0f8294f8-2835-4ac9-bcae-4b0cc3f5cbb9"},"vehicle_type_id":"4","last_reported":1757927570,"current_range_meters":5600,"station_id":"ce4bh4p2rcd13ifvqe0g","pricing_plan_id":"cebpf4jnsgd1na2vs0mg"},{"bike_id":"484bffae-1a3b-4bc3-9591-800118c9dc4a","system_id":"levelo_inurba_marseille","lat":43.30133,"lon":5.39867,"is_reserved":false,"is_disabled":false,"rental_uris":{"android":"levelo://app?vid=484bffae-1a3b-4bc3-9591-800118c9dc4a","ios":"levelo://app?vid=484bffae-1a3b-4bc3-9591-800118c9dc4a"},"vehicle_type_id":"4","last_reported":1757927570,"current_range_meters":5600,"station_id":"","pricing_plan_id":"cebpf4jnsgd1na2vs0mg"},{"bike_id":"02dbb44c-70e3-4a7a-b86e-6159cc35ba47","system_id":"levelo_inurba_marseille","lat":43.29587,"lon":5.38689,"is_reserved":false,"is_disabled":false,"rental_uris":{"android":"levelo://app?vid=02dbb44c-70e3-4a7a-b86e-6159cc35ba47","ios":"levelo://app?vid=02dbb44c-70e3-4a7a-b86e-6159cc35ba47"},"vehicle_type_id":"4","last_reported":1757927570,"current_range_meters":5600,"station_id":"ce4bgih2rcd13ifvqba0","pricing_plan_id":"cebpf4jnsgd1na2vs0mg"},{"bike_id":"55d59e02-f5a5-4e1a-9360-556e842fa2a4","system_id":"levelo_inurba_marseille","lat":43.33764,"lon":5.37496,"is_reserved":false,"is_disabled":false,"rental_uris":{"android":"levelo://app?vid=55d59e02-f5a5-4e1a-9360-556e842fa2a4","ios":"levelo://app?vid=55d59e02-f5a5-4e1a-9360-556e842fa2a4"},"vehicle_type_id":"4","last_reported":1757927570,"current_range_meters":6000,"station_id":"","pricing_plan_id":"cebpf4jnsgd1na2vs0mg"},{"bike_id":"2d461477-f41b-4284-a2db-8271ea1b987e","system_id":"levelo_inurba_marseille","lat":43.29167,"lon":5.37159,"is_reserved":false,"is_disabled":false,"rental_uris":{"android":"levelo://app?vid=2d461477-f41b-4284-a2db-8271ea1b987e","ios":"levelo://app?vid=2d461477-f41b-4284-a2db-8271ea1b987e"},"vehicle_type_id":"4","last_reported":1757927570,"current_range_meters":5600,"station_id":"ce4bha92rcd13ifvqeh0","pricing_plan_id":"cebpf4jnsgd1na2vs0mg"},{"bike_id":"78f84639-56f9-4c15-8768-49ed5cee722d","system_id":"levelo_inurba_marseille","lat":43.26027,"lon":5.37552,"is_reserved":false,"is_disabled":true,"rental_uris":{"android":"levelo://app?vid=78f84639-56f9-4c15-8768-49ed5cee722d","ios":"levelo://app?vid=78f84639-56f9-4c15-8768-49ed5cee722d"},"vehicle_type_id":"4","last_reported":1757927570,"current_range_meters":6000,"station_id":"ce4bhgh2rcd13ifvqfa0","pricing_plan_id":"cebpf4jnsgd1na2vs0mg"},{"bike_id":"2363ca6e-9861-422c-b8f3-df0fe96cba05","system_id":"levelo_inurba_marseille","lat":43.30963,"lon":5.39025,"is_reserved":false,"is_disabled":true,"rental_uris":{"android":"levelo://app?vid=2363ca6e-9861-422c-b8f3-df0fe96cba05","ios":"levelo://app?vid=2363ca6e-9861-422c-b8f3-df0fe96cba05"},"vehicle_type_id":"4","last_reported":1757927570,"current_range_meters":6000,"station_id":"ce4bgup2rcd13ifvqco0","pricing_plan_id":"cebpf4jnsgd1na2vs0mg"},{"bike_id":"d5c98035-fc72-4062-a3ec-13203f68e8ed","system_id":"levelo_inurba_marseille","lat":43.28873,"lon":5.42503,"is_reserved":false,"is_disabled":false,"rental_uris":{"android":"levelo://app?vid=d5c98035-fc72-4062-a3ec-13203f68e8ed","ios":"levelo://app?vid=d5c98035-fc72-4062-a3ec-13203f68e8ed"},"vehicle_type_id":"4","last_reported":1757927570,"current_range_meters":6000,"station_id":"","pricing_plan_id":"cebpf4jnsgd1na2vs0mg"},{"bike_id":"af284e3e-0c11-4fa8-be01-5a4602fe8ee5","system_id":"levelo_inurba_marseille","lat":43.29029,"lon":5.39987,"is_reserved":false,"is_disabled":false,"rental_uris":{"android":"levelo://app?vid=af284e3e-0c11-4fa8-be01-5a4602fe8ee5","ios":"levelo://app?vid=af284e3e-0c11-4fa8-be01-5a4602fe8ee5"},"vehicle_type_id":"4","last_reported":1757927570,"current_range_meters":6400,"station_id":"ce4bh392rcd13ifvqdm0","pricing_plan_id":"cebpf4jnsgd1na2vs0mg"},{"bike_id":"182289c1-d8ed-492c-a287-70c8f4e5e1b2","system_id":"levelo_inurba_marseille","lat":43.32402,"lon":5.38931,"is_reserved":false,"is_disabled":false,"rental_uris":{"android":"levelo://app?vid=182289c1-d8ed-492c-a287-70c8f4e5e1b2","ios":"levelo://app?vid=182289c1-d8ed-492c-a287-70c8f4e5e1b2"},"vehicle_type_id":"4","last_reported":1757927570,"current_range_meters":6400,"station_id":"","pricing_plan_id":"cebpf4jnsgd1na2vs0mg"},{"bike_id":"773cd728-4305-413e-8dcb-4138f75d3fdd","system_id":"levelo_inurba_marseille","lat":43.32356,"lon":5.36764,"is_reserved":false,"is_disabled":false,"rental_uris":{"android":"levelo://app?vid=773cd728-4305-413e-8dcb-4138f75d3fdd","ios":"levelo://app?vid=773cd728-4305-413e-8dcb-4138f75d3fdd"},"vehicle_type_id":"4","last_reported":1757927570,"current_range_meters":6400,"station_id":"ce4bhsh2rcd13ifvqi2g","pricing_plan_id":"cebpf4jnsgd1na2vs0mg"},{"bike_id":"64fd3338-9664-4eab-9d69-526a809f8c3c","system_id":"levelo_inurba_marseille","lat":43.3379,"lon":5.36693,"is_reserved":false,"is_disabled":false,"rental_uris":{"android":"levelo://app?vid=64fd3338-9664-4eab-9d69-526a809f8c3c","ios":"levelo://app?vid=64fd3338-9664-4eab-9d69-526a809f8c3c"},"vehicle_type_id":"4","last_reported":1757927570,"current_range_meters":6400,"station_id":"","pricing_plan_id":"cebpf4jnsgd1na2vs0mg"},{"bike_id":"ac1af94d-9b54-45d1-ac97-1ef2c6b973e6","system_id":"levelo_inurba_marseille","lat":43.30621,"lon":5.38884,"is_reserved":false,"is_disabled":false,"rental_uris":{"android":"levelo://app?vid=ac1af94d-9b54-45d1-ac97-1ef2c6b973e6","ios":"levelo://app?vid=ac1af94d-9b54-45d1-ac97-1ef2c6b973e6"},"vehicle_type_id":"4","last_reported":1757927570,"current_range_meters":6400,"station_id":"ce4bgk12rcd13ifvqbi0","pricing_plan_id":"cebpf4jnsgd1na2vs0mg"},{"bike_id":"1973ca9e-50d5-428a-b349-38b3688f536a","system_id":"levelo_inurba_marseille","lat":43.23151,"lon":5.43715,"is_reserved":false,"is_disabled":false,"rental_uris":{"android":"levelo://app?vid=1973ca9e-50d5-428a-b349-38b3688f536a","ios":"levelo://app?vid=1973ca9e-50d5-428a-b349-38b3688f536a"},"vehicle_type_id":"4","last_reported":1757927570,"current_range_meters":6400,"station_id":"ce4bhmp2rcd13ifvqgog","pricing_plan_id":"cebpf4jnsgd1na2vs0mg"},{"bike_id":"97295b12-7f01-4e94-8adb-a15bbf42b34e","system_id":"levelo_inurba_marseille","lat":43.29038,"lon":5.37555,"is_reserved":false,"is_disabled":false,"rental_uris":{"android":"levelo://app?vid=97295b12-7f01-4e94-8adb-a15bbf42b34e","ios":"levelo://app?vid=97295b12-7f01-4e94-8adb-a15bbf42b34e"},"vehicle_type_id":"4","last_reported":1757927570,"current_range_meters":6800,"station_id":"ce4bh692rcd13ifvqe90","pricing_plan_id":"cebpf4jnsgd1na2vs0mg"},{"bike_id":"af855c88-100f-429f-ba0c-3dad51b30928","system_id":"levelo_inurba_marseille","lat":43.21191,"lon":5.35062,"is_reserved":false,"is_disabled":false,"rental_uris":{"android":"levelo://app?vid=af855c88-100f-429f-ba0c-3dad51b30928","ios":"levelo://app?vid=af855c88-100f-429f-ba0c-3dad51b30928"},"vehicle_type_id":"4","last_reported":1757927570,"current_range_meters":6800,"station_id":"st_cvj6sg6p6f1abm77japg","pricing_plan_id":"cebpf4jnsgd1na2vs0mg"},{"bike_id":"d6e5e3a3-e21c-4780-adac-976a6cd1f8de","system_id":"levelo_inurba_marseille","lat":43.31198,"lon":5.38684,"is_reserved":false,"is_disabled":false,"rental_uris":{"android":"levelo://app?vid=d6e5e3a3-e21c-4780-adac-976a6cd1f8de","ios":"levelo://app?vid=d6e5e3a3-e21c-4780-adac-976a6cd1f8de"},"vehicle_type_id":"4","last_reported":1757927570,"current_range_meters":6800,"station_id":"","pricing_plan_id":"cebpf4jnsgd1na2vs0mg"},{"bike_id":"e36e41eb-a250-487e-aa53-43ea3a6a49fc","system_id":"levelo_inurba_marseille","lat":43.21742,"lon":5.34603,"is_reserved":false,"is_disabled":false,"rental_uris":{"android":"levelo://app?vid=e36e41eb-a250-487e-aa53-43ea3a6a49fc","ios":"levelo://app?vid=e36e41eb-a250-487e-aa53-43ea3a6a49fc"},"vehicle_type_id":"4","last_reported":1757927570,"current_range_meters":6800,"station_id":"st_cvj6r9ubvosntc0bgbag","pricing_plan_id":"cebpf4jnsgd1na2vs0mg"},{"bike_id":"406f6607-363d-4cf0-95ae-26829ed0307c","system_id":"levelo_inurba_marseille","lat":43.26214,"lon":5.40458,"is_reserved":false,"is_disabled":true,"rental_uris":{"android":"levelo://app?vid=406f6607-363d-4cf0-95ae-26829ed0307c","ios":"levelo://app?vid=406f6607-363d-4cf0-95ae-26829ed0307c"},"vehicle_type_id":"4","last_reported":1757927570,"current_range_meters":6800,"station_id":"ce4bhmh2rcd13ifvqgmg","pricing_plan_id":"cebpf4jnsgd1na2vs0mg"},{"bike_id":"c5399551-6c45-4950-9dd5-277e0a6747d7","system_id":"levelo_inurba_marseille","lat":43.29036,"lon":5.3996,"is_reserved":false,"is_disabled":false,"rental_uris":{"android":"levelo://app?vid=c5399551-6c45-4950-9dd5-277e0a6747d7","ios":"levelo://app?vid=c5399551-6c45-4950-9dd5-277e0a6747d7"},"vehicle_type_id":"4","last_reported":1757927570,"current_range_meters":6800,"station_id":"ce4bh392rcd13ifvqdm0","pricing_plan_id":"cebpf4jnsgd1na2vs0mg"},{"bike_id":"033546e9-8973-446a-bf19-d148144a84bd","system_id":"levelo_inurba_marseille","lat":43.298098,"lon":5.381159,"is_reserved":false,"is_disabled":false,"rental_uris":{"android":"levelo://app?vid=033546e9-8973-446a-bf19-d148144a84bd","ios":"levelo://app?vid=033546e9-8973-446a-bf19-d148144a84bd"},"vehicle_type_id":"4","last_reported":1757927570,"current_range_meters":7200,"station_id":"","pricing_plan_id":"cebpf4jnsgd1na2vs0mg"},{"bike_id":"d9c11a94-d122-4240-b95b-24fdee8810ac","system_id":"levelo_inurba_marseille","lat":43.2826,"lon":5.39915,"is_reserved":false,"is_disabled":false,"rental_uris":{"android":"levelo://app?vid=d9c11a94-d122-4240-b95b-24fdee8810ac","ios":"levelo://app?vid=d9c11a94-d122-4240-b95b-24fdee8810ac"},"vehicle_type_id":"4","last_reported":1757927570,"current_range_meters":7200,"station_id":"","pricing_plan_id":"cebpf4jnsgd1na2vs0mg"},{"bike_id":"c5cba6d7-e282-4417-a818-5fc0802dcb08","system_id":"levelo_inurba_marseille","lat":43.33761,"lon":5.3745,"is_reserved":false,"is_disabled":false,"rental_uris":{"android":"levelo://app?vid=c5cba6d7-e282-4417-a818-5fc0802dcb08","ios":"levelo://app?vid=c5cba6d7-e282-4417-a818-5fc0802dcb08"},"vehicle_type_id":"4","last_reported":1757927570,"current_range_meters":7200,"station_id":"","pricing_plan_id":"cebpf4jnsgd1na2vs0mg"},{"bike_id":"31f4578e-18c6-48fb-9fec-123fce0578f9","system_id":"levelo_inurba_marseille","lat":43.33851,"lon":5.37361,"is_reserved":false,"is_disabled":false,"rental_uris":{"android":"levelo://app?vid=31f4578e-18c6-48fb-9fec-123fce0578f9","ios":"levelo://app?vid=31f4578e-18c6-48fb-9fec-123fce0578f9"},"vehicle_type_id":"4","last_reported":1757927570,"current_range_meters":7200,"station_id":"","pricing_plan_id":"cebpf4jnsgd1na2vs0mg"},{"bike_id":"1fb24835-c24b-442f-81fe-7e4ffe66330e","system_id":"levelo_inurba_marseille","lat":43.337444,"lon":5.374475,"is_reserved":false,"is_disabled":false,"rental_uris":{"android":"levelo://app?vid=1fb24835-c24b-442f-81fe-7e4ffe66330e","ios":"levelo://app?vid=1fb24835-c24b-442f-81fe-7e4ffe66330e"},"vehicle_type_id":"4","last_reported":1757927570,"current_range_meters":8000,"station_id":"ce4bhn12rcd13ifvqgqg","pricing_plan_id":"cebpf4jnsgd1na2vs0mg"},{"bike_id":"8e7e0e5a-130c-414d-af81-801b0b3cc369","system_id":"levelo_inurba_marseille","lat":43.28945,"lon":5.36377,"is_reserved":false,"is_disabled":false,"rental_uris":{"android":"levelo://app?vid=8e7e0e5a-130c-414d-af81-801b0b3cc369","ios":"levelo://app?vid=8e7e0e5a-130c-414d-af81-801b0b3cc369"},"vehicle_type_id":"4","last_reported":1757927570,"current_range_meters":8000,"station_id":"ce4bhc92rcd13ifvqetg","pricing_plan_id":"cebpf4jnsgd1na2vs0mg"},{"bike_id":"3db67355-804e-4bcd-8a97-5d1970705558","system_id":"levelo_inurba_marseille","lat":43.2861,"lon":5.3511,"is_reserved":false,"is_disabled":false,"rental_uris":{"android":"levelo://app?vid=3db67355-804e-4bcd-8a97-5d1970705558","ios":"levelo://app?vid=3db67355-804e-4bcd-8a97-5d1970705558"},"vehicle_type_id":"4","last_reported":1757927570,"current_range_meters":8000,"station_id":"ce4bhch2rcd13ifvqeug","pricing_plan_id":"cebpf4jnsgd1na2vs0mg"},{"bike_id":"30e85da9-4a4e-420a-bc64-cfe1eeea89eb","system_id":"levelo_inurba_marseille","lat":43.283524,"lon":5.37638,"is_reserved":false,"is_disabled":false,"rental_uris":{"android":"levelo://app?vid=30e85da9-4a4e-420a-bc64-cfe1eeea89eb","ios":"levelo://app?vid=30e85da9-4a4e-420a-bc64-cfe1eeea89eb"},"vehicle_type_id":"4","last_reported":1757927570,"current_range_meters":8000,"station_id":"","pricing_plan_id":"cebpf4jnsgd1na2vs0mg"},{"bike_id":"974e0192-4f9e-4803-b6bc-e5f6e12940e1","system_id":"levelo_inurba_marseille","lat":43.31068,"lon":5.40093,"is_reserved":false,"is_disabled":false,"rental_uris":{"android":"levelo://app?vid=974e0192-4f9e-4803-b6bc-e5f6e12940e1","ios":"levelo://app?vid=974e0192-4f9e-4803-b6bc-e5f6e12940e1"},"vehicle_type_id":"4","last_reported":1757927570,"current_range_meters":8400,"station_id":"","pricing_plan_id":"cebpf4jnsgd1na2vs0mg"},{"bike_id":"5c1e55d9-decd-426f-89d8-b98a558f3809","system_id":"levelo_inurba_marseille","lat":43.31718,"lon":5.40464,"is_reserved":false,"is_disabled":true,"rental_uris":{"android":"levelo://app?vid=5c1e55d9-decd-426f-89d8-b98a558f3809","ios":"levelo://app?vid=5c1e55d9-decd-426f-89d8-b98a558f3809"},"vehicle_type_id":"4","last_reported":1757927570,"current_range_meters":8400,"station_id":"ce4bh012rcd13ifvqd00","pricing_plan_id":"cebpf4jnsgd1na2vs0mg"},{"bike_id":"046ba709-b940-4fa3-9690-1d81db536e4b","system_id":"levelo_inurba_marseille","lat":43.22563,"lon":5.41624,"is_reserved":false,"is_disabled":false,"rental_uris":{"android":"levelo://app?vid=046ba709-b940-4fa3-9690-1d81db536e4b","ios":"levelo://app?vid=046ba709-b940-4fa3-9690-1d81db536e4b"},"vehicle_type_id":"4","last_reported":1757927570,"current_range_meters":8400,"station_id":"st_d2o4gvlbi1j2169b742g","pricing_plan_id":"cebpf4jnsgd1na2vs0mg"},{"bike_id":"7222bdda-5ef4-4e1e-ad9b-23690fab885f","system_id":"levelo_inurba_marseille","lat":43.29529,"lon":5.39386,"is_reserved":false,"is_disabled":false,"rental_uris":{"android":"levelo://app?vid=7222bdda-5ef4-4e1e-ad9b-23690fab885f","ios":"levelo://app?vid=7222bdda-5ef4-4e1e-ad9b-23690fab885f"},"vehicle_type_id":"4","last_reported":1757927570,"current_range_meters":8400,"station_id":"ce4bh292rcd13ifvqdf0","pricing_plan_id":"cebpf4jnsgd1na2vs0mg"},{"bike_id":"90b99ccf-2b3c-4d75-9e45-7dd3a550aac1","system_id":"levelo_inurba_marseille","lat":43.23569,"lon":5.39891,"is_reserved":false,"is_disabled":false,"rental_uris":{"android":"levelo://app?vid=90b99ccf-2b3c-4d75-9e45-7dd3a550aac1","ios":"levelo://app?vid=90b99ccf-2b3c-4d75-9e45-7dd3a550aac1"},"vehicle_type_id":"4","last_reported":1757927570,"current_range_meters":8400,"station_id":"","pricing_plan_id":"cebpf4jnsgd1na2vs0mg"},{"bike_id":"46cbde2f-6200-4734-bdf2-50f09cc69a92","system_id":"levelo_inurba_marseille","lat":43.211889,"lon":5.35073,"is_reserved":false,"is_disabled":false,"rental_uris":{"android":"levelo://app?vid=46cbde2f-6200-4734-bdf2-50f09cc69a92","ios":"levelo://app?vid=46cbde2f-6200-4734-bdf2-50f09cc69a92"},"vehicle_type_id":"4","last_reported":1757927570,"current_range_meters":8400,"station_id":"st_cvj6sg6p6f1abm77japg","pricing_plan_id":"cebpf4jnsgd1na2vs0mg"},{"bike_id":"92328f20-9c61-4621-aefd-c280af7d31a0","system_id":"levelo_inurba_marseille","lat":43.2887,"lon":5.42524,"is_reserved":false,"is_disabled":false,"rental_uris":{"android":"levelo://app?vid=92328f20-9c61-4621-aefd-c280af7d31a0","ios":"levelo://app?vid=92328f20-9c61-4621-aefd-c280af7d31a0"},"vehicle_type_id":"4","last_reported":1757927570,"current_range_meters":8400,"station_id":"","pricing_plan_id":"cebpf4jnsgd1na2vs0mg"},{"bike_id":"31195751-bbc1-4ea5-8068-c21d8881b649","system_id":"levelo_inurba_marseille","lat":43.24083,"lon":5.37743,"is_reserved":false,"is_disabled":true,"rental_uris":{"android":"levelo://app?vid=31195751-bbc1-4ea5-8068-c21d8881b649","ios":"levelo://app?vid=31195751-bbc1-4ea5-8068-c21d8881b649"},"vehicle_type_id":"4","last_reported":1757927570,"current_range_meters":8800,"station_id":"ce4bhnp2rcd13ifvqgvg","pricing_plan_id":"cebpf4jnsgd1na2vs0mg"},{"bike_id":"97f55da6-2f8c-4842-981b-27651affaa8a","system_id":"levelo_inurba_marseille","lat":43.29039,"lon":5.39962,"is_reserved":false,"is_disabled":false,"rental_uris":{"android":"levelo://app?vid=97f55da6-2f8c-4842-981b-27651affaa8a","ios":"levelo://app?vid=97f55da6-2f8c-4842-981b-27651affaa8a"},"vehicle_type_id":"4","last_reported":1757927570,"current_range_meters":8400,"station_id":"ce4bh392rcd13ifvqdm0","pricing_plan_id":"cebpf4jnsgd1na2vs0mg"},{"bike_id":"ebda39dd-ba01-49f2-9d04-dac934bdddef","system_id":"levelo_inurba_marseille","lat":43.28404,"lon":5.37509,"is_reserved":false,"is_disabled":false,"rental_uris":{"android":"levelo://app?vid=ebda39dd-ba01-49f2-9d04-dac934bdddef","ios":"levelo://app?vid=ebda39dd-ba01-49f2-9d04-dac934bdddef"},"vehicle_type_id":"4","last_reported":1757927570,"current_range_meters":9200,"station_id":"ce4bh412rcd13ifvqds0","pricing_plan_id":"cebpf4jnsgd1na2vs0mg"},{"bike_id":"ee42c31a-b74b-4b2d-917a-cd50dc10c6ce","system_id":"levelo_inurba_marseille","lat":43.310611,"lon":5.400964,"is_reserved":false,"is_disabled":false,"rental_uris":{"android":"levelo://app?vid=ee42c31a-b74b-4b2d-917a-cd50dc10c6ce","ios":"levelo://app?vid=ee42c31a-b74b-4b2d-917a-cd50dc10c6ce"},"vehicle_type_id":"4","last_reported":1757927570,"current_range_meters":9200,"station_id":"","pricing_plan_id":"cebpf4jnsgd1na2vs0mg"},{"bike_id":"c197724f-ac51-4f87-8a4c-6894dceac8f7","system_id":"levelo_inurba_marseille","lat":43.22928,"lon":5.35376,"is_reserved":false,"is_disabled":false,"rental_uris":{"android":"levelo://app?vid=c197724f-ac51-4f87-8a4c-6894dceac8f7","ios":"levelo://app?vid=c197724f-ac51-4f87-8a4c-6894dceac8f7"},"vehicle_type_id":"4","last_reported":1757927570,"current_range_meters":9200,"station_id":"cpo3532slgdg3j2ikp40","pricing_plan_id":"cebpf4jnsgd1na2vs0mg"},{"bike_id":"7b0b1b19-bcd6-4dfa-b6cf-4ad82b528d45","system_id":"levelo_inurba_marseille","lat":43.23143,"lon":5.43722,"is_reserved":false,"is_disabled":false,"rental_uris":{"android":"levelo://app?vid=7b0b1b19-bcd6-4dfa-b6cf-4ad82b528d45","ios":"levelo://app?vid=7b0b1b19-bcd6-4dfa-b6cf-4ad82b528d45"},"vehicle_type_id":"4","last_reported":1757927570,"current_range_meters":9200,"station_id":"ce4bhmp2rcd13ifvqgog","pricing_plan_id":"cebpf4jnsgd1na2vs0mg"},{"bike_id":"99a205b3-3fdf-41a9-915c-e6863a0d0347","system_id":"levelo_inurba_marseille","lat":43.24181,"lon":5.39711,"is_reserved":false,"is_disabled":false,"rental_uris":{"android":"levelo://app?vid=99a205b3-3fdf-41a9-915c-e6863a0d0347","ios":"levelo://app?vid=99a205b3-3fdf-41a9-915c-e6863a0d0347"},"vehicle_type_id":"4","last_reported":1757927570,"current_range_meters":9200,"station_id":"ce4bhn12rcd13ifvqgpg","pricing_plan_id":"cebpf4jnsgd1na2vs0mg"},{"bike_id":"5aeb5022-1558-4cda-a743-0921b3fe28c3","system_id":"levelo_inurba_marseille","lat":43.31362,"lon":5.38485,"is_reserved":false,"is_disabled":false,"rental_uris":{"android":"levelo://app?vid=5aeb5022-1558-4cda-a743-0921b3fe28c3","ios":"levelo://app?vid=5aeb5022-1558-4cda-a743-0921b3fe28c3"},"vehicle_type_id":"4","last_reported":1757927570,"current_range_meters":9600,"station_id":"ce4bgt92rcd13ifvqcf0","pricing_plan_id":"cebpf4jnsgd1na2vs0mg"},{"bike_id":"f32b4a38-2322-4ea3-a8d9-b73c4a1faedb","system_id":"levelo_inurba_marseille","lat":43.325448,"lon":5.41447,"is_reserved":false,"is_disabled":false,"rental_uris":{"android":"levelo://app?vid=f32b4a38-2322-4ea3-a8d9-b73c4a1faedb","ios":"levelo://app?vid=f32b4a38-2322-4ea3-a8d9-b73c4a1faedb"},"vehicle_type_id":"4","last_reported":1757927570,"current_range_meters":9600,"station_id":"ce4bhq12rcd13ifvqhhg","pricing_plan_id":"cebpf4jnsgd1na2vs0mg"},{"bike_id":"7612f9e4-75f3-4504-87de-23bc3f52b0aa","system_id":"levelo_inurba_marseille","lat":43.27491,"lon":5.42459,"is_reserved":false,"is_disabled":false,"rental_uris":{"android":"levelo://app?vid=7612f9e4-75f3-4504-87de-23bc3f52b0aa","ios":"levelo://app?vid=7612f9e4-75f3-4504-87de-23bc3f52b0aa"},"vehicle_type_id":"4","last_reported":1757927570,"current_range_meters":9600,"station_id":"ce4bhn92rcd13ifvqgrg","pricing_plan_id":"cebpf4jnsgd1na2vs0mg"},{"bike_id":"4f9bd625-ea72-423e-9234-f59f397dfa3c","system_id":"levelo_inurba_marseille","lat":43.21192,"lon":5.35071,"is_reserved":false,"is_disabled":false,"rental_uris":{"android":"levelo://app?vid=4f9bd625-ea72-423e-9234-f59f397dfa3c","ios":"levelo://app?vid=4f9bd625-ea72-423e-9234-f59f397dfa3c"},"vehicle_type_id":"4","last_reported":1757927570,"current_range_meters":9600,"station_id":"st_cvj6sg6p6f1abm77japg","pricing_plan_id":"cebpf4jnsgd1na2vs0mg"},{"bike_id":"b0ee3d6f-86af-4625-9fb6-a68fbf2e6a08","system_id":"levelo_inurba_marseille","lat":43.286735,"lon":5.386801,"is_reserved":false,"is_disabled":false,"rental_uris":{"android":"levelo://app?vid=b0ee3d6f-86af-4625-9fb6-a68fbf2e6a08","ios":"levelo://app?vid=b0ee3d6f-86af-4625-9fb6-a68fbf2e6a08"},"vehicle_type_id":"4","last_reported":1757927570,"current_range_meters":9600,"station_id":"","pricing_plan_id":"cebpf4jnsgd1na2vs0mg"},{"bike_id":"fbd0328c-4ce4-4080-b126-d2d47d815fa6","system_id":"levelo_inurba_marseille","lat":43.21744,"lon":5.34627,"is_reserved":false,"is_disabled":false,"rental_uris":{"android":"levelo://app?vid=fbd0328c-4ce4-4080-b126-d2d47d815fa6","ios":"levelo://app?vid=fbd0328c-4ce4-4080-b126-d2d47d815fa6"},"vehicle_type_id":"4","last_reported":1757927570,"current_range_meters":9600,"station_id":"st_cvj6r9ubvosntc0bgbag","pricing_plan_id":"cebpf4jnsgd1na2vs0mg"},{"bike_id":"da923fae-3c63-4b8c-94e1-ad4996b48859","system_id":"levelo_inurba_marseille","lat":43.29251,"lon":5.40912,"is_reserved":false,"is_disabled":false,"rental_uris":{"android":"levelo://app?vid=da923fae-3c63-4b8c-94e1-ad4996b48859","ios":"levelo://app?vid=da923fae-3c63-4b8c-94e1-ad4996b48859"},"vehicle_type_id":"4","last_reported":1757927570,"current_range_meters":9200,"station_id":"ce4bh192rcd13ifvqdc0","pricing_plan_id":"cebpf4jnsgd1na2vs0mg"},{"bike_id":"ca0901f1-1b37-4a72-a69e-49f1521f44f3","system_id":"levelo_inurba_marseille","lat":43.30114,"lon":5.37444,"is_reserved":false,"is_disabled":false,"rental_uris":{"android":"levelo://app?vid=ca0901f1-1b37-4a72-a69e-49f1521f44f3","ios":"levelo://app?vid=ca0901f1-1b37-4a72-a69e-49f1521f44f3"},"vehicle_type_id":"4","last_reported":1757927570,"current_range_meters":10000,"station_id":"ce4bgs92rcd13ifvqcc0","pricing_plan_id":"cebpf4jnsgd1na2vs0mg"},{"bike_id":"85db8ab9-6b24-4c23-8762-109e948df9cd","system_id":"levelo_inurba_marseille","lat":43.30587,"lon":5.40473,"is_reserved":false,"is_disabled":false,"rental_uris":{"android":"levelo://app?vid=85db8ab9-6b24-4c23-8762-109e948df9cd","ios":"levelo://app?vid=85db8ab9-6b24-4c23-8762-109e948df9cd"},"vehicle_type_id":"4","last_reported":1757927570,"current_range_meters":10000,"station_id":"","pricing_plan_id":"cebpf4jnsgd1na2vs0mg"},{"bike_id":"d9c4202c-de13-4428-8c40-40d90faf1618","system_id":"levelo_inurba_marseille","lat":43.31356,"lon":5.3707,"is_reserved":false,"is_disabled":false,"rental_uris":{"android":"levelo://app?vid=d9c4202c-de13-4428-8c40-40d90faf1618","ios":"levelo://app?vid=d9c4202c-de13-4428-8c40-40d90faf1618"},"vehicle_type_id":"4","last_reported":1757927570,"current_range_meters":10800,"station_id":"","pricing_plan_id":"cebpf4jnsgd1na2vs0mg"},{"bike_id":"f75319f4-d3a6-440f-9c89-5af7f4acd041","system_id":"levelo_inurba_marseille","lat":43.22552,"lon":5.41626,"is_reserved":false,"is_disabled":false,"rental_uris":{"android":"levelo://app?vid=f75319f4-d3a6-440f-9c89-5af7f4acd041","ios":"levelo://app?vid=f75319f4-d3a6-440f-9c89-5af7f4acd041"},"vehicle_type_id":"4","last_reported":1757927570,"current_range_meters":10800,"station_id":"st_d2o4gvlbi1j2169b742g","pricing_plan_id":"cebpf4jnsgd1na2vs0mg"},{"bike_id":"e8930cfa-2c36-4dbf-ab3e-6afdedf38824","system_id":"levelo_inurba_marseille","lat":43.22579,"lon":5.41631,"is_reserved":false,"is_disabled":false,"rental_uris":{"android":"levelo://app?vid=e8930cfa-2c36-4dbf-ab3e-6afdedf38824","ios":"levelo://app?vid=e8930cfa-2c36-4dbf-ab3e-6afdedf38824"},"vehicle_type_id":"4","last_reported":1757927570,"current_range_meters":10800,"station_id":"st_d2o4gvlbi1j2169b742g","pricing_plan_id":"cebpf4jnsgd1na2vs0mg"},{"bike_id":"a30a50bb-b7f7-492c-a67b-7e85ceb34be2","system_id":"levelo_inurba_marseille","lat":43.27491,"lon":5.42454,"is_reserved":false,"is_disabled":false,"rental_uris":{"android":"levelo://app?vid=a30a50bb-b7f7-492c-a67b-7e85ceb34be2","ios":"levelo://app?vid=a30a50bb-b7f7-492c-a67b-7e85ceb34be2"},"vehicle_type_id":"4","last_reported":1757927570,"current_range_meters":10800,"station_id":"ce4bhn92rcd13ifvqgrg","pricing_plan_id":"cebpf4jnsgd1na2vs0mg"},{"bike_id":"74aa6598-3846-4f63-a6e6-ad206e6e5190","system_id":"levelo_inurba_marseille","lat":43.30445,"lon":5.37919,"is_reserved":false,"is_disabled":false,"rental_uris":{"android":"levelo://app?vid=74aa6598-3846-4f63-a6e6-ad206e6e5190","ios":"levelo://app?vid=74aa6598-3846-4f63-a6e6-ad206e6e5190"},"vehicle_type_id":"4","last_reported":1757927570,"current_range_meters":10800,"station_id":"ce4bgup2rcd13ifvqcn0","pricing_plan_id":"cebpf4jnsgd1na2vs0mg"},{"bike_id":"4b89ad18-a85a-4cf5-a107-a46d8823374f","system_id":"levelo_inurba_marseille","lat":43.22557,"lon":5.41641,"is_reserved":false,"is_disabled":false,"rental_uris":{"android":"levelo://app?vid=4b89ad18-a85a-4cf5-a107-a46d8823374f","ios":"levelo://app?vid=4b89ad18-a85a-4cf5-a107-a46d8823374f"},"vehicle_type_id":"4","last_reported":1757927570,"current_range_meters":10800,"station_id":"st_d2o4gvlbi1j2169b742g","pricing_plan_id":"cebpf4jnsgd1na2vs0mg"},{"bike_id":"53c0ca27-e73d-4412-a1ac-98d7ae4659e2","system_id":"levelo_inurba_marseille","lat":43.28618,"lon":5.35107,"is_reserved":false,"is_disabled":false,"rental_uris":{"android":"levelo://app?vid=53c0ca27-e73d-4412-a1ac-98d7ae4659e2","ios":"levelo://app?vid=53c0ca27-e73d-4412-a1ac-98d7ae4659e2"},"vehicle_type_id":"4","last_reported":1757927570,"current_range_meters":10800,"station_id":"ce4bhch2rcd13ifvqeug","pricing_plan_id":"cebpf4jnsgd1na2vs0mg"},{"bike_id":"27e9c1a4-06db-4af4-9960-8d7a302222d8","system_id":"levelo_inurba_marseille","lat":43.25826,"lon":5.39438,"is_reserved":false,"is_disabled":false,"rental_uris":{"android":"levelo://app?vid=27e9c1a4-06db-4af4-9960-8d7a302222d8","ios":"levelo://app?vid=27e9c1a4-06db-4af4-9960-8d7a302222d8"},"vehicle_type_id":"4","last_reported":1757927570,"current_range_meters":10800,"station_id":"ce4bhip2rcd13ifvqft0","pricing_plan_id":"cebpf4jnsgd1na2vs0mg"},{"bike_id":"d7623cb7-431f-41df-b017-4cf3c72bd2b8","system_id":"levelo_inurba_marseille","lat":43.29002,"lon":5.35607,"is_reserved":false,"is_disabled":false,"rental_uris":{"android":"levelo://app?vid=d7623cb7-431f-41df-b017-4cf3c72bd2b8","ios":"levelo://app?vid=d7623cb7-431f-41df-b017-4cf3c72bd2b8"},"vehicle_type_id":"4","last_reported":1757927570,"current_range_meters":10800,"station_id":"ce4bhb92rcd13ifvqen0","pricing_plan_id":"cebpf4jnsgd1na2vs0mg"},{"bike_id":"66afd6b9-44ae-44a5-be71-0170ee931a12","system_id":"levelo_inurba_marseille","lat":43.23153,"lon":5.43712,"is_reserved":false,"is_disabled":false,"rental_uris":{"android":"levelo://app?vid=66afd6b9-44ae-44a5-be71-0170ee931a12","ios":"levelo://app?vid=66afd6b9-44ae-44a5-be71-0170ee931a12"},"vehicle_type_id":"4","last_reported":1757927570,"current_range_meters":10800,"station_id":"ce4bhmp2rcd13ifvqgog","pricing_plan_id":"cebpf4jnsgd1na2vs0mg"},{"bike_id":"4d6e6605-7f16-44fa-a19a-c138ee7cb360","system_id":"levelo_inurba_marseille","lat":43.33799,"lon":5.37446,"is_reserved":false,"is_disabled":false,"rental_uris":{"android":"levelo://app?vid=4d6e6605-7f16-44fa-a19a-c138ee7cb360","ios":"levelo://app?vid=4d6e6605-7f16-44fa-a19a-c138ee7cb360"},"vehicle_type_id":"4","last_reported":1757927570,"current_range_meters":11200,"station_id":"","pricing_plan_id":"cebpf4jnsgd1na2vs0mg"},{"bike_id":"5626224e-f64c-4fc1-bfe7-e50dda300688","system_id":"levelo_inurba_marseille","lat":43.23174,"lon":5.39983,"is_reserved":false,"is_disabled":false,"rental_uris":{"android":"levelo://app?vid=5626224e-f64c-4fc1-bfe7-e50dda300688","ios":"levelo://app?vid=5626224e-f64c-4fc1-bfe7-e50dda300688"},"vehicle_type_id":"4","last_reported":1757927570,"current_range_meters":10800,"station_id":"ce4bhn12rcd13ifvqgqg","pricing_plan_id":"cebpf4jnsgd1na2vs0mg"},{"bike_id":"acb331c1-fd2d-4b41-86de-f558b55f5cee","system_id":"levelo_inurba_marseille","lat":43.28266,"lon":5.3506,"is_reserved":false,"is_disabled":false,"rental_uris":{"android":"levelo://app?vid=acb331c1-fd2d-4b41-86de-f558b55f5cee","ios":"levelo://app?vid=acb331c1-fd2d-4b41-86de-f558b55f5cee"},"vehicle_type_id":"4","last_reported":1757927570,"current_range_meters":10800,"station_id":"ce4bhbp2rcd13ifvqerg","pricing_plan_id":"cebpf4jnsgd1na2vs0mg"},{"bike_id":"eaf6847e-5690-4791-af34-bfb52e6086ed","system_id":"levelo_inurba_marseille","lat":43.32106,"lon":5.3678,"is_reserved":false,"is_disabled":false,"rental_uris":{"android":"levelo://app?vid=eaf6847e-5690-4791-af34-bfb52e6086ed","ios":"levelo://app?vid=eaf6847e-5690-4791-af34-bfb52e6086ed"},"vehicle_type_id":"4","last_reported":1757927570,"current_range_meters":11600,"station_id":"ce4bhrh2rcd13ifvqhug","pricing_plan_id":"cebpf4jnsgd1na2vs0mg"},{"bike_id":"9e00ae6d-df99-4c99-8df9-51bc2be56721","system_id":"levelo_inurba_marseille","lat":43.30275,"lon":5.37693,"is_reserved":false,"is_disabled":false,"rental_uris":{"android":"levelo://app?vid=9e00ae6d-df99-4c99-8df9-51bc2be56721","ios":"levelo://app?vid=9e00ae6d-df99-4c99-8df9-51bc2be56721"},"vehicle_type_id":"4","last_reported":1757927570,"current_range_meters":11200,"station_id":"ce4bguh2rcd13ifvqcj0","pricing_plan_id":"cebpf4jnsgd1na2vs0mg"},{"bike_id":"746f8f66-7f46-4e2a-8f64-942936320bf9","system_id":"levelo_inurba_marseille","lat":43.23964,"lon":5.36637,"is_reserved":false,"is_disabled":true,"rental_uris":{"android":"levelo://app?vid=746f8f66-7f46-4e2a-8f64-942936320bf9","ios":"levelo://app?vid=746f8f66-7f46-4e2a-8f64-942936320bf9"},"vehicle_type_id":"4","last_reported":1757927570,"current_range_meters":11600,"station_id":"ce4bhi12rcd13ifvqfp0","pricing_plan_id":"cebpf4jnsgd1na2vs0mg"},{"bike_id":"fea9621a-3f54-47a7-97a4-893dda4fb834","system_id":"levelo_inurba_marseille","lat":43.308,"lon":5.38164,"is_reserved":false,"is_disabled":false,"rental_uris":{"android":"levelo://app?vid=fea9621a-3f54-47a7-97a4-893dda4fb834","ios":"levelo://app?vid=fea9621a-3f54-47a7-97a4-893dda4fb834"},"vehicle_type_id":"4","last_reported":1757927570,"current_range_meters":12000,"station_id":"ce4bgt12rcd13ifvqce0","pricing_plan_id":"cebpf4jnsgd1na2vs0mg"},{"bike_id":"1f99947a-5b8a-4435-9371-08f1162c2332","system_id":"levelo_inurba_marseille","lat":43.25495,"lon":5.37659,"is_reserved":false,"is_disabled":false,"rental_uris":{"android":"levelo://app?vid=1f99947a-5b8a-4435-9371-08f1162c2332","ios":"levelo://app?vid=1f99947a-5b8a-4435-9371-08f1162c2332"},"vehicle_type_id":"4","last_reported":1757927570,"current_range_meters":11600,"station_id":"ce4bhh12rcd13ifvqff0","pricing_plan_id":"cebpf4jnsgd1na2vs0mg"},{"bike_id":"4fa32fc6-4b31-40eb-a03f-aff5cbd63440","system_id":"levelo_inurba_marseille","lat":43.30471,"lon":5.37891,"is_reserved":false,"is_disabled":true,"rental_uris":{"android":"levelo://app?vid=4fa32fc6-4b31-40eb-a03f-aff5cbd63440","ios":"levelo://app?vid=4fa32fc6-4b31-40eb-a03f-aff5cbd63440"},"vehicle_type_id":"4","last_reported":1757927570,"current_range_meters":12000,"station_id":"ce4bgup2rcd13ifvqcn0","pricing_plan_id":"cebpf4jnsgd1na2vs0mg"},{"bike_id":"e05eea5e-3ede-4b75-8a49-e9854c3d159d","system_id":"levelo_inurba_marseille","lat":43.28613,"lon":5.35095,"is_reserved":false,"is_disabled":false,"rental_uris":{"android":"levelo://app?vid=e05eea5e-3ede-4b75-8a49-e9854c3d159d","ios":"levelo://app?vid=e05eea5e-3ede-4b75-8a49-e9854c3d159d"},"vehicle_type_id":"4","last_reported":1757927570,"current_range_meters":12000,"station_id":"ce4bhch2rcd13ifvqeug","pricing_plan_id":"cebpf4jnsgd1na2vs0mg"},{"bike_id":"06ef3e4a-06f9-4cac-bd0a-891d2c1e2a06","system_id":"levelo_inurba_marseille","lat":43.29004,"lon":5.35608,"is_reserved":false,"is_disabled":false,"rental_uris":{"android":"levelo://app?vid=06ef3e4a-06f9-4cac-bd0a-891d2c1e2a06","ios":"levelo://app?vid=06ef3e4a-06f9-4cac-bd0a-891d2c1e2a06"},"vehicle_type_id":"4","last_reported":1757927570,"current_range_meters":12000,"station_id":"ce4bhb92rcd13ifvqen0","pricing_plan_id":"cebpf4jnsgd1na2vs0mg"},{"bike_id":"b2fba456-5a3b-40c6-8765-ad84661db187","system_id":"levelo_inurba_marseille","lat":43.257205,"lon":5.411136,"is_reserved":false,"is_disabled":false,"rental_uris":{"android":"levelo://app?vid=b2fba456-5a3b-40c6-8765-ad84661db187","ios":"levelo://app?vid=b2fba456-5a3b-40c6-8765-ad84661db187"},"vehicle_type_id":"4","last_reported":1757927570,"current_range_meters":12000,"station_id":"ce4bhkp2rcd13ifvqgd0","pricing_plan_id":"cebpf4jnsgd1na2vs0mg"},{"bike_id":"97706d3f-f9d6-47c3-953b-bd71c07a3fc3","system_id":"levelo_inurba_marseille","lat":43.25936,"lon":5.40896,"is_reserved":false,"is_disabled":false,"rental_uris":{"android":"levelo://app?vid=97706d3f-f9d6-47c3-953b-bd71c07a3fc3","ios":"levelo://app?vid=97706d3f-f9d6-47c3-953b-bd71c07a3fc3"},"vehicle_type_id":"4","last_reported":1757927570,"current_range_meters":12000,"station_id":"ce4bhm92rcd13ifvqglg","pricing_plan_id":"cebpf4jnsgd1na2vs0mg"},{"bike_id":"b6d6f1e2-48c4-4558-b02a-207c838be43f","system_id":"levelo_inurba_marseille","lat":43.286102,"lon":5.370706,"is_reserved":false,"is_disabled":false,"rental_uris":{"android":"levelo://app?vid=b6d6f1e2-48c4-4558-b02a-207c838be43f","ios":"levelo://app?vid=b6d6f1e2-48c4-4558-b02a-207c838be43f"},"vehicle_type_id":"4","last_reported":1757927570,"current_range_meters":12000,"station_id":"ce4bht12rcd13ifvqi60","pricing_plan_id":"cebpf4jnsgd1na2vs0mg"},{"bike_id":"1d93a4c8-5a5a-4f60-a7bd-f31018517f8f","system_id":"levelo_inurba_marseille","lat":43.27484,"lon":5.42456,"is_reserved":false,"is_disabled":false,"rental_uris":{"android":"levelo://app?vid=1d93a4c8-5a5a-4f60-a7bd-f31018517f8f","ios":"levelo://app?vid=1d93a4c8-5a5a-4f60-a7bd-f31018517f8f"},"vehicle_type_id":"4","last_reported":1757927570,"current_range_meters":12400,"station_id":"ce4bhn92rcd13ifvqgrg","pricing_plan_id":"cebpf4jnsgd1na2vs0mg"},{"bike_id":"950a5f0c-6122-4d8d-a42b-4763023d14f2","system_id":"levelo_inurba_marseille","lat":43.25493,"lon":5.37644,"is_reserved":false,"is_disabled":true,"rental_uris":{"android":"levelo://app?vid=950a5f0c-6122-4d8d-a42b-4763023d14f2","ios":"levelo://app?vid=950a5f0c-6122-4d8d-a42b-4763023d14f2"},"vehicle_type_id":"4","last_reported":1757927570,"current_range_meters":12400,"station_id":"ce4bhh12rcd13ifvqff0","pricing_plan_id":"cebpf4jnsgd1na2vs0mg"},{"bike_id":"c0f32586-9d54-43f2-a7a5-dcfdc97599ee","system_id":"levelo_inurba_marseille","lat":43.299745,"lon":5.371875,"is_reserved":false,"is_disabled":true,"rental_uris":{"android":"levelo://app?vid=c0f32586-9d54-43f2-a7a5-dcfdc97599ee","ios":"levelo://app?vid=c0f32586-9d54-43f2-a7a5-dcfdc97599ee"},"vehicle_type_id":"4","last_reported":1757927570,"current_range_meters":12400,"station_id":"ce4bgr92rcd13ifvqc7g","pricing_plan_id":"cebpf4jnsgd1na2vs0mg"},{"bike_id":"e7a329bd-ed66-4ac7-aaba-63f2810ddd86","system_id":"levelo_inurba_marseille","lat":43.31859,"lon":5.37206,"is_reserved":false,"is_disabled":false,"rental_uris":{"android":"levelo://app?vid=e7a329bd-ed66-4ac7-aaba-63f2810ddd86","ios":"levelo://app?vid=e7a329bd-ed66-4ac7-aaba-63f2810ddd86"},"vehicle_type_id":"4","last_reported":1757927570,"current_range_meters":12400,"station_id":"","pricing_plan_id":"cebpf4jnsgd1na2vs0mg"},{"bike_id":"4b9c958a-8ae5-4328-ad46-9ca62e1e3e36","system_id":"levelo_inurba_marseille","lat":43.24544,"lon":5.39521,"is_reserved":false,"is_disabled":false,"rental_uris":{"android":"levelo://app?vid=4b9c958a-8ae5-4328-ad46-9ca62e1e3e36","ios":"levelo://app?vid=4b9c958a-8ae5-4328-ad46-9ca62e1e3e36"},"vehicle_type_id":"4","last_reported":1757927570,"current_range_meters":12400,"station_id":"ce4bhlp2rcd13ifvqgjg","pricing_plan_id":"cebpf4jnsgd1na2vs0mg"},{"bike_id":"57127154-7e15-4346-89ed-ab9d76ef9c2c","system_id":"levelo_inurba_marseille","lat":43.28838,"lon":5.36326,"is_reserved":false,"is_disabled":false,"rental_uris":{"android":"levelo://app?vid=57127154-7e15-4346-89ed-ab9d76ef9c2c","ios":"levelo://app?vid=57127154-7e15-4346-89ed-ab9d76ef9c2c"},"vehicle_type_id":"4","last_reported":1757927570,"current_range_meters":12400,"station_id":"","pricing_plan_id":"cebpf4jnsgd1na2vs0mg"},{"bike_id":"146d9d13-cf6d-4c32-9f07-05f123908819","system_id":"levelo_inurba_marseille","lat":43.29046,"lon":5.40029,"is_reserved":false,"is_disabled":false,"rental_uris":{"android":"levelo://app?vid=146d9d13-cf6d-4c32-9f07-05f123908819","ios":"levelo://app?vid=146d9d13-cf6d-4c32-9f07-05f123908819"},"vehicle_type_id":"4","last_reported":1757927570,"current_range_meters":12800,"station_id":"","pricing_plan_id":"cebpf4jnsgd1na2vs0mg"},{"bike_id":"4f36517e-2c99-43df-ba29-aa2ba9d41161","system_id":"levelo_inurba_marseille","lat":43.27493,"lon":5.42448,"is_reserved":false,"is_disabled":false,"rental_uris":{"android":"levelo://app?vid=4f36517e-2c99-43df-ba29-aa2ba9d41161","ios":"levelo://app?vid=4f36517e-2c99-43df-ba29-aa2ba9d41161"},"vehicle_type_id":"4","last_reported":1757927570,"current_range_meters":12800,"station_id":"ce4bhn92rcd13ifvqgrg","pricing_plan_id":"cebpf4jnsgd1na2vs0mg"},{"bike_id":"c240aebc-1909-455e-b183-fe4b3b670333","system_id":"levelo_inurba_marseille","lat":43.30149,"lon":5.38074,"is_reserved":false,"is_disabled":false,"rental_uris":{"android":"levelo://app?vid=c240aebc-1909-455e-b183-fe4b3b670333","ios":"levelo://app?vid=c240aebc-1909-455e-b183-fe4b3b670333"},"vehicle_type_id":"4","last_reported":1757927570,"current_range_meters":12800,"station_id":"ce4bgjp2rcd13ifvqbh0","pricing_plan_id":"cebpf4jnsgd1na2vs0mg"},{"bike_id":"03a632f1-6cf9-48d9-8d0d-cdc6b623de20","system_id":"levelo_inurba_marseille","lat":43.25931,"lon":5.40896,"is_reserved":false,"is_disabled":false,"rental_uris":{"android":"levelo://app?vid=03a632f1-6cf9-48d9-8d0d-cdc6b623de20","ios":"levelo://app?vid=03a632f1-6cf9-48d9-8d0d-cdc6b623de20"},"vehicle_type_id":"4","last_reported":1757927570,"current_range_meters":12800,"station_id":"ce4bhm92rcd13ifvqglg","pricing_plan_id":"cebpf4jnsgd1na2vs0mg"},{"bike_id":"944ea2a6-5bea-4d9a-970b-669091a09825","system_id":"levelo_inurba_marseille","lat":43.30529,"lon":5.3655,"is_reserved":false,"is_disabled":false,"rental_uris":{"android":"levelo://app?vid=944ea2a6-5bea-4d9a-970b-669091a09825","ios":"levelo://app?vid=944ea2a6-5bea-4d9a-970b-669091a09825"},"vehicle_type_id":"4","last_reported":1757927570,"current_range_meters":12800,"station_id":"ce4bgs12rcd13ifvqcag","pricing_plan_id":"cebpf4jnsgd1na2vs0mg"},{"bike_id":"6300c336-0590-4f78-943e-8940715742ab","system_id":"levelo_inurba_marseille","lat":43.27168,"lon":5.40991,"is_reserved":false,"is_disabled":false,"rental_uris":{"android":"levelo://app?vid=6300c336-0590-4f78-943e-8940715742ab","ios":"levelo://app?vid=6300c336-0590-4f78-943e-8940715742ab"},"vehicle_type_id":"4","last_reported":1757927570,"current_range_meters":13600,"station_id":"ce4bhl12rcd13ifvqgf0","pricing_plan_id":"cebpf4jnsgd1na2vs0mg"},{"bike_id":"ea435ab9-fded-4f41-b18c-d27e26d01cfa","system_id":"levelo_inurba_marseille","lat":43.2749,"lon":5.42457,"is_reserved":false,"is_disabled":false,"rental_uris":{"android":"levelo://app?vid=ea435ab9-fded-4f41-b18c-d27e26d01cfa","ios":"levelo://app?vid=ea435ab9-fded-4f41-b18c-d27e26d01cfa"},"vehicle_type_id":"4","last_reported":1757927570,"current_range_meters":13600,"station_id":"ce4bhn92rcd13ifvqgrg","pricing_plan_id":"cebpf4jnsgd1na2vs0mg"},{"bike_id":"2ca44cda-fc86-49aa-be44-aa89617da7bb","system_id":"levelo_inurba_marseille","lat":43.30138,"lon":5.37434,"is_reserved":false,"is_disabled":false,"rental_uris":{"android":"levelo://app?vid=2ca44cda-fc86-49aa-be44-aa89617da7bb","ios":"levelo://app?vid=2ca44cda-fc86-49aa-be44-aa89617da7bb"},"vehicle_type_id":"4","last_reported":1757927570,"current_range_meters":13600,"station_id":"ce4bgs92rcd13ifvqcc0","pricing_plan_id":"cebpf4jnsgd1na2vs0mg"},{"bike_id":"60df5be0-868d-496d-a7cc-2e097de1a47a","system_id":"levelo_inurba_marseille","lat":43.22507,"lon":5.41861,"is_reserved":false,"is_disabled":false,"rental_uris":{"android":"levelo://app?vid=60df5be0-868d-496d-a7cc-2e097de1a47a","ios":"levelo://app?vid=60df5be0-868d-496d-a7cc-2e097de1a47a"},"vehicle_type_id":"4","last_reported":1757927570,"current_range_meters":13600,"station_id":"st_d2o4gvlbi1j2169b742g","pricing_plan_id":"cebpf4jnsgd1na2vs0mg"},{"bike_id":"adc372f1-ba27-4411-9a42-fe23f1aab7cd","system_id":"levelo_inurba_marseille","lat":43.27374,"lon":5.36257,"is_reserved":false,"is_disabled":false,"rental_uris":{"android":"levelo://app?vid=adc372f1-ba27-4411-9a42-fe23f1aab7cd","ios":"levelo://app?vid=adc372f1-ba27-4411-9a42-fe23f1aab7cd"},"vehicle_type_id":"4","last_reported":1757927570,"current_range_meters":13600,"station_id":"ce4bhbh2rcd13ifvqeo0","pricing_plan_id":"cebpf4jnsgd1na2vs0mg"},{"bike_id":"9e528ecd-ddd1-4225-b5ab-4703b22aed46","system_id":"levelo_inurba_marseille","lat":43.28264,"lon":5.35078,"is_reserved":false,"is_disabled":false,"rental_uris":{"android":"levelo://app?vid=9e528ecd-ddd1-4225-b5ab-4703b22aed46","ios":"levelo://app?vid=9e528ecd-ddd1-4225-b5ab-4703b22aed46"},"vehicle_type_id":"4","last_reported":1757927570,"current_range_meters":14000,"station_id":"ce4bhbp2rcd13ifvqerg","pricing_plan_id":"cebpf4jnsgd1na2vs0mg"},{"bike_id":"0c6fe877-1024-4901-84e8-0fbaefe45584","system_id":"levelo_inurba_marseille","lat":43.33419,"lon":5.40057,"is_reserved":false,"is_disabled":false,"rental_uris":{"android":"levelo://app?vid=0c6fe877-1024-4901-84e8-0fbaefe45584","ios":"levelo://app?vid=0c6fe877-1024-4901-84e8-0fbaefe45584"},"vehicle_type_id":"4","last_reported":1757927570,"current_range_meters":14000,"station_id":"","pricing_plan_id":"cebpf4jnsgd1na2vs0mg"},{"bike_id":"322c1f5a-85db-4ef6-bcd4-1b5c417c8ee0","system_id":"levelo_inurba_marseille","lat":43.3377,"lon":5.37488,"is_reserved":false,"is_disabled":false,"rental_uris":{"android":"levelo://app?vid=322c1f5a-85db-4ef6-bcd4-1b5c417c8ee0","ios":"levelo://app?vid=322c1f5a-85db-4ef6-bcd4-1b5c417c8ee0"},"vehicle_type_id":"4","last_reported":1757927570,"current_range_meters":14000,"station_id":"","pricing_plan_id":"cebpf4jnsgd1na2vs0mg"},{"bike_id":"8f04fe6a-b496-4a33-88d0-7a57c81f211d","system_id":"levelo_inurba_marseille","lat":43.24387,"lon":5.37071,"is_reserved":false,"is_disabled":true,"rental_uris":{"android":"levelo://app?vid=8f04fe6a-b496-4a33-88d0-7a57c81f211d","ios":"levelo://app?vid=8f04fe6a-b496-4a33-88d0-7a57c81f211d"},"vehicle_type_id":"4","last_reported":1757927570,"current_range_meters":14000,"station_id":"ce4bhhh2rcd13ifvqfk0","pricing_plan_id":"cebpf4jnsgd1na2vs0mg"},{"bike_id":"2c5ee020-2461-471c-8a4c-6cab1ddb486f","system_id":"levelo_inurba_marseille","lat":43.25577,"lon":5.38252,"is_reserved":false,"is_disabled":false,"rental_uris":{"android":"levelo://app?vid=2c5ee020-2461-471c-8a4c-6cab1ddb486f","ios":"levelo://app?vid=2c5ee020-2461-471c-8a4c-6cab1ddb486f"},"vehicle_type_id":"4","last_reported":1757927570,"current_range_meters":14400,"station_id":"ce4bhih2rcd13ifvqfs0","pricing_plan_id":"cebpf4jnsgd1na2vs0mg"},{"bike_id":"4387322f-705a-45b4-87d6-ee4b9b198146","system_id":"levelo_inurba_marseille","lat":43.298461,"lon":5.362763,"is_reserved":false,"is_disabled":false,"rental_uris":{"android":"levelo://app?vid=4387322f-705a-45b4-87d6-ee4b9b198146","ios":"levelo://app?vid=4387322f-705a-45b4-87d6-ee4b9b198146"},"vehicle_type_id":"4","last_reported":1757927570,"current_range_meters":14400,"station_id":"ce4bgpp2rcd13ifvqc3g","pricing_plan_id":"cebpf4jnsgd1na2vs0mg"},{"bike_id":"9f2a46f0-1c52-4277-978f-c70949f50ff9","system_id":"levelo_inurba_marseille","lat":43.240852,"lon":5.377727,"is_reserved":false,"is_disabled":false,"rental_uris":{"android":"levelo://app?vid=9f2a46f0-1c52-4277-978f-c70949f50ff9","ios":"levelo://app?vid=9f2a46f0-1c52-4277-978f-c70949f50ff9"},"vehicle_type_id":"4","last_reported":1757927570,"current_range_meters":14400,"station_id":"ce4bhnp2rcd13ifvqgvg","pricing_plan_id":"cebpf4jnsgd1na2vs0mg"},{"bike_id":"955dcce1-ca4a-441e-87c1-4668435ea4d7","system_id":"levelo_inurba_marseille","lat":43.33595,"lon":5.41028,"is_reserved":false,"is_disabled":false,"rental_uris":{"android":"levelo://app?vid=955dcce1-ca4a-441e-87c1-4668435ea4d7","ios":"levelo://app?vid=955dcce1-ca4a-441e-87c1-4668435ea4d7"},"vehicle_type_id":"4","last_reported":1757927570,"current_range_meters":14400,"station_id":"ce4bhqh2rcd13ifvqhmg","pricing_plan_id":"cebpf4jnsgd1na2vs0mg"},{"bike_id":"184c75ba-a2ae-4bc5-b888-4c430b804879","system_id":"levelo_inurba_marseille","lat":43.28416,"lon":5.34989,"is_reserved":false,"is_disabled":false,"rental_uris":{"android":"levelo://app?vid=184c75ba-a2ae-4bc5-b888-4c430b804879","ios":"levelo://app?vid=184c75ba-a2ae-4bc5-b888-4c430b804879"},"vehicle_type_id":"4","last_reported":1757927570,"current_range_meters":14400,"station_id":"ce4bhbh2rcd13ifvqepg","pricing_plan_id":"cebpf4jnsgd1na2vs0mg"},{"bike_id":"1fcd7247-d062-4193-a271-354bf97cbf86","system_id":"levelo_inurba_marseille","lat":43.31988,"lon":5.38153,"is_reserved":false,"is_disabled":false,"rental_uris":{"android":"levelo://app?vid=1fcd7247-d062-4193-a271-354bf97cbf86","ios":"levelo://app?vid=1fcd7247-d062-4193-a271-354bf97cbf86"},"vehicle_type_id":"4","last_reported":1757927570,"current_range_meters":14400,"station_id":"ce4bhr12rcd13ifvqhpg","pricing_plan_id":"cebpf4jnsgd1na2vs0mg"},{"bike_id":"d27a3574-c668-415b-ad3b-c0a1e10e6cf4","system_id":"levelo_inurba_marseille","lat":43.337444,"lon":5.374475,"is_reserved":false,"is_disabled":false,"rental_uris":{"android":"levelo://app?vid=d27a3574-c668-415b-ad3b-c0a1e10e6cf4","ios":"levelo://app?vid=d27a3574-c668-415b-ad3b-c0a1e10e6cf4"},"vehicle_type_id":"4","last_reported":1757927570,"current_range_meters":14400,"station_id":"","pricing_plan_id":"cebpf4jnsgd1na2vs0mg"},{"bike_id":"26651805-1ffd-496b-9c51-fece900796ad","system_id":"levelo_inurba_marseille","lat":43.32486,"lon":5.36558,"is_reserved":false,"is_disabled":false,"rental_uris":{"android":"levelo://app?vid=26651805-1ffd-496b-9c51-fece900796ad","ios":"levelo://app?vid=26651805-1ffd-496b-9c51-fece900796ad"},"vehicle_type_id":"4","last_reported":1757927570,"current_range_meters":14800,"station_id":"ce4bhs12rcd13ifvqhvg","pricing_plan_id":"cebpf4jnsgd1na2vs0mg"},{"bike_id":"a155e67d-bec0-4326-ae57-c035ef5e1c81","system_id":"levelo_inurba_marseille","lat":43.29908,"lon":5.4367,"is_reserved":false,"is_disabled":false,"rental_uris":{"android":"levelo://app?vid=a155e67d-bec0-4326-ae57-c035ef5e1c81","ios":"levelo://app?vid=a155e67d-bec0-4326-ae57-c035ef5e1c81"},"vehicle_type_id":"4","last_reported":1757927570,"current_range_meters":14800,"station_id":"ce4bhpp2rcd13ifvqhfg","pricing_plan_id":"cebpf4jnsgd1na2vs0mg"},{"bike_id":"354803e4-5879-4aeb-b4ea-e35421599887","system_id":"levelo_inurba_marseille","lat":43.27473,"lon":5.42483,"is_reserved":false,"is_disabled":false,"rental_uris":{"android":"levelo://app?vid=354803e4-5879-4aeb-b4ea-e35421599887","ios":"levelo://app?vid=354803e4-5879-4aeb-b4ea-e35421599887"},"vehicle_type_id":"4","last_reported":1757927570,"current_range_meters":14800,"station_id":"ce4bhn92rcd13ifvqgrg","pricing_plan_id":"cebpf4jnsgd1na2vs0mg"},{"bike_id":"9b9a6aca-d8ba-4892-a70c-a46cb142c2a2","system_id":"levelo_inurba_marseille","lat":43.31345,"lon":5.3672,"is_reserved":false,"is_disabled":false,"rental_uris":{"android":"levelo://app?vid=9b9a6aca-d8ba-4892-a70c-a46cb142c2a2","ios":"levelo://app?vid=9b9a6aca-d8ba-4892-a70c-a46cb142c2a2"},"vehicle_type_id":"4","last_reported":1757927570,"current_range_meters":14800,"station_id":"ce4bgr92rcd13ifvqc6g","pricing_plan_id":"cebpf4jnsgd1na2vs0mg"},{"bike_id":"b8649ca9-bfb5-4973-9040-4e9ea8db1393","system_id":"levelo_inurba_marseille","lat":43.25938,"lon":5.40899,"is_reserved":false,"is_disabled":false,"rental_uris":{"android":"levelo://app?vid=b8649ca9-bfb5-4973-9040-4e9ea8db1393","ios":"levelo://app?vid=b8649ca9-bfb5-4973-9040-4e9ea8db1393"},"vehicle_type_id":"4","last_reported":1757927570,"current_range_meters":14800,"station_id":"ce4bhm92rcd13ifvqglg","pricing_plan_id":"cebpf4jnsgd1na2vs0mg"},{"bike_id":"41de12a2-5382-4da2-9751-1300a8df4dc1","system_id":"levelo_inurba_marseille","lat":43.22552,"lon":5.41633,"is_reserved":false,"is_disabled":false,"rental_uris":{"android":"levelo://app?vid=41de12a2-5382-4da2-9751-1300a8df4dc1","ios":"levelo://app?vid=41de12a2-5382-4da2-9751-1300a8df4dc1"},"vehicle_type_id":"4","last_reported":1757927570,"current_range_meters":14800,"station_id":"st_d2o4gvlbi1j2169b742g","pricing_plan_id":"cebpf4jnsgd1na2vs0mg"},{"bike_id":"c96cfeb8-ee70-4271-94c1-a474c15bf3ed","system_id":"levelo_inurba_marseille","lat":43.23052,"lon":5.35496,"is_reserved":false,"is_disabled":false,"rental_uris":{"android":"levelo://app?vid=c96cfeb8-ee70-4271-94c1-a474c15bf3ed","ios":"levelo://app?vid=c96cfeb8-ee70-4271-94c1-a474c15bf3ed"},"vehicle_type_id":"4","last_reported":1757927570,"current_range_meters":14800,"station_id":"cpo3342slgdg3j2ifvpg","pricing_plan_id":"cebpf4jnsgd1na2vs0mg"},{"bike_id":"1ebb1ad1-55dd-457f-8c00-d14b6509395a","system_id":"levelo_inurba_marseille","lat":43.21768,"lon":5.34614,"is_reserved":false,"is_disabled":false,"rental_uris":{"android":"levelo://app?vid=1ebb1ad1-55dd-457f-8c00-d14b6509395a","ios":"levelo://app?vid=1ebb1ad1-55dd-457f-8c00-d14b6509395a"},"vehicle_type_id":"4","last_reported":1757927570,"current_range_meters":15200,"station_id":"","pricing_plan_id":"cebpf4jnsgd1na2vs0mg"},{"bike_id":"fc5173d7-de69-4c7e-888a-0a9efb136566","system_id":"levelo_inurba_marseille","lat":43.31204,"lon":5.368905,"is_reserved":false,"is_disabled":false,"rental_uris":{"android":"levelo://app?vid=fc5173d7-de69-4c7e-888a-0a9efb136566","ios":"levelo://app?vid=fc5173d7-de69-4c7e-888a-0a9efb136566"},"vehicle_type_id":"4","last_reported":1757927570,"current_range_meters":15200,"station_id":"ce4bgl92rcd13ifvqbq0","pricing_plan_id":"cebpf4jnsgd1na2vs0mg"},{"bike_id":"0a4a2685-acee-4ab8-a88c-fa4e12170bbb","system_id":"levelo_inurba_marseille","lat":43.30903,"lon":5.36845,"is_reserved":false,"is_disabled":false,"rental_uris":{"android":"levelo://app?vid=0a4a2685-acee-4ab8-a88c-fa4e12170bbb","ios":"levelo://app?vid=0a4a2685-acee-4ab8-a88c-fa4e12170bbb"},"vehicle_type_id":"4","last_reported":1757927570,"current_range_meters":15200,"station_id":"ce4bgn92rcd13ifvqbvg","pricing_plan_id":"cebpf4jnsgd1na2vs0mg"},{"bike_id":"b292c67a-aaaa-4e31-af86-af4cb55936b8","system_id":"levelo_inurba_marseille","lat":43.30534,"lon":5.36726,"is_reserved":false,"is_disabled":false,"rental_uris":{"android":"levelo://app?vid=b292c67a-aaaa-4e31-af86-af4cb55936b8","ios":"levelo://app?vid=b292c67a-aaaa-4e31-af86-af4cb55936b8"},"vehicle_type_id":"4","last_reported":1757927570,"current_range_meters":15200,"station_id":"ce4bgrp2rcd13ifvqc9g","pricing_plan_id":"cebpf4jnsgd1na2vs0mg"},{"bike_id":"ead5016a-4a10-4a5c-a462-5bbf92ea8ca9","system_id":"levelo_inurba_marseille","lat":43.29972,"lon":5.37174,"is_reserved":false,"is_disabled":false,"rental_uris":{"android":"levelo://app?vid=ead5016a-4a10-4a5c-a462-5bbf92ea8ca9","ios":"levelo://app?vid=ead5016a-4a10-4a5c-a462-5bbf92ea8ca9"},"vehicle_type_id":"4","last_reported":1757927570,"current_range_meters":15200,"station_id":"ce4bgr92rcd13ifvqc7g","pricing_plan_id":"cebpf4jnsgd1na2vs0mg"},{"bike_id":"9cd52314-8bfe-4b56-8441-21b8990a645a","system_id":"levelo_inurba_marseille","lat":43.27497,"lon":5.42449,"is_reserved":false,"is_disabled":false,"rental_uris":{"android":"levelo://app?vid=9cd52314-8bfe-4b56-8441-21b8990a645a","ios":"levelo://app?vid=9cd52314-8bfe-4b56-8441-21b8990a645a"},"vehicle_type_id":"4","last_reported":1757927570,"current_range_meters":16000,"station_id":"ce4bhn92rcd13ifvqgrg","pricing_plan_id":"cebpf4jnsgd1na2vs0mg"},{"bike_id":"d433f65c-48c2-4aa1-b7a0-61a992e3054a","system_id":"levelo_inurba_marseille","lat":43.29189,"lon":5.39323,"is_reserved":false,"is_disabled":true,"rental_uris":{"android":"levelo://app?vid=d433f65c-48c2-4aa1-b7a0-61a992e3054a","ios":"levelo://app?vid=d433f65c-48c2-4aa1-b7a0-61a992e3054a"},"vehicle_type_id":"4","last_reported":1757927570,"current_range_meters":16000,"station_id":"ce4bh192rcd13ifvqdd0","pricing_plan_id":"cebpf4jnsgd1na2vs0mg"},{"bike_id":"f7c56a48-db06-4ee3-9b90-45854a625eac","system_id":"levelo_inurba_marseille","lat":43.25928,"lon":5.40881,"is_reserved":false,"is_disabled":false,"rental_uris":{"android":"levelo://app?vid=f7c56a48-db06-4ee3-9b90-45854a625eac","ios":"levelo://app?vid=f7c56a48-db06-4ee3-9b90-45854a625eac"},"vehicle_type_id":"4","last_reported":1757927570,"current_range_meters":16000,"station_id":"ce4bhm92rcd13ifvqglg","pricing_plan_id":"cebpf4jnsgd1na2vs0mg"},{"bike_id":"9a4031f6-f187-4e46-a779-87af52bf3c05","system_id":"levelo_inurba_marseille","lat":43.28699,"lon":5.39984,"is_reserved":false,"is_disabled":false,"rental_uris":{"android":"levelo://app?vid=9a4031f6-f187-4e46-a779-87af52bf3c05","ios":"levelo://app?vid=9a4031f6-f187-4e46-a779-87af52bf3c05"},"vehicle_type_id":"4","last_reported":1757927570,"current_range_meters":16000,"station_id":"ce4bho92rcd13ifvqh3g","pricing_plan_id":"cebpf4jnsgd1na2vs0mg"},{"bike_id":"bd1ab33e-cec4-4f20-be79-35673278686f","system_id":"levelo_inurba_marseille","lat":43.31361,"lon":5.38487,"is_reserved":false,"is_disabled":false,"rental_uris":{"android":"levelo://app?vid=bd1ab33e-cec4-4f20-be79-35673278686f","ios":"levelo://app?vid=bd1ab33e-cec4-4f20-be79-35673278686f"},"vehicle_type_id":"4","last_reported":1757927570,"current_range_meters":16400,"station_id":"ce4bgt92rcd13ifvqcf0","pricing_plan_id":"cebpf4jnsgd1na2vs0mg"},{"bike_id":"ea7fc0c8-8c3e-45e2-9a36-28cfc283738e","system_id":"levelo_inurba_marseille","lat":43.3046,"lon":5.37902,"is_reserved":false,"is_disabled":false,"rental_uris":{"android":"levelo://app?vid=ea7fc0c8-8c3e-45e2-9a36-28cfc283738e","ios":"levelo://app?vid=ea7fc0c8-8c3e-45e2-9a36-28cfc283738e"},"vehicle_type_id":"4","last_reported":1757927570,"current_range_meters":16400,"station_id":"ce4bgup2rcd13ifvqcn0","pricing_plan_id":"cebpf4jnsgd1na2vs0mg"},{"bike_id":"6bca12c5-ea94-463e-a60d-bc3b5bc551f2","system_id":"levelo_inurba_marseille","lat":43.27491,"lon":5.42454,"is_reserved":false,"is_disabled":false,"rental_uris":{"android":"levelo://app?vid=6bca12c5-ea94-463e-a60d-bc3b5bc551f2","ios":"levelo://app?vid=6bca12c5-ea94-463e-a60d-bc3b5bc551f2"},"vehicle_type_id":"4","last_reported":1757927570,"current_range_meters":16400,"station_id":"ce4bhn92rcd13ifvqgrg","pricing_plan_id":"cebpf4jnsgd1na2vs0mg"},{"bike_id":"d73ebff0-d957-41dc-a638-29b88edc4926","system_id":"levelo_inurba_marseille","lat":43.2257,"lon":5.41603,"is_reserved":false,"is_disabled":false,"rental_uris":{"android":"levelo://app?vid=d73ebff0-d957-41dc-a638-29b88edc4926","ios":"levelo://app?vid=d73ebff0-d957-41dc-a638-29b88edc4926"},"vehicle_type_id":"4","last_reported":1757927570,"current_range_meters":16400,"station_id":"st_d2o4gvlbi1j2169b742g","pricing_plan_id":"cebpf4jnsgd1na2vs0mg"},{"bike_id":"ea4693de-86b3-41b2-926a-c1ac20480be1","system_id":"levelo_inurba_marseille","lat":43.313568,"lon":5.36732,"is_reserved":false,"is_disabled":false,"rental_uris":{"android":"levelo://app?vid=ea4693de-86b3-41b2-926a-c1ac20480be1","ios":"levelo://app?vid=ea4693de-86b3-41b2-926a-c1ac20480be1"},"vehicle_type_id":"4","last_reported":1757927570,"current_range_meters":16400,"station_id":"ce4bgr92rcd13ifvqc6g","pricing_plan_id":"cebpf4jnsgd1na2vs0mg"},{"bike_id":"24be220a-890e-4436-8734-105a42d0ae15","system_id":"levelo_inurba_marseille","lat":43.28265,"lon":5.35059,"is_reserved":false,"is_disabled":false,"rental_uris":{"android":"levelo://app?vid=24be220a-890e-4436-8734-105a42d0ae15","ios":"levelo://app?vid=24be220a-890e-4436-8734-105a42d0ae15"},"vehicle_type_id":"4","last_reported":1757927570,"current_range_meters":16400,"station_id":"ce4bhbp2rcd13ifvqerg","pricing_plan_id":"cebpf4jnsgd1na2vs0mg"},{"bike_id":"a333d9ec-a9a7-4617-ac2f-4224c0d88af6","system_id":"levelo_inurba_marseille","lat":43.27492,"lon":5.42451,"is_reserved":false,"is_disabled":false,"rental_uris":{"android":"levelo://app?vid=a333d9ec-a9a7-4617-ac2f-4224c0d88af6","ios":"levelo://app?vid=a333d9ec-a9a7-4617-ac2f-4224c0d88af6"},"vehicle_type_id":"4","last_reported":1757927570,"current_range_meters":16400,"station_id":"ce4bhn92rcd13ifvqgrg","pricing_plan_id":"cebpf4jnsgd1na2vs0mg"},{"bike_id":"7f25e33f-05c2-431c-8714-f0060025edbc","system_id":"levelo_inurba_marseille","lat":43.3107,"lon":5.38353,"is_reserved":false,"is_disabled":false,"rental_uris":{"android":"levelo://app?vid=7f25e33f-05c2-431c-8714-f0060025edbc","ios":"levelo://app?vid=7f25e33f-05c2-431c-8714-f0060025edbc"},"vehicle_type_id":"4","last_reported":1757927570,"current_range_meters":16400,"station_id":"ce4bgv92rcd13ifvqcr0","pricing_plan_id":"cebpf4jnsgd1na2vs0mg"},{"bike_id":"7d586a12-692c-4e15-8df8-1dbcfe8f4331","system_id":"levelo_inurba_marseille","lat":43.30145,"lon":5.38075,"is_reserved":false,"is_disabled":false,"rental_uris":{"android":"levelo://app?vid=7d586a12-692c-4e15-8df8-1dbcfe8f4331","ios":"levelo://app?vid=7d586a12-692c-4e15-8df8-1dbcfe8f4331"},"vehicle_type_id":"4","last_reported":1757927570,"current_range_meters":16400,"station_id":"ce4bgjp2rcd13ifvqbh0","pricing_plan_id":"cebpf4jnsgd1na2vs0mg"},{"bike_id":"6d86dd07-3dd9-4e0b-8a39-4bd38741c422","system_id":"levelo_inurba_marseille","lat":43.32477,"lon":5.36562,"is_reserved":false,"is_disabled":false,"rental_uris":{"android":"levelo://app?vid=6d86dd07-3dd9-4e0b-8a39-4bd38741c422","ios":"levelo://app?vid=6d86dd07-3dd9-4e0b-8a39-4bd38741c422"},"vehicle_type_id":"4","last_reported":1757927570,"current_range_meters":16400,"station_id":"ce4bhs12rcd13ifvqhvg","pricing_plan_id":"cebpf4jnsgd1na2vs0mg"},{"bike_id":"c8cf71ab-2cba-487d-b0aa-fba68c18bfaa","system_id":"levelo_inurba_marseille","lat":43.27519,"lon":5.42446,"is_reserved":false,"is_disabled":false,"rental_uris":{"android":"levelo://app?vid=c8cf71ab-2cba-487d-b0aa-fba68c18bfaa","ios":"levelo://app?vid=c8cf71ab-2cba-487d-b0aa-fba68c18bfaa"},"vehicle_type_id":"4","last_reported":1757927570,"current_range_meters":16800,"station_id":"ce4bhn92rcd13ifvqgrg","pricing_plan_id":"cebpf4jnsgd1na2vs0mg"},{"bike_id":"e900524a-e194-4466-8861-032a8ed98d02","system_id":"levelo_inurba_marseille","lat":43.21742,"lon":5.34603,"is_reserved":false,"is_disabled":false,"rental_uris":{"android":"levelo://app?vid=e900524a-e194-4466-8861-032a8ed98d02","ios":"levelo://app?vid=e900524a-e194-4466-8861-032a8ed98d02"},"vehicle_type_id":"4","last_reported":1757927570,"current_range_meters":16800,"station_id":"","pricing_plan_id":"cebpf4jnsgd1na2vs0mg"},{"bike_id":"63b91871-b34b-4712-9837-8af5555cf547","system_id":"levelo_inurba_marseille","lat":43.30445,"lon":5.3792,"is_reserved":false,"is_disabled":false,"rental_uris":{"android":"levelo://app?vid=63b91871-b34b-4712-9837-8af5555cf547","ios":"levelo://app?vid=63b91871-b34b-4712-9837-8af5555cf547"},"vehicle_type_id":"4","last_reported":1757927570,"current_range_meters":16800,"station_id":"ce4bgup2rcd13ifvqcn0","pricing_plan_id":"cebpf4jnsgd1na2vs0mg"},{"bike_id":"8ef8bf7d-8a91-4724-8c2e-ddeef723e28a","system_id":"levelo_inurba_marseille","lat":43.27025,"lon":5.37923,"is_reserved":false,"is_disabled":false,"rental_uris":{"android":"levelo://app?vid=8ef8bf7d-8a91-4724-8c2e-ddeef723e28a","ios":"levelo://app?vid=8ef8bf7d-8a91-4724-8c2e-ddeef723e28a"},"vehicle_type_id":"4","last_reported":1757927570,"current_range_meters":16800,"station_id":"","pricing_plan_id":"cebpf4jnsgd1na2vs0mg"},{"bike_id":"8bc5c7e1-29a3-4624-90fa-9f70421697ef","system_id":"levelo_inurba_marseille","lat":43.21749,"lon":5.34602,"is_reserved":false,"is_disabled":false,"rental_uris":{"android":"levelo://app?vid=8bc5c7e1-29a3-4624-90fa-9f70421697ef","ios":"levelo://app?vid=8bc5c7e1-29a3-4624-90fa-9f70421697ef"},"vehicle_type_id":"4","last_reported":1757927570,"current_range_meters":16800,"station_id":"","pricing_plan_id":"cebpf4jnsgd1na2vs0mg"},{"bike_id":"c1abd8c5-40ee-4508-9e6d-7057b6a1f5e8","system_id":"levelo_inurba_marseille","lat":43.25861,"lon":5.39893,"is_reserved":false,"is_disabled":false,"rental_uris":{"android":"levelo://app?vid=c1abd8c5-40ee-4508-9e6d-7057b6a1f5e8","ios":"levelo://app?vid=c1abd8c5-40ee-4508-9e6d-7057b6a1f5e8"},"vehicle_type_id":"4","last_reported":1757927570,"current_range_meters":16800,"station_id":"ce4bhl92rcd13ifvqghg","pricing_plan_id":"cebpf4jnsgd1na2vs0mg"},{"bike_id":"460950e7-4882-4108-bd1f-4d12c674cb64","system_id":"levelo_inurba_marseille","lat":43.305649,"lon":5.367061,"is_reserved":false,"is_disabled":false,"rental_uris":{"android":"levelo://app?vid=460950e7-4882-4108-bd1f-4d12c674cb64","ios":"levelo://app?vid=460950e7-4882-4108-bd1f-4d12c674cb64"},"vehicle_type_id":"4","last_reported":1757927570,"current_range_meters":16800,"station_id":"ce4bgrp2rcd13ifvqc9g","pricing_plan_id":"cebpf4jnsgd1na2vs0mg"},{"bike_id":"088693c6-0a9a-45c3-b85d-0b3971b1e68f","system_id":"levelo_inurba_marseille","lat":43.30537,"lon":5.36551,"is_reserved":false,"is_disabled":false,"rental_uris":{"android":"levelo://app?vid=088693c6-0a9a-45c3-b85d-0b3971b1e68f","ios":"levelo://app?vid=088693c6-0a9a-45c3-b85d-0b3971b1e68f"},"vehicle_type_id":"4","last_reported":1757927570,"current_range_meters":16800,"station_id":"ce4bgs12rcd13ifvqcag","pricing_plan_id":"cebpf4jnsgd1na2vs0mg"},{"bike_id":"4d0da910-152b-448e-9786-b400d7fabfca","system_id":"levelo_inurba_marseille","lat":43.29216,"lon":5.36048,"is_reserved":false,"is_disabled":false,"rental_uris":{"android":"levelo://app?vid=4d0da910-152b-448e-9786-b400d7fabfca","ios":"levelo://app?vid=4d0da910-152b-448e-9786-b400d7fabfca"},"vehicle_type_id":"4","last_reported":1757927570,"current_range_meters":16800,"station_id":"ce4bhbh2rcd13ifvqeqg","pricing_plan_id":"cebpf4jnsgd1na2vs0mg"},{"bike_id":"7834a8ed-e197-4622-841e-04d9569a4cf2","system_id":"levelo_inurba_marseille","lat":43.26679,"lon":5.38264,"is_reserved":false,"is_disabled":false,"rental_uris":{"android":"levelo://app?vid=7834a8ed-e197-4622-841e-04d9569a4cf2","ios":"levelo://app?vid=7834a8ed-e197-4622-841e-04d9569a4cf2"},"vehicle_type_id":"4","last_reported":1757927570,"current_range_meters":16800,"station_id":"ce4bhg92rcd13ifvqf90","pricing_plan_id":"cebpf4jnsgd1na2vs0mg"},{"bike_id":"ec4a43f4-f627-4cc3-9cc1-27d95d84241d","system_id":"levelo_inurba_marseille","lat":43.30952,"lon":5.39036,"is_reserved":false,"is_disabled":false,"rental_uris":{"android":"levelo://app?vid=ec4a43f4-f627-4cc3-9cc1-27d95d84241d","ios":"levelo://app?vid=ec4a43f4-f627-4cc3-9cc1-27d95d84241d"},"vehicle_type_id":"4","last_reported":1757927570,"current_range_meters":16800,"station_id":"ce4bgup2rcd13ifvqco0","pricing_plan_id":"cebpf4jnsgd1na2vs0mg"},{"bike_id":"63584e28-b3a5-4c16-b833-94772c5e6d88","system_id":"levelo_inurba_marseille","lat":43.240743,"lon":5.377608,"is_reserved":false,"is_disabled":false,"rental_uris":{"android":"levelo://app?vid=63584e28-b3a5-4c16-b833-94772c5e6d88","ios":"levelo://app?vid=63584e28-b3a5-4c16-b833-94772c5e6d88"},"vehicle_type_id":"4","last_reported":1757927570,"current_range_meters":17200,"station_id":"ce4bhnp2rcd13ifvqgvg","pricing_plan_id":"cebpf4jnsgd1na2vs0mg"},{"bike_id":"1bfdbe6a-fa81-407c-9d15-d53df7ffd6ea","system_id":"levelo_inurba_marseille","lat":43.24951,"lon":5.40505,"is_reserved":false,"is_disabled":false,"rental_uris":{"android":"levelo://app?vid=1bfdbe6a-fa81-407c-9d15-d53df7ffd6ea","ios":"levelo://app?vid=1bfdbe6a-fa81-407c-9d15-d53df7ffd6ea"},"vehicle_type_id":"4","last_reported":1757927570,"current_range_meters":17200,"station_id":"st_d2ngiaodas8pm72gd1h0","pricing_plan_id":"cebpf4jnsgd1na2vs0mg"},{"bike_id":"b575a595-f932-4230-9ca7-6937f4a43d90","system_id":"levelo_inurba_marseille","lat":43.21739,"lon":5.34605,"is_reserved":false,"is_disabled":false,"rental_uris":{"android":"levelo://app?vid=b575a595-f932-4230-9ca7-6937f4a43d90","ios":"levelo://app?vid=b575a595-f932-4230-9ca7-6937f4a43d90"},"vehicle_type_id":"4","last_reported":1757927570,"current_range_meters":17200,"station_id":"st_cvj6r9ubvosntc0bgbag","pricing_plan_id":"cebpf4jnsgd1na2vs0mg"},{"bike_id":"06ad0952-e8c2-4204-9f54-9a6043bf0e65","system_id":"levelo_inurba_marseille","lat":43.29552,"lon":5.42294,"is_reserved":false,"is_disabled":false,"rental_uris":{"android":"levelo://app?vid=06ad0952-e8c2-4204-9f54-9a6043bf0e65","ios":"levelo://app?vid=06ad0952-e8c2-4204-9f54-9a6043bf0e65"},"vehicle_type_id":"4","last_reported":1757927570,"current_range_meters":16800,"station_id":"ce4bhph2rcd13ifvqhdg","pricing_plan_id":"cebpf4jnsgd1na2vs0mg"},{"bike_id":"526baf53-3841-4d73-88e9-086586535063","system_id":"levelo_inurba_marseille","lat":43.24072,"lon":5.37762,"is_reserved":false,"is_disabled":false,"rental_uris":{"android":"levelo://app?vid=526baf53-3841-4d73-88e9-086586535063","ios":"levelo://app?vid=526baf53-3841-4d73-88e9-086586535063"},"vehicle_type_id":"4","last_reported":1757927570,"current_range_meters":17600,"station_id":"ce4bhnp2rcd13ifvqgvg","pricing_plan_id":"cebpf4jnsgd1na2vs0mg"},{"bike_id":"5d5b51f8-15be-4825-804c-c2485c6a00ac","system_id":"levelo_inurba_marseille","lat":43.25927,"lon":5.40909,"is_reserved":false,"is_disabled":false,"rental_uris":{"android":"levelo://app?vid=5d5b51f8-15be-4825-804c-c2485c6a00ac","ios":"levelo://app?vid=5d5b51f8-15be-4825-804c-c2485c6a00ac"},"vehicle_type_id":"4","last_reported":1757927570,"current_range_meters":17600,"station_id":"ce4bhm92rcd13ifvqglg","pricing_plan_id":"cebpf4jnsgd1na2vs0mg"},{"bike_id":"a33cf4c6-054f-4a1b-8f82-8fc5a7d7e84b","system_id":"levelo_inurba_marseille","lat":43.29042,"lon":5.39962,"is_reserved":false,"is_disabled":false,"rental_uris":{"android":"levelo://app?vid=a33cf4c6-054f-4a1b-8f82-8fc5a7d7e84b","ios":"levelo://app?vid=a33cf4c6-054f-4a1b-8f82-8fc5a7d7e84b"},"vehicle_type_id":"4","last_reported":1757927570,"current_range_meters":17600,"station_id":"ce4bh392rcd13ifvqdm0","pricing_plan_id":"cebpf4jnsgd1na2vs0mg"},{"bike_id":"9240cde8-b960-4ef6-a600-8b3785aacb47","system_id":"levelo_inurba_marseille","lat":43.27314,"lon":5.39069,"is_reserved":false,"is_disabled":false,"rental_uris":{"android":"levelo://app?vid=9240cde8-b960-4ef6-a600-8b3785aacb47","ios":"levelo://app?vid=9240cde8-b960-4ef6-a600-8b3785aacb47"},"vehicle_type_id":"4","last_reported":1757927570,"current_range_meters":17600,"station_id":"ce4bhgp2rcd13ifvqfe0","pricing_plan_id":"cebpf4jnsgd1na2vs0mg"},{"bike_id":"a33cf220-cfdd-4805-8e63-750c4bb9f2e3","system_id":"levelo_inurba_marseille","lat":43.231502,"lon":5.4371,"is_reserved":false,"is_disabled":false,"rental_uris":{"android":"levelo://app?vid=a33cf220-cfdd-4805-8e63-750c4bb9f2e3","ios":"levelo://app?vid=a33cf220-cfdd-4805-8e63-750c4bb9f2e3"},"vehicle_type_id":"4","last_reported":1757927570,"current_range_meters":17600,"station_id":"ce4bhmp2rcd13ifvqgog","pricing_plan_id":"cebpf4jnsgd1na2vs0mg"},{"bike_id":"d20b75b4-d76e-4692-b05c-3173e3d6164a","system_id":"levelo_inurba_marseille","lat":43.24071,"lon":5.37754,"is_reserved":false,"is_disabled":false,"rental_uris":{"android":"levelo://app?vid=d20b75b4-d76e-4692-b05c-3173e3d6164a","ios":"levelo://app?vid=d20b75b4-d76e-4692-b05c-3173e3d6164a"},"vehicle_type_id":"4","last_reported":1757927570,"current_range_meters":17600,"station_id":"ce4bhnp2rcd13ifvqgvg","pricing_plan_id":"cebpf4jnsgd1na2vs0mg"},{"bike_id":"a02e580d-3093-4e34-a053-4227fdd65225","system_id":"levelo_inurba_marseille","lat":43.25886,"lon":5.39922,"is_reserved":false,"is_disabled":false,"rental_uris":{"android":"levelo://app?vid=a02e580d-3093-4e34-a053-4227fdd65225","ios":"levelo://app?vid=a02e580d-3093-4e34-a053-4227fdd65225"},"vehicle_type_id":"4","last_reported":1757927570,"current_range_meters":18000,"station_id":"ce4bhl92rcd13ifvqghg","pricing_plan_id":"cebpf4jnsgd1na2vs0mg"},{"bike_id":"96ee9b57-cff5-4252-a08f-6a37cf344cd3","system_id":"levelo_inurba_marseille","lat":43.27079,"lon":5.42281,"is_reserved":false,"is_disabled":false,"rental_uris":{"android":"levelo://app?vid=96ee9b57-cff5-4252-a08f-6a37cf344cd3","ios":"levelo://app?vid=96ee9b57-cff5-4252-a08f-6a37cf344cd3"},"vehicle_type_id":"4","last_reported":1757927570,"current_range_meters":18000,"station_id":"ce4bhk92rcd13ifvqgb0","pricing_plan_id":"cebpf4jnsgd1na2vs0mg"},{"bike_id":"2a95e8d8-f04f-487b-bf1c-eb56d4eef22b","system_id":"levelo_inurba_marseille","lat":43.2647,"lon":5.39533,"is_reserved":false,"is_disabled":false,"rental_uris":{"android":"levelo://app?vid=2a95e8d8-f04f-487b-bf1c-eb56d4eef22b","ios":"levelo://app?vid=2a95e8d8-f04f-487b-bf1c-eb56d4eef22b"},"vehicle_type_id":"4","last_reported":1757927570,"current_range_meters":17600,"station_id":"ce4bhi12rcd13ifvqfq0","pricing_plan_id":"cebpf4jnsgd1na2vs0mg"},{"bike_id":"3382229d-00c9-4f32-914e-37271c34598d","system_id":"levelo_inurba_marseille","lat":43.28092,"lon":5.3965,"is_reserved":false,"is_disabled":true,"rental_uris":{"android":"levelo://app?vid=3382229d-00c9-4f32-914e-37271c34598d","ios":"levelo://app?vid=3382229d-00c9-4f32-914e-37271c34598d"},"vehicle_type_id":"4","last_reported":1757927570,"current_range_meters":18000,"station_id":"ce4bho12rcd13ifvqh2g","pricing_plan_id":"cebpf4jnsgd1na2vs0mg"},{"bike_id":"921ff5bf-eb9d-4b59-9c86-c405e972b901","system_id":"levelo_inurba_marseille","lat":43.2593,"lon":5.40916,"is_reserved":false,"is_disabled":false,"rental_uris":{"android":"levelo://app?vid=921ff5bf-eb9d-4b59-9c86-c405e972b901","ios":"levelo://app?vid=921ff5bf-eb9d-4b59-9c86-c405e972b901"},"vehicle_type_id":"4","last_reported":1757927570,"current_range_meters":18000,"station_id":"ce4bhm92rcd13ifvqglg","pricing_plan_id":"cebpf4jnsgd1na2vs0mg"},{"bike_id":"4ede8cc7-3a48-44f6-aa9c-e4a9f1c442ec","system_id":"levelo_inurba_marseille","lat":43.27064,"lon":5.42264,"is_reserved":false,"is_disabled":false,"rental_uris":{"android":"levelo://app?vid=4ede8cc7-3a48-44f6-aa9c-e4a9f1c442ec","ios":"levelo://app?vid=4ede8cc7-3a48-44f6-aa9c-e4a9f1c442ec"},"vehicle_type_id":"4","last_reported":1757927570,"current_range_meters":18000,"station_id":"ce4bhk92rcd13ifvqgb0","pricing_plan_id":"cebpf4jnsgd1na2vs0mg"},{"bike_id":"089ed5be-4fe5-4b46-ac1f-dfba3ee2100a","system_id":"levelo_inurba_marseille","lat":43.31354,"lon":5.38492,"is_reserved":false,"is_disabled":false,"rental_uris":{"android":"levelo://app?vid=089ed5be-4fe5-4b46-ac1f-dfba3ee2100a","ios":"levelo://app?vid=089ed5be-4fe5-4b46-ac1f-dfba3ee2100a"},"vehicle_type_id":"4","last_reported":1757927570,"current_range_meters":18800,"station_id":"ce4bgt92rcd13ifvqcf0","pricing_plan_id":"cebpf4jnsgd1na2vs0mg"},{"bike_id":"f10a4125-ea58-4e63-b38e-ac18ed551e3a","system_id":"levelo_inurba_marseille","lat":43.31044,"lon":5.40036,"is_reserved":false,"is_disabled":true,"rental_uris":{"android":"levelo://app?vid=f10a4125-ea58-4e63-b38e-ac18ed551e3a","ios":"levelo://app?vid=f10a4125-ea58-4e63-b38e-ac18ed551e3a"},"vehicle_type_id":"4","last_reported":1757927570,"current_range_meters":18800,"station_id":"","pricing_plan_id":"cebpf4jnsgd1na2vs0mg"},{"bike_id":"f3b5ef6f-ba3c-4c6d-a8e9-4b1ffaf2d106","system_id":"levelo_inurba_marseille","lat":43.31363,"lon":5.38488,"is_reserved":false,"is_disabled":false,"rental_uris":{"android":"levelo://app?vid=f3b5ef6f-ba3c-4c6d-a8e9-4b1ffaf2d106","ios":"levelo://app?vid=f3b5ef6f-ba3c-4c6d-a8e9-4b1ffaf2d106"},"vehicle_type_id":"4","last_reported":1757927570,"current_range_meters":18000,"station_id":"ce4bgt92rcd13ifvqcf0","pricing_plan_id":"cebpf4jnsgd1na2vs0mg"},{"bike_id":"eb7cc917-6832-4011-8ed0-0ea12e66e244","system_id":"levelo_inurba_marseille","lat":43.32472,"lon":5.36568,"is_reserved":false,"is_disabled":false,"rental_uris":{"android":"levelo://app?vid=eb7cc917-6832-4011-8ed0-0ea12e66e244","ios":"levelo://app?vid=eb7cc917-6832-4011-8ed0-0ea12e66e244"},"vehicle_type_id":"4","last_reported":1757927570,"current_range_meters":18800,"station_id":"ce4bhs12rcd13ifvqhvg","pricing_plan_id":"cebpf4jnsgd1na2vs0mg"},{"bike_id":"47bbfecc-2dac-438f-9a1d-9b4ffed834df","system_id":"levelo_inurba_marseille","lat":43.24085,"lon":5.37745,"is_reserved":false,"is_disabled":false,"rental_uris":{"android":"levelo://app?vid=47bbfecc-2dac-438f-9a1d-9b4ffed834df","ios":"levelo://app?vid=47bbfecc-2dac-438f-9a1d-9b4ffed834df"},"vehicle_type_id":"4","last_reported":1757927570,"current_range_meters":18800,"station_id":"ce4bhnp2rcd13ifvqgvg","pricing_plan_id":"cebpf4jnsgd1na2vs0mg"},{"bike_id":"d076778c-1c4b-4d1d-a7f9-3fd721dc9e6d","system_id":"levelo_inurba_marseille","lat":43.27495,"lon":5.42456,"is_reserved":false,"is_disabled":false,"rental_uris":{"android":"levelo://app?vid=d076778c-1c4b-4d1d-a7f9-3fd721dc9e6d","ios":"levelo://app?vid=d076778c-1c4b-4d1d-a7f9-3fd721dc9e6d"},"vehicle_type_id":"4","last_reported":1757927570,"current_range_meters":18800,"station_id":"ce4bhn92rcd13ifvqgrg","pricing_plan_id":"cebpf4jnsgd1na2vs0mg"},{"bike_id":"75eb15af-3770-4e38-9a4c-60bddcb0e0dc","system_id":"levelo_inurba_marseille","lat":43.29586,"lon":5.36723,"is_reserved":false,"is_disabled":false,"rental_uris":{"android":"levelo://app?vid=75eb15af-3770-4e38-9a4c-60bddcb0e0dc","ios":"levelo://app?vid=75eb15af-3770-4e38-9a4c-60bddcb0e0dc"},"vehicle_type_id":"4","last_reported":1757927570,"current_range_meters":18800,"station_id":"ce4bgph2rcd13ifvqc2g","pricing_plan_id":"cebpf4jnsgd1na2vs0mg"},{"bike_id":"2c3f7ac3-a917-4dd8-a905-37d86c938904","system_id":"levelo_inurba_marseille","lat":43.29028,"lon":5.39986,"is_reserved":false,"is_disabled":false,"rental_uris":{"android":"levelo://app?vid=2c3f7ac3-a917-4dd8-a905-37d86c938904","ios":"levelo://app?vid=2c3f7ac3-a917-4dd8-a905-37d86c938904"},"vehicle_type_id":"4","last_reported":1757927570,"current_range_meters":18800,"station_id":"ce4bh392rcd13ifvqdm0","pricing_plan_id":"cebpf4jnsgd1na2vs0mg"},{"bike_id":"ddcc0921-3ae5-46f5-a882-f029f44576d5","system_id":"levelo_inurba_marseille","lat":43.25943,"lon":5.40908,"is_reserved":false,"is_disabled":false,"rental_uris":{"android":"levelo://app?vid=ddcc0921-3ae5-46f5-a882-f029f44576d5","ios":"levelo://app?vid=ddcc0921-3ae5-46f5-a882-f029f44576d5"},"vehicle_type_id":"4","last_reported":1757927570,"current_range_meters":18800,"station_id":"ce4bhm92rcd13ifvqglg","pricing_plan_id":"cebpf4jnsgd1na2vs0mg"},{"bike_id":"a99076be-7bb8-4e0f-a330-e47b32cc797a","system_id":"levelo_inurba_marseille","lat":43.292131,"lon":5.360526,"is_reserved":false,"is_disabled":true,"rental_uris":{"android":"levelo://app?vid=a99076be-7bb8-4e0f-a330-e47b32cc797a","ios":"levelo://app?vid=a99076be-7bb8-4e0f-a330-e47b32cc797a"},"vehicle_type_id":"4","last_reported":1757927570,"current_range_meters":18800,"station_id":"ce4bhbh2rcd13ifvqeqg","pricing_plan_id":"cebpf4jnsgd1na2vs0mg"},{"bike_id":"e1fa2a23-4bc7-4fb7-8627-11ad6569285c","system_id":"levelo_inurba_marseille","lat":43.29907,"lon":5.38123,"is_reserved":false,"is_disabled":false,"rental_uris":{"android":"levelo://app?vid=e1fa2a23-4bc7-4fb7-8627-11ad6569285c","ios":"levelo://app?vid=e1fa2a23-4bc7-4fb7-8627-11ad6569285c"},"vehicle_type_id":"4","last_reported":1757927570,"current_range_meters":18800,"station_id":"ce4bgj12rcd13ifvqbc0","pricing_plan_id":"cebpf4jnsgd1na2vs0mg"},{"bike_id":"9c885947-41b8-4f54-b2e9-51853665fee7","system_id":"levelo_inurba_marseille","lat":43.23061,"lon":5.35489,"is_reserved":false,"is_disabled":false,"rental_uris":{"android":"levelo://app?vid=9c885947-41b8-4f54-b2e9-51853665fee7","ios":"levelo://app?vid=9c885947-41b8-4f54-b2e9-51853665fee7"},"vehicle_type_id":"4","last_reported":1757927570,"current_range_meters":18800,"station_id":"cpo3342slgdg3j2ifvpg","pricing_plan_id":"cebpf4jnsgd1na2vs0mg"},{"bike_id":"b1182963-b9c4-4fff-b950-e76aa9d44dff","system_id":"levelo_inurba_marseille","lat":43.25924,"lon":5.409,"is_reserved":false,"is_disabled":false,"rental_uris":{"android":"levelo://app?vid=b1182963-b9c4-4fff-b950-e76aa9d44dff","ios":"levelo://app?vid=b1182963-b9c4-4fff-b950-e76aa9d44dff"},"vehicle_type_id":"4","last_reported":1757927570,"current_range_meters":18800,"station_id":"ce4bhm92rcd13ifvqglg","pricing_plan_id":"cebpf4jnsgd1na2vs0mg"},{"bike_id":"78c4d63e-ddd9-4dbd-9a54-6d3e729398f2","system_id":"levelo_inurba_marseille","lat":43.31357,"lon":5.36727,"is_reserved":false,"is_disabled":false,"rental_uris":{"android":"levelo://app?vid=78c4d63e-ddd9-4dbd-9a54-6d3e729398f2","ios":"levelo://app?vid=78c4d63e-ddd9-4dbd-9a54-6d3e729398f2"},"vehicle_type_id":"4","last_reported":1757927570,"current_range_meters":18800,"station_id":"ce4bgr92rcd13ifvqc6g","pricing_plan_id":"cebpf4jnsgd1na2vs0mg"},{"bike_id":"e73470b2-f46f-4f87-989f-53f8372e4317","system_id":"levelo_inurba_marseille","lat":43.3389,"lon":5.39173,"is_reserved":false,"is_disabled":false,"rental_uris":{"android":"levelo://app?vid=e73470b2-f46f-4f87-989f-53f8372e4317","ios":"levelo://app?vid=e73470b2-f46f-4f87-989f-53f8372e4317"},"vehicle_type_id":"4","last_reported":1757927570,"current_range_meters":18800,"station_id":"","pricing_plan_id":"cebpf4jnsgd1na2vs0mg"},{"bike_id":"769f5263-3012-4ef1-ac63-60c854dda2db","system_id":"levelo_inurba_marseille","lat":43.27496,"lon":5.42458,"is_reserved":false,"is_disabled":false,"rental_uris":{"android":"levelo://app?vid=769f5263-3012-4ef1-ac63-60c854dda2db","ios":"levelo://app?vid=769f5263-3012-4ef1-ac63-60c854dda2db"},"vehicle_type_id":"4","last_reported":1757927570,"current_range_meters":18800,"station_id":"ce4bhn92rcd13ifvqgrg","pricing_plan_id":"cebpf4jnsgd1na2vs0mg"},{"bike_id":"d63b6ce6-8464-4114-8ffd-37aa7c615a78","system_id":"levelo_inurba_marseille","lat":43.2929,"lon":5.37451,"is_reserved":false,"is_disabled":false,"rental_uris":{"android":"levelo://app?vid=d63b6ce6-8464-4114-8ffd-37aa7c615a78","ios":"levelo://app?vid=d63b6ce6-8464-4114-8ffd-37aa7c615a78"},"vehicle_type_id":"4","last_reported":1757927570,"current_range_meters":18000,"station_id":"ce4bgi12rcd13ifvqb70","pricing_plan_id":"cebpf4jnsgd1na2vs0mg"},{"bike_id":"0ec22504-4f53-4a7d-8664-2802d447c65f","system_id":"levelo_inurba_marseille","lat":43.21752,"lon":5.34593,"is_reserved":false,"is_disabled":false,"rental_uris":{"android":"levelo://app?vid=0ec22504-4f53-4a7d-8664-2802d447c65f","ios":"levelo://app?vid=0ec22504-4f53-4a7d-8664-2802d447c65f"},"vehicle_type_id":"4","last_reported":1757927570,"current_range_meters":18800,"station_id":"","pricing_plan_id":"cebpf4jnsgd1na2vs0mg"},{"bike_id":"cc83002c-47fb-48f6-8a92-3b69209d5491","system_id":"levelo_inurba_marseille","lat":43.32533,"lon":5.41446,"is_reserved":false,"is_disabled":false,"rental_uris":{"android":"levelo://app?vid=cc83002c-47fb-48f6-8a92-3b69209d5491","ios":"levelo://app?vid=cc83002c-47fb-48f6-8a92-3b69209d5491"},"vehicle_type_id":"4","last_reported":1757927570,"current_range_meters":18800,"station_id":"ce4bhq12rcd13ifvqhhg","pricing_plan_id":"cebpf4jnsgd1na2vs0mg"},{"bike_id":"d06d078b-9778-4fb3-a0a3-697b3db6db6c","system_id":"levelo_inurba_marseille","lat":43.22929,"lon":5.35382,"is_reserved":false,"is_disabled":false,"rental_uris":{"android":"levelo://app?vid=d06d078b-9778-4fb3-a0a3-697b3db6db6c","ios":"levelo://app?vid=d06d078b-9778-4fb3-a0a3-697b3db6db6c"},"vehicle_type_id":"4","last_reported":1757927570,"current_range_meters":19200,"station_id":"cpo3532slgdg3j2ikp40","pricing_plan_id":"cebpf4jnsgd1na2vs0mg"},{"bike_id":"4fd1c216-e4cd-40d4-bac5-bd7a225b3c2e","system_id":"levelo_inurba_marseille","lat":43.29073,"lon":5.38378,"is_reserved":false,"is_disabled":false,"rental_uris":{"android":"levelo://app?vid=4fd1c216-e4cd-40d4-bac5-bd7a225b3c2e","ios":"levelo://app?vid=4fd1c216-e4cd-40d4-bac5-bd7a225b3c2e"},"vehicle_type_id":"4","last_reported":1757927570,"current_range_meters":19200,"station_id":"","pricing_plan_id":"cebpf4jnsgd1na2vs0mg"},{"bike_id":"6fe1e8c9-13cd-481a-8038-a5069dd2aca6","system_id":"levelo_inurba_marseille","lat":43.28566,"lon":5.39499,"is_reserved":false,"is_disabled":false,"rental_uris":{"android":"levelo://app?vid=6fe1e8c9-13cd-481a-8038-a5069dd2aca6","ios":"levelo://app?vid=6fe1e8c9-13cd-481a-8038-a5069dd2aca6"},"vehicle_type_id":"4","last_reported":1757927570,"current_range_meters":19200,"station_id":"ce4bh292rcd13ifvqdg0","pricing_plan_id":"cebpf4jnsgd1na2vs0mg"},{"bike_id":"aa57e526-5f5c-4592-be59-9f1fb7af4549","system_id":"levelo_inurba_marseille","lat":43.32107,"lon":5.36774,"is_reserved":false,"is_disabled":false,"rental_uris":{"android":"levelo://app?vid=aa57e526-5f5c-4592-be59-9f1fb7af4549","ios":"levelo://app?vid=aa57e526-5f5c-4592-be59-9f1fb7af4549"},"vehicle_type_id":"4","last_reported":1757927570,"current_range_meters":19200,"station_id":"ce4bhrh2rcd13ifvqhug","pricing_plan_id":"cebpf4jnsgd1na2vs0mg"},{"bike_id":"a2207526-f478-4f65-85e4-9a97cdcd57f3","system_id":"levelo_inurba_marseille","lat":43.27488,"lon":5.42465,"is_reserved":false,"is_disabled":false,"rental_uris":{"android":"levelo://app?vid=a2207526-f478-4f65-85e4-9a97cdcd57f3","ios":"levelo://app?vid=a2207526-f478-4f65-85e4-9a97cdcd57f3"},"vehicle_type_id":"4","last_reported":1757927570,"current_range_meters":19200,"station_id":"ce4bhn92rcd13ifvqgrg","pricing_plan_id":"cebpf4jnsgd1na2vs0mg"},{"bike_id":"9f03ecca-31f7-4479-af01-adbb1998d3e9","system_id":"levelo_inurba_marseille","lat":43.23146,"lon":5.43717,"is_reserved":false,"is_disabled":false,"rental_uris":{"android":"levelo://app?vid=9f03ecca-31f7-4479-af01-adbb1998d3e9","ios":"levelo://app?vid=9f03ecca-31f7-4479-af01-adbb1998d3e9"},"vehicle_type_id":"4","last_reported":1757927570,"current_range_meters":19200,"station_id":"ce4bhmp2rcd13ifvqgog","pricing_plan_id":"cebpf4jnsgd1na2vs0mg"},{"bike_id":"7401f904-c7a5-4420-9a38-b32c76084c39","system_id":"levelo_inurba_marseille","lat":43.28265,"lon":5.35061,"is_reserved":false,"is_disabled":true,"rental_uris":{"android":"levelo://app?vid=7401f904-c7a5-4420-9a38-b32c76084c39","ios":"levelo://app?vid=7401f904-c7a5-4420-9a38-b32c76084c39"},"vehicle_type_id":"4","last_reported":1757927570,"current_range_meters":19200,"station_id":"ce4bhbp2rcd13ifvqerg","pricing_plan_id":"cebpf4jnsgd1na2vs0mg"},{"bike_id":"70516f9d-d708-443a-a621-a2f1c3d33502","system_id":"levelo_inurba_marseille","lat":43.30467,"lon":5.37898,"is_reserved":false,"is_disabled":false,"rental_uris":{"android":"levelo://app?vid=70516f9d-d708-443a-a621-a2f1c3d33502","ios":"levelo://app?vid=70516f9d-d708-443a-a621-a2f1c3d33502"},"vehicle_type_id":"4","last_reported":1757927570,"current_range_meters":19200,"station_id":"ce4bgup2rcd13ifvqcn0","pricing_plan_id":"cebpf4jnsgd1na2vs0mg"},{"bike_id":"3b26aa0d-3679-4b4c-9b55-1096f6d08a9d","system_id":"levelo_inurba_marseille","lat":43.313043,"lon":5.393808,"is_reserved":false,"is_disabled":false,"rental_uris":{"android":"levelo://app?vid=3b26aa0d-3679-4b4c-9b55-1096f6d08a9d","ios":"levelo://app?vid=3b26aa0d-3679-4b4c-9b55-1096f6d08a9d"},"vehicle_type_id":"4","last_reported":1757927570,"current_range_meters":19200,"station_id":"","pricing_plan_id":"cebpf4jnsgd1na2vs0mg"},{"bike_id":"1c12c35a-9e88-441d-a8da-a61dd7b1f027","system_id":"levelo_inurba_marseille","lat":43.30132,"lon":5.37422,"is_reserved":false,"is_disabled":false,"rental_uris":{"android":"levelo://app?vid=1c12c35a-9e88-441d-a8da-a61dd7b1f027","ios":"levelo://app?vid=1c12c35a-9e88-441d-a8da-a61dd7b1f027"},"vehicle_type_id":"4","last_reported":1757927570,"current_range_meters":19200,"station_id":"ce4bgs92rcd13ifvqcc0","pricing_plan_id":"cebpf4jnsgd1na2vs0mg"},{"bike_id":"a22a2ad5-a3fa-4d21-afc1-6d0e503c7c8e","system_id":"levelo_inurba_marseille","lat":43.25007,"lon":5.38927,"is_reserved":false,"is_disabled":false,"rental_uris":{"android":"levelo://app?vid=a22a2ad5-a3fa-4d21-afc1-6d0e503c7c8e","ios":"levelo://app?vid=a22a2ad5-a3fa-4d21-afc1-6d0e503c7c8e"},"vehicle_type_id":"4","last_reported":1757927570,"current_range_meters":18800,"station_id":"ce4bhgp2rcd13ifvqfd0","pricing_plan_id":"cebpf4jnsgd1na2vs0mg"},{"bike_id":"e6b4cb53-1a15-40a2-a39e-a61ed23159a5","system_id":"levelo_inurba_marseille","lat":43.2315,"lon":5.43723,"is_reserved":false,"is_disabled":false,"rental_uris":{"android":"levelo://app?vid=e6b4cb53-1a15-40a2-a39e-a61ed23159a5","ios":"levelo://app?vid=e6b4cb53-1a15-40a2-a39e-a61ed23159a5"},"vehicle_type_id":"4","last_reported":1757927570,"current_range_meters":19200,"station_id":"ce4bhmp2rcd13ifvqgog","pricing_plan_id":"cebpf4jnsgd1na2vs0mg"},{"bike_id":"34e28511-daa3-4532-b356-9c589f08e632","system_id":"levelo_inurba_marseille","lat":43.26949,"lon":5.38619,"is_reserved":false,"is_disabled":false,"rental_uris":{"android":"levelo://app?vid=34e28511-daa3-4532-b356-9c589f08e632","ios":"levelo://app?vid=34e28511-daa3-4532-b356-9c589f08e632"},"vehicle_type_id":"4","last_reported":1757927570,"current_range_meters":19600,"station_id":"ce4bhh92rcd13ifvqfh0","pricing_plan_id":"cebpf4jnsgd1na2vs0mg"},{"bike_id":"a039b4d7-b0bb-4927-9b79-7693532af88c","system_id":"levelo_inurba_marseille","lat":43.32356,"lon":5.36762,"is_reserved":false,"is_disabled":false,"rental_uris":{"android":"levelo://app?vid=a039b4d7-b0bb-4927-9b79-7693532af88c","ios":"levelo://app?vid=a039b4d7-b0bb-4927-9b79-7693532af88c"},"vehicle_type_id":"4","last_reported":1757927570,"current_range_meters":19600,"station_id":"ce4bhsh2rcd13ifvqi2g","pricing_plan_id":"cebpf4jnsgd1na2vs0mg"},{"bike_id":"d9215f12-e380-4d2b-aae4-ea8c6984db1d","system_id":"levelo_inurba_marseille","lat":43.30146,"lon":5.37416,"is_reserved":false,"is_disabled":false,"rental_uris":{"android":"levelo://app?vid=d9215f12-e380-4d2b-aae4-ea8c6984db1d","ios":"levelo://app?vid=d9215f12-e380-4d2b-aae4-ea8c6984db1d"},"vehicle_type_id":"4","last_reported":1757927570,"current_range_meters":19600,"station_id":"ce4bgs92rcd13ifvqcc0","pricing_plan_id":"cebpf4jnsgd1na2vs0mg"},{"bike_id":"814afb5b-ac7e-497b-a371-c4ab43269b27","system_id":"levelo_inurba_marseille","lat":43.26675,"lon":5.38273,"is_reserved":false,"is_disabled":false,"rental_uris":{"android":"levelo://app?vid=814afb5b-ac7e-497b-a371-c4ab43269b27","ios":"levelo://app?vid=814afb5b-ac7e-497b-a371-c4ab43269b27"},"vehicle_type_id":"4","last_reported":1757927570,"current_range_meters":19600,"station_id":"ce4bhg92rcd13ifvqf90","pricing_plan_id":"cebpf4jnsgd1na2vs0mg"},{"bike_id":"deffe5bc-e4ed-4a9f-98fb-dfafcd630eef","system_id":"levelo_inurba_marseille","lat":43.295979,"lon":5.380953,"is_reserved":false,"is_disabled":false,"rental_uris":{"android":"levelo://app?vid=deffe5bc-e4ed-4a9f-98fb-dfafcd630eef","ios":"levelo://app?vid=deffe5bc-e4ed-4a9f-98fb-dfafcd630eef"},"vehicle_type_id":"4","last_reported":1757927570,"current_range_meters":19600,"station_id":"ce4bgl12rcd13ifvqbo0","pricing_plan_id":"cebpf4jnsgd1na2vs0mg"},{"bike_id":"75b14247-de87-4587-b22e-df971b53e7b6","system_id":"levelo_inurba_marseille","lat":43.28411,"lon":5.3498,"is_reserved":false,"is_disabled":false,"rental_uris":{"android":"levelo://app?vid=75b14247-de87-4587-b22e-df971b53e7b6","ios":"levelo://app?vid=75b14247-de87-4587-b22e-df971b53e7b6"},"vehicle_type_id":"4","last_reported":1757927570,"current_range_meters":19600,"station_id":"ce4bhbh2rcd13ifvqepg","pricing_plan_id":"cebpf4jnsgd1na2vs0mg"},{"bike_id":"886768c6-7d05-4f4f-bdbd-5ae9ea59adc1","system_id":"levelo_inurba_marseille","lat":43.31356,"lon":5.36694,"is_reserved":false,"is_disabled":false,"rental_uris":{"android":"levelo://app?vid=886768c6-7d05-4f4f-bdbd-5ae9ea59adc1","ios":"levelo://app?vid=886768c6-7d05-4f4f-bdbd-5ae9ea59adc1"},"vehicle_type_id":"4","last_reported":1757927570,"current_range_meters":19600,"station_id":"ce4bgr92rcd13ifvqc6g","pricing_plan_id":"cebpf4jnsgd1na2vs0mg"},{"bike_id":"0c451dfc-35a5-482d-9ac6-fa3d922a2820","system_id":"levelo_inurba_marseille","lat":43.2694,"lon":5.3866,"is_reserved":false,"is_disabled":false,"rental_uris":{"android":"levelo://app?vid=0c451dfc-35a5-482d-9ac6-fa3d922a2820","ios":"levelo://app?vid=0c451dfc-35a5-482d-9ac6-fa3d922a2820"},"vehicle_type_id":"4","last_reported":1757927570,"current_range_meters":19600,"station_id":"ce4bhh92rcd13ifvqfh0","pricing_plan_id":"cebpf4jnsgd1na2vs0mg"},{"bike_id":"511f6c29-3390-4042-b48e-75a4d61a54e0","system_id":"levelo_inurba_marseille","lat":43.320315,"lon":5.36751,"is_reserved":false,"is_disabled":false,"rental_uris":{"android":"levelo://app?vid=511f6c29-3390-4042-b48e-75a4d61a54e0","ios":"levelo://app?vid=511f6c29-3390-4042-b48e-75a4d61a54e0"},"vehicle_type_id":"4","last_reported":1757927570,"current_range_meters":19600,"station_id":"","pricing_plan_id":"cebpf4jnsgd1na2vs0mg"},{"bike_id":"e209762c-d928-4227-965c-2c224ac6de19","system_id":"levelo_inurba_marseille","lat":43.27938,"lon":5.41018,"is_reserved":false,"is_disabled":false,"rental_uris":{"android":"levelo://app?vid=e209762c-d928-4227-965c-2c224ac6de19","ios":"levelo://app?vid=e209762c-d928-4227-965c-2c224ac6de19"},"vehicle_type_id":"4","last_reported":1757927570,"current_range_meters":19600,"station_id":"ce4bhnp2rcd13ifvqh0g","pricing_plan_id":"cebpf4jnsgd1na2vs0mg"},{"bike_id":"7016f7df-6881-4a03-9333-333fd600cd20","system_id":"levelo_inurba_marseille","lat":43.27967,"lon":5.38736,"is_reserved":false,"is_disabled":false,"rental_uris":{"android":"levelo://app?vid=7016f7df-6881-4a03-9333-333fd600cd20","ios":"levelo://app?vid=7016f7df-6881-4a03-9333-333fd600cd20"},"vehicle_type_id":"4","last_reported":1757927570,"current_range_meters":19600,"station_id":"ce4bhg12rcd13ifvqf80","pricing_plan_id":"cebpf4jnsgd1na2vs0mg"},{"bike_id":"15875f0f-2c3c-4438-9b67-ae2fb09ff43f","system_id":"levelo_inurba_marseille","lat":43.273799,"lon":5.362583,"is_reserved":false,"is_disabled":false,"rental_uris":{"android":"levelo://app?vid=15875f0f-2c3c-4438-9b67-ae2fb09ff43f","ios":"levelo://app?vid=15875f0f-2c3c-4438-9b67-ae2fb09ff43f"},"vehicle_type_id":"4","last_reported":1757927570,"current_range_meters":19200,"station_id":"ce4bhbh2rcd13ifvqeo0","pricing_plan_id":"cebpf4jnsgd1na2vs0mg"},