{"last_updated":1684782299,"ttl":30,"version":"2.2","data":{"bikes":[{"bike_id":"cc729024-39bd-4be9-8ec4-b884521ee137","system_id":"levelo_inurba_marseille","lat":43.312239,"lon":5.368562,"is_reserved":false,"is_disabled":false,"rental_uris":{"android":"levelo://app?vid=cc729024-39bd-4be9-8ec4-b884521ee137","ios":"levelo://app?vid=cc729024-39bd-4be9-8ec4-b884521ee137"},"vehicle_type_id":"4","last_reported":1684782300,"current_range_meters":13600,"station_id":"ce4bgl92rcd13ifvqbq0","pricing_plan_id":"free"},{"bike_id":"4043b413-a1b4-4c7f-b1ea-fccdd7c93111","system_id":"levelo_inurba_marseille","lat":43.305346,"lon":5.365433,"is_reserved":false,"is_disabled":false,"rental_uris":{"android":"levelo://app?vid=4043b413-a1b4-4c7f-b1ea-fccdd7c93111","ios":"levelo://app?vid=4043b413-a1b4-4c7f-b1ea-fccdd7c93111"},"vehicle_type_id":"4","last_reported":1684782300,"current_range_meters":22800,"station_id":"ce4bh0h2rcd13ifvqd60","pricing_plan_id":"free"},{"bike_id":"c7abd6b1-9262-4fbf-a163-e2eff6257543","system_id":"levelo_inurba_marseille","lat":43.305989,"lon":5.37225,"is_reserved":false,"is_disabled":false,"rental_uris":{"android":"levelo://app?vid=c7abd6b1-9262-4fbf-a163-e2eff6257543","ios":"levelo://app?vid=c7abd6b1-9262-4fbf-a163-e2eff6257543"},"vehicle_type_id":"4","last_reported":1684782300,"current_range_meters":10000,"station_id":"ce4bgqh2rcd13ifvqc4g","pricing_plan_id":"free"},{"bike_id":"a44214c2-4700-4705-bd88-6d894ade7cb1","system_id":"levelo_inurba_marseille","lat":43.31522,"lon":5.38036,"is_reserved":false,"is_disabled":false,"rental_uris":{"android":"levelo://app?vid=a44214c2-4700-4705-bd88-6d894ade7cb1","ios":"levelo://app?vid=a44214c2-4700-4705-bd88-6d894ade7cb1"},"vehicle_type_id":"4","last_reported":1684782300,"current_range_meters":14400,"station_id":"ce4bhsp2rcd13ifvqi50","pricing_plan_id":"free"},{"bike_id":"fc92116e-5e99-4a1e-bbbc-810317e537cc","system_id":"levelo_inurba_marseille","lat":43.315293,"lon":5.380349,"is_reserved":false,"is_disabled":false,"rental_uris":{"android":"levelo://app?vid=fc92116e-5e99-4a1e-bbbc-810317e537cc","ios":"levelo://app?vid=fc92116e-5e99-4a1e-bbbc-810317e537cc"},"vehicle_type_id":"4","last_reported":1684782300,"current_range_meters":25600,"station_id":"ce4bhsp2rcd13ifvqi50","pricing_plan_id":"free"},{"bike_id":"2e09246f-0d95-4243-b297-58f60e341df6","system_id":"levelo_inurba_marseille","lat":43.3014,"lon":5.37412,"is_reserved":false,"is_disabled":false,"rental_uris":{"android":"levelo://app?vid=2e09246f-0d95-4243-b297-58f60e341df6","ios":"levelo://app?vid=2e09246f-0d95-4243-b297-58f60e341df6"},"vehicle_type_id":"4","last_reported":1684782300,"current_range_meters":0,"station_id":"","pricing_plan_id":"free"},{"bike_id":"4f042806-753f-4764-a013-a8a8f74d9ea3","system_id":"levelo_inurba_marseille","lat":43.32001,"lon":5.3815,"is_reserved":false,"is_disabled":false,"rental_uris":{"android":"levelo://app?vid=4f042806-753f-4764-a013-a8a8f74d9ea3","ios":"levelo://app?vid=4f042806-753f-4764-a013-a8a8f74d9ea3"},"vehicle_type_id":"4","last_reported":1684782300,"current_range_meters":800,"station_id":"ce4bhr12rcd13ifvqhpg","pricing_plan_id":"free"},{"bike_id":"7ea07382-128c-4094-975c-2ecb6cc97de9","system_id":"levelo_inurba_marseille","lat":43.31995,"lon":5.38156,"is_reserved":false,"is_disabled":false,"rental_uris":{"android":"levelo://app?vid=7ea07382-128c-4094-975c-2ecb6cc97de9","ios":"levelo://app?vid=7ea07382-128c-4094-975c-2ecb6cc97de9"},"vehicle_type_id":"4","last_reported":1684782300,"current_range_meters":10800,"station_id":"ce4bhr12rcd13ifvqhpg","pricing_plan_id":"free"},{"bike_id":"79dd914f-6c45-4474-b311-80cd343a3b64","system_id":"levelo_inurba_marseille","lat":43.31377,"lon":5.38514,"is_reserved":false,"is_disabled":false,"rental_uris":{"android":"levelo://app?vid=79dd914f-6c45-4474-b311-80cd343a3b64","ios":"levelo://app?vid=79dd914f-6c45-4474-b311-80cd343a3b64"},"vehicle_type_id":"4","last_reported":1684782300,"current_range_meters":26000,"station_id":"","pricing_plan_id":"free"},{"bike_id":"5cb65c0a-7cbe-4235-bfb6-9771906cee9a","system_id":"levelo_inurba_marseille","lat":43.29942,"lon":5.36554,"is_reserved":false,"is_disabled":false,"rental_uris":{"android":"levelo://app?vid=5cb65c0a-7cbe-4235-bfb6-9771906cee9a","ios":"levelo://app?vid=5cb65c0a-7cbe-4235-bfb6-9771906cee9a"},"vehicle_type_id":"4","last_reported":1684782300,"current_range_meters":0,"station_id":"ce4bgm92rcd13ifvqbr0","pricing_plan_id":"free"},{"bike_id":"a0cf1be7-0005-475c-8744-1fbac1c7c3f5","system_id":"levelo_inurba_marseille","lat":43.31041,"lon":5.38583,"is_reserved":false,"is_disabled":false,"rental_uris":{"android":"levelo://app?vid=a0cf1be7-0005-475c-8744-1fbac1c7c3f5","ios":"levelo://app?vid=a0cf1be7-0005-475c-8744-1fbac1c7c3f5"},"vehicle_type_id":"4","last_reported":1684782300,"current_range_meters":22800,"station_id":"","pricing_plan_id":"free"},{"bike_id":"86338c9f-11e3-4380-84b4-67e5eed9bee7","system_id":"levelo_inurba_marseille","lat":43.305364,"lon":5.384119,"is_reserved":false,"is_disabled":false,"rental_uris":{"android":"levelo://app?vid=86338c9f-11e3-4380-84b4-67e5eed9bee7","ios":"levelo://app?vid=86338c9f-11e3-4380-84b4-67e5eed9bee7"},"vehicle_type_id":"4","last_reported":1684782300,"current_range_meters":0,"station_id":"ce4bgg92rcd13ifvqb30","pricing_plan_id":"free"},{"bike_id":"dfa56114-20cd-4d27-bbb7-4c825134a30c","system_id":"levelo_inurba_marseille","lat":43.305364,"lon":5.384119,"is_reserved":false,"is_disabled":false,"rental_uris":{"android":"levelo://app?vid=dfa56114-20cd-4d27-bbb7-4c825134a30c","ios":"levelo://app?vid=dfa56114-20cd-4d27-bbb7-4c825134a30c"},"vehicle_type_id":"4","last_reported":1684782300,"current_range_meters":4400,"station_id":"ce4bgg92rcd13ifvqb30","pricing_plan_id":"free"},{"bike_id":"bc147048-0055-4e2f-a0ce-cefa2f8a88a9","system_id":"levelo_inurba_marseille","lat":43.29846,"lon":5.36275,"is_reserved":false,"is_disabled":false,"rental_uris":{"android":"levelo://app?vid=bc147048-0055-4e2f-a0ce-cefa2f8a88a9","ios":"levelo://app?vid=bc147048-0055-4e2f-a0ce-cefa2f8a88a9"},"vehicle_type_id":"4","last_reported":1684782300,"current_range_meters":1200,"station_id":"ce4bgpp2rcd13ifvqc3g","pricing_plan_id":"free"},{"bike_id":"5c3a6496-b27c-4fd8-b511-dbee70910b97","system_id":"levelo_inurba_marseille","lat":43.299243,"lon":5.374807,"is_reserved":false,"is_disabled":false,"rental_uris":{"android":"levelo://app?vid=5c3a6496-b27c-4fd8-b511-dbee70910b97","ios":"levelo://app?vid=5c3a6496-b27c-4fd8-b511-dbee70910b97"},"vehicle_type_id":"4","last_reported":1684782300,"current_range_meters":5200,"station_id":"ce4bgjh2rcd13ifvqbg0","pricing_plan_id":"free"},{"bike_id":"d3d22c30-e1f3-4306-8f40-1a38ea3d86ad","system_id":"levelo_inurba_marseille","lat":43.311722,"lon":5.387247,"is_reserved":false,"is_disabled":false,"rental_uris":{"android":"levelo://app?vid=d3d22c30-e1f3-4306-8f40-1a38ea3d86ad","ios":"levelo://app?vid=d3d22c30-e1f3-4306-8f40-1a38ea3d86ad"},"vehicle_type_id":"4","last_reported":1684782300,"current_range_meters":28800,"station_id":"ce4bgv12rcd13ifvqcp0","pricing_plan_id":"free"},{"bike_id":"171b2947-baf3-4ffc-a468-cdc51d6f160f","system_id":"levelo_inurba_marseille","lat":43.29781,"lon":5.36559,"is_reserved":false,"is_disabled":false,"rental_uris":{"android":"levelo://app?vid=171b2947-baf3-4ffc-a468-cdc51d6f160f","ios":"levelo://app?vid=171b2947-baf3-4ffc-a468-cdc51d6f160f"},"vehicle_type_id":"4","last_reported":1684782300,"current_range_meters":23600,"station_id":"","pricing_plan_id":"free"},{"bike_id":"71a7cd51-c98e-4b63-902f-c2f5a808a065","system_id":"levelo_inurba_marseille","lat":43.32778,"lon":5.36687,"is_reserved":false,"is_disabled":false,"rental_uris":{"android":"levelo://app?vid=71a7cd51-c98e-4b63-902f-c2f5a808a065","ios":"levelo://app?vid=71a7cd51-c98e-4b63-902f-c2f5a808a065"},"vehicle_type_id":"4","last_reported":1684782300,"current_range_meters":13200,"station_id":"","pricing_plan_id":"free"},{"bike_id":"a2ac4576-5354-4814-871c-625f103d3696","system_id":"levelo_inurba_marseille","lat":43.32822,"lon":5.36687,"is_reserved":false,"is_disabled":false,"rental_uris":{"android":"levelo://app?vid=a2ac4576-5354-4814-871c-625f103d3696","ios":"levelo://app?vid=a2ac4576-5354-4814-871c-625f103d3696"},"vehicle_type_id":"4","last_reported":1684782300,"current_range_meters":16000,"station_id":"ce4bhs92rcd13ifvqi0g","pricing_plan_id":"free"},{"bike_id":"8f95aaa2-7064-4eab-b3c5-bacc53bbcac7","system_id":"levelo_inurba_marseille","lat":43.328371,"lon":5.366909,"is_reserved":false,"is_disabled":false,"rental_uris":{"android":"levelo://app?vid=8f95aaa2-7064-4eab-b3c5-bacc53bbcac7","ios":"levelo://app?vid=8f95aaa2-7064-4eab-b3c5-bacc53bbcac7"},"vehicle_type_id":"4","last_reported":1684782300,"current_range_meters":11200,"station_id":"ce4bhs92rcd13ifvqi0g","pricing_plan_id":"free"},{"bike_id":"afba8edc-b3ab-4fc7-a10d-344a45b902bc","system_id":"levelo_inurba_marseille","lat":43.328371,"lon":5.366909,"is_reserved":false,"is_disabled":false,"rental_uris":{"android":"levelo://app?vid=afba8edc-b3ab-4fc7-a10d-344a45b902bc","ios":"levelo://app?vid=afba8edc-b3ab-4fc7-a10d-344a45b902bc"},"vehicle_type_id":"4","last_reported":1684782300,"current_range_meters":4400,"station_id":"ce4bhs92rcd13ifvqi0g","pricing_plan_id":"free"},{"bike_id":"9d891959-73d6-4c5c-ad12-227228d64e9d","system_id":"levelo_inurba_marseille","lat":43.32829,"lon":5.36679,"is_reserved":false,"is_disabled":false,"rental_uris":{"android":"levelo://app?vid=9d891959-73d6-4c5c-ad12-227228d64e9d","ios":"levelo://app?vid=9d891959-73d6-4c5c-ad12-227228d64e9d"},"vehicle_type_id":"4","last_reported":1684782300,"current_range_meters":10800,"station_id":"ce4bhs92rcd13ifvqi0g","pricing_plan_id":"free"},{"bike_id":"0c527357-382a-455f-b5f5-320006445085","system_id":"levelo_inurba_marseille","lat":43.328371,"lon":5.366909,"is_reserved":false,"is_disabled":false,"rental_uris":{"android":"levelo://app?vid=0c527357-382a-455f-b5f5-320006445085","ios":"levelo://app?vid=0c527357-382a-455f-b5f5-320006445085"},"vehicle_type_id":"4","last_reported":1684782300,"current_range_meters":7200,"station_id":"ce4bhs92rcd13ifvqi0g","pricing_plan_id":"free"},{"bike_id":"547e0637-0310-4a47-bbf1-15a11c88f595","system_id":"levelo_inurba_marseille","lat":43.29718,"lon":5.36604,"is_reserved":false,"is_disabled":false,"rental_uris":{"android":"levelo://app?vid=547e0637-0310-4a47-bbf1-15a11c88f595","ios":"levelo://app?vid=547e0637-0310-4a47-bbf1-15a11c88f595"},"vehicle_type_id":"4","last_reported":1684782300,"current_range_meters":11600,"station_id":"","pricing_plan_id":"free"},{"bike_id":"56569103-3d78-4795-9074-b49cf021049d","system_id":"levelo_inurba_marseille","lat":43.32832,"lon":5.36685,"is_reserved":false,"is_disabled":false,"rental_uris":{"android":"levelo://app?vid=56569103-3d78-4795-9074-b49cf021049d","ios":"levelo://app?vid=56569103-3d78-4795-9074-b49cf021049d"},"vehicle_type_id":"4","last_reported":1684782300,"current_range_meters":0,"station_id":"ce4bhs92rcd13ifvqi0g","pricing_plan_id":"free"},{"bike_id":"a7fb6a73-9ebf-4b56-938e-67995ffda768","system_id":"levelo_inurba_marseille","lat":43.32833,"lon":5.3668,"is_reserved":false,"is_disabled":false,"rental_uris":{"android":"levelo://app?vid=a7fb6a73-9ebf-4b56-938e-67995ffda768","ios":"levelo://app?vid=a7fb6a73-9ebf-4b56-938e-67995ffda768"},"vehicle_type_id":"4","last_reported":1684782300,"current_range_meters":24400,"station_id":"ce4bhs92rcd13ifvqi0g","pricing_plan_id":"free"},{"bike_id":"411c53dc-8a67-493a-b123-b1e299cae53c","system_id":"levelo_inurba_marseille","lat":43.32833,"lon":5.3668,"is_reserved":false,"is_disabled":false,"rental_uris":{"android":"levelo://app?vid=411c53dc-8a67-493a-b123-b1e299cae53c","ios":"levelo://app?vid=411c53dc-8a67-493a-b123-b1e299cae53c"},"vehicle_type_id":"4","last_reported":1684782300,"current_range_meters":22800,"station_id":"ce4bhs92rcd13ifvqi0g","pricing_plan_id":"free"},{"bike_id":"5012d76c-29af-4465-bed6-6a6a8d4b9dea","system_id":"levelo_inurba_marseille","lat":43.29714,"lon":5.36615,"is_reserved":false,"is_disabled":false,"rental_uris":{"android":"levelo://app?vid=5012d76c-29af-4465-bed6-6a6a8d4b9dea","ios":"levelo://app?vid=5012d76c-29af-4465-bed6-6a6a8d4b9dea"},"vehicle_type_id":"4","last_reported":1684782300,"current_range_meters":3600,"station_id":"","pricing_plan_id":"free"},{"bike_id":"59f7c8e9-ca2e-40e2-a950-1cb3054febcc","system_id":"levelo_inurba_marseille","lat":43.328371,"lon":5.366912,"is_reserved":false,"is_disabled":false,"rental_uris":{"android":"levelo://app?vid=59f7c8e9-ca2e-40e2-a950-1cb3054febcc","ios":"levelo://app?vid=59f7c8e9-ca2e-40e2-a950-1cb3054febcc"},"vehicle_type_id":"4","last_reported":1684782300,"current_range_meters":0,"station_id":"ce4bhs92rcd13ifvqi0g","pricing_plan_id":"free"},{"bike_id":"1f0f1316-a0e5-4939-8abb-717958f88652","system_id":"levelo_inurba_marseille","lat":43.29705,"lon":5.36619,"is_reserved":false,"is_disabled":false,"rental_uris":{"android":"levelo://app?vid=1f0f1316-a0e5-4939-8abb-717958f88652","ios":"levelo://app?vid=1f0f1316-a0e5-4939-8abb-717958f88652"},"vehicle_type_id":"4","last_reported":1684782300,"current_range_meters":20800,"station_id":"","pricing_plan_id":"free"},{"bike_id":"adef6489-136e-48e4-9865-656a637940cc","system_id":"levelo_inurba_marseille","lat":43.299135,"lon":5.381406,"is_reserved":false,"is_disabled":false,"rental_uris":{"android":"levelo://app?vid=adef6489-136e-48e4-9865-656a637940cc","ios":"levelo://app?vid=adef6489-136e-48e4-9865-656a637940cc"},"vehicle_type_id":"4","last_reported":1684782300,"current_range_meters":18000,"station_id":"","pricing_plan_id":"free"},{"bike_id":"e4ed6a4a-774f-4833-b00d-87785ca9496c","system_id":"levelo_inurba_marseille","lat":43.299028,"lon":5.381509,"is_reserved":false,"is_disabled":false,"rental_uris":{"android":"levelo://app?vid=e4ed6a4a-774f-4833-b00d-87785ca9496c","ios":"levelo://app?vid=e4ed6a4a-774f-4833-b00d-87785ca9496c"},"vehicle_type_id":"4","last_reported":1684782300,"current_range_meters":10800,"station_id":"ce4bgj12rcd13ifvqbc0","pricing_plan_id":"free"},{"bike_id":"54bf57c2-5269-4a00-8519-70f04c76eb55","system_id":"levelo_inurba_marseille","lat":43.317557,"lon":5.390173,"is_reserved":false,"is_disabled":false,"rental_uris":{"android":"levelo://app?vid=54bf57c2-5269-4a00-8519-70f04c76eb55","ios":"levelo://app?vid=54bf57c2-5269-4a00-8519-70f04c76eb55"},"vehicle_type_id":"4","last_reported":1684782300,"current_range_meters":31200,"station_id":"ce4bhqp2rcd13ifvqhng","pricing_plan_id":"free"},{"bike_id":"cf5a8f61-b873-4ce0-99ca-3eee7a600c59","system_id":"levelo_inurba_marseille","lat":43.317557,"lon":5.390173,"is_reserved":false,"is_disabled":false,"rental_uris":{"android":"levelo://app?vid=cf5a8f61-b873-4ce0-99ca-3eee7a600c59","ios":"levelo://app?vid=cf5a8f61-b873-4ce0-99ca-3eee7a600c59"},"vehicle_type_id":"4","last_reported":1684782300,"current_range_meters":28800,"station_id":"ce4bhqp2rcd13ifvqhng","pricing_plan_id":"free"},{"bike_id":"e9d39bd0-abcc-465f-8db9-d3840e06ef07","system_id":"levelo_inurba_marseille","lat":43.317557,"lon":5.390173,"is_reserved":false,"is_disabled":false,"rental_uris":{"android":"levelo://app?vid=e9d39bd0-abcc-465f-8db9-d3840e06ef07","ios":"levelo://app?vid=e9d39bd0-abcc-465f-8db9-d3840e06ef07"},"vehicle_type_id":"4","last_reported":1684782300,"current_range_meters":31200,"station_id":"ce4bhqp2rcd13ifvqhng","pricing_plan_id":"free"},{"bike_id":"285ecbbd-8ad4-494f-9245-b79ce3cb27b4","system_id":"levelo_inurba_marseille","lat":43.317557,"lon":5.390173,"is_reserved":false,"is_disabled":false,"rental_uris":{"android":"levelo://app?vid=285ecbbd-8ad4-494f-9245-b79ce3cb27b4","ios":"levelo://app?vid=285ecbbd-8ad4-494f-9245-b79ce3cb27b4"},"vehicle_type_id":"4","last_reported":1684782300,"current_range_meters":30000,"station_id":"ce4bhqp2rcd13ifvqhng","pricing_plan_id":"free"},{"bike_id":"3f5897fe-e98b-4d7c-969b-c40302317e14","system_id":"levelo_inurba_marseille","lat":43.317557,"lon":5.390173,"is_reserved":false,"is_disabled":false,"rental_uris":{"android":"levelo://app?vid=3f5897fe-e98b-4d7c-969b-c40302317e14","ios":"levelo://app?vid=3f5897fe-e98b-4d7c-969b-c40302317e14"},"vehicle_type_id":"4","last_reported":1684782300,"current_range_meters":24800,"station_id":"ce4bhqp2rcd13ifvqhng","pricing_plan_id":"free"},{"bike_id":"d4f00183-f1e0-4565-a747-b90eb1b6df9d","system_id":"levelo_inurba_marseille","lat":43.31488,"lon":5.39112,"is_reserved":false,"is_disabled":false,"rental_uris":{"android":"levelo://app?vid=d4f00183-f1e0-4565-a747-b90eb1b6df9d","ios":"levelo://app?vid=d4f00183-f1e0-4565-a747-b90eb1b6df9d"},"vehicle_type_id":"4","last_reported":1684782300,"current_range_meters":400,"station_id":"","pricing_plan_id":"free"},{"bike_id":"d66553f8-1367-4890-928f-9ef59a5aba1c","system_id":"levelo_inurba_marseille","lat":43.304274,"lon":5.388873,"is_reserved":false,"is_disabled":false,"rental_uris":{"android":"levelo://app?vid=d66553f8-1367-4890-928f-9ef59a5aba1c","ios":"levelo://app?vid=d66553f8-1367-4890-928f-9ef59a5aba1c"},"vehicle_type_id":"4","last_reported":1684782300,"current_range_meters":4400,"station_id":"ce4bgk12rcd13ifvqbi0","pricing_plan_id":"free"},{"bike_id":"74a1717d-eb4d-441a-8bf4-e2acb142d5d8","system_id":"levelo_inurba_marseille","lat":43.304274,"lon":5.388873,"is_reserved":false,"is_disabled":false,"rental_uris":{"android":"levelo://app?vid=74a1717d-eb4d-441a-8bf4-e2acb142d5d8","ios":"levelo://app?vid=74a1717d-eb4d-441a-8bf4-e2acb142d5d8"},"vehicle_type_id":"4","last_reported":1684782300,"current_range_meters":14400,"station_id":"ce4bgk12rcd13ifvqbi0","pricing_plan_id":"free"},{"bike_id":"701b93c8-da6e-43dc-ba84-35c98f5a087c","system_id":"levelo_inurba_marseille","lat":43.296277,"lon":5.377108,"is_reserved":false,"is_disabled":false,"rental_uris":{"android":"levelo://app?vid=701b93c8-da6e-43dc-ba84-35c98f5a087c","ios":"levelo://app?vid=701b93c8-da6e-43dc-ba84-35c98f5a087c"},"vehicle_type_id":"4","last_reported":1684782300,"current_range_meters":0,"station_id":"ce4bgi92rcd13ifvqb90","pricing_plan_id":"free"},{"bike_id":"aea4c755-8e80-438a-a19c-01287b54f344","system_id":"levelo_inurba_marseille","lat":43.32367,"lon":5.388836,"is_reserved":false,"is_disabled":false,"rental_uris":{"android":"levelo://app?vid=aea4c755-8e80-438a-a19c-01287b54f344","ios":"levelo://app?vid=aea4c755-8e80-438a-a19c-01287b54f344"},"vehicle_type_id":"4","last_reported":1684782300,"current_range_meters":19200,"station_id":"ce4bhqp2rcd13ifvqhog","pricing_plan_id":"free"},{"bike_id":"169de8b1-112e-4c5f-9965-cf75ffea8c0e","system_id":"levelo_inurba_marseille","lat":43.32367,"lon":5.388836,"is_reserved":false,"is_disabled":false,"rental_uris":{"android":"levelo://app?vid=169de8b1-112e-4c5f-9965-cf75ffea8c0e","ios":"levelo://app?vid=169de8b1-112e-4c5f-9965-cf75ffea8c0e"},"vehicle_type_id":"4","last_reported":1684782300,"current_range_meters":12000,"station_id":"ce4bhqp2rcd13ifvqhog","pricing_plan_id":"free"},{"bike_id":"f2371f63-e4eb-48fe-aaa9-64cb538c1f31","system_id":"levelo_inurba_marseille","lat":43.32367,"lon":5.388836,"is_reserved":false,"is_disabled":false,"rental_uris":{"android":"levelo://app?vid=f2371f63-e4eb-48fe-aaa9-64cb538c1f31","ios":"levelo://app?vid=f2371f63-e4eb-48fe-aaa9-64cb538c1f31"},"vehicle_type_id":"4","last_reported":1684782300,"current_range_meters":12400,"station_id":"ce4bhqp2rcd13ifvqhog","pricing_plan_id":"free"},{"bike_id":"e93e9afc-a4d8-40a8-acd4-6ce3c457187d","system_id":"levelo_inurba_marseille","lat":43.32367,"lon":5.388836,"is_reserved":false,"is_disabled":false,"rental_uris":{"android":"levelo://app?vid=e93e9afc-a4d8-40a8-acd4-6ce3c457187d","ios":"levelo://app?vid=e93e9afc-a4d8-40a8-acd4-6ce3c457187d"},"vehicle_type_id":"4","last_reported":1684782300,"current_range_meters":14800,"station_id":"ce4bhqp2rcd13ifvqhog","pricing_plan_id":"free"},{"bike_id":"54f4f14a-114e-4a16-8ee4-5f49ed60a6fa","system_id":"levelo_inurba_marseille","lat":43.32367,"lon":5.388836,"is_reserved":false,"is_disabled":false,"rental_uris":{"android":"levelo://app?vid=54f4f14a-114e-4a16-8ee4-5f49ed60a6fa","ios":"levelo://app?vid=54f4f14a-114e-4a16-8ee4-5f49ed60a6fa"},"vehicle_type_id":"4","last_reported":1684782300,"current_range_meters":11200,"station_id":"ce4bhqp2rcd13ifvqhog","pricing_plan_id":"free"},{"bike_id":"541d96a7-deec-44d2-b937-fa831e713ad5","system_id":"levelo_inurba_marseille","lat":43.323681,"lon":5.38879,"is_reserved":false,"is_disabled":false,"rental_uris":{"android":"levelo://app?vid=541d96a7-deec-44d2-b937-fa831e713ad5","ios":"levelo://app?vid=541d96a7-deec-44d2-b937-fa831e713ad5"},"vehicle_type_id":"4","last_reported":1684782300,"current_range_meters":18800,"station_id":"","pricing_plan_id":"free"},{"bike_id":"07b7685b-33bd-464f-9775-0aae7d0812ec","system_id":"levelo_inurba_marseille","lat":43.32367,"lon":5.388836,"is_reserved":false,"is_disabled":false,"rental_uris":{"android":"levelo://app?vid=07b7685b-33bd-464f-9775-0aae7d0812ec","ios":"levelo://app?vid=07b7685b-33bd-464f-9775-0aae7d0812ec"},"vehicle_type_id":"4","last_reported":1684782300,"current_range_meters":30000,"station_id":"ce4bhqp2rcd13ifvqhog","pricing_plan_id":"free"},{"bike_id":"41e3f1d6-c88a-4132-948c-86b57f36c41d","system_id":"levelo_inurba_marseille","lat":43.32364,"lon":5.38884,"is_reserved":false,"is_disabled":false,"rental_uris":{"android":"levelo://app?vid=41e3f1d6-c88a-4132-948c-86b57f36c41d","ios":"levelo://app?vid=41e3f1d6-c88a-4132-948c-86b57f36c41d"},"vehicle_type_id":"4","last_reported":1684782300,"current_range_meters":25200,"station_id":"ce4bhqp2rcd13ifvqhog","pricing_plan_id":"free"},{"bike_id":"e9e39f5f-daa1-4afd-bbb4-fbd91e7ae607","system_id":"levelo_inurba_marseille","lat":43.32367,"lon":5.388836,"is_reserved":false,"is_disabled":false,"rental_uris":{"android":"levelo://app?vid=e9e39f5f-daa1-4afd-bbb4-fbd91e7ae607","ios":"levelo://app?vid=e9e39f5f-daa1-4afd-bbb4-fbd91e7ae607"},"vehicle_type_id":"4","last_reported":1684782300,"current_range_meters":18400,"station_id":"ce4bhqp2rcd13ifvqhog","pricing_plan_id":"free"},{"bike_id":"83775f59-0d5a-488f-aa70-72fb12009392","system_id":"levelo_inurba_marseille","lat":43.32367,"lon":5.388836,"is_reserved":false,"is_disabled":false,"rental_uris":{"android":"levelo://app?vid=83775f59-0d5a-488f-aa70-72fb12009392","ios":"levelo://app?vid=83775f59-0d5a-488f-aa70-72fb12009392"},"vehicle_type_id":"4","last_reported":1684782300,"current_range_meters":17600,"station_id":"ce4bhqp2rcd13ifvqhog","pricing_plan_id":"free"},{"bike_id":"b2239e09-41dc-4cde-9b2f-b27fe7d0a355","system_id":"levelo_inurba_marseille","lat":43.32367,"lon":5.388836,"is_reserved":false,"is_disabled":false,"rental_uris":{"android":"levelo://app?vid=b2239e09-41dc-4cde-9b2f-b27fe7d0a355","ios":"levelo://app?vid=b2239e09-41dc-4cde-9b2f-b27fe7d0a355"},"vehicle_type_id":"4","last_reported":1684782300,"current_range_meters":24800,"station_id":"ce4bhqp2rcd13ifvqhog","pricing_plan_id":"free"},{"bike_id":"278cf516-bd46-4a4e-b2c7-90ce64b42f33","system_id":"levelo_inurba_marseille","lat":43.32367,"lon":5.388836,"is_reserved":false,"is_disabled":false,"rental_uris":{"android":"levelo://app?vid=278cf516-bd46-4a4e-b2c7-90ce64b42f33","ios":"levelo://app?vid=278cf516-bd46-4a4e-b2c7-90ce64b42f33"},"vehicle_type_id":"4","last_reported":1684782300,"current_range_meters":20000,"station_id":"ce4bhqp2rcd13ifvqhog","pricing_plan_id":"free"},{"bike_id":"53c80b4b-d032-45da-9217-748d7d82aa73","system_id":"levelo_inurba_marseille","lat":43.32367,"lon":5.388836,"is_reserved":false,"is_disabled":false,"rental_uris":{"android":"levelo://app?vid=53c80b4b-d032-45da-9217-748d7d82aa73","ios":"levelo://app?vid=53c80b4b-d032-45da-9217-748d7d82aa73"},"vehicle_type_id":"4","last_reported":1684782300,"current_range_meters":18400,"station_id":"ce4bhqp2rcd13ifvqhog","pricing_plan_id":"free"},{"bike_id":"39cdbf93-6286-4d2e-b9b0-d4194b04b83c","system_id":"levelo_inurba_marseille","lat":43.32367,"lon":5.388836,"is_reserved":false,"is_disabled":false,"rental_uris":{"android":"levelo://app?vid=39cdbf93-6286-4d2e-b9b0-d4194b04b83c","ios":"levelo://app?vid=39cdbf93-6286-4d2e-b9b0-d4194b04b83c"},"vehicle_type_id":"4","last_reported":1684782300,"current_range_meters":28800,"station_id":"ce4bhqp2rcd13ifvqhog","pricing_plan_id":"free"},{"bike_id":"01d401da-ad68-4b2e-a4ac-24f3f8771d91","system_id":"levelo_inurba_marseille","lat":43.32367,"lon":5.388836,"is_reserved":false,"is_disabled":false,"rental_uris":{"android":"levelo://app?vid=01d401da-ad68-4b2e-a4ac-24f3f8771d91","ios":"levelo://app?vid=01d401da-ad68-4b2e-a4ac-24f3f8771d91"},"vehicle_type_id":"4","last_reported":1684782300,"current_range_meters":16400,"station_id":"ce4bhqp2rcd13ifvqhog","pricing_plan_id":"free"},{"bike_id":"87fb03e6-4a7b-4183-ab7a-d01e047ad4b3","system_id":"levelo_inurba_marseille","lat":43.29601,"lon":5.381084,"is_reserved":false,"is_disabled":false,"rental_uris":{"android":"levelo://app?vid=87fb03e6-4a7b-4183-ab7a-d01e047ad4b3","ios":"levelo://app?vid=87fb03e6-4a7b-4183-ab7a-d01e047ad4b3"},"vehicle_type_id":"4","last_reported":1684782300,"current_range_meters":0,"station_id":"ce4bgl12rcd13ifvqbo0","pricing_plan_id":"free"},{"bike_id":"0b6e4312-9d84-4034-98fd-ca4d088945c4","system_id":"levelo_inurba_marseille","lat":43.292749,"lon":5.368398,"is_reserved":false,"is_disabled":false,"rental_uris":{"android":"levelo://app?vid=0b6e4312-9d84-4034-98fd-ca4d088945c4","ios":"levelo://app?vid=0b6e4312-9d84-4034-98fd-ca4d088945c4"},"vehicle_type_id":"4","last_reported":1684782300,"current_range_meters":23600,"station_id":"ce4bhbp2rcd13ifvqesg","pricing_plan_id":"free"},{"bike_id":"b21e6167-28de-488d-b9fe-5e5d12675113","system_id":"levelo_inurba_marseille","lat":43.293009,"lon":5.374584,"is_reserved":false,"is_disabled":false,"rental_uris":{"android":"levelo://app?vid=b21e6167-28de-488d-b9fe-5e5d12675113","ios":"levelo://app?vid=b21e6167-28de-488d-b9fe-5e5d12675113"},"vehicle_type_id":"4","last_reported":1684782300,"current_range_meters":20800,"station_id":"ce4bgi12rcd13ifvqb70","pricing_plan_id":"free"},{"bike_id":"42b203bb-daf6-4de0-b92d-8d5127a35adb","system_id":"levelo_inurba_marseille","lat":43.293009,"lon":5.374584,"is_reserved":false,"is_disabled":false,"rental_uris":{"android":"levelo://app?vid=42b203bb-daf6-4de0-b92d-8d5127a35adb","ios":"levelo://app?vid=42b203bb-daf6-4de0-b92d-8d5127a35adb"},"vehicle_type_id":"4","last_reported":1684782300,"current_range_meters":12400,"station_id":"ce4bgi12rcd13ifvqb70","pricing_plan_id":"free"},{"bike_id":"4f826f34-daa0-42a3-ac40-f5612abceb97","system_id":"levelo_inurba_marseille","lat":43.305994,"lon":5.393687,"is_reserved":false,"is_disabled":false,"rental_uris":{"android":"levelo://app?vid=4f826f34-daa0-42a3-ac40-f5612abceb97","ios":"levelo://app?vid=4f826f34-daa0-42a3-ac40-f5612abceb97"},"vehicle_type_id":"4","last_reported":1684782300,"current_range_meters":0,"station_id":"ce4bh0p2rcd13ifvqd80","pricing_plan_id":"free"},{"bike_id":"c9e9a2a7-6a0a-44c0-9a23-ccab5c8364e4","system_id":"levelo_inurba_marseille","lat":43.302992,"lon":5.392136,"is_reserved":false,"is_disabled":false,"rental_uris":{"android":"levelo://app?vid=c9e9a2a7-6a0a-44c0-9a23-ccab5c8364e4","ios":"levelo://app?vid=c9e9a2a7-6a0a-44c0-9a23-ccab5c8364e4"},"vehicle_type_id":"4","last_reported":1684782300,"current_range_meters":400,"station_id":"ce4bgkh2rcd13ifvqbk0","pricing_plan_id":"free"},{"bike_id":"ab7b04b7-8a04-4026-ad36-f1a428be0f81","system_id":"levelo_inurba_marseille","lat":43.2936,"lon":5.37835,"is_reserved":false,"is_disabled":false,"rental_uris":{"android":"levelo://app?vid=ab7b04b7-8a04-4026-ad36-f1a428be0f81","ios":"levelo://app?vid=ab7b04b7-8a04-4026-ad36-f1a428be0f81"},"vehicle_type_id":"4","last_reported":1684782300,"current_range_meters":0,"station_id":"ce4bgjh2rcd13ifvqbf0","pricing_plan_id":"free"},{"bike_id":"ffb4176f-7f33-4024-937f-d8b6a9a9262b","system_id":"levelo_inurba_marseille","lat":43.2936,"lon":5.37835,"is_reserved":false,"is_disabled":false,"rental_uris":{"android":"levelo://app?vid=ffb4176f-7f33-4024-937f-d8b6a9a9262b","ios":"levelo://app?vid=ffb4176f-7f33-4024-937f-d8b6a9a9262b"},"vehicle_type_id":"4","last_reported":1684782300,"current_range_meters":7600,"station_id":"ce4bgjh2rcd13ifvqbf0","pricing_plan_id":"free"},{"bike_id":"500acc7c-5c7c-46e4-b474-4863ab9097e1","system_id":"levelo_inurba_marseille","lat":43.292325,"lon":5.360647,"is_reserved":false,"is_disabled":false,"rental_uris":{"android":"levelo://app?vid=500acc7c-5c7c-46e4-b474-4863ab9097e1","ios":"levelo://app?vid=500acc7c-5c7c-46e4-b474-4863ab9097e1"},"vehicle_type_id":"4","last_reported":1684782300,"current_range_meters":1200,"station_id":"","pricing_plan_id":"free"},{"bike_id":"15c531d5-ec70-43de-840b-f628599d492d","system_id":"levelo_inurba_marseille","lat":43.29228,"lon":5.36057,"is_reserved":false,"is_disabled":false,"rental_uris":{"android":"levelo://app?vid=15c531d5-ec70-43de-840b-f628599d492d","ios":"levelo://app?vid=15c531d5-ec70-43de-840b-f628599d492d"},"vehicle_type_id":"4","last_reported":1684782300,"current_range_meters":29600,"station_id":"ce4bhbh2rcd13ifvqeqg","pricing_plan_id":"free"},{"bike_id":"4d98ce75-28eb-4bfe-b52a-e65d1f209ad8","system_id":"levelo_inurba_marseille","lat":43.29223,"lon":5.36079,"is_reserved":false,"is_disabled":false,"rental_uris":{"android":"levelo://app?vid=4d98ce75-28eb-4bfe-b52a-e65d1f209ad8","ios":"levelo://app?vid=4d98ce75-28eb-4bfe-b52a-e65d1f209ad8"},"vehicle_type_id":"4","last_reported":1684782300,"current_range_meters":0,"station_id":"","pricing_plan_id":"free"},{"bike_id":"7ce92b85-5c5d-4562-a740-d5861264af53","system_id":"levelo_inurba_marseille","lat":43.30085,"lon":5.39079,"is_reserved":false,"is_disabled":false,"rental_uris":{"android":"levelo://app?vid=7ce92b85-5c5d-4562-a740-d5861264af53","ios":"levelo://app?vid=7ce92b85-5c5d-4562-a740-d5861264af53"},"vehicle_type_id":"4","last_reported":1684782300,"current_range_meters":7200,"station_id":"ce4bh192rcd13ifvqdb0","pricing_plan_id":"free"},{"bike_id":"d7cce3c5-8022-4703-b923-89fcf5f6b703","system_id":"levelo_inurba_marseille","lat":43.2922,"lon":5.36061,"is_reserved":false,"is_disabled":false,"rental_uris":{"android":"levelo://app?vid=d7cce3c5-8022-4703-b923-89fcf5f6b703","ios":"levelo://app?vid=d7cce3c5-8022-4703-b923-89fcf5f6b703"},"vehicle_type_id":"4","last_reported":1684782300,"current_range_meters":10400,"station_id":"","pricing_plan_id":"free"},{"bike_id":"803f37f2-9a64-458b-b900-1db2b7802f05","system_id":"levelo_inurba_marseille","lat":43.300849,"lon":5.390811,"is_reserved":false,"is_disabled":false,"rental_uris":{"android":"levelo://app?vid=803f37f2-9a64-458b-b900-1db2b7802f05","ios":"levelo://app?vid=803f37f2-9a64-458b-b900-1db2b7802f05"},"vehicle_type_id":"4","last_reported":1684782300,"current_range_meters":20400,"station_id":"","pricing_plan_id":"free"},{"bike_id":"e48267d0-70e5-4639-b0ed-06c6a5234705","system_id":"levelo_inurba_marseille","lat":43.30085,"lon":5.390856,"is_reserved":false,"is_disabled":false,"rental_uris":{"android":"levelo://app?vid=e48267d0-70e5-4639-b0ed-06c6a5234705","ios":"levelo://app?vid=e48267d0-70e5-4639-b0ed-06c6a5234705"},"vehicle_type_id":"4","last_reported":1684782300,"current_range_meters":14800,"station_id":"ce4bh192rcd13ifvqdb0","pricing_plan_id":"free"},{"bike_id":"73ad0232-7b44-46cb-86c1-0b2106a0ba99","system_id":"levelo_inurba_marseille","lat":43.298764,"lon":5.388973,"is_reserved":false,"is_disabled":false,"rental_uris":{"android":"levelo://app?vid=73ad0232-7b44-46cb-86c1-0b2106a0ba99","ios":"levelo://app?vid=73ad0232-7b44-46cb-86c1-0b2106a0ba99"},"vehicle_type_id":"4","last_reported":1684782300,"current_range_meters":22800,"station_id":"ce4bh392rcd13ifvqdl0","pricing_plan_id":"free"},{"bike_id":"a366d7f4-9d4e-4890-8154-e24099cc86f7","system_id":"levelo_inurba_marseille","lat":43.291671,"lon":5.371575,"is_reserved":false,"is_disabled":false,"rental_uris":{"android":"levelo://app?vid=a366d7f4-9d4e-4890-8154-e24099cc86f7","ios":"levelo://app?vid=a366d7f4-9d4e-4890-8154-e24099cc86f7"},"vehicle_type_id":"4","last_reported":1684782300,"current_range_meters":12400,"station_id":"ce4bha92rcd13ifvqeh0","pricing_plan_id":"free"},{"bike_id":"5e2266a8-bbec-4532-bf38-fc5d1d65736f","system_id":"levelo_inurba_marseille","lat":43.31325,"lon":5.39683,"is_reserved":false,"is_disabled":false,"rental_uris":{"android":"levelo://app?vid=5e2266a8-bbec-4532-bf38-fc5d1d65736f","ios":"levelo://app?vid=5e2266a8-bbec-4532-bf38-fc5d1d65736f"},"vehicle_type_id":"4","last_reported":1684782300,"current_range_meters":31200,"station_id":"ce4bgvp2rcd13ifvqcu0","pricing_plan_id":"free"},{"bike_id":"029aa609-85a3-4388-841e-dedf506f0742","system_id":"levelo_inurba_marseille","lat":43.291994,"lon":5.357886,"is_reserved":false,"is_disabled":false,"rental_uris":{"android":"levelo://app?vid=029aa609-85a3-4388-841e-dedf506f0742","ios":"levelo://app?vid=029aa609-85a3-4388-841e-dedf506f0742"},"vehicle_type_id":"4","last_reported":1684782300,"current_range_meters":31200,"station_id":"ce4bhb12rcd13ifvqel0","pricing_plan_id":"free"},{"bike_id":"5624c06a-f365-474c-a893-9d27ea57131f","system_id":"levelo_inurba_marseille","lat":43.313291,"lon":5.396838,"is_reserved":false,"is_disabled":false,"rental_uris":{"android":"levelo://app?vid=5624c06a-f365-474c-a893-9d27ea57131f","ios":"levelo://app?vid=5624c06a-f365-474c-a893-9d27ea57131f"},"vehicle_type_id":"4","last_reported":1684782300,"current_range_meters":22400,"station_id":"ce4bgvp2rcd13ifvqcu0","pricing_plan_id":"free"},{"bike_id":"7f7ef650-ec5e-4c38-bee6-f0130b803fd4","system_id":"levelo_inurba_marseille","lat":43.313291,"lon":5.396838,"is_reserved":false,"is_disabled":false,"rental_uris":{"android":"levelo://app?vid=7f7ef650-ec5e-4c38-bee6-f0130b803fd4","ios":"levelo://app?vid=7f7ef650-ec5e-4c38-bee6-f0130b803fd4"},"vehicle_type_id":"4","last_reported":1684782300,"current_range_meters":30400,"station_id":"ce4bgvp2rcd13ifvqcu0","pricing_plan_id":"free"},{"bike_id":"2cc0024c-6a40-4006-968a-f0eecea4b8d6","system_id":"levelo_inurba_marseille","lat":43.313291,"lon":5.396838,"is_reserved":false,"is_disabled":false,"rental_uris":{"android":"levelo://app?vid=2cc0024c-6a40-4006-968a-f0eecea4b8d6","ios":"levelo://app?vid=2cc0024c-6a40-4006-968a-f0eecea4b8d6"},"vehicle_type_id":"4","last_reported":1684782300,"current_range_meters":30800,"station_id":"ce4bgvp2rcd13ifvqcu0","pricing_plan_id":"free"},{"bike_id":"50ad3c9f-afe7-4229-9177-838a35b27008","system_id":"levelo_inurba_marseille","lat":43.313291,"lon":5.396838,"is_reserved":false,"is_disabled":false,"rental_uris":{"android":"levelo://app?vid=50ad3c9f-afe7-4229-9177-838a35b27008","ios":"levelo://app?vid=50ad3c9f-afe7-4229-9177-838a35b27008"},"vehicle_type_id":"4","last_reported":1684782300,"current_range_meters":17200,"station_id":"ce4bgvp2rcd13ifvqcu0","pricing_plan_id":"free"},{"bike_id":"a45cb2db-4799-4b38-8d73-fbb4269c6aed","system_id":"levelo_inurba_marseille","lat":43.31328,"lon":5.39694,"is_reserved":false,"is_disabled":false,"rental_uris":{"android":"levelo://app?vid=a45cb2db-4799-4b38-8d73-fbb4269c6aed","ios":"levelo://app?vid=a45cb2db-4799-4b38-8d73-fbb4269c6aed"},"vehicle_type_id":"4","last_reported":1684782300,"current_range_meters":19200,"station_id":"ce4bgvp2rcd13ifvqcu0","pricing_plan_id":"free"},{"bike_id":"4c1e3b57-92b1-4105-b6ab-3cfb2eef35ca","system_id":"levelo_inurba_marseille","lat":43.313109,"lon":5.396952,"is_reserved":false,"is_disabled":false,"rental_uris":{"android":"levelo://app?vid=4c1e3b57-92b1-4105-b6ab-3cfb2eef35ca","ios":"levelo://app?vid=4c1e3b57-92b1-4105-b6ab-3cfb2eef35ca"},"vehicle_type_id":"4","last_reported":1684782300,"current_range_meters":4400,"station_id":"","pricing_plan_id":"free"},{"bike_id":"754ca419-00e5-4ba5-9dd0-2489ece39e44","system_id":"levelo_inurba_marseille","lat":43.313291,"lon":5.396838,"is_reserved":false,"is_disabled":false,"rental_uris":{"android":"levelo://app?vid=754ca419-00e5-4ba5-9dd0-2489ece39e44","ios":"levelo://app?vid=754ca419-00e5-4ba5-9dd0-2489ece39e44"},"vehicle_type_id":"4","last_reported":1684782300,"current_range_meters":30000,"station_id":"ce4bgvp2rcd13ifvqcu0","pricing_plan_id":"free"},{"bike_id":"649def23-efd3-49c3-a26b-a5b0ab428831","system_id":"levelo_inurba_marseille","lat":43.31337,"lon":5.39703,"is_reserved":false,"is_disabled":false,"rental_uris":{"android":"levelo://app?vid=649def23-efd3-49c3-a26b-a5b0ab428831","ios":"levelo://app?vid=649def23-efd3-49c3-a26b-a5b0ab428831"},"vehicle_type_id":"4","last_reported":1684782300,"current_range_meters":31200,"station_id":"ce4bgvp2rcd13ifvqcu0","pricing_plan_id":"free"},{"bike_id":"ab89885f-2dd4-4a82-8c74-c963f6014f37","system_id":"levelo_inurba_marseille","lat":43.313291,"lon":5.396838,"is_reserved":false,"is_disabled":false,"rental_uris":{"android":"levelo://app?vid=ab89885f-2dd4-4a82-8c74-c963f6014f37","ios":"levelo://app?vid=ab89885f-2dd4-4a82-8c74-c963f6014f37"},"vehicle_type_id":"4","last_reported":1684782300,"current_range_meters":31200,"station_id":"ce4bgvp2rcd13ifvqcu0","pricing_plan_id":"free"},{"bike_id":"bc90a2cf-425e-456d-ac06-618404f30d6c","system_id":"levelo_inurba_marseille","lat":43.309038,"lon":5.396546,"is_reserved":false,"is_disabled":false,"rental_uris":{"android":"levelo://app?vid=bc90a2cf-425e-456d-ac06-618404f30d6c","ios":"levelo://app?vid=bc90a2cf-425e-456d-ac06-618404f30d6c"},"vehicle_type_id":"4","last_reported":1684782300,"current_range_meters":24800,"station_id":"ce4bh012rcd13ifvqcv0","pricing_plan_id":"free"},{"bike_id":"394134d5-6e0b-43d9-b8a1-59364f69e951","system_id":"levelo_inurba_marseille","lat":43.29048,"lon":5.35913,"is_reserved":false,"is_disabled":false,"rental_uris":{"android":"levelo://app?vid=394134d5-6e0b-43d9-b8a1-59364f69e951","ios":"levelo://app?vid=394134d5-6e0b-43d9-b8a1-59364f69e951"},"vehicle_type_id":"4","last_reported":1684782300,"current_range_meters":21600,"station_id":"ce4bha92rcd13ifvqeg0","pricing_plan_id":"free"},{"bike_id":"21ff54fc-4974-43e2-bbd4-f978c86bd829","system_id":"levelo_inurba_marseille","lat":43.29043,"lon":5.35919,"is_reserved":false,"is_disabled":false,"rental_uris":{"android":"levelo://app?vid=21ff54fc-4974-43e2-bbd4-f978c86bd829","ios":"levelo://app?vid=21ff54fc-4974-43e2-bbd4-f978c86bd829"},"vehicle_type_id":"4","last_reported":1684782300,"current_range_meters":30800,"station_id":"ce4bha92rcd13ifvqeg0","pricing_plan_id":"free"},{"bike_id":"137b7872-232f-4b14-bcba-bb69c8a95dc3","system_id":"levelo_inurba_marseille","lat":43.290624,"lon":5.359245,"is_reserved":false,"is_disabled":false,"rental_uris":{"android":"levelo://app?vid=137b7872-232f-4b14-bcba-bb69c8a95dc3","ios":"levelo://app?vid=137b7872-232f-4b14-bcba-bb69c8a95dc3"},"vehicle_type_id":"4","last_reported":1684782300,"current_range_meters":8800,"station_id":"ce4bha92rcd13ifvqeg0","pricing_plan_id":"free"},{"bike_id":"8bad2cfa-9295-490a-8350-01c36e83839d","system_id":"levelo_inurba_marseille","lat":43.28947,"lon":5.3664,"is_reserved":false,"is_disabled":false,"rental_uris":{"android":"levelo://app?vid=8bad2cfa-9295-490a-8350-01c36e83839d","ios":"levelo://app?vid=8bad2cfa-9295-490a-8350-01c36e83839d"},"vehicle_type_id":"4","last_reported":1684782300,"current_range_meters":10400,"station_id":"ce4bhap2rcd13ifvqek0","pricing_plan_id":"free"},{"bike_id":"a96b84f6-ee92-47c7-888a-5eb467cf117c","system_id":"levelo_inurba_marseille","lat":43.29412,"lon":5.3862,"is_reserved":false,"is_disabled":false,"rental_uris":{"android":"levelo://app?vid=a96b84f6-ee92-47c7-888a-5eb467cf117c","ios":"levelo://app?vid=a96b84f6-ee92-47c7-888a-5eb467cf117c"},"vehicle_type_id":"4","last_reported":1684782300,"current_range_meters":6800,"station_id":"ce4bh2h2rcd13ifvqdh0","pricing_plan_id":"free"},{"bike_id":"b454266e-a6d0-4810-82c2-421f72d84a6f","system_id":"levelo_inurba_marseille","lat":43.29413,"lon":5.38627,"is_reserved":false,"is_disabled":false,"rental_uris":{"android":"levelo://app?vid=b454266e-a6d0-4810-82c2-421f72d84a6f","ios":"levelo://app?vid=b454266e-a6d0-4810-82c2-421f72d84a6f"},"vehicle_type_id":"4","last_reported":1684782300,"current_range_meters":0,"station_id":"ce4bh2h2rcd13ifvqdh0","pricing_plan_id":"free"},{"bike_id":"ef71793d-677f-4d0a-87b2-8f4182e1730a","system_id":"levelo_inurba_marseille","lat":43.289184,"lon":5.366408,"is_reserved":false,"is_disabled":false,"rental_uris":{"android":"levelo://app?vid=ef71793d-677f-4d0a-87b2-8f4182e1730a","ios":"levelo://app?vid=ef71793d-677f-4d0a-87b2-8f4182e1730a"},"vehicle_type_id":"4","last_reported":1684782300,"current_range_meters":5200,"station_id":"ce4bhap2rcd13ifvqek0","pricing_plan_id":"free"},{"bike_id":"83c030f0-664b-4625-8a64-49893629c069","system_id":"levelo_inurba_marseille","lat":43.289184,"lon":5.366408,"is_reserved":false,"is_disabled":false,"rental_uris":{"android":"levelo://app?vid=83c030f0-664b-4625-8a64-49893629c069","ios":"levelo://app?vid=83c030f0-664b-4625-8a64-49893629c069"},"vehicle_type_id":"4","last_reported":1684782300,"current_range_meters":24800,"station_id":"ce4bhap2rcd13ifvqek0","pricing_plan_id":"free"},{"bike_id":"0a01b287-5eab-436a-8f0e-27d92a4624a6","system_id":"levelo_inurba_marseille","lat":43.289184,"lon":5.366408,"is_reserved":false,"is_disabled":false,"rental_uris":{"android":"levelo://app?vid=0a01b287-5eab-436a-8f0e-27d92a4624a6","ios":"levelo://app?vid=0a01b287-5eab-436a-8f0e-27d92a4624a6"},"vehicle_type_id":"4","last_reported":1684782300,"current_range_meters":13200,"station_id":"ce4bhap2rcd13ifvqek0","pricing_plan_id":"free"},{"bike_id":"1754c0ed-faf5-4aba-b24d-c631c694ee87","system_id":"levelo_inurba_marseille","lat":43.28935,"lon":5.36636,"is_reserved":false,"is_disabled":false,"rental_uris":{"android":"levelo://app?vid=1754c0ed-faf5-4aba-b24d-c631c694ee87","ios":"levelo://app?vid=1754c0ed-faf5-4aba-b24d-c631c694ee87"},"vehicle_type_id":"4","last_reported":1684782300,"current_range_meters":19600,"station_id":"ce4bhap2rcd13ifvqek0","pricing_plan_id":"free"},{"bike_id":"f7735da8-ab88-4a06-bad0-59d77b991d8f","system_id":"levelo_inurba_marseille","lat":43.289741,"lon":5.378306,"is_reserved":false,"is_disabled":false,"rental_uris":{"android":"levelo://app?vid=f7735da8-ab88-4a06-bad0-59d77b991d8f","ios":"levelo://app?vid=f7735da8-ab88-4a06-bad0-59d77b991d8f"},"vehicle_type_id":"4","last_reported":1684782300,"current_range_meters":16400,"station_id":"ce4bh9p2rcd13ifvqed0","pricing_plan_id":"free"},{"bike_id":"7747771f-4e89-4731-ac2a-12d9bd66d740","system_id":"levelo_inurba_marseille","lat":43.29011,"lon":5.35609,"is_reserved":false,"is_disabled":false,"rental_uris":{"android":"levelo://app?vid=7747771f-4e89-4731-ac2a-12d9bd66d740","ios":"levelo://app?vid=7747771f-4e89-4731-ac2a-12d9bd66d740"},"vehicle_type_id":"4","last_reported":1684782300,"current_range_meters":24400,"station_id":"ce4bhb92rcd13ifvqen0","pricing_plan_id":"free"},{"bike_id":"8729f2f5-1fb1-480d-8c6e-c5689c2590b4","system_id":"levelo_inurba_marseille","lat":43.33041,"lon":5.38918,"is_reserved":false,"is_disabled":false,"rental_uris":{"android":"levelo://app?vid=8729f2f5-1fb1-480d-8c6e-c5689c2590b4","ios":"levelo://app?vid=8729f2f5-1fb1-480d-8c6e-c5689c2590b4"},"vehicle_type_id":"4","last_reported":1684782300,"current_range_meters":17200,"station_id":"ce4bhr92rcd13ifvqhrg","pricing_plan_id":"free"},{"bike_id":"59a2a02d-cb16-41c1-90d7-8a5818af9e1c","system_id":"levelo_inurba_marseille","lat":43.33044,"lon":5.38918,"is_reserved":false,"is_disabled":false,"rental_uris":{"android":"levelo://app?vid=59a2a02d-cb16-41c1-90d7-8a5818af9e1c","ios":"levelo://app?vid=59a2a02d-cb16-41c1-90d7-8a5818af9e1c"},"vehicle_type_id":"4","last_reported":1684782300,"current_range_meters":31200,"station_id":"ce4bhr92rcd13ifvqhrg","pricing_plan_id":"free"},{"bike_id":"58c60a78-4324-4787-95ff-df20c8c33139","system_id":"levelo_inurba_marseille","lat":43.33043,"lon":5.38922,"is_reserved":false,"is_disabled":false,"rental_uris":{"android":"levelo://app?vid=58c60a78-4324-4787-95ff-df20c8c33139","ios":"levelo://app?vid=58c60a78-4324-4787-95ff-df20c8c33139"},"vehicle_type_id":"4","last_reported":1684782300,"current_range_meters":14400,"station_id":"ce4bhr92rcd13ifvqhrg","pricing_plan_id":"free"},{"bike_id":"a4dc9252-63f5-4bcc-bc39-f285767444de","system_id":"levelo_inurba_marseille","lat":43.33045,"lon":5.38919,"is_reserved":false,"is_disabled":false,"rental_uris":{"android":"levelo://app?vid=a4dc9252-63f5-4bcc-bc39-f285767444de","ios":"levelo://app?vid=a4dc9252-63f5-4bcc-bc39-f285767444de"},"vehicle_type_id":"4","last_reported":1684782300,"current_range_meters":13200,"station_id":"ce4bhr92rcd13ifvqhrg","pricing_plan_id":"free"},{"bike_id":"6bba3873-e04b-4f2b-8ad3-85ac8ee8ebb4","system_id":"levelo_inurba_marseille","lat":43.290104,"lon":5.356111,"is_reserved":false,"is_disabled":false,"rental_uris":{"android":"levelo://app?vid=6bba3873-e04b-4f2b-8ad3-85ac8ee8ebb4","ios":"levelo://app?vid=6bba3873-e04b-4f2b-8ad3-85ac8ee8ebb4"},"vehicle_type_id":"4","last_reported":1684782300,"current_range_meters":12000,"station_id":"ce4bhb92rcd13ifvqen0","pricing_plan_id":"free"},{"bike_id":"b09fd18d-1a24-4b92-944e-4ef2a9915b3a","system_id":"levelo_inurba_marseille","lat":43.290995,"lon":5.381361,"is_reserved":false,"is_disabled":false,"rental_uris":{"android":"levelo://app?vid=b09fd18d-1a24-4b92-944e-4ef2a9915b3a","ios":"levelo://app?vid=b09fd18d-1a24-4b92-944e-4ef2a9915b3a"},"vehicle_type_id":"4","last_reported":1684782300,"current_range_meters":0,"station_id":"ce4bh512rcd13ifvqe2g","pricing_plan_id":"free"},{"bike_id":"a94bbfab-fb2e-42b1-a04b-e4fc69b76232","system_id":"levelo_inurba_marseille","lat":43.295169,"lon":5.390426,"is_reserved":false,"is_disabled":false,"rental_uris":{"android":"levelo://app?vid=a94bbfab-fb2e-42b1-a04b-e4fc69b76232","ios":"levelo://app?vid=a94bbfab-fb2e-42b1-a04b-e4fc69b76232"},"vehicle_type_id":"4","last_reported":1684782300,"current_range_meters":4000,"station_id":"ce4bh3p2rcd13ifvqdp0","pricing_plan_id":"free"},{"bike_id":"a4b49b1c-09ec-4afe-8fb0-85a220b4b739","system_id":"levelo_inurba_marseille","lat":43.295169,"lon":5.390426,"is_reserved":false,"is_disabled":false,"rental_uris":{"android":"levelo://app?vid=a4b49b1c-09ec-4afe-8fb0-85a220b4b739","ios":"levelo://app?vid=a4b49b1c-09ec-4afe-8fb0-85a220b4b739"},"vehicle_type_id":"4","last_reported":1684782300,"current_range_meters":11200,"station_id":"ce4bh3p2rcd13ifvqdp0","pricing_plan_id":"free"},{"bike_id":"16fd87f3-72c6-48ff-a8dc-db3d8e59bb00","system_id":"levelo_inurba_marseille","lat":43.30508,"lon":5.39938,"is_reserved":false,"is_disabled":false,"rental_uris":{"android":"levelo://app?vid=16fd87f3-72c6-48ff-a8dc-db3d8e59bb00","ios":"levelo://app?vid=16fd87f3-72c6-48ff-a8dc-db3d8e59bb00"},"vehicle_type_id":"4","last_reported":1684782300,"current_range_meters":8000,"station_id":"","pricing_plan_id":"free"},{"bike_id":"912d52cf-ae96-4a0f-abbf-be84c3b593bd","system_id":"levelo_inurba_marseille","lat":43.290094,"lon":5.381264,"is_reserved":false,"is_disabled":false,"rental_uris":{"android":"levelo://app?vid=912d52cf-ae96-4a0f-abbf-be84c3b593bd","ios":"levelo://app?vid=912d52cf-ae96-4a0f-abbf-be84c3b593bd"},"vehicle_type_id":"4","last_reported":1684782300,"current_range_meters":19600,"station_id":"ce4bh4p2rcd13ifvqe1g","pricing_plan_id":"free"},{"bike_id":"053f81f6-a95a-4747-8d6a-8dbb25391e60","system_id":"levelo_inurba_marseille","lat":43.290094,"lon":5.381264,"is_reserved":false,"is_disabled":false,"rental_uris":{"android":"levelo://app?vid=053f81f6-a95a-4747-8d6a-8dbb25391e60","ios":"levelo://app?vid=053f81f6-a95a-4747-8d6a-8dbb25391e60"},"vehicle_type_id":"4","last_reported":1684782300,"current_range_meters":400,"station_id":"ce4bh4p2rcd13ifvqe1g","pricing_plan_id":"free"},{"bike_id":"7c3aee57-c4a1-4e79-884d-37ad9b73a998","system_id":"levelo_inurba_marseille","lat":43.28856,"lon":5.358371,"is_reserved":false,"is_disabled":false,"rental_uris":{"android":"levelo://app?vid=7c3aee57-c4a1-4e79-884d-37ad9b73a998","ios":"levelo://app?vid=7c3aee57-c4a1-4e79-884d-37ad9b73a998"},"vehicle_type_id":"4","last_reported":1684782300,"current_range_meters":21600,"station_id":"ce4bhb12rcd13ifvqem0","pricing_plan_id":"free"},{"bike_id":"5f50f4b7-8de7-4b28-94c7-4ec88e3d737c","system_id":"levelo_inurba_marseille","lat":43.28856,"lon":5.358371,"is_reserved":false,"is_disabled":false,"rental_uris":{"android":"levelo://app?vid=5f50f4b7-8de7-4b28-94c7-4ec88e3d737c","ios":"levelo://app?vid=5f50f4b7-8de7-4b28-94c7-4ec88e3d737c"},"vehicle_type_id":"4","last_reported":1684782300,"current_range_meters":30400,"station_id":"ce4bhb12rcd13ifvqem0","pricing_plan_id":"free"},{"bike_id":"35199331-8d8f-466c-b16a-436f0aa5c67d","system_id":"levelo_inurba_marseille","lat":43.28856,"lon":5.358371,"is_reserved":false,"is_disabled":false,"rental_uris":{"android":"levelo://app?vid=35199331-8d8f-466c-b16a-436f0aa5c67d","ios":"levelo://app?vid=35199331-8d8f-466c-b16a-436f0aa5c67d"},"vehicle_type_id":"4","last_reported":1684782300,"current_range_meters":20000,"station_id":"ce4bhb12rcd13ifvqem0","pricing_plan_id":"free"},{"bike_id":"889cab72-9490-4347-a2ed-78b7d9178e8c","system_id":"levelo_inurba_marseille","lat":43.28856,"lon":5.358371,"is_reserved":false,"is_disabled":false,"rental_uris":{"android":"levelo://app?vid=889cab72-9490-4347-a2ed-78b7d9178e8c","ios":"levelo://app?vid=889cab72-9490-4347-a2ed-78b7d9178e8c"},"vehicle_type_id":"4","last_reported":1684782300,"current_range_meters":6000,"station_id":"ce4bhb12rcd13ifvqem0","pricing_plan_id":"free"},{"bike_id":"2f933817-e7f5-4371-b595-4aade74c5765","system_id":"levelo_inurba_marseille","lat":43.28856,"lon":5.358371,"is_reserved":false,"is_disabled":false,"rental_uris":{"android":"levelo://app?vid=2f933817-e7f5-4371-b595-4aade74c5765","ios":"levelo://app?vid=2f933817-e7f5-4371-b595-4aade74c5765"},"vehicle_type_id":"4","last_reported":1684782300,"current_range_meters":20400,"station_id":"ce4bhb12rcd13ifvqem0","pricing_plan_id":"free"},{"bike_id":"9df911bc-d9d7-4bf4-b625-8a95efceec81","system_id":"levelo_inurba_marseille","lat":43.28856,"lon":5.358371,"is_reserved":false,"is_disabled":false,"rental_uris":{"android":"levelo://app?vid=9df911bc-d9d7-4bf4-b625-8a95efceec81","ios":"levelo://app?vid=9df911bc-d9d7-4bf4-b625-8a95efceec81"},"vehicle_type_id":"4","last_reported":1684782300,"current_range_meters":25600,"station_id":"ce4bhb12rcd13ifvqem0","pricing_plan_id":"free"},{"bike_id":"979b0d20-5254-4609-93b4-fb7d6d4deb62","system_id":"levelo_inurba_marseille","lat":43.28856,"lon":5.358371,"is_reserved":false,"is_disabled":false,"rental_uris":{"android":"levelo://app?vid=979b0d20-5254-4609-93b4-fb7d6d4deb62","ios":"levelo://app?vid=979b0d20-5254-4609-93b4-fb7d6d4deb62"},"vehicle_type_id":"4","last_reported":1684782300,"current_range_meters":31600,"station_id":"ce4bhb12rcd13ifvqem0","pricing_plan_id":"free"},{"bike_id":"c743ba44-b785-42c1-a620-c13078b915ed","system_id":"levelo_inurba_marseille","lat":43.28856,"lon":5.358371,"is_reserved":false,"is_disabled":false,"rental_uris":{"android":"levelo://app?vid=c743ba44-b785-42c1-a620-c13078b915ed","ios":"levelo://app?vid=c743ba44-b785-42c1-a620-c13078b915ed"},"vehicle_type_id":"4","last_reported":1684782300,"current_range_meters":31600,"station_id":"ce4bhb12rcd13ifvqem0","pricing_plan_id":"free"},{"bike_id":"caf46a96-9347-4fc3-b313-be536f4b4bf0","system_id":"levelo_inurba_marseille","lat":43.28856,"lon":5.358371,"is_reserved":false,"is_disabled":false,"rental_uris":{"android":"levelo://app?vid=caf46a96-9347-4fc3-b313-be536f4b4bf0","ios":"levelo://app?vid=caf46a96-9347-4fc3-b313-be536f4b4bf0"},"vehicle_type_id":"4","last_reported":1684782300,"current_range_meters":31600,"station_id":"ce4bhb12rcd13ifvqem0","pricing_plan_id":"free"},{"bike_id":"f01aafda-b474-4a76-8586-ae89c1b331fe","system_id":"levelo_inurba_marseille","lat":43.28856,"lon":5.358371,"is_reserved":false,"is_disabled":false,"rental_uris":{"android":"levelo://app?vid=f01aafda-b474-4a76-8586-ae89c1b331fe","ios":"levelo://app?vid=f01aafda-b474-4a76-8586-ae89c1b331fe"},"vehicle_type_id":"4","last_reported":1684782300,"current_range_meters":24400,"station_id":"ce4bhb12rcd13ifvqem0","pricing_plan_id":"free"},{"bike_id":"5dccd3ad-0113-453b-af79-33dddde46cb7","system_id":"levelo_inurba_marseille","lat":43.28856,"lon":5.358371,"is_reserved":false,"is_disabled":false,"rental_uris":{"android":"levelo://app?vid=5dccd3ad-0113-453b-af79-33dddde46cb7","ios":"levelo://app?vid=5dccd3ad-0113-453b-af79-33dddde46cb7"},"vehicle_type_id":"4","last_reported":1684782300,"current_range_meters":24400,"station_id":"ce4bhb12rcd13ifvqem0","pricing_plan_id":"free"},{"bike_id":"67a200fb-372b-4860-9e78-7a54485b59ad","system_id":"levelo_inurba_marseille","lat":43.28856,"lon":5.358371,"is_reserved":false,"is_disabled":false,"rental_uris":{"android":"levelo://app?vid=67a200fb-372b-4860-9e78-7a54485b59ad","ios":"levelo://app?vid=67a200fb-372b-4860-9e78-7a54485b59ad"},"vehicle_type_id":"4","last_reported":1684782300,"current_range_meters":32000,"station_id":"ce4bhb12rcd13ifvqem0","pricing_plan_id":"free"},{"bike_id":"1fd4dd02-e419-4f78-8bb6-12a784adc753","system_id":"levelo_inurba_marseille","lat":43.31329,"lon":5.4016,"is_reserved":false,"is_disabled":false,"rental_uris":{"android":"levelo://app?vid=1fd4dd02-e419-4f78-8bb6-12a784adc753","ios":"levelo://app?vid=1fd4dd02-e419-4f78-8bb6-12a784adc753"},"vehicle_type_id":"4","last_reported":1684782300,"current_range_meters":800,"station_id":"","pricing_plan_id":"free"},{"bike_id":"c8a6a57f-cf6f-47a9-b295-a6917843e52c","system_id":"levelo_inurba_marseille","lat":43.33748,"lon":5.37454,"is_reserved":false,"is_disabled":false,"rental_uris":{"android":"levelo://app?vid=c8a6a57f-cf6f-47a9-b295-a6917843e52c","ios":"levelo://app?vid=c8a6a57f-cf6f-47a9-b295-a6917843e52c"},"vehicle_type_id":"4","last_reported":1684782300,"current_range_meters":6400,"station_id":"","pricing_plan_id":"free"},{"bike_id":"e123cd43-562a-427d-b741-98d33ce5dea2","system_id":"levelo_inurba_marseille","lat":43.33756,"lon":5.37433,"is_reserved":false,"is_disabled":false,"rental_uris":{"android":"levelo://app?vid=e123cd43-562a-427d-b741-98d33ce5dea2","ios":"levelo://app?vid=e123cd43-562a-427d-b741-98d33ce5dea2"},"vehicle_type_id":"4","last_reported":1684782300,"current_range_meters":31600,"station_id":"","pricing_plan_id":"free"},{"bike_id":"66a74e04-1afd-4831-9866-d6b53dc382c7","system_id":"levelo_inurba_marseille","lat":43.33756,"lon":5.37443,"is_reserved":false,"is_disabled":false,"rental_uris":{"android":"levelo://app?vid=66a74e04-1afd-4831-9866-d6b53dc382c7","ios":"levelo://app?vid=66a74e04-1afd-4831-9866-d6b53dc382c7"},"vehicle_type_id":"4","last_reported":1684782300,"current_range_meters":2000,"station_id":"","pricing_plan_id":"free"},{"bike_id":"4ceafcdf-c965-4ad1-b174-80367cb32ce1","system_id":"levelo_inurba_marseille","lat":43.337537,"lon":5.374711,"is_reserved":false,"is_disabled":false,"rental_uris":{"android":"levelo://app?vid=4ceafcdf-c965-4ad1-b174-80367cb32ce1","ios":"levelo://app?vid=4ceafcdf-c965-4ad1-b174-80367cb32ce1"},"vehicle_type_id":"4","last_reported":1684782300,"current_range_meters":28800,"station_id":"","pricing_plan_id":"free"},{"bike_id":"a094a59f-4bd2-4749-867b-08d0290d1f38","system_id":"levelo_inurba_marseille","lat":43.337555,"lon":5.374746,"is_reserved":false,"is_disabled":false,"rental_uris":{"android":"levelo://app?vid=a094a59f-4bd2-4749-867b-08d0290d1f38","ios":"levelo://app?vid=a094a59f-4bd2-4749-867b-08d0290d1f38"},"vehicle_type_id":"4","last_reported":1684782300,"current_range_meters":24800,"station_id":"","pricing_plan_id":"free"},{"bike_id":"f2dd4f43-8118-4571-8571-e176a6fa704b","system_id":"levelo_inurba_marseille","lat":43.33765,"lon":5.37429,"is_reserved":false,"is_disabled":false,"rental_uris":{"android":"levelo://app?vid=f2dd4f43-8118-4571-8571-e176a6fa704b","ios":"levelo://app?vid=f2dd4f43-8118-4571-8571-e176a6fa704b"},"vehicle_type_id":"4","last_reported":1684782300,"current_range_meters":30400,"station_id":"","pricing_plan_id":"free"},{"bike_id":"2d84c10e-834d-4d28-ac1e-0c5d4bb1b336","system_id":"levelo_inurba_marseille","lat":43.33769,"lon":5.37421,"is_reserved":false,"is_disabled":false,"rental_uris":{"android":"levelo://app?vid=2d84c10e-834d-4d28-ac1e-0c5d4bb1b336","ios":"levelo://app?vid=2d84c10e-834d-4d28-ac1e-0c5d4bb1b336"},"vehicle_type_id":"4","last_reported":1684782300,"current_range_meters":30400,"station_id":"","pricing_plan_id":"free"},{"bike_id":"c3b66989-b85e-4172-b369-d5cd98ae4ea7","system_id":"levelo_inurba_marseille","lat":43.33764,"lon":5.37453,"is_reserved":false,"is_disabled":false,"rental_uris":{"android":"levelo://app?vid=c3b66989-b85e-4172-b369-d5cd98ae4ea7","ios":"levelo://app?vid=c3b66989-b85e-4172-b369-d5cd98ae4ea7"},"vehicle_type_id":"4","last_reported":1684782300,"current_range_meters":4800,"station_id":"","pricing_plan_id":"free"},{"bike_id":"bdfa6a85-4365-4812-b11d-72f32b49d000","system_id":"levelo_inurba_marseille","lat":43.33768,"lon":5.3745,"is_reserved":false,"is_disabled":false,"rental_uris":{"android":"levelo://app?vid=bdfa6a85-4365-4812-b11d-72f32b49d000","ios":"levelo://app?vid=bdfa6a85-4365-4812-b11d-72f32b49d000"},"vehicle_type_id":"4","last_reported":1684782300,"current_range_meters":32000,"station_id":"","pricing_plan_id":"free"},{"bike_id":"434d4e0e-9c98-47be-8042-74e9bdcada8a","system_id":"levelo_inurba_marseille","lat":43.301117,"lon":5.398795,"is_reserved":false,"is_disabled":false,"rental_uris":{"android":"levelo://app?vid=434d4e0e-9c98-47be-8042-74e9bdcada8a","ios":"levelo://app?vid=434d4e0e-9c98-47be-8042-74e9bdcada8a"},"vehicle_type_id":"4","last_reported":1684782300,"current_range_meters":31200,"station_id":"ce4bh0h2rcd13ifvqd40","pricing_plan_id":"free"},{"bike_id":"6c779d34-5e8b-48cf-adf8-316327a9a7c6","system_id":"levelo_inurba_marseille","lat":43.337813,"lon":5.374352,"is_reserved":false,"is_disabled":false,"rental_uris":{"android":"levelo://app?vid=6c779d34-5e8b-48cf-adf8-316327a9a7c6","ios":"levelo://app?vid=6c779d34-5e8b-48cf-adf8-316327a9a7c6"},"vehicle_type_id":"4","last_reported":1684782300,"current_range_meters":28400,"station_id":"","pricing_plan_id":"free"},{"bike_id":"1a683b9a-3cd9-4a82-9ac2-4d6d0fd83aaf","system_id":"levelo_inurba_marseille","lat":43.301117,"lon":5.398795,"is_reserved":false,"is_disabled":false,"rental_uris":{"android":"levelo://app?vid=1a683b9a-3cd9-4a82-9ac2-4d6d0fd83aaf","ios":"levelo://app?vid=1a683b9a-3cd9-4a82-9ac2-4d6d0fd83aaf"},"vehicle_type_id":"4","last_reported":1684782300,"current_range_meters":6000,"station_id":"ce4bh0h2rcd13ifvqd40","pricing_plan_id":"free"},{"bike_id":"f4b236f0-155c-4a13-8d98-126053774e0e","system_id":"levelo_inurba_marseille","lat":43.301117,"lon":5.398795,"is_reserved":false,"is_disabled":false,"rental_uris":{"android":"levelo://app?vid=f4b236f0-155c-4a13-8d98-126053774e0e","ios":"levelo://app?vid=f4b236f0-155c-4a13-8d98-126053774e0e"},"vehicle_type_id":"4","last_reported":1684782300,"current_range_meters":11200,"station_id":"ce4bh0h2rcd13ifvqd40","pricing_plan_id":"free"},{"bike_id":"2a4734fe-fdd4-4906-8252-355c55800274","system_id":"levelo_inurba_marseille","lat":43.286591,"lon":5.363346,"is_reserved":false,"is_disabled":false,"rental_uris":{"android":"levelo://app?vid=2a4734fe-fdd4-4906-8252-355c55800274","ios":"levelo://app?vid=2a4734fe-fdd4-4906-8252-355c55800274"},"vehicle_type_id":"4","last_reported":1684782300,"current_range_meters":31600,"station_id":"ce4bhah2rcd13ifvqej0","pricing_plan_id":"free"},{"bike_id":"3695088b-0769-4a59-b1de-7497a0b345b3","system_id":"levelo_inurba_marseille","lat":43.29874,"lon":5.3973,"is_reserved":false,"is_disabled":false,"rental_uris":{"android":"levelo://app?vid=3695088b-0769-4a59-b1de-7497a0b345b3","ios":"levelo://app?vid=3695088b-0769-4a59-b1de-7497a0b345b3"},"vehicle_type_id":"4","last_reported":1684782300,"current_range_meters":28000,"station_id":"","pricing_plan_id":"free"},{"bike_id":"79e7d4d9-4b26-4d6b-bf87-5233f9644d06","system_id":"levelo_inurba_marseille","lat":43.298681,"lon":5.397225,"is_reserved":false,"is_disabled":false,"rental_uris":{"android":"levelo://app?vid=79e7d4d9-4b26-4d6b-bf87-5233f9644d06","ios":"levelo://app?vid=79e7d4d9-4b26-4d6b-bf87-5233f9644d06"},"vehicle_type_id":"4","last_reported":1684782300,"current_range_meters":6000,"station_id":"ce4bh0h2rcd13ifvqd50","pricing_plan_id":"free"},{"bike_id":"f11fca41-7b3a-4835-b0af-8466257d5707","system_id":"levelo_inurba_marseille","lat":43.298681,"lon":5.397225,"is_reserved":false,"is_disabled":false,"rental_uris":{"android":"levelo://app?vid=f11fca41-7b3a-4835-b0af-8466257d5707","ios":"levelo://app?vid=f11fca41-7b3a-4835-b0af-8466257d5707"},"vehicle_type_id":"4","last_reported":1684782300,"current_range_meters":5200,"station_id":"ce4bh0h2rcd13ifvqd50","pricing_plan_id":"free"},{"bike_id":"ff648ff9-b814-4604-8cf6-2a77c275209e","system_id":"levelo_inurba_marseille","lat":43.298681,"lon":5.397225,"is_reserved":false,"is_disabled":false,"rental_uris":{"android":"levelo://app?vid=ff648ff9-b814-4604-8cf6-2a77c275209e","ios":"levelo://app?vid=ff648ff9-b814-4604-8cf6-2a77c275209e"},"vehicle_type_id":"4","last_reported":1684782300,"current_range_meters":11600,"station_id":"ce4bh0h2rcd13ifvqd50","pricing_plan_id":"free"},{"bike_id":"02b28150-2d5e-48f2-a03d-9bed69bc2f90","system_id":"levelo_inurba_marseille","lat":43.286593,"lon":5.363346,"is_reserved":false,"is_disabled":false,"rental_uris":{"android":"levelo://app?vid=02b28150-2d5e-48f2-a03d-9bed69bc2f90","ios":"levelo://app?vid=02b28150-2d5e-48f2-a03d-9bed69bc2f90"},"vehicle_type_id":"4","last_reported":1684782300,"current_range_meters":25600,"station_id":"ce4bhah2rcd13ifvqej0","pricing_plan_id":"free"},{"bike_id":"841baef0-1bfe-4a7c-ab2c-044b49644df7","system_id":"levelo_inurba_marseille","lat":43.290345,"lon":5.38646,"is_reserved":false,"is_disabled":false,"rental_uris":{"android":"levelo://app?vid=841baef0-1bfe-4a7c-ab2c-044b49644df7","ios":"levelo://app?vid=841baef0-1bfe-4a7c-ab2c-044b49644df7"},"vehicle_type_id":"4","last_reported":1684782300,"current_range_meters":11600,"station_id":"ce4bh4p2rcd13ifvqe0g","pricing_plan_id":"free"},{"bike_id":"244eeb15-f20b-487b-9839-6e9dc2dae865","system_id":"levelo_inurba_marseille","lat":43.286039,"lon":5.370679,"is_reserved":false,"is_disabled":false,"rental_uris":{"android":"levelo://app?vid=244eeb15-f20b-487b-9839-6e9dc2dae865","ios":"levelo://app?vid=244eeb15-f20b-487b-9839-6e9dc2dae865"},"vehicle_type_id":"4","last_reported":1684782300,"current_range_meters":12400,"station_id":"ce4bht12rcd13ifvqi60","pricing_plan_id":"free"},{"bike_id":"e49ba71f-6ade-49c2-821c-303eaec87bab","system_id":"levelo_inurba_marseille","lat":43.286039,"lon":5.370681,"is_reserved":false,"is_disabled":false,"rental_uris":{"android":"levelo://app?vid=e49ba71f-6ade-49c2-821c-303eaec87bab","ios":"levelo://app?vid=e49ba71f-6ade-49c2-821c-303eaec87bab"},"vehicle_type_id":"4","last_reported":1684782300,"current_range_meters":17600,"station_id":"ce4bht12rcd13ifvqi60","pricing_plan_id":"free"},{"bike_id":"02d87b81-b7ca-49ec-be65-b850e8efb790","system_id":"levelo_inurba_marseille","lat":43.286039,"lon":5.370681,"is_reserved":false,"is_disabled":false,"rental_uris":{"android":"levelo://app?vid=02d87b81-b7ca-49ec-be65-b850e8efb790","ios":"levelo://app?vid=02d87b81-b7ca-49ec-be65-b850e8efb790"},"vehicle_type_id":"4","last_reported":1684782300,"current_range_meters":3600,"station_id":"ce4bht12rcd13ifvqi60","pricing_plan_id":"free"},{"bike_id":"2a16731c-6276-4e1b-81bb-718f52159079","system_id":"levelo_inurba_marseille","lat":43.316474,"lon":5.40433,"is_reserved":false,"is_disabled":false,"rental_uris":{"android":"levelo://app?vid=2a16731c-6276-4e1b-81bb-718f52159079","ios":"levelo://app?vid=2a16731c-6276-4e1b-81bb-718f52159079"},"vehicle_type_id":"4","last_reported":1684782300,"current_range_meters":15600,"station_id":"","pricing_plan_id":"free"},{"bike_id":"d7457943-c11d-4c93-8aec-0e6429232ca2","system_id":"levelo_inurba_marseille","lat":43.316517,"lon":5.404375,"is_reserved":false,"is_disabled":false,"rental_uris":{"android":"levelo://app?vid=d7457943-c11d-4c93-8aec-0e6429232ca2","ios":"levelo://app?vid=d7457943-c11d-4c93-8aec-0e6429232ca2"},"vehicle_type_id":"4","last_reported":1684782300,"current_range_meters":20000,"station_id":"ce4bh012rcd13ifvqd00","pricing_plan_id":"free"},{"bike_id":"11142dec-279c-4546-bdfb-c709a6e98e46","system_id":"levelo_inurba_marseille","lat":43.291994,"lon":5.392907,"is_reserved":false,"is_disabled":false,"rental_uris":{"android":"levelo://app?vid=11142dec-279c-4546-bdfb-c709a6e98e46","ios":"levelo://app?vid=11142dec-279c-4546-bdfb-c709a6e98e46"},"vehicle_type_id":"4","last_reported":1684782300,"current_range_meters":16800,"station_id":"ce4bh192rcd13ifvqdd0","pricing_plan_id":"free"},{"bike_id":"4f9e40c5-2a50-4784-8e78-81d31f0fb15f","system_id":"levelo_inurba_marseille","lat":43.285856,"lon":5.350771,"is_reserved":false,"is_disabled":false,"rental_uris":{"android":"levelo://app?vid=4f9e40c5-2a50-4784-8e78-81d31f0fb15f","ios":"levelo://app?vid=4f9e40c5-2a50-4784-8e78-81d31f0fb15f"},"vehicle_type_id":"4","last_reported":1684782300,"current_range_meters":14800,"station_id":"ce4bhch2rcd13ifvqeug","pricing_plan_id":"free"},{"bike_id":"ab14d55a-20f4-4655-b34e-203c9a6adf94","system_id":"levelo_inurba_marseille","lat":43.284534,"lon":5.358662,"is_reserved":false,"is_disabled":false,"rental_uris":{"android":"levelo://app?vid=ab14d55a-20f4-4655-b34e-203c9a6adf94","ios":"levelo://app?vid=ab14d55a-20f4-4655-b34e-203c9a6adf94"},"vehicle_type_id":"4","last_reported":1684782300,"current_range_meters":7200,"station_id":"ce4bhah2rcd13ifvqei0","pricing_plan_id":"free"},{"bike_id":"d599c619-acee-4b25-b6e7-9c4318a4fe85","system_id":"levelo_inurba_marseille","lat":43.284534,"lon":5.358662,"is_reserved":false,"is_disabled":false,"rental_uris":{"android":"levelo://app?vid=d599c619-acee-4b25-b6e7-9c4318a4fe85","ios":"levelo://app?vid=d599c619-acee-4b25-b6e7-9c4318a4fe85"},"vehicle_type_id":"4","last_reported":1684782300,"current_range_meters":4000,"station_id":"ce4bhah2rcd13ifvqei0","pricing_plan_id":"free"},{"bike_id":"6cab2732-9a80-4b1a-8b48-fe0d229fdb60","system_id":"levelo_inurba_marseille","lat":43.284534,"lon":5.358662,"is_reserved":false,"is_disabled":false,"rental_uris":{"android":"levelo://app?vid=6cab2732-9a80-4b1a-8b48-fe0d229fdb60","ios":"levelo://app?vid=6cab2732-9a80-4b1a-8b48-fe0d229fdb60"},"vehicle_type_id":"4","last_reported":1684782300,"current_range_meters":22800,"station_id":"ce4bhah2rcd13ifvqei0","pricing_plan_id":"free"},{"bike_id":"b738d369-ff10-4528-a54e-051c14b63248","system_id":"levelo_inurba_marseille","lat":43.284534,"lon":5.358662,"is_reserved":false,"is_disabled":false,"rental_uris":{"android":"levelo://app?vid=b738d369-ff10-4528-a54e-051c14b63248","ios":"levelo://app?vid=b738d369-ff10-4528-a54e-051c14b63248"},"vehicle_type_id":"4","last_reported":1684782300,"current_range_meters":14400,"station_id":"ce4bhah2rcd13ifvqei0","pricing_plan_id":"free"},{"bike_id":"47b3c0f3-3cc8-41de-9a3a-b9f96a1566ef","system_id":"levelo_inurba_marseille","lat":43.284534,"lon":5.358662,"is_reserved":false,"is_disabled":false,"rental_uris":{"android":"levelo://app?vid=47b3c0f3-3cc8-41de-9a3a-b9f96a1566ef","ios":"levelo://app?vid=47b3c0f3-3cc8-41de-9a3a-b9f96a1566ef"},"vehicle_type_id":"4","last_reported":1684782300,"current_range_meters":0,"station_id":"ce4bhah2rcd13ifvqei0","pricing_plan_id":"free"},{"bike_id":"4a5b6745-4997-4380-b128-b9661334f6e7","system_id":"levelo_inurba_marseille","lat":43.284534,"lon":5.358662,"is_reserved":false,"is_disabled":false,"rental_uris":{"android":"levelo://app?vid=4a5b6745-4997-4380-b128-b9661334f6e7","ios":"levelo://app?vid=4a5b6745-4997-4380-b128-b9661334f6e7"},"vehicle_type_id":"4","last_reported":1684782300,"current_range_meters":15600,"station_id":"ce4bhah2rcd13ifvqei0","pricing_plan_id":"free"},{"bike_id":"81fcf9fe-96b9-46c8-88fe-4d15d739008a","system_id":"levelo_inurba_marseille","lat":43.284534,"lon":5.358662,"is_reserved":false,"is_disabled":false,"rental_uris":{"android":"levelo://app?vid=81fcf9fe-96b9-46c8-88fe-4d15d739008a","ios":"levelo://app?vid=81fcf9fe-96b9-46c8-88fe-4d15d739008a"},"vehicle_type_id":"4","last_reported":1684782300,"current_range_meters":18400,"station_id":"ce4bhah2rcd13ifvqei0","pricing_plan_id":"free"},{"bike_id":"93e26f18-44ef-4fe7-ba7d-6f2a450a9f5f","system_id":"levelo_inurba_marseille","lat":43.285856,"lon":5.350771,"is_reserved":false,"is_disabled":false,"rental_uris":{"android":"levelo://app?vid=93e26f18-44ef-4fe7-ba7d-6f2a450a9f5f","ios":"levelo://app?vid=93e26f18-44ef-4fe7-ba7d-6f2a450a9f5f"},"vehicle_type_id":"4","last_reported":1684782300,"current_range_meters":5600,"station_id":"ce4bhch2rcd13ifvqeug","pricing_plan_id":"free"},{"bike_id":"b9f507aa-3a00-46c9-8798-60ef474ada98","system_id":"levelo_inurba_marseille","lat":43.28619,"lon":5.35107,"is_reserved":false,"is_disabled":false,"rental_uris":{"android":"levelo://app?vid=b9f507aa-3a00-46c9-8798-60ef474ada98","ios":"levelo://app?vid=b9f507aa-3a00-46c9-8798-60ef474ada98"},"vehicle_type_id":"4","last_reported":1684782300,"current_range_meters":13200,"station_id":"","pricing_plan_id":"free"},{"bike_id":"c1a37e28-d26d-4513-b29e-1f11a6843d1b","system_id":"levelo_inurba_marseille","lat":43.2862,"lon":5.35101,"is_reserved":false,"is_disabled":false,"rental_uris":{"android":"levelo://app?vid=c1a37e28-d26d-4513-b29e-1f11a6843d1b","ios":"levelo://app?vid=c1a37e28-d26d-4513-b29e-1f11a6843d1b"},"vehicle_type_id":"4","last_reported":1684782300,"current_range_meters":6400,"station_id":"","pricing_plan_id":"free"},{"bike_id":"d804370b-8c42-4d5f-bfa2-7adef9efac9d","system_id":"levelo_inurba_marseille","lat":43.28617,"lon":5.35107,"is_reserved":false,"is_disabled":false,"rental_uris":{"android":"levelo://app?vid=d804370b-8c42-4d5f-bfa2-7adef9efac9d","ios":"levelo://app?vid=d804370b-8c42-4d5f-bfa2-7adef9efac9d"},"vehicle_type_id":"4","last_reported":1684782300,"current_range_meters":18800,"station_id":"","pricing_plan_id":"free"},{"bike_id":"85f9a319-0696-4afb-98e9-2aa9246fdf8a","system_id":"levelo_inurba_marseille","lat":43.28617,"lon":5.35103,"is_reserved":false,"is_disabled":false,"rental_uris":{"android":"levelo://app?vid=85f9a319-0696-4afb-98e9-2aa9246fdf8a","ios":"levelo://app?vid=85f9a319-0696-4afb-98e9-2aa9246fdf8a"},"vehicle_type_id":"4","last_reported":1684782300,"current_range_meters":20800,"station_id":"","pricing_plan_id":"free"},{"bike_id":"12e8ceba-946d-4d77-bba2-6b864a55c9ac","system_id":"levelo_inurba_marseille","lat":43.285856,"lon":5.350771,"is_reserved":false,"is_disabled":false,"rental_uris":{"android":"levelo://app?vid=12e8ceba-946d-4d77-bba2-6b864a55c9ac","ios":"levelo://app?vid=12e8ceba-946d-4d77-bba2-6b864a55c9ac"},"vehicle_type_id":"4","last_reported":1684782300,"current_range_meters":1200,"station_id":"ce4bhch2rcd13ifvqeug","pricing_plan_id":"free"},{"bike_id":"c1851d17-3701-40d4-bb17-bd2299bd9dc6","system_id":"levelo_inurba_marseille","lat":43.28616,"lon":5.35102,"is_reserved":false,"is_disabled":false,"rental_uris":{"android":"levelo://app?vid=c1851d17-3701-40d4-bb17-bd2299bd9dc6","ios":"levelo://app?vid=c1851d17-3701-40d4-bb17-bd2299bd9dc6"},"vehicle_type_id":"4","last_reported":1684782300,"current_range_meters":3600,"station_id":"","pricing_plan_id":"free"},{"bike_id":"ccb02969-39e8-4a4e-ba21-bd08a1bfcc27","system_id":"levelo_inurba_marseille","lat":43.285856,"lon":5.350771,"is_reserved":false,"is_disabled":false,"rental_uris":{"android":"levelo://app?vid=ccb02969-39e8-4a4e-ba21-bd08a1bfcc27","ios":"levelo://app?vid=ccb02969-39e8-4a4e-ba21-bd08a1bfcc27"},"vehicle_type_id":"4","last_reported":1684782300,"current_range_meters":2800,"station_id":"ce4bhch2rcd13ifvqeug","pricing_plan_id":"free"},{"bike_id":"322662f1-f216-4c38-a922-886e1bdd11bd","system_id":"levelo_inurba_marseille","lat":43.28615,"lon":5.35102,"is_reserved":false,"is_disabled":false,"rental_uris":{"android":"levelo://app?vid=322662f1-f216-4c38-a922-886e1bdd11bd","ios":"levelo://app?vid=322662f1-f216-4c38-a922-886e1bdd11bd"},"vehicle_type_id":"4","last_reported":1684782300,"current_range_meters":22000,"station_id":"","pricing_plan_id":"free"},{"bike_id":"63075969-a095-49b5-a27f-ba56d3a18280","system_id":"levelo_inurba_marseille","lat":43.28613,"lon":5.35103,"is_reserved":false,"is_disabled":false,"rental_uris":{"android":"levelo://app?vid=63075969-a095-49b5-a27f-ba56d3a18280","ios":"levelo://app?vid=63075969-a095-49b5-a27f-ba56d3a18280"},"vehicle_type_id":"4","last_reported":1684782300,"current_range_meters":9200,"station_id":"","pricing_plan_id":"free"},{"bike_id":"fa2fba47-b596-4cdb-bc1f-f0e5e9629888","system_id":"levelo_inurba_marseille","lat":43.29917,"lon":5.40386,"is_reserved":false,"is_disabled":false,"rental_uris":{"android":"levelo://app?vid=fa2fba47-b596-4cdb-bc1f-f0e5e9629888","ios":"levelo://app?vid=fa2fba47-b596-4cdb-bc1f-f0e5e9629888"},"vehicle_type_id":"4","last_reported":1684782300,"current_range_meters":2800,"station_id":"","pricing_plan_id":"free"},{"bike_id":"c0eda90a-2ac1-4bbb-9ad3-f3d47e25324c","system_id":"levelo_inurba_marseille","lat":43.3372,"lon":5.39187,"is_reserved":false,"is_disabled":false,"rental_uris":{"android":"levelo://app?vid=c0eda90a-2ac1-4bbb-9ad3-f3d47e25324c","ios":"levelo://app?vid=c0eda90a-2ac1-4bbb-9ad3-f3d47e25324c"},"vehicle_type_id":"4","last_reported":1684782300,"current_range_meters":28000,"station_id":"","pricing_plan_id":"free"},{"bike_id":"9c3a0629-b710-4105-a14c-b04a997ad1cd","system_id":"levelo_inurba_marseille","lat":43.3373,"lon":5.39182,"is_reserved":false,"is_disabled":false,"rental_uris":{"android":"levelo://app?vid=9c3a0629-b710-4105-a14c-b04a997ad1cd","ios":"levelo://app?vid=9c3a0629-b710-4105-a14c-b04a997ad1cd"},"vehicle_type_id":"4","last_reported":1684782300,"current_range_meters":25200,"station_id":"","pricing_plan_id":"free"},{"bike_id":"726c16ff-8208-4c7b-8ef5-d45410114479","system_id":"levelo_inurba_marseille","lat":43.33728,"lon":5.3919,"is_reserved":false,"is_disabled":false,"rental_uris":{"android":"levelo://app?vid=726c16ff-8208-4c7b-8ef5-d45410114479","ios":"levelo://app?vid=726c16ff-8208-4c7b-8ef5-d45410114479"},"vehicle_type_id":"4","last_reported":1684782300,"current_range_meters":18400,"station_id":"","pricing_plan_id":"free"},{"bike_id":"c6f4cadb-237a-42d8-a144-6cf71eb6c44a","system_id":"levelo_inurba_marseille","lat":43.33727,"lon":5.39193,"is_reserved":false,"is_disabled":false,"rental_uris":{"android":"levelo://app?vid=c6f4cadb-237a-42d8-a144-6cf71eb6c44a","ios":"levelo://app?vid=c6f4cadb-237a-42d8-a144-6cf71eb6c44a"},"vehicle_type_id":"4","last_reported":1684782300,"current_range_meters":12000,"station_id":"","pricing_plan_id":"free"},{"bike_id":"98db2edc-79fe-4a98-b090-0072e2c75c23","system_id":"levelo_inurba_marseille","lat":43.284787,"lon":5.384116,"is_reserved":false,"is_disabled":false,"rental_uris":{"android":"levelo://app?vid=98db2edc-79fe-4a98-b090-0072e2c75c23","ios":"levelo://app?vid=98db2edc-79fe-4a98-b090-0072e2c75c23"},"vehicle_type_id":"4","last_reported":1684782300,"current_range_meters":22000,"station_id":"ce4bh512rcd13ifvqe3g","pricing_plan_id":"free"},{"bike_id":"399cdc80-a263-4d8a-9912-e43b53655861","system_id":"levelo_inurba_marseille","lat":43.288501,"lon":5.393087,"is_reserved":false,"is_disabled":false,"rental_uris":{"android":"levelo://app?vid=399cdc80-a263-4d8a-9912-e43b53655861","ios":"levelo://app?vid=399cdc80-a263-4d8a-9912-e43b53655861"},"vehicle_type_id":"4","last_reported":1684782300,"current_range_meters":10000,"station_id":"ce4bh2p2rcd13ifvqdi0","pricing_plan_id":"free"},{"bike_id":"b5fac09d-86bd-4790-9786-7e370644e60e","system_id":"levelo_inurba_marseille","lat":43.288501,"lon":5.393087,"is_reserved":false,"is_disabled":false,"rental_uris":{"android":"levelo://app?vid=b5fac09d-86bd-4790-9786-7e370644e60e","ios":"levelo://app?vid=b5fac09d-86bd-4790-9786-7e370644e60e"},"vehicle_type_id":"4","last_reported":1684782300,"current_range_meters":20000,"station_id":"ce4bh2p2rcd13ifvqdi0","pricing_plan_id":"free"},{"bike_id":"de63b620-7071-4b14-9039-8edf4ca690ea","system_id":"levelo_inurba_marseille","lat":43.2843,"lon":5.35004,"is_reserved":false,"is_disabled":false,"rental_uris":{"android":"levelo://app?vid=de63b620-7071-4b14-9039-8edf4ca690ea","ios":"levelo://app?vid=de63b620-7071-4b14-9039-8edf4ca690ea"},"vehicle_type_id":"4","last_reported":1684782300,"current_range_meters":9600,"station_id":"","pricing_plan_id":"free"},{"bike_id":"ce211844-8fe0-4cd7-bdfe-719d18842c27","system_id":"levelo_inurba_marseille","lat":43.28422,"lon":5.3499,"is_reserved":false,"is_disabled":false,"rental_uris":{"android":"levelo://app?vid=ce211844-8fe0-4cd7-bdfe-719d18842c27","ios":"levelo://app?vid=ce211844-8fe0-4cd7-bdfe-719d18842c27"},"vehicle_type_id":"4","last_reported":1684782300,"current_range_meters":25200,"station_id":"ce4bhbh2rcd13ifvqepg","pricing_plan_id":"free"},{"bike_id":"e6f03af0-5a63-49d5-b866-b202eca1f7ea","system_id":"levelo_inurba_marseille","lat":43.28423,"lon":5.34984,"is_reserved":false,"is_disabled":false,"rental_uris":{"android":"levelo://app?vid=e6f03af0-5a63-49d5-b866-b202eca1f7ea","ios":"levelo://app?vid=e6f03af0-5a63-49d5-b866-b202eca1f7ea"},"vehicle_type_id":"4","last_reported":1684782300,"current_range_meters":4400,"station_id":"ce4bhbh2rcd13ifvqepg","pricing_plan_id":"free"},{"bike_id":"4c22fd37-c074-4cde-bf8b-d07aa7f27ed5","system_id":"levelo_inurba_marseille","lat":43.284217,"lon":5.349697,"is_reserved":false,"is_disabled":false,"rental_uris":{"android":"levelo://app?vid=4c22fd37-c074-4cde-bf8b-d07aa7f27ed5","ios":"levelo://app?vid=4c22fd37-c074-4cde-bf8b-d07aa7f27ed5"},"vehicle_type_id":"4","last_reported":1684782300,"current_range_meters":0,"station_id":"ce4bhbh2rcd13ifvqepg","pricing_plan_id":"free"},{"bike_id":"424f167d-fd56-411b-8376-c4f2f15435e6","system_id":"levelo_inurba_marseille","lat":43.282744,"lon":5.350533,"is_reserved":false,"is_disabled":false,"rental_uris":{"android":"levelo://app?vid=424f167d-fd56-411b-8376-c4f2f15435e6","ios":"levelo://app?vid=424f167d-fd56-411b-8376-c4f2f15435e6"},"vehicle_type_id":"4","last_reported":1684782300,"current_range_meters":8000,"station_id":"ce4bhbp2rcd13ifvqerg","pricing_plan_id":"free"},{"bike_id":"c4273051-9388-400c-b2fa-9f37819feff6","system_id":"levelo_inurba_marseille","lat":43.280382,"lon":5.369291,"is_reserved":false,"is_disabled":false,"rental_uris":{"android":"levelo://app?vid=c4273051-9388-400c-b2fa-9f37819feff6","ios":"levelo://app?vid=c4273051-9388-400c-b2fa-9f37819feff6"},"vehicle_type_id":"4","last_reported":1684782300,"current_range_meters":19600,"station_id":"ce4bha12rcd13ifvqef0","pricing_plan_id":"free"},{"bike_id":"379eef04-96a4-48cd-98d2-5e3f001229ae","system_id":"levelo_inurba_marseille","lat":43.28264,"lon":5.35073,"is_reserved":false,"is_disabled":false,"rental_uris":{"android":"levelo://app?vid=379eef04-96a4-48cd-98d2-5e3f001229ae","ios":"levelo://app?vid=379eef04-96a4-48cd-98d2-5e3f001229ae"},"vehicle_type_id":"4","last_reported":1684782300,"current_range_meters":5200,"station_id":"ce4bhbp2rcd13ifvqerg","pricing_plan_id":"free"},{"bike_id":"8ad90844-f269-4217-aa86-5e05add9d11b","system_id":"levelo_inurba_marseille","lat":43.282754,"lon":5.350519,"is_reserved":false,"is_disabled":false,"rental_uris":{"android":"levelo://app?vid=8ad90844-f269-4217-aa86-5e05add9d11b","ios":"levelo://app?vid=8ad90844-f269-4217-aa86-5e05add9d11b"},"vehicle_type_id":"4","last_reported":1684782300,"current_range_meters":0,"station_id":"ce4bhbp2rcd13ifvqerg","pricing_plan_id":"free"},{"bike_id":"f1d4252f-aad3-41b1-838e-3f54d9fbac22","system_id":"levelo_inurba_marseille","lat":43.28039,"lon":5.369297,"is_reserved":false,"is_disabled":false,"rental_uris":{"android":"levelo://app?vid=f1d4252f-aad3-41b1-838e-3f54d9fbac22","ios":"levelo://app?vid=f1d4252f-aad3-41b1-838e-3f54d9fbac22"},"vehicle_type_id":"4","last_reported":1684782300,"current_range_meters":32000,"station_id":"ce4bha12rcd13ifvqef0","pricing_plan_id":"free"},{"bike_id":"d90b7487-e1dd-4f71-b34a-33105a1e56d7","system_id":"levelo_inurba_marseille","lat":43.280382,"lon":5.369291,"is_reserved":false,"is_disabled":false,"rental_uris":{"android":"levelo://app?vid=d90b7487-e1dd-4f71-b34a-33105a1e56d7","ios":"levelo://app?vid=d90b7487-e1dd-4f71-b34a-33105a1e56d7"},"vehicle_type_id":"4","last_reported":1684782300,"current_range_meters":31200,"station_id":"ce4bha12rcd13ifvqef0","pricing_plan_id":"free"},{"bike_id":"ee262ca0-f5b7-45ea-b8c9-6f48b6f3e5e0","system_id":"levelo_inurba_marseille","lat":43.28039,"lon":5.369297,"is_reserved":false,"is_disabled":false,"rental_uris":{"android":"levelo://app?vid=ee262ca0-f5b7-45ea-b8c9-6f48b6f3e5e0","ios":"levelo://app?vid=ee262ca0-f5b7-45ea-b8c9-6f48b6f3e5e0"},"vehicle_type_id":"4","last_reported":1684782300,"current_range_meters":28400,"station_id":"ce4bha12rcd13ifvqef0","pricing_plan_id":"free"},{"bike_id":"c8def588-7f74-4590-b00e-710915c13f11","system_id":"levelo_inurba_marseille","lat":43.28039,"lon":5.369297,"is_reserved":false,"is_disabled":false,"rental_uris":{"android":"levelo://app?vid=c8def588-7f74-4590-b00e-710915c13f11","ios":"levelo://app?vid=c8def588-7f74-4590-b00e-710915c13f11"},"vehicle_type_id":"4","last_reported":1684782300,"current_range_meters":30800,"station_id":"ce4bha12rcd13ifvqef0","pricing_plan_id":"free"},{"bike_id":"3ee2694e-3bb6-4785-9495-03c09b99ee26","system_id":"levelo_inurba_marseille","lat":43.280382,"lon":5.369291,"is_reserved":false,"is_disabled":false,"rental_uris":{"android":"levelo://app?vid=3ee2694e-3bb6-4785-9495-03c09b99ee26","ios":"levelo://app?vid=3ee2694e-3bb6-4785-9495-03c09b99ee26"},"vehicle_type_id":"4","last_reported":1684782300,"current_range_meters":23200,"station_id":"ce4bha12rcd13ifvqef0","pricing_plan_id":"free"},{"bike_id":"15b0b22c-d5c0-455b-a827-70ed6e4e4eb2","system_id":"levelo_inurba_marseille","lat":43.28039,"lon":5.369297,"is_reserved":false,"is_disabled":false,"rental_uris":{"android":"levelo://app?vid=15b0b22c-d5c0-455b-a827-70ed6e4e4eb2","ios":"levelo://app?vid=15b0b22c-d5c0-455b-a827-70ed6e4e4eb2"},"vehicle_type_id":"4","last_reported":1684782300,"current_range_meters":32000,"station_id":"ce4bha12rcd13ifvqef0","pricing_plan_id":"free"},{"bike_id":"fbe683e0-8809-404a-a0f5-f615b3d3c0dd","system_id":"levelo_inurba_marseille","lat":43.28039,"lon":5.369297,"is_reserved":false,"is_disabled":false,"rental_uris":{"android":"levelo://app?vid=fbe683e0-8809-404a-a0f5-f615b3d3c0dd","ios":"levelo://app?vid=fbe683e0-8809-404a-a0f5-f615b3d3c0dd"},"vehicle_type_id":"4","last_reported":1684782300,"current_range_meters":24400,"station_id":"ce4bha12rcd13ifvqef0","pricing_plan_id":"free"},{"bike_id":"967d3de2-d171-4a1e-bc5c-081f284f9fec","system_id":"levelo_inurba_marseille","lat":43.28039,"lon":5.369297,"is_reserved":false,"is_disabled":false,"rental_uris":{"android":"levelo://app?vid=967d3de2-d171-4a1e-bc5c-081f284f9fec","ios":"levelo://app?vid=967d3de2-d171-4a1e-bc5c-081f284f9fec"},"vehicle_type_id":"4","last_reported":1684782300,"current_range_meters":30800,"station_id":"ce4bha12rcd13ifvqef0","pricing_plan_id":"free"},{"bike_id":"610008a1-45b8-4746-973f-84fc339e9e5d","system_id":"levelo_inurba_marseille","lat":43.28039,"lon":5.369297,"is_reserved":false,"is_disabled":false,"rental_uris":{"android":"levelo://app?vid=610008a1-45b8-4746-973f-84fc339e9e5d","ios":"levelo://app?vid=610008a1-45b8-4746-973f-84fc339e9e5d"},"vehicle_type_id":"4","last_reported":1684782300,"current_range_meters":31200,"station_id":"ce4bha12rcd13ifvqef0","pricing_plan_id":"free"},{"bike_id":"328d9ae0-0484-4d48-8474-f7d96ae28df1","system_id":"levelo_inurba_marseille","lat":43.29041,"lon":5.39947,"is_reserved":false,"is_disabled":false,"rental_uris":{"android":"levelo://app?vid=328d9ae0-0484-4d48-8474-f7d96ae28df1","ios":"levelo://app?vid=328d9ae0-0484-4d48-8474-f7d96ae28df1"},"vehicle_type_id":"4","last_reported":1684782300,"current_range_meters":14400,"station_id":"ce4bh392rcd13ifvqdm0","pricing_plan_id":"free"},{"bike_id":"e2a1acc3-1405-429e-af30-a609243e4fa9","system_id":"levelo_inurba_marseille","lat":43.29041,"lon":5.399634,"is_reserved":false,"is_disabled":false,"rental_uris":{"android":"levelo://app?vid=e2a1acc3-1405-429e-af30-a609243e4fa9","ios":"levelo://app?vid=e2a1acc3-1405-429e-af30-a609243e4fa9"},"vehicle_type_id":"4","last_reported":1684782300,"current_range_meters":6000,"station_id":"ce4bh392rcd13ifvqdm0","pricing_plan_id":"free"},{"bike_id":"b269c526-c648-4b90-90f6-7f411a0e219e","system_id":"levelo_inurba_marseille","lat":43.296263,"lon":5.40601,"is_reserved":false,"is_disabled":false,"rental_uris":{"android":"levelo://app?vid=b269c526-c648-4b90-90f6-7f411a0e219e","ios":"levelo://app?vid=b269c526-c648-4b90-90f6-7f411a0e219e"},"vehicle_type_id":"4","last_reported":1684782300,"current_range_meters":12800,"station_id":"ce4bh0h2rcd13ifvqd60","pricing_plan_id":"free"},{"bike_id":"8ad4c9c2-899b-4dcc-b47b-07575f66ba88","system_id":"levelo_inurba_marseille","lat":43.296263,"lon":5.40601,"is_reserved":false,"is_disabled":false,"rental_uris":{"android":"levelo://app?vid=8ad4c9c2-899b-4dcc-b47b-07575f66ba88","ios":"levelo://app?vid=8ad4c9c2-899b-4dcc-b47b-07575f66ba88"},"vehicle_type_id":"4","last_reported":1684782300,"current_range_meters":24000,"station_id":"ce4bh0h2rcd13ifvqd60","pricing_plan_id":"free"},{"bike_id":"30ab5af3-db16-4c30-a5bd-263341ebe3ad","system_id":"levelo_inurba_marseille","lat":43.296263,"lon":5.40601,"is_reserved":false,"is_disabled":false,"rental_uris":{"android":"levelo://app?vid=30ab5af3-db16-4c30-a5bd-263341ebe3ad","ios":"levelo://app?vid=30ab5af3-db16-4c30-a5bd-263341ebe3ad"},"vehicle_type_id":"4","last_reported":1684782300,"current_range_meters":25600,"station_id":"ce4bh0h2rcd13ifvqd60","pricing_plan_id":"free"},{"bike_id":"fe3d859a-efc7-4d95-a6c3-e651cf0f5637","system_id":"levelo_inurba_marseille","lat":43.296263,"lon":5.40601,"is_reserved":false,"is_disabled":false,"rental_uris":{"android":"levelo://app?vid=fe3d859a-efc7-4d95-a6c3-e651cf0f5637","ios":"levelo://app?vid=fe3d859a-efc7-4d95-a6c3-e651cf0f5637"},"vehicle_type_id":"4","last_reported":1684782300,"current_range_meters":20800,"station_id":"ce4bh0h2rcd13ifvqd60","pricing_plan_id":"free"},{"bike_id":"d5573423-6c48-4ff5-88a8-5e6f5619a680","system_id":"levelo_inurba_marseille","lat":43.28441,"lon":5.39193,"is_reserved":false,"is_disabled":false,"rental_uris":{"android":"levelo://app?vid=d5573423-6c48-4ff5-88a8-5e6f5619a680","ios":"levelo://app?vid=d5573423-6c48-4ff5-88a8-5e6f5619a680"},"vehicle_type_id":"4","last_reported":1684782300,"current_range_meters":13200,"station_id":"ce4bhoh2rcd13ifvqh5g","pricing_plan_id":"free"},{"bike_id":"4c1d474e-1adf-4464-a04e-e99d056378fb","system_id":"levelo_inurba_marseille","lat":43.284462,"lon":5.392121,"is_reserved":false,"is_disabled":false,"rental_uris":{"android":"levelo://app?vid=4c1d474e-1adf-4464-a04e-e99d056378fb","ios":"levelo://app?vid=4c1d474e-1adf-4464-a04e-e99d056378fb"},"vehicle_type_id":"4","last_reported":1684782300,"current_range_meters":6000,"station_id":"ce4bhoh2rcd13ifvqh5g","pricing_plan_id":"free"},{"bike_id":"77216043-7372-40ef-a546-1a53016767d9","system_id":"levelo_inurba_marseille","lat":43.284462,"lon":5.392121,"is_reserved":false,"is_disabled":false,"rental_uris":{"android":"levelo://app?vid=77216043-7372-40ef-a546-1a53016767d9","ios":"levelo://app?vid=77216043-7372-40ef-a546-1a53016767d9"},"vehicle_type_id":"4","last_reported":1684782300,"current_range_meters":15200,"station_id":"ce4bhoh2rcd13ifvqh5g","pricing_plan_id":"free"},{"bike_id":"ee250ef8-8641-4314-828a-24b21cb9c68e","system_id":"levelo_inurba_marseille","lat":43.28573,"lon":5.394992,"is_reserved":false,"is_disabled":false,"rental_uris":{"android":"levelo://app?vid=ee250ef8-8641-4314-828a-24b21cb9c68e","ios":"levelo://app?vid=ee250ef8-8641-4314-828a-24b21cb9c68e"},"vehicle_type_id":"4","last_reported":1684782300,"current_range_meters":800,"station_id":"ce4bh292rcd13ifvqdg0","pricing_plan_id":"free"},{"bike_id":"0a3590ad-f84f-418f-a629-f5693b133ae5","system_id":"levelo_inurba_marseille","lat":43.28573,"lon":5.394992,"is_reserved":false,"is_disabled":false,"rental_uris":{"android":"levelo://app?vid=0a3590ad-f84f-418f-a629-f5693b133ae5","ios":"levelo://app?vid=0a3590ad-f84f-418f-a629-f5693b133ae5"},"vehicle_type_id":"4","last_reported":1684782300,"current_range_meters":23200,"station_id":"ce4bh292rcd13ifvqdg0","pricing_plan_id":"free"},{"bike_id":"e0b54471-9628-4b7d-a512-a8f75816cad0","system_id":"levelo_inurba_marseille","lat":43.304188,"lon":5.412904,"is_reserved":false,"is_disabled":false,"rental_uris":{"android":"levelo://app?vid=e0b54471-9628-4b7d-a512-a8f75816cad0","ios":"levelo://app?vid=e0b54471-9628-4b7d-a512-a8f75816cad0"},"vehicle_type_id":"4","last_reported":1684782300,"current_range_meters":4400,"station_id":"ce4bhop2rcd13ifvqh8g","pricing_plan_id":"free"},{"bike_id":"7ec2d7bd-8de0-4d8d-9077-7ce7b34f4198","system_id":"levelo_inurba_marseille","lat":43.304188,"lon":5.412904,"is_reserved":false,"is_disabled":false,"rental_uris":{"android":"levelo://app?vid=7ec2d7bd-8de0-4d8d-9077-7ce7b34f4198","ios":"levelo://app?vid=7ec2d7bd-8de0-4d8d-9077-7ce7b34f4198"},"vehicle_type_id":"4","last_reported":1684782300,"current_range_meters":30400,"station_id":"ce4bhop2rcd13ifvqh8g","pricing_plan_id":"free"},{"bike_id":"66f77557-8a2a-44d4-a6b9-5aee5c135fd8","system_id":"levelo_inurba_marseille","lat":43.34721,"lon":5.36852,"is_reserved":false,"is_disabled":false,"rental_uris":{"android":"levelo://app?vid=66f77557-8a2a-44d4-a6b9-5aee5c135fd8","ios":"levelo://app?vid=66f77557-8a2a-44d4-a6b9-5aee5c135fd8"},"vehicle_type_id":"4","last_reported":1684782300,"current_range_meters":10800,"station_id":"","pricing_plan_id":"free"},{"bike_id":"be251e27-5607-4fa6-aff9-662d73915534","system_id":"levelo_inurba_marseille","lat":43.27882,"lon":5.35445,"is_reserved":false,"is_disabled":false,"rental_uris":{"android":"levelo://app?vid=be251e27-5607-4fa6-aff9-662d73915534","ios":"levelo://app?vid=be251e27-5607-4fa6-aff9-662d73915534"},"vehicle_type_id":"4","last_reported":1684782300,"current_range_meters":22000,"station_id":"","pricing_plan_id":"free"},{"bike_id":"bc61b6ad-c5fd-4c3e-b60b-6a82fcb55c51","system_id":"levelo_inurba_marseille","lat":43.287154,"lon":5.399979,"is_reserved":false,"is_disabled":false,"rental_uris":{"android":"levelo://app?vid=bc61b6ad-c5fd-4c3e-b60b-6a82fcb55c51","ios":"levelo://app?vid=bc61b6ad-c5fd-4c3e-b60b-6a82fcb55c51"},"vehicle_type_id":"4","last_reported":1684782300,"current_range_meters":7200,"station_id":"ce4bho92rcd13ifvqh3g","pricing_plan_id":"free"},{"bike_id":"241e2503-ab55-4a21-b05d-7e8eb2d0e057","system_id":"levelo_inurba_marseille","lat":43.29961,"lon":5.41319,"is_reserved":false,"is_disabled":false,"rental_uris":{"android":"levelo://app?vid=241e2503-ab55-4a21-b05d-7e8eb2d0e057","ios":"levelo://app?vid=241e2503-ab55-4a21-b05d-7e8eb2d0e057"},"vehicle_type_id":"4","last_reported":1684782300,"current_range_meters":17200,"station_id":"ce4bhp12rcd13ifvqh9g","pricing_plan_id":"free"},{"bike_id":"1abee84d-9579-4db9-89ab-a6ae80499f9d","system_id":"levelo_inurba_marseille","lat":43.299579,"lon":5.413255,"is_reserved":false,"is_disabled":false,"rental_uris":{"android":"levelo://app?vid=1abee84d-9579-4db9-89ab-a6ae80499f9d","ios":"levelo://app?vid=1abee84d-9579-4db9-89ab-a6ae80499f9d"},"vehicle_type_id":"4","last_reported":1684782300,"current_range_meters":30400,"station_id":"ce4bhp12rcd13ifvqh9g","pricing_plan_id":"free"},{"bike_id":"2c98ed7d-bd88-4f4a-9f4d-485b7fe00101","system_id":"levelo_inurba_marseille","lat":43.320425,"lon":5.415466,"is_reserved":false,"is_disabled":false,"rental_uris":{"android":"levelo://app?vid=2c98ed7d-bd88-4f4a-9f4d-485b7fe00101","ios":"levelo://app?vid=2c98ed7d-bd88-4f4a-9f4d-485b7fe00101"},"vehicle_type_id":"4","last_reported":1684782300,"current_range_meters":18400,"station_id":"","pricing_plan_id":"free"},{"bike_id":"8034a7a2-f202-4d39-8c24-a953c8a6eecb","system_id":"levelo_inurba_marseille","lat":43.292693,"lon":5.408876,"is_reserved":false,"is_disabled":false,"rental_uris":{"android":"levelo://app?vid=8034a7a2-f202-4d39-8c24-a953c8a6eecb","ios":"levelo://app?vid=8034a7a2-f202-4d39-8c24-a953c8a6eecb"},"vehicle_type_id":"4","last_reported":1684782300,"current_range_meters":800,"station_id":"","pricing_plan_id":"free"},{"bike_id":"6df64d50-efba-4c20-b91b-63c850d96661","system_id":"levelo_inurba_marseille","lat":43.292571,"lon":5.409107,"is_reserved":false,"is_disabled":false,"rental_uris":{"android":"levelo://app?vid=6df64d50-efba-4c20-b91b-63c850d96661","ios":"levelo://app?vid=6df64d50-efba-4c20-b91b-63c850d96661"},"vehicle_type_id":"4","last_reported":1684782300,"current_range_meters":25200,"station_id":"ce4bh192rcd13ifvqdc0","pricing_plan_id":"free"},{"bike_id":"33c371c8-6e6e-411c-bd77-f02a115be9b9","system_id":"levelo_inurba_marseille","lat":43.292569,"lon":5.409107,"is_reserved":false,"is_disabled":false,"rental_uris":{"android":"levelo://app?vid=33c371c8-6e6e-411c-bd77-f02a115be9b9","ios":"levelo://app?vid=33c371c8-6e6e-411c-bd77-f02a115be9b9"},"vehicle_type_id":"4","last_reported":1684782300,"current_range_meters":6000,"station_id":"ce4bh192rcd13ifvqdc0","pricing_plan_id":"free"},{"bike_id":"86cfde50-6926-44c0-9550-01587372a105","system_id":"levelo_inurba_marseille","lat":43.292569,"lon":5.409107,"is_reserved":false,"is_disabled":false,"rental_uris":{"android":"levelo://app?vid=86cfde50-6926-44c0-9550-01587372a105","ios":"levelo://app?vid=86cfde50-6926-44c0-9550-01587372a105"},"vehicle_type_id":"4","last_reported":1684782300,"current_range_meters":15600,"station_id":"ce4bh192rcd13ifvqdc0","pricing_plan_id":"free"},{"bike_id":"f2d28f95-8f47-48b2-bd68-791064c3f0e7","system_id":"levelo_inurba_marseille","lat":43.292569,"lon":5.409107,"is_reserved":false,"is_disabled":false,"rental_uris":{"android":"levelo://app?vid=f2d28f95-8f47-48b2-bd68-791064c3f0e7","ios":"levelo://app?vid=f2d28f95-8f47-48b2-bd68-791064c3f0e7"},"vehicle_type_id":"4","last_reported":1684782300,"current_range_meters":26800,"station_id":"ce4bh192rcd13ifvqdc0","pricing_plan_id":"free"},{"bike_id":"4065fdeb-d0ec-4efc-aef7-9e2705e156eb","system_id":"levelo_inurba_marseille","lat":43.292571,"lon":5.409107,"is_reserved":false,"is_disabled":false,"rental_uris":{"android":"levelo://app?vid=4065fdeb-d0ec-4efc-aef7-9e2705e156eb","ios":"levelo://app?vid=4065fdeb-d0ec-4efc-aef7-9e2705e156eb"},"vehicle_type_id":"4","last_reported":1684782300,"current_range_meters":4800,"station_id":"ce4bh192rcd13ifvqdc0","pricing_plan_id":"free"},{"bike_id":"6d087f93-08c0-4262-ace3-78079f51871b","system_id":"levelo_inurba_marseille","lat":43.33366,"lon":5.41066,"is_reserved":false,"is_disabled":false,"rental_uris":{"android":"levelo://app?vid=6d087f93-08c0-4262-ace3-78079f51871b","ios":"levelo://app?vid=6d087f93-08c0-4262-ace3-78079f51871b"},"vehicle_type_id":"4","last_reported":1684782300,"current_range_meters":0,"station_id":"","pricing_plan_id":"free"},{"bike_id":"04204f1f-312a-431c-9e5b-a9c504f39f55","system_id":"levelo_inurba_marseille","lat":43.280784,"lon":5.396622,"is_reserved":false,"is_disabled":false,"rental_uris":{"android":"levelo://app?vid=04204f1f-312a-431c-9e5b-a9c504f39f55","ios":"levelo://app?vid=04204f1f-312a-431c-9e5b-a9c504f39f55"},"vehicle_type_id":"4","last_reported":1684782300,"current_range_meters":11200,"station_id":"ce4bho12rcd13ifvqh2g","pricing_plan_id":"free"},{"bike_id":"2e89ebed-0d44-416d-9078-29490c3c4d23","system_id":"levelo_inurba_marseille","lat":43.278401,"lon":5.392152,"is_reserved":false,"is_disabled":false,"rental_uris":{"android":"levelo://app?vid=2e89ebed-0d44-416d-9078-29490c3c4d23","ios":"levelo://app?vid=2e89ebed-0d44-416d-9078-29490c3c4d23"},"vehicle_type_id":"4","last_reported":1684782300,"current_range_meters":15200,"station_id":"ce4bhjp2rcd13ifvqga0","pricing_plan_id":"free"},{"bike_id":"d7e53338-1385-4d2c-b7d7-ddf17aac98bf","system_id":"levelo_inurba_marseille","lat":43.273613,"lon":5.362705,"is_reserved":false,"is_disabled":false,"rental_uris":{"android":"levelo://app?vid=d7e53338-1385-4d2c-b7d7-ddf17aac98bf","ios":"levelo://app?vid=d7e53338-1385-4d2c-b7d7-ddf17aac98bf"},"vehicle_type_id":"4","last_reported":1684782300,"current_range_meters":29600,"station_id":"ce4bhbh2rcd13ifvqeo0","pricing_plan_id":"free"},{"bike_id":"c5c7aa23-45fb-4ad3-9648-e742f5cbf9a0","system_id":"levelo_inurba_marseille","lat":43.273613,"lon":5.362705,"is_reserved":false,"is_disabled":false,"rental_uris":{"android":"levelo://app?vid=c5c7aa23-45fb-4ad3-9648-e742f5cbf9a0","ios":"levelo://app?vid=c5c7aa23-45fb-4ad3-9648-e742f5cbf9a0"},"vehicle_type_id":"4","last_reported":1684782300,"current_range_meters":19600,"station_id":"ce4bhbh2rcd13ifvqeo0","pricing_plan_id":"free"},{"bike_id":"b00dba21-5c37-4ba3-8206-8eb52216b904","system_id":"levelo_inurba_marseille","lat":43.273609,"lon":5.362708,"is_reserved":false,"is_disabled":false,"rental_uris":{"android":"levelo://app?vid=b00dba21-5c37-4ba3-8206-8eb52216b904","ios":"levelo://app?vid=b00dba21-5c37-4ba3-8206-8eb52216b904"},"vehicle_type_id":"4","last_reported":1684782300,"current_range_meters":6000,"station_id":"ce4bhbh2rcd13ifvqeo0","pricing_plan_id":"free"},{"bike_id":"dc12f11f-2694-4d61-bb0e-16c796c2c29c","system_id":"levelo_inurba_marseille","lat":43.273613,"lon":5.362705,"is_reserved":false,"is_disabled":false,"rental_uris":{"android":"levelo://app?vid=dc12f11f-2694-4d61-bb0e-16c796c2c29c","ios":"levelo://app?vid=dc12f11f-2694-4d61-bb0e-16c796c2c29c"},"vehicle_type_id":"4","last_reported":1684782300,"current_range_meters":31600,"station_id":"ce4bhbh2rcd13ifvqeo0","pricing_plan_id":"free"},{"bike_id":"a0e4cad3-71ec-48d4-b0f4-263ce5aff843","system_id":"levelo_inurba_marseille","lat":43.273613,"lon":5.362705,"is_reserved":false,"is_disabled":false,"rental_uris":{"android":"levelo://app?vid=a0e4cad3-71ec-48d4-b0f4-263ce5aff843","ios":"levelo://app?vid=a0e4cad3-71ec-48d4-b0f4-263ce5aff843"},"vehicle_type_id":"4","last_reported":1684782300,"current_range_meters":14400,"station_id":"ce4bhbh2rcd13ifvqeo0","pricing_plan_id":"free"},{"bike_id":"3a1a7e07-1db5-4825-8590-83d545474f9a","system_id":"levelo_inurba_marseille","lat":43.273609,"lon":5.362708,"is_reserved":false,"is_disabled":false,"rental_uris":{"android":"levelo://app?vid=3a1a7e07-1db5-4825-8590-83d545474f9a","ios":"levelo://app?vid=3a1a7e07-1db5-4825-8590-83d545474f9a"},"vehicle_type_id":"4","last_reported":1684782300,"current_range_meters":6800,"station_id":"ce4bhbh2rcd13ifvqeo0","pricing_plan_id":"free"},{"bike_id":"5f97023a-d28d-4b17-8b4b-76029a9ae984","system_id":"levelo_inurba_marseille","lat":43.273613,"lon":5.362705,"is_reserved":false,"is_disabled":false,"rental_uris":{"android":"levelo://app?vid=5f97023a-d28d-4b17-8b4b-76029a9ae984","ios":"levelo://app?vid=5f97023a-d28d-4b17-8b4b-76029a9ae984"},"vehicle_type_id":"4","last_reported":1684782300,"current_range_meters":31600,"station_id":"ce4bhbh2rcd13ifvqeo0","pricing_plan_id":"free"},{"bike_id":"94923edc-2e4b-43a1-9aed-b09cf50c1fb0","system_id":"levelo_inurba_marseille","lat":43.273613,"lon":5.362705,"is_reserved":false,"is_disabled":false,"rental_uris":{"android":"levelo://app?vid=94923edc-2e4b-43a1-9aed-b09cf50c1fb0","ios":"levelo://app?vid=94923edc-2e4b-43a1-9aed-b09cf50c1fb0"},"vehicle_type_id":"4","last_reported":1684782300,"current_range_meters":31600,"station_id":"ce4bhbh2rcd13ifvqeo0","pricing_plan_id":"free"},{"bike_id":"8c7237f5-eb8c-43e0-9752-d111245b0c02","system_id":"levelo_inurba_marseille","lat":43.273609,"lon":5.362708,"is_reserved":false,"is_disabled":false,"rental_uris":{"android":"levelo://app?vid=8c7237f5-eb8c-43e0-9752-d111245b0c02","ios":"levelo://app?vid=8c7237f5-eb8c-43e0-9752-d111245b0c02"},"vehicle_type_id":"4","last_reported":1684782300,"current_range_meters":14800,"station_id":"ce4bhbh2rcd13ifvqeo0","pricing_plan_id":"free"},{"bike_id":"3c4fe855-4ef9-44b0-a2d8-25f862b3460c","system_id":"levelo_inurba_marseille","lat":43.273613,"lon":5.362705,"is_reserved":false,"is_disabled":false,"rental_uris":{"android":"levelo://app?vid=3c4fe855-4ef9-44b0-a2d8-25f862b3460c","ios":"levelo://app?vid=3c4fe855-4ef9-44b0-a2d8-25f862b3460c"},"vehicle_type_id":"4","last_reported":1684782300,"current_range_meters":31600,"station_id":"ce4bhbh2rcd13ifvqeo0","pricing_plan_id":"free"},