{"last_updated":1735323161,"ttl":60,"version":"2.2","data":{"bikes":[{"bike_id":"87fdb18d-b4fe-4aae-918d-71e852abf4be","system_id":"levelo_inurba_marseille","lat":43.29433,"lon":5.38614,"is_reserved":false,"is_disabled":false,"rental_uris":{"android":"levelo://app?vid=87fdb18d-b4fe-4aae-918d-71e852abf4be","ios":"levelo://app?vid=87fdb18d-b4fe-4aae-918d-71e852abf4be"},"vehicle_type_id":"4","last_reported":1735323161,"current_range_meters":14800,"station_id":"ce4bh2h2rcd13ifvqdh0","pricing_plan_id":"cebpf4jnsgd1na2vs0mg"},{"bike_id":"10792341-2d03-433b-befa-e4403785b28a","system_id":"levelo_inurba_marseille","lat":43.30369,"lon":5.37366,"is_reserved":false,"is_disabled":false,"rental_uris":{"android":"levelo://app?vid=10792341-2d03-433b-befa-e4403785b28a","ios":"levelo://app?vid=10792341-2d03-433b-befa-e4403785b28a"},"vehicle_type_id":"4","last_reported":1735323161,"current_range_meters":36800,"station_id":"ce4bgqh2rcd13ifvqc4g","pricing_plan_id":"cebpf4jnsgd1na2vs0mg"},{"bike_id":"556af4d8-2146-4b94-a7be-a9b39bd4549b","system_id":"levelo_inurba_marseille","lat":43.28098,"lon":5.37838,"is_reserved":false,"is_disabled":false,"rental_uris":{"android":"levelo://app?vid=556af4d8-2146-4b94-a7be-a9b39bd4549b","ios":"levelo://app?vid=556af4d8-2146-4b94-a7be-a9b39bd4549b"},"vehicle_type_id":"4","last_reported":1735323161,"current_range_meters":32800,"station_id":"ce4bha12rcd13ifvqee0","pricing_plan_id":"cebpf4jnsgd1na2vs0mg"},{"bike_id":"48f86687-e47c-4d04-bc93-1cbe0e70dfc8","system_id":"levelo_inurba_marseille","lat":43.24502,"lon":5.38146,"is_reserved":false,"is_disabled":false,"rental_uris":{"android":"levelo://app?vid=48f86687-e47c-4d04-bc93-1cbe0e70dfc8","ios":"levelo://app?vid=48f86687-e47c-4d04-bc93-1cbe0e70dfc8"},"vehicle_type_id":"4","last_reported":1735323161,"current_range_meters":14000,"station_id":"ce4bhi12rcd13ifvqfp0","pricing_plan_id":"cebpf4jnsgd1na2vs0mg"},{"bike_id":"43018bbb-f5df-4f0b-b23d-13d1a6852495","system_id":"levelo_inurba_marseille","lat":43.28936,"lon":5.3665,"is_reserved":false,"is_disabled":false,"rental_uris":{"android":"levelo://app?vid=43018bbb-f5df-4f0b-b23d-13d1a6852495","ios":"levelo://app?vid=43018bbb-f5df-4f0b-b23d-13d1a6852495"},"vehicle_type_id":"4","last_reported":1735323161,"current_range_meters":38800,"station_id":"ce4bhap2rcd13ifvqek0","pricing_plan_id":"cebpf4jnsgd1na2vs0mg"},{"bike_id":"4def4882-e804-4c7f-ad72-1d6041f29fab","system_id":"levelo_inurba_marseille","lat":43.28946,"lon":5.36632,"is_reserved":false,"is_disabled":false,"rental_uris":{"android":"levelo://app?vid=4def4882-e804-4c7f-ad72-1d6041f29fab","ios":"levelo://app?vid=4def4882-e804-4c7f-ad72-1d6041f29fab"},"vehicle_type_id":"4","last_reported":1735323161,"current_range_meters":24800,"station_id":"ce4bhap2rcd13ifvqek0","pricing_plan_id":"cebpf4jnsgd1na2vs0mg"},{"bike_id":"90842d74-1934-4b0d-8946-01f40c1784f3","system_id":"levelo_inurba_marseille","lat":43.27942,"lon":5.41039,"is_reserved":false,"is_disabled":false,"rental_uris":{"android":"levelo://app?vid=90842d74-1934-4b0d-8946-01f40c1784f3","ios":"levelo://app?vid=90842d74-1934-4b0d-8946-01f40c1784f3"},"vehicle_type_id":"4","last_reported":1735323161,"current_range_meters":38800,"station_id":"ce4bhnp2rcd13ifvqh0g","pricing_plan_id":"cebpf4jnsgd1na2vs0mg"},{"bike_id":"3991aac2-ec7f-43c8-801f-23e11845f2d6","system_id":"levelo_inurba_marseille","lat":43.28155,"lon":5.42636,"is_reserved":false,"is_disabled":false,"rental_uris":{"android":"levelo://app?vid=3991aac2-ec7f-43c8-801f-23e11845f2d6","ios":"levelo://app?vid=3991aac2-ec7f-43c8-801f-23e11845f2d6"},"vehicle_type_id":"4","last_reported":1735323161,"current_range_meters":38800,"station_id":"ce4bhnh2rcd13ifvqgug","pricing_plan_id":"cebpf4jnsgd1na2vs0mg"},{"bike_id":"9b3c391a-652f-48d1-97e1-83b5ae1f3763","system_id":"levelo_inurba_marseille","lat":43.26787,"lon":5.39412,"is_reserved":false,"is_disabled":false,"rental_uris":{"android":"levelo://app?vid=9b3c391a-652f-48d1-97e1-83b5ae1f3763","ios":"levelo://app?vid=9b3c391a-652f-48d1-97e1-83b5ae1f3763"},"vehicle_type_id":"4","last_reported":1735323161,"current_range_meters":38800,"station_id":"ce4bhh12rcd13ifvqfg0","pricing_plan_id":"cebpf4jnsgd1na2vs0mg"},{"bike_id":"aa910906-3ca2-4107-80e1-4fe46d1472a6","system_id":"levelo_inurba_marseille","lat":43.32048,"lon":5.41568,"is_reserved":false,"is_disabled":false,"rental_uris":{"android":"levelo://app?vid=aa910906-3ca2-4107-80e1-4fe46d1472a6","ios":"levelo://app?vid=aa910906-3ca2-4107-80e1-4fe46d1472a6"},"vehicle_type_id":"4","last_reported":1735323161,"current_range_meters":34000,"station_id":"ce4bhq92rcd13ifvqhkg","pricing_plan_id":"cebpf4jnsgd1na2vs0mg"},{"bike_id":"5b208e0c-692d-4481-8afd-4beed5e38655","system_id":"levelo_inurba_marseille","lat":43.29523,"lon":5.39039,"is_reserved":false,"is_disabled":false,"rental_uris":{"android":"levelo://app?vid=5b208e0c-692d-4481-8afd-4beed5e38655","ios":"levelo://app?vid=5b208e0c-692d-4481-8afd-4beed5e38655"},"vehicle_type_id":"4","last_reported":1735323161,"current_range_meters":28000,"station_id":"ce4bh3p2rcd13ifvqdp0","pricing_plan_id":"cebpf4jnsgd1na2vs0mg"},{"bike_id":"a72dfd3e-c548-42f4-a5a2-17a1e02a427a","system_id":"levelo_inurba_marseille","lat":43.26202,"lon":5.37922,"is_reserved":false,"is_disabled":false,"rental_uris":{"android":"levelo://app?vid=a72dfd3e-c548-42f4-a5a2-17a1e02a427a","ios":"levelo://app?vid=a72dfd3e-c548-42f4-a5a2-17a1e02a427a"},"vehicle_type_id":"4","last_reported":1735323161,"current_range_meters":38800,"station_id":"ce4bhjp2rcd13ifvqg90","pricing_plan_id":"cebpf4jnsgd1na2vs0mg"},{"bike_id":"cb35f7d8-c204-4a7f-801e-8a8f1f547ed7","system_id":"levelo_inurba_marseille","lat":43.27209,"lon":5.39191,"is_reserved":false,"is_disabled":false,"rental_uris":{"android":"levelo://app?vid=cb35f7d8-c204-4a7f-801e-8a8f1f547ed7","ios":"levelo://app?vid=cb35f7d8-c204-4a7f-801e-8a8f1f547ed7"},"vehicle_type_id":"4","last_reported":1735323161,"current_range_meters":38800,"station_id":"ce4bhhp2rcd13ifvqfm0","pricing_plan_id":"cebpf4jnsgd1na2vs0mg"},{"bike_id":"3996f4e4-f54f-4ea1-8aad-5f21784e17b2","system_id":"levelo_inurba_marseille","lat":43.28457,"lon":5.35885,"is_reserved":false,"is_disabled":false,"rental_uris":{"android":"levelo://app?vid=3996f4e4-f54f-4ea1-8aad-5f21784e17b2","ios":"levelo://app?vid=3996f4e4-f54f-4ea1-8aad-5f21784e17b2"},"vehicle_type_id":"4","last_reported":1735323161,"current_range_meters":4400,"station_id":"ce4bhah2rcd13ifvqei0","pricing_plan_id":"cebpf4jnsgd1na2vs0mg"},{"bike_id":"b8b4a4ff-82ec-4d06-9add-289a8a374bf6","system_id":"levelo_inurba_marseille","lat":43.30201,"lon":5.39461,"is_reserved":false,"is_disabled":false,"rental_uris":{"android":"levelo://app?vid=b8b4a4ff-82ec-4d06-9add-289a8a374bf6","ios":"levelo://app?vid=b8b4a4ff-82ec-4d06-9add-289a8a374bf6"},"vehicle_type_id":"4","last_reported":1735323161,"current_range_meters":30800,"station_id":"ce4bh0p2rcd13ifvqd70","pricing_plan_id":"cebpf4jnsgd1na2vs0mg"},{"bike_id":"4b0fd93f-ab44-4d17-9609-4abb396d054c","system_id":"levelo_inurba_marseille","lat":43.23197,"lon":5.35553,"is_reserved":false,"is_disabled":false,"rental_uris":{"android":"levelo://app?vid=4b0fd93f-ab44-4d17-9609-4abb396d054c","ios":"levelo://app?vid=4b0fd93f-ab44-4d17-9609-4abb396d054c"},"vehicle_type_id":"4","last_reported":1735323161,"current_range_meters":38400,"station_id":"ce4bhu92rcd13ifvqi70","pricing_plan_id":"cebpf4jnsgd1na2vs0mg"},{"bike_id":"4df266d2-4809-458c-8905-788d59fa5eb1","system_id":"levelo_inurba_marseille","lat":43.27319,"lon":5.39162,"is_reserved":false,"is_disabled":false,"rental_uris":{"android":"levelo://app?vid=4df266d2-4809-458c-8905-788d59fa5eb1","ios":"levelo://app?vid=4df266d2-4809-458c-8905-788d59fa5eb1"},"vehicle_type_id":"4","last_reported":1735323161,"current_range_meters":19600,"station_id":"ce4bhgp2rcd13ifvqfe0","pricing_plan_id":"cebpf4jnsgd1na2vs0mg"},{"bike_id":"d97efcc0-2b24-4953-b2da-461cf0985a52","system_id":"levelo_inurba_marseille","lat":43.27955,"lon":5.38694,"is_reserved":false,"is_disabled":false,"rental_uris":{"android":"levelo://app?vid=d97efcc0-2b24-4953-b2da-461cf0985a52","ios":"levelo://app?vid=d97efcc0-2b24-4953-b2da-461cf0985a52"},"vehicle_type_id":"4","last_reported":1735323161,"current_range_meters":38800,"station_id":"ce4bhg12rcd13ifvqf80","pricing_plan_id":"cebpf4jnsgd1na2vs0mg"},{"bike_id":"25e0f3da-f062-4c04-aa97-3f61720746ca","system_id":"levelo_inurba_marseille","lat":43.29525,"lon":5.38556,"is_reserved":false,"is_disabled":false,"rental_uris":{"android":"levelo://app?vid=25e0f3da-f062-4c04-aa97-3f61720746ca","ios":"levelo://app?vid=25e0f3da-f062-4c04-aa97-3f61720746ca"},"vehicle_type_id":"4","last_reported":1735323161,"current_range_meters":39200,"station_id":"ce4bgih2rcd13ifvqba0","pricing_plan_id":"cebpf4jnsgd1na2vs0mg"},{"bike_id":"ac17fd9e-9de7-4b0c-9b44-8e3d7d1323a2","system_id":"levelo_inurba_marseille","lat":43.29262,"lon":5.38433,"is_reserved":false,"is_disabled":false,"rental_uris":{"android":"levelo://app?vid=ac17fd9e-9de7-4b0c-9b44-8e3d7d1323a2","ios":"levelo://app?vid=ac17fd9e-9de7-4b0c-9b44-8e3d7d1323a2"},"vehicle_type_id":"4","last_reported":1735323161,"current_range_meters":26000,"station_id":"ce4bh692rcd13ifvqea0","pricing_plan_id":"cebpf4jnsgd1na2vs0mg"},{"bike_id":"3fcb2f6f-39f4-445d-a829-8626c3812c7e","system_id":"levelo_inurba_marseille","lat":43.27676,"lon":5.38897,"is_reserved":false,"is_disabled":false,"rental_uris":{"android":"levelo://app?vid=3fcb2f6f-39f4-445d-a829-8626c3812c7e","ios":"levelo://app?vid=3fcb2f6f-39f4-445d-a829-8626c3812c7e"},"vehicle_type_id":"4","last_reported":1735323161,"current_range_meters":25200,"station_id":"ce4bhi12rcd13ifvqfo0","pricing_plan_id":"cebpf4jnsgd1na2vs0mg"},{"bike_id":"54e82adf-653a-40bc-8212-b0e67d34d16f","system_id":"levelo_inurba_marseille","lat":43.29927,"lon":5.36527,"is_reserved":false,"is_disabled":false,"rental_uris":{"android":"levelo://app?vid=54e82adf-653a-40bc-8212-b0e67d34d16f","ios":"levelo://app?vid=54e82adf-653a-40bc-8212-b0e67d34d16f"},"vehicle_type_id":"4","last_reported":1735323161,"current_range_meters":38800,"station_id":"ce4bgm92rcd13ifvqbr0","pricing_plan_id":"cebpf4jnsgd1na2vs0mg"},{"bike_id":"e57872dc-3b17-4aba-8463-fda82454acee","system_id":"levelo_inurba_marseille","lat":43.31069,"lon":5.38357,"is_reserved":false,"is_disabled":false,"rental_uris":{"android":"levelo://app?vid=e57872dc-3b17-4aba-8463-fda82454acee","ios":"levelo://app?vid=e57872dc-3b17-4aba-8463-fda82454acee"},"vehicle_type_id":"4","last_reported":1735323161,"current_range_meters":22000,"station_id":"ce4bgv92rcd13ifvqcr0","pricing_plan_id":"cebpf4jnsgd1na2vs0mg"},{"bike_id":"857344dd-6be1-4d34-90e7-6f62afbbef2e","system_id":"levelo_inurba_marseille","lat":43.3211,"lon":5.36771,"is_reserved":false,"is_disabled":false,"rental_uris":{"android":"levelo://app?vid=857344dd-6be1-4d34-90e7-6f62afbbef2e","ios":"levelo://app?vid=857344dd-6be1-4d34-90e7-6f62afbbef2e"},"vehicle_type_id":"4","last_reported":1735323161,"current_range_meters":36400,"station_id":"ce4bhrh2rcd13ifvqhug","pricing_plan_id":"cebpf4jnsgd1na2vs0mg"},{"bike_id":"dbcb7936-38df-4994-a253-29b424e6f6e1","system_id":"levelo_inurba_marseille","lat":43.29523,"lon":5.37504,"is_reserved":false,"is_disabled":false,"rental_uris":{"android":"levelo://app?vid=dbcb7936-38df-4994-a253-29b424e6f6e1","ios":"levelo://app?vid=dbcb7936-38df-4994-a253-29b424e6f6e1"},"vehicle_type_id":"4","last_reported":1735323161,"current_range_meters":30000,"station_id":"ce4bgkp2rcd13ifvqbmg","pricing_plan_id":"cebpf4jnsgd1na2vs0mg"},{"bike_id":"06e36c0b-f1b7-4a71-80ba-88bd69519748","system_id":"levelo_inurba_marseille","lat":43.30081,"lon":5.39058,"is_reserved":false,"is_disabled":false,"rental_uris":{"android":"levelo://app?vid=06e36c0b-f1b7-4a71-80ba-88bd69519748","ios":"levelo://app?vid=06e36c0b-f1b7-4a71-80ba-88bd69519748"},"vehicle_type_id":"4","last_reported":1735323161,"current_range_meters":32000,"station_id":"ce4bh192rcd13ifvqdb0","pricing_plan_id":"cebpf4jnsgd1na2vs0mg"},{"bike_id":"982e21d4-e971-4b77-a19a-00bb26b68082","system_id":"levelo_inurba_marseille","lat":43.29261,"lon":5.38446,"is_reserved":false,"is_disabled":false,"rental_uris":{"android":"levelo://app?vid=982e21d4-e971-4b77-a19a-00bb26b68082","ios":"levelo://app?vid=982e21d4-e971-4b77-a19a-00bb26b68082"},"vehicle_type_id":"4","last_reported":1735323161,"current_range_meters":9200,"station_id":"ce4bh692rcd13ifvqea0","pricing_plan_id":"cebpf4jnsgd1na2vs0mg"},{"bike_id":"721c1c7f-f5c5-437c-8a8d-3564f4f522ad","system_id":"levelo_inurba_marseille","lat":43.30423,"lon":5.39756,"is_reserved":false,"is_disabled":false,"rental_uris":{"android":"levelo://app?vid=721c1c7f-f5c5-437c-8a8d-3564f4f522ad","ios":"levelo://app?vid=721c1c7f-f5c5-437c-8a8d-3564f4f522ad"},"vehicle_type_id":"4","last_reported":1735323161,"current_range_meters":39200,"station_id":"ce4bh092rcd13ifvqd20","pricing_plan_id":"cebpf4jnsgd1na2vs0mg"},{"bike_id":"f211b7a7-4ea2-43fa-9335-360ff6ef2067","system_id":"levelo_inurba_marseille","lat":43.24077,"lon":5.37748,"is_reserved":false,"is_disabled":false,"rental_uris":{"android":"levelo://app?vid=f211b7a7-4ea2-43fa-9335-360ff6ef2067","ios":"levelo://app?vid=f211b7a7-4ea2-43fa-9335-360ff6ef2067"},"vehicle_type_id":"4","last_reported":1735323161,"current_range_meters":30000,"station_id":"ce4bhnp2rcd13ifvqgvg","pricing_plan_id":"cebpf4jnsgd1na2vs0mg"},{"bike_id":"46f48fbb-7af4-4590-9b7a-994204b296e1","system_id":"levelo_inurba_marseille","lat":43.28151,"lon":5.42641,"is_reserved":false,"is_disabled":false,"rental_uris":{"android":"levelo://app?vid=46f48fbb-7af4-4590-9b7a-994204b296e1","ios":"levelo://app?vid=46f48fbb-7af4-4590-9b7a-994204b296e1"},"vehicle_type_id":"4","last_reported":1735323161,"current_range_meters":33200,"station_id":"ce4bhnh2rcd13ifvqgug","pricing_plan_id":"cebpf4jnsgd1na2vs0mg"},{"bike_id":"ad66ce9d-e2b2-4064-ae7f-fe87403c632b","system_id":"levelo_inurba_marseille","lat":43.23072,"lon":5.35483,"is_reserved":false,"is_disabled":false,"rental_uris":{"android":"levelo://app?vid=ad66ce9d-e2b2-4064-ae7f-fe87403c632b","ios":"levelo://app?vid=ad66ce9d-e2b2-4064-ae7f-fe87403c632b"},"vehicle_type_id":"4","last_reported":1735323161,"current_range_meters":24400,"station_id":"cpo3342slgdg3j2ifvpg","pricing_plan_id":"cebpf4jnsgd1na2vs0mg"},{"bike_id":"5ad0bf61-10f4-4615-a88b-24cadcaa81b0","system_id":"levelo_inurba_marseille","lat":43.3134,"lon":5.39681,"is_reserved":false,"is_disabled":false,"rental_uris":{"android":"levelo://app?vid=5ad0bf61-10f4-4615-a88b-24cadcaa81b0","ios":"levelo://app?vid=5ad0bf61-10f4-4615-a88b-24cadcaa81b0"},"vehicle_type_id":"4","last_reported":1735323161,"current_range_meters":39200,"station_id":"ce4bgvp2rcd13ifvqcu0","pricing_plan_id":"cebpf4jnsgd1na2vs0mg"},{"bike_id":"5a95431d-df0c-4e3b-8013-4cc3c3dd8714","system_id":"levelo_inurba_marseille","lat":43.29538,"lon":5.37503,"is_reserved":false,"is_disabled":false,"rental_uris":{"android":"levelo://app?vid=5a95431d-df0c-4e3b-8013-4cc3c3dd8714","ios":"levelo://app?vid=5a95431d-df0c-4e3b-8013-4cc3c3dd8714"},"vehicle_type_id":"4","last_reported":1735323161,"current_range_meters":38400,"station_id":"ce4bgkp2rcd13ifvqbmg","pricing_plan_id":"cebpf4jnsgd1na2vs0mg"},{"bike_id":"ced76378-03ce-491e-8851-299c9e2a0e28","system_id":"levelo_inurba_marseille","lat":43.27209,"lon":5.39187,"is_reserved":false,"is_disabled":false,"rental_uris":{"android":"levelo://app?vid=ced76378-03ce-491e-8851-299c9e2a0e28","ios":"levelo://app?vid=ced76378-03ce-491e-8851-299c9e2a0e28"},"vehicle_type_id":"4","last_reported":1735323161,"current_range_meters":39200,"station_id":"ce4bhhp2rcd13ifvqfm0","pricing_plan_id":"cebpf4jnsgd1na2vs0mg"},{"bike_id":"2dc600db-8b4f-4ab5-b031-392436313c41","system_id":"levelo_inurba_marseille","lat":43.31993,"lon":5.38144,"is_reserved":false,"is_disabled":false,"rental_uris":{"android":"levelo://app?vid=2dc600db-8b4f-4ab5-b031-392436313c41","ios":"levelo://app?vid=2dc600db-8b4f-4ab5-b031-392436313c41"},"vehicle_type_id":"4","last_reported":1735323161,"current_range_meters":37600,"station_id":"ce4bhr12rcd13ifvqhpg","pricing_plan_id":"cebpf4jnsgd1na2vs0mg"},{"bike_id":"d0533ccb-11ce-46dc-9cca-daa9f7a4985a","system_id":"levelo_inurba_marseille","lat":43.29563,"lon":5.42247,"is_reserved":false,"is_disabled":false,"rental_uris":{"android":"levelo://app?vid=d0533ccb-11ce-46dc-9cca-daa9f7a4985a","ios":"levelo://app?vid=d0533ccb-11ce-46dc-9cca-daa9f7a4985a"},"vehicle_type_id":"4","last_reported":1735323161,"current_range_meters":38800,"station_id":"ce4bhph2rcd13ifvqhdg","pricing_plan_id":"cebpf4jnsgd1na2vs0mg"},{"bike_id":"37405f29-91c1-46e3-aa3d-d06e17e9c7ac","system_id":"levelo_inurba_marseille","lat":43.3132,"lon":5.3969,"is_reserved":false,"is_disabled":false,"rental_uris":{"android":"levelo://app?vid=37405f29-91c1-46e3-aa3d-d06e17e9c7ac","ios":"levelo://app?vid=37405f29-91c1-46e3-aa3d-d06e17e9c7ac"},"vehicle_type_id":"4","last_reported":1735323161,"current_range_meters":32800,"station_id":"ce4bgvp2rcd13ifvqcu0","pricing_plan_id":"cebpf4jnsgd1na2vs0mg"},{"bike_id":"9df6a86e-973a-4959-9331-7febd711fb7d","system_id":"levelo_inurba_marseille","lat":43.28931,"lon":5.36629,"is_reserved":false,"is_disabled":false,"rental_uris":{"android":"levelo://app?vid=9df6a86e-973a-4959-9331-7febd711fb7d","ios":"levelo://app?vid=9df6a86e-973a-4959-9331-7febd711fb7d"},"vehicle_type_id":"4","last_reported":1735323161,"current_range_meters":38800,"station_id":"ce4bhap2rcd13ifvqek0","pricing_plan_id":"cebpf4jnsgd1na2vs0mg"},{"bike_id":"d91f1d8d-66ec-4a8f-b241-0944dbc60775","system_id":"levelo_inurba_marseille","lat":43.27676,"lon":5.38917,"is_reserved":false,"is_disabled":false,"rental_uris":{"android":"levelo://app?vid=d91f1d8d-66ec-4a8f-b241-0944dbc60775","ios":"levelo://app?vid=d91f1d8d-66ec-4a8f-b241-0944dbc60775"},"vehicle_type_id":"4","last_reported":1735323161,"current_range_meters":21600,"station_id":"ce4bhi12rcd13ifvqfo0","pricing_plan_id":"cebpf4jnsgd1na2vs0mg"},{"bike_id":"b32fb18a-c8a8-4404-98aa-9a585746a89d","system_id":"levelo_inurba_marseille","lat":43.31776,"lon":5.40584,"is_reserved":false,"is_disabled":false,"rental_uris":{"android":"levelo://app?vid=b32fb18a-c8a8-4404-98aa-9a585746a89d","ios":"levelo://app?vid=b32fb18a-c8a8-4404-98aa-9a585746a89d"},"vehicle_type_id":"4","last_reported":1735323161,"current_range_meters":28000,"station_id":"","pricing_plan_id":"cebpf4jnsgd1na2vs0mg"},{"bike_id":"fb65f68e-01b9-464f-abae-a60e8b871ed3","system_id":"levelo_inurba_marseille","lat":43.27915,"lon":5.39579,"is_reserved":false,"is_disabled":false,"rental_uris":{"android":"levelo://app?vid=fb65f68e-01b9-464f-abae-a60e8b871ed3","ios":"levelo://app?vid=fb65f68e-01b9-464f-abae-a60e8b871ed3"},"vehicle_type_id":"4","last_reported":1735323161,"current_range_meters":27200,"station_id":"ce4bhf92rcd13ifvqf40","pricing_plan_id":"cebpf4jnsgd1na2vs0mg"},{"bike_id":"a61dabe4-d07f-47b2-966a-ed2cf66e5fa9","system_id":"levelo_inurba_marseille","lat":43.2799,"lon":5.41651,"is_reserved":false,"is_disabled":false,"rental_uris":{"android":"levelo://app?vid=a61dabe4-d07f-47b2-966a-ed2cf66e5fa9","ios":"levelo://app?vid=a61dabe4-d07f-47b2-966a-ed2cf66e5fa9"},"vehicle_type_id":"4","last_reported":1735323161,"current_range_meters":28800,"station_id":"ce4bho12rcd13ifvqh1g","pricing_plan_id":"cebpf4jnsgd1na2vs0mg"},{"bike_id":"caab34a4-5264-4b72-a12f-e55159fe93b6","system_id":"levelo_inurba_marseille","lat":43.27065,"lon":5.42264,"is_reserved":false,"is_disabled":false,"rental_uris":{"android":"levelo://app?vid=caab34a4-5264-4b72-a12f-e55159fe93b6","ios":"levelo://app?vid=caab34a4-5264-4b72-a12f-e55159fe93b6"},"vehicle_type_id":"4","last_reported":1735323161,"current_range_meters":33200,"station_id":"ce4bhk92rcd13ifvqgb0","pricing_plan_id":"cebpf4jnsgd1na2vs0mg"},{"bike_id":"8945d0ae-de7c-47f8-bcb0-1536c9716097","system_id":"levelo_inurba_marseille","lat":43.2952,"lon":5.39034,"is_reserved":false,"is_disabled":true,"rental_uris":{"android":"levelo://app?vid=8945d0ae-de7c-47f8-bcb0-1536c9716097","ios":"levelo://app?vid=8945d0ae-de7c-47f8-bcb0-1536c9716097"},"vehicle_type_id":"4","last_reported":1735323161,"current_range_meters":34000,"station_id":"ce4bh3p2rcd13ifvqdp0","pricing_plan_id":"cebpf4jnsgd1na2vs0mg"},{"bike_id":"fe50a5ce-c05b-410c-af59-7143f0371395","system_id":"levelo_inurba_marseille","lat":43.30133,"lon":5.39861,"is_reserved":false,"is_disabled":false,"rental_uris":{"android":"levelo://app?vid=fe50a5ce-c05b-410c-af59-7143f0371395","ios":"levelo://app?vid=fe50a5ce-c05b-410c-af59-7143f0371395"},"vehicle_type_id":"4","last_reported":1735323161,"current_range_meters":38800,"station_id":"ce4bh0h2rcd13ifvqd40","pricing_plan_id":"cebpf4jnsgd1na2vs0mg"},{"bike_id":"2b08ca99-c6f3-4395-ab2d-aeebc3305aa4","system_id":"levelo_inurba_marseille","lat":43.3376,"lon":5.37445,"is_reserved":false,"is_disabled":false,"rental_uris":{"android":"levelo://app?vid=2b08ca99-c6f3-4395-ab2d-aeebc3305aa4","ios":"levelo://app?vid=2b08ca99-c6f3-4395-ab2d-aeebc3305aa4"},"vehicle_type_id":"4","last_reported":1735323161,"current_range_meters":37600,"station_id":"","pricing_plan_id":"cebpf4jnsgd1na2vs0mg"},{"bike_id":"85a796fe-1d1a-4ca7-b680-e5692d2553ff","system_id":"levelo_inurba_marseille","lat":43.30909,"lon":5.3685,"is_reserved":false,"is_disabled":false,"rental_uris":{"android":"levelo://app?vid=85a796fe-1d1a-4ca7-b680-e5692d2553ff","ios":"levelo://app?vid=85a796fe-1d1a-4ca7-b680-e5692d2553ff"},"vehicle_type_id":"4","last_reported":1735323161,"current_range_meters":29600,"station_id":"ce4bgn92rcd13ifvqbvg","pricing_plan_id":"cebpf4jnsgd1na2vs0mg"},{"bike_id":"28e87422-6539-49e0-9c4a-e5a9e98a6ed1","system_id":"levelo_inurba_marseille","lat":43.28724,"lon":5.36083,"is_reserved":false,"is_disabled":false,"rental_uris":{"android":"levelo://app?vid=28e87422-6539-49e0-9c4a-e5a9e98a6ed1","ios":"levelo://app?vid=28e87422-6539-49e0-9c4a-e5a9e98a6ed1"},"vehicle_type_id":"4","last_reported":1735323161,"current_range_meters":20800,"station_id":"cki0cbj6b192h4jlfktg","pricing_plan_id":"cebpf4jnsgd1na2vs0mg"},{"bike_id":"4a3d99ff-6de0-4078-b5aa-e8b02edbed66","system_id":"levelo_inurba_marseille","lat":43.26215,"lon":5.37444,"is_reserved":false,"is_disabled":false,"rental_uris":{"android":"levelo://app?vid=4a3d99ff-6de0-4078-b5aa-e8b02edbed66","ios":"levelo://app?vid=4a3d99ff-6de0-4078-b5aa-e8b02edbed66"},"vehicle_type_id":"4","last_reported":1735323161,"current_range_meters":27200,"station_id":"ce4bhgp2rcd13ifvqfc0","pricing_plan_id":"cebpf4jnsgd1na2vs0mg"},{"bike_id":"33e4c278-497a-4992-9269-3f4bd7a2ca60","system_id":"levelo_inurba_marseille","lat":43.29934,"lon":5.37462,"is_reserved":false,"is_disabled":false,"rental_uris":{"android":"levelo://app?vid=33e4c278-497a-4992-9269-3f4bd7a2ca60","ios":"levelo://app?vid=33e4c278-497a-4992-9269-3f4bd7a2ca60"},"vehicle_type_id":"4","last_reported":1735323161,"current_range_meters":38800,"station_id":"ce4bgjh2rcd13ifvqbg0","pricing_plan_id":"cebpf4jnsgd1na2vs0mg"},{"bike_id":"454d0344-486e-4331-bc83-caa2fc8d4a5e","system_id":"levelo_inurba_marseille","lat":43.25752,"lon":5.38134,"is_reserved":false,"is_disabled":false,"rental_uris":{"android":"levelo://app?vid=454d0344-486e-4331-bc83-caa2fc8d4a5e","ios":"levelo://app?vid=454d0344-486e-4331-bc83-caa2fc8d4a5e"},"vehicle_type_id":"4","last_reported":1735323161,"current_range_meters":3200,"station_id":"","pricing_plan_id":"cebpf4jnsgd1na2vs0mg"},{"bike_id":"4e1b440e-dc87-47f0-92e1-32a898eeb09a","system_id":"levelo_inurba_marseille","lat":43.32025,"lon":5.41566,"is_reserved":false,"is_disabled":false,"rental_uris":{"android":"levelo://app?vid=4e1b440e-dc87-47f0-92e1-32a898eeb09a","ios":"levelo://app?vid=4e1b440e-dc87-47f0-92e1-32a898eeb09a"},"vehicle_type_id":"4","last_reported":1735323161,"current_range_meters":7200,"station_id":"ce4bhq92rcd13ifvqhkg","pricing_plan_id":"cebpf4jnsgd1na2vs0mg"},{"bike_id":"019ad2ba-6b86-4d43-b9a0-039428f6ef1c","system_id":"levelo_inurba_marseille","lat":43.28485,"lon":5.38429,"is_reserved":false,"is_disabled":false,"rental_uris":{"android":"levelo://app?vid=019ad2ba-6b86-4d43-b9a0-039428f6ef1c","ios":"levelo://app?vid=019ad2ba-6b86-4d43-b9a0-039428f6ef1c"},"vehicle_type_id":"4","last_reported":1735323161,"current_range_meters":24400,"station_id":"ce4bh512rcd13ifvqe3g","pricing_plan_id":"cebpf4jnsgd1na2vs0mg"},{"bike_id":"c0c3e5c6-edc3-41c4-8feb-85aaa21b750a","system_id":"levelo_inurba_marseille","lat":43.32037,"lon":5.41536,"is_reserved":false,"is_disabled":false,"rental_uris":{"android":"levelo://app?vid=c0c3e5c6-edc3-41c4-8feb-85aaa21b750a","ios":"levelo://app?vid=c0c3e5c6-edc3-41c4-8feb-85aaa21b750a"},"vehicle_type_id":"4","last_reported":1735323161,"current_range_meters":38800,"station_id":"ce4bhq92rcd13ifvqhkg","pricing_plan_id":"cebpf4jnsgd1na2vs0mg"},{"bike_id":"2774347f-63d0-412f-a7c2-3621fbae2779","system_id":"levelo_inurba_marseille","lat":43.28464,"lon":5.38411,"is_reserved":false,"is_disabled":false,"rental_uris":{"android":"levelo://app?vid=2774347f-63d0-412f-a7c2-3621fbae2779","ios":"levelo://app?vid=2774347f-63d0-412f-a7c2-3621fbae2779"},"vehicle_type_id":"4","last_reported":1735323161,"current_range_meters":22800,"station_id":"ce4bh512rcd13ifvqe3g","pricing_plan_id":"cebpf4jnsgd1na2vs0mg"},{"bike_id":"18bc1f72-2985-4563-8c4b-a663b4aade98","system_id":"levelo_inurba_marseille","lat":43.28938,"lon":5.3663,"is_reserved":false,"is_disabled":false,"rental_uris":{"android":"levelo://app?vid=18bc1f72-2985-4563-8c4b-a663b4aade98","ios":"levelo://app?vid=18bc1f72-2985-4563-8c4b-a663b4aade98"},"vehicle_type_id":"4","last_reported":1735323161,"current_range_meters":38800,"station_id":"ce4bhap2rcd13ifvqek0","pricing_plan_id":"cebpf4jnsgd1na2vs0mg"},{"bike_id":"f87e9708-e7f2-4d4f-9a6e-460741d3f52a","system_id":"levelo_inurba_marseille","lat":43.30352,"lon":5.41873,"is_reserved":false,"is_disabled":false,"rental_uris":{"android":"levelo://app?vid=f87e9708-e7f2-4d4f-9a6e-460741d3f52a","ios":"levelo://app?vid=f87e9708-e7f2-4d4f-9a6e-460741d3f52a"},"vehicle_type_id":"4","last_reported":1735323161,"current_range_meters":27600,"station_id":"ce4bhop2rcd13ifvqh7g","pricing_plan_id":"cebpf4jnsgd1na2vs0mg"},{"bike_id":"38416082-aa24-4a7b-a713-0ccc2500657d","system_id":"levelo_inurba_marseille","lat":43.29564,"lon":5.38518,"is_reserved":false,"is_disabled":false,"rental_uris":{"android":"levelo://app?vid=38416082-aa24-4a7b-a713-0ccc2500657d","ios":"levelo://app?vid=38416082-aa24-4a7b-a713-0ccc2500657d"},"vehicle_type_id":"4","last_reported":1735323161,"current_range_meters":36800,"station_id":"ce4bgih2rcd13ifvqba0","pricing_plan_id":"cebpf4jnsgd1na2vs0mg"},{"bike_id":"344bfaa6-e3d4-49a7-8d16-1687da239288","system_id":"levelo_inurba_marseille","lat":43.27216,"lon":5.39164,"is_reserved":false,"is_disabled":false,"rental_uris":{"android":"levelo://app?vid=344bfaa6-e3d4-49a7-8d16-1687da239288","ios":"levelo://app?vid=344bfaa6-e3d4-49a7-8d16-1687da239288"},"vehicle_type_id":"4","last_reported":1735323161,"current_range_meters":38800,"station_id":"ce4bhhp2rcd13ifvqfm0","pricing_plan_id":"cebpf4jnsgd1na2vs0mg"},{"bike_id":"0bf1bf3f-3244-4553-a44a-196fa30249fc","system_id":"levelo_inurba_marseille","lat":43.29678,"lon":5.37285,"is_reserved":false,"is_disabled":false,"rental_uris":{"android":"levelo://app?vid=0bf1bf3f-3244-4553-a44a-196fa30249fc","ios":"levelo://app?vid=0bf1bf3f-3244-4553-a44a-196fa30249fc"},"vehicle_type_id":"4","last_reported":1735323161,"current_range_meters":38000,"station_id":"ce4bgk12rcd13ifvqbj0","pricing_plan_id":"cebpf4jnsgd1na2vs0mg"},{"bike_id":"8407301d-c129-4dce-9c0f-918b142af3b1","system_id":"levelo_inurba_marseille","lat":43.27163,"lon":5.40994,"is_reserved":false,"is_disabled":false,"rental_uris":{"android":"levelo://app?vid=8407301d-c129-4dce-9c0f-918b142af3b1","ios":"levelo://app?vid=8407301d-c129-4dce-9c0f-918b142af3b1"},"vehicle_type_id":"4","last_reported":1735323161,"current_range_meters":10800,"station_id":"ce4bhl12rcd13ifvqgf0","pricing_plan_id":"cebpf4jnsgd1na2vs0mg"},{"bike_id":"fc8f1da3-b1e2-4b23-8e38-b05bd9cb00eb","system_id":"levelo_inurba_marseille","lat":43.29684,"lon":5.37295,"is_reserved":false,"is_disabled":false,"rental_uris":{"android":"levelo://app?vid=fc8f1da3-b1e2-4b23-8e38-b05bd9cb00eb","ios":"levelo://app?vid=fc8f1da3-b1e2-4b23-8e38-b05bd9cb00eb"},"vehicle_type_id":"4","last_reported":1735323161,"current_range_meters":34800,"station_id":"ce4bgk12rcd13ifvqbj0","pricing_plan_id":"cebpf4jnsgd1na2vs0mg"},{"bike_id":"fb86dc07-2dc6-4bfa-b85e-9957685650ab","system_id":"levelo_inurba_marseille","lat":43.23062,"lon":5.35492,"is_reserved":false,"is_disabled":false,"rental_uris":{"android":"levelo://app?vid=fb86dc07-2dc6-4bfa-b85e-9957685650ab","ios":"levelo://app?vid=fb86dc07-2dc6-4bfa-b85e-9957685650ab"},"vehicle_type_id":"4","last_reported":1735323161,"current_range_meters":21600,"station_id":"cpo3342slgdg3j2ifvpg","pricing_plan_id":"cebpf4jnsgd1na2vs0mg"},{"bike_id":"d177b97f-9cb5-44b2-b733-700a96a10b48","system_id":"levelo_inurba_marseille","lat":43.30135,"lon":5.37409,"is_reserved":false,"is_disabled":false,"rental_uris":{"android":"levelo://app?vid=d177b97f-9cb5-44b2-b733-700a96a10b48","ios":"levelo://app?vid=d177b97f-9cb5-44b2-b733-700a96a10b48"},"vehicle_type_id":"4","last_reported":1735323161,"current_range_meters":20800,"station_id":"ce4bgs92rcd13ifvqcc0","pricing_plan_id":"cebpf4jnsgd1na2vs0mg"},{"bike_id":"3e339b28-ed5b-4cec-ba7e-37c849b1d4c9","system_id":"levelo_inurba_marseille","lat":43.25718,"lon":5.41106,"is_reserved":false,"is_disabled":false,"rental_uris":{"android":"levelo://app?vid=3e339b28-ed5b-4cec-ba7e-37c849b1d4c9","ios":"levelo://app?vid=3e339b28-ed5b-4cec-ba7e-37c849b1d4c9"},"vehicle_type_id":"4","last_reported":1735323161,"current_range_meters":6800,"station_id":"ce4bhkp2rcd13ifvqgd0","pricing_plan_id":"cebpf4jnsgd1na2vs0mg"},{"bike_id":"288eedc3-39cb-4c47-b8e4-e6853e25464f","system_id":"levelo_inurba_marseille","lat":43.27311,"lon":5.3909,"is_reserved":false,"is_disabled":false,"rental_uris":{"android":"levelo://app?vid=288eedc3-39cb-4c47-b8e4-e6853e25464f","ios":"levelo://app?vid=288eedc3-39cb-4c47-b8e4-e6853e25464f"},"vehicle_type_id":"4","last_reported":1735323161,"current_range_meters":13600,"station_id":"ce4bhgp2rcd13ifvqfe0","pricing_plan_id":"cebpf4jnsgd1na2vs0mg"},{"bike_id":"e98a805c-e650-49ec-ba9e-8011c6752253","system_id":"levelo_inurba_marseille","lat":43.29293,"lon":5.37471,"is_reserved":false,"is_disabled":false,"rental_uris":{"android":"levelo://app?vid=e98a805c-e650-49ec-ba9e-8011c6752253","ios":"levelo://app?vid=e98a805c-e650-49ec-ba9e-8011c6752253"},"vehicle_type_id":"4","last_reported":1735323161,"current_range_meters":35600,"station_id":"ce4bgi12rcd13ifvqb70","pricing_plan_id":"cebpf4jnsgd1na2vs0mg"},{"bike_id":"b020a060-05a0-4e1a-a87c-cc4826a79d9b","system_id":"levelo_inurba_marseille","lat":43.29618,"lon":5.37157,"is_reserved":false,"is_disabled":false,"rental_uris":{"android":"levelo://app?vid=b020a060-05a0-4e1a-a87c-cc4826a79d9b","ios":"levelo://app?vid=b020a060-05a0-4e1a-a87c-cc4826a79d9b"},"vehicle_type_id":"4","last_reported":1735323161,"current_range_meters":15200,"station_id":"ce4bgnh2rcd13ifvqc0g","pricing_plan_id":"cebpf4jnsgd1na2vs0mg"},{"bike_id":"258867d5-6dcc-426b-90e6-82a3c252e630","system_id":"levelo_inurba_marseille","lat":43.29573,"lon":5.37509,"is_reserved":false,"is_disabled":false,"rental_uris":{"android":"levelo://app?vid=258867d5-6dcc-426b-90e6-82a3c252e630","ios":"levelo://app?vid=258867d5-6dcc-426b-90e6-82a3c252e630"},"vehicle_type_id":"4","last_reported":1735323161,"current_range_meters":37600,"station_id":"ce4bgh92rcd13ifvqb50","pricing_plan_id":"cebpf4jnsgd1na2vs0mg"},{"bike_id":"09898dd2-84ad-4911-a21d-d1f0823964b3","system_id":"levelo_inurba_marseille","lat":43.29621,"lon":5.37711,"is_reserved":false,"is_disabled":false,"rental_uris":{"android":"levelo://app?vid=09898dd2-84ad-4911-a21d-d1f0823964b3","ios":"levelo://app?vid=09898dd2-84ad-4911-a21d-d1f0823964b3"},"vehicle_type_id":"4","last_reported":1735323161,"current_range_meters":38800,"station_id":"ce4bgi92rcd13ifvqb90","pricing_plan_id":"cebpf4jnsgd1na2vs0mg"},{"bike_id":"40eee063-b95d-4d32-aca8-c581cf8477cf","system_id":"levelo_inurba_marseille","lat":43.250096,"lon":5.389124,"is_reserved":false,"is_disabled":false,"rental_uris":{"android":"levelo://app?vid=40eee063-b95d-4d32-aca8-c581cf8477cf","ios":"levelo://app?vid=40eee063-b95d-4d32-aca8-c581cf8477cf"},"vehicle_type_id":"4","last_reported":1735323161,"current_range_meters":28000,"station_id":"ce4bhgp2rcd13ifvqfd0","pricing_plan_id":"cebpf4jnsgd1na2vs0mg"},{"bike_id":"dc6097a6-7f72-4ddd-80a8-14b9cd4ad602","system_id":"levelo_inurba_marseille","lat":43.30549,"lon":5.36676,"is_reserved":false,"is_disabled":false,"rental_uris":{"android":"levelo://app?vid=dc6097a6-7f72-4ddd-80a8-14b9cd4ad602","ios":"levelo://app?vid=dc6097a6-7f72-4ddd-80a8-14b9cd4ad602"},"vehicle_type_id":"4","last_reported":1735323161,"current_range_meters":30400,"station_id":"ce4bgrp2rcd13ifvqc9g","pricing_plan_id":"cebpf4jnsgd1na2vs0mg"},{"bike_id":"e27c1739-0eef-4015-9690-b38ad843f4c0","system_id":"levelo_inurba_marseille","lat":43.29272,"lon":5.38447,"is_reserved":false,"is_disabled":false,"rental_uris":{"android":"levelo://app?vid=e27c1739-0eef-4015-9690-b38ad843f4c0","ios":"levelo://app?vid=e27c1739-0eef-4015-9690-b38ad843f4c0"},"vehicle_type_id":"4","last_reported":1735323161,"current_range_meters":30800,"station_id":"ce4bh692rcd13ifvqea0","pricing_plan_id":"cebpf4jnsgd1na2vs0mg"},{"bike_id":"e5db37e4-c8a0-4f55-abf5-bfc07ab2c2b6","system_id":"levelo_inurba_marseille","lat":43.29902,"lon":5.38143,"is_reserved":false,"is_disabled":false,"rental_uris":{"android":"levelo://app?vid=e5db37e4-c8a0-4f55-abf5-bfc07ab2c2b6","ios":"levelo://app?vid=e5db37e4-c8a0-4f55-abf5-bfc07ab2c2b6"},"vehicle_type_id":"4","last_reported":1735323161,"current_range_meters":16000,"station_id":"ce4bgj12rcd13ifvqbc0","pricing_plan_id":"cebpf4jnsgd1na2vs0mg"},{"bike_id":"e23f0746-c9e0-42fb-821e-a43f737e9cb7","system_id":"levelo_inurba_marseille","lat":43.27844,"lon":5.39204,"is_reserved":false,"is_disabled":false,"rental_uris":{"android":"levelo://app?vid=e23f0746-c9e0-42fb-821e-a43f737e9cb7","ios":"levelo://app?vid=e23f0746-c9e0-42fb-821e-a43f737e9cb7"},"vehicle_type_id":"4","last_reported":1735323161,"current_range_meters":37600,"station_id":"ce4bhjp2rcd13ifvqga0","pricing_plan_id":"cebpf4jnsgd1na2vs0mg"},{"bike_id":"6fc39219-982d-4feb-9b3b-e1ba4db40afe","system_id":"levelo_inurba_marseille","lat":43.29594,"lon":5.3809,"is_reserved":false,"is_disabled":false,"rental_uris":{"android":"levelo://app?vid=6fc39219-982d-4feb-9b3b-e1ba4db40afe","ios":"levelo://app?vid=6fc39219-982d-4feb-9b3b-e1ba4db40afe"},"vehicle_type_id":"4","last_reported":1735323161,"current_range_meters":38800,"station_id":"ce4bgl12rcd13ifvqbo0","pricing_plan_id":"cebpf4jnsgd1na2vs0mg"},{"bike_id":"e73e6057-e6e9-407b-a17e-f4e119a96aba","system_id":"levelo_inurba_marseille","lat":43.32107,"lon":5.36774,"is_reserved":false,"is_disabled":false,"rental_uris":{"android":"levelo://app?vid=e73e6057-e6e9-407b-a17e-f4e119a96aba","ios":"levelo://app?vid=e73e6057-e6e9-407b-a17e-f4e119a96aba"},"vehicle_type_id":"4","last_reported":1735323161,"current_range_meters":20000,"station_id":"ce4bhrh2rcd13ifvqhug","pricing_plan_id":"cebpf4jnsgd1na2vs0mg"},{"bike_id":"b026491d-9aa1-442c-80e0-d4e7da5be861","system_id":"levelo_inurba_marseille","lat":43.29879,"lon":5.39735,"is_reserved":false,"is_disabled":false,"rental_uris":{"android":"levelo://app?vid=b026491d-9aa1-442c-80e0-d4e7da5be861","ios":"levelo://app?vid=b026491d-9aa1-442c-80e0-d4e7da5be861"},"vehicle_type_id":"4","last_reported":1735323161,"current_range_meters":35200,"station_id":"ce4bh0h2rcd13ifvqd50","pricing_plan_id":"cebpf4jnsgd1na2vs0mg"},{"bike_id":"ebd56e87-7995-466f-8deb-d37c3a725acc","system_id":"levelo_inurba_marseille","lat":43.30135,"lon":5.38774,"is_reserved":false,"is_disabled":false,"rental_uris":{"android":"levelo://app?vid=ebd56e87-7995-466f-8deb-d37c3a725acc","ios":"levelo://app?vid=ebd56e87-7995-466f-8deb-d37c3a725acc"},"vehicle_type_id":"4","last_reported":1735323161,"current_range_meters":38800,"station_id":"ce4bghh2rcd13ifvqb60","pricing_plan_id":"cebpf4jnsgd1na2vs0mg"},{"bike_id":"062008cc-a7ec-41fc-ab0a-02aee794153b","system_id":"levelo_inurba_marseille","lat":43.27067,"lon":5.42259,"is_reserved":false,"is_disabled":true,"rental_uris":{"android":"levelo://app?vid=062008cc-a7ec-41fc-ab0a-02aee794153b","ios":"levelo://app?vid=062008cc-a7ec-41fc-ab0a-02aee794153b"},"vehicle_type_id":"4","last_reported":1735323161,"current_range_meters":0,"station_id":"ce4bhk92rcd13ifvqgb0","pricing_plan_id":"cebpf4jnsgd1na2vs0mg"},{"bike_id":"57103b12-06fc-494b-9a1a-1903f8f245d5","system_id":"levelo_inurba_marseille","lat":43.27988,"lon":5.41654,"is_reserved":false,"is_disabled":false,"rental_uris":{"android":"levelo://app?vid=57103b12-06fc-494b-9a1a-1903f8f245d5","ios":"levelo://app?vid=57103b12-06fc-494b-9a1a-1903f8f245d5"},"vehicle_type_id":"4","last_reported":1735323161,"current_range_meters":26000,"station_id":"ce4bho12rcd13ifvqh1g","pricing_plan_id":"cebpf4jnsgd1na2vs0mg"},{"bike_id":"3cf1dd15-744f-4ef0-9415-449ce776ba35","system_id":"levelo_inurba_marseille","lat":43.27382,"lon":5.36254,"is_reserved":false,"is_disabled":false,"rental_uris":{"android":"levelo://app?vid=3cf1dd15-744f-4ef0-9415-449ce776ba35","ios":"levelo://app?vid=3cf1dd15-744f-4ef0-9415-449ce776ba35"},"vehicle_type_id":"4","last_reported":1735323161,"current_range_meters":9600,"station_id":"ce4bhbh2rcd13ifvqeo0","pricing_plan_id":"cebpf4jnsgd1na2vs0mg"},{"bike_id":"a8b15b40-c735-4785-9e6f-b7a38759516e","system_id":"levelo_inurba_marseille","lat":43.290893,"lon":5.38159,"is_reserved":false,"is_disabled":false,"rental_uris":{"android":"levelo://app?vid=a8b15b40-c735-4785-9e6f-b7a38759516e","ios":"levelo://app?vid=a8b15b40-c735-4785-9e6f-b7a38759516e"},"vehicle_type_id":"4","last_reported":1735323161,"current_range_meters":11200,"station_id":"ce4bh512rcd13ifvqe2g","pricing_plan_id":"cebpf4jnsgd1na2vs0mg"},{"bike_id":"e74aa3bd-fc70-438f-b737-5bc6afe3220e","system_id":"levelo_inurba_marseille","lat":43.28473,"lon":5.38429,"is_reserved":false,"is_disabled":false,"rental_uris":{"android":"levelo://app?vid=e74aa3bd-fc70-438f-b737-5bc6afe3220e","ios":"levelo://app?vid=e74aa3bd-fc70-438f-b737-5bc6afe3220e"},"vehicle_type_id":"4","last_reported":1735323161,"current_range_meters":26000,"station_id":"ce4bh512rcd13ifvqe3g","pricing_plan_id":"cebpf4jnsgd1na2vs0mg"},{"bike_id":"731ba9de-00dd-4cec-ab12-769c3978dcf6","system_id":"levelo_inurba_marseille","lat":43.32039,"lon":5.41576,"is_reserved":false,"is_disabled":false,"rental_uris":{"android":"levelo://app?vid=731ba9de-00dd-4cec-ab12-769c3978dcf6","ios":"levelo://app?vid=731ba9de-00dd-4cec-ab12-769c3978dcf6"},"vehicle_type_id":"4","last_reported":1735323161,"current_range_meters":36800,"station_id":"ce4bhq92rcd13ifvqhkg","pricing_plan_id":"cebpf4jnsgd1na2vs0mg"},{"bike_id":"9a6e3a7e-5a38-4778-8569-c4a718bdad09","system_id":"levelo_inurba_marseille","lat":43.28717,"lon":5.37942,"is_reserved":false,"is_disabled":false,"rental_uris":{"android":"levelo://app?vid=9a6e3a7e-5a38-4778-8569-c4a718bdad09","ios":"levelo://app?vid=9a6e3a7e-5a38-4778-8569-c4a718bdad09"},"vehicle_type_id":"4","last_reported":1735323161,"current_range_meters":12000,"station_id":"ce4bh9p2rcd13ifvqec0","pricing_plan_id":"cebpf4jnsgd1na2vs0mg"},{"bike_id":"96e14c54-0140-4802-a4fb-b66404aabb9d","system_id":"levelo_inurba_marseille","lat":43.29607,"lon":5.37717,"is_reserved":false,"is_disabled":false,"rental_uris":{"android":"levelo://app?vid=96e14c54-0140-4802-a4fb-b66404aabb9d","ios":"levelo://app?vid=96e14c54-0140-4802-a4fb-b66404aabb9d"},"vehicle_type_id":"4","last_reported":1735323161,"current_range_meters":27200,"station_id":"ce4bgi92rcd13ifvqb90","pricing_plan_id":"cebpf4jnsgd1na2vs0mg"},{"bike_id":"b398f9ec-3d69-4e65-8657-4986194d6615","system_id":"levelo_inurba_marseille","lat":43.30134,"lon":5.39878,"is_reserved":false,"is_disabled":false,"rental_uris":{"android":"levelo://app?vid=b398f9ec-3d69-4e65-8657-4986194d6615","ios":"levelo://app?vid=b398f9ec-3d69-4e65-8657-4986194d6615"},"vehicle_type_id":"4","last_reported":1735323161,"current_range_meters":30400,"station_id":"ce4bh0h2rcd13ifvqd40","pricing_plan_id":"cebpf4jnsgd1na2vs0mg"},{"bike_id":"bf075035-d901-41db-ae8f-dfcc1aedb23e","system_id":"levelo_inurba_marseille","lat":43.24093,"lon":5.37753,"is_reserved":false,"is_disabled":false,"rental_uris":{"android":"levelo://app?vid=bf075035-d901-41db-ae8f-dfcc1aedb23e","ios":"levelo://app?vid=bf075035-d901-41db-ae8f-dfcc1aedb23e"},"vehicle_type_id":"4","last_reported":1735323161,"current_range_meters":22000,"station_id":"ce4bhnp2rcd13ifvqgvg","pricing_plan_id":"cebpf4jnsgd1na2vs0mg"},{"bike_id":"22126555-c03b-4681-a32a-d90fa31f9794","system_id":"levelo_inurba_marseille","lat":43.30136,"lon":5.38785,"is_reserved":false,"is_disabled":false,"rental_uris":{"android":"levelo://app?vid=22126555-c03b-4681-a32a-d90fa31f9794","ios":"levelo://app?vid=22126555-c03b-4681-a32a-d90fa31f9794"},"vehicle_type_id":"4","last_reported":1735323161,"current_range_meters":23200,"station_id":"ce4bghh2rcd13ifvqb60","pricing_plan_id":"cebpf4jnsgd1na2vs0mg"},{"bike_id":"5f900647-c14e-451e-b352-f30b00097dda","system_id":"levelo_inurba_marseille","lat":43.30526,"lon":5.36717,"is_reserved":false,"is_disabled":false,"rental_uris":{"android":"levelo://app?vid=5f900647-c14e-451e-b352-f30b00097dda","ios":"levelo://app?vid=5f900647-c14e-451e-b352-f30b00097dda"},"vehicle_type_id":"4","last_reported":1735323161,"current_range_meters":38800,"station_id":"ce4bgrp2rcd13ifvqc9g","pricing_plan_id":"cebpf4jnsgd1na2vs0mg"},{"bike_id":"f523f994-10cd-4740-b49c-26b69297a317","system_id":"levelo_inurba_marseille","lat":43.25585,"lon":5.38235,"is_reserved":false,"is_disabled":false,"rental_uris":{"android":"levelo://app?vid=f523f994-10cd-4740-b49c-26b69297a317","ios":"levelo://app?vid=f523f994-10cd-4740-b49c-26b69297a317"},"vehicle_type_id":"4","last_reported":1735323161,"current_range_meters":35600,"station_id":"ce4bhih2rcd13ifvqfs0","pricing_plan_id":"cebpf4jnsgd1na2vs0mg"},{"bike_id":"06cb9db3-5173-4e30-b394-f221ce1c8457","system_id":"levelo_inurba_marseille","lat":43.30135,"lon":5.3987,"is_reserved":false,"is_disabled":false,"rental_uris":{"android":"levelo://app?vid=06cb9db3-5173-4e30-b394-f221ce1c8457","ios":"levelo://app?vid=06cb9db3-5173-4e30-b394-f221ce1c8457"},"vehicle_type_id":"4","last_reported":1735323161,"current_range_meters":27200,"station_id":"ce4bh0h2rcd13ifvqd40","pricing_plan_id":"cebpf4jnsgd1na2vs0mg"},{"bike_id":"71e6eecc-482e-4ed8-b40b-efc6ef9e702a","system_id":"levelo_inurba_marseille","lat":43.27494,"lon":5.42441,"is_reserved":false,"is_disabled":false,"rental_uris":{"android":"levelo://app?vid=71e6eecc-482e-4ed8-b40b-efc6ef9e702a","ios":"levelo://app?vid=71e6eecc-482e-4ed8-b40b-efc6ef9e702a"},"vehicle_type_id":"4","last_reported":1735323161,"current_range_meters":38800,"station_id":"ce4bhn92rcd13ifvqgrg","pricing_plan_id":"cebpf4jnsgd1na2vs0mg"},{"bike_id":"2f804e6e-ccd4-428b-b677-6ab1d1428323","system_id":"levelo_inurba_marseille","lat":43.29096,"lon":5.37157,"is_reserved":false,"is_disabled":false,"rental_uris":{"android":"levelo://app?vid=2f804e6e-ccd4-428b-b677-6ab1d1428323","ios":"levelo://app?vid=2f804e6e-ccd4-428b-b677-6ab1d1428323"},"vehicle_type_id":"4","last_reported":1735323161,"current_range_meters":24000,"station_id":"ce4bh5p2rcd13ifvqe4g","pricing_plan_id":"cebpf4jnsgd1na2vs0mg"},{"bike_id":"a3b5e29c-4425-483d-9fe4-2d25fea7803f","system_id":"levelo_inurba_marseille","lat":43.25019,"lon":5.3891,"is_reserved":false,"is_disabled":true,"rental_uris":{"android":"levelo://app?vid=a3b5e29c-4425-483d-9fe4-2d25fea7803f","ios":"levelo://app?vid=a3b5e29c-4425-483d-9fe4-2d25fea7803f"},"vehicle_type_id":"4","last_reported":1735323161,"current_range_meters":30800,"station_id":"ce4bhgp2rcd13ifvqfd0","pricing_plan_id":"cebpf4jnsgd1na2vs0mg"},{"bike_id":"5f4a2e38-74b5-4a61-9b7b-9f8a076c61ce","system_id":"levelo_inurba_marseille","lat":43.2894,"lon":5.36632,"is_reserved":false,"is_disabled":false,"rental_uris":{"android":"levelo://app?vid=5f4a2e38-74b5-4a61-9b7b-9f8a076c61ce","ios":"levelo://app?vid=5f4a2e38-74b5-4a61-9b7b-9f8a076c61ce"},"vehicle_type_id":"4","last_reported":1735323161,"current_range_meters":31200,"station_id":"ce4bhap2rcd13ifvqek0","pricing_plan_id":"cebpf4jnsgd1na2vs0mg"},{"bike_id":"a4116148-5949-4a4e-a470-3f07e82f513c","system_id":"levelo_inurba_marseille","lat":43.29612,"lon":5.3771,"is_reserved":false,"is_disabled":false,"rental_uris":{"android":"levelo://app?vid=a4116148-5949-4a4e-a470-3f07e82f513c","ios":"levelo://app?vid=a4116148-5949-4a4e-a470-3f07e82f513c"},"vehicle_type_id":"4","last_reported":1735323161,"current_range_meters":30400,"station_id":"ce4bgi92rcd13ifvqb90","pricing_plan_id":"cebpf4jnsgd1na2vs0mg"},{"bike_id":"ced151f5-4c79-4a37-9365-9728a8712301","system_id":"levelo_inurba_marseille","lat":43.28436,"lon":5.35909,"is_reserved":false,"is_disabled":false,"rental_uris":{"android":"levelo://app?vid=ced151f5-4c79-4a37-9365-9728a8712301","ios":"levelo://app?vid=ced151f5-4c79-4a37-9365-9728a8712301"},"vehicle_type_id":"4","last_reported":1735323161,"current_range_meters":27600,"station_id":"ce4bhah2rcd13ifvqei0","pricing_plan_id":"cebpf4jnsgd1na2vs0mg"},{"bike_id":"2ef3cadb-4938-410b-af4c-81b56131356d","system_id":"levelo_inurba_marseille","lat":43.248027,"lon":5.374693,"is_reserved":false,"is_disabled":false,"rental_uris":{"android":"levelo://app?vid=2ef3cadb-4938-410b-af4c-81b56131356d","ios":"levelo://app?vid=2ef3cadb-4938-410b-af4c-81b56131356d"},"vehicle_type_id":"4","last_reported":1735323161,"current_range_meters":18000,"station_id":"ce4bhgh2rcd13ifvqfb0","pricing_plan_id":"cebpf4jnsgd1na2vs0mg"},{"bike_id":"f3d181d2-be7a-432e-b602-2eac2c046295","system_id":"levelo_inurba_marseille","lat":43.28276,"lon":5.35049,"is_reserved":false,"is_disabled":true,"rental_uris":{"android":"levelo://app?vid=f3d181d2-be7a-432e-b602-2eac2c046295","ios":"levelo://app?vid=f3d181d2-be7a-432e-b602-2eac2c046295"},"vehicle_type_id":"4","last_reported":1735323161,"current_range_meters":33600,"station_id":"ce4bhbp2rcd13ifvqerg","pricing_plan_id":"cebpf4jnsgd1na2vs0mg"},{"bike_id":"7bd44d09-e872-4291-b548-1cbe40f16cac","system_id":"levelo_inurba_marseille","lat":43.28155,"lon":5.42639,"is_reserved":false,"is_disabled":false,"rental_uris":{"android":"levelo://app?vid=7bd44d09-e872-4291-b548-1cbe40f16cac","ios":"levelo://app?vid=7bd44d09-e872-4291-b548-1cbe40f16cac"},"vehicle_type_id":"4","last_reported":1735323161,"current_range_meters":32000,"station_id":"ce4bhnh2rcd13ifvqgug","pricing_plan_id":"cebpf4jnsgd1na2vs0mg"},{"bike_id":"060398a9-6334-44ac-a6c5-5c43fde1b04d","system_id":"levelo_inurba_marseille","lat":43.27375,"lon":5.36246,"is_reserved":false,"is_disabled":true,"rental_uris":{"android":"levelo://app?vid=060398a9-6334-44ac-a6c5-5c43fde1b04d","ios":"levelo://app?vid=060398a9-6334-44ac-a6c5-5c43fde1b04d"},"vehicle_type_id":"4","last_reported":1735323161,"current_range_meters":0,"station_id":"ce4bhbh2rcd13ifvqeo0","pricing_plan_id":"cebpf4jnsgd1na2vs0mg"},{"bike_id":"922d96e0-acae-4671-b577-55b4db4bd6b2","system_id":"levelo_inurba_marseille","lat":43.31754,"lon":5.39018,"is_reserved":false,"is_disabled":false,"rental_uris":{"android":"levelo://app?vid=922d96e0-acae-4671-b577-55b4db4bd6b2","ios":"levelo://app?vid=922d96e0-acae-4671-b577-55b4db4bd6b2"},"vehicle_type_id":"4","last_reported":1735323161,"current_range_meters":31200,"station_id":"ce4bhqp2rcd13ifvqhng","pricing_plan_id":"cebpf4jnsgd1na2vs0mg"},{"bike_id":"d20eece3-81ae-4d16-b4a5-1de97278bc94","system_id":"levelo_inurba_marseille","lat":43.29254,"lon":5.38439,"is_reserved":false,"is_disabled":false,"rental_uris":{"android":"levelo://app?vid=d20eece3-81ae-4d16-b4a5-1de97278bc94","ios":"levelo://app?vid=d20eece3-81ae-4d16-b4a5-1de97278bc94"},"vehicle_type_id":"4","last_reported":1735323161,"current_range_meters":39200,"station_id":"ce4bh692rcd13ifvqea0","pricing_plan_id":"cebpf4jnsgd1na2vs0mg"},{"bike_id":"048f6d5f-28d1-4838-a319-20e23af36c3c","system_id":"levelo_inurba_marseille","lat":43.30415,"lon":5.41287,"is_reserved":false,"is_disabled":true,"rental_uris":{"android":"levelo://app?vid=048f6d5f-28d1-4838-a319-20e23af36c3c","ios":"levelo://app?vid=048f6d5f-28d1-4838-a319-20e23af36c3c"},"vehicle_type_id":"4","last_reported":1735323161,"current_range_meters":36000,"station_id":"ce4bhop2rcd13ifvqh8g","pricing_plan_id":"cebpf4jnsgd1na2vs0mg"},{"bike_id":"1f03e07b-50b0-4a9e-bd03-dc766534a5b3","system_id":"levelo_inurba_marseille","lat":43.25587,"lon":5.38245,"is_reserved":false,"is_disabled":false,"rental_uris":{"android":"levelo://app?vid=1f03e07b-50b0-4a9e-bd03-dc766534a5b3","ios":"levelo://app?vid=1f03e07b-50b0-4a9e-bd03-dc766534a5b3"},"vehicle_type_id":"4","last_reported":1735323161,"current_range_meters":39200,"station_id":"ce4bhih2rcd13ifvqfs0","pricing_plan_id":"cebpf4jnsgd1na2vs0mg"},{"bike_id":"d07f067e-1574-44e7-bb84-4c02908e4e0d","system_id":"levelo_inurba_marseille","lat":43.28571,"lon":5.39494,"is_reserved":false,"is_disabled":false,"rental_uris":{"android":"levelo://app?vid=d07f067e-1574-44e7-bb84-4c02908e4e0d","ios":"levelo://app?vid=d07f067e-1574-44e7-bb84-4c02908e4e0d"},"vehicle_type_id":"4","last_reported":1735323161,"current_range_meters":38400,"station_id":"ce4bh292rcd13ifvqdg0","pricing_plan_id":"cebpf4jnsgd1na2vs0mg"},{"bike_id":"c6834b76-82f1-466a-8b2d-118839d142cc","system_id":"levelo_inurba_marseille","lat":43.298965,"lon":5.436648,"is_reserved":false,"is_disabled":false,"rental_uris":{"android":"levelo://app?vid=c6834b76-82f1-466a-8b2d-118839d142cc","ios":"levelo://app?vid=c6834b76-82f1-466a-8b2d-118839d142cc"},"vehicle_type_id":"4","last_reported":1735323161,"current_range_meters":37600,"station_id":"ce4bhpp2rcd13ifvqhfg","pricing_plan_id":"cebpf4jnsgd1na2vs0mg"},{"bike_id":"359ddae0-5d3f-4b29-8d32-daa2bb9138da","system_id":"levelo_inurba_marseille","lat":43.29727,"lon":5.37687,"is_reserved":false,"is_disabled":false,"rental_uris":{"android":"levelo://app?vid=359ddae0-5d3f-4b29-8d32-daa2bb9138da","ios":"levelo://app?vid=359ddae0-5d3f-4b29-8d32-daa2bb9138da"},"vehicle_type_id":"4","last_reported":1735323161,"current_range_meters":37600,"station_id":"ce4bgkh2rcd13ifvqbl0","pricing_plan_id":"cebpf4jnsgd1na2vs0mg"},{"bike_id":"1107b56a-98a5-4a01-8449-9eba086fee5a","system_id":"levelo_inurba_marseille","lat":43.29073,"lon":5.39883,"is_reserved":false,"is_disabled":false,"rental_uris":{"android":"levelo://app?vid=1107b56a-98a5-4a01-8449-9eba086fee5a","ios":"levelo://app?vid=1107b56a-98a5-4a01-8449-9eba086fee5a"},"vehicle_type_id":"4","last_reported":1735323161,"current_range_meters":24000,"station_id":"","pricing_plan_id":"cebpf4jnsgd1na2vs0mg"},{"bike_id":"be6d6cb3-d184-4351-b8a0-4175739f8041","system_id":"levelo_inurba_marseille","lat":43.29221,"lon":5.36072,"is_reserved":false,"is_disabled":false,"rental_uris":{"android":"levelo://app?vid=be6d6cb3-d184-4351-b8a0-4175739f8041","ios":"levelo://app?vid=be6d6cb3-d184-4351-b8a0-4175739f8041"},"vehicle_type_id":"4","last_reported":1735323161,"current_range_meters":37600,"station_id":"ce4bhbh2rcd13ifvqeqg","pricing_plan_id":"cebpf4jnsgd1na2vs0mg"},{"bike_id":"11a0ffca-220f-4915-8ee5-56db1deea1c4","system_id":"levelo_inurba_marseille","lat":43.29567,"lon":5.37511,"is_reserved":false,"is_disabled":false,"rental_uris":{"android":"levelo://app?vid=11a0ffca-220f-4915-8ee5-56db1deea1c4","ios":"levelo://app?vid=11a0ffca-220f-4915-8ee5-56db1deea1c4"},"vehicle_type_id":"4","last_reported":1735323161,"current_range_meters":33600,"station_id":"ce4bgh92rcd13ifvqb50","pricing_plan_id":"cebpf4jnsgd1na2vs0mg"},{"bike_id":"dc4f15fa-6d05-4205-b4be-fba68cc03616","system_id":"levelo_inurba_marseille","lat":43.29587,"lon":5.38109,"is_reserved":false,"is_disabled":false,"rental_uris":{"android":"levelo://app?vid=dc4f15fa-6d05-4205-b4be-fba68cc03616","ios":"levelo://app?vid=dc4f15fa-6d05-4205-b4be-fba68cc03616"},"vehicle_type_id":"4","last_reported":1735323161,"current_range_meters":38800,"station_id":"ce4bgl12rcd13ifvqbo0","pricing_plan_id":"cebpf4jnsgd1na2vs0mg"},{"bike_id":"011402b4-5a26-4984-8433-55d86d515fdd","system_id":"levelo_inurba_marseille","lat":43.27814,"lon":5.40714,"is_reserved":false,"is_disabled":false,"rental_uris":{"android":"levelo://app?vid=011402b4-5a26-4984-8433-55d86d515fdd","ios":"levelo://app?vid=011402b4-5a26-4984-8433-55d86d515fdd"},"vehicle_type_id":"4","last_reported":1735323161,"current_range_meters":32000,"station_id":"ce4bhnh2rcd13ifvqgtg","pricing_plan_id":"cebpf4jnsgd1na2vs0mg"},{"bike_id":"4485f98a-c081-40ff-aeab-5967b9ceab6a","system_id":"levelo_inurba_marseille","lat":43.30674,"lon":5.38198,"is_reserved":false,"is_disabled":false,"rental_uris":{"android":"levelo://app?vid=4485f98a-c081-40ff-aeab-5967b9ceab6a","ios":"levelo://app?vid=4485f98a-c081-40ff-aeab-5967b9ceab6a"},"vehicle_type_id":"4","last_reported":1735323161,"current_range_meters":28000,"station_id":"","pricing_plan_id":"cebpf4jnsgd1na2vs0mg"},{"bike_id":"5608df94-b66e-460e-9f45-682a8f36b500","system_id":"levelo_inurba_marseille","lat":43.26959,"lon":5.38858,"is_reserved":false,"is_disabled":false,"rental_uris":{"android":"levelo://app?vid=5608df94-b66e-460e-9f45-682a8f36b500","ios":"levelo://app?vid=5608df94-b66e-460e-9f45-682a8f36b500"},"vehicle_type_id":"4","last_reported":1735323161,"current_range_meters":37600,"station_id":"","pricing_plan_id":"cebpf4jnsgd1na2vs0mg"},{"bike_id":"3fbbac4e-077e-476b-9b1a-9cc6e989ecb0","system_id":"levelo_inurba_marseille","lat":43.25005,"lon":5.38916,"is_reserved":false,"is_disabled":false,"rental_uris":{"android":"levelo://app?vid=3fbbac4e-077e-476b-9b1a-9cc6e989ecb0","ios":"levelo://app?vid=3fbbac4e-077e-476b-9b1a-9cc6e989ecb0"},"vehicle_type_id":"4","last_reported":1735323161,"current_range_meters":37600,"station_id":"ce4bhgp2rcd13ifvqfd0","pricing_plan_id":"cebpf4jnsgd1na2vs0mg"},{"bike_id":"43e9c8e5-d9c1-4a37-9bc0-1d2d3194ee53","system_id":"levelo_inurba_marseille","lat":43.27622,"lon":5.36098,"is_reserved":false,"is_disabled":false,"rental_uris":{"android":"levelo://app?vid=43e9c8e5-d9c1-4a37-9bc0-1d2d3194ee53","ios":"levelo://app?vid=43e9c8e5-d9c1-4a37-9bc0-1d2d3194ee53"},"vehicle_type_id":"4","last_reported":1735323161,"current_range_meters":14000,"station_id":"ce4bgj92rcd13ifvqbe0","pricing_plan_id":"cebpf4jnsgd1na2vs0mg"},{"bike_id":"c5b8925e-86b7-43a6-abd5-843b764256c0","system_id":"levelo_inurba_marseille","lat":43.27945,"lon":5.41047,"is_reserved":false,"is_disabled":false,"rental_uris":{"android":"levelo://app?vid=c5b8925e-86b7-43a6-abd5-843b764256c0","ios":"levelo://app?vid=c5b8925e-86b7-43a6-abd5-843b764256c0"},"vehicle_type_id":"4","last_reported":1735323161,"current_range_meters":30000,"station_id":"ce4bhnp2rcd13ifvqh0g","pricing_plan_id":"cebpf4jnsgd1na2vs0mg"},{"bike_id":"d0ac690d-0efe-47fa-9059-f0f7881223f1","system_id":"levelo_inurba_marseille","lat":43.29672,"lon":5.37699,"is_reserved":false,"is_disabled":false,"rental_uris":{"android":"levelo://app?vid=d0ac690d-0efe-47fa-9059-f0f7881223f1","ios":"levelo://app?vid=d0ac690d-0efe-47fa-9059-f0f7881223f1"},"vehicle_type_id":"4","last_reported":1735323161,"current_range_meters":35200,"station_id":"ce4bgkh2rcd13ifvqbl0","pricing_plan_id":"cebpf4jnsgd1na2vs0mg"},{"bike_id":"e203eede-93d4-4367-be9a-c6d93cdc799f","system_id":"levelo_inurba_marseille","lat":43.29929,"lon":5.36536,"is_reserved":false,"is_disabled":false,"rental_uris":{"android":"levelo://app?vid=e203eede-93d4-4367-be9a-c6d93cdc799f","ios":"levelo://app?vid=e203eede-93d4-4367-be9a-c6d93cdc799f"},"vehicle_type_id":"4","last_reported":1735323161,"current_range_meters":20000,"station_id":"ce4bgm92rcd13ifvqbr0","pricing_plan_id":"cebpf4jnsgd1na2vs0mg"},{"bike_id":"7bf52d63-2aa8-479d-a80d-358abe7b935a","system_id":"levelo_inurba_marseille","lat":43.29264,"lon":5.38448,"is_reserved":false,"is_disabled":false,"rental_uris":{"android":"levelo://app?vid=7bf52d63-2aa8-479d-a80d-358abe7b935a","ios":"levelo://app?vid=7bf52d63-2aa8-479d-a80d-358abe7b935a"},"vehicle_type_id":"4","last_reported":1735323161,"current_range_meters":39200,"station_id":"ce4bh692rcd13ifvqea0","pricing_plan_id":"cebpf4jnsgd1na2vs0mg"},{"bike_id":"ca61230a-fcf3-4e69-aec9-098bfbc065a8","system_id":"levelo_inurba_marseille","lat":43.297008,"lon":5.376785,"is_reserved":false,"is_disabled":false,"rental_uris":{"android":"levelo://app?vid=ca61230a-fcf3-4e69-aec9-098bfbc065a8","ios":"levelo://app?vid=ca61230a-fcf3-4e69-aec9-098bfbc065a8"},"vehicle_type_id":"4","last_reported":1735323161,"current_range_meters":25200,"station_id":"ce4bgkh2rcd13ifvqbl0","pricing_plan_id":"cebpf4jnsgd1na2vs0mg"},{"bike_id":"41e441a8-4ad2-4bf0-81ba-96c35feaf6d8","system_id":"levelo_inurba_marseille","lat":43.28156,"lon":5.42642,"is_reserved":false,"is_disabled":false,"rental_uris":{"android":"levelo://app?vid=41e441a8-4ad2-4bf0-81ba-96c35feaf6d8","ios":"levelo://app?vid=41e441a8-4ad2-4bf0-81ba-96c35feaf6d8"},"vehicle_type_id":"4","last_reported":1735323161,"current_range_meters":37600,"station_id":"ce4bhnh2rcd13ifvqgug","pricing_plan_id":"cebpf4jnsgd1na2vs0mg"},{"bike_id":"a25819d3-be17-4947-b999-ef13378a38e4","system_id":"levelo_inurba_marseille","lat":43.299118,"lon":5.374672,"is_reserved":false,"is_disabled":false,"rental_uris":{"android":"levelo://app?vid=a25819d3-be17-4947-b999-ef13378a38e4","ios":"levelo://app?vid=a25819d3-be17-4947-b999-ef13378a38e4"},"vehicle_type_id":"4","last_reported":1735323161,"current_range_meters":29600,"station_id":"ce4bgjh2rcd13ifvqbg0","pricing_plan_id":"cebpf4jnsgd1na2vs0mg"},{"bike_id":"7a2623d1-6035-4860-82fb-88bc9431903f","system_id":"levelo_inurba_marseille","lat":43.27366,"lon":5.36255,"is_reserved":false,"is_disabled":false,"rental_uris":{"android":"levelo://app?vid=7a2623d1-6035-4860-82fb-88bc9431903f","ios":"levelo://app?vid=7a2623d1-6035-4860-82fb-88bc9431903f"},"vehicle_type_id":"4","last_reported":1735323161,"current_range_meters":35200,"station_id":"ce4bhbh2rcd13ifvqeo0","pricing_plan_id":"cebpf4jnsgd1na2vs0mg"},{"bike_id":"ca6420db-70b8-41b0-8d3d-5846a4552aa5","system_id":"levelo_inurba_marseille","lat":43.29029,"lon":5.35915,"is_reserved":false,"is_disabled":false,"rental_uris":{"android":"levelo://app?vid=ca6420db-70b8-41b0-8d3d-5846a4552aa5","ios":"levelo://app?vid=ca6420db-70b8-41b0-8d3d-5846a4552aa5"},"vehicle_type_id":"4","last_reported":1735323161,"current_range_meters":33600,"station_id":"ce4bha92rcd13ifvqeg0","pricing_plan_id":"cebpf4jnsgd1na2vs0mg"},{"bike_id":"0040c17c-e92e-44b5-a6fb-3621bcac561f","system_id":"levelo_inurba_marseille","lat":43.27068,"lon":5.4227,"is_reserved":false,"is_disabled":false,"rental_uris":{"android":"levelo://app?vid=0040c17c-e92e-44b5-a6fb-3621bcac561f","ios":"levelo://app?vid=0040c17c-e92e-44b5-a6fb-3621bcac561f"},"vehicle_type_id":"4","last_reported":1735323161,"current_range_meters":28400,"station_id":"ce4bhk92rcd13ifvqgb0","pricing_plan_id":"cebpf4jnsgd1na2vs0mg"},{"bike_id":"705ab4c6-e818-4d06-b513-caca4e703da9","system_id":"levelo_inurba_marseille","lat":43.30645,"lon":5.40099,"is_reserved":false,"is_disabled":true,"rental_uris":{"android":"levelo://app?vid=705ab4c6-e818-4d06-b513-caca4e703da9","ios":"levelo://app?vid=705ab4c6-e818-4d06-b513-caca4e703da9"},"vehicle_type_id":"4","last_reported":1735323161,"current_range_meters":800,"station_id":"ce4bh112rcd13ifvqda0","pricing_plan_id":"cebpf4jnsgd1na2vs0mg"},{"bike_id":"05657784-be92-4416-8a36-e6243f6dcba4","system_id":"levelo_inurba_marseille","lat":43.30548,"lon":5.36536,"is_reserved":false,"is_disabled":false,"rental_uris":{"android":"levelo://app?vid=05657784-be92-4416-8a36-e6243f6dcba4","ios":"levelo://app?vid=05657784-be92-4416-8a36-e6243f6dcba4"},"vehicle_type_id":"4","last_reported":1735323161,"current_range_meters":38800,"station_id":"ce4bgs12rcd13ifvqcag","pricing_plan_id":"cebpf4jnsgd1na2vs0mg"},{"bike_id":"416ab53b-279a-422e-99c8-cc6e97f84422","system_id":"levelo_inurba_marseille","lat":43.29567,"lon":5.37502,"is_reserved":false,"is_disabled":false,"rental_uris":{"android":"levelo://app?vid=416ab53b-279a-422e-99c8-cc6e97f84422","ios":"levelo://app?vid=416ab53b-279a-422e-99c8-cc6e97f84422"},"vehicle_type_id":"4","last_reported":1735323161,"current_range_meters":38800,"station_id":"ce4bgh92rcd13ifvqb50","pricing_plan_id":"cebpf4jnsgd1na2vs0mg"},{"bike_id":"1408272d-67f7-459e-a46d-fa750336aad5","system_id":"levelo_inurba_marseille","lat":43.29563,"lon":5.37499,"is_reserved":false,"is_disabled":false,"rental_uris":{"android":"levelo://app?vid=1408272d-67f7-459e-a46d-fa750336aad5","ios":"levelo://app?vid=1408272d-67f7-459e-a46d-fa750336aad5"},"vehicle_type_id":"4","last_reported":1735323161,"current_range_meters":38000,"station_id":"ce4bgh92rcd13ifvqb50","pricing_plan_id":"cebpf4jnsgd1na2vs0mg"},{"bike_id":"9729fc41-f9c3-49f6-b29a-3e005f0daeb5","system_id":"levelo_inurba_marseille","lat":43.2307,"lon":5.35491,"is_reserved":false,"is_disabled":false,"rental_uris":{"android":"levelo://app?vid=9729fc41-f9c3-49f6-b29a-3e005f0daeb5","ios":"levelo://app?vid=9729fc41-f9c3-49f6-b29a-3e005f0daeb5"},"vehicle_type_id":"4","last_reported":1735323161,"current_range_meters":22800,"station_id":"cpo3342slgdg3j2ifvpg","pricing_plan_id":"cebpf4jnsgd1na2vs0mg"},{"bike_id":"01db7d1c-3388-47d9-8d30-2ae8980fde05","system_id":"levelo_inurba_marseille","lat":43.29593,"lon":5.37706,"is_reserved":false,"is_disabled":false,"rental_uris":{"android":"levelo://app?vid=01db7d1c-3388-47d9-8d30-2ae8980fde05","ios":"levelo://app?vid=01db7d1c-3388-47d9-8d30-2ae8980fde05"},"vehicle_type_id":"4","last_reported":1735323161,"current_range_meters":28000,"station_id":"ce4bgi92rcd13ifvqb90","pricing_plan_id":"cebpf4jnsgd1na2vs0mg"},{"bike_id":"790bcdbc-58a4-48d8-b411-c2f10b50baec","system_id":"levelo_inurba_marseille","lat":43.28611,"lon":5.35103,"is_reserved":false,"is_disabled":false,"rental_uris":{"android":"levelo://app?vid=790bcdbc-58a4-48d8-b411-c2f10b50baec","ios":"levelo://app?vid=790bcdbc-58a4-48d8-b411-c2f10b50baec"},"vehicle_type_id":"4","last_reported":1735323161,"current_range_meters":25200,"station_id":"ce4bhch2rcd13ifvqeug","pricing_plan_id":"cebpf4jnsgd1na2vs0mg"},{"bike_id":"356fd92d-e963-40e6-b40e-58fc72ac9553","system_id":"levelo_inurba_marseille","lat":43.32106,"lon":5.367689,"is_reserved":false,"is_disabled":false,"rental_uris":{"android":"levelo://app?vid=356fd92d-e963-40e6-b40e-58fc72ac9553","ios":"levelo://app?vid=356fd92d-e963-40e6-b40e-58fc72ac9553"},"vehicle_type_id":"4","last_reported":1735323161,"current_range_meters":18800,"station_id":"ce4bhrh2rcd13ifvqhug","pricing_plan_id":"cebpf4jnsgd1na2vs0mg"},{"bike_id":"90c942c7-cc9f-4ca0-a4bf-cccb4ac71e6f","system_id":"levelo_inurba_marseille","lat":43.25723,"lon":5.41106,"is_reserved":false,"is_disabled":false,"rental_uris":{"android":"levelo://app?vid=90c942c7-cc9f-4ca0-a4bf-cccb4ac71e6f","ios":"levelo://app?vid=90c942c7-cc9f-4ca0-a4bf-cccb4ac71e6f"},"vehicle_type_id":"4","last_reported":1735323161,"current_range_meters":36800,"station_id":"ce4bhkp2rcd13ifvqgd0","pricing_plan_id":"cebpf4jnsgd1na2vs0mg"},{"bike_id":"0ab81e67-7e28-4b38-8b6e-0f680e45cc36","system_id":"levelo_inurba_marseille","lat":43.26213,"lon":5.37441,"is_reserved":false,"is_disabled":false,"rental_uris":{"android":"levelo://app?vid=0ab81e67-7e28-4b38-8b6e-0f680e45cc36","ios":"levelo://app?vid=0ab81e67-7e28-4b38-8b6e-0f680e45cc36"},"vehicle_type_id":"4","last_reported":1735323161,"current_range_meters":26000,"station_id":"ce4bhgp2rcd13ifvqfc0","pricing_plan_id":"cebpf4jnsgd1na2vs0mg"},{"bike_id":"f66cbc3b-6079-421f-9e5f-33651345fade","system_id":"levelo_inurba_marseille","lat":43.2952,"lon":5.3904,"is_reserved":false,"is_disabled":false,"rental_uris":{"android":"levelo://app?vid=f66cbc3b-6079-421f-9e5f-33651345fade","ios":"levelo://app?vid=f66cbc3b-6079-421f-9e5f-33651345fade"},"vehicle_type_id":"4","last_reported":1735323161,"current_range_meters":20400,"station_id":"ce4bh3p2rcd13ifvqdp0","pricing_plan_id":"cebpf4jnsgd1na2vs0mg"},{"bike_id":"2123428a-af99-4426-928c-df18994f7214","system_id":"levelo_inurba_marseille","lat":43.30144,"lon":5.3877,"is_reserved":false,"is_disabled":false,"rental_uris":{"android":"levelo://app?vid=2123428a-af99-4426-928c-df18994f7214","ios":"levelo://app?vid=2123428a-af99-4426-928c-df18994f7214"},"vehicle_type_id":"4","last_reported":1735323161,"current_range_meters":38800,"station_id":"ce4bghh2rcd13ifvqb60","pricing_plan_id":"cebpf4jnsgd1na2vs0mg"},{"bike_id":"6f85edb9-f3a8-459e-940a-43bd7fb0b2dd","system_id":"levelo_inurba_marseille","lat":43.29576,"lon":5.37502,"is_reserved":false,"is_disabled":false,"rental_uris":{"android":"levelo://app?vid=6f85edb9-f3a8-459e-940a-43bd7fb0b2dd","ios":"levelo://app?vid=6f85edb9-f3a8-459e-940a-43bd7fb0b2dd"},"vehicle_type_id":"4","last_reported":1735323161,"current_range_meters":16400,"station_id":"ce4bgh92rcd13ifvqb50","pricing_plan_id":"cebpf4jnsgd1na2vs0mg"},{"bike_id":"b79dcc11-431a-409f-ae93-0024bb291ecf","system_id":"levelo_inurba_marseille","lat":43.30559,"lon":5.36507,"is_reserved":false,"is_disabled":false,"rental_uris":{"android":"levelo://app?vid=b79dcc11-431a-409f-ae93-0024bb291ecf","ios":"levelo://app?vid=b79dcc11-431a-409f-ae93-0024bb291ecf"},"vehicle_type_id":"4","last_reported":1735323161,"current_range_meters":30800,"station_id":"ce4bgs12rcd13ifvqcag","pricing_plan_id":"cebpf4jnsgd1na2vs0mg"},{"bike_id":"f9a2b08b-cf6e-4718-83ed-8ec820772c21","system_id":"levelo_inurba_marseille","lat":43.28683,"lon":5.38666,"is_reserved":false,"is_disabled":false,"rental_uris":{"android":"levelo://app?vid=f9a2b08b-cf6e-4718-83ed-8ec820772c21","ios":"levelo://app?vid=f9a2b08b-cf6e-4718-83ed-8ec820772c21"},"vehicle_type_id":"4","last_reported":1735323161,"current_range_meters":28000,"station_id":"ce4bh492rcd13ifvqdug","pricing_plan_id":"cebpf4jnsgd1na2vs0mg"},{"bike_id":"01fed048-1469-43f6-badd-acb5b8823391","system_id":"levelo_inurba_marseille","lat":43.30935,"lon":5.4015,"is_reserved":false,"is_disabled":false,"rental_uris":{"android":"levelo://app?vid=01fed048-1469-43f6-badd-acb5b8823391","ios":"levelo://app?vid=01fed048-1469-43f6-badd-acb5b8823391"},"vehicle_type_id":"4","last_reported":1735323161,"current_range_meters":25600,"station_id":"ce4bgvp2rcd13ifvqct0","pricing_plan_id":"cebpf4jnsgd1na2vs0mg"},{"bike_id":"673ed0fe-3027-4e1f-9efc-2804b0e32190","system_id":"levelo_inurba_marseille","lat":43.2668,"lon":5.38272,"is_reserved":false,"is_disabled":false,"rental_uris":{"android":"levelo://app?vid=673ed0fe-3027-4e1f-9efc-2804b0e32190","ios":"levelo://app?vid=673ed0fe-3027-4e1f-9efc-2804b0e32190"},"vehicle_type_id":"4","last_reported":1735323161,"current_range_meters":17200,"station_id":"ce4bhg92rcd13ifvqf90","pricing_plan_id":"cebpf4jnsgd1na2vs0mg"},{"bike_id":"d867ab7d-c5ed-4841-b9e5-8e2221fa856c","system_id":"levelo_inurba_marseille","lat":43.28726,"lon":5.37947,"is_reserved":false,"is_disabled":false,"rental_uris":{"android":"levelo://app?vid=d867ab7d-c5ed-4841-b9e5-8e2221fa856c","ios":"levelo://app?vid=d867ab7d-c5ed-4841-b9e5-8e2221fa856c"},"vehicle_type_id":"4","last_reported":1735323161,"current_range_meters":10800,"station_id":"ce4bh9p2rcd13ifvqec0","pricing_plan_id":"cebpf4jnsgd1na2vs0mg"},{"bike_id":"3cd9ef92-2c45-4c52-98db-82d242548cf4","system_id":"levelo_inurba_marseille","lat":43.321,"lon":5.36856,"is_reserved":false,"is_disabled":false,"rental_uris":{"android":"levelo://app?vid=3cd9ef92-2c45-4c52-98db-82d242548cf4","ios":"levelo://app?vid=3cd9ef92-2c45-4c52-98db-82d242548cf4"},"vehicle_type_id":"4","last_reported":1735323161,"current_range_meters":38000,"station_id":"","pricing_plan_id":"cebpf4jnsgd1na2vs0mg"},{"bike_id":"cea67dd1-0f47-46a2-b9dd-372d29382549","system_id":"levelo_inurba_marseille","lat":43.2848,"lon":5.38558,"is_reserved":false,"is_disabled":false,"rental_uris":{"android":"levelo://app?vid=cea67dd1-0f47-46a2-b9dd-372d29382549","ios":"levelo://app?vid=cea67dd1-0f47-46a2-b9dd-372d29382549"},"vehicle_type_id":"4","last_reported":1735323161,"current_range_meters":39200,"station_id":"ce4bh8p2rcd13ifvqeb0","pricing_plan_id":"cebpf4jnsgd1na2vs0mg"},{"bike_id":"89a34ab5-33bd-4467-a39b-018936279583","system_id":"levelo_inurba_marseille","lat":43.28664,"lon":5.36357,"is_reserved":false,"is_disabled":false,"rental_uris":{"android":"levelo://app?vid=89a34ab5-33bd-4467-a39b-018936279583","ios":"levelo://app?vid=89a34ab5-33bd-4467-a39b-018936279583"},"vehicle_type_id":"4","last_reported":1735323161,"current_range_meters":18000,"station_id":"ce4bhah2rcd13ifvqej0","pricing_plan_id":"cebpf4jnsgd1na2vs0mg"},{"bike_id":"4edf1a42-d1cb-4e42-a8d9-af12f276347c","system_id":"levelo_inurba_marseille","lat":43.26943,"lon":5.40251,"is_reserved":false,"is_disabled":false,"rental_uris":{"android":"levelo://app?vid=4edf1a42-d1cb-4e42-a8d9-af12f276347c","ios":"levelo://app?vid=4edf1a42-d1cb-4e42-a8d9-af12f276347c"},"vehicle_type_id":"4","last_reported":1735323161,"current_range_meters":28400,"station_id":"cjm6bp8fraef2m0cb0m0","pricing_plan_id":"cebpf4jnsgd1na2vs0mg"},{"bike_id":"cadf8335-6df2-49c1-9678-5228c753266c","system_id":"levelo_inurba_marseille","lat":43.28079,"lon":5.39642,"is_reserved":false,"is_disabled":false,"rental_uris":{"android":"levelo://app?vid=cadf8335-6df2-49c1-9678-5228c753266c","ios":"levelo://app?vid=cadf8335-6df2-49c1-9678-5228c753266c"},"vehicle_type_id":"4","last_reported":1735323161,"current_range_meters":38800,"station_id":"ce4bho12rcd13ifvqh2g","pricing_plan_id":"cebpf4jnsgd1na2vs0mg"},{"bike_id":"3e9a4604-a483-455a-a955-3cfb963e2a0b","system_id":"levelo_inurba_marseille","lat":43.31488,"lon":5.37308,"is_reserved":false,"is_disabled":false,"rental_uris":{"android":"levelo://app?vid=3e9a4604-a483-455a-a955-3cfb963e2a0b","ios":"levelo://app?vid=3e9a4604-a483-455a-a955-3cfb963e2a0b"},"vehicle_type_id":"4","last_reported":1735323161,"current_range_meters":38800,"station_id":"ce4bgt12rcd13ifvqcd0","pricing_plan_id":"cebpf4jnsgd1na2vs0mg"},{"bike_id":"01013d79-0b68-4ff4-b915-6d2dc3b51d67","system_id":"levelo_inurba_marseille","lat":43.23151,"lon":5.43702,"is_reserved":false,"is_disabled":false,"rental_uris":{"android":"levelo://app?vid=01013d79-0b68-4ff4-b915-6d2dc3b51d67","ios":"levelo://app?vid=01013d79-0b68-4ff4-b915-6d2dc3b51d67"},"vehicle_type_id":"4","last_reported":1735323161,"current_range_meters":38400,"station_id":"ce4bhmp2rcd13ifvqgog","pricing_plan_id":"cebpf4jnsgd1na2vs0mg"},{"bike_id":"888f325c-8f4e-4364-b694-08dfd2d41fe6","system_id":"levelo_inurba_marseille","lat":43.28911,"lon":5.35817,"is_reserved":false,"is_disabled":false,"rental_uris":{"android":"levelo://app?vid=888f325c-8f4e-4364-b694-08dfd2d41fe6","ios":"levelo://app?vid=888f325c-8f4e-4364-b694-08dfd2d41fe6"},"vehicle_type_id":"4","last_reported":1735323161,"current_range_meters":12400,"station_id":"ce4bhb12rcd13ifvqem0","pricing_plan_id":"cebpf4jnsgd1na2vs0mg"},{"bike_id":"ef1512f2-ecec-4ca5-ae3a-ede1758528e4","system_id":"levelo_inurba_marseille","lat":43.30544,"lon":5.36672,"is_reserved":false,"is_disabled":false,"rental_uris":{"android":"levelo://app?vid=ef1512f2-ecec-4ca5-ae3a-ede1758528e4","ios":"levelo://app?vid=ef1512f2-ecec-4ca5-ae3a-ede1758528e4"},"vehicle_type_id":"4","last_reported":1735323161,"current_range_meters":36400,"station_id":"","pricing_plan_id":"cebpf4jnsgd1na2vs0mg"},{"bike_id":"4142761d-2812-41dc-8f23-3a923462f285","system_id":"levelo_inurba_marseille","lat":43.255807,"lon":5.382296,"is_reserved":false,"is_disabled":false,"rental_uris":{"android":"levelo://app?vid=4142761d-2812-41dc-8f23-3a923462f285","ios":"levelo://app?vid=4142761d-2812-41dc-8f23-3a923462f285"},"vehicle_type_id":"4","last_reported":1735323161,"current_range_meters":17600,"station_id":"ce4bhih2rcd13ifvqfs0","pricing_plan_id":"cebpf4jnsgd1na2vs0mg"},{"bike_id":"f32d7991-830c-4d27-bfe2-ab40279fd6de","system_id":"levelo_inurba_marseille","lat":43.28345,"lon":5.38102,"is_reserved":false,"is_disabled":false,"rental_uris":{"android":"levelo://app?vid=f32d7991-830c-4d27-bfe2-ab40279fd6de","ios":"levelo://app?vid=f32d7991-830c-4d27-bfe2-ab40279fd6de"},"vehicle_type_id":"4","last_reported":1735323161,"current_range_meters":20400,"station_id":"ce4bh412rcd13ifvqdr0","pricing_plan_id":"cebpf4jnsgd1na2vs0mg"},{"bike_id":"575a789a-62a0-462f-b193-a955182ccd21","system_id":"levelo_inurba_marseille","lat":43.27066,"lon":5.42267,"is_reserved":false,"is_disabled":false,"rental_uris":{"android":"levelo://app?vid=575a789a-62a0-462f-b193-a955182ccd21","ios":"levelo://app?vid=575a789a-62a0-462f-b193-a955182ccd21"},"vehicle_type_id":"4","last_reported":1735323161,"current_range_meters":38800,"station_id":"ce4bhk92rcd13ifvqgb0","pricing_plan_id":"cebpf4jnsgd1na2vs0mg"},{"bike_id":"7890a301-a88f-4909-b599-1892e02f226c","system_id":"levelo_inurba_marseille","lat":43.29549,"lon":5.37471,"is_reserved":false,"is_disabled":false,"rental_uris":{"android":"levelo://app?vid=7890a301-a88f-4909-b599-1892e02f226c","ios":"levelo://app?vid=7890a301-a88f-4909-b599-1892e02f226c"},"vehicle_type_id":"4","last_reported":1735323161,"current_range_meters":29600,"station_id":"ce4bgkp2rcd13ifvqbmg","pricing_plan_id":"cebpf4jnsgd1na2vs0mg"},{"bike_id":"f9bf07a3-d52a-4e29-a667-bb52a902ba73","system_id":"levelo_inurba_marseille","lat":43.337444,"lon":5.374475,"is_reserved":false,"is_disabled":true,"rental_uris":{"android":"levelo://app?vid=f9bf07a3-d52a-4e29-a667-bb52a902ba73","ios":"levelo://app?vid=f9bf07a3-d52a-4e29-a667-bb52a902ba73"},"vehicle_type_id":"4","last_reported":1735323161,"current_range_meters":4400,"station_id":"","pricing_plan_id":"cebpf4jnsgd1na2vs0mg"},{"bike_id":"4f5db02c-99f9-460e-a880-3ca7100df048","system_id":"levelo_inurba_marseille","lat":43.274063,"lon":5.393729,"is_reserved":false,"is_disabled":false,"rental_uris":{"android":"levelo://app?vid=4f5db02c-99f9-460e-a880-3ca7100df048","ios":"levelo://app?vid=4f5db02c-99f9-460e-a880-3ca7100df048"},"vehicle_type_id":"4","last_reported":1735323161,"current_range_meters":36400,"station_id":"ce4bhdp2rcd13ifvqf20","pricing_plan_id":"cebpf4jnsgd1na2vs0mg"},{"bike_id":"8993fc6c-6897-46ce-9a8b-ddd632e0cafc","system_id":"levelo_inurba_marseille","lat":43.32365,"lon":5.38878,"is_reserved":false,"is_disabled":false,"rental_uris":{"android":"levelo://app?vid=8993fc6c-6897-46ce-9a8b-ddd632e0cafc","ios":"levelo://app?vid=8993fc6c-6897-46ce-9a8b-ddd632e0cafc"},"vehicle_type_id":"4","last_reported":1735323161,"current_range_meters":16400,"station_id":"ce4bhqp2rcd13ifvqhog","pricing_plan_id":"cebpf4jnsgd1na2vs0mg"},{"bike_id":"d5ddbfd8-c695-45c7-8f75-3f1b7776c13d","system_id":"levelo_inurba_marseille","lat":43.22933,"lon":5.35374,"is_reserved":false,"is_disabled":false,"rental_uris":{"android":"levelo://app?vid=d5ddbfd8-c695-45c7-8f75-3f1b7776c13d","ios":"levelo://app?vid=d5ddbfd8-c695-45c7-8f75-3f1b7776c13d"},"vehicle_type_id":"4","last_reported":1735323161,"current_range_meters":28000,"station_id":"cpo3532slgdg3j2ikp40","pricing_plan_id":"cebpf4jnsgd1na2vs0mg"},{"bike_id":"e02da87a-3787-4845-b595-90c97adb691a","system_id":"levelo_inurba_marseille","lat":43.28414,"lon":5.37527,"is_reserved":false,"is_disabled":false,"rental_uris":{"android":"levelo://app?vid=e02da87a-3787-4845-b595-90c97adb691a","ios":"levelo://app?vid=e02da87a-3787-4845-b595-90c97adb691a"},"vehicle_type_id":"4","last_reported":1735323161,"current_range_meters":38000,"station_id":"ce4bh412rcd13ifvqds0","pricing_plan_id":"cebpf4jnsgd1na2vs0mg"},{"bike_id":"5477d212-35e2-4622-b27a-bfe5ff434d03","system_id":"levelo_inurba_marseille","lat":43.337603,"lon":5.374424,"is_reserved":false,"is_disabled":false,"rental_uris":{"android":"levelo://app?vid=5477d212-35e2-4622-b27a-bfe5ff434d03","ios":"levelo://app?vid=5477d212-35e2-4622-b27a-bfe5ff434d03"},"vehicle_type_id":"4","last_reported":1735323161,"current_range_meters":28800,"station_id":"","pricing_plan_id":"cebpf4jnsgd1na2vs0mg"},{"bike_id":"cc4e13aa-bf0c-444b-8755-1b3bba2c6559","system_id":"levelo_inurba_marseille","lat":43.29739,"lon":5.36621,"is_reserved":false,"is_disabled":false,"rental_uris":{"android":"levelo://app?vid=cc4e13aa-bf0c-444b-8755-1b3bba2c6559","ios":"levelo://app?vid=cc4e13aa-bf0c-444b-8755-1b3bba2c6559"},"vehicle_type_id":"4","last_reported":1735323161,"current_range_meters":12800,"station_id":"ce4bgn12rcd13ifvqbt0","pricing_plan_id":"cebpf4jnsgd1na2vs0mg"},{"bike_id":"b3202def-da0b-4ad3-b2d6-53e83d3a2473","system_id":"levelo_inurba_marseille","lat":43.29721,"lon":5.37696,"is_reserved":false,"is_disabled":false,"rental_uris":{"android":"levelo://app?vid=b3202def-da0b-4ad3-b2d6-53e83d3a2473","ios":"levelo://app?vid=b3202def-da0b-4ad3-b2d6-53e83d3a2473"},"vehicle_type_id":"4","last_reported":1735323161,"current_range_meters":23200,"station_id":"ce4bgkh2rcd13ifvqbl0","pricing_plan_id":"cebpf4jnsgd1na2vs0mg"},{"bike_id":"32df82ce-6219-4736-8eb8-fc8999cbfd21","system_id":"levelo_inurba_marseille","lat":43.26195,"lon":5.37926,"is_reserved":false,"is_disabled":false,"rental_uris":{"android":"levelo://app?vid=32df82ce-6219-4736-8eb8-fc8999cbfd21","ios":"levelo://app?vid=32df82ce-6219-4736-8eb8-fc8999cbfd21"},"vehicle_type_id":"4","last_reported":1735323161,"current_range_meters":37600,"station_id":"ce4bhjp2rcd13ifvqg90","pricing_plan_id":"cebpf4jnsgd1na2vs0mg"},{"bike_id":"ade42e55-f501-46d4-9f66-d71fa3d9eb35","system_id":"levelo_inurba_marseille","lat":43.29897,"lon":5.38142,"is_reserved":false,"is_disabled":false,"rental_uris":{"android":"levelo://app?vid=ade42e55-f501-46d4-9f66-d71fa3d9eb35","ios":"levelo://app?vid=ade42e55-f501-46d4-9f66-d71fa3d9eb35"},"vehicle_type_id":"4","last_reported":1735323161,"current_range_meters":37600,"station_id":"ce4bgj12rcd13ifvqbc0","pricing_plan_id":"cebpf4jnsgd1na2vs0mg"},{"bike_id":"e46b66a2-8bd2-4c60-8c50-7c698ab4182c","system_id":"levelo_inurba_marseille","lat":43.30261,"lon":5.40091,"is_reserved":false,"is_disabled":false,"rental_uris":{"android":"levelo://app?vid=e46b66a2-8bd2-4c60-8c50-7c698ab4182c","ios":"levelo://app?vid=e46b66a2-8bd2-4c60-8c50-7c698ab4182c"},"vehicle_type_id":"4","last_reported":1735323161,"current_range_meters":20800,"station_id":"ce4bgvh2rcd13ifvqcs0","pricing_plan_id":"cebpf4jnsgd1na2vs0mg"},{"bike_id":"8b123ca4-94f2-4c26-a9ee-ee0be646d3ad","system_id":"levelo_inurba_marseille","lat":43.31704,"lon":5.40455,"is_reserved":false,"is_disabled":false,"rental_uris":{"android":"levelo://app?vid=8b123ca4-94f2-4c26-a9ee-ee0be646d3ad","ios":"levelo://app?vid=8b123ca4-94f2-4c26-a9ee-ee0be646d3ad"},"vehicle_type_id":"4","last_reported":1735323161,"current_range_meters":32000,"station_id":"ce4bh012rcd13ifvqd00","pricing_plan_id":"cebpf4jnsgd1na2vs0mg"},{"bike_id":"ab6b1e15-cbee-4670-8411-a7a4186cb033","system_id":"levelo_inurba_marseille","lat":43.30607,"lon":5.3723,"is_reserved":false,"is_disabled":false,"rental_uris":{"android":"levelo://app?vid=ab6b1e15-cbee-4670-8411-a7a4186cb033","ios":"levelo://app?vid=ab6b1e15-cbee-4670-8411-a7a4186cb033"},"vehicle_type_id":"4","last_reported":1735323161,"current_range_meters":16800,"station_id":"ce4bgqh2rcd13ifvqc4g","pricing_plan_id":"cebpf4jnsgd1na2vs0mg"},{"bike_id":"ce5f878a-891b-4811-922b-6505c9597fc1","system_id":"levelo_inurba_marseille","lat":43.29602,"lon":5.381,"is_reserved":false,"is_disabled":true,"rental_uris":{"android":"levelo://app?vid=ce5f878a-891b-4811-922b-6505c9597fc1","ios":"levelo://app?vid=ce5f878a-891b-4811-922b-6505c9597fc1"},"vehicle_type_id":"4","last_reported":1735323161,"current_range_meters":0,"station_id":"ce4bgl12rcd13ifvqbo0","pricing_plan_id":"cebpf4jnsgd1na2vs0mg"},{"bike_id":"a32cd1e7-cc87-4292-9d06-455d298daf7c","system_id":"levelo_inurba_marseille","lat":43.30419,"lon":5.3975,"is_reserved":false,"is_disabled":false,"rental_uris":{"android":"levelo://app?vid=a32cd1e7-cc87-4292-9d06-455d298daf7c","ios":"levelo://app?vid=a32cd1e7-cc87-4292-9d06-455d298daf7c"},"vehicle_type_id":"4","last_reported":1735323161,"current_range_meters":38800,"station_id":"ce4bh092rcd13ifvqd20","pricing_plan_id":"cebpf4jnsgd1na2vs0mg"},{"bike_id":"438b0745-2be3-4564-ac70-28b3f0ed51e2","system_id":"levelo_inurba_marseille","lat":43.3079,"lon":5.37631,"is_reserved":false,"is_disabled":false,"rental_uris":{"android":"levelo://app?vid=438b0745-2be3-4564-ac70-28b3f0ed51e2","ios":"levelo://app?vid=438b0745-2be3-4564-ac70-28b3f0ed51e2"},"vehicle_type_id":"4","last_reported":1735323161,"current_range_meters":38400,"station_id":"ce4bgv92rcd13ifvqcq0","pricing_plan_id":"cebpf4jnsgd1na2vs0mg"},{"bike_id":"28bd3904-ffcb-4595-8c51-c947161caafc","system_id":"levelo_inurba_marseille","lat":43.296,"lon":5.37696,"is_reserved":false,"is_disabled":false,"rental_uris":{"android":"levelo://app?vid=28bd3904-ffcb-4595-8c51-c947161caafc","ios":"levelo://app?vid=28bd3904-ffcb-4595-8c51-c947161caafc"},"vehicle_type_id":"4","last_reported":1735323161,"current_range_meters":20400,"station_id":"ce4bgi92rcd13ifvqb90","pricing_plan_id":"cebpf4jnsgd1na2vs0mg"},{"bike_id":"e6183140-d6b1-40ea-b907-e6cf801b3713","system_id":"levelo_inurba_marseille","lat":43.30433,"lon":5.38896,"is_reserved":false,"is_disabled":false,"rental_uris":{"android":"levelo://app?vid=e6183140-d6b1-40ea-b907-e6cf801b3713","ios":"levelo://app?vid=e6183140-d6b1-40ea-b907-e6cf801b3713"},"vehicle_type_id":"4","last_reported":1735323161,"current_range_meters":18800,"station_id":"ce4bgk12rcd13ifvqbi0","pricing_plan_id":"cebpf4jnsgd1na2vs0mg"},{"bike_id":"96f82544-6c3e-4621-a694-fba76dde99dd","system_id":"levelo_inurba_marseille","lat":43.29199,"lon":5.39283,"is_reserved":false,"is_disabled":false,"rental_uris":{"android":"levelo://app?vid=96f82544-6c3e-4621-a694-fba76dde99dd","ios":"levelo://app?vid=96f82544-6c3e-4621-a694-fba76dde99dd"},"vehicle_type_id":"4","last_reported":1735323161,"current_range_meters":22800,"station_id":"ce4bh192rcd13ifvqdd0","pricing_plan_id":"cebpf4jnsgd1na2vs0mg"},{"bike_id":"8f2a6914-bba4-4ace-a8cf-6c59b4633c74","system_id":"levelo_inurba_marseille","lat":43.27603,"lon":5.3611,"is_reserved":false,"is_disabled":true,"rental_uris":{"android":"levelo://app?vid=8f2a6914-bba4-4ace-a8cf-6c59b4633c74","ios":"levelo://app?vid=8f2a6914-bba4-4ace-a8cf-6c59b4633c74"},"vehicle_type_id":"4","last_reported":1735323161,"current_range_meters":16800,"station_id":"ce4bgj92rcd13ifvqbe0","pricing_plan_id":"cebpf4jnsgd1na2vs0mg"},{"bike_id":"5e1218c5-04fb-4a69-b12c-727f66aad766","system_id":"levelo_inurba_marseille","lat":43.26205,"lon":5.37439,"is_reserved":false,"is_disabled":false,"rental_uris":{"android":"levelo://app?vid=5e1218c5-04fb-4a69-b12c-727f66aad766","ios":"levelo://app?vid=5e1218c5-04fb-4a69-b12c-727f66aad766"},"vehicle_type_id":"4","last_reported":1735323161,"current_range_meters":38000,"station_id":"ce4bhgp2rcd13ifvqfc0","pricing_plan_id":"cebpf4jnsgd1na2vs0mg"},{"bike_id":"421c6551-132c-4015-aab8-f2eccc5315e9","system_id":"levelo_inurba_marseille","lat":43.32594,"lon":5.41197,"is_reserved":false,"is_disabled":true,"rental_uris":{"android":"levelo://app?vid=421c6551-132c-4015-aab8-f2eccc5315e9","ios":"levelo://app?vid=421c6551-132c-4015-aab8-f2eccc5315e9"},"vehicle_type_id":"4","last_reported":1735323161,"current_range_meters":0,"station_id":"ce4bhq12rcd13ifvqhig","pricing_plan_id":"cebpf4jnsgd1na2vs0mg"},{"bike_id":"55aacb9c-f87c-454a-b434-2e6d2f23e8cf","system_id":"levelo_inurba_marseille","lat":43.30206,"lon":5.39468,"is_reserved":false,"is_disabled":false,"rental_uris":{"android":"levelo://app?vid=55aacb9c-f87c-454a-b434-2e6d2f23e8cf","ios":"levelo://app?vid=55aacb9c-f87c-454a-b434-2e6d2f23e8cf"},"vehicle_type_id":"4","last_reported":1735323161,"current_range_meters":19200,"station_id":"ce4bh0p2rcd13ifvqd70","pricing_plan_id":"cebpf4jnsgd1na2vs0mg"},{"bike_id":"c542a1bb-54cd-4033-aeff-5e06e35ebd74","system_id":"levelo_inurba_marseille","lat":43.29223,"lon":5.36056,"is_reserved":false,"is_disabled":false,"rental_uris":{"android":"levelo://app?vid=c542a1bb-54cd-4033-aeff-5e06e35ebd74","ios":"levelo://app?vid=c542a1bb-54cd-4033-aeff-5e06e35ebd74"},"vehicle_type_id":"4","last_reported":1735323161,"current_range_meters":33600,"station_id":"ce4bhbh2rcd13ifvqeqg","pricing_plan_id":"cebpf4jnsgd1na2vs0mg"},{"bike_id":"874dd9fc-64b2-467d-bf92-e26669b35040","system_id":"levelo_inurba_marseille","lat":43.3078,"lon":5.37655,"is_reserved":false,"is_disabled":false,"rental_uris":{"android":"levelo://app?vid=874dd9fc-64b2-467d-bf92-e26669b35040","ios":"levelo://app?vid=874dd9fc-64b2-467d-bf92-e26669b35040"},"vehicle_type_id":"4","last_reported":1735323161,"current_range_meters":38800,"station_id":"ce4bgv92rcd13ifvqcq0","pricing_plan_id":"cebpf4jnsgd1na2vs0mg"},{"bike_id":"9b033979-22fb-4fbe-862b-12b59af70025","system_id":"levelo_inurba_marseille","lat":43.23054,"lon":5.35494,"is_reserved":false,"is_disabled":false,"rental_uris":{"android":"levelo://app?vid=9b033979-22fb-4fbe-862b-12b59af70025","ios":"levelo://app?vid=9b033979-22fb-4fbe-862b-12b59af70025"},"vehicle_type_id":"4","last_reported":1735323161,"current_range_meters":32400,"station_id":"cpo3342slgdg3j2ifvpg","pricing_plan_id":"cebpf4jnsgd1na2vs0mg"},{"bike_id":"2ac2fb8a-e82c-4ab9-8218-39957727b53a","system_id":"levelo_inurba_marseille","lat":43.29894,"lon":5.38149,"is_reserved":false,"is_disabled":false,"rental_uris":{"android":"levelo://app?vid=2ac2fb8a-e82c-4ab9-8218-39957727b53a","ios":"levelo://app?vid=2ac2fb8a-e82c-4ab9-8218-39957727b53a"},"vehicle_type_id":"4","last_reported":1735323161,"current_range_meters":34000,"station_id":"ce4bgj12rcd13ifvqbc0","pricing_plan_id":"cebpf4jnsgd1na2vs0mg"},{"bike_id":"eb24c49b-b178-4683-bdd5-1432c5484316","system_id":"levelo_inurba_marseille","lat":43.2962,"lon":5.37169,"is_reserved":false,"is_disabled":false,"rental_uris":{"android":"levelo://app?vid=eb24c49b-b178-4683-bdd5-1432c5484316","ios":"levelo://app?vid=eb24c49b-b178-4683-bdd5-1432c5484316"},"vehicle_type_id":"4","last_reported":1735323161,"current_range_meters":37600,"station_id":"ce4bgnh2rcd13ifvqc0g","pricing_plan_id":"cebpf4jnsgd1na2vs0mg"},{"bike_id":"f64196d8-ebfb-4a4d-901e-f48e97e0fa65","system_id":"levelo_inurba_marseille","lat":43.25584,"lon":5.38228,"is_reserved":false,"is_disabled":false,"rental_uris":{"android":"levelo://app?vid=f64196d8-ebfb-4a4d-901e-f48e97e0fa65","ios":"levelo://app?vid=f64196d8-ebfb-4a4d-901e-f48e97e0fa65"},"vehicle_type_id":"4","last_reported":1735323161,"current_range_meters":35600,"station_id":"ce4bhih2rcd13ifvqfs0","pricing_plan_id":"cebpf4jnsgd1na2vs0mg"},{"bike_id":"7ed14772-43fd-4e91-9682-602d4d8bddbc","system_id":"levelo_inurba_marseille","lat":43.2465,"lon":5.38895,"is_reserved":false,"is_disabled":false,"rental_uris":{"android":"levelo://app?vid=7ed14772-43fd-4e91-9682-602d4d8bddbc","ios":"levelo://app?vid=7ed14772-43fd-4e91-9682-602d4d8bddbc"},"vehicle_type_id":"4","last_reported":1735323161,"current_range_meters":38800,"station_id":"ce4bhg12rcd13ifvqf60","pricing_plan_id":"cebpf4jnsgd1na2vs0mg"},{"bike_id":"3fd0ce8b-62e5-482c-86d5-ed88c92ffef8","system_id":"levelo_inurba_marseille","lat":43.2744,"lon":5.39397,"is_reserved":false,"is_disabled":false,"rental_uris":{"android":"levelo://app?vid=3fd0ce8b-62e5-482c-86d5-ed88c92ffef8","ios":"levelo://app?vid=3fd0ce8b-62e5-482c-86d5-ed88c92ffef8"},"vehicle_type_id":"4","last_reported":1735323161,"current_range_meters":16000,"station_id":"ce4bhdp2rcd13ifvqf20","pricing_plan_id":"cebpf4jnsgd1na2vs0mg"},{"bike_id":"c9e5d6c6-5601-4769-be5c-20fef93ca121","system_id":"levelo_inurba_marseille","lat":43.2417,"lon":5.36391,"is_reserved":false,"is_disabled":false,"rental_uris":{"android":"levelo://app?vid=c9e5d6c6-5601-4769-be5c-20fef93ca121","ios":"levelo://app?vid=c9e5d6c6-5601-4769-be5c-20fef93ca121"},"vehicle_type_id":"4","last_reported":1735323161,"current_range_meters":22000,"station_id":"cpo36qri1sfpv3e86is0","pricing_plan_id":"cebpf4jnsgd1na2vs0mg"},{"bike_id":"0fc8000c-fa06-4225-b5d3-068971e5812b","system_id":"levelo_inurba_marseille","lat":43.28157,"lon":5.42648,"is_reserved":false,"is_disabled":false,"rental_uris":{"android":"levelo://app?vid=0fc8000c-fa06-4225-b5d3-068971e5812b","ios":"levelo://app?vid=0fc8000c-fa06-4225-b5d3-068971e5812b"},"vehicle_type_id":"4","last_reported":1735323161,"current_range_meters":38000,"station_id":"ce4bhnh2rcd13ifvqgug","pricing_plan_id":"cebpf4jnsgd1na2vs0mg"},{"bike_id":"548b2d79-54d6-4c1e-abdd-d982c42234dd","system_id":"levelo_inurba_marseille","lat":43.27962,"lon":5.38688,"is_reserved":false,"is_disabled":false,"rental_uris":{"android":"levelo://app?vid=548b2d79-54d6-4c1e-abdd-d982c42234dd","ios":"levelo://app?vid=548b2d79-54d6-4c1e-abdd-d982c42234dd"},"vehicle_type_id":"4","last_reported":1735323161,"current_range_meters":38800,"station_id":"ce4bhg12rcd13ifvqf80","pricing_plan_id":"cebpf4jnsgd1na2vs0mg"},{"bike_id":"8dc0edca-2d83-43db-b2b6-d78e1244e192","system_id":"levelo_inurba_marseille","lat":43.23063,"lon":5.35473,"is_reserved":false,"is_disabled":false,"rental_uris":{"android":"levelo://app?vid=8dc0edca-2d83-43db-b2b6-d78e1244e192","ios":"levelo://app?vid=8dc0edca-2d83-43db-b2b6-d78e1244e192"},"vehicle_type_id":"4","last_reported":1735323161,"current_range_meters":7200,"station_id":"cpo3342slgdg3j2ifvpg","pricing_plan_id":"cebpf4jnsgd1na2vs0mg"},{"bike_id":"3694afdf-379e-43af-910b-f297893f12f5","system_id":"levelo_inurba_marseille","lat":43.28148,"lon":5.42646,"is_reserved":false,"is_disabled":false,"rental_uris":{"android":"levelo://app?vid=3694afdf-379e-43af-910b-f297893f12f5","ios":"levelo://app?vid=3694afdf-379e-43af-910b-f297893f12f5"},"vehicle_type_id":"4","last_reported":1735323161,"current_range_meters":26800,"station_id":"ce4bhnh2rcd13ifvqgug","pricing_plan_id":"cebpf4jnsgd1na2vs0mg"},{"bike_id":"fbec4ea5-65d3-402f-907b-b448d00dedaa","system_id":"levelo_inurba_marseille","lat":43.26204,"lon":5.37932,"is_reserved":false,"is_disabled":false,"rental_uris":{"android":"levelo://app?vid=fbec4ea5-65d3-402f-907b-b448d00dedaa","ios":"levelo://app?vid=fbec4ea5-65d3-402f-907b-b448d00dedaa"},"vehicle_type_id":"4","last_reported":1735323161,"current_range_meters":12400,"station_id":"ce4bhjp2rcd13ifvqg90","pricing_plan_id":"cebpf4jnsgd1na2vs0mg"},{"bike_id":"29138ec5-d412-4cc0-9796-96cea38f8b3d","system_id":"levelo_inurba_marseille","lat":43.29612,"lon":5.37701,"is_reserved":false,"is_disabled":false,"rental_uris":{"android":"levelo://app?vid=29138ec5-d412-4cc0-9796-96cea38f8b3d","ios":"levelo://app?vid=29138ec5-d412-4cc0-9796-96cea38f8b3d"},"vehicle_type_id":"4","last_reported":1735323161,"current_range_meters":32800,"station_id":"ce4bgi92rcd13ifvqb90","pricing_plan_id":"cebpf4jnsgd1na2vs0mg"},{"bike_id":"f27720cd-32c7-4880-b38e-941c683e1c97","system_id":"levelo_inurba_marseille","lat":43.29889,"lon":5.38906,"is_reserved":false,"is_disabled":false,"rental_uris":{"android":"levelo://app?vid=f27720cd-32c7-4880-b38e-941c683e1c97","ios":"levelo://app?vid=f27720cd-32c7-4880-b38e-941c683e1c97"},"vehicle_type_id":"4","last_reported":1735323161,"current_range_meters":15200,"station_id":"ce4bh392rcd13ifvqdl0","pricing_plan_id":"cebpf4jnsgd1na2vs0mg"},{"bike_id":"172a0707-4cf3-49f8-8561-2e329baaf0d2","system_id":"levelo_inurba_marseille","lat":43.29584,"lon":5.37505,"is_reserved":false,"is_disabled":false,"rental_uris":{"android":"levelo://app?vid=172a0707-4cf3-49f8-8561-2e329baaf0d2","ios":"levelo://app?vid=172a0707-4cf3-49f8-8561-2e329baaf0d2"},"vehicle_type_id":"4","last_reported":1735323161,"current_range_meters":34800,"station_id":"ce4bgh92rcd13ifvqb50","pricing_plan_id":"cebpf4jnsgd1na2vs0mg"},{"bike_id":"8dcff902-58dc-4104-a694-b82bac666dd1","system_id":"levelo_inurba_marseille","lat":43.29685,"lon":5.37719,"is_reserved":false,"is_disabled":false,"rental_uris":{"android":"levelo://app?vid=8dcff902-58dc-4104-a694-b82bac666dd1","ios":"levelo://app?vid=8dcff902-58dc-4104-a694-b82bac666dd1"},"vehicle_type_id":"4","last_reported":1735323161,"current_range_meters":38800,"station_id":"ce4bgkh2rcd13ifvqbl0","pricing_plan_id":"cebpf4jnsgd1na2vs0mg"},{"bike_id":"f2ad4d11-b3dd-49d2-8288-70bcaf129e1d","system_id":"levelo_inurba_marseille","lat":43.28103,"lon":5.37834,"is_reserved":false,"is_disabled":false,"rental_uris":{"android":"levelo://app?vid=f2ad4d11-b3dd-49d2-8288-70bcaf129e1d","ios":"levelo://app?vid=f2ad4d11-b3dd-49d2-8288-70bcaf129e1d"},"vehicle_type_id":"4","last_reported":1735323161,"current_range_meters":18000,"station_id":"ce4bha12rcd13ifvqee0","pricing_plan_id":"cebpf4jnsgd1na2vs0mg"},{"bike_id":"deb74dd6-caed-4958-9dd1-d5f6f39c849d","system_id":"levelo_inurba_marseille","lat":43.29936,"lon":5.36382,"is_reserved":false,"is_disabled":false,"rental_uris":{"android":"levelo://app?vid=deb74dd6-caed-4958-9dd1-d5f6f39c849d","ios":"levelo://app?vid=deb74dd6-caed-4958-9dd1-d5f6f39c849d"},"vehicle_type_id":"4","last_reported":1735323161,"current_range_meters":29600,"station_id":"","pricing_plan_id":"cebpf4jnsgd1na2vs0mg"},{"bike_id":"ba404663-03aa-4372-856c-b90d34ca71b4","system_id":"levelo_inurba_marseille","lat":43.30431,"lon":5.38838,"is_reserved":false,"is_disabled":false,"rental_uris":{"android":"levelo://app?vid=ba404663-03aa-4372-856c-b90d34ca71b4","ios":"levelo://app?vid=ba404663-03aa-4372-856c-b90d34ca71b4"},"vehicle_type_id":"4","last_reported":1735323161,"current_range_meters":14400,"station_id":"ce4bgk12rcd13ifvqbi0","pricing_plan_id":"cebpf4jnsgd1na2vs0mg"},{"bike_id":"41becbe0-31ce-4941-828d-b4e44498a200","system_id":"levelo_inurba_marseille","lat":43.30309,"lon":5.369,"is_reserved":false,"is_disabled":true,"rental_uris":{"android":"levelo://app?vid=41becbe0-31ce-4941-828d-b4e44498a200","ios":"levelo://app?vid=41becbe0-31ce-4941-828d-b4e44498a200"},"vehicle_type_id":"4","last_reported":1735323161,"current_range_meters":38800,"station_id":"ce4bgqh2rcd13ifvqc5g","pricing_plan_id":"cebpf4jnsgd1na2vs0mg"},{"bike_id":"281c6259-539e-4161-9293-19358e2aa50d","system_id":"levelo_inurba_marseille","lat":43.29298,"lon":5.37459,"is_reserved":false,"is_disabled":false,"rental_uris":{"android":"levelo://app?vid=281c6259-539e-4161-9293-19358e2aa50d","ios":"levelo://app?vid=281c6259-539e-4161-9293-19358e2aa50d"},"vehicle_type_id":"4","last_reported":1735323161,"current_range_meters":24000,"station_id":"ce4bgi12rcd13ifvqb70","pricing_plan_id":"cebpf4jnsgd1na2vs0mg"},{"bike_id":"99e85278-265b-4035-ba73-9bf63e27e16e","system_id":"levelo_inurba_marseille","lat":43.30448,"lon":5.38891,"is_reserved":false,"is_disabled":false,"rental_uris":{"android":"levelo://app?vid=99e85278-265b-4035-ba73-9bf63e27e16e","ios":"levelo://app?vid=99e85278-265b-4035-ba73-9bf63e27e16e"},"vehicle_type_id":"4","last_reported":1735323161,"current_range_meters":38400,"station_id":"ce4bgk12rcd13ifvqbi0","pricing_plan_id":"cebpf4jnsgd1na2vs0mg"},{"bike_id":"3df0b127-3467-4606-9d99-af9de16bc0c4","system_id":"levelo_inurba_marseille","lat":43.31179,"lon":5.38709,"is_reserved":false,"is_disabled":false,"rental_uris":{"android":"levelo://app?vid=3df0b127-3467-4606-9d99-af9de16bc0c4","ios":"levelo://app?vid=3df0b127-3467-4606-9d99-af9de16bc0c4"},"vehicle_type_id":"4","last_reported":1735323161,"current_range_meters":17200,"station_id":"ce4bgv12rcd13ifvqcp0","pricing_plan_id":"cebpf4jnsgd1na2vs0mg"},{"bike_id":"cecd8a9f-6ce6-4ae6-a2ea-1df7846549f2","system_id":"levelo_inurba_marseille","lat":43.29792,"lon":5.38082,"is_reserved":false,"is_disabled":false,"rental_uris":{"android":"levelo://app?vid=cecd8a9f-6ce6-4ae6-a2ea-1df7846549f2","ios":"levelo://app?vid=cecd8a9f-6ce6-4ae6-a2ea-1df7846549f2"},"vehicle_type_id":"4","last_reported":1735323161,"current_range_meters":30800,"station_id":"ce4bgip2rcd13ifvqbb0","pricing_plan_id":"cebpf4jnsgd1na2vs0mg"},{"bike_id":"73995011-3dd8-4084-890a-da4d0bacf1a8","system_id":"levelo_inurba_marseille","lat":43.3303,"lon":5.3905,"is_reserved":false,"is_disabled":false,"rental_uris":{"android":"levelo://app?vid=73995011-3dd8-4084-890a-da4d0bacf1a8","ios":"levelo://app?vid=73995011-3dd8-4084-890a-da4d0bacf1a8"},"vehicle_type_id":"4","last_reported":1735323161,"current_range_meters":37600,"station_id":"ce4bhr92rcd13ifvqhrg","pricing_plan_id":"cebpf4jnsgd1na2vs0mg"},{"bike_id":"2f1ab3bb-0897-4093-8c51-0bcfce069440","system_id":"levelo_inurba_marseille","lat":43.30824,"lon":5.38174,"is_reserved":false,"is_disabled":false,"rental_uris":{"android":"levelo://app?vid=2f1ab3bb-0897-4093-8c51-0bcfce069440","ios":"levelo://app?vid=2f1ab3bb-0897-4093-8c51-0bcfce069440"},"vehicle_type_id":"4","last_reported":1735323161,"current_range_meters":36800,"station_id":"ce4bgt12rcd13ifvqce0","pricing_plan_id":"cebpf4jnsgd1na2vs0mg"},{"bike_id":"e87a7c58-2919-4eeb-8369-f517e382e91d","system_id":"levelo_inurba_marseille","lat":43.25821,"lon":5.3944,"is_reserved":false,"is_disabled":false,"rental_uris":{"android":"levelo://app?vid=e87a7c58-2919-4eeb-8369-f517e382e91d","ios":"levelo://app?vid=e87a7c58-2919-4eeb-8369-f517e382e91d"},"vehicle_type_id":"4","last_reported":1735323161,"current_range_meters":25600,"station_id":"ce4bhip2rcd13ifvqft0","pricing_plan_id":"cebpf4jnsgd1na2vs0mg"},{"bike_id":"dac94ecf-3203-4c89-acc0-21c14e979588","system_id":"levelo_inurba_marseille","lat":43.26707,"lon":5.38254,"is_reserved":false,"is_disabled":false,"rental_uris":{"android":"levelo://app?vid=dac94ecf-3203-4c89-acc0-21c14e979588","ios":"levelo://app?vid=dac94ecf-3203-4c89-acc0-21c14e979588"},"vehicle_type_id":"4","last_reported":1735323161,"current_range_meters":34800,"station_id":"ce4bhg92rcd13ifvqf90","pricing_plan_id":"cebpf4jnsgd1na2vs0mg"},{"bike_id":"c09f8790-78d5-41ab-af1c-f4ee25747630","system_id":"levelo_inurba_marseille","lat":43.29601,"lon":5.37722,"is_reserved":false,"is_disabled":false,"rental_uris":{"android":"levelo://app?vid=c09f8790-78d5-41ab-af1c-f4ee25747630","ios":"levelo://app?vid=c09f8790-78d5-41ab-af1c-f4ee25747630"},"vehicle_type_id":"4","last_reported":1735323161,"current_range_meters":24800,"station_id":"ce4bgi92rcd13ifvqb90","pricing_plan_id":"cebpf4jnsgd1na2vs0mg"},{"bike_id":"d787e330-e288-4e1c-926a-5bcb7a236ca2","system_id":"levelo_inurba_marseille","lat":43.28153,"lon":5.42642,"is_reserved":false,"is_disabled":false,"rental_uris":{"android":"levelo://app?vid=d787e330-e288-4e1c-926a-5bcb7a236ca2","ios":"levelo://app?vid=d787e330-e288-4e1c-926a-5bcb7a236ca2"},"vehicle_type_id":"4","last_reported":1735323161,"current_range_meters":32000,"station_id":"ce4bhnh2rcd13ifvqgug","pricing_plan_id":"cebpf4jnsgd1na2vs0mg"},{"bike_id":"0e876c69-f906-45eb-b2d7-9d8cf07c0b7d","system_id":"levelo_inurba_marseille","lat":43.29013,"lon":5.35607,"is_reserved":false,"is_disabled":true,"rental_uris":{"android":"levelo://app?vid=0e876c69-f906-45eb-b2d7-9d8cf07c0b7d","ios":"levelo://app?vid=0e876c69-f906-45eb-b2d7-9d8cf07c0b7d"},"vehicle_type_id":"4","last_reported":1735323161,"current_range_meters":23200,"station_id":"ce4bhb92rcd13ifvqen0","pricing_plan_id":"cebpf4jnsgd1na2vs0mg"},{"bike_id":"f25dc04e-8844-4fa7-9504-004ba7e5ddc2","system_id":"levelo_inurba_marseille","lat":43.31492,"lon":5.37308,"is_reserved":false,"is_disabled":false,"rental_uris":{"android":"levelo://app?vid=f25dc04e-8844-4fa7-9504-004ba7e5ddc2","ios":"levelo://app?vid=f25dc04e-8844-4fa7-9504-004ba7e5ddc2"},"vehicle_type_id":"4","last_reported":1735323161,"current_range_meters":36400,"station_id":"ce4bgt12rcd13ifvqcd0","pricing_plan_id":"cebpf4jnsgd1na2vs0mg"},{"bike_id":"23d9ec8f-d502-4410-9f7a-9706a61157b8","system_id":"levelo_inurba_marseille","lat":43.27623,"lon":5.361,"is_reserved":false,"is_disabled":false,"rental_uris":{"android":"levelo://app?vid=23d9ec8f-d502-4410-9f7a-9706a61157b8","ios":"levelo://app?vid=23d9ec8f-d502-4410-9f7a-9706a61157b8"},"vehicle_type_id":"4","last_reported":1735323161,"current_range_meters":38800,"station_id":"ce4bgj92rcd13ifvqbe0","pricing_plan_id":"cebpf4jnsgd1na2vs0mg"},{"bike_id":"817f549e-818b-47e8-8a2d-d5e79d9e5f82","system_id":"levelo_inurba_marseille","lat":43.34447,"lon":5.3771,"is_reserved":false,"is_disabled":true,"rental_uris":{"android":"levelo://app?vid=817f549e-818b-47e8-8a2d-d5e79d9e5f82","ios":"levelo://app?vid=817f549e-818b-47e8-8a2d-d5e79d9e5f82"},"vehicle_type_id":"4","last_reported":1735323161,"current_range_meters":9600,"station_id":"","pricing_plan_id":"cebpf4jnsgd1na2vs0mg"},