{"last_updated":1746537871,"ttl":60,"version":"2.2","data":{"bikes":[{"bike_id":"b4ebc613-ec78-4a50-99a2-dfcb32cf613d","system_id":"levelo_inurba_marseille","lat":43.283698,"lon":5.375276,"is_reserved":false,"is_disabled":false,"rental_uris":{"android":"levelo://app?vid=b4ebc613-ec78-4a50-99a2-dfcb32cf613d","ios":"levelo://app?vid=b4ebc613-ec78-4a50-99a2-dfcb32cf613d"},"vehicle_type_id":"4","last_reported":1746537871,"current_range_meters":6000,"station_id":"ce4bh412rcd13ifvqds0","pricing_plan_id":"cebpf4jnsgd1na2vs0mg"},{"bike_id":"78047541-c532-48da-b9d3-5f6e13dfd7e0","system_id":"levelo_inurba_marseille","lat":43.28936,"lon":5.36635,"is_reserved":false,"is_disabled":false,"rental_uris":{"android":"levelo://app?vid=78047541-c532-48da-b9d3-5f6e13dfd7e0","ios":"levelo://app?vid=78047541-c532-48da-b9d3-5f6e13dfd7e0"},"vehicle_type_id":"4","last_reported":1746537871,"current_range_meters":2800,"station_id":"ce4bhap2rcd13ifvqek0","pricing_plan_id":"cebpf4jnsgd1na2vs0mg"},{"bike_id":"cf31fb7c-69db-48d2-814d-a98475b62e4d","system_id":"levelo_inurba_marseille","lat":43.29531,"lon":5.38529,"is_reserved":false,"is_disabled":false,"rental_uris":{"android":"levelo://app?vid=cf31fb7c-69db-48d2-814d-a98475b62e4d","ios":"levelo://app?vid=cf31fb7c-69db-48d2-814d-a98475b62e4d"},"vehicle_type_id":"4","last_reported":1746537871,"current_range_meters":2800,"station_id":"ce4bgih2rcd13ifvqba0","pricing_plan_id":"cebpf4jnsgd1na2vs0mg"},{"bike_id":"27de353a-67c0-42f7-9ec6-29af2eece25f","system_id":"levelo_inurba_marseille","lat":43.30255,"lon":5.40062,"is_reserved":false,"is_disabled":false,"rental_uris":{"android":"levelo://app?vid=27de353a-67c0-42f7-9ec6-29af2eece25f","ios":"levelo://app?vid=27de353a-67c0-42f7-9ec6-29af2eece25f"},"vehicle_type_id":"4","last_reported":1746537871,"current_range_meters":2800,"station_id":"ce4bgvh2rcd13ifvqcs0","pricing_plan_id":"cebpf4jnsgd1na2vs0mg"},{"bike_id":"66b646b3-6352-44bb-9bfb-21570512e3e5","system_id":"levelo_inurba_marseille","lat":43.281203,"lon":5.403945,"is_reserved":false,"is_disabled":false,"rental_uris":{"android":"levelo://app?vid=66b646b3-6352-44bb-9bfb-21570512e3e5","ios":"levelo://app?vid=66b646b3-6352-44bb-9bfb-21570512e3e5"},"vehicle_type_id":"4","last_reported":1746537871,"current_range_meters":3200,"station_id":"","pricing_plan_id":"cebpf4jnsgd1na2vs0mg"},{"bike_id":"bfbbbc7e-e023-45c8-9669-89f74319aaea","system_id":"levelo_inurba_marseille","lat":43.26547,"lon":5.37294,"is_reserved":false,"is_disabled":false,"rental_uris":{"android":"levelo://app?vid=bfbbbc7e-e023-45c8-9669-89f74319aaea","ios":"levelo://app?vid=bfbbbc7e-e023-45c8-9669-89f74319aaea"},"vehicle_type_id":"4","last_reported":1746537871,"current_range_meters":3200,"station_id":"ce4bhg12rcd13ifvqf70","pricing_plan_id":"cebpf4jnsgd1na2vs0mg"},{"bike_id":"10ee6f08-e9c7-4139-9fd3-986d1c3f45a9","system_id":"levelo_inurba_marseille","lat":43.26578,"lon":5.3904,"is_reserved":false,"is_disabled":false,"rental_uris":{"android":"levelo://app?vid=10ee6f08-e9c7-4139-9fd3-986d1c3f45a9","ios":"levelo://app?vid=10ee6f08-e9c7-4139-9fd3-986d1c3f45a9"},"vehicle_type_id":"4","last_reported":1746537871,"current_range_meters":1600,"station_id":"ce4bhe12rcd13ifvqf30","pricing_plan_id":"cebpf4jnsgd1na2vs0mg"},{"bike_id":"2d251c8d-e9d0-476f-8622-cb88831f30c3","system_id":"levelo_inurba_marseille","lat":43.26654,"lon":5.38164,"is_reserved":false,"is_disabled":false,"rental_uris":{"android":"levelo://app?vid=2d251c8d-e9d0-476f-8622-cb88831f30c3","ios":"levelo://app?vid=2d251c8d-e9d0-476f-8622-cb88831f30c3"},"vehicle_type_id":"4","last_reported":1746537871,"current_range_meters":3600,"station_id":"","pricing_plan_id":"cebpf4jnsgd1na2vs0mg"},{"bike_id":"17eba648-b425-49bd-9db4-1ba16896e224","system_id":"levelo_inurba_marseille","lat":43.27667,"lon":5.38885,"is_reserved":false,"is_disabled":false,"rental_uris":{"android":"levelo://app?vid=17eba648-b425-49bd-9db4-1ba16896e224","ios":"levelo://app?vid=17eba648-b425-49bd-9db4-1ba16896e224"},"vehicle_type_id":"4","last_reported":1746537871,"current_range_meters":3600,"station_id":"ce4bhi12rcd13ifvqfo0","pricing_plan_id":"cebpf4jnsgd1na2vs0mg"},{"bike_id":"9fa1bd57-4b28-4439-bc0d-cd0bd1827fe4","system_id":"levelo_inurba_marseille","lat":43.23176,"lon":5.39982,"is_reserved":false,"is_disabled":false,"rental_uris":{"android":"levelo://app?vid=9fa1bd57-4b28-4439-bc0d-cd0bd1827fe4","ios":"levelo://app?vid=9fa1bd57-4b28-4439-bc0d-cd0bd1827fe4"},"vehicle_type_id":"4","last_reported":1746537871,"current_range_meters":3600,"station_id":"ce4bhn12rcd13ifvqgqg","pricing_plan_id":"cebpf4jnsgd1na2vs0mg"},{"bike_id":"b20b13e1-551c-4f9d-b936-982fd039d887","system_id":"levelo_inurba_marseille","lat":43.251229,"lon":5.403633,"is_reserved":false,"is_disabled":false,"rental_uris":{"android":"levelo://app?vid=b20b13e1-551c-4f9d-b936-982fd039d887","ios":"levelo://app?vid=b20b13e1-551c-4f9d-b936-982fd039d887"},"vehicle_type_id":"4","last_reported":1746537871,"current_range_meters":4000,"station_id":"ce4bhlh2rcd13ifvqgig","pricing_plan_id":"cebpf4jnsgd1na2vs0mg"},{"bike_id":"ebd3a543-26f3-418e-bfa9-af5a40d14bc5","system_id":"levelo_inurba_marseille","lat":43.27495,"lon":5.42446,"is_reserved":false,"is_disabled":false,"rental_uris":{"android":"levelo://app?vid=ebd3a543-26f3-418e-bfa9-af5a40d14bc5","ios":"levelo://app?vid=ebd3a543-26f3-418e-bfa9-af5a40d14bc5"},"vehicle_type_id":"4","last_reported":1746537871,"current_range_meters":4000,"station_id":"ce4bhn92rcd13ifvqgrg","pricing_plan_id":"cebpf4jnsgd1na2vs0mg"},{"bike_id":"be3dda80-46aa-4200-9a77-92cb8317ecc4","system_id":"levelo_inurba_marseille","lat":43.28574,"lon":5.39494,"is_reserved":false,"is_disabled":false,"rental_uris":{"android":"levelo://app?vid=be3dda80-46aa-4200-9a77-92cb8317ecc4","ios":"levelo://app?vid=be3dda80-46aa-4200-9a77-92cb8317ecc4"},"vehicle_type_id":"4","last_reported":1746537871,"current_range_meters":3600,"station_id":"ce4bh292rcd13ifvqdg0","pricing_plan_id":"cebpf4jnsgd1na2vs0mg"},{"bike_id":"713addbb-83ed-4bb4-8953-037e3c486bd4","system_id":"levelo_inurba_marseille","lat":43.241673,"lon":5.363893,"is_reserved":false,"is_disabled":false,"rental_uris":{"android":"levelo://app?vid=713addbb-83ed-4bb4-8953-037e3c486bd4","ios":"levelo://app?vid=713addbb-83ed-4bb4-8953-037e3c486bd4"},"vehicle_type_id":"4","last_reported":1746537871,"current_range_meters":4400,"station_id":"cpo36qri1sfpv3e86is0","pricing_plan_id":"cebpf4jnsgd1na2vs0mg"},{"bike_id":"fa7ffac6-de9e-47db-a4bb-54f13bf82da8","system_id":"levelo_inurba_marseille","lat":43.25584,"lon":5.38243,"is_reserved":false,"is_disabled":false,"rental_uris":{"android":"levelo://app?vid=fa7ffac6-de9e-47db-a4bb-54f13bf82da8","ios":"levelo://app?vid=fa7ffac6-de9e-47db-a4bb-54f13bf82da8"},"vehicle_type_id":"4","last_reported":1746537871,"current_range_meters":4400,"station_id":"ce4bhih2rcd13ifvqfs0","pricing_plan_id":"cebpf4jnsgd1na2vs0mg"},{"bike_id":"386c20a1-95b7-4f13-a3a8-413782affb79","system_id":"levelo_inurba_marseille","lat":43.28669,"lon":5.3867,"is_reserved":false,"is_disabled":false,"rental_uris":{"android":"levelo://app?vid=386c20a1-95b7-4f13-a3a8-413782affb79","ios":"levelo://app?vid=386c20a1-95b7-4f13-a3a8-413782affb79"},"vehicle_type_id":"4","last_reported":1746537871,"current_range_meters":4800,"station_id":"ce4bh492rcd13ifvqdug","pricing_plan_id":"cebpf4jnsgd1na2vs0mg"},{"bike_id":"5c7249a3-596f-4101-8dbd-1087a1f3b438","system_id":"levelo_inurba_marseille","lat":43.23186,"lon":5.35537,"is_reserved":false,"is_disabled":false,"rental_uris":{"android":"levelo://app?vid=5c7249a3-596f-4101-8dbd-1087a1f3b438","ios":"levelo://app?vid=5c7249a3-596f-4101-8dbd-1087a1f3b438"},"vehicle_type_id":"4","last_reported":1746537871,"current_range_meters":4800,"station_id":"ce4bhu92rcd13ifvqi70","pricing_plan_id":"cebpf4jnsgd1na2vs0mg"},{"bike_id":"ff922a15-5fe6-4d26-bfdf-d71af4aa7c05","system_id":"levelo_inurba_marseille","lat":43.31082,"lon":5.38351,"is_reserved":false,"is_disabled":false,"rental_uris":{"android":"levelo://app?vid=ff922a15-5fe6-4d26-bfdf-d71af4aa7c05","ios":"levelo://app?vid=ff922a15-5fe6-4d26-bfdf-d71af4aa7c05"},"vehicle_type_id":"4","last_reported":1746537871,"current_range_meters":4800,"station_id":"ce4bgv92rcd13ifvqcr0","pricing_plan_id":"cebpf4jnsgd1na2vs0mg"},{"bike_id":"e9f4fd24-574d-4605-bbee-c27f913e5918","system_id":"levelo_inurba_marseille","lat":43.27937,"lon":5.41047,"is_reserved":false,"is_disabled":false,"rental_uris":{"android":"levelo://app?vid=e9f4fd24-574d-4605-bbee-c27f913e5918","ios":"levelo://app?vid=e9f4fd24-574d-4605-bbee-c27f913e5918"},"vehicle_type_id":"4","last_reported":1746537871,"current_range_meters":4800,"station_id":"ce4bhnp2rcd13ifvqh0g","pricing_plan_id":"cebpf4jnsgd1na2vs0mg"},{"bike_id":"482344f1-460c-48ea-83dd-01b9a385e5cf","system_id":"levelo_inurba_marseille","lat":43.30679,"lon":5.36851,"is_reserved":false,"is_disabled":false,"rental_uris":{"android":"levelo://app?vid=482344f1-460c-48ea-83dd-01b9a385e5cf","ios":"levelo://app?vid=482344f1-460c-48ea-83dd-01b9a385e5cf"},"vehicle_type_id":"4","last_reported":1746537871,"current_range_meters":5600,"station_id":"","pricing_plan_id":"cebpf4jnsgd1na2vs0mg"},{"bike_id":"5650da11-f5a9-4e5c-a12a-df7cdfc6242f","system_id":"levelo_inurba_marseille","lat":43.30534,"lon":5.367,"is_reserved":false,"is_disabled":false,"rental_uris":{"android":"levelo://app?vid=5650da11-f5a9-4e5c-a12a-df7cdfc6242f","ios":"levelo://app?vid=5650da11-f5a9-4e5c-a12a-df7cdfc6242f"},"vehicle_type_id":"4","last_reported":1746537871,"current_range_meters":5600,"station_id":"ce4bgrp2rcd13ifvqc9g","pricing_plan_id":"cebpf4jnsgd1na2vs0mg"},{"bike_id":"15766b34-1ffa-48b4-bcdc-1037197cdcf9","system_id":"levelo_inurba_marseille","lat":43.32363,"lon":5.36757,"is_reserved":false,"is_disabled":false,"rental_uris":{"android":"levelo://app?vid=15766b34-1ffa-48b4-bcdc-1037197cdcf9","ios":"levelo://app?vid=15766b34-1ffa-48b4-bcdc-1037197cdcf9"},"vehicle_type_id":"4","last_reported":1746537871,"current_range_meters":5600,"station_id":"ce4bhsh2rcd13ifvqi2g","pricing_plan_id":"cebpf4jnsgd1na2vs0mg"},{"bike_id":"36f34711-80ee-4c52-8eb6-49f76d3e2cea","system_id":"levelo_inurba_marseille","lat":43.28347,"lon":5.38099,"is_reserved":false,"is_disabled":false,"rental_uris":{"android":"levelo://app?vid=36f34711-80ee-4c52-8eb6-49f76d3e2cea","ios":"levelo://app?vid=36f34711-80ee-4c52-8eb6-49f76d3e2cea"},"vehicle_type_id":"4","last_reported":1746537871,"current_range_meters":5600,"station_id":"ce4bh412rcd13ifvqdr0","pricing_plan_id":"cebpf4jnsgd1na2vs0mg"},{"bike_id":"776ce2e3-d3eb-4c8d-8939-fbec936f08ff","system_id":"levelo_inurba_marseille","lat":43.25127,"lon":5.40329,"is_reserved":false,"is_disabled":false,"rental_uris":{"android":"levelo://app?vid=776ce2e3-d3eb-4c8d-8939-fbec936f08ff","ios":"levelo://app?vid=776ce2e3-d3eb-4c8d-8939-fbec936f08ff"},"vehicle_type_id":"4","last_reported":1746537871,"current_range_meters":6000,"station_id":"ce4bhlh2rcd13ifvqgig","pricing_plan_id":"cebpf4jnsgd1na2vs0mg"},{"bike_id":"6449f70a-7445-4d9d-bd9a-24512d102ed7","system_id":"levelo_inurba_marseille","lat":43.27674,"lon":5.38912,"is_reserved":false,"is_disabled":false,"rental_uris":{"android":"levelo://app?vid=6449f70a-7445-4d9d-bd9a-24512d102ed7","ios":"levelo://app?vid=6449f70a-7445-4d9d-bd9a-24512d102ed7"},"vehicle_type_id":"4","last_reported":1746537871,"current_range_meters":6400,"station_id":"ce4bhi12rcd13ifvqfo0","pricing_plan_id":"cebpf4jnsgd1na2vs0mg"},{"bike_id":"9ce229ff-c48d-4b4c-bd93-12fbfef65ba4","system_id":"levelo_inurba_marseille","lat":43.28461,"lon":5.35888,"is_reserved":false,"is_disabled":false,"rental_uris":{"android":"levelo://app?vid=9ce229ff-c48d-4b4c-bd93-12fbfef65ba4","ios":"levelo://app?vid=9ce229ff-c48d-4b4c-bd93-12fbfef65ba4"},"vehicle_type_id":"4","last_reported":1746537871,"current_range_meters":6400,"station_id":"ce4bhah2rcd13ifvqei0","pricing_plan_id":"cebpf4jnsgd1na2vs0mg"},{"bike_id":"977832d4-a107-42bc-b471-9999d3ec928b","system_id":"levelo_inurba_marseille","lat":43.28464,"lon":5.38555,"is_reserved":false,"is_disabled":false,"rental_uris":{"android":"levelo://app?vid=977832d4-a107-42bc-b471-9999d3ec928b","ios":"levelo://app?vid=977832d4-a107-42bc-b471-9999d3ec928b"},"vehicle_type_id":"4","last_reported":1746537871,"current_range_meters":6800,"station_id":"ce4bh8p2rcd13ifvqeb0","pricing_plan_id":"cebpf4jnsgd1na2vs0mg"},{"bike_id":"83cc1842-773c-46bc-8be1-caa63d83c3c2","system_id":"levelo_inurba_marseille","lat":43.25895,"lon":5.39517,"is_reserved":false,"is_disabled":false,"rental_uris":{"android":"levelo://app?vid=83cc1842-773c-46bc-8be1-caa63d83c3c2","ios":"levelo://app?vid=83cc1842-773c-46bc-8be1-caa63d83c3c2"},"vehicle_type_id":"4","last_reported":1746537871,"current_range_meters":6800,"station_id":"","pricing_plan_id":"cebpf4jnsgd1na2vs0mg"},{"bike_id":"902e7b37-8eb8-422a-9b4e-48687c91cf6d","system_id":"levelo_inurba_marseille","lat":43.31494,"lon":5.37306,"is_reserved":false,"is_disabled":false,"rental_uris":{"android":"levelo://app?vid=902e7b37-8eb8-422a-9b4e-48687c91cf6d","ios":"levelo://app?vid=902e7b37-8eb8-422a-9b4e-48687c91cf6d"},"vehicle_type_id":"4","last_reported":1746537871,"current_range_meters":6800,"station_id":"ce4bgt12rcd13ifvqcd0","pricing_plan_id":"cebpf4jnsgd1na2vs0mg"},{"bike_id":"b0f645e3-3456-4ad4-907a-9b7b7c1b3c37","system_id":"levelo_inurba_marseille","lat":43.289432,"lon":5.364014,"is_reserved":false,"is_disabled":false,"rental_uris":{"android":"levelo://app?vid=b0f645e3-3456-4ad4-907a-9b7b7c1b3c37","ios":"levelo://app?vid=b0f645e3-3456-4ad4-907a-9b7b7c1b3c37"},"vehicle_type_id":"4","last_reported":1746537871,"current_range_meters":6400,"station_id":"ce4bhc92rcd13ifvqetg","pricing_plan_id":"cebpf4jnsgd1na2vs0mg"},{"bike_id":"416f578b-a76d-4698-b5ca-69135ef4b579","system_id":"levelo_inurba_marseille","lat":43.241655,"lon":5.363928,"is_reserved":false,"is_disabled":false,"rental_uris":{"android":"levelo://app?vid=416f578b-a76d-4698-b5ca-69135ef4b579","ios":"levelo://app?vid=416f578b-a76d-4698-b5ca-69135ef4b579"},"vehicle_type_id":"4","last_reported":1746537871,"current_range_meters":7200,"station_id":"cpo36qri1sfpv3e86is0","pricing_plan_id":"cebpf4jnsgd1na2vs0mg"},{"bike_id":"f201e35f-0887-46ff-bb2e-950f0791d4ee","system_id":"levelo_inurba_marseille","lat":43.265495,"lon":5.3729,"is_reserved":false,"is_disabled":false,"rental_uris":{"android":"levelo://app?vid=f201e35f-0887-46ff-bb2e-950f0791d4ee","ios":"levelo://app?vid=f201e35f-0887-46ff-bb2e-950f0791d4ee"},"vehicle_type_id":"4","last_reported":1746537871,"current_range_meters":7200,"station_id":"ce4bhg12rcd13ifvqf70","pricing_plan_id":"cebpf4jnsgd1na2vs0mg"},{"bike_id":"a107addc-76b1-416d-8461-b794c98726d2","system_id":"levelo_inurba_marseille","lat":43.3011,"lon":5.39073,"is_reserved":false,"is_disabled":false,"rental_uris":{"android":"levelo://app?vid=a107addc-76b1-416d-8461-b794c98726d2","ios":"levelo://app?vid=a107addc-76b1-416d-8461-b794c98726d2"},"vehicle_type_id":"4","last_reported":1746537871,"current_range_meters":11600,"station_id":"ce4bh192rcd13ifvqdb0","pricing_plan_id":"cebpf4jnsgd1na2vs0mg"},{"bike_id":"5d98f89b-c686-4ebe-b6da-ae4893b4b97e","system_id":"levelo_inurba_marseille","lat":43.306095,"lon":5.372294,"is_reserved":false,"is_disabled":false,"rental_uris":{"android":"levelo://app?vid=5d98f89b-c686-4ebe-b6da-ae4893b4b97e","ios":"levelo://app?vid=5d98f89b-c686-4ebe-b6da-ae4893b4b97e"},"vehicle_type_id":"4","last_reported":1746537871,"current_range_meters":7200,"station_id":"ce4bgqh2rcd13ifvqc4g","pricing_plan_id":"cebpf4jnsgd1na2vs0mg"},{"bike_id":"4d9a67e4-53f1-4624-ab22-0ed208cc8c0d","system_id":"levelo_inurba_marseille","lat":43.24166,"lon":5.36395,"is_reserved":false,"is_disabled":false,"rental_uris":{"android":"levelo://app?vid=4d9a67e4-53f1-4624-ab22-0ed208cc8c0d","ios":"levelo://app?vid=4d9a67e4-53f1-4624-ab22-0ed208cc8c0d"},"vehicle_type_id":"4","last_reported":1746537871,"current_range_meters":8000,"station_id":"cpo36qri1sfpv3e86is0","pricing_plan_id":"cebpf4jnsgd1na2vs0mg"},{"bike_id":"709cbf51-0179-4197-b68c-2cda64deb0f3","system_id":"levelo_inurba_marseille","lat":43.30804,"lon":5.3816,"is_reserved":false,"is_disabled":false,"rental_uris":{"android":"levelo://app?vid=709cbf51-0179-4197-b68c-2cda64deb0f3","ios":"levelo://app?vid=709cbf51-0179-4197-b68c-2cda64deb0f3"},"vehicle_type_id":"4","last_reported":1746537871,"current_range_meters":8000,"station_id":"ce4bgt12rcd13ifvqce0","pricing_plan_id":"cebpf4jnsgd1na2vs0mg"},{"bike_id":"5053cbed-ece9-40a8-904a-a132deb3e02e","system_id":"levelo_inurba_marseille","lat":43.29798,"lon":5.38077,"is_reserved":false,"is_disabled":false,"rental_uris":{"android":"levelo://app?vid=5053cbed-ece9-40a8-904a-a132deb3e02e","ios":"levelo://app?vid=5053cbed-ece9-40a8-904a-a132deb3e02e"},"vehicle_type_id":"4","last_reported":1746537871,"current_range_meters":8000,"station_id":"ce4bgip2rcd13ifvqbb0","pricing_plan_id":"cebpf4jnsgd1na2vs0mg"},{"bike_id":"7bbeaa7e-5c67-4ae1-b2b5-221b46d3df9f","system_id":"levelo_inurba_marseille","lat":43.27971,"lon":5.38731,"is_reserved":false,"is_disabled":false,"rental_uris":{"android":"levelo://app?vid=7bbeaa7e-5c67-4ae1-b2b5-221b46d3df9f","ios":"levelo://app?vid=7bbeaa7e-5c67-4ae1-b2b5-221b46d3df9f"},"vehicle_type_id":"4","last_reported":1746537871,"current_range_meters":8400,"station_id":"ce4bhg12rcd13ifvqf80","pricing_plan_id":"cebpf4jnsgd1na2vs0mg"},{"bike_id":"3a977798-ab7f-40c8-8787-c9c3dc15ec2e","system_id":"levelo_inurba_marseille","lat":43.29782,"lon":5.38094,"is_reserved":false,"is_disabled":false,"rental_uris":{"android":"levelo://app?vid=3a977798-ab7f-40c8-8787-c9c3dc15ec2e","ios":"levelo://app?vid=3a977798-ab7f-40c8-8787-c9c3dc15ec2e"},"vehicle_type_id":"4","last_reported":1746537871,"current_range_meters":8400,"station_id":"ce4bgip2rcd13ifvqbb0","pricing_plan_id":"cebpf4jnsgd1na2vs0mg"},{"bike_id":"0d474395-c99d-43ca-ad4e-82a64533b084","system_id":"levelo_inurba_marseille","lat":43.29909,"lon":5.38138,"is_reserved":false,"is_disabled":false,"rental_uris":{"android":"levelo://app?vid=0d474395-c99d-43ca-ad4e-82a64533b084","ios":"levelo://app?vid=0d474395-c99d-43ca-ad4e-82a64533b084"},"vehicle_type_id":"4","last_reported":1746537871,"current_range_meters":8400,"station_id":"ce4bgj12rcd13ifvqbc0","pricing_plan_id":"cebpf4jnsgd1na2vs0mg"},{"bike_id":"61db84bb-7042-4ede-a214-2a4162e01fb9","system_id":"levelo_inurba_marseille","lat":43.29986,"lon":5.37178,"is_reserved":false,"is_disabled":false,"rental_uris":{"android":"levelo://app?vid=61db84bb-7042-4ede-a214-2a4162e01fb9","ios":"levelo://app?vid=61db84bb-7042-4ede-a214-2a4162e01fb9"},"vehicle_type_id":"4","last_reported":1746537871,"current_range_meters":8400,"station_id":"ce4bgr92rcd13ifvqc7g","pricing_plan_id":"cebpf4jnsgd1na2vs0mg"},{"bike_id":"3574a507-abe3-4c3c-a472-102e5d909dbf","system_id":"levelo_inurba_marseille","lat":43.29005,"lon":5.35608,"is_reserved":false,"is_disabled":false,"rental_uris":{"android":"levelo://app?vid=3574a507-abe3-4c3c-a472-102e5d909dbf","ios":"levelo://app?vid=3574a507-abe3-4c3c-a472-102e5d909dbf"},"vehicle_type_id":"4","last_reported":1746537871,"current_range_meters":8400,"station_id":"ce4bhb92rcd13ifvqen0","pricing_plan_id":"cebpf4jnsgd1na2vs0mg"},{"bike_id":"67afc7bf-b78a-42d5-9674-6f17293940cc","system_id":"levelo_inurba_marseille","lat":43.30937,"lon":5.40176,"is_reserved":false,"is_disabled":false,"rental_uris":{"android":"levelo://app?vid=67afc7bf-b78a-42d5-9674-6f17293940cc","ios":"levelo://app?vid=67afc7bf-b78a-42d5-9674-6f17293940cc"},"vehicle_type_id":"4","last_reported":1746537871,"current_range_meters":8800,"station_id":"ce4bgvp2rcd13ifvqct0","pricing_plan_id":"cebpf4jnsgd1na2vs0mg"},{"bike_id":"9d8f73eb-df09-4699-86a7-d631e2319093","system_id":"levelo_inurba_marseille","lat":43.2628,"lon":5.37439,"is_reserved":false,"is_disabled":false,"rental_uris":{"android":"levelo://app?vid=9d8f73eb-df09-4699-86a7-d631e2319093","ios":"levelo://app?vid=9d8f73eb-df09-4699-86a7-d631e2319093"},"vehicle_type_id":"4","last_reported":1746537871,"current_range_meters":8800,"station_id":"","pricing_plan_id":"cebpf4jnsgd1na2vs0mg"},{"bike_id":"dd607985-1778-49d0-8dff-77f64b5f788b","system_id":"levelo_inurba_marseille","lat":43.28,"lon":5.40023,"is_reserved":false,"is_disabled":false,"rental_uris":{"android":"levelo://app?vid=dd607985-1778-49d0-8dff-77f64b5f788b","ios":"levelo://app?vid=dd607985-1778-49d0-8dff-77f64b5f788b"},"vehicle_type_id":"4","last_reported":1746537871,"current_range_meters":9200,"station_id":"ce4bho92rcd13ifvqh4g","pricing_plan_id":"cebpf4jnsgd1na2vs0mg"},{"bike_id":"47956ac4-b384-4e4d-8f86-d31ccfb14679","system_id":"levelo_inurba_marseille","lat":43.26193,"lon":5.37449,"is_reserved":false,"is_disabled":true,"rental_uris":{"android":"levelo://app?vid=47956ac4-b384-4e4d-8f86-d31ccfb14679","ios":"levelo://app?vid=47956ac4-b384-4e4d-8f86-d31ccfb14679"},"vehicle_type_id":"4","last_reported":1746537871,"current_range_meters":9200,"station_id":"ce4bhgp2rcd13ifvqfc0","pricing_plan_id":"cebpf4jnsgd1na2vs0mg"},{"bike_id":"503569af-07db-461f-918e-29f89d0c1c24","system_id":"levelo_inurba_marseille","lat":43.22501,"lon":5.34784,"is_reserved":false,"is_disabled":false,"rental_uris":{"android":"levelo://app?vid=503569af-07db-461f-918e-29f89d0c1c24","ios":"levelo://app?vid=503569af-07db-461f-918e-29f89d0c1c24"},"vehicle_type_id":"4","last_reported":1746537871,"current_range_meters":9200,"station_id":"st_cvj5dfep6f1abm77gieg","pricing_plan_id":"cebpf4jnsgd1na2vs0mg"},{"bike_id":"62bfa9fa-531f-4d2b-9e57-eb50b2d48c8c","system_id":"levelo_inurba_marseille","lat":43.24273,"lon":5.37999,"is_reserved":false,"is_disabled":false,"rental_uris":{"android":"levelo://app?vid=62bfa9fa-531f-4d2b-9e57-eb50b2d48c8c","ios":"levelo://app?vid=62bfa9fa-531f-4d2b-9e57-eb50b2d48c8c"},"vehicle_type_id":"4","last_reported":1746537871,"current_range_meters":9200,"station_id":"","pricing_plan_id":"cebpf4jnsgd1na2vs0mg"},{"bike_id":"64800414-c228-42cc-b732-f65944c7bfa4","system_id":"levelo_inurba_marseille","lat":43.23195,"lon":5.39975,"is_reserved":false,"is_disabled":false,"rental_uris":{"android":"levelo://app?vid=64800414-c228-42cc-b732-f65944c7bfa4","ios":"levelo://app?vid=64800414-c228-42cc-b732-f65944c7bfa4"},"vehicle_type_id":"4","last_reported":1746537871,"current_range_meters":9600,"station_id":"ce4bhn12rcd13ifvqgqg","pricing_plan_id":"cebpf4jnsgd1na2vs0mg"},{"bike_id":"3ffb72b3-3870-4ecb-bb52-bfefa0d19a50","system_id":"levelo_inurba_marseille","lat":43.27059,"lon":5.42252,"is_reserved":false,"is_disabled":false,"rental_uris":{"android":"levelo://app?vid=3ffb72b3-3870-4ecb-bb52-bfefa0d19a50","ios":"levelo://app?vid=3ffb72b3-3870-4ecb-bb52-bfefa0d19a50"},"vehicle_type_id":"4","last_reported":1746537871,"current_range_meters":9600,"station_id":"ce4bhk92rcd13ifvqgb0","pricing_plan_id":"cebpf4jnsgd1na2vs0mg"},{"bike_id":"71e3bc84-ff10-4185-be02-e23c45721478","system_id":"levelo_inurba_marseille","lat":43.31716,"lon":5.43709,"is_reserved":false,"is_disabled":false,"rental_uris":{"android":"levelo://app?vid=71e3bc84-ff10-4185-be02-e23c45721478","ios":"levelo://app?vid=71e3bc84-ff10-4185-be02-e23c45721478"},"vehicle_type_id":"4","last_reported":1746537871,"current_range_meters":9200,"station_id":"ce4bhp92rcd13ifvqhcg","pricing_plan_id":"cebpf4jnsgd1na2vs0mg"},{"bike_id":"e59dd6bb-e8fa-41ff-a44f-a2122f342973","system_id":"levelo_inurba_marseille","lat":43.29804,"lon":5.40405,"is_reserved":false,"is_disabled":false,"rental_uris":{"android":"levelo://app?vid=e59dd6bb-e8fa-41ff-a44f-a2122f342973","ios":"levelo://app?vid=e59dd6bb-e8fa-41ff-a44f-a2122f342973"},"vehicle_type_id":"4","last_reported":1746537871,"current_range_meters":9600,"station_id":"ce4bh112rcd13ifvqd90","pricing_plan_id":"cebpf4jnsgd1na2vs0mg"},{"bike_id":"95218495-51a7-4576-bafc-52f6adb1d4aa","system_id":"levelo_inurba_marseille","lat":43.30535,"lon":5.36542,"is_reserved":false,"is_disabled":false,"rental_uris":{"android":"levelo://app?vid=95218495-51a7-4576-bafc-52f6adb1d4aa","ios":"levelo://app?vid=95218495-51a7-4576-bafc-52f6adb1d4aa"},"vehicle_type_id":"4","last_reported":1746537871,"current_range_meters":9600,"station_id":"ce4bgs12rcd13ifvqcag","pricing_plan_id":"cebpf4jnsgd1na2vs0mg"},{"bike_id":"c2fff035-6128-402a-b38b-ebc94261b3d8","system_id":"levelo_inurba_marseille","lat":43.21189,"lon":5.35069,"is_reserved":false,"is_disabled":false,"rental_uris":{"android":"levelo://app?vid=c2fff035-6128-402a-b38b-ebc94261b3d8","ios":"levelo://app?vid=c2fff035-6128-402a-b38b-ebc94261b3d8"},"vehicle_type_id":"4","last_reported":1746537871,"current_range_meters":9600,"station_id":"st_cvj6sg6p6f1abm77japg","pricing_plan_id":"cebpf4jnsgd1na2vs0mg"},{"bike_id":"d7baf11c-482e-4e9e-8fc8-c79689c51a43","system_id":"levelo_inurba_marseille","lat":43.24795,"lon":5.37457,"is_reserved":false,"is_disabled":false,"rental_uris":{"android":"levelo://app?vid=d7baf11c-482e-4e9e-8fc8-c79689c51a43","ios":"levelo://app?vid=d7baf11c-482e-4e9e-8fc8-c79689c51a43"},"vehicle_type_id":"4","last_reported":1746537871,"current_range_meters":9600,"station_id":"ce4bhgh2rcd13ifvqfb0","pricing_plan_id":"cebpf4jnsgd1na2vs0mg"},{"bike_id":"0c377d9d-9a3a-47a7-9944-6039314b5e15","system_id":"levelo_inurba_marseille","lat":43.24596,"lon":5.40485,"is_reserved":false,"is_disabled":false,"rental_uris":{"android":"levelo://app?vid=0c377d9d-9a3a-47a7-9944-6039314b5e15","ios":"levelo://app?vid=0c377d9d-9a3a-47a7-9944-6039314b5e15"},"vehicle_type_id":"4","last_reported":1746537871,"current_range_meters":9600,"station_id":"","pricing_plan_id":"cebpf4jnsgd1na2vs0mg"},{"bike_id":"05a84f69-0592-442a-b098-6253d0b70e9e","system_id":"levelo_inurba_marseille","lat":43.2999,"lon":5.37228,"is_reserved":false,"is_disabled":false,"rental_uris":{"android":"levelo://app?vid=05a84f69-0592-442a-b098-6253d0b70e9e","ios":"levelo://app?vid=05a84f69-0592-442a-b098-6253d0b70e9e"},"vehicle_type_id":"4","last_reported":1746537871,"current_range_meters":9600,"station_id":"ce4bgr92rcd13ifvqc7g","pricing_plan_id":"cebpf4jnsgd1na2vs0mg"},{"bike_id":"e0eebb06-5c98-44a4-9f84-563b62ed60fe","system_id":"levelo_inurba_marseille","lat":43.2594,"lon":5.40893,"is_reserved":false,"is_disabled":false,"rental_uris":{"android":"levelo://app?vid=e0eebb06-5c98-44a4-9f84-563b62ed60fe","ios":"levelo://app?vid=e0eebb06-5c98-44a4-9f84-563b62ed60fe"},"vehicle_type_id":"4","last_reported":1746537871,"current_range_meters":10000,"station_id":"ce4bhm92rcd13ifvqglg","pricing_plan_id":"cebpf4jnsgd1na2vs0mg"},{"bike_id":"97f6ab01-f757-4195-96ed-58bde74ae98e","system_id":"levelo_inurba_marseille","lat":43.29416,"lon":5.38622,"is_reserved":false,"is_disabled":false,"rental_uris":{"android":"levelo://app?vid=97f6ab01-f757-4195-96ed-58bde74ae98e","ios":"levelo://app?vid=97f6ab01-f757-4195-96ed-58bde74ae98e"},"vehicle_type_id":"4","last_reported":1746537871,"current_range_meters":10000,"station_id":"ce4bh2h2rcd13ifvqdh0","pricing_plan_id":"cebpf4jnsgd1na2vs0mg"},{"bike_id":"235a200c-19a2-467b-b70b-cb13b65b3331","system_id":"levelo_inurba_marseille","lat":43.278193,"lon":5.407123,"is_reserved":false,"is_disabled":false,"rental_uris":{"android":"levelo://app?vid=235a200c-19a2-467b-b70b-cb13b65b3331","ios":"levelo://app?vid=235a200c-19a2-467b-b70b-cb13b65b3331"},"vehicle_type_id":"4","last_reported":1746537871,"current_range_meters":10800,"station_id":"ce4bhnh2rcd13ifvqgtg","pricing_plan_id":"cebpf4jnsgd1na2vs0mg"},{"bike_id":"fa37bfe9-0fcc-4f35-84b9-67041a093339","system_id":"levelo_inurba_marseille","lat":43.24077,"lon":5.37764,"is_reserved":false,"is_disabled":false,"rental_uris":{"android":"levelo://app?vid=fa37bfe9-0fcc-4f35-84b9-67041a093339","ios":"levelo://app?vid=fa37bfe9-0fcc-4f35-84b9-67041a093339"},"vehicle_type_id":"4","last_reported":1746537871,"current_range_meters":10800,"station_id":"ce4bhnp2rcd13ifvqgvg","pricing_plan_id":"cebpf4jnsgd1na2vs0mg"},{"bike_id":"823d7771-4b5c-4850-8bfc-115e064c7028","system_id":"levelo_inurba_marseille","lat":43.32367,"lon":5.38882,"is_reserved":false,"is_disabled":false,"rental_uris":{"android":"levelo://app?vid=823d7771-4b5c-4850-8bfc-115e064c7028","ios":"levelo://app?vid=823d7771-4b5c-4850-8bfc-115e064c7028"},"vehicle_type_id":"4","last_reported":1746537871,"current_range_meters":10800,"station_id":"ce4bhqp2rcd13ifvqhog","pricing_plan_id":"cebpf4jnsgd1na2vs0mg"},{"bike_id":"535362e3-e2ee-45b5-9977-ff664d6a79f5","system_id":"levelo_inurba_marseille","lat":43.24664,"lon":5.3817,"is_reserved":false,"is_disabled":false,"rental_uris":{"android":"levelo://app?vid=535362e3-e2ee-45b5-9977-ff664d6a79f5","ios":"levelo://app?vid=535362e3-e2ee-45b5-9977-ff664d6a79f5"},"vehicle_type_id":"4","last_reported":1746537871,"current_range_meters":10000,"station_id":"ce4bhih2rcd13ifvqfr0","pricing_plan_id":"cebpf4jnsgd1na2vs0mg"},{"bike_id":"c9592205-9409-4f74-aed1-7c4141a58caa","system_id":"levelo_inurba_marseille","lat":43.27133,"lon":5.36362,"is_reserved":false,"is_disabled":false,"rental_uris":{"android":"levelo://app?vid=c9592205-9409-4f74-aed1-7c4141a58caa","ios":"levelo://app?vid=c9592205-9409-4f74-aed1-7c4141a58caa"},"vehicle_type_id":"4","last_reported":1746537871,"current_range_meters":10800,"station_id":"","pricing_plan_id":"cebpf4jnsgd1na2vs0mg"},{"bike_id":"b3c046fb-e53b-4ac2-b783-8c00a2c37598","system_id":"levelo_inurba_marseille","lat":43.27482,"lon":5.42447,"is_reserved":false,"is_disabled":false,"rental_uris":{"android":"levelo://app?vid=b3c046fb-e53b-4ac2-b783-8c00a2c37598","ios":"levelo://app?vid=b3c046fb-e53b-4ac2-b783-8c00a2c37598"},"vehicle_type_id":"4","last_reported":1746537871,"current_range_meters":11600,"station_id":"ce4bhn92rcd13ifvqgrg","pricing_plan_id":"cebpf4jnsgd1na2vs0mg"},{"bike_id":"dcb8f5fe-853c-4595-b30e-01d17656c7fe","system_id":"levelo_inurba_marseille","lat":43.25936,"lon":5.40901,"is_reserved":false,"is_disabled":false,"rental_uris":{"android":"levelo://app?vid=dcb8f5fe-853c-4595-b30e-01d17656c7fe","ios":"levelo://app?vid=dcb8f5fe-853c-4595-b30e-01d17656c7fe"},"vehicle_type_id":"4","last_reported":1746537871,"current_range_meters":11200,"station_id":"ce4bhm92rcd13ifvqglg","pricing_plan_id":"cebpf4jnsgd1na2vs0mg"},{"bike_id":"4eabc4b6-b64a-48a8-a961-881ab0b1d73c","system_id":"levelo_inurba_marseille","lat":43.26198,"lon":5.40421,"is_reserved":false,"is_disabled":false,"rental_uris":{"android":"levelo://app?vid=4eabc4b6-b64a-48a8-a961-881ab0b1d73c","ios":"levelo://app?vid=4eabc4b6-b64a-48a8-a961-881ab0b1d73c"},"vehicle_type_id":"4","last_reported":1746537871,"current_range_meters":11200,"station_id":"ce4bhmh2rcd13ifvqgmg","pricing_plan_id":"cebpf4jnsgd1na2vs0mg"},{"bike_id":"8a38aed5-8922-4643-a4e7-32d613a15be8","system_id":"levelo_inurba_marseille","lat":43.3108,"lon":5.3835,"is_reserved":false,"is_disabled":false,"rental_uris":{"android":"levelo://app?vid=8a38aed5-8922-4643-a4e7-32d613a15be8","ios":"levelo://app?vid=8a38aed5-8922-4643-a4e7-32d613a15be8"},"vehicle_type_id":"4","last_reported":1746537871,"current_range_meters":11200,"station_id":"ce4bgv92rcd13ifvqcr0","pricing_plan_id":"cebpf4jnsgd1na2vs0mg"},{"bike_id":"c51639c5-23d1-4827-9a45-59fb3bcbffb1","system_id":"levelo_inurba_marseille","lat":43.29006,"lon":5.35608,"is_reserved":false,"is_disabled":false,"rental_uris":{"android":"levelo://app?vid=c51639c5-23d1-4827-9a45-59fb3bcbffb1","ios":"levelo://app?vid=c51639c5-23d1-4827-9a45-59fb3bcbffb1"},"vehicle_type_id":"4","last_reported":1746537871,"current_range_meters":11600,"station_id":"ce4bhb92rcd13ifvqen0","pricing_plan_id":"cebpf4jnsgd1na2vs0mg"},{"bike_id":"93f9c31a-33af-443e-bb0a-ed7cb8358a5c","system_id":"levelo_inurba_marseille","lat":43.32114,"lon":5.36767,"is_reserved":false,"is_disabled":false,"rental_uris":{"android":"levelo://app?vid=93f9c31a-33af-443e-bb0a-ed7cb8358a5c","ios":"levelo://app?vid=93f9c31a-33af-443e-bb0a-ed7cb8358a5c"},"vehicle_type_id":"4","last_reported":1746537871,"current_range_meters":11600,"station_id":"ce4bhrh2rcd13ifvqhug","pricing_plan_id":"cebpf4jnsgd1na2vs0mg"},{"bike_id":"faac2b3f-a7e2-4513-b046-7a71ed578fae","system_id":"levelo_inurba_marseille","lat":43.26552,"lon":5.37283,"is_reserved":false,"is_disabled":false,"rental_uris":{"android":"levelo://app?vid=faac2b3f-a7e2-4513-b046-7a71ed578fae","ios":"levelo://app?vid=faac2b3f-a7e2-4513-b046-7a71ed578fae"},"vehicle_type_id":"4","last_reported":1746537871,"current_range_meters":11600,"station_id":"ce4bhg12rcd13ifvqf70","pricing_plan_id":"cebpf4jnsgd1na2vs0mg"},{"bike_id":"f28a909f-3bb4-4d95-a4f0-baf9c89503e9","system_id":"levelo_inurba_marseille","lat":43.27941,"lon":5.41041,"is_reserved":false,"is_disabled":false,"rental_uris":{"android":"levelo://app?vid=f28a909f-3bb4-4d95-a4f0-baf9c89503e9","ios":"levelo://app?vid=f28a909f-3bb4-4d95-a4f0-baf9c89503e9"},"vehicle_type_id":"4","last_reported":1746537871,"current_range_meters":11600,"station_id":"ce4bhnp2rcd13ifvqh0g","pricing_plan_id":"cebpf4jnsgd1na2vs0mg"},{"bike_id":"3f84d55c-f7b3-443f-a8ba-1f83ba8291a2","system_id":"levelo_inurba_marseille","lat":43.21191,"lon":5.35077,"is_reserved":false,"is_disabled":false,"rental_uris":{"android":"levelo://app?vid=3f84d55c-f7b3-443f-a8ba-1f83ba8291a2","ios":"levelo://app?vid=3f84d55c-f7b3-443f-a8ba-1f83ba8291a2"},"vehicle_type_id":"4","last_reported":1746537871,"current_range_meters":11600,"station_id":"st_cvj6sg6p6f1abm77japg","pricing_plan_id":"cebpf4jnsgd1na2vs0mg"},{"bike_id":"d665b931-805d-4172-822c-1be6af513662","system_id":"levelo_inurba_marseille","lat":43.24387,"lon":5.37065,"is_reserved":false,"is_disabled":false,"rental_uris":{"android":"levelo://app?vid=d665b931-805d-4172-822c-1be6af513662","ios":"levelo://app?vid=d665b931-805d-4172-822c-1be6af513662"},"vehicle_type_id":"4","last_reported":1746537871,"current_range_meters":11600,"station_id":"ce4bhhh2rcd13ifvqfk0","pricing_plan_id":"cebpf4jnsgd1na2vs0mg"},{"bike_id":"1c7dd804-5ed5-48cf-9295-ed68c13a0b9a","system_id":"levelo_inurba_marseille","lat":43.27497,"lon":5.42462,"is_reserved":false,"is_disabled":false,"rental_uris":{"android":"levelo://app?vid=1c7dd804-5ed5-48cf-9295-ed68c13a0b9a","ios":"levelo://app?vid=1c7dd804-5ed5-48cf-9295-ed68c13a0b9a"},"vehicle_type_id":"4","last_reported":1746537871,"current_range_meters":12000,"station_id":"ce4bhn92rcd13ifvqgrg","pricing_plan_id":"cebpf4jnsgd1na2vs0mg"},{"bike_id":"701841e0-810b-49d4-9f53-514308839156","system_id":"levelo_inurba_marseille","lat":43.26551,"lon":5.37285,"is_reserved":false,"is_disabled":false,"rental_uris":{"android":"levelo://app?vid=701841e0-810b-49d4-9f53-514308839156","ios":"levelo://app?vid=701841e0-810b-49d4-9f53-514308839156"},"vehicle_type_id":"4","last_reported":1746537871,"current_range_meters":12400,"station_id":"ce4bhg12rcd13ifvqf70","pricing_plan_id":"cebpf4jnsgd1na2vs0mg"},{"bike_id":"fc3c9af2-118a-4372-be75-382ce87a9c3b","system_id":"levelo_inurba_marseille","lat":43.28036,"lon":5.36938,"is_reserved":false,"is_disabled":false,"rental_uris":{"android":"levelo://app?vid=fc3c9af2-118a-4372-be75-382ce87a9c3b","ios":"levelo://app?vid=fc3c9af2-118a-4372-be75-382ce87a9c3b"},"vehicle_type_id":"4","last_reported":1746537871,"current_range_meters":12400,"station_id":"ce4bha12rcd13ifvqef0","pricing_plan_id":"cebpf4jnsgd1na2vs0mg"},{"bike_id":"8d0bf122-5225-4c91-bea7-982eb7dc4e2a","system_id":"levelo_inurba_marseille","lat":43.25872,"lon":5.39891,"is_reserved":false,"is_disabled":false,"rental_uris":{"android":"levelo://app?vid=8d0bf122-5225-4c91-bea7-982eb7dc4e2a","ios":"levelo://app?vid=8d0bf122-5225-4c91-bea7-982eb7dc4e2a"},"vehicle_type_id":"4","last_reported":1746537871,"current_range_meters":12400,"station_id":"ce4bhl92rcd13ifvqghg","pricing_plan_id":"cebpf4jnsgd1na2vs0mg"},{"bike_id":"583cbb13-c145-4efe-a6f1-2cbe82bb0914","system_id":"levelo_inurba_marseille","lat":43.307199,"lon":5.37293,"is_reserved":false,"is_disabled":false,"rental_uris":{"android":"levelo://app?vid=583cbb13-c145-4efe-a6f1-2cbe82bb0914","ios":"levelo://app?vid=583cbb13-c145-4efe-a6f1-2cbe82bb0914"},"vehicle_type_id":"4","last_reported":1746537871,"current_range_meters":13600,"station_id":"","pricing_plan_id":"cebpf4jnsgd1na2vs0mg"},{"bike_id":"c9b08acc-60c1-4e49-9248-c2424796bf52","system_id":"levelo_inurba_marseille","lat":43.2842,"lon":5.37519,"is_reserved":false,"is_disabled":false,"rental_uris":{"android":"levelo://app?vid=c9b08acc-60c1-4e49-9248-c2424796bf52","ios":"levelo://app?vid=c9b08acc-60c1-4e49-9248-c2424796bf52"},"vehicle_type_id":"4","last_reported":1746537871,"current_range_meters":13600,"station_id":"ce4bh412rcd13ifvqds0","pricing_plan_id":"cebpf4jnsgd1na2vs0mg"},{"bike_id":"33120c76-706c-4328-9cc0-136fd41663d5","system_id":"levelo_inurba_marseille","lat":43.28062,"lon":5.39641,"is_reserved":false,"is_disabled":false,"rental_uris":{"android":"levelo://app?vid=33120c76-706c-4328-9cc0-136fd41663d5","ios":"levelo://app?vid=33120c76-706c-4328-9cc0-136fd41663d5"},"vehicle_type_id":"4","last_reported":1746537871,"current_range_meters":13600,"station_id":"ce4bho12rcd13ifvqh2g","pricing_plan_id":"cebpf4jnsgd1na2vs0mg"},{"bike_id":"13ebfc6a-b3e8-4bd2-9055-317da3a3d7f6","system_id":"levelo_inurba_marseille","lat":43.24081,"lon":5.37749,"is_reserved":false,"is_disabled":false,"rental_uris":{"android":"levelo://app?vid=13ebfc6a-b3e8-4bd2-9055-317da3a3d7f6","ios":"levelo://app?vid=13ebfc6a-b3e8-4bd2-9055-317da3a3d7f6"},"vehicle_type_id":"4","last_reported":1746537871,"current_range_meters":13600,"station_id":"ce4bhnp2rcd13ifvqgvg","pricing_plan_id":"cebpf4jnsgd1na2vs0mg"},{"bike_id":"c41f6373-2a0d-433c-802a-830b47aa3e1e","system_id":"levelo_inurba_marseille","lat":43.21196,"lon":5.35062,"is_reserved":false,"is_disabled":false,"rental_uris":{"android":"levelo://app?vid=c41f6373-2a0d-433c-802a-830b47aa3e1e","ios":"levelo://app?vid=c41f6373-2a0d-433c-802a-830b47aa3e1e"},"vehicle_type_id":"4","last_reported":1746537871,"current_range_meters":13600,"station_id":"st_cvj6sg6p6f1abm77japg","pricing_plan_id":"cebpf4jnsgd1na2vs0mg"},{"bike_id":"7241216c-c95b-41a2-83d7-197ae0415ef7","system_id":"levelo_inurba_marseille","lat":43.2439,"lon":5.37062,"is_reserved":false,"is_disabled":false,"rental_uris":{"android":"levelo://app?vid=7241216c-c95b-41a2-83d7-197ae0415ef7","ios":"levelo://app?vid=7241216c-c95b-41a2-83d7-197ae0415ef7"},"vehicle_type_id":"4","last_reported":1746537871,"current_range_meters":13600,"station_id":"ce4bhhh2rcd13ifvqfk0","pricing_plan_id":"cebpf4jnsgd1na2vs0mg"},{"bike_id":"61d0a38a-67ca-4874-9b41-dc1f1423a342","system_id":"levelo_inurba_marseille","lat":43.32538,"lon":5.41455,"is_reserved":false,"is_disabled":false,"rental_uris":{"android":"levelo://app?vid=61d0a38a-67ca-4874-9b41-dc1f1423a342","ios":"levelo://app?vid=61d0a38a-67ca-4874-9b41-dc1f1423a342"},"vehicle_type_id":"4","last_reported":1746537871,"current_range_meters":14000,"station_id":"ce4bhq12rcd13ifvqhhg","pricing_plan_id":"cebpf4jnsgd1na2vs0mg"},{"bike_id":"d6d43850-c392-4e05-bd8e-d9f637332061","system_id":"levelo_inurba_marseille","lat":43.27953,"lon":5.41044,"is_reserved":false,"is_disabled":false,"rental_uris":{"android":"levelo://app?vid=d6d43850-c392-4e05-bd8e-d9f637332061","ios":"levelo://app?vid=d6d43850-c392-4e05-bd8e-d9f637332061"},"vehicle_type_id":"4","last_reported":1746537871,"current_range_meters":14400,"station_id":"ce4bhnp2rcd13ifvqh0g","pricing_plan_id":"cebpf4jnsgd1na2vs0mg"},{"bike_id":"961e477c-afaf-4034-99dd-403eb1597523","system_id":"levelo_inurba_marseille","lat":43.31719,"lon":5.42399,"is_reserved":false,"is_disabled":false,"rental_uris":{"android":"levelo://app?vid=961e477c-afaf-4034-99dd-403eb1597523","ios":"levelo://app?vid=961e477c-afaf-4034-99dd-403eb1597523"},"vehicle_type_id":"4","last_reported":1746537871,"current_range_meters":14400,"station_id":"ce4bhp92rcd13ifvqhbg","pricing_plan_id":"cebpf4jnsgd1na2vs0mg"},{"bike_id":"ae32881d-6bcd-469a-966b-59ce0e756b62","system_id":"levelo_inurba_marseille","lat":43.294132,"lon":5.386289,"is_reserved":false,"is_disabled":false,"rental_uris":{"android":"levelo://app?vid=ae32881d-6bcd-469a-966b-59ce0e756b62","ios":"levelo://app?vid=ae32881d-6bcd-469a-966b-59ce0e756b62"},"vehicle_type_id":"4","last_reported":1746537871,"current_range_meters":14400,"station_id":"ce4bh012rcd13ifvqcv0","pricing_plan_id":"cebpf4jnsgd1na2vs0mg"},{"bike_id":"7cfc5b58-eacf-449e-a332-6b730376e538","system_id":"levelo_inurba_marseille","lat":43.241583,"lon":5.397217,"is_reserved":false,"is_disabled":false,"rental_uris":{"android":"levelo://app?vid=7cfc5b58-eacf-449e-a332-6b730376e538","ios":"levelo://app?vid=7cfc5b58-eacf-449e-a332-6b730376e538"},"vehicle_type_id":"4","last_reported":1746537871,"current_range_meters":14400,"station_id":"ce4bhn12rcd13ifvqgpg","pricing_plan_id":"cebpf4jnsgd1na2vs0mg"},{"bike_id":"4f76dea4-d3ca-4352-a3aa-8588a44019fd","system_id":"levelo_inurba_marseille","lat":43.25825,"lon":5.39437,"is_reserved":false,"is_disabled":false,"rental_uris":{"android":"levelo://app?vid=4f76dea4-d3ca-4352-a3aa-8588a44019fd","ios":"levelo://app?vid=4f76dea4-d3ca-4352-a3aa-8588a44019fd"},"vehicle_type_id":"4","last_reported":1746537871,"current_range_meters":14400,"station_id":"ce4bhip2rcd13ifvqft0","pricing_plan_id":"cebpf4jnsgd1na2vs0mg"},{"bike_id":"d2125939-b570-4b67-9cb5-f5a5bc562ba6","system_id":"levelo_inurba_marseille","lat":43.31709,"lon":5.4371,"is_reserved":false,"is_disabled":false,"rental_uris":{"android":"levelo://app?vid=d2125939-b570-4b67-9cb5-f5a5bc562ba6","ios":"levelo://app?vid=d2125939-b570-4b67-9cb5-f5a5bc562ba6"},"vehicle_type_id":"4","last_reported":1746537871,"current_range_meters":15200,"station_id":"ce4bhp92rcd13ifvqhcg","pricing_plan_id":"cebpf4jnsgd1na2vs0mg"},{"bike_id":"03bb5049-51e5-461e-8353-3cc13edfbfb8","system_id":"levelo_inurba_marseille","lat":43.239603,"lon":5.36623,"is_reserved":false,"is_disabled":false,"rental_uris":{"android":"levelo://app?vid=03bb5049-51e5-461e-8353-3cc13edfbfb8","ios":"levelo://app?vid=03bb5049-51e5-461e-8353-3cc13edfbfb8"},"vehicle_type_id":"4","last_reported":1746537871,"current_range_meters":15200,"station_id":"ce4bhi12rcd13ifvqfp0","pricing_plan_id":"cebpf4jnsgd1na2vs0mg"},{"bike_id":"1f333037-ddff-40f0-8c45-b8eeb93d8fa3","system_id":"levelo_inurba_marseille","lat":43.23061,"lon":5.35493,"is_reserved":false,"is_disabled":false,"rental_uris":{"android":"levelo://app?vid=1f333037-ddff-40f0-8c45-b8eeb93d8fa3","ios":"levelo://app?vid=1f333037-ddff-40f0-8c45-b8eeb93d8fa3"},"vehicle_type_id":"4","last_reported":1746537871,"current_range_meters":14800,"station_id":"cpo3342slgdg3j2ifvpg","pricing_plan_id":"cebpf4jnsgd1na2vs0mg"},{"bike_id":"b4bac287-3615-423a-bca2-a11fb80cb066","system_id":"levelo_inurba_marseille","lat":43.23091,"lon":5.35487,"is_reserved":false,"is_disabled":false,"rental_uris":{"android":"levelo://app?vid=b4bac287-3615-423a-bca2-a11fb80cb066","ios":"levelo://app?vid=b4bac287-3615-423a-bca2-a11fb80cb066"},"vehicle_type_id":"4","last_reported":1746537871,"current_range_meters":15200,"station_id":"cpo3342slgdg3j2ifvpg","pricing_plan_id":"cebpf4jnsgd1na2vs0mg"},{"bike_id":"28ad9efe-13b9-4b29-9538-e1097d4acd73","system_id":"levelo_inurba_marseille","lat":43.28421,"lon":5.34977,"is_reserved":false,"is_disabled":false,"rental_uris":{"android":"levelo://app?vid=28ad9efe-13b9-4b29-9538-e1097d4acd73","ios":"levelo://app?vid=28ad9efe-13b9-4b29-9538-e1097d4acd73"},"vehicle_type_id":"4","last_reported":1746537871,"current_range_meters":15200,"station_id":"ce4bhbh2rcd13ifvqepg","pricing_plan_id":"cebpf4jnsgd1na2vs0mg"},{"bike_id":"741922f7-49ff-4751-a228-5a73f2c8c24d","system_id":"levelo_inurba_marseille","lat":43.241696,"lon":5.364004,"is_reserved":false,"is_disabled":false,"rental_uris":{"android":"levelo://app?vid=741922f7-49ff-4751-a228-5a73f2c8c24d","ios":"levelo://app?vid=741922f7-49ff-4751-a228-5a73f2c8c24d"},"vehicle_type_id":"4","last_reported":1746537871,"current_range_meters":15200,"station_id":"cpo36qri1sfpv3e86is0","pricing_plan_id":"cebpf4jnsgd1na2vs0mg"},{"bike_id":"534dfcda-1930-45c6-9936-5d39f8049c8f","system_id":"levelo_inurba_marseille","lat":43.24172,"lon":5.3972,"is_reserved":false,"is_disabled":false,"rental_uris":{"android":"levelo://app?vid=534dfcda-1930-45c6-9936-5d39f8049c8f","ios":"levelo://app?vid=534dfcda-1930-45c6-9936-5d39f8049c8f"},"vehicle_type_id":"4","last_reported":1746537871,"current_range_meters":15200,"station_id":"ce4bhn12rcd13ifvqgpg","pricing_plan_id":"cebpf4jnsgd1na2vs0mg"},{"bike_id":"1900e395-19ba-404e-aa6a-262b7656599d","system_id":"levelo_inurba_marseille","lat":43.2888,"lon":5.43707,"is_reserved":false,"is_disabled":false,"rental_uris":{"android":"levelo://app?vid=1900e395-19ba-404e-aa6a-262b7656599d","ios":"levelo://app?vid=1900e395-19ba-404e-aa6a-262b7656599d"},"vehicle_type_id":"4","last_reported":1746537871,"current_range_meters":16000,"station_id":"","pricing_plan_id":"cebpf4jnsgd1na2vs0mg"},{"bike_id":"7f4843c4-869f-41c8-bdae-a23b2cf6dc7b","system_id":"levelo_inurba_marseille","lat":43.30322,"lon":5.40435,"is_reserved":false,"is_disabled":false,"rental_uris":{"android":"levelo://app?vid=7f4843c4-869f-41c8-bdae-a23b2cf6dc7b","ios":"levelo://app?vid=7f4843c4-869f-41c8-bdae-a23b2cf6dc7b"},"vehicle_type_id":"4","last_reported":1746537871,"current_range_meters":15200,"station_id":"ce4bh012rcd13ifvqd10","pricing_plan_id":"cebpf4jnsgd1na2vs0mg"},{"bike_id":"27f763ca-d9b2-46de-ae53-3a89c58f29cb","system_id":"levelo_inurba_marseille","lat":43.27494,"lon":5.42453,"is_reserved":false,"is_disabled":false,"rental_uris":{"android":"levelo://app?vid=27f763ca-d9b2-46de-ae53-3a89c58f29cb","ios":"levelo://app?vid=27f763ca-d9b2-46de-ae53-3a89c58f29cb"},"vehicle_type_id":"4","last_reported":1746537871,"current_range_meters":16000,"station_id":"ce4bhn92rcd13ifvqgrg","pricing_plan_id":"cebpf4jnsgd1na2vs0mg"},{"bike_id":"aedcbb51-597b-4b5f-9450-9b2cad6ac2c5","system_id":"levelo_inurba_marseille","lat":43.286102,"lon":5.351143,"is_reserved":false,"is_disabled":false,"rental_uris":{"android":"levelo://app?vid=aedcbb51-597b-4b5f-9450-9b2cad6ac2c5","ios":"levelo://app?vid=aedcbb51-597b-4b5f-9450-9b2cad6ac2c5"},"vehicle_type_id":"4","last_reported":1746537871,"current_range_meters":16000,"station_id":"","pricing_plan_id":"cebpf4jnsgd1na2vs0mg"},{"bike_id":"8628899e-76bf-4794-9773-2f5cc2bf87c0","system_id":"levelo_inurba_marseille","lat":43.271717,"lon":5.409882,"is_reserved":false,"is_disabled":false,"rental_uris":{"android":"levelo://app?vid=8628899e-76bf-4794-9773-2f5cc2bf87c0","ios":"levelo://app?vid=8628899e-76bf-4794-9773-2f5cc2bf87c0"},"vehicle_type_id":"4","last_reported":1746537871,"current_range_meters":16000,"station_id":"ce4bhl12rcd13ifvqgf0","pricing_plan_id":"cebpf4jnsgd1na2vs0mg"},{"bike_id":"8807743a-c502-4d98-b489-5a11aa3547f0","system_id":"levelo_inurba_marseille","lat":43.2834,"lon":5.38106,"is_reserved":false,"is_disabled":false,"rental_uris":{"android":"levelo://app?vid=8807743a-c502-4d98-b489-5a11aa3547f0","ios":"levelo://app?vid=8807743a-c502-4d98-b489-5a11aa3547f0"},"vehicle_type_id":"4","last_reported":1746537871,"current_range_meters":17200,"station_id":"ce4bh412rcd13ifvqdr0","pricing_plan_id":"cebpf4jnsgd1na2vs0mg"},{"bike_id":"a3b240f3-549a-490e-b58a-39efbb7e86b2","system_id":"levelo_inurba_marseille","lat":43.25444,"lon":5.38248,"is_reserved":false,"is_disabled":false,"rental_uris":{"android":"levelo://app?vid=a3b240f3-549a-490e-b58a-39efbb7e86b2","ios":"levelo://app?vid=a3b240f3-549a-490e-b58a-39efbb7e86b2"},"vehicle_type_id":"4","last_reported":1746537871,"current_range_meters":12400,"station_id":"","pricing_plan_id":"cebpf4jnsgd1na2vs0mg"},{"bike_id":"c7045a7a-4cf3-4e28-b102-75340f7c57c1","system_id":"levelo_inurba_marseille","lat":43.29783,"lon":5.37108,"is_reserved":false,"is_disabled":false,"rental_uris":{"android":"levelo://app?vid=c7045a7a-4cf3-4e28-b102-75340f7c57c1","ios":"levelo://app?vid=c7045a7a-4cf3-4e28-b102-75340f7c57c1"},"vehicle_type_id":"4","last_reported":1746537871,"current_range_meters":16000,"station_id":"ce4bgop2rcd13ifvqc1g","pricing_plan_id":"cebpf4jnsgd1na2vs0mg"},{"bike_id":"15c09dcd-05a4-4cf3-bc03-c10b5e4b7868","system_id":"levelo_inurba_marseille","lat":43.25895,"lon":5.40891,"is_reserved":false,"is_disabled":false,"rental_uris":{"android":"levelo://app?vid=15c09dcd-05a4-4cf3-bc03-c10b5e4b7868","ios":"levelo://app?vid=15c09dcd-05a4-4cf3-bc03-c10b5e4b7868"},"vehicle_type_id":"4","last_reported":1746537871,"current_range_meters":16400,"station_id":"ce4bhm92rcd13ifvqglg","pricing_plan_id":"cebpf4jnsgd1na2vs0mg"},{"bike_id":"965da70f-545b-43fa-bc3a-87259172dd6a","system_id":"levelo_inurba_marseille","lat":43.3091,"lon":5.36862,"is_reserved":false,"is_disabled":false,"rental_uris":{"android":"levelo://app?vid=965da70f-545b-43fa-bc3a-87259172dd6a","ios":"levelo://app?vid=965da70f-545b-43fa-bc3a-87259172dd6a"},"vehicle_type_id":"4","last_reported":1746537871,"current_range_meters":16800,"station_id":"ce4bgn92rcd13ifvqbvg","pricing_plan_id":"cebpf4jnsgd1na2vs0mg"},{"bike_id":"825b51f9-e8a5-4278-9719-a74fbd6abefa","system_id":"levelo_inurba_marseille","lat":43.32379,"lon":5.38886,"is_reserved":false,"is_disabled":false,"rental_uris":{"android":"levelo://app?vid=825b51f9-e8a5-4278-9719-a74fbd6abefa","ios":"levelo://app?vid=825b51f9-e8a5-4278-9719-a74fbd6abefa"},"vehicle_type_id":"4","last_reported":1746537871,"current_range_meters":16800,"station_id":"ce4bhqp2rcd13ifvqhog","pricing_plan_id":"cebpf4jnsgd1na2vs0mg"},{"bike_id":"91f3cd5d-1b78-4e63-9c5c-942ffcaf846e","system_id":"levelo_inurba_marseille","lat":43.30649,"lon":5.4007,"is_reserved":false,"is_disabled":false,"rental_uris":{"android":"levelo://app?vid=91f3cd5d-1b78-4e63-9c5c-942ffcaf846e","ios":"levelo://app?vid=91f3cd5d-1b78-4e63-9c5c-942ffcaf846e"},"vehicle_type_id":"4","last_reported":1746537871,"current_range_meters":17200,"station_id":"ce4bh112rcd13ifvqda0","pricing_plan_id":"cebpf4jnsgd1na2vs0mg"},{"bike_id":"5638fae2-2e1b-469b-8abd-91d7d799618a","system_id":"levelo_inurba_marseille","lat":43.321,"lon":5.36779,"is_reserved":false,"is_disabled":false,"rental_uris":{"android":"levelo://app?vid=5638fae2-2e1b-469b-8abd-91d7d799618a","ios":"levelo://app?vid=5638fae2-2e1b-469b-8abd-91d7d799618a"},"vehicle_type_id":"4","last_reported":1746537871,"current_range_meters":17200,"station_id":"ce4bhrh2rcd13ifvqhug","pricing_plan_id":"cebpf4jnsgd1na2vs0mg"},{"bike_id":"79fb1031-bf89-4bb1-b4b3-85b33a30113c","system_id":"levelo_inurba_marseille","lat":43.33743,"lon":5.39196,"is_reserved":false,"is_disabled":false,"rental_uris":{"android":"levelo://app?vid=79fb1031-bf89-4bb1-b4b3-85b33a30113c","ios":"levelo://app?vid=79fb1031-bf89-4bb1-b4b3-85b33a30113c"},"vehicle_type_id":"4","last_reported":1746537871,"current_range_meters":17200,"station_id":"ce4bhr92rcd13ifvqhsg","pricing_plan_id":"cebpf4jnsgd1na2vs0mg"},{"bike_id":"2714f713-c769-4f6a-ac44-441a635e9cba","system_id":"levelo_inurba_marseille","lat":43.21612,"lon":5.34218,"is_reserved":false,"is_disabled":false,"rental_uris":{"android":"levelo://app?vid=2714f713-c769-4f6a-ac44-441a635e9cba","ios":"levelo://app?vid=2714f713-c769-4f6a-ac44-441a635e9cba"},"vehicle_type_id":"4","last_reported":1746537871,"current_range_meters":17200,"station_id":"","pricing_plan_id":"cebpf4jnsgd1na2vs0mg"},{"bike_id":"e2636c61-41f9-402f-9fa9-49aeadef2db3","system_id":"levelo_inurba_marseille","lat":43.29967,"lon":5.385,"is_reserved":false,"is_disabled":false,"rental_uris":{"android":"levelo://app?vid=e2636c61-41f9-402f-9fa9-49aeadef2db3","ios":"levelo://app?vid=e2636c61-41f9-402f-9fa9-49aeadef2db3"},"vehicle_type_id":"4","last_reported":1746537871,"current_range_meters":17200,"station_id":"ce4bgj92rcd13ifvqbd0","pricing_plan_id":"cebpf4jnsgd1na2vs0mg"},{"bike_id":"40fd1688-c944-4cf2-9591-74e6a15d7419","system_id":"levelo_inurba_marseille","lat":43.31797,"lon":5.37455,"is_reserved":false,"is_disabled":false,"rental_uris":{"android":"levelo://app?vid=40fd1688-c944-4cf2-9591-74e6a15d7419","ios":"levelo://app?vid=40fd1688-c944-4cf2-9591-74e6a15d7419"},"vehicle_type_id":"4","last_reported":1746537871,"current_range_meters":17200,"station_id":"","pricing_plan_id":"cebpf4jnsgd1na2vs0mg"},{"bike_id":"8bdeaf5f-6ace-4dd7-ace9-967863211c66","system_id":"levelo_inurba_marseille","lat":43.248093,"lon":5.37458,"is_reserved":false,"is_disabled":false,"rental_uris":{"android":"levelo://app?vid=8bdeaf5f-6ace-4dd7-ace9-967863211c66","ios":"levelo://app?vid=8bdeaf5f-6ace-4dd7-ace9-967863211c66"},"vehicle_type_id":"4","last_reported":1746537871,"current_range_meters":17600,"station_id":"ce4bhgh2rcd13ifvqfb0","pricing_plan_id":"cebpf4jnsgd1na2vs0mg"},{"bike_id":"a6dffd23-912f-4a4a-9d3c-a160d9fe3ae9","system_id":"levelo_inurba_marseille","lat":43.29633,"lon":5.40595,"is_reserved":false,"is_disabled":false,"rental_uris":{"android":"levelo://app?vid=a6dffd23-912f-4a4a-9d3c-a160d9fe3ae9","ios":"levelo://app?vid=a6dffd23-912f-4a4a-9d3c-a160d9fe3ae9"},"vehicle_type_id":"4","last_reported":1746537871,"current_range_meters":17600,"station_id":"ce4bh0h2rcd13ifvqd60","pricing_plan_id":"cebpf4jnsgd1na2vs0mg"},{"bike_id":"6840b409-642a-4f2e-bcaf-ac28e8b81f0b","system_id":"levelo_inurba_marseille","lat":43.29711,"lon":5.3661,"is_reserved":false,"is_disabled":false,"rental_uris":{"android":"levelo://app?vid=6840b409-642a-4f2e-bcaf-ac28e8b81f0b","ios":"levelo://app?vid=6840b409-642a-4f2e-bcaf-ac28e8b81f0b"},"vehicle_type_id":"4","last_reported":1746537871,"current_range_meters":17600,"station_id":"ce4bgn12rcd13ifvqbt0","pricing_plan_id":"cebpf4jnsgd1na2vs0mg"},{"bike_id":"b58b232a-b4bc-4b1c-9025-fefd69c1a235","system_id":"levelo_inurba_marseille","lat":43.27681,"lon":5.38877,"is_reserved":false,"is_disabled":false,"rental_uris":{"android":"levelo://app?vid=b58b232a-b4bc-4b1c-9025-fefd69c1a235","ios":"levelo://app?vid=b58b232a-b4bc-4b1c-9025-fefd69c1a235"},"vehicle_type_id":"4","last_reported":1746537871,"current_range_meters":17600,"station_id":"ce4bhi12rcd13ifvqfo0","pricing_plan_id":"cebpf4jnsgd1na2vs0mg"},{"bike_id":"7c9fa487-691b-4b8b-8367-f255f66f6217","system_id":"levelo_inurba_marseille","lat":43.29197,"lon":5.35808,"is_reserved":false,"is_disabled":false,"rental_uris":{"android":"levelo://app?vid=7c9fa487-691b-4b8b-8367-f255f66f6217","ios":"levelo://app?vid=7c9fa487-691b-4b8b-8367-f255f66f6217"},"vehicle_type_id":"4","last_reported":1746537871,"current_range_meters":17600,"station_id":"ce4bhb12rcd13ifvqel0","pricing_plan_id":"cebpf4jnsgd1na2vs0mg"},{"bike_id":"72a4510d-b3e2-4ef0-bcba-08a7cb458400","system_id":"levelo_inurba_marseille","lat":43.28567,"lon":5.39491,"is_reserved":false,"is_disabled":false,"rental_uris":{"android":"levelo://app?vid=72a4510d-b3e2-4ef0-bcba-08a7cb458400","ios":"levelo://app?vid=72a4510d-b3e2-4ef0-bcba-08a7cb458400"},"vehicle_type_id":"4","last_reported":1746537871,"current_range_meters":18000,"station_id":"ce4bh292rcd13ifvqdg0","pricing_plan_id":"cebpf4jnsgd1na2vs0mg"},{"bike_id":"aa710d58-2ac3-46ad-9c25-2f0ea420735a","system_id":"levelo_inurba_marseille","lat":43.24386,"lon":5.37055,"is_reserved":false,"is_disabled":false,"rental_uris":{"android":"levelo://app?vid=aa710d58-2ac3-46ad-9c25-2f0ea420735a","ios":"levelo://app?vid=aa710d58-2ac3-46ad-9c25-2f0ea420735a"},"vehicle_type_id":"4","last_reported":1746537871,"current_range_meters":17600,"station_id":"ce4bhhh2rcd13ifvqfk0","pricing_plan_id":"cebpf4jnsgd1na2vs0mg"},{"bike_id":"80d31852-1f7f-454f-9baf-34efcd9873c2","system_id":"levelo_inurba_marseille","lat":43.23194,"lon":5.35555,"is_reserved":false,"is_disabled":false,"rental_uris":{"android":"levelo://app?vid=80d31852-1f7f-454f-9baf-34efcd9873c2","ios":"levelo://app?vid=80d31852-1f7f-454f-9baf-34efcd9873c2"},"vehicle_type_id":"4","last_reported":1746537871,"current_range_meters":18000,"station_id":"ce4bhu92rcd13ifvqi70","pricing_plan_id":"cebpf4jnsgd1na2vs0mg"},{"bike_id":"df692c57-7995-435b-b45e-704ede271c51","system_id":"levelo_inurba_marseille","lat":43.2963,"lon":5.40597,"is_reserved":false,"is_disabled":false,"rental_uris":{"android":"levelo://app?vid=df692c57-7995-435b-b45e-704ede271c51","ios":"levelo://app?vid=df692c57-7995-435b-b45e-704ede271c51"},"vehicle_type_id":"4","last_reported":1746537871,"current_range_meters":18000,"station_id":"ce4bh0h2rcd13ifvqd60","pricing_plan_id":"cebpf4jnsgd1na2vs0mg"},{"bike_id":"4184b070-9c51-459f-b02d-0e68f49db6a3","system_id":"levelo_inurba_marseille","lat":43.27375,"lon":5.36256,"is_reserved":false,"is_disabled":false,"rental_uris":{"android":"levelo://app?vid=4184b070-9c51-459f-b02d-0e68f49db6a3","ios":"levelo://app?vid=4184b070-9c51-459f-b02d-0e68f49db6a3"},"vehicle_type_id":"4","last_reported":1746537871,"current_range_meters":17600,"station_id":"ce4bhbh2rcd13ifvqeo0","pricing_plan_id":"cebpf4jnsgd1na2vs0mg"},{"bike_id":"ac700e2e-c129-4f82-a3c3-f628077933a6","system_id":"levelo_inurba_marseille","lat":43.212124,"lon":5.350816,"is_reserved":false,"is_disabled":false,"rental_uris":{"android":"levelo://app?vid=ac700e2e-c129-4f82-a3c3-f628077933a6","ios":"levelo://app?vid=ac700e2e-c129-4f82-a3c3-f628077933a6"},"vehicle_type_id":"4","last_reported":1746537871,"current_range_meters":18000,"station_id":"st_cvj6sg6p6f1abm77japg","pricing_plan_id":"cebpf4jnsgd1na2vs0mg"},{"bike_id":"cab3fb7b-47c3-404c-a8dc-80f54b39d4cd","system_id":"levelo_inurba_marseille","lat":43.29518,"lon":5.39038,"is_reserved":false,"is_disabled":true,"rental_uris":{"android":"levelo://app?vid=cab3fb7b-47c3-404c-a8dc-80f54b39d4cd","ios":"levelo://app?vid=cab3fb7b-47c3-404c-a8dc-80f54b39d4cd"},"vehicle_type_id":"4","last_reported":1746537871,"current_range_meters":18000,"station_id":"ce4bh3p2rcd13ifvqdp0","pricing_plan_id":"cebpf4jnsgd1na2vs0mg"},{"bike_id":"53926fcd-d73e-4c5c-bd77-4c490e283652","system_id":"levelo_inurba_marseille","lat":43.23964,"lon":5.36635,"is_reserved":false,"is_disabled":false,"rental_uris":{"android":"levelo://app?vid=53926fcd-d73e-4c5c-bd77-4c490e283652","ios":"levelo://app?vid=53926fcd-d73e-4c5c-bd77-4c490e283652"},"vehicle_type_id":"4","last_reported":1746537871,"current_range_meters":18800,"station_id":"ce4bhi12rcd13ifvqfp0","pricing_plan_id":"cebpf4jnsgd1na2vs0mg"},{"bike_id":"b6f4e974-b313-4ba0-93fd-04e29bce726f","system_id":"levelo_inurba_marseille","lat":43.281508,"lon":5.426565,"is_reserved":false,"is_disabled":false,"rental_uris":{"android":"levelo://app?vid=b6f4e974-b313-4ba0-93fd-04e29bce726f","ios":"levelo://app?vid=b6f4e974-b313-4ba0-93fd-04e29bce726f"},"vehicle_type_id":"4","last_reported":1746537871,"current_range_meters":18800,"station_id":"ce4bhnh2rcd13ifvqgug","pricing_plan_id":"cebpf4jnsgd1na2vs0mg"},{"bike_id":"aae78705-7aae-48e9-8c18-bc4726a7f8d8","system_id":"levelo_inurba_marseille","lat":43.31503,"lon":5.37289,"is_reserved":false,"is_disabled":false,"rental_uris":{"android":"levelo://app?vid=aae78705-7aae-48e9-8c18-bc4726a7f8d8","ios":"levelo://app?vid=aae78705-7aae-48e9-8c18-bc4726a7f8d8"},"vehicle_type_id":"4","last_reported":1746537871,"current_range_meters":19200,"station_id":"","pricing_plan_id":"cebpf4jnsgd1na2vs0mg"},{"bike_id":"489c26ff-b88a-4b60-8f66-0a9b12538610","system_id":"levelo_inurba_marseille","lat":43.29624,"lon":5.37152,"is_reserved":false,"is_disabled":false,"rental_uris":{"android":"levelo://app?vid=489c26ff-b88a-4b60-8f66-0a9b12538610","ios":"levelo://app?vid=489c26ff-b88a-4b60-8f66-0a9b12538610"},"vehicle_type_id":"4","last_reported":1746537871,"current_range_meters":18000,"station_id":"ce4bgnh2rcd13ifvqc0g","pricing_plan_id":"cebpf4jnsgd1na2vs0mg"},{"bike_id":"0e87f288-e8c8-42f7-9b45-5d07827eac14","system_id":"levelo_inurba_marseille","lat":43.323569,"lon":5.367554,"is_reserved":false,"is_disabled":false,"rental_uris":{"android":"levelo://app?vid=0e87f288-e8c8-42f7-9b45-5d07827eac14","ios":"levelo://app?vid=0e87f288-e8c8-42f7-9b45-5d07827eac14"},"vehicle_type_id":"4","last_reported":1746537871,"current_range_meters":18800,"station_id":"ce4bhsh2rcd13ifvqi2g","pricing_plan_id":"cebpf4jnsgd1na2vs0mg"},{"bike_id":"02c3f926-1654-43a5-bdd5-0ab5d6602055","system_id":"levelo_inurba_marseille","lat":43.28281,"lon":5.35065,"is_reserved":false,"is_disabled":false,"rental_uris":{"android":"levelo://app?vid=02c3f926-1654-43a5-bdd5-0ab5d6602055","ios":"levelo://app?vid=02c3f926-1654-43a5-bdd5-0ab5d6602055"},"vehicle_type_id":"4","last_reported":1746537871,"current_range_meters":18800,"station_id":"ce4bhbp2rcd13ifvqerg","pricing_plan_id":"cebpf4jnsgd1na2vs0mg"},{"bike_id":"4179e946-fef7-41ac-a83f-c0385275126b","system_id":"levelo_inurba_marseille","lat":43.31369,"lon":5.36701,"is_reserved":false,"is_disabled":false,"rental_uris":{"android":"levelo://app?vid=4179e946-fef7-41ac-a83f-c0385275126b","ios":"levelo://app?vid=4179e946-fef7-41ac-a83f-c0385275126b"},"vehicle_type_id":"4","last_reported":1746537871,"current_range_meters":19200,"station_id":"ce4bgr92rcd13ifvqc6g","pricing_plan_id":"cebpf4jnsgd1na2vs0mg"},{"bike_id":"f9bb26a6-8bcc-4a50-bb9a-44d02455ed8d","system_id":"levelo_inurba_marseille","lat":43.25728,"lon":5.41106,"is_reserved":false,"is_disabled":false,"rental_uris":{"android":"levelo://app?vid=f9bb26a6-8bcc-4a50-bb9a-44d02455ed8d","ios":"levelo://app?vid=f9bb26a6-8bcc-4a50-bb9a-44d02455ed8d"},"vehicle_type_id":"4","last_reported":1746537871,"current_range_meters":18800,"station_id":"ce4bhkp2rcd13ifvqgd0","pricing_plan_id":"cebpf4jnsgd1na2vs0mg"},{"bike_id":"8317eef2-1d05-4948-aedb-a8d76b423bca","system_id":"levelo_inurba_marseille","lat":43.30116,"lon":5.39869,"is_reserved":false,"is_disabled":false,"rental_uris":{"android":"levelo://app?vid=8317eef2-1d05-4948-aedb-a8d76b423bca","ios":"levelo://app?vid=8317eef2-1d05-4948-aedb-a8d76b423bca"},"vehicle_type_id":"4","last_reported":1746537871,"current_range_meters":19200,"station_id":"ce4bh0h2rcd13ifvqd40","pricing_plan_id":"cebpf4jnsgd1na2vs0mg"},{"bike_id":"08f51f8d-b162-4904-ab30-5695d105b1d4","system_id":"levelo_inurba_marseille","lat":43.30782,"lon":5.3813,"is_reserved":false,"is_disabled":false,"rental_uris":{"android":"levelo://app?vid=08f51f8d-b162-4904-ab30-5695d105b1d4","ios":"levelo://app?vid=08f51f8d-b162-4904-ab30-5695d105b1d4"},"vehicle_type_id":"4","last_reported":1746537871,"current_range_meters":19600,"station_id":"ce4bgt12rcd13ifvqce0","pricing_plan_id":"cebpf4jnsgd1na2vs0mg"},{"bike_id":"f45321ad-a54b-404d-981b-802d3c9e0607","system_id":"levelo_inurba_marseille","lat":43.21184,"lon":5.35076,"is_reserved":false,"is_disabled":true,"rental_uris":{"android":"levelo://app?vid=f45321ad-a54b-404d-981b-802d3c9e0607","ios":"levelo://app?vid=f45321ad-a54b-404d-981b-802d3c9e0607"},"vehicle_type_id":"4","last_reported":1746537871,"current_range_meters":19600,"station_id":"st_cvj6sg6p6f1abm77japg","pricing_plan_id":"cebpf4jnsgd1na2vs0mg"},{"bike_id":"a9abef5e-7eb1-4885-b10d-1a8f5aa7db01","system_id":"levelo_inurba_marseille","lat":43.30259,"lon":5.40074,"is_reserved":false,"is_disabled":false,"rental_uris":{"android":"levelo://app?vid=a9abef5e-7eb1-4885-b10d-1a8f5aa7db01","ios":"levelo://app?vid=a9abef5e-7eb1-4885-b10d-1a8f5aa7db01"},"vehicle_type_id":"4","last_reported":1746537871,"current_range_meters":19600,"station_id":"ce4bgvh2rcd13ifvqcs0","pricing_plan_id":"cebpf4jnsgd1na2vs0mg"},{"bike_id":"4fa44a4d-c738-41bc-9022-213fbeae4065","system_id":"levelo_inurba_marseille","lat":43.2319,"lon":5.39986,"is_reserved":false,"is_disabled":false,"rental_uris":{"android":"levelo://app?vid=4fa44a4d-c738-41bc-9022-213fbeae4065","ios":"levelo://app?vid=4fa44a4d-c738-41bc-9022-213fbeae4065"},"vehicle_type_id":"4","last_reported":1746537871,"current_range_meters":19600,"station_id":"ce4bhn12rcd13ifvqgqg","pricing_plan_id":"cebpf4jnsgd1na2vs0mg"},{"bike_id":"915188a2-8c3d-4410-a62c-33ef863dd4f5","system_id":"levelo_inurba_marseille","lat":43.29062,"lon":5.37161,"is_reserved":false,"is_disabled":false,"rental_uris":{"android":"levelo://app?vid=915188a2-8c3d-4410-a62c-33ef863dd4f5","ios":"levelo://app?vid=915188a2-8c3d-4410-a62c-33ef863dd4f5"},"vehicle_type_id":"4","last_reported":1746537871,"current_range_meters":19600,"station_id":"ce4bh5p2rcd13ifvqe4g","pricing_plan_id":"cebpf4jnsgd1na2vs0mg"},{"bike_id":"6c28993d-7170-4f75-8462-8fe288533ea3","system_id":"levelo_inurba_marseille","lat":43.29026,"lon":5.35921,"is_reserved":false,"is_disabled":false,"rental_uris":{"android":"levelo://app?vid=6c28993d-7170-4f75-8462-8fe288533ea3","ios":"levelo://app?vid=6c28993d-7170-4f75-8462-8fe288533ea3"},"vehicle_type_id":"4","last_reported":1746537871,"current_range_meters":19600,"station_id":"ce4bha92rcd13ifvqeg0","pricing_plan_id":"cebpf4jnsgd1na2vs0mg"},{"bike_id":"8a076199-6384-4a29-876b-59de24f4e932","system_id":"levelo_inurba_marseille","lat":43.2872,"lon":5.37947,"is_reserved":false,"is_disabled":false,"rental_uris":{"android":"levelo://app?vid=8a076199-6384-4a29-876b-59de24f4e932","ios":"levelo://app?vid=8a076199-6384-4a29-876b-59de24f4e932"},"vehicle_type_id":"4","last_reported":1746537871,"current_range_meters":19200,"station_id":"ce4bh9p2rcd13ifvqec0","pricing_plan_id":"cebpf4jnsgd1na2vs0mg"},{"bike_id":"03140226-8d7f-4d77-ad54-d4210b427b6f","system_id":"levelo_inurba_marseille","lat":43.26808,"lon":5.402643,"is_reserved":false,"is_disabled":false,"rental_uris":{"android":"levelo://app?vid=03140226-8d7f-4d77-ad54-d4210b427b6f","ios":"levelo://app?vid=03140226-8d7f-4d77-ad54-d4210b427b6f"},"vehicle_type_id":"4","last_reported":1746537871,"current_range_meters":20000,"station_id":"ce501612rcd8frsf0b60","pricing_plan_id":"cebpf4jnsgd1na2vs0mg"},{"bike_id":"9393765b-e4b5-462c-b991-e0b85f822c67","system_id":"levelo_inurba_marseille","lat":43.29077,"lon":5.37151,"is_reserved":false,"is_disabled":false,"rental_uris":{"android":"levelo://app?vid=9393765b-e4b5-462c-b991-e0b85f822c67","ios":"levelo://app?vid=9393765b-e4b5-462c-b991-e0b85f822c67"},"vehicle_type_id":"4","last_reported":1746537871,"current_range_meters":20000,"station_id":"ce4bh5p2rcd13ifvqe4g","pricing_plan_id":"cebpf4jnsgd1na2vs0mg"},{"bike_id":"fb1403b8-2f1f-492e-a4af-d7859ba063e2","system_id":"levelo_inurba_marseille","lat":43.28469,"lon":5.38438,"is_reserved":false,"is_disabled":false,"rental_uris":{"android":"levelo://app?vid=fb1403b8-2f1f-492e-a4af-d7859ba063e2","ios":"levelo://app?vid=fb1403b8-2f1f-492e-a4af-d7859ba063e2"},"vehicle_type_id":"4","last_reported":1746537871,"current_range_meters":19600,"station_id":"ce4bh512rcd13ifvqe3g","pricing_plan_id":"cebpf4jnsgd1na2vs0mg"},{"bike_id":"285c46dd-82a0-4da1-a307-0c95614c03af","system_id":"levelo_inurba_marseille","lat":43.286175,"lon":5.38356,"is_reserved":false,"is_disabled":false,"rental_uris":{"android":"levelo://app?vid=285c46dd-82a0-4da1-a307-0c95614c03af","ios":"levelo://app?vid=285c46dd-82a0-4da1-a307-0c95614c03af"},"vehicle_type_id":"4","last_reported":1746537871,"current_range_meters":20000,"station_id":"ce4bh4p2rcd13ifvqe1g","pricing_plan_id":"cebpf4jnsgd1na2vs0mg"},{"bike_id":"cfa48441-2949-4753-a9d0-3172cb79d096","system_id":"levelo_inurba_marseille","lat":43.312557,"lon":5.37662,"is_reserved":false,"is_disabled":false,"rental_uris":{"android":"levelo://app?vid=cfa48441-2949-4753-a9d0-3172cb79d096","ios":"levelo://app?vid=cfa48441-2949-4753-a9d0-3172cb79d096"},"vehicle_type_id":"4","last_reported":1746537871,"current_range_meters":20000,"station_id":"","pricing_plan_id":"cebpf4jnsgd1na2vs0mg"},{"bike_id":"81dd1c4b-6a3b-4570-b1e2-1c9b93ab7410","system_id":"levelo_inurba_marseille","lat":43.22502,"lon":5.34785,"is_reserved":false,"is_disabled":false,"rental_uris":{"android":"levelo://app?vid=81dd1c4b-6a3b-4570-b1e2-1c9b93ab7410","ios":"levelo://app?vid=81dd1c4b-6a3b-4570-b1e2-1c9b93ab7410"},"vehicle_type_id":"4","last_reported":1746537871,"current_range_meters":20000,"station_id":"","pricing_plan_id":"cebpf4jnsgd1na2vs0mg"},{"bike_id":"f497c6a5-6004-40dc-93b0-257dac0e786b","system_id":"levelo_inurba_marseille","lat":43.24088,"lon":5.37757,"is_reserved":false,"is_disabled":false,"rental_uris":{"android":"levelo://app?vid=f497c6a5-6004-40dc-93b0-257dac0e786b","ios":"levelo://app?vid=f497c6a5-6004-40dc-93b0-257dac0e786b"},"vehicle_type_id":"4","last_reported":1746537871,"current_range_meters":20000,"station_id":"ce4bhnp2rcd13ifvqgvg","pricing_plan_id":"cebpf4jnsgd1na2vs0mg"},{"bike_id":"4a2d8d50-a55a-4f77-b4cd-0971c9a2edf4","system_id":"levelo_inurba_marseille","lat":43.24077,"lon":5.37749,"is_reserved":false,"is_disabled":false,"rental_uris":{"android":"levelo://app?vid=4a2d8d50-a55a-4f77-b4cd-0971c9a2edf4","ios":"levelo://app?vid=4a2d8d50-a55a-4f77-b4cd-0971c9a2edf4"},"vehicle_type_id":"4","last_reported":1746537871,"current_range_meters":20000,"station_id":"ce4bhnp2rcd13ifvqgvg","pricing_plan_id":"cebpf4jnsgd1na2vs0mg"},{"bike_id":"c5feabf9-29b4-464f-8c7c-3a18a36e8225","system_id":"levelo_inurba_marseille","lat":43.21748,"lon":5.346017,"is_reserved":false,"is_disabled":false,"rental_uris":{"android":"levelo://app?vid=c5feabf9-29b4-464f-8c7c-3a18a36e8225","ios":"levelo://app?vid=c5feabf9-29b4-464f-8c7c-3a18a36e8225"},"vehicle_type_id":"4","last_reported":1746537871,"current_range_meters":20400,"station_id":"","pricing_plan_id":"cebpf4jnsgd1na2vs0mg"},{"bike_id":"24384f0e-408a-42ee-9dc0-46996d573e79","system_id":"levelo_inurba_marseille","lat":43.225125,"lon":5.348256,"is_reserved":false,"is_disabled":false,"rental_uris":{"android":"levelo://app?vid=24384f0e-408a-42ee-9dc0-46996d573e79","ios":"levelo://app?vid=24384f0e-408a-42ee-9dc0-46996d573e79"},"vehicle_type_id":"4","last_reported":1746537871,"current_range_meters":20800,"station_id":"","pricing_plan_id":"cebpf4jnsgd1na2vs0mg"},{"bike_id":"b317194a-c6b7-403b-8b67-a8076c25af13","system_id":"levelo_inurba_marseille","lat":43.286957,"lon":5.373848,"is_reserved":false,"is_disabled":false,"rental_uris":{"android":"levelo://app?vid=b317194a-c6b7-403b-8b67-a8076c25af13","ios":"levelo://app?vid=b317194a-c6b7-403b-8b67-a8076c25af13"},"vehicle_type_id":"4","last_reported":1746537871,"current_range_meters":20800,"station_id":"ce4bh3p2rcd13ifvqdq0","pricing_plan_id":"cebpf4jnsgd1na2vs0mg"},{"bike_id":"d0bb7196-d595-4561-8c05-fa5c53e799df","system_id":"levelo_inurba_marseille","lat":43.28002,"lon":5.4001,"is_reserved":false,"is_disabled":false,"rental_uris":{"android":"levelo://app?vid=d0bb7196-d595-4561-8c05-fa5c53e799df","ios":"levelo://app?vid=d0bb7196-d595-4561-8c05-fa5c53e799df"},"vehicle_type_id":"4","last_reported":1746537871,"current_range_meters":20400,"station_id":"ce4bho92rcd13ifvqh4g","pricing_plan_id":"cebpf4jnsgd1na2vs0mg"},{"bike_id":"8ae608dc-2adc-46f1-a243-087d6ee64c8f","system_id":"levelo_inurba_marseille","lat":43.29933,"lon":5.36535,"is_reserved":false,"is_disabled":false,"rental_uris":{"android":"levelo://app?vid=8ae608dc-2adc-46f1-a243-087d6ee64c8f","ios":"levelo://app?vid=8ae608dc-2adc-46f1-a243-087d6ee64c8f"},"vehicle_type_id":"4","last_reported":1746537871,"current_range_meters":20800,"station_id":"ce4bgm92rcd13ifvqbr0","pricing_plan_id":"cebpf4jnsgd1na2vs0mg"},{"bike_id":"2952a110-3659-4e52-bfe6-92dc33b5975b","system_id":"levelo_inurba_marseille","lat":43.30397,"lon":5.42486,"is_reserved":false,"is_disabled":false,"rental_uris":{"android":"levelo://app?vid=2952a110-3659-4e52-bfe6-92dc33b5975b","ios":"levelo://app?vid=2952a110-3659-4e52-bfe6-92dc33b5975b"},"vehicle_type_id":"4","last_reported":1746537871,"current_range_meters":21600,"station_id":"ce4bhoh2rcd13ifvqh6g","pricing_plan_id":"cebpf4jnsgd1na2vs0mg"},{"bike_id":"12898056-0f35-49fc-8e66-14c360b40540","system_id":"levelo_inurba_marseille","lat":43.3054,"lon":5.36531,"is_reserved":false,"is_disabled":true,"rental_uris":{"android":"levelo://app?vid=12898056-0f35-49fc-8e66-14c360b40540","ios":"levelo://app?vid=12898056-0f35-49fc-8e66-14c360b40540"},"vehicle_type_id":"4","last_reported":1746537871,"current_range_meters":21600,"station_id":"","pricing_plan_id":"cebpf4jnsgd1na2vs0mg"},{"bike_id":"3996a80d-35cd-48bf-b285-460502d06ce2","system_id":"levelo_inurba_marseille","lat":43.28157,"lon":5.42635,"is_reserved":false,"is_disabled":false,"rental_uris":{"android":"levelo://app?vid=3996a80d-35cd-48bf-b285-460502d06ce2","ios":"levelo://app?vid=3996a80d-35cd-48bf-b285-460502d06ce2"},"vehicle_type_id":"4","last_reported":1746537871,"current_range_meters":21600,"station_id":"ce4bhnh2rcd13ifvqgug","pricing_plan_id":"cebpf4jnsgd1na2vs0mg"},{"bike_id":"7ce17867-369e-45c2-bcff-05a7d56d1dd9","system_id":"levelo_inurba_marseille","lat":43.27904,"lon":5.38013,"is_reserved":false,"is_disabled":false,"rental_uris":{"android":"levelo://app?vid=7ce17867-369e-45c2-bcff-05a7d56d1dd9","ios":"levelo://app?vid=7ce17867-369e-45c2-bcff-05a7d56d1dd9"},"vehicle_type_id":"4","last_reported":1746537871,"current_range_meters":22000,"station_id":"ce4bhf92rcd13ifvqf50","pricing_plan_id":"cebpf4jnsgd1na2vs0mg"},{"bike_id":"9e07ea16-4baf-4acc-aece-09b06f31a7ac","system_id":"levelo_inurba_marseille","lat":43.25087,"lon":5.39523,"is_reserved":false,"is_disabled":false,"rental_uris":{"android":"levelo://app?vid=9e07ea16-4baf-4acc-aece-09b06f31a7ac","ios":"levelo://app?vid=9e07ea16-4baf-4acc-aece-09b06f31a7ac"},"vehicle_type_id":"4","last_reported":1746537871,"current_range_meters":22000,"station_id":"ce4bhm12rcd13ifvqgkg","pricing_plan_id":"cebpf4jnsgd1na2vs0mg"},{"bike_id":"5e68eb46-9681-4aec-ae8f-286997a5c61e","system_id":"levelo_inurba_marseille","lat":43.30788,"lon":5.37649,"is_reserved":false,"is_disabled":false,"rental_uris":{"android":"levelo://app?vid=5e68eb46-9681-4aec-ae8f-286997a5c61e","ios":"levelo://app?vid=5e68eb46-9681-4aec-ae8f-286997a5c61e"},"vehicle_type_id":"4","last_reported":1746537871,"current_range_meters":22000,"station_id":"ce4bgv92rcd13ifvqcq0","pricing_plan_id":"cebpf4jnsgd1na2vs0mg"},{"bike_id":"16f4b9cf-a813-42ed-a677-8aecee88502e","system_id":"levelo_inurba_marseille","lat":43.25583,"lon":5.38277,"is_reserved":false,"is_disabled":false,"rental_uris":{"android":"levelo://app?vid=16f4b9cf-a813-42ed-a677-8aecee88502e","ios":"levelo://app?vid=16f4b9cf-a813-42ed-a677-8aecee88502e"},"vehicle_type_id":"4","last_reported":1746537871,"current_range_meters":22000,"station_id":"ce4bhih2rcd13ifvqfs0","pricing_plan_id":"cebpf4jnsgd1na2vs0mg"},{"bike_id":"24cb5bd8-1a1f-4a28-9427-7490b45f8762","system_id":"levelo_inurba_marseille","lat":43.211888,"lon":5.350686,"is_reserved":false,"is_disabled":false,"rental_uris":{"android":"levelo://app?vid=24cb5bd8-1a1f-4a28-9427-7490b45f8762","ios":"levelo://app?vid=24cb5bd8-1a1f-4a28-9427-7490b45f8762"},"vehicle_type_id":"4","last_reported":1746537871,"current_range_meters":22800,"station_id":"st_cvj6sg6p6f1abm77japg","pricing_plan_id":"cebpf4jnsgd1na2vs0mg"},{"bike_id":"3522e732-7dae-4695-b03f-bb7dda3bae67","system_id":"levelo_inurba_marseille","lat":43.31124,"lon":5.37763,"is_reserved":false,"is_disabled":false,"rental_uris":{"android":"levelo://app?vid=3522e732-7dae-4695-b03f-bb7dda3bae67","ios":"levelo://app?vid=3522e732-7dae-4695-b03f-bb7dda3bae67"},"vehicle_type_id":"4","last_reported":1746537871,"current_range_meters":22400,"station_id":"ce4bgt92rcd13ifvqcg0","pricing_plan_id":"cebpf4jnsgd1na2vs0mg"},{"bike_id":"41c8690d-b500-4305-9f56-da85152564fb","system_id":"levelo_inurba_marseille","lat":43.27943,"lon":5.41052,"is_reserved":false,"is_disabled":false,"rental_uris":{"android":"levelo://app?vid=41c8690d-b500-4305-9f56-da85152564fb","ios":"levelo://app?vid=41c8690d-b500-4305-9f56-da85152564fb"},"vehicle_type_id":"4","last_reported":1746537871,"current_range_meters":22400,"station_id":"ce4bhnp2rcd13ifvqh0g","pricing_plan_id":"cebpf4jnsgd1na2vs0mg"},{"bike_id":"4c92ddfb-82c6-411c-8a4c-50ec62be918b","system_id":"levelo_inurba_marseille","lat":43.24075,"lon":5.37732,"is_reserved":false,"is_disabled":false,"rental_uris":{"android":"levelo://app?vid=4c92ddfb-82c6-411c-8a4c-50ec62be918b","ios":"levelo://app?vid=4c92ddfb-82c6-411c-8a4c-50ec62be918b"},"vehicle_type_id":"4","last_reported":1746537871,"current_range_meters":22400,"station_id":"ce4bhnp2rcd13ifvqgvg","pricing_plan_id":"cebpf4jnsgd1na2vs0mg"},{"bike_id":"96175c6b-7676-4c4f-8523-d41df33ea507","system_id":"levelo_inurba_marseille","lat":43.24026,"lon":5.37725,"is_reserved":false,"is_disabled":false,"rental_uris":{"android":"levelo://app?vid=96175c6b-7676-4c4f-8523-d41df33ea507","ios":"levelo://app?vid=96175c6b-7676-4c4f-8523-d41df33ea507"},"vehicle_type_id":"4","last_reported":1746537871,"current_range_meters":22400,"station_id":"ce4bhnp2rcd13ifvqgvg","pricing_plan_id":"cebpf4jnsgd1na2vs0mg"},{"bike_id":"be109fb4-5bd2-488f-841d-49d561d994cf","system_id":"levelo_inurba_marseille","lat":43.28273,"lon":5.35068,"is_reserved":false,"is_disabled":false,"rental_uris":{"android":"levelo://app?vid=be109fb4-5bd2-488f-841d-49d561d994cf","ios":"levelo://app?vid=be109fb4-5bd2-488f-841d-49d561d994cf"},"vehicle_type_id":"4","last_reported":1746537871,"current_range_meters":22400,"station_id":"ce4bhbp2rcd13ifvqerg","pricing_plan_id":"cebpf4jnsgd1na2vs0mg"},{"bike_id":"69e7f944-9aa3-41ec-a94e-acbfdebb0e97","system_id":"levelo_inurba_marseille","lat":43.302841,"lon":5.377085,"is_reserved":false,"is_disabled":false,"rental_uris":{"android":"levelo://app?vid=69e7f944-9aa3-41ec-a94e-acbfdebb0e97","ios":"levelo://app?vid=69e7f944-9aa3-41ec-a94e-acbfdebb0e97"},"vehicle_type_id":"4","last_reported":1746537871,"current_range_meters":22400,"station_id":"ce4bguh2rcd13ifvqcj0","pricing_plan_id":"cebpf4jnsgd1na2vs0mg"},{"bike_id":"a6f11497-5c8f-4265-816c-3c67aaf3f670","system_id":"levelo_inurba_marseille","lat":43.299332,"lon":5.365491,"is_reserved":false,"is_disabled":false,"rental_uris":{"android":"levelo://app?vid=a6f11497-5c8f-4265-816c-3c67aaf3f670","ios":"levelo://app?vid=a6f11497-5c8f-4265-816c-3c67aaf3f670"},"vehicle_type_id":"4","last_reported":1746537871,"current_range_meters":22800,"station_id":"ce4bgm92rcd13ifvqbr0","pricing_plan_id":"cebpf4jnsgd1na2vs0mg"},{"bike_id":"60689545-5d60-47bd-8c83-dfeb87ae92a6","system_id":"levelo_inurba_marseille","lat":43.23055,"lon":5.355,"is_reserved":false,"is_disabled":false,"rental_uris":{"android":"levelo://app?vid=60689545-5d60-47bd-8c83-dfeb87ae92a6","ios":"levelo://app?vid=60689545-5d60-47bd-8c83-dfeb87ae92a6"},"vehicle_type_id":"4","last_reported":1746537871,"current_range_meters":22800,"station_id":"cpo3342slgdg3j2ifvpg","pricing_plan_id":"cebpf4jnsgd1na2vs0mg"},{"bike_id":"10058366-0392-49ec-9222-ecd3795b4e21","system_id":"levelo_inurba_marseille","lat":43.2621,"lon":5.3744,"is_reserved":false,"is_disabled":false,"rental_uris":{"android":"levelo://app?vid=10058366-0392-49ec-9222-ecd3795b4e21","ios":"levelo://app?vid=10058366-0392-49ec-9222-ecd3795b4e21"},"vehicle_type_id":"4","last_reported":1746537871,"current_range_meters":22800,"station_id":"ce4bhgp2rcd13ifvqfc0","pricing_plan_id":"cebpf4jnsgd1na2vs0mg"},{"bike_id":"8f03aace-332a-4bda-87f3-534607421873","system_id":"levelo_inurba_marseille","lat":43.325372,"lon":5.414323,"is_reserved":false,"is_disabled":false,"rental_uris":{"android":"levelo://app?vid=8f03aace-332a-4bda-87f3-534607421873","ios":"levelo://app?vid=8f03aace-332a-4bda-87f3-534607421873"},"vehicle_type_id":"4","last_reported":1746537871,"current_range_meters":22800,"station_id":"ce4bhq12rcd13ifvqhhg","pricing_plan_id":"cebpf4jnsgd1na2vs0mg"},{"bike_id":"d5ab06e3-e77d-4b7f-a195-6a14c71353d9","system_id":"levelo_inurba_marseille","lat":43.262246,"lon":5.404486,"is_reserved":false,"is_disabled":false,"rental_uris":{"android":"levelo://app?vid=d5ab06e3-e77d-4b7f-a195-6a14c71353d9","ios":"levelo://app?vid=d5ab06e3-e77d-4b7f-a195-6a14c71353d9"},"vehicle_type_id":"4","last_reported":1746537871,"current_range_meters":22800,"station_id":"ce4bhmh2rcd13ifvqgmg","pricing_plan_id":"cebpf4jnsgd1na2vs0mg"},{"bike_id":"9164aace-04bb-49d9-9faa-3a795154ecb1","system_id":"levelo_inurba_marseille","lat":43.211872,"lon":5.350688,"is_reserved":false,"is_disabled":false,"rental_uris":{"android":"levelo://app?vid=9164aace-04bb-49d9-9faa-3a795154ecb1","ios":"levelo://app?vid=9164aace-04bb-49d9-9faa-3a795154ecb1"},"vehicle_type_id":"4","last_reported":1746537871,"current_range_meters":22800,"station_id":"st_cvj6sg6p6f1abm77japg","pricing_plan_id":"cebpf4jnsgd1na2vs0mg"},{"bike_id":"8b68ab07-f253-4905-93af-26f832abce10","system_id":"levelo_inurba_marseille","lat":43.3079,"lon":5.38155,"is_reserved":false,"is_disabled":false,"rental_uris":{"android":"levelo://app?vid=8b68ab07-f253-4905-93af-26f832abce10","ios":"levelo://app?vid=8b68ab07-f253-4905-93af-26f832abce10"},"vehicle_type_id":"4","last_reported":1746537871,"current_range_meters":22800,"station_id":"ce4bgt12rcd13ifvqce0","pricing_plan_id":"cebpf4jnsgd1na2vs0mg"},{"bike_id":"0df3111c-fd99-4e63-915e-e7763d46bb1b","system_id":"levelo_inurba_marseille","lat":43.28491,"lon":5.37075,"is_reserved":false,"is_disabled":false,"rental_uris":{"android":"levelo://app?vid=0df3111c-fd99-4e63-915e-e7763d46bb1b","ios":"levelo://app?vid=0df3111c-fd99-4e63-915e-e7763d46bb1b"},"vehicle_type_id":"4","last_reported":1746537871,"current_range_meters":23200,"station_id":"","pricing_plan_id":"cebpf4jnsgd1na2vs0mg"},{"bike_id":"e5de2e02-a449-4ba8-a7ca-a78e01cb0bc6","system_id":"levelo_inurba_marseille","lat":43.30413,"lon":5.4129,"is_reserved":false,"is_disabled":false,"rental_uris":{"android":"levelo://app?vid=e5de2e02-a449-4ba8-a7ca-a78e01cb0bc6","ios":"levelo://app?vid=e5de2e02-a449-4ba8-a7ca-a78e01cb0bc6"},"vehicle_type_id":"4","last_reported":1746537871,"current_range_meters":23200,"station_id":"ce4bhop2rcd13ifvqh8g","pricing_plan_id":"cebpf4jnsgd1na2vs0mg"},{"bike_id":"3cf4fd9a-88f0-4613-94d4-284c9381a572","system_id":"levelo_inurba_marseille","lat":43.25578,"lon":5.382364,"is_reserved":false,"is_disabled":false,"rental_uris":{"android":"levelo://app?vid=3cf4fd9a-88f0-4613-94d4-284c9381a572","ios":"levelo://app?vid=3cf4fd9a-88f0-4613-94d4-284c9381a572"},"vehicle_type_id":"4","last_reported":1746537871,"current_range_meters":24000,"station_id":"ce4bhih2rcd13ifvqfs0","pricing_plan_id":"cebpf4jnsgd1na2vs0mg"},{"bike_id":"36f07ac9-8c03-4572-9859-e0b4b08c0773","system_id":"levelo_inurba_marseille","lat":43.28614,"lon":5.35097,"is_reserved":false,"is_disabled":false,"rental_uris":{"android":"levelo://app?vid=36f07ac9-8c03-4572-9859-e0b4b08c0773","ios":"levelo://app?vid=36f07ac9-8c03-4572-9859-e0b4b08c0773"},"vehicle_type_id":"4","last_reported":1746537871,"current_range_meters":23200,"station_id":"ce4bhch2rcd13ifvqeug","pricing_plan_id":"cebpf4jnsgd1na2vs0mg"},{"bike_id":"f89d88ba-6a71-4371-a03a-ca81591ecf28","system_id":"levelo_inurba_marseille","lat":43.29539,"lon":5.38548,"is_reserved":false,"is_disabled":false,"rental_uris":{"android":"levelo://app?vid=f89d88ba-6a71-4371-a03a-ca81591ecf28","ios":"levelo://app?vid=f89d88ba-6a71-4371-a03a-ca81591ecf28"},"vehicle_type_id":"4","last_reported":1746537871,"current_range_meters":23200,"station_id":"ce4bgih2rcd13ifvqba0","pricing_plan_id":"cebpf4jnsgd1na2vs0mg"},{"bike_id":"6b7c40f1-93d7-411c-b3c3-b04d4f669519","system_id":"levelo_inurba_marseille","lat":43.31326,"lon":5.39694,"is_reserved":false,"is_disabled":false,"rental_uris":{"android":"levelo://app?vid=6b7c40f1-93d7-411c-b3c3-b04d4f669519","ios":"levelo://app?vid=6b7c40f1-93d7-411c-b3c3-b04d4f669519"},"vehicle_type_id":"4","last_reported":1746537871,"current_range_meters":23200,"station_id":"ce4bgvp2rcd13ifvqcu0","pricing_plan_id":"cebpf4jnsgd1na2vs0mg"},{"bike_id":"6884004a-e1aa-4639-95ae-1ff9c2053390","system_id":"levelo_inurba_marseille","lat":43.243916,"lon":5.370425,"is_reserved":false,"is_disabled":false,"rental_uris":{"android":"levelo://app?vid=6884004a-e1aa-4639-95ae-1ff9c2053390","ios":"levelo://app?vid=6884004a-e1aa-4639-95ae-1ff9c2053390"},"vehicle_type_id":"4","last_reported":1746537871,"current_range_meters":23200,"station_id":"ce4bhhh2rcd13ifvqfk0","pricing_plan_id":"cebpf4jnsgd1na2vs0mg"},{"bike_id":"6df49a25-ba0b-4eaa-a2fb-54c1ee30528c","system_id":"levelo_inurba_marseille","lat":43.26555,"lon":5.37286,"is_reserved":false,"is_disabled":false,"rental_uris":{"android":"levelo://app?vid=6df49a25-ba0b-4eaa-a2fb-54c1ee30528c","ios":"levelo://app?vid=6df49a25-ba0b-4eaa-a2fb-54c1ee30528c"},"vehicle_type_id":"4","last_reported":1746537871,"current_range_meters":24000,"station_id":"ce4bhg12rcd13ifvqf70","pricing_plan_id":"cebpf4jnsgd1na2vs0mg"},{"bike_id":"468596e9-312d-4f10-8a10-2c624738924c","system_id":"levelo_inurba_marseille","lat":43.28726,"lon":5.37939,"is_reserved":false,"is_disabled":false,"rental_uris":{"android":"levelo://app?vid=468596e9-312d-4f10-8a10-2c624738924c","ios":"levelo://app?vid=468596e9-312d-4f10-8a10-2c624738924c"},"vehicle_type_id":"4","last_reported":1746537871,"current_range_meters":25200,"station_id":"ce4bh9p2rcd13ifvqec0","pricing_plan_id":"cebpf4jnsgd1na2vs0mg"},{"bike_id":"865ec0c1-5373-4254-ad6c-e2ec7e46305c","system_id":"levelo_inurba_marseille","lat":43.24662,"lon":5.38155,"is_reserved":false,"is_disabled":false,"rental_uris":{"android":"levelo://app?vid=865ec0c1-5373-4254-ad6c-e2ec7e46305c","ios":"levelo://app?vid=865ec0c1-5373-4254-ad6c-e2ec7e46305c"},"vehicle_type_id":"4","last_reported":1746537871,"current_range_meters":24000,"station_id":"ce4bhih2rcd13ifvqfr0","pricing_plan_id":"cebpf4jnsgd1na2vs0mg"},{"bike_id":"bfad605b-478c-43c8-8dbf-6c80e6525809","system_id":"levelo_inurba_marseille","lat":43.29538,"lon":5.39397,"is_reserved":false,"is_disabled":false,"rental_uris":{"android":"levelo://app?vid=bfad605b-478c-43c8-8dbf-6c80e6525809","ios":"levelo://app?vid=bfad605b-478c-43c8-8dbf-6c80e6525809"},"vehicle_type_id":"4","last_reported":1746537871,"current_range_meters":23200,"station_id":"ce4bh292rcd13ifvqdf0","pricing_plan_id":"cebpf4jnsgd1na2vs0mg"},{"bike_id":"e9c8d22a-b7d2-404d-a511-74a094cfff2e","system_id":"levelo_inurba_marseille","lat":43.28483,"lon":5.3843,"is_reserved":false,"is_disabled":false,"rental_uris":{"android":"levelo://app?vid=e9c8d22a-b7d2-404d-a511-74a094cfff2e","ios":"levelo://app?vid=e9c8d22a-b7d2-404d-a511-74a094cfff2e"},"vehicle_type_id":"4","last_reported":1746537871,"current_range_meters":24400,"station_id":"ce4bh512rcd13ifvqe3g","pricing_plan_id":"cebpf4jnsgd1na2vs0mg"},{"bike_id":"60832423-0bb6-48d4-8bb2-5bd12eb7bfae","system_id":"levelo_inurba_marseille","lat":43.25903,"lon":5.40894,"is_reserved":false,"is_disabled":false,"rental_uris":{"android":"levelo://app?vid=60832423-0bb6-48d4-8bb2-5bd12eb7bfae","ios":"levelo://app?vid=60832423-0bb6-48d4-8bb2-5bd12eb7bfae"},"vehicle_type_id":"4","last_reported":1746537871,"current_range_meters":24000,"station_id":"ce4bhm92rcd13ifvqglg","pricing_plan_id":"cebpf4jnsgd1na2vs0mg"},{"bike_id":"cb75622c-02c1-4c6c-8d6e-9a9df7314516","system_id":"levelo_inurba_marseille","lat":43.29957,"lon":5.37161,"is_reserved":false,"is_disabled":false,"rental_uris":{"android":"levelo://app?vid=cb75622c-02c1-4c6c-8d6e-9a9df7314516","ios":"levelo://app?vid=cb75622c-02c1-4c6c-8d6e-9a9df7314516"},"vehicle_type_id":"4","last_reported":1746537871,"current_range_meters":24000,"station_id":"ce4bgr92rcd13ifvqc7g","pricing_plan_id":"cebpf4jnsgd1na2vs0mg"},{"bike_id":"18644f67-72ce-4631-9d9d-aa6cb4af4f83","system_id":"levelo_inurba_marseille","lat":43.211938,"lon":5.350692,"is_reserved":false,"is_disabled":false,"rental_uris":{"android":"levelo://app?vid=18644f67-72ce-4631-9d9d-aa6cb4af4f83","ios":"levelo://app?vid=18644f67-72ce-4631-9d9d-aa6cb4af4f83"},"vehicle_type_id":"4","last_reported":1746537871,"current_range_meters":24000,"station_id":"st_cvj6sg6p6f1abm77japg","pricing_plan_id":"cebpf4jnsgd1na2vs0mg"},{"bike_id":"c1eb5e84-80d6-4719-ac60-ee4afb27d442","system_id":"levelo_inurba_marseille","lat":43.25719,"lon":5.41115,"is_reserved":false,"is_disabled":false,"rental_uris":{"android":"levelo://app?vid=c1eb5e84-80d6-4719-ac60-ee4afb27d442","ios":"levelo://app?vid=c1eb5e84-80d6-4719-ac60-ee4afb27d442"},"vehicle_type_id":"4","last_reported":1746537871,"current_range_meters":23200,"station_id":"ce4bhkp2rcd13ifvqgd0","pricing_plan_id":"cebpf4jnsgd1na2vs0mg"},{"bike_id":"288525d9-2fea-4462-a6ca-b3a916da5cdf","system_id":"levelo_inurba_marseille","lat":43.27555,"lon":5.38436,"is_reserved":false,"is_disabled":false,"rental_uris":{"android":"levelo://app?vid=288525d9-2fea-4462-a6ca-b3a916da5cdf","ios":"levelo://app?vid=288525d9-2fea-4462-a6ca-b3a916da5cdf"},"vehicle_type_id":"4","last_reported":1746537871,"current_range_meters":24000,"station_id":"ce4bhh92rcd13ifvqfi0","pricing_plan_id":"cebpf4jnsgd1na2vs0mg"},{"bike_id":"637e8736-df4f-40aa-949c-169d39cecc25","system_id":"levelo_inurba_marseille","lat":43.29573,"lon":5.37524,"is_reserved":false,"is_disabled":false,"rental_uris":{"android":"levelo://app?vid=637e8736-df4f-40aa-949c-169d39cecc25","ios":"levelo://app?vid=637e8736-df4f-40aa-949c-169d39cecc25"},"vehicle_type_id":"4","last_reported":1746537871,"current_range_meters":24000,"station_id":"ce4bgh92rcd13ifvqb50","pricing_plan_id":"cebpf4jnsgd1na2vs0mg"},{"bike_id":"bfcdf3a9-484c-48d9-b575-9d84d68aee88","system_id":"levelo_inurba_marseille","lat":43.30549,"lon":5.36554,"is_reserved":false,"is_disabled":false,"rental_uris":{"android":"levelo://app?vid=bfcdf3a9-484c-48d9-b575-9d84d68aee88","ios":"levelo://app?vid=bfcdf3a9-484c-48d9-b575-9d84d68aee88"},"vehicle_type_id":"4","last_reported":1746537871,"current_range_meters":24000,"station_id":"ce4bgs12rcd13ifvqcag","pricing_plan_id":"cebpf4jnsgd1na2vs0mg"},{"bike_id":"c6577a29-a8bf-4c39-b0a2-00df653ab707","system_id":"levelo_inurba_marseille","lat":43.29619,"lon":5.37727,"is_reserved":false,"is_disabled":false,"rental_uris":{"android":"levelo://app?vid=c6577a29-a8bf-4c39-b0a2-00df653ab707","ios":"levelo://app?vid=c6577a29-a8bf-4c39-b0a2-00df653ab707"},"vehicle_type_id":"4","last_reported":1746537871,"current_range_meters":22400,"station_id":"ce4bgi92rcd13ifvqb90","pricing_plan_id":"cebpf4jnsgd1na2vs0mg"},{"bike_id":"9d9e04ac-1622-4786-b41a-7c882cdb47cb","system_id":"levelo_inurba_marseille","lat":43.29415,"lon":5.38633,"is_reserved":false,"is_disabled":false,"rental_uris":{"android":"levelo://app?vid=9d9e04ac-1622-4786-b41a-7c882cdb47cb","ios":"levelo://app?vid=9d9e04ac-1622-4786-b41a-7c882cdb47cb"},"vehicle_type_id":"4","last_reported":1746537871,"current_range_meters":24400,"station_id":"ce4bh2h2rcd13ifvqdh0","pricing_plan_id":"cebpf4jnsgd1na2vs0mg"},{"bike_id":"2577e1a4-4e0b-4307-a692-716226c9c78a","system_id":"levelo_inurba_marseille","lat":43.31319,"lon":5.39707,"is_reserved":false,"is_disabled":false,"rental_uris":{"android":"levelo://app?vid=2577e1a4-4e0b-4307-a692-716226c9c78a","ios":"levelo://app?vid=2577e1a4-4e0b-4307-a692-716226c9c78a"},"vehicle_type_id":"4","last_reported":1746537871,"current_range_meters":24000,"station_id":"ce4bgvp2rcd13ifvqcu0","pricing_plan_id":"cebpf4jnsgd1na2vs0mg"},{"bike_id":"d4882ba5-cdd0-457d-bf01-aa39b2b3b1e7","system_id":"levelo_inurba_marseille","lat":43.282593,"lon":5.350564,"is_reserved":false,"is_disabled":false,"rental_uris":{"android":"levelo://app?vid=d4882ba5-cdd0-457d-bf01-aa39b2b3b1e7","ios":"levelo://app?vid=d4882ba5-cdd0-457d-bf01-aa39b2b3b1e7"},"vehicle_type_id":"4","last_reported":1746537871,"current_range_meters":24400,"station_id":"ce4bhbp2rcd13ifvqerg","pricing_plan_id":"cebpf4jnsgd1na2vs0mg"},{"bike_id":"98154f32-a2a4-44c1-8b3b-8d3825fc3ba6","system_id":"levelo_inurba_marseille","lat":43.26207,"lon":5.40447,"is_reserved":false,"is_disabled":false,"rental_uris":{"android":"levelo://app?vid=98154f32-a2a4-44c1-8b3b-8d3825fc3ba6","ios":"levelo://app?vid=98154f32-a2a4-44c1-8b3b-8d3825fc3ba6"},"vehicle_type_id":"4","last_reported":1746537871,"current_range_meters":24400,"station_id":"ce4bhmh2rcd13ifvqgmg","pricing_plan_id":"cebpf4jnsgd1na2vs0mg"},{"bike_id":"baa0990c-63b8-40f5-9c59-db7c8b182c0e","system_id":"levelo_inurba_marseille","lat":43.321,"lon":5.36782,"is_reserved":false,"is_disabled":false,"rental_uris":{"android":"levelo://app?vid=baa0990c-63b8-40f5-9c59-db7c8b182c0e","ios":"levelo://app?vid=baa0990c-63b8-40f5-9c59-db7c8b182c0e"},"vehicle_type_id":"4","last_reported":1746537871,"current_range_meters":24400,"station_id":"ce4bhrh2rcd13ifvqhug","pricing_plan_id":"cebpf4jnsgd1na2vs0mg"},{"bike_id":"c0e2c775-218b-47d8-a037-faecaedf1f8a","system_id":"levelo_inurba_marseille","lat":43.31111,"lon":5.37772,"is_reserved":false,"is_disabled":false,"rental_uris":{"android":"levelo://app?vid=c0e2c775-218b-47d8-a037-faecaedf1f8a","ios":"levelo://app?vid=c0e2c775-218b-47d8-a037-faecaedf1f8a"},"vehicle_type_id":"4","last_reported":1746537871,"current_range_meters":24400,"station_id":"ce4bgt92rcd13ifvqcg0","pricing_plan_id":"cebpf4jnsgd1na2vs0mg"},{"bike_id":"32520e9c-a723-4201-920d-4d849409ab6b","system_id":"levelo_inurba_marseille","lat":43.32657,"lon":5.40996,"is_reserved":false,"is_disabled":false,"rental_uris":{"android":"levelo://app?vid=32520e9c-a723-4201-920d-4d849409ab6b","ios":"levelo://app?vid=32520e9c-a723-4201-920d-4d849409ab6b"},"vehicle_type_id":"4","last_reported":1746537871,"current_range_meters":24800,"station_id":"ce4bhpp2rcd13ifvqhgg","pricing_plan_id":"cebpf4jnsgd1na2vs0mg"},{"bike_id":"55a42e1a-e9ed-4ffd-8cb5-2980049a4c4e","system_id":"levelo_inurba_marseille","lat":43.28268,"lon":5.35064,"is_reserved":false,"is_disabled":false,"rental_uris":{"android":"levelo://app?vid=55a42e1a-e9ed-4ffd-8cb5-2980049a4c4e","ios":"levelo://app?vid=55a42e1a-e9ed-4ffd-8cb5-2980049a4c4e"},"vehicle_type_id":"4","last_reported":1746537871,"current_range_meters":24800,"station_id":"ce4bhbp2rcd13ifvqerg","pricing_plan_id":"cebpf4jnsgd1na2vs0mg"},{"bike_id":"57a075ab-58f9-4336-b622-3fa123a6cf43","system_id":"levelo_inurba_marseille","lat":43.26534,"lon":5.37287,"is_reserved":false,"is_disabled":false,"rental_uris":{"android":"levelo://app?vid=57a075ab-58f9-4336-b622-3fa123a6cf43","ios":"levelo://app?vid=57a075ab-58f9-4336-b622-3fa123a6cf43"},"vehicle_type_id":"4","last_reported":1746537871,"current_range_meters":24800,"station_id":"ce4bhg12rcd13ifvqf70","pricing_plan_id":"cebpf4jnsgd1na2vs0mg"},{"bike_id":"c057e067-9454-496f-a3c5-09af2a3d7b6a","system_id":"levelo_inurba_marseille","lat":43.25114,"lon":5.40317,"is_reserved":false,"is_disabled":false,"rental_uris":{"android":"levelo://app?vid=c057e067-9454-496f-a3c5-09af2a3d7b6a","ios":"levelo://app?vid=c057e067-9454-496f-a3c5-09af2a3d7b6a"},"vehicle_type_id":"4","last_reported":1746537871,"current_range_meters":24800,"station_id":"ce4bhlh2rcd13ifvqgig","pricing_plan_id":"cebpf4jnsgd1na2vs0mg"},{"bike_id":"b256b0c5-4acf-46d6-93d8-cddfb57da7d0","system_id":"levelo_inurba_marseille","lat":43.23062,"lon":5.35491,"is_reserved":false,"is_disabled":false,"rental_uris":{"android":"levelo://app?vid=b256b0c5-4acf-46d6-93d8-cddfb57da7d0","ios":"levelo://app?vid=b256b0c5-4acf-46d6-93d8-cddfb57da7d0"},"vehicle_type_id":"4","last_reported":1746537871,"current_range_meters":24800,"station_id":"cpo3342slgdg3j2ifvpg","pricing_plan_id":"cebpf4jnsgd1na2vs0mg"},{"bike_id":"be14af02-7701-4605-b2d6-5fd0439029d8","system_id":"levelo_inurba_marseille","lat":43.21192,"lon":5.35068,"is_reserved":false,"is_disabled":false,"rental_uris":{"android":"levelo://app?vid=be14af02-7701-4605-b2d6-5fd0439029d8","ios":"levelo://app?vid=be14af02-7701-4605-b2d6-5fd0439029d8"},"vehicle_type_id":"4","last_reported":1746537871,"current_range_meters":24800,"station_id":"st_cvj6sg6p6f1abm77japg","pricing_plan_id":"cebpf4jnsgd1na2vs0mg"},{"bike_id":"a4b464ac-8de5-49d3-86ab-c4917811e0dc","system_id":"levelo_inurba_marseille","lat":43.31356,"lon":5.36711,"is_reserved":false,"is_disabled":false,"rental_uris":{"android":"levelo://app?vid=a4b464ac-8de5-49d3-86ab-c4917811e0dc","ios":"levelo://app?vid=a4b464ac-8de5-49d3-86ab-c4917811e0dc"},"vehicle_type_id":"4","last_reported":1746537871,"current_range_meters":24800,"station_id":"ce4bgr92rcd13ifvqc6g","pricing_plan_id":"cebpf4jnsgd1na2vs0mg"},{"bike_id":"4943aaff-c800-4e9a-bffe-aacef57a5114","system_id":"levelo_inurba_marseille","lat":43.21196,"lon":5.35073,"is_reserved":false,"is_disabled":false,"rental_uris":{"android":"levelo://app?vid=4943aaff-c800-4e9a-bffe-aacef57a5114","ios":"levelo://app?vid=4943aaff-c800-4e9a-bffe-aacef57a5114"},"vehicle_type_id":"4","last_reported":1746537871,"current_range_meters":25200,"station_id":"st_cvj6sg6p6f1abm77japg","pricing_plan_id":"cebpf4jnsgd1na2vs0mg"},{"bike_id":"a265f57c-9342-462b-81c9-6f5f0c502bc3","system_id":"levelo_inurba_marseille","lat":43.21191,"lon":5.35069,"is_reserved":false,"is_disabled":false,"rental_uris":{"android":"levelo://app?vid=a265f57c-9342-462b-81c9-6f5f0c502bc3","ios":"levelo://app?vid=a265f57c-9342-462b-81c9-6f5f0c502bc3"},"vehicle_type_id":"4","last_reported":1746537871,"current_range_meters":25200,"station_id":"st_cvj6sg6p6f1abm77japg","pricing_plan_id":"cebpf4jnsgd1na2vs0mg"},{"bike_id":"8f71a825-7185-49f6-a713-5b8a931f1651","system_id":"levelo_inurba_marseille","lat":43.314947,"lon":5.373086,"is_reserved":false,"is_disabled":false,"rental_uris":{"android":"levelo://app?vid=8f71a825-7185-49f6-a713-5b8a931f1651","ios":"levelo://app?vid=8f71a825-7185-49f6-a713-5b8a931f1651"},"vehicle_type_id":"4","last_reported":1746537871,"current_range_meters":24800,"station_id":"ce4bgt12rcd13ifvqcd0","pricing_plan_id":"cebpf4jnsgd1na2vs0mg"},{"bike_id":"4c15013c-0453-4bec-8e50-51a7345d5f6a","system_id":"levelo_inurba_marseille","lat":43.24174,"lon":5.39714,"is_reserved":false,"is_disabled":false,"rental_uris":{"android":"levelo://app?vid=4c15013c-0453-4bec-8e50-51a7345d5f6a","ios":"levelo://app?vid=4c15013c-0453-4bec-8e50-51a7345d5f6a"},"vehicle_type_id":"4","last_reported":1746537871,"current_range_meters":25200,"station_id":"ce4bhn12rcd13ifvqgpg","pricing_plan_id":"cebpf4jnsgd1na2vs0mg"},{"bike_id":"7a042e6e-47fd-4fc4-a18b-ebd7874986f3","system_id":"levelo_inurba_marseille","lat":43.28957,"lon":5.39638,"is_reserved":false,"is_disabled":false,"rental_uris":{"android":"levelo://app?vid=7a042e6e-47fd-4fc4-a18b-ebd7874986f3","ios":"levelo://app?vid=7a042e6e-47fd-4fc4-a18b-ebd7874986f3"},"vehicle_type_id":"4","last_reported":1746537871,"current_range_meters":25200,"station_id":"ce4bh3h2rcd13ifvqdn0","pricing_plan_id":"cebpf4jnsgd1na2vs0mg"},{"bike_id":"9f245f51-9534-431f-8e0c-8268090a1b52","system_id":"levelo_inurba_marseille","lat":43.29266,"lon":5.38432,"is_reserved":false,"is_disabled":true,"rental_uris":{"android":"levelo://app?vid=9f245f51-9534-431f-8e0c-8268090a1b52","ios":"levelo://app?vid=9f245f51-9534-431f-8e0c-8268090a1b52"},"vehicle_type_id":"4","last_reported":1746537871,"current_range_meters":25600,"station_id":"ce4bh692rcd13ifvqea0","pricing_plan_id":"cebpf4jnsgd1na2vs0mg"},{"bike_id":"70a29a45-574c-4ff1-aca3-740aa0e705be","system_id":"levelo_inurba_marseille","lat":43.24184,"lon":5.36437,"is_reserved":false,"is_disabled":false,"rental_uris":{"android":"levelo://app?vid=70a29a45-574c-4ff1-aca3-740aa0e705be","ios":"levelo://app?vid=70a29a45-574c-4ff1-aca3-740aa0e705be"},"vehicle_type_id":"4","last_reported":1746537871,"current_range_meters":25600,"station_id":"cpo36qri1sfpv3e86is0","pricing_plan_id":"cebpf4jnsgd1na2vs0mg"},{"bike_id":"89b5c51b-cd9c-475c-ba7a-726b12d22f75","system_id":"levelo_inurba_marseille","lat":43.21192,"lon":5.3507,"is_reserved":false,"is_disabled":false,"rental_uris":{"android":"levelo://app?vid=89b5c51b-cd9c-475c-ba7a-726b12d22f75","ios":"levelo://app?vid=89b5c51b-cd9c-475c-ba7a-726b12d22f75"},"vehicle_type_id":"4","last_reported":1746537871,"current_range_meters":25600,"station_id":"st_cvj6sg6p6f1abm77japg","pricing_plan_id":"cebpf4jnsgd1na2vs0mg"},{"bike_id":"a6ba84a0-c905-49df-9248-927e71f00a7f","system_id":"levelo_inurba_marseille","lat":43.21189,"lon":5.35064,"is_reserved":false,"is_disabled":false,"rental_uris":{"android":"levelo://app?vid=a6ba84a0-c905-49df-9248-927e71f00a7f","ios":"levelo://app?vid=a6ba84a0-c905-49df-9248-927e71f00a7f"},"vehicle_type_id":"4","last_reported":1746537871,"current_range_meters":26000,"station_id":"st_cvj6sg6p6f1abm77japg","pricing_plan_id":"cebpf4jnsgd1na2vs0mg"},{"bike_id":"9c18fdf7-2a13-46d4-8439-620ad393ba8e","system_id":"levelo_inurba_marseille","lat":43.2962,"lon":5.37159,"is_reserved":false,"is_disabled":false,"rental_uris":{"android":"levelo://app?vid=9c18fdf7-2a13-46d4-8439-620ad393ba8e","ios":"levelo://app?vid=9c18fdf7-2a13-46d4-8439-620ad393ba8e"},"vehicle_type_id":"4","last_reported":1746537871,"current_range_meters":26000,"station_id":"ce4bgnh2rcd13ifvqc0g","pricing_plan_id":"cebpf4jnsgd1na2vs0mg"},