{"last_updated":1686254829,"ttl":30,"version":"2.2","data":{"bikes":[{"bike_id":"8344239c-753c-4d7d-93a5-45f3244bc1dd","system_id":"levelo_inurba_marseille","lat":43.312239,"lon":5.368562,"is_reserved":false,"is_disabled":false,"rental_uris":{"android":"levelo://app?vid=8344239c-753c-4d7d-93a5-45f3244bc1dd","ios":"levelo://app?vid=8344239c-753c-4d7d-93a5-45f3244bc1dd"},"vehicle_type_id":"4","last_reported":1686254830,"current_range_meters":8400,"station_id":"ce4bgl92rcd13ifvqbq0","pricing_plan_id":"free"},{"bike_id":"5d19c03a-9e76-4290-994d-46cd24cb071d","system_id":"levelo_inurba_marseille","lat":43.314811,"lon":5.373103,"is_reserved":false,"is_disabled":false,"rental_uris":{"android":"levelo://app?vid=5d19c03a-9e76-4290-994d-46cd24cb071d","ios":"levelo://app?vid=5d19c03a-9e76-4290-994d-46cd24cb071d"},"vehicle_type_id":"4","last_reported":1686254830,"current_range_meters":18400,"station_id":"ce4bgt12rcd13ifvqcd0","pricing_plan_id":"free"},{"bike_id":"641e2779-6a88-445b-aeef-9d648b0d8863","system_id":"levelo_inurba_marseille","lat":43.308606,"lon":5.372099,"is_reserved":false,"is_disabled":false,"rental_uris":{"android":"levelo://app?vid=641e2779-6a88-445b-aeef-9d648b0d8863","ios":"levelo://app?vid=641e2779-6a88-445b-aeef-9d648b0d8863"},"vehicle_type_id":"4","last_reported":1686254830,"current_range_meters":7600,"station_id":"ce4bguh2rcd13ifvqckg","pricing_plan_id":"free"},{"bike_id":"9937c74c-2917-42de-b629-681dcf9f5b3a","system_id":"levelo_inurba_marseille","lat":43.308606,"lon":5.372099,"is_reserved":false,"is_disabled":false,"rental_uris":{"android":"levelo://app?vid=9937c74c-2917-42de-b629-681dcf9f5b3a","ios":"levelo://app?vid=9937c74c-2917-42de-b629-681dcf9f5b3a"},"vehicle_type_id":"4","last_reported":1686254830,"current_range_meters":20000,"station_id":"ce4bguh2rcd13ifvqckg","pricing_plan_id":"free"},{"bike_id":"c6699cfc-6f7d-4ee1-9146-5289e6f2fc49","system_id":"levelo_inurba_marseille","lat":43.308614,"lon":5.372098,"is_reserved":false,"is_disabled":false,"rental_uris":{"android":"levelo://app?vid=c6699cfc-6f7d-4ee1-9146-5289e6f2fc49","ios":"levelo://app?vid=c6699cfc-6f7d-4ee1-9146-5289e6f2fc49"},"vehicle_type_id":"4","last_reported":1686254830,"current_range_meters":800,"station_id":"ce4bguh2rcd13ifvqckg","pricing_plan_id":"free"},{"bike_id":"223bda41-7f6c-4e61-bc08-d7790a943046","system_id":"levelo_inurba_marseille","lat":43.308606,"lon":5.372099,"is_reserved":false,"is_disabled":false,"rental_uris":{"android":"levelo://app?vid=223bda41-7f6c-4e61-bc08-d7790a943046","ios":"levelo://app?vid=223bda41-7f6c-4e61-bc08-d7790a943046"},"vehicle_type_id":"4","last_reported":1686254830,"current_range_meters":15200,"station_id":"ce4bguh2rcd13ifvqckg","pricing_plan_id":"free"},{"bike_id":"9cc47ae5-be30-45b6-85f9-d8455b7bc350","system_id":"levelo_inurba_marseille","lat":43.3169,"lon":5.3737,"is_reserved":false,"is_disabled":false,"rental_uris":{"android":"levelo://app?vid=9cc47ae5-be30-45b6-85f9-d8455b7bc350","ios":"levelo://app?vid=9cc47ae5-be30-45b6-85f9-d8455b7bc350"},"vehicle_type_id":"4","last_reported":1686254830,"current_range_meters":0,"station_id":"","pricing_plan_id":"free"},{"bike_id":"4ab06700-3393-412b-9d20-df3149cd4250","system_id":"levelo_inurba_marseille","lat":43.30807,"lon":5.37355,"is_reserved":false,"is_disabled":false,"rental_uris":{"android":"levelo://app?vid=4ab06700-3393-412b-9d20-df3149cd4250","ios":"levelo://app?vid=4ab06700-3393-412b-9d20-df3149cd4250"},"vehicle_type_id":"4","last_reported":1686254830,"current_range_meters":2400,"station_id":"","pricing_plan_id":"free"},{"bike_id":"b52aeed8-29f7-4b5e-9fcf-c49a6751df5b","system_id":"levelo_inurba_marseille","lat":43.305368,"lon":5.367343,"is_reserved":false,"is_disabled":false,"rental_uris":{"android":"levelo://app?vid=b52aeed8-29f7-4b5e-9fcf-c49a6751df5b","ios":"levelo://app?vid=b52aeed8-29f7-4b5e-9fcf-c49a6751df5b"},"vehicle_type_id":"4","last_reported":1686254830,"current_range_meters":16400,"station_id":"ce4bgrp2rcd13ifvqc9g","pricing_plan_id":"free"},{"bike_id":"4ce7fe61-27a1-4bf6-9d1e-ba2a5bc550b2","system_id":"levelo_inurba_marseille","lat":43.32017,"lon":5.36571,"is_reserved":false,"is_disabled":false,"rental_uris":{"android":"levelo://app?vid=4ce7fe61-27a1-4bf6-9d1e-ba2a5bc550b2","ios":"levelo://app?vid=4ce7fe61-27a1-4bf6-9d1e-ba2a5bc550b2"},"vehicle_type_id":"4","last_reported":1686254830,"current_range_meters":22000,"station_id":"","pricing_plan_id":"free"},{"bike_id":"b5ec792d-1874-4c43-b54c-567979ede6d9","system_id":"levelo_inurba_marseille","lat":43.305989,"lon":5.37225,"is_reserved":false,"is_disabled":false,"rental_uris":{"android":"levelo://app?vid=b5ec792d-1874-4c43-b54c-567979ede6d9","ios":"levelo://app?vid=b5ec792d-1874-4c43-b54c-567979ede6d9"},"vehicle_type_id":"4","last_reported":1686254830,"current_range_meters":4800,"station_id":"ce4bgqh2rcd13ifvqc4g","pricing_plan_id":"free"},{"bike_id":"ec55faca-c520-4821-ac9c-9f2ccb25cecc","system_id":"levelo_inurba_marseille","lat":43.311243,"lon":5.377688,"is_reserved":false,"is_disabled":false,"rental_uris":{"android":"levelo://app?vid=ec55faca-c520-4821-ac9c-9f2ccb25cecc","ios":"levelo://app?vid=ec55faca-c520-4821-ac9c-9f2ccb25cecc"},"vehicle_type_id":"4","last_reported":1686254830,"current_range_meters":0,"station_id":"","pricing_plan_id":"free"},{"bike_id":"82dd898e-3b1d-497b-ae29-961cb0b0bd7f","system_id":"levelo_inurba_marseille","lat":43.31529,"lon":5.38032,"is_reserved":false,"is_disabled":false,"rental_uris":{"android":"levelo://app?vid=82dd898e-3b1d-497b-ae29-961cb0b0bd7f","ios":"levelo://app?vid=82dd898e-3b1d-497b-ae29-961cb0b0bd7f"},"vehicle_type_id":"4","last_reported":1686254830,"current_range_meters":0,"station_id":"ce4bhsp2rcd13ifvqi50","pricing_plan_id":"free"},{"bike_id":"a4eb5a1d-6b8f-47da-ac2f-4374f598a2b1","system_id":"levelo_inurba_marseille","lat":43.301939,"lon":5.366286,"is_reserved":false,"is_disabled":false,"rental_uris":{"android":"levelo://app?vid=a4eb5a1d-6b8f-47da-ac2f-4374f598a2b1","ios":"levelo://app?vid=a4eb5a1d-6b8f-47da-ac2f-4374f598a2b1"},"vehicle_type_id":"4","last_reported":1686254830,"current_range_meters":0,"station_id":"ce4bgrh2rcd13ifvqc8g","pricing_plan_id":"free"},{"bike_id":"6330cff1-2988-45f4-a504-f5316c559150","system_id":"levelo_inurba_marseille","lat":43.30189,"lon":5.36605,"is_reserved":false,"is_disabled":false,"rental_uris":{"android":"levelo://app?vid=6330cff1-2988-45f4-a504-f5316c559150","ios":"levelo://app?vid=6330cff1-2988-45f4-a504-f5316c559150"},"vehicle_type_id":"4","last_reported":1686254830,"current_range_meters":19200,"station_id":"ce4bgrh2rcd13ifvqc8g","pricing_plan_id":"free"},{"bike_id":"8e733fcb-2229-4bf6-bbdb-e948d8145439","system_id":"levelo_inurba_marseille","lat":43.30188,"lon":5.36602,"is_reserved":false,"is_disabled":false,"rental_uris":{"android":"levelo://app?vid=8e733fcb-2229-4bf6-bbdb-e948d8145439","ios":"levelo://app?vid=8e733fcb-2229-4bf6-bbdb-e948d8145439"},"vehicle_type_id":"4","last_reported":1686254830,"current_range_meters":26000,"station_id":"ce4bgrh2rcd13ifvqc8g","pricing_plan_id":"free"},{"bike_id":"149ddbe7-9e60-4b57-8e95-ffade5986e4a","system_id":"levelo_inurba_marseille","lat":43.301939,"lon":5.366286,"is_reserved":false,"is_disabled":false,"rental_uris":{"android":"levelo://app?vid=149ddbe7-9e60-4b57-8e95-ffade5986e4a","ios":"levelo://app?vid=149ddbe7-9e60-4b57-8e95-ffade5986e4a"},"vehicle_type_id":"4","last_reported":1686254830,"current_range_meters":0,"station_id":"ce4bgrh2rcd13ifvqc8g","pricing_plan_id":"free"},{"bike_id":"1a63f548-8b68-4666-854e-e7490b1fe764","system_id":"levelo_inurba_marseille","lat":43.3081,"lon":5.38141,"is_reserved":false,"is_disabled":false,"rental_uris":{"android":"levelo://app?vid=1a63f548-8b68-4666-854e-e7490b1fe764","ios":"levelo://app?vid=1a63f548-8b68-4666-854e-e7490b1fe764"},"vehicle_type_id":"4","last_reported":1686254830,"current_range_meters":0,"station_id":"ce4bgt12rcd13ifvqce0","pricing_plan_id":"free"},{"bike_id":"961e3c4a-bf87-4af1-b50a-6b671a61d8b7","system_id":"levelo_inurba_marseille","lat":43.308012,"lon":5.381511,"is_reserved":false,"is_disabled":false,"rental_uris":{"android":"levelo://app?vid=961e3c4a-bf87-4af1-b50a-6b671a61d8b7","ios":"levelo://app?vid=961e3c4a-bf87-4af1-b50a-6b671a61d8b7"},"vehicle_type_id":"4","last_reported":1686254830,"current_range_meters":31200,"station_id":"ce4bgt12rcd13ifvqce0","pricing_plan_id":"free"},{"bike_id":"3472ca82-67eb-4eec-bf0b-1dd9427a20b7","system_id":"levelo_inurba_marseille","lat":43.308012,"lon":5.381511,"is_reserved":false,"is_disabled":false,"rental_uris":{"android":"levelo://app?vid=3472ca82-67eb-4eec-bf0b-1dd9427a20b7","ios":"levelo://app?vid=3472ca82-67eb-4eec-bf0b-1dd9427a20b7"},"vehicle_type_id":"4","last_reported":1686254830,"current_range_meters":21200,"station_id":"ce4bgt12rcd13ifvqce0","pricing_plan_id":"free"},{"bike_id":"6d181134-c488-4fd2-9ec6-dc8a2bca83de","system_id":"levelo_inurba_marseille","lat":43.30793,"lon":5.381738,"is_reserved":false,"is_disabled":false,"rental_uris":{"android":"levelo://app?vid=6d181134-c488-4fd2-9ec6-dc8a2bca83de","ios":"levelo://app?vid=6d181134-c488-4fd2-9ec6-dc8a2bca83de"},"vehicle_type_id":"4","last_reported":1686254830,"current_range_meters":21200,"station_id":"ce4bgt12rcd13ifvqce0","pricing_plan_id":"free"},{"bike_id":"8ac81e88-a896-4a5b-a9b5-178a91a2d3ca","system_id":"levelo_inurba_marseille","lat":43.308012,"lon":5.381511,"is_reserved":false,"is_disabled":false,"rental_uris":{"android":"levelo://app?vid=8ac81e88-a896-4a5b-a9b5-178a91a2d3ca","ios":"levelo://app?vid=8ac81e88-a896-4a5b-a9b5-178a91a2d3ca"},"vehicle_type_id":"4","last_reported":1686254830,"current_range_meters":31200,"station_id":"ce4bgt12rcd13ifvqce0","pricing_plan_id":"free"},{"bike_id":"fbb58dc9-c5d9-47d9-8787-a3c010a874da","system_id":"levelo_inurba_marseille","lat":43.304606,"lon":5.379026,"is_reserved":false,"is_disabled":false,"rental_uris":{"android":"levelo://app?vid=fbb58dc9-c5d9-47d9-8787-a3c010a874da","ios":"levelo://app?vid=fbb58dc9-c5d9-47d9-8787-a3c010a874da"},"vehicle_type_id":"4","last_reported":1686254830,"current_range_meters":0,"station_id":"ce4bgup2rcd13ifvqcn0","pricing_plan_id":"free"},{"bike_id":"93e5b87a-fb10-4045-92af-f80ab0385cde","system_id":"levelo_inurba_marseille","lat":43.302784,"lon":5.377158,"is_reserved":false,"is_disabled":false,"rental_uris":{"android":"levelo://app?vid=93e5b87a-fb10-4045-92af-f80ab0385cde","ios":"levelo://app?vid=93e5b87a-fb10-4045-92af-f80ab0385cde"},"vehicle_type_id":"4","last_reported":1686254830,"current_range_meters":29600,"station_id":"ce4bguh2rcd13ifvqcj0","pricing_plan_id":"free"},{"bike_id":"0ab79bb0-5701-472f-bc16-9531b0dcbffe","system_id":"levelo_inurba_marseille","lat":43.319935,"lon":5.381699,"is_reserved":false,"is_disabled":false,"rental_uris":{"android":"levelo://app?vid=0ab79bb0-5701-472f-bc16-9531b0dcbffe","ios":"levelo://app?vid=0ab79bb0-5701-472f-bc16-9531b0dcbffe"},"vehicle_type_id":"4","last_reported":1686254830,"current_range_meters":6000,"station_id":"ce4bhr12rcd13ifvqhpg","pricing_plan_id":"free"},{"bike_id":"8907de89-0866-461e-84e7-77d875c4d33e","system_id":"levelo_inurba_marseille","lat":43.319935,"lon":5.381699,"is_reserved":false,"is_disabled":false,"rental_uris":{"android":"levelo://app?vid=8907de89-0866-461e-84e7-77d875c4d33e","ios":"levelo://app?vid=8907de89-0866-461e-84e7-77d875c4d33e"},"vehicle_type_id":"4","last_reported":1686254830,"current_range_meters":3600,"station_id":"ce4bhr12rcd13ifvqhpg","pricing_plan_id":"free"},{"bike_id":"2e0df944-4f8c-4df6-b3c2-a2a21d1ff3b3","system_id":"levelo_inurba_marseille","lat":43.319935,"lon":5.381699,"is_reserved":false,"is_disabled":false,"rental_uris":{"android":"levelo://app?vid=2e0df944-4f8c-4df6-b3c2-a2a21d1ff3b3","ios":"levelo://app?vid=2e0df944-4f8c-4df6-b3c2-a2a21d1ff3b3"},"vehicle_type_id":"4","last_reported":1686254830,"current_range_meters":0,"station_id":"ce4bhr12rcd13ifvqhpg","pricing_plan_id":"free"},{"bike_id":"a87d4f9b-a0fe-4564-b74d-d5e67028b4ce","system_id":"levelo_inurba_marseille","lat":43.319935,"lon":5.381699,"is_reserved":false,"is_disabled":false,"rental_uris":{"android":"levelo://app?vid=a87d4f9b-a0fe-4564-b74d-d5e67028b4ce","ios":"levelo://app?vid=a87d4f9b-a0fe-4564-b74d-d5e67028b4ce"},"vehicle_type_id":"4","last_reported":1686254830,"current_range_meters":5600,"station_id":"ce4bhr12rcd13ifvqhpg","pricing_plan_id":"free"},{"bike_id":"695393ac-d678-4511-8a8d-26ff5bcd3005","system_id":"levelo_inurba_marseille","lat":43.313571,"lon":5.384829,"is_reserved":false,"is_disabled":false,"rental_uris":{"android":"levelo://app?vid=695393ac-d678-4511-8a8d-26ff5bcd3005","ios":"levelo://app?vid=695393ac-d678-4511-8a8d-26ff5bcd3005"},"vehicle_type_id":"4","last_reported":1686254830,"current_range_meters":2400,"station_id":"ce4bgt92rcd13ifvqcf0","pricing_plan_id":"free"},{"bike_id":"bf088a44-a24d-4ff6-a0fc-514116badddb","system_id":"levelo_inurba_marseille","lat":43.299243,"lon":5.374807,"is_reserved":false,"is_disabled":false,"rental_uris":{"android":"levelo://app?vid=bf088a44-a24d-4ff6-a0fc-514116badddb","ios":"levelo://app?vid=bf088a44-a24d-4ff6-a0fc-514116badddb"},"vehicle_type_id":"4","last_reported":1686254830,"current_range_meters":0,"station_id":"ce4bgjh2rcd13ifvqbg0","pricing_plan_id":"free"},{"bike_id":"fd8530a4-58f2-4c18-a233-f66e7e1c91fd","system_id":"levelo_inurba_marseille","lat":43.299243,"lon":5.374807,"is_reserved":false,"is_disabled":false,"rental_uris":{"android":"levelo://app?vid=fd8530a4-58f2-4c18-a233-f66e7e1c91fd","ios":"levelo://app?vid=fd8530a4-58f2-4c18-a233-f66e7e1c91fd"},"vehicle_type_id":"4","last_reported":1686254830,"current_range_meters":5600,"station_id":"ce4bgjh2rcd13ifvqbg0","pricing_plan_id":"free"},{"bike_id":"b7b554f7-a440-4dcd-b133-68c399df8744","system_id":"levelo_inurba_marseille","lat":43.311722,"lon":5.387247,"is_reserved":false,"is_disabled":false,"rental_uris":{"android":"levelo://app?vid=b7b554f7-a440-4dcd-b133-68c399df8744","ios":"levelo://app?vid=b7b554f7-a440-4dcd-b133-68c399df8744"},"vehicle_type_id":"4","last_reported":1686254830,"current_range_meters":6000,"station_id":"ce4bgv12rcd13ifvqcp0","pricing_plan_id":"free"},{"bike_id":"03b04e1c-98bd-4d06-96de-508db19aebf5","system_id":"levelo_inurba_marseille","lat":43.297794,"lon":5.370888,"is_reserved":false,"is_disabled":false,"rental_uris":{"android":"levelo://app?vid=03b04e1c-98bd-4d06-96de-508db19aebf5","ios":"levelo://app?vid=03b04e1c-98bd-4d06-96de-508db19aebf5"},"vehicle_type_id":"4","last_reported":1686254830,"current_range_meters":4400,"station_id":"ce4bgop2rcd13ifvqc1g","pricing_plan_id":"free"},{"bike_id":"91e432fc-8eb6-4533-8a1f-57aebbae35bd","system_id":"levelo_inurba_marseille","lat":43.32819,"lon":5.36692,"is_reserved":false,"is_disabled":false,"rental_uris":{"android":"levelo://app?vid=91e432fc-8eb6-4533-8a1f-57aebbae35bd","ios":"levelo://app?vid=91e432fc-8eb6-4533-8a1f-57aebbae35bd"},"vehicle_type_id":"4","last_reported":1686254830,"current_range_meters":3200,"station_id":"ce4bhs92rcd13ifvqi0g","pricing_plan_id":"free"},{"bike_id":"fe32b5be-5ddb-46f6-baba-7b3fa049ac5d","system_id":"levelo_inurba_marseille","lat":43.2968,"lon":5.37291,"is_reserved":false,"is_disabled":false,"rental_uris":{"android":"levelo://app?vid=fe32b5be-5ddb-46f6-baba-7b3fa049ac5d","ios":"levelo://app?vid=fe32b5be-5ddb-46f6-baba-7b3fa049ac5d"},"vehicle_type_id":"4","last_reported":1686254830,"current_range_meters":2000,"station_id":"ce4bgk12rcd13ifvqbj0","pricing_plan_id":"free"},{"bike_id":"00064899-8bcc-45a6-984c-ba51510978ca","system_id":"levelo_inurba_marseille","lat":43.296131,"lon":5.370791,"is_reserved":false,"is_disabled":false,"rental_uris":{"android":"levelo://app?vid=00064899-8bcc-45a6-984c-ba51510978ca","ios":"levelo://app?vid=00064899-8bcc-45a6-984c-ba51510978ca"},"vehicle_type_id":"4","last_reported":1686254830,"current_range_meters":20400,"station_id":"ce4bgnh2rcd13ifvqc0g","pricing_plan_id":"free"},{"bike_id":"107e244d-3d85-4ce4-bc2b-3a75d744302f","system_id":"levelo_inurba_marseille","lat":43.29595,"lon":5.37086,"is_reserved":false,"is_disabled":false,"rental_uris":{"android":"levelo://app?vid=107e244d-3d85-4ce4-bc2b-3a75d744302f","ios":"levelo://app?vid=107e244d-3d85-4ce4-bc2b-3a75d744302f"},"vehicle_type_id":"4","last_reported":1686254830,"current_range_meters":0,"station_id":"","pricing_plan_id":"free"},{"bike_id":"a0278d65-c5dd-49f7-841b-73eab27cc399","system_id":"levelo_inurba_marseille","lat":43.296935,"lon":5.376544,"is_reserved":false,"is_disabled":false,"rental_uris":{"android":"levelo://app?vid=a0278d65-c5dd-49f7-841b-73eab27cc399","ios":"levelo://app?vid=a0278d65-c5dd-49f7-841b-73eab27cc399"},"vehicle_type_id":"4","last_reported":1686254830,"current_range_meters":4800,"station_id":"ce4bgkh2rcd13ifvqbl0","pricing_plan_id":"free"},{"bike_id":"c7b21e75-ced2-4ccf-bbc2-1b0363aee938","system_id":"levelo_inurba_marseille","lat":43.309589,"lon":5.390258,"is_reserved":false,"is_disabled":false,"rental_uris":{"android":"levelo://app?vid=c7b21e75-ced2-4ccf-bbc2-1b0363aee938","ios":"levelo://app?vid=c7b21e75-ced2-4ccf-bbc2-1b0363aee938"},"vehicle_type_id":"4","last_reported":1686254830,"current_range_meters":19200,"station_id":"ce4bgup2rcd13ifvqco0","pricing_plan_id":"free"},{"bike_id":"d6f60a7e-a794-4a27-84dd-b16914d77ad6","system_id":"levelo_inurba_marseille","lat":43.309589,"lon":5.390258,"is_reserved":false,"is_disabled":false,"rental_uris":{"android":"levelo://app?vid=d6f60a7e-a794-4a27-84dd-b16914d77ad6","ios":"levelo://app?vid=d6f60a7e-a794-4a27-84dd-b16914d77ad6"},"vehicle_type_id":"4","last_reported":1686254830,"current_range_meters":19600,"station_id":"ce4bgup2rcd13ifvqco0","pricing_plan_id":"free"},{"bike_id":"c46e3961-0e61-4d6d-8121-90cf0967013b","system_id":"levelo_inurba_marseille","lat":43.309589,"lon":5.390258,"is_reserved":false,"is_disabled":false,"rental_uris":{"android":"levelo://app?vid=c46e3961-0e61-4d6d-8121-90cf0967013b","ios":"levelo://app?vid=c46e3961-0e61-4d6d-8121-90cf0967013b"},"vehicle_type_id":"4","last_reported":1686254830,"current_range_meters":0,"station_id":"ce4bgup2rcd13ifvqco0","pricing_plan_id":"free"},{"bike_id":"3fcaefa9-a2d7-45ab-be04-14180a6e4337","system_id":"levelo_inurba_marseille","lat":43.317557,"lon":5.390173,"is_reserved":false,"is_disabled":false,"rental_uris":{"android":"levelo://app?vid=3fcaefa9-a2d7-45ab-be04-14180a6e4337","ios":"levelo://app?vid=3fcaefa9-a2d7-45ab-be04-14180a6e4337"},"vehicle_type_id":"4","last_reported":1686254830,"current_range_meters":22400,"station_id":"ce4bhqp2rcd13ifvqhng","pricing_plan_id":"free"},{"bike_id":"6396db74-9c7e-4910-9a68-5f15c5178ef9","system_id":"levelo_inurba_marseille","lat":43.31754,"lon":5.39024,"is_reserved":false,"is_disabled":false,"rental_uris":{"android":"levelo://app?vid=6396db74-9c7e-4910-9a68-5f15c5178ef9","ios":"levelo://app?vid=6396db74-9c7e-4910-9a68-5f15c5178ef9"},"vehicle_type_id":"4","last_reported":1686254830,"current_range_meters":12800,"station_id":"ce4bhqp2rcd13ifvqhng","pricing_plan_id":"free"},{"bike_id":"6e40d95e-d508-41a7-8855-0698e3b35330","system_id":"levelo_inurba_marseille","lat":43.304274,"lon":5.388873,"is_reserved":false,"is_disabled":false,"rental_uris":{"android":"levelo://app?vid=6e40d95e-d508-41a7-8855-0698e3b35330","ios":"levelo://app?vid=6e40d95e-d508-41a7-8855-0698e3b35330"},"vehicle_type_id":"4","last_reported":1686254830,"current_range_meters":31200,"station_id":"ce4bgk12rcd13ifvqbi0","pricing_plan_id":"free"},{"bike_id":"0742777e-59e2-411c-9dc0-d2c1e9842dbc","system_id":"levelo_inurba_marseille","lat":43.299707,"lon":5.384859,"is_reserved":false,"is_disabled":false,"rental_uris":{"android":"levelo://app?vid=0742777e-59e2-411c-9dc0-d2c1e9842dbc","ios":"levelo://app?vid=0742777e-59e2-411c-9dc0-d2c1e9842dbc"},"vehicle_type_id":"4","last_reported":1686254830,"current_range_meters":30800,"station_id":"ce4bgj92rcd13ifvqbd0","pricing_plan_id":"free"},{"bike_id":"1e96f23f-c034-4c5f-8462-a646d89dc8ad","system_id":"levelo_inurba_marseille","lat":43.299724,"lon":5.384848,"is_reserved":false,"is_disabled":false,"rental_uris":{"android":"levelo://app?vid=1e96f23f-c034-4c5f-8462-a646d89dc8ad","ios":"levelo://app?vid=1e96f23f-c034-4c5f-8462-a646d89dc8ad"},"vehicle_type_id":"4","last_reported":1686254830,"current_range_meters":3600,"station_id":"ce4bgj92rcd13ifvqbd0","pricing_plan_id":"free"},{"bike_id":"b929244f-b439-47a1-b5eb-a3c48ff87905","system_id":"levelo_inurba_marseille","lat":43.298037,"lon":5.381066,"is_reserved":false,"is_disabled":false,"rental_uris":{"android":"levelo://app?vid=b929244f-b439-47a1-b5eb-a3c48ff87905","ios":"levelo://app?vid=b929244f-b439-47a1-b5eb-a3c48ff87905"},"vehicle_type_id":"4","last_reported":1686254830,"current_range_meters":24000,"station_id":"ce4bgip2rcd13ifvqbb0","pricing_plan_id":"free"},{"bike_id":"f5a14006-65bd-4629-8aa0-f9be35a6b4de","system_id":"levelo_inurba_marseille","lat":43.32367,"lon":5.388836,"is_reserved":false,"is_disabled":false,"rental_uris":{"android":"levelo://app?vid=f5a14006-65bd-4629-8aa0-f9be35a6b4de","ios":"levelo://app?vid=f5a14006-65bd-4629-8aa0-f9be35a6b4de"},"vehicle_type_id":"4","last_reported":1686254830,"current_range_meters":9600,"station_id":"ce4bhqp2rcd13ifvqhog","pricing_plan_id":"free"},{"bike_id":"8ffb0203-5c72-4902-ba7f-6ebfde9101df","system_id":"levelo_inurba_marseille","lat":43.32367,"lon":5.388836,"is_reserved":false,"is_disabled":false,"rental_uris":{"android":"levelo://app?vid=8ffb0203-5c72-4902-ba7f-6ebfde9101df","ios":"levelo://app?vid=8ffb0203-5c72-4902-ba7f-6ebfde9101df"},"vehicle_type_id":"4","last_reported":1686254830,"current_range_meters":0,"station_id":"ce4bhqp2rcd13ifvqhog","pricing_plan_id":"free"},{"bike_id":"87bb2c1e-ea53-44b4-b8f1-ecb8fc2a77a7","system_id":"levelo_inurba_marseille","lat":43.32371,"lon":5.38883,"is_reserved":false,"is_disabled":false,"rental_uris":{"android":"levelo://app?vid=87bb2c1e-ea53-44b4-b8f1-ecb8fc2a77a7","ios":"levelo://app?vid=87bb2c1e-ea53-44b4-b8f1-ecb8fc2a77a7"},"vehicle_type_id":"4","last_reported":1686254830,"current_range_meters":24000,"station_id":"ce4bhqp2rcd13ifvqhog","pricing_plan_id":"free"},{"bike_id":"639054e4-bf53-493f-93e7-f8222d728fc5","system_id":"levelo_inurba_marseille","lat":43.32367,"lon":5.38893,"is_reserved":false,"is_disabled":false,"rental_uris":{"android":"levelo://app?vid=639054e4-bf53-493f-93e7-f8222d728fc5","ios":"levelo://app?vid=639054e4-bf53-493f-93e7-f8222d728fc5"},"vehicle_type_id":"4","last_reported":1686254830,"current_range_meters":9600,"station_id":"ce4bhqp2rcd13ifvqhog","pricing_plan_id":"free"},{"bike_id":"124bffcd-98d0-4b23-86f9-827f98e9655e","system_id":"levelo_inurba_marseille","lat":43.2936,"lon":5.37835,"is_reserved":false,"is_disabled":false,"rental_uris":{"android":"levelo://app?vid=124bffcd-98d0-4b23-86f9-827f98e9655e","ios":"levelo://app?vid=124bffcd-98d0-4b23-86f9-827f98e9655e"},"vehicle_type_id":"4","last_reported":1686254830,"current_range_meters":0,"station_id":"ce4bgjh2rcd13ifvqbf0","pricing_plan_id":"free"},{"bike_id":"61e4ccfd-dc98-4837-8123-2dfa5e087f42","system_id":"levelo_inurba_marseille","lat":43.293723,"lon":5.378443,"is_reserved":false,"is_disabled":false,"rental_uris":{"android":"levelo://app?vid=61e4ccfd-dc98-4837-8123-2dfa5e087f42","ios":"levelo://app?vid=61e4ccfd-dc98-4837-8123-2dfa5e087f42"},"vehicle_type_id":"4","last_reported":1686254830,"current_range_meters":10400,"station_id":"","pricing_plan_id":"free"},{"bike_id":"8f805d6d-8208-4d3a-bfcb-0a3c9a211f32","system_id":"levelo_inurba_marseille","lat":43.2936,"lon":5.37835,"is_reserved":false,"is_disabled":false,"rental_uris":{"android":"levelo://app?vid=8f805d6d-8208-4d3a-bfcb-0a3c9a211f32","ios":"levelo://app?vid=8f805d6d-8208-4d3a-bfcb-0a3c9a211f32"},"vehicle_type_id":"4","last_reported":1686254830,"current_range_meters":15200,"station_id":"ce4bgjh2rcd13ifvqbf0","pricing_plan_id":"free"},{"bike_id":"f3d7317e-7ba2-4442-a49e-2068e6a6b085","system_id":"levelo_inurba_marseille","lat":43.2922,"lon":5.36046,"is_reserved":false,"is_disabled":false,"rental_uris":{"android":"levelo://app?vid=f3d7317e-7ba2-4442-a49e-2068e6a6b085","ios":"levelo://app?vid=f3d7317e-7ba2-4442-a49e-2068e6a6b085"},"vehicle_type_id":"4","last_reported":1686254830,"current_range_meters":0,"station_id":"ce4bhbh2rcd13ifvqeqg","pricing_plan_id":"free"},{"bike_id":"8d7e83e1-132b-4ce2-97cd-64b6f5f25c5e","system_id":"levelo_inurba_marseille","lat":43.29895,"lon":5.38892,"is_reserved":false,"is_disabled":false,"rental_uris":{"android":"levelo://app?vid=8d7e83e1-132b-4ce2-97cd-64b6f5f25c5e","ios":"levelo://app?vid=8d7e83e1-132b-4ce2-97cd-64b6f5f25c5e"},"vehicle_type_id":"4","last_reported":1686254830,"current_range_meters":0,"station_id":"ce4bh392rcd13ifvqdl0","pricing_plan_id":"free"},{"bike_id":"643c9a0a-414c-4654-8631-dfb2d2e7c7e0","system_id":"levelo_inurba_marseille","lat":43.313291,"lon":5.396838,"is_reserved":false,"is_disabled":false,"rental_uris":{"android":"levelo://app?vid=643c9a0a-414c-4654-8631-dfb2d2e7c7e0","ios":"levelo://app?vid=643c9a0a-414c-4654-8631-dfb2d2e7c7e0"},"vehicle_type_id":"4","last_reported":1686254830,"current_range_meters":2400,"station_id":"ce4bgvp2rcd13ifvqcu0","pricing_plan_id":"free"},{"bike_id":"e1b30f45-b499-46d9-8c3c-3e5955e0bf46","system_id":"levelo_inurba_marseille","lat":43.313291,"lon":5.396838,"is_reserved":false,"is_disabled":false,"rental_uris":{"android":"levelo://app?vid=e1b30f45-b499-46d9-8c3c-3e5955e0bf46","ios":"levelo://app?vid=e1b30f45-b499-46d9-8c3c-3e5955e0bf46"},"vehicle_type_id":"4","last_reported":1686254830,"current_range_meters":22800,"station_id":"ce4bgvp2rcd13ifvqcu0","pricing_plan_id":"free"},{"bike_id":"7aeaf6e5-5f69-4c09-b85c-4e8749a240dc","system_id":"levelo_inurba_marseille","lat":43.29529,"lon":5.385581,"is_reserved":false,"is_disabled":false,"rental_uris":{"android":"levelo://app?vid=7aeaf6e5-5f69-4c09-b85c-4e8749a240dc","ios":"levelo://app?vid=7aeaf6e5-5f69-4c09-b85c-4e8749a240dc"},"vehicle_type_id":"4","last_reported":1686254830,"current_range_meters":25200,"station_id":"ce4bgih2rcd13ifvqba0","pricing_plan_id":"free"},{"bike_id":"39074e46-61c2-435c-9443-eaddf9ba52d7","system_id":"levelo_inurba_marseille","lat":43.29529,"lon":5.385581,"is_reserved":false,"is_disabled":false,"rental_uris":{"android":"levelo://app?vid=39074e46-61c2-435c-9443-eaddf9ba52d7","ios":"levelo://app?vid=39074e46-61c2-435c-9443-eaddf9ba52d7"},"vehicle_type_id":"4","last_reported":1686254830,"current_range_meters":5600,"station_id":"ce4bgih2rcd13ifvqba0","pricing_plan_id":"free"},{"bike_id":"19eddd6f-7dd4-4fc7-93a2-c4e4fcea4bb1","system_id":"levelo_inurba_marseille","lat":43.29529,"lon":5.385581,"is_reserved":false,"is_disabled":false,"rental_uris":{"android":"levelo://app?vid=19eddd6f-7dd4-4fc7-93a2-c4e4fcea4bb1","ios":"levelo://app?vid=19eddd6f-7dd4-4fc7-93a2-c4e4fcea4bb1"},"vehicle_type_id":"4","last_reported":1686254830,"current_range_meters":8400,"station_id":"ce4bgih2rcd13ifvqba0","pricing_plan_id":"free"},{"bike_id":"63dff355-82c4-4459-9ff3-d83251bed069","system_id":"levelo_inurba_marseille","lat":43.290624,"lon":5.359245,"is_reserved":false,"is_disabled":false,"rental_uris":{"android":"levelo://app?vid=63dff355-82c4-4459-9ff3-d83251bed069","ios":"levelo://app?vid=63dff355-82c4-4459-9ff3-d83251bed069"},"vehicle_type_id":"4","last_reported":1686254830,"current_range_meters":30000,"station_id":"ce4bha92rcd13ifvqeg0","pricing_plan_id":"free"},{"bike_id":"908da584-02e3-4f15-a608-017136c38120","system_id":"levelo_inurba_marseille","lat":43.294153,"lon":5.386305,"is_reserved":false,"is_disabled":false,"rental_uris":{"android":"levelo://app?vid=908da584-02e3-4f15-a608-017136c38120","ios":"levelo://app?vid=908da584-02e3-4f15-a608-017136c38120"},"vehicle_type_id":"4","last_reported":1686254830,"current_range_meters":27600,"station_id":"ce4bh2h2rcd13ifvqdh0","pricing_plan_id":"free"},{"bike_id":"1bad63aa-d017-4f66-8dbe-62991e8e935e","system_id":"levelo_inurba_marseille","lat":43.294175,"lon":5.386193,"is_reserved":false,"is_disabled":false,"rental_uris":{"android":"levelo://app?vid=1bad63aa-d017-4f66-8dbe-62991e8e935e","ios":"levelo://app?vid=1bad63aa-d017-4f66-8dbe-62991e8e935e"},"vehicle_type_id":"4","last_reported":1686254830,"current_range_meters":5200,"station_id":"","pricing_plan_id":"free"},{"bike_id":"f7b8c718-acdc-472b-8e91-356108b432e6","system_id":"levelo_inurba_marseille","lat":43.289184,"lon":5.366408,"is_reserved":false,"is_disabled":false,"rental_uris":{"android":"levelo://app?vid=f7b8c718-acdc-472b-8e91-356108b432e6","ios":"levelo://app?vid=f7b8c718-acdc-472b-8e91-356108b432e6"},"vehicle_type_id":"4","last_reported":1686254830,"current_range_meters":6400,"station_id":"ce4bhap2rcd13ifvqek0","pricing_plan_id":"free"},{"bike_id":"91b33ae3-5932-41ba-bb65-73ab93908bea","system_id":"levelo_inurba_marseille","lat":43.292724,"lon":5.384345,"is_reserved":false,"is_disabled":false,"rental_uris":{"android":"levelo://app?vid=91b33ae3-5932-41ba-bb65-73ab93908bea","ios":"levelo://app?vid=91b33ae3-5932-41ba-bb65-73ab93908bea"},"vehicle_type_id":"4","last_reported":1686254830,"current_range_meters":18400,"station_id":"ce4bh692rcd13ifvqea0","pricing_plan_id":"free"},{"bike_id":"76c7c8d7-f4dd-4d70-8311-961eea52d1d7","system_id":"levelo_inurba_marseille","lat":43.304296,"lon":5.397513,"is_reserved":false,"is_disabled":false,"rental_uris":{"android":"levelo://app?vid=76c7c8d7-f4dd-4d70-8311-961eea52d1d7","ios":"levelo://app?vid=76c7c8d7-f4dd-4d70-8311-961eea52d1d7"},"vehicle_type_id":"4","last_reported":1686254830,"current_range_meters":0,"station_id":"ce4bh092rcd13ifvqd20","pricing_plan_id":"free"},{"bike_id":"16e1d446-9ff5-4597-b411-664b83d3a533","system_id":"levelo_inurba_marseille","lat":43.29264,"lon":5.38449,"is_reserved":false,"is_disabled":false,"rental_uris":{"android":"levelo://app?vid=16e1d446-9ff5-4597-b411-664b83d3a533","ios":"levelo://app?vid=16e1d446-9ff5-4597-b411-664b83d3a533"},"vehicle_type_id":"4","last_reported":1686254830,"current_range_meters":400,"station_id":"ce4bh692rcd13ifvqea0","pricing_plan_id":"free"},{"bike_id":"7898a738-9a99-4207-9254-cec3fb88ed78","system_id":"levelo_inurba_marseille","lat":43.33041,"lon":5.38916,"is_reserved":false,"is_disabled":false,"rental_uris":{"android":"levelo://app?vid=7898a738-9a99-4207-9254-cec3fb88ed78","ios":"levelo://app?vid=7898a738-9a99-4207-9254-cec3fb88ed78"},"vehicle_type_id":"4","last_reported":1686254830,"current_range_meters":24800,"station_id":"ce4bhr92rcd13ifvqhrg","pricing_plan_id":"free"},{"bike_id":"c5d61fb1-3189-46d0-88cd-e5b13b2f85da","system_id":"levelo_inurba_marseille","lat":43.33042,"lon":5.38918,"is_reserved":false,"is_disabled":false,"rental_uris":{"android":"levelo://app?vid=c5d61fb1-3189-46d0-88cd-e5b13b2f85da","ios":"levelo://app?vid=c5d61fb1-3189-46d0-88cd-e5b13b2f85da"},"vehicle_type_id":"4","last_reported":1686254830,"current_range_meters":22000,"station_id":"ce4bhr92rcd13ifvqhrg","pricing_plan_id":"free"},{"bike_id":"5103420d-338f-4f56-a0f3-7e019e5c9924","system_id":"levelo_inurba_marseille","lat":43.33041,"lon":5.3892,"is_reserved":false,"is_disabled":false,"rental_uris":{"android":"levelo://app?vid=5103420d-338f-4f56-a0f3-7e019e5c9924","ios":"levelo://app?vid=5103420d-338f-4f56-a0f3-7e019e5c9924"},"vehicle_type_id":"4","last_reported":1686254830,"current_range_meters":22800,"station_id":"ce4bhr92rcd13ifvqhrg","pricing_plan_id":"free"},{"bike_id":"525c4daf-7688-46eb-8c01-8b80d6fc04d9","system_id":"levelo_inurba_marseille","lat":43.330471,"lon":5.389153,"is_reserved":false,"is_disabled":false,"rental_uris":{"android":"levelo://app?vid=525c4daf-7688-46eb-8c01-8b80d6fc04d9","ios":"levelo://app?vid=525c4daf-7688-46eb-8c01-8b80d6fc04d9"},"vehicle_type_id":"4","last_reported":1686254830,"current_range_meters":25200,"station_id":"","pricing_plan_id":"free"},{"bike_id":"50be3487-1d11-48f3-b8ef-a02bd4845d0b","system_id":"levelo_inurba_marseille","lat":43.33043,"lon":5.38924,"is_reserved":false,"is_disabled":false,"rental_uris":{"android":"levelo://app?vid=50be3487-1d11-48f3-b8ef-a02bd4845d0b","ios":"levelo://app?vid=50be3487-1d11-48f3-b8ef-a02bd4845d0b"},"vehicle_type_id":"4","last_reported":1686254830,"current_range_meters":26800,"station_id":"ce4bhr92rcd13ifvqhrg","pricing_plan_id":"free"},{"bike_id":"eebb0572-4916-4105-a791-7d74572be411","system_id":"levelo_inurba_marseille","lat":43.290103,"lon":5.356114,"is_reserved":false,"is_disabled":false,"rental_uris":{"android":"levelo://app?vid=eebb0572-4916-4105-a791-7d74572be411","ios":"levelo://app?vid=eebb0572-4916-4105-a791-7d74572be411"},"vehicle_type_id":"4","last_reported":1686254830,"current_range_meters":11600,"station_id":"ce4bhb92rcd13ifvqen0","pricing_plan_id":"free"},{"bike_id":"37817cee-182a-46e2-82ff-b95fd39a9721","system_id":"levelo_inurba_marseille","lat":43.290995,"lon":5.381361,"is_reserved":false,"is_disabled":false,"rental_uris":{"android":"levelo://app?vid=37817cee-182a-46e2-82ff-b95fd39a9721","ios":"levelo://app?vid=37817cee-182a-46e2-82ff-b95fd39a9721"},"vehicle_type_id":"4","last_reported":1686254830,"current_range_meters":0,"station_id":"ce4bh512rcd13ifvqe2g","pricing_plan_id":"free"},{"bike_id":"a1328d27-b88b-4a80-ab0d-cde8d41c969c","system_id":"levelo_inurba_marseille","lat":43.295169,"lon":5.390426,"is_reserved":false,"is_disabled":false,"rental_uris":{"android":"levelo://app?vid=a1328d27-b88b-4a80-ab0d-cde8d41c969c","ios":"levelo://app?vid=a1328d27-b88b-4a80-ab0d-cde8d41c969c"},"vehicle_type_id":"4","last_reported":1686254830,"current_range_meters":20400,"station_id":"ce4bh3p2rcd13ifvqdp0","pricing_plan_id":"free"},{"bike_id":"5071df28-2445-41a1-8b18-8f487a3a8033","system_id":"levelo_inurba_marseille","lat":43.295169,"lon":5.390426,"is_reserved":false,"is_disabled":false,"rental_uris":{"android":"levelo://app?vid=5071df28-2445-41a1-8b18-8f487a3a8033","ios":"levelo://app?vid=5071df28-2445-41a1-8b18-8f487a3a8033"},"vehicle_type_id":"4","last_reported":1686254830,"current_range_meters":14400,"station_id":"ce4bh3p2rcd13ifvqdp0","pricing_plan_id":"free"},{"bike_id":"ccba32b4-08d8-4479-86a6-7f4bfb2846fb","system_id":"levelo_inurba_marseille","lat":43.31992,"lon":5.39919,"is_reserved":false,"is_disabled":false,"rental_uris":{"android":"levelo://app?vid=ccba32b4-08d8-4479-86a6-7f4bfb2846fb","ios":"levelo://app?vid=ccba32b4-08d8-4479-86a6-7f4bfb2846fb"},"vehicle_type_id":"4","last_reported":1686254830,"current_range_meters":0,"station_id":"","pricing_plan_id":"free"},{"bike_id":"3f1fc14f-93d4-4d21-9f13-95fc7ea0e8b2","system_id":"levelo_inurba_marseille","lat":43.298681,"lon":5.397225,"is_reserved":false,"is_disabled":false,"rental_uris":{"android":"levelo://app?vid=3f1fc14f-93d4-4d21-9f13-95fc7ea0e8b2","ios":"levelo://app?vid=3f1fc14f-93d4-4d21-9f13-95fc7ea0e8b2"},"vehicle_type_id":"4","last_reported":1686254830,"current_range_meters":0,"station_id":"ce4bh0h2rcd13ifvqd50","pricing_plan_id":"free"},{"bike_id":"d3c226a5-dd73-4d5e-935d-9f1dbacf709b","system_id":"levelo_inurba_marseille","lat":43.30929,"lon":5.40133,"is_reserved":false,"is_disabled":false,"rental_uris":{"android":"levelo://app?vid=d3c226a5-dd73-4d5e-935d-9f1dbacf709b","ios":"levelo://app?vid=d3c226a5-dd73-4d5e-935d-9f1dbacf709b"},"vehicle_type_id":"4","last_reported":1686254830,"current_range_meters":8000,"station_id":"","pricing_plan_id":"free"},{"bike_id":"b7f1a644-d66d-4bbf-9b3d-301ef1c29b78","system_id":"levelo_inurba_marseille","lat":43.33746,"lon":5.37446,"is_reserved":false,"is_disabled":false,"rental_uris":{"android":"levelo://app?vid=b7f1a644-d66d-4bbf-9b3d-301ef1c29b78","ios":"levelo://app?vid=b7f1a644-d66d-4bbf-9b3d-301ef1c29b78"},"vehicle_type_id":"4","last_reported":1686254830,"current_range_meters":28000,"station_id":"","pricing_plan_id":"free"},{"bike_id":"2ee3803a-c2ba-4cdc-9b0c-f6a0344fbe3a","system_id":"levelo_inurba_marseille","lat":43.30931,"lon":5.40141,"is_reserved":false,"is_disabled":false,"rental_uris":{"android":"levelo://app?vid=2ee3803a-c2ba-4cdc-9b0c-f6a0344fbe3a","ios":"levelo://app?vid=2ee3803a-c2ba-4cdc-9b0c-f6a0344fbe3a"},"vehicle_type_id":"4","last_reported":1686254830,"current_range_meters":400,"station_id":"ce4bgvp2rcd13ifvqct0","pricing_plan_id":"free"},{"bike_id":"bf4b07bc-f4b6-48f9-b77e-66ec24318ced","system_id":"levelo_inurba_marseille","lat":43.33745,"lon":5.37474,"is_reserved":false,"is_disabled":false,"rental_uris":{"android":"levelo://app?vid=bf4b07bc-f4b6-48f9-b77e-66ec24318ced","ios":"levelo://app?vid=bf4b07bc-f4b6-48f9-b77e-66ec24318ced"},"vehicle_type_id":"4","last_reported":1686254830,"current_range_meters":8800,"station_id":"","pricing_plan_id":"free"},{"bike_id":"c2bca6ef-2a0d-4c76-8fbd-d8c1b05e5e18","system_id":"levelo_inurba_marseille","lat":43.33746,"lon":5.37479,"is_reserved":false,"is_disabled":false,"rental_uris":{"android":"levelo://app?vid=c2bca6ef-2a0d-4c76-8fbd-d8c1b05e5e18","ios":"levelo://app?vid=c2bca6ef-2a0d-4c76-8fbd-d8c1b05e5e18"},"vehicle_type_id":"4","last_reported":1686254830,"current_range_meters":0,"station_id":"","pricing_plan_id":"free"},{"bike_id":"265c0905-166c-408b-8d33-95a8e86424e1","system_id":"levelo_inurba_marseille","lat":43.337582,"lon":5.374483,"is_reserved":false,"is_disabled":false,"rental_uris":{"android":"levelo://app?vid=265c0905-166c-408b-8d33-95a8e86424e1","ios":"levelo://app?vid=265c0905-166c-408b-8d33-95a8e86424e1"},"vehicle_type_id":"4","last_reported":1686254830,"current_range_meters":22800,"station_id":"","pricing_plan_id":"free"},{"bike_id":"6f1875d2-ab33-442e-9e3c-0946baf5f7f0","system_id":"levelo_inurba_marseille","lat":43.301117,"lon":5.398795,"is_reserved":false,"is_disabled":false,"rental_uris":{"android":"levelo://app?vid=6f1875d2-ab33-442e-9e3c-0946baf5f7f0","ios":"levelo://app?vid=6f1875d2-ab33-442e-9e3c-0946baf5f7f0"},"vehicle_type_id":"4","last_reported":1686254830,"current_range_meters":6400,"station_id":"ce4bh0h2rcd13ifvqd40","pricing_plan_id":"free"},{"bike_id":"08dec0b5-6333-4d0a-aeda-b5b8c2aa0527","system_id":"levelo_inurba_marseille","lat":43.306412,"lon":5.401035,"is_reserved":false,"is_disabled":false,"rental_uris":{"android":"levelo://app?vid=08dec0b5-6333-4d0a-aeda-b5b8c2aa0527","ios":"levelo://app?vid=08dec0b5-6333-4d0a-aeda-b5b8c2aa0527"},"vehicle_type_id":"4","last_reported":1686254830,"current_range_meters":4000,"station_id":"ce4bh112rcd13ifvqda0","pricing_plan_id":"free"},{"bike_id":"fb041ec1-b611-46eb-9d8b-3229cfb3396a","system_id":"levelo_inurba_marseille","lat":43.33768,"lon":5.37459,"is_reserved":false,"is_disabled":false,"rental_uris":{"android":"levelo://app?vid=fb041ec1-b611-46eb-9d8b-3229cfb3396a","ios":"levelo://app?vid=fb041ec1-b611-46eb-9d8b-3229cfb3396a"},"vehicle_type_id":"4","last_reported":1686254830,"current_range_meters":30000,"station_id":"","pricing_plan_id":"free"},{"bike_id":"6c0e6be1-b574-48ed-9fef-d6d2582938da","system_id":"levelo_inurba_marseille","lat":43.306412,"lon":5.401035,"is_reserved":false,"is_disabled":false,"rental_uris":{"android":"levelo://app?vid=6c0e6be1-b574-48ed-9fef-d6d2582938da","ios":"levelo://app?vid=6c0e6be1-b574-48ed-9fef-d6d2582938da"},"vehicle_type_id":"4","last_reported":1686254830,"current_range_meters":1600,"station_id":"ce4bh112rcd13ifvqda0","pricing_plan_id":"free"},{"bike_id":"d51104ff-cd65-4524-b4c0-7b198af07a14","system_id":"levelo_inurba_marseille","lat":43.295196,"lon":5.39397,"is_reserved":false,"is_disabled":false,"rental_uris":{"android":"levelo://app?vid=d51104ff-cd65-4524-b4c0-7b198af07a14","ios":"levelo://app?vid=d51104ff-cd65-4524-b4c0-7b198af07a14"},"vehicle_type_id":"4","last_reported":1686254830,"current_range_meters":18400,"station_id":"ce4bh292rcd13ifvqdf0","pricing_plan_id":"free"},{"bike_id":"4d56b7bb-fdd1-42ea-bdcc-874d589dcc26","system_id":"levelo_inurba_marseille","lat":43.302759,"lon":5.400793,"is_reserved":false,"is_disabled":false,"rental_uris":{"android":"levelo://app?vid=4d56b7bb-fdd1-42ea-bdcc-874d589dcc26","ios":"levelo://app?vid=4d56b7bb-fdd1-42ea-bdcc-874d589dcc26"},"vehicle_type_id":"4","last_reported":1686254830,"current_range_meters":5600,"station_id":"ce4bgvh2rcd13ifvqcs0","pricing_plan_id":"free"},{"bike_id":"832e31df-1157-45b4-a157-df23f0ee4cf1","system_id":"levelo_inurba_marseille","lat":43.286039,"lon":5.370679,"is_reserved":false,"is_disabled":false,"rental_uris":{"android":"levelo://app?vid=832e31df-1157-45b4-a157-df23f0ee4cf1","ios":"levelo://app?vid=832e31df-1157-45b4-a157-df23f0ee4cf1"},"vehicle_type_id":"4","last_reported":1686254830,"current_range_meters":10800,"station_id":"ce4bht12rcd13ifvqi60","pricing_plan_id":"free"},{"bike_id":"c71fb33b-8021-4063-8f4a-ad5a83802dbe","system_id":"levelo_inurba_marseille","lat":43.28607,"lon":5.3706,"is_reserved":false,"is_disabled":false,"rental_uris":{"android":"levelo://app?vid=c71fb33b-8021-4063-8f4a-ad5a83802dbe","ios":"levelo://app?vid=c71fb33b-8021-4063-8f4a-ad5a83802dbe"},"vehicle_type_id":"4","last_reported":1686254830,"current_range_meters":0,"station_id":"ce4bht12rcd13ifvqi60","pricing_plan_id":"free"},{"bike_id":"dca3c10b-b62c-463f-893a-2fad52ac8705","system_id":"levelo_inurba_marseille","lat":43.287184,"lon":5.37937,"is_reserved":false,"is_disabled":false,"rental_uris":{"android":"levelo://app?vid=dca3c10b-b62c-463f-893a-2fad52ac8705","ios":"levelo://app?vid=dca3c10b-b62c-463f-893a-2fad52ac8705"},"vehicle_type_id":"4","last_reported":1686254830,"current_range_meters":0,"station_id":"ce4bh9p2rcd13ifvqec0","pricing_plan_id":"free"},{"bike_id":"77480ff0-1ffe-49a2-b912-0234eca15282","system_id":"levelo_inurba_marseille","lat":43.28717,"lon":5.37938,"is_reserved":false,"is_disabled":false,"rental_uris":{"android":"levelo://app?vid=77480ff0-1ffe-49a2-b912-0234eca15282","ios":"levelo://app?vid=77480ff0-1ffe-49a2-b912-0234eca15282"},"vehicle_type_id":"4","last_reported":1686254830,"current_range_meters":0,"station_id":"ce4bh9p2rcd13ifvqec0","pricing_plan_id":"free"},{"bike_id":"2984a6bb-543a-4ad9-a0fb-3fdcdf64ba64","system_id":"levelo_inurba_marseille","lat":43.2871,"lon":5.37946,"is_reserved":false,"is_disabled":false,"rental_uris":{"android":"levelo://app?vid=2984a6bb-543a-4ad9-a0fb-3fdcdf64ba64","ios":"levelo://app?vid=2984a6bb-543a-4ad9-a0fb-3fdcdf64ba64"},"vehicle_type_id":"4","last_reported":1686254830,"current_range_meters":0,"station_id":"ce4bh9p2rcd13ifvqec0","pricing_plan_id":"free"},{"bike_id":"b9c9ef6b-db12-4d87-98e9-f11de3b09c8d","system_id":"levelo_inurba_marseille","lat":43.316517,"lon":5.404375,"is_reserved":false,"is_disabled":false,"rental_uris":{"android":"levelo://app?vid=b9c9ef6b-db12-4d87-98e9-f11de3b09c8d","ios":"levelo://app?vid=b9c9ef6b-db12-4d87-98e9-f11de3b09c8d"},"vehicle_type_id":"4","last_reported":1686254830,"current_range_meters":20400,"station_id":"ce4bh012rcd13ifvqd00","pricing_plan_id":"free"},{"bike_id":"6a9b095f-7fe5-4f96-a285-832e4374a790","system_id":"levelo_inurba_marseille","lat":43.316517,"lon":5.404375,"is_reserved":false,"is_disabled":false,"rental_uris":{"android":"levelo://app?vid=6a9b095f-7fe5-4f96-a285-832e4374a790","ios":"levelo://app?vid=6a9b095f-7fe5-4f96-a285-832e4374a790"},"vehicle_type_id":"4","last_reported":1686254830,"current_range_meters":0,"station_id":"ce4bh012rcd13ifvqd00","pricing_plan_id":"free"},{"bike_id":"82483616-3a97-4a3e-b27d-5784ae7bbbc7","system_id":"levelo_inurba_marseille","lat":43.316517,"lon":5.404375,"is_reserved":false,"is_disabled":false,"rental_uris":{"android":"levelo://app?vid=82483616-3a97-4a3e-b27d-5784ae7bbbc7","ios":"levelo://app?vid=82483616-3a97-4a3e-b27d-5784ae7bbbc7"},"vehicle_type_id":"4","last_reported":1686254830,"current_range_meters":0,"station_id":"ce4bh012rcd13ifvqd00","pricing_plan_id":"free"},{"bike_id":"bbc6ed9c-d7b0-4496-90f8-e96be2498ff6","system_id":"levelo_inurba_marseille","lat":43.31603,"lon":5.40447,"is_reserved":false,"is_disabled":false,"rental_uris":{"android":"levelo://app?vid=bbc6ed9c-d7b0-4496-90f8-e96be2498ff6","ios":"levelo://app?vid=bbc6ed9c-d7b0-4496-90f8-e96be2498ff6"},"vehicle_type_id":"4","last_reported":1686254830,"current_range_meters":4800,"station_id":"","pricing_plan_id":"free"},{"bike_id":"ac8b0559-7cea-47c7-90f4-a17ddac528f2","system_id":"levelo_inurba_marseille","lat":43.28621,"lon":5.35101,"is_reserved":false,"is_disabled":false,"rental_uris":{"android":"levelo://app?vid=ac8b0559-7cea-47c7-90f4-a17ddac528f2","ios":"levelo://app?vid=ac8b0559-7cea-47c7-90f4-a17ddac528f2"},"vehicle_type_id":"4","last_reported":1686254830,"current_range_meters":0,"station_id":"","pricing_plan_id":"free"},{"bike_id":"bffdac4b-1f62-40f9-8de5-1ffac79242e6","system_id":"levelo_inurba_marseille","lat":43.29573,"lon":5.39984,"is_reserved":false,"is_disabled":false,"rental_uris":{"android":"levelo://app?vid=bffdac4b-1f62-40f9-8de5-1ffac79242e6","ios":"levelo://app?vid=bffdac4b-1f62-40f9-8de5-1ffac79242e6"},"vehicle_type_id":"4","last_reported":1686254830,"current_range_meters":25600,"station_id":"ce4bh312rcd13ifvqdj0","pricing_plan_id":"free"},{"bike_id":"9bb1b3ff-5005-4cd7-83a9-d554e06367c0","system_id":"levelo_inurba_marseille","lat":43.286595,"lon":5.386795,"is_reserved":false,"is_disabled":false,"rental_uris":{"android":"levelo://app?vid=9bb1b3ff-5005-4cd7-83a9-d554e06367c0","ios":"levelo://app?vid=9bb1b3ff-5005-4cd7-83a9-d554e06367c0"},"vehicle_type_id":"4","last_reported":1686254830,"current_range_meters":12000,"station_id":"ce4bh492rcd13ifvqdug","pricing_plan_id":"free"},{"bike_id":"82c85353-123b-4c0d-9bb6-1981ba67c68d","system_id":"levelo_inurba_marseille","lat":43.323464,"lon":5.406297,"is_reserved":false,"is_disabled":false,"rental_uris":{"android":"levelo://app?vid=82c85353-123b-4c0d-9bb6-1981ba67c68d","ios":"levelo://app?vid=82c85353-123b-4c0d-9bb6-1981ba67c68d"},"vehicle_type_id":"4","last_reported":1686254830,"current_range_meters":25200,"station_id":"ce4bhq92rcd13ifvqhjg","pricing_plan_id":"free"},{"bike_id":"ae232d39-b160-410f-a53c-e104a0631f2e","system_id":"levelo_inurba_marseille","lat":43.32413,"lon":5.40684,"is_reserved":false,"is_disabled":false,"rental_uris":{"android":"levelo://app?vid=ae232d39-b160-410f-a53c-e104a0631f2e","ios":"levelo://app?vid=ae232d39-b160-410f-a53c-e104a0631f2e"},"vehicle_type_id":"4","last_reported":1686254830,"current_range_meters":23600,"station_id":"","pricing_plan_id":"free"},{"bike_id":"33a2d879-db4f-443c-859c-37087e6ec2da","system_id":"levelo_inurba_marseille","lat":43.28274,"lon":5.3506,"is_reserved":false,"is_disabled":false,"rental_uris":{"android":"levelo://app?vid=33a2d879-db4f-443c-859c-37087e6ec2da","ios":"levelo://app?vid=33a2d879-db4f-443c-859c-37087e6ec2da"},"vehicle_type_id":"4","last_reported":1686254830,"current_range_meters":0,"station_id":"ce4bhbp2rcd13ifvqerg","pricing_plan_id":"free"},{"bike_id":"c8a11c98-c9a7-49e3-b85f-201ed1db0b62","system_id":"levelo_inurba_marseille","lat":43.282754,"lon":5.350519,"is_reserved":false,"is_disabled":false,"rental_uris":{"android":"levelo://app?vid=c8a11c98-c9a7-49e3-b85f-201ed1db0b62","ios":"levelo://app?vid=c8a11c98-c9a7-49e3-b85f-201ed1db0b62"},"vehicle_type_id":"4","last_reported":1686254830,"current_range_meters":0,"station_id":"ce4bhbp2rcd13ifvqerg","pricing_plan_id":"free"},{"bike_id":"4f8b3b3d-32e7-4dc7-8eef-0984f408ee55","system_id":"levelo_inurba_marseille","lat":43.28039,"lon":5.369297,"is_reserved":false,"is_disabled":false,"rental_uris":{"android":"levelo://app?vid=4f8b3b3d-32e7-4dc7-8eef-0984f408ee55","ios":"levelo://app?vid=4f8b3b3d-32e7-4dc7-8eef-0984f408ee55"},"vehicle_type_id":"4","last_reported":1686254830,"current_range_meters":0,"station_id":"ce4bha12rcd13ifvqef0","pricing_plan_id":"free"},{"bike_id":"c1a09155-8e59-40dd-bd0b-3f6c603e288b","system_id":"levelo_inurba_marseille","lat":43.284462,"lon":5.392121,"is_reserved":false,"is_disabled":false,"rental_uris":{"android":"levelo://app?vid=c1a09155-8e59-40dd-bd0b-3f6c603e288b","ios":"levelo://app?vid=c1a09155-8e59-40dd-bd0b-3f6c603e288b"},"vehicle_type_id":"4","last_reported":1686254830,"current_range_meters":13200,"station_id":"ce4bhoh2rcd13ifvqh5g","pricing_plan_id":"free"},{"bike_id":"5012a248-823b-4523-9428-3ebde45cd15a","system_id":"levelo_inurba_marseille","lat":43.284462,"lon":5.392121,"is_reserved":false,"is_disabled":false,"rental_uris":{"android":"levelo://app?vid=5012a248-823b-4523-9428-3ebde45cd15a","ios":"levelo://app?vid=5012a248-823b-4523-9428-3ebde45cd15a"},"vehicle_type_id":"4","last_reported":1686254830,"current_range_meters":1600,"station_id":"ce4bhoh2rcd13ifvqh5g","pricing_plan_id":"free"},{"bike_id":"f1e5f7a2-e1cc-4d5b-a0dc-d8bb9f0c2ffc","system_id":"levelo_inurba_marseille","lat":43.285742,"lon":5.395004,"is_reserved":false,"is_disabled":false,"rental_uris":{"android":"levelo://app?vid=f1e5f7a2-e1cc-4d5b-a0dc-d8bb9f0c2ffc","ios":"levelo://app?vid=f1e5f7a2-e1cc-4d5b-a0dc-d8bb9f0c2ffc"},"vehicle_type_id":"4","last_reported":1686254830,"current_range_meters":21200,"station_id":"ce4bh292rcd13ifvqdg0","pricing_plan_id":"free"},{"bike_id":"bfba9b99-4212-4edd-a17b-bb5a284fb6d8","system_id":"levelo_inurba_marseille","lat":43.32663,"lon":5.40989,"is_reserved":false,"is_disabled":false,"rental_uris":{"android":"levelo://app?vid=bfba9b99-4212-4edd-a17b-bb5a284fb6d8","ios":"levelo://app?vid=bfba9b99-4212-4edd-a17b-bb5a284fb6d8"},"vehicle_type_id":"4","last_reported":1686254830,"current_range_meters":12400,"station_id":"","pricing_plan_id":"free"},{"bike_id":"b90238e3-73ec-4416-9e96-86641cf28227","system_id":"levelo_inurba_marseille","lat":43.292571,"lon":5.409107,"is_reserved":false,"is_disabled":false,"rental_uris":{"android":"levelo://app?vid=b90238e3-73ec-4416-9e96-86641cf28227","ios":"levelo://app?vid=b90238e3-73ec-4416-9e96-86641cf28227"},"vehicle_type_id":"4","last_reported":1686254830,"current_range_meters":24400,"station_id":"ce4bh192rcd13ifvqdc0","pricing_plan_id":"free"},{"bike_id":"06debb76-1d02-4ef1-a245-86e24678606d","system_id":"levelo_inurba_marseille","lat":43.320045,"lon":5.415048,"is_reserved":false,"is_disabled":false,"rental_uris":{"android":"levelo://app?vid=06debb76-1d02-4ef1-a245-86e24678606d","ios":"levelo://app?vid=06debb76-1d02-4ef1-a245-86e24678606d"},"vehicle_type_id":"4","last_reported":1686254830,"current_range_meters":31200,"station_id":"ce4bhq92rcd13ifvqhkg","pricing_plan_id":"free"},{"bike_id":"2c92857e-091e-4924-886c-eca1a1a8bc87","system_id":"levelo_inurba_marseille","lat":43.320045,"lon":5.415046,"is_reserved":false,"is_disabled":false,"rental_uris":{"android":"levelo://app?vid=2c92857e-091e-4924-886c-eca1a1a8bc87","ios":"levelo://app?vid=2c92857e-091e-4924-886c-eca1a1a8bc87"},"vehicle_type_id":"4","last_reported":1686254830,"current_range_meters":25600,"station_id":"ce4bhq92rcd13ifvqhkg","pricing_plan_id":"free"},{"bike_id":"dfd218ba-eac0-4ded-bcb0-3aff8e533ee1","system_id":"levelo_inurba_marseille","lat":43.320045,"lon":5.415046,"is_reserved":false,"is_disabled":false,"rental_uris":{"android":"levelo://app?vid=dfd218ba-eac0-4ded-bcb0-3aff8e533ee1","ios":"levelo://app?vid=dfd218ba-eac0-4ded-bcb0-3aff8e533ee1"},"vehicle_type_id":"4","last_reported":1686254830,"current_range_meters":4800,"station_id":"ce4bhq92rcd13ifvqhkg","pricing_plan_id":"free"},{"bike_id":"1ae1b679-a2d5-41cc-b356-221b395cb78e","system_id":"levelo_inurba_marseille","lat":43.320045,"lon":5.415046,"is_reserved":false,"is_disabled":false,"rental_uris":{"android":"levelo://app?vid=1ae1b679-a2d5-41cc-b356-221b395cb78e","ios":"levelo://app?vid=1ae1b679-a2d5-41cc-b356-221b395cb78e"},"vehicle_type_id":"4","last_reported":1686254830,"current_range_meters":30000,"station_id":"ce4bhq92rcd13ifvqhkg","pricing_plan_id":"free"},{"bike_id":"39fe3f6c-67f1-43a8-b281-54733192d035","system_id":"levelo_inurba_marseille","lat":43.320045,"lon":5.415048,"is_reserved":false,"is_disabled":false,"rental_uris":{"android":"levelo://app?vid=39fe3f6c-67f1-43a8-b281-54733192d035","ios":"levelo://app?vid=39fe3f6c-67f1-43a8-b281-54733192d035"},"vehicle_type_id":"4","last_reported":1686254830,"current_range_meters":31600,"station_id":"ce4bhq92rcd13ifvqhkg","pricing_plan_id":"free"},{"bike_id":"ae27fc24-e70e-4da9-8b39-fed66939c374","system_id":"levelo_inurba_marseille","lat":43.320045,"lon":5.415048,"is_reserved":false,"is_disabled":false,"rental_uris":{"android":"levelo://app?vid=ae27fc24-e70e-4da9-8b39-fed66939c374","ios":"levelo://app?vid=ae27fc24-e70e-4da9-8b39-fed66939c374"},"vehicle_type_id":"4","last_reported":1686254830,"current_range_meters":30000,"station_id":"ce4bhq92rcd13ifvqhkg","pricing_plan_id":"free"},{"bike_id":"b04dfc7f-e624-47c8-9332-d5a9e7fdb88e","system_id":"levelo_inurba_marseille","lat":43.320045,"lon":5.415046,"is_reserved":false,"is_disabled":false,"rental_uris":{"android":"levelo://app?vid=b04dfc7f-e624-47c8-9332-d5a9e7fdb88e","ios":"levelo://app?vid=b04dfc7f-e624-47c8-9332-d5a9e7fdb88e"},"vehicle_type_id":"4","last_reported":1686254830,"current_range_meters":29200,"station_id":"ce4bhq92rcd13ifvqhkg","pricing_plan_id":"free"},{"bike_id":"a602f362-8569-4e22-87a2-357d3d73ef4e","system_id":"levelo_inurba_marseille","lat":43.320045,"lon":5.415046,"is_reserved":false,"is_disabled":false,"rental_uris":{"android":"levelo://app?vid=a602f362-8569-4e22-87a2-357d3d73ef4e","ios":"levelo://app?vid=a602f362-8569-4e22-87a2-357d3d73ef4e"},"vehicle_type_id":"4","last_reported":1686254830,"current_range_meters":25200,"station_id":"ce4bhq92rcd13ifvqhkg","pricing_plan_id":"free"},{"bike_id":"a059a2c8-81f5-4c73-9466-f3f92f9b0f48","system_id":"levelo_inurba_marseille","lat":43.320045,"lon":5.415046,"is_reserved":false,"is_disabled":false,"rental_uris":{"android":"levelo://app?vid=a059a2c8-81f5-4c73-9466-f3f92f9b0f48","ios":"levelo://app?vid=a059a2c8-81f5-4c73-9466-f3f92f9b0f48"},"vehicle_type_id":"4","last_reported":1686254830,"current_range_meters":30800,"station_id":"ce4bhq92rcd13ifvqhkg","pricing_plan_id":"free"},{"bike_id":"d67c3e54-8b48-4612-bfcf-7cc4f8dcdb87","system_id":"levelo_inurba_marseille","lat":43.292571,"lon":5.409107,"is_reserved":false,"is_disabled":false,"rental_uris":{"android":"levelo://app?vid=d67c3e54-8b48-4612-bfcf-7cc4f8dcdb87","ios":"levelo://app?vid=d67c3e54-8b48-4612-bfcf-7cc4f8dcdb87"},"vehicle_type_id":"4","last_reported":1686254830,"current_range_meters":13200,"station_id":"ce4bh192rcd13ifvqdc0","pricing_plan_id":"free"},{"bike_id":"55a009af-eef6-43a9-99d3-9c03fbb933d4","system_id":"levelo_inurba_marseille","lat":43.292571,"lon":5.409107,"is_reserved":false,"is_disabled":false,"rental_uris":{"android":"levelo://app?vid=55a009af-eef6-43a9-99d3-9c03fbb933d4","ios":"levelo://app?vid=55a009af-eef6-43a9-99d3-9c03fbb933d4"},"vehicle_type_id":"4","last_reported":1686254830,"current_range_meters":0,"station_id":"ce4bh192rcd13ifvqdc0","pricing_plan_id":"free"},{"bike_id":"be0959d8-4e39-4297-a4b4-88dbf7767985","system_id":"levelo_inurba_marseille","lat":43.292569,"lon":5.409107,"is_reserved":false,"is_disabled":false,"rental_uris":{"android":"levelo://app?vid=be0959d8-4e39-4297-a4b4-88dbf7767985","ios":"levelo://app?vid=be0959d8-4e39-4297-a4b4-88dbf7767985"},"vehicle_type_id":"4","last_reported":1686254830,"current_range_meters":0,"station_id":"ce4bh192rcd13ifvqdc0","pricing_plan_id":"free"},{"bike_id":"5221f65c-7c28-45c9-92a4-27102ec36049","system_id":"levelo_inurba_marseille","lat":43.303837,"lon":5.418724,"is_reserved":false,"is_disabled":false,"rental_uris":{"android":"levelo://app?vid=5221f65c-7c28-45c9-92a4-27102ec36049","ios":"levelo://app?vid=5221f65c-7c28-45c9-92a4-27102ec36049"},"vehicle_type_id":"4","last_reported":1686254830,"current_range_meters":8400,"station_id":"ce4bhop2rcd13ifvqh7g","pricing_plan_id":"free"},{"bike_id":"cb361806-7d5e-46cb-91fe-3363938d02e9","system_id":"levelo_inurba_marseille","lat":43.28268,"lon":5.40821,"is_reserved":false,"is_disabled":false,"rental_uris":{"android":"levelo://app?vid=cb361806-7d5e-46cb-91fe-3363938d02e9","ios":"levelo://app?vid=cb361806-7d5e-46cb-91fe-3363938d02e9"},"vehicle_type_id":"4","last_reported":1686254830,"current_range_meters":24400,"station_id":"","pricing_plan_id":"free"},{"bike_id":"3811e2d8-99ee-46f0-897c-cbc61f8f69de","system_id":"levelo_inurba_marseille","lat":43.28159,"lon":5.4093,"is_reserved":false,"is_disabled":false,"rental_uris":{"android":"levelo://app?vid=3811e2d8-99ee-46f0-897c-cbc61f8f69de","ios":"levelo://app?vid=3811e2d8-99ee-46f0-897c-cbc61f8f69de"},"vehicle_type_id":"4","last_reported":1686254830,"current_range_meters":800,"station_id":"","pricing_plan_id":"free"},{"bike_id":"df9b686f-3666-44a5-a684-a976322a033a","system_id":"levelo_inurba_marseille","lat":43.295523,"lon":5.422926,"is_reserved":false,"is_disabled":false,"rental_uris":{"android":"levelo://app?vid=df9b686f-3666-44a5-a684-a976322a033a","ios":"levelo://app?vid=df9b686f-3666-44a5-a684-a976322a033a"},"vehicle_type_id":"4","last_reported":1686254830,"current_range_meters":0,"station_id":"ce4bhph2rcd13ifvqhdg","pricing_plan_id":"free"},{"bike_id":"ab54511b-10bd-41c2-a59d-ed760b9f1faf","system_id":"levelo_inurba_marseille","lat":43.278128,"lon":5.407195,"is_reserved":false,"is_disabled":false,"rental_uris":{"android":"levelo://app?vid=ab54511b-10bd-41c2-a59d-ed760b9f1faf","ios":"levelo://app?vid=ab54511b-10bd-41c2-a59d-ed760b9f1faf"},"vehicle_type_id":"4","last_reported":1686254830,"current_range_meters":5600,"station_id":"ce4bhnh2rcd13ifvqgtg","pricing_plan_id":"free"},{"bike_id":"7e120fb1-3d99-4af3-9452-b3b0ed37c62f","system_id":"levelo_inurba_marseille","lat":43.278128,"lon":5.407195,"is_reserved":false,"is_disabled":false,"rental_uris":{"android":"levelo://app?vid=7e120fb1-3d99-4af3-9452-b3b0ed37c62f","ios":"levelo://app?vid=7e120fb1-3d99-4af3-9452-b3b0ed37c62f"},"vehicle_type_id":"4","last_reported":1686254830,"current_range_meters":2400,"station_id":"ce4bhnh2rcd13ifvqgtg","pricing_plan_id":"free"},{"bike_id":"3d58be98-021a-4a16-a7ec-0c7399bb6011","system_id":"levelo_inurba_marseille","lat":43.265714,"lon":5.372891,"is_reserved":false,"is_disabled":false,"rental_uris":{"android":"levelo://app?vid=3d58be98-021a-4a16-a7ec-0c7399bb6011","ios":"levelo://app?vid=3d58be98-021a-4a16-a7ec-0c7399bb6011"},"vehicle_type_id":"4","last_reported":1686254830,"current_range_meters":21200,"station_id":"ce4bhg12rcd13ifvqf70","pricing_plan_id":"free"},{"bike_id":"ab62a90c-f94d-4ab4-9676-a92bdc69788e","system_id":"levelo_inurba_marseille","lat":43.265714,"lon":5.372891,"is_reserved":false,"is_disabled":false,"rental_uris":{"android":"levelo://app?vid=ab62a90c-f94d-4ab4-9676-a92bdc69788e","ios":"levelo://app?vid=ab62a90c-f94d-4ab4-9676-a92bdc69788e"},"vehicle_type_id":"4","last_reported":1686254830,"current_range_meters":0,"station_id":"ce4bhg12rcd13ifvqf70","pricing_plan_id":"free"},{"bike_id":"cd1ef42a-cc6c-4223-9f79-31071cc74dad","system_id":"levelo_inurba_marseille","lat":43.27997,"lon":5.4166,"is_reserved":false,"is_disabled":false,"rental_uris":{"android":"levelo://app?vid=cd1ef42a-cc6c-4223-9f79-31071cc74dad","ios":"levelo://app?vid=cd1ef42a-cc6c-4223-9f79-31071cc74dad"},"vehicle_type_id":"4","last_reported":1686254830,"current_range_meters":0,"station_id":"ce4bho12rcd13ifvqh1g","pricing_plan_id":"free"},{"bike_id":"7ae5529b-10b8-4968-be0e-d073cde10040","system_id":"levelo_inurba_marseille","lat":43.27996,"lon":5.416624,"is_reserved":false,"is_disabled":false,"rental_uris":{"android":"levelo://app?vid=7ae5529b-10b8-4968-be0e-d073cde10040","ios":"levelo://app?vid=7ae5529b-10b8-4968-be0e-d073cde10040"},"vehicle_type_id":"4","last_reported":1686254830,"current_range_meters":0,"station_id":"ce4bho12rcd13ifvqh1g","pricing_plan_id":"free"},{"bike_id":"34d60418-58f6-4938-b02a-dc7a5caaba68","system_id":"levelo_inurba_marseille","lat":43.30808,"lon":5.43519,"is_reserved":false,"is_disabled":false,"rental_uris":{"android":"levelo://app?vid=34d60418-58f6-4938-b02a-dc7a5caaba68","ios":"levelo://app?vid=34d60418-58f6-4938-b02a-dc7a5caaba68"},"vehicle_type_id":"4","last_reported":1686254830,"current_range_meters":21600,"station_id":"","pricing_plan_id":"free"},{"bike_id":"c56886e7-1c07-4e4e-8d95-1bfcba15fecf","system_id":"levelo_inurba_marseille","lat":43.308,"lon":5.43522,"is_reserved":false,"is_disabled":false,"rental_uris":{"android":"levelo://app?vid=c56886e7-1c07-4e4e-8d95-1bfcba15fecf","ios":"levelo://app?vid=c56886e7-1c07-4e4e-8d95-1bfcba15fecf"},"vehicle_type_id":"4","last_reported":1686254830,"current_range_meters":4400,"station_id":"","pricing_plan_id":"free"},{"bike_id":"3568f2d7-794f-402c-bb73-174e46b15cac","system_id":"levelo_inurba_marseille","lat":43.26565,"lon":5.39008,"is_reserved":false,"is_disabled":false,"rental_uris":{"android":"levelo://app?vid=3568f2d7-794f-402c-bb73-174e46b15cac","ios":"levelo://app?vid=3568f2d7-794f-402c-bb73-174e46b15cac"},"vehicle_type_id":"4","last_reported":1686254830,"current_range_meters":12800,"station_id":"ce4bhe12rcd13ifvqf30","pricing_plan_id":"free"},{"bike_id":"b0f82b0d-4254-4710-af92-1b2e9f397767","system_id":"levelo_inurba_marseille","lat":43.26234,"lon":5.37046,"is_reserved":false,"is_disabled":false,"rental_uris":{"android":"levelo://app?vid=b0f82b0d-4254-4710-af92-1b2e9f397767","ios":"levelo://app?vid=b0f82b0d-4254-4710-af92-1b2e9f397767"},"vehicle_type_id":"4","last_reported":1686254830,"current_range_meters":23200,"station_id":"","pricing_plan_id":"free"},{"bike_id":"20c5ba33-3bce-48d0-b978-27bd5d84aec7","system_id":"levelo_inurba_marseille","lat":43.2866,"lon":5.42644,"is_reserved":false,"is_disabled":false,"rental_uris":{"android":"levelo://app?vid=20c5ba33-3bce-48d0-b978-27bd5d84aec7","ios":"levelo://app?vid=20c5ba33-3bce-48d0-b978-27bd5d84aec7"},"vehicle_type_id":"4","last_reported":1686254830,"current_range_meters":2000,"station_id":"","pricing_plan_id":"free"},{"bike_id":"7aca12d6-7fce-421a-a478-ebef75f58ba6","system_id":"levelo_inurba_marseille","lat":43.298768,"lon":5.43643,"is_reserved":false,"is_disabled":false,"rental_uris":{"android":"levelo://app?vid=7aca12d6-7fce-421a-a478-ebef75f58ba6","ios":"levelo://app?vid=7aca12d6-7fce-421a-a478-ebef75f58ba6"},"vehicle_type_id":"4","last_reported":1686254830,"current_range_meters":400,"station_id":"ce4bhpp2rcd13ifvqhfg","pricing_plan_id":"free"},{"bike_id":"b7817cd8-c497-43af-8bdd-004373b69472","system_id":"levelo_inurba_marseille","lat":43.298768,"lon":5.43643,"is_reserved":false,"is_disabled":false,"rental_uris":{"android":"levelo://app?vid=b7817cd8-c497-43af-8bdd-004373b69472","ios":"levelo://app?vid=b7817cd8-c497-43af-8bdd-004373b69472"},"vehicle_type_id":"4","last_reported":1686254830,"current_range_meters":400,"station_id":"ce4bhpp2rcd13ifvqhfg","pricing_plan_id":"free"},{"bike_id":"7b16b738-f650-4cea-88ee-870b528607b2","system_id":"levelo_inurba_marseille","lat":43.298768,"lon":5.43643,"is_reserved":false,"is_disabled":false,"rental_uris":{"android":"levelo://app?vid=7b16b738-f650-4cea-88ee-870b528607b2","ios":"levelo://app?vid=7b16b738-f650-4cea-88ee-870b528607b2"},"vehicle_type_id":"4","last_reported":1686254830,"current_range_meters":17600,"station_id":"ce4bhpp2rcd13ifvqhfg","pricing_plan_id":"free"},{"bike_id":"9fe63f36-4882-4138-bbe4-53b52cf761bf","system_id":"levelo_inurba_marseille","lat":43.298768,"lon":5.43643,"is_reserved":false,"is_disabled":false,"rental_uris":{"android":"levelo://app?vid=9fe63f36-4882-4138-bbe4-53b52cf761bf","ios":"levelo://app?vid=9fe63f36-4882-4138-bbe4-53b52cf761bf"},"vehicle_type_id":"4","last_reported":1686254830,"current_range_meters":2800,"station_id":"ce4bhpp2rcd13ifvqhfg","pricing_plan_id":"free"},{"bike_id":"6f4654b4-36de-4bc1-8770-67708ef45669","system_id":"levelo_inurba_marseille","lat":43.260219,"lon":5.37546,"is_reserved":false,"is_disabled":false,"rental_uris":{"android":"levelo://app?vid=6f4654b4-36de-4bc1-8770-67708ef45669","ios":"levelo://app?vid=6f4654b4-36de-4bc1-8770-67708ef45669"},"vehicle_type_id":"4","last_reported":1686254830,"current_range_meters":6800,"station_id":"ce4bhgh2rcd13ifvqfa0","pricing_plan_id":"free"},{"bike_id":"0abd466f-ae7a-4789-a218-e3b2c168a2b3","system_id":"levelo_inurba_marseille","lat":43.25961,"lon":5.3755,"is_reserved":false,"is_disabled":false,"rental_uris":{"android":"levelo://app?vid=0abd466f-ae7a-4789-a218-e3b2c168a2b3","ios":"levelo://app?vid=0abd466f-ae7a-4789-a218-e3b2c168a2b3"},"vehicle_type_id":"4","last_reported":1686254830,"current_range_meters":8800,"station_id":"","pricing_plan_id":"free"},{"bike_id":"40d076fa-5757-454d-8306-58d061f0a096","system_id":"levelo_inurba_marseille","lat":43.2607,"lon":5.393983,"is_reserved":false,"is_disabled":false,"rental_uris":{"android":"levelo://app?vid=40d076fa-5757-454d-8306-58d061f0a096","ios":"levelo://app?vid=40d076fa-5757-454d-8306-58d061f0a096"},"vehicle_type_id":"4","last_reported":1686254830,"current_range_meters":22800,"station_id":"ce4bhh92rcd13ifvqfj0","pricing_plan_id":"free"},{"bike_id":"1d34637b-a82a-4638-876a-d2fee8476a35","system_id":"levelo_inurba_marseille","lat":43.309076,"lon":5.368465,"is_reserved":false,"is_disabled":false,"rental_uris":{"android":"levelo://app?vid=1d34637b-a82a-4638-876a-d2fee8476a35","ios":"levelo://app?vid=1d34637b-a82a-4638-876a-d2fee8476a35"},"vehicle_type_id":"4","last_reported":1686254830,"current_range_meters":7600,"station_id":"ce4bgn92rcd13ifvqbvg","pricing_plan_id":"free"},{"bike_id":"68900f43-0ed5-42cf-8b18-456a0de883cb","system_id":"levelo_inurba_marseille","lat":43.260909,"lon":5.397591,"is_reserved":false,"is_disabled":false,"rental_uris":{"android":"levelo://app?vid=68900f43-0ed5-42cf-8b18-456a0de883cb","ios":"levelo://app?vid=68900f43-0ed5-42cf-8b18-456a0de883cb"},"vehicle_type_id":"4","last_reported":1686254830,"current_range_meters":14400,"station_id":"ce4bhi12rcd13ifvqfq0","pricing_plan_id":"free"},{"bike_id":"6873a9c2-6ae4-4381-9d46-a1330a9f5351","system_id":"levelo_inurba_marseille","lat":43.28864,"lon":5.43917,"is_reserved":false,"is_disabled":false,"rental_uris":{"android":"levelo://app?vid=6873a9c2-6ae4-4381-9d46-a1330a9f5351","ios":"levelo://app?vid=6873a9c2-6ae4-4381-9d46-a1330a9f5351"},"vehicle_type_id":"4","last_reported":1686254830,"current_range_meters":26400,"station_id":"","pricing_plan_id":"free"},{"bike_id":"20a0799d-7906-4b53-84e7-0fc58058d690","system_id":"levelo_inurba_marseille","lat":43.255756,"lon":5.382303,"is_reserved":false,"is_disabled":false,"rental_uris":{"android":"levelo://app?vid=20a0799d-7906-4b53-84e7-0fc58058d690","ios":"levelo://app?vid=20a0799d-7906-4b53-84e7-0fc58058d690"},"vehicle_type_id":"4","last_reported":1686254830,"current_range_meters":24400,"station_id":"ce4bhih2rcd13ifvqfs0","pricing_plan_id":"free"},{"bike_id":"1584516d-4791-4cdf-8cd7-1dfc3669b943","system_id":"levelo_inurba_marseille","lat":43.255756,"lon":5.382303,"is_reserved":false,"is_disabled":false,"rental_uris":{"android":"levelo://app?vid=1584516d-4791-4cdf-8cd7-1dfc3669b943","ios":"levelo://app?vid=1584516d-4791-4cdf-8cd7-1dfc3669b943"},"vehicle_type_id":"4","last_reported":1686254830,"current_range_meters":15200,"station_id":"ce4bhih2rcd13ifvqfs0","pricing_plan_id":"free"},{"bike_id":"a781a343-b241-4f95-ab3c-8b2df648c6cb","system_id":"levelo_inurba_marseille","lat":43.33312,"lon":5.44167,"is_reserved":false,"is_disabled":false,"rental_uris":{"android":"levelo://app?vid=a781a343-b241-4f95-ab3c-8b2df648c6cb","ios":"levelo://app?vid=a781a343-b241-4f95-ab3c-8b2df648c6cb"},"vehicle_type_id":"4","last_reported":1686254830,"current_range_meters":12400,"station_id":"","pricing_plan_id":"free"},{"bike_id":"dc9e0482-b620-40db-97b7-aee83dd09892","system_id":"levelo_inurba_marseille","lat":43.25576,"lon":5.38241,"is_reserved":false,"is_disabled":false,"rental_uris":{"android":"levelo://app?vid=dc9e0482-b620-40db-97b7-aee83dd09892","ios":"levelo://app?vid=dc9e0482-b620-40db-97b7-aee83dd09892"},"vehicle_type_id":"4","last_reported":1686254830,"current_range_meters":19200,"station_id":"ce4bhih2rcd13ifvqfs0","pricing_plan_id":"free"},{"bike_id":"ec148e24-bcb8-4454-8cad-5162ea5d1878","system_id":"levelo_inurba_marseille","lat":43.254945,"lon":5.376454,"is_reserved":false,"is_disabled":false,"rental_uris":{"android":"levelo://app?vid=ec148e24-bcb8-4454-8cad-5162ea5d1878","ios":"levelo://app?vid=ec148e24-bcb8-4454-8cad-5162ea5d1878"},"vehicle_type_id":"4","last_reported":1686254830,"current_range_meters":14000,"station_id":"ce4bhh12rcd13ifvqff0","pricing_plan_id":"free"},{"bike_id":"ee94b77e-f4cf-4a76-807d-d2ebacc46143","system_id":"levelo_inurba_marseille","lat":43.254945,"lon":5.376454,"is_reserved":false,"is_disabled":false,"rental_uris":{"android":"levelo://app?vid=ee94b77e-f4cf-4a76-807d-d2ebacc46143","ios":"levelo://app?vid=ee94b77e-f4cf-4a76-807d-d2ebacc46143"},"vehicle_type_id":"4","last_reported":1686254830,"current_range_meters":4000,"station_id":"ce4bhh12rcd13ifvqff0","pricing_plan_id":"free"},{"bike_id":"61caec28-67b2-4178-9c57-441a83f5dde6","system_id":"levelo_inurba_marseille","lat":43.254947,"lon":5.376454,"is_reserved":false,"is_disabled":false,"rental_uris":{"android":"levelo://app?vid=61caec28-67b2-4178-9c57-441a83f5dde6","ios":"levelo://app?vid=61caec28-67b2-4178-9c57-441a83f5dde6"},"vehicle_type_id":"4","last_reported":1686254830,"current_range_meters":31200,"station_id":"ce4bhh12rcd13ifvqff0","pricing_plan_id":"free"},{"bike_id":"63fe30b7-d672-4fb6-852e-019e800cd388","system_id":"levelo_inurba_marseille","lat":43.27068,"lon":5.42272,"is_reserved":false,"is_disabled":false,"rental_uris":{"android":"levelo://app?vid=63fe30b7-d672-4fb6-852e-019e800cd388","ios":"levelo://app?vid=63fe30b7-d672-4fb6-852e-019e800cd388"},"vehicle_type_id":"4","last_reported":1686254830,"current_range_meters":5200,"station_id":"ce4bhk92rcd13ifvqgb0","pricing_plan_id":"free"},{"bike_id":"ea2874a6-ac99-4865-b734-3f2ed89fe210","system_id":"levelo_inurba_marseille","lat":43.27068,"lon":5.42274,"is_reserved":false,"is_disabled":false,"rental_uris":{"android":"levelo://app?vid=ea2874a6-ac99-4865-b734-3f2ed89fe210","ios":"levelo://app?vid=ea2874a6-ac99-4865-b734-3f2ed89fe210"},"vehicle_type_id":"4","last_reported":1686254830,"current_range_meters":6400,"station_id":"ce4bhk92rcd13ifvqgb0","pricing_plan_id":"free"},{"bike_id":"43b480f7-dcee-4422-8226-071dfdf90bb8","system_id":"levelo_inurba_marseille","lat":43.270721,"lon":5.422764,"is_reserved":false,"is_disabled":false,"rental_uris":{"android":"levelo://app?vid=43b480f7-dcee-4422-8226-071dfdf90bb8","ios":"levelo://app?vid=43b480f7-dcee-4422-8226-071dfdf90bb8"},"vehicle_type_id":"4","last_reported":1686254830,"current_range_meters":30400,"station_id":"ce4bhk92rcd13ifvqgb0","pricing_plan_id":"free"},{"bike_id":"cd96ffe2-0308-45de-b87e-166c53b5ea03","system_id":"levelo_inurba_marseille","lat":43.270721,"lon":5.422764,"is_reserved":false,"is_disabled":false,"rental_uris":{"android":"levelo://app?vid=cd96ffe2-0308-45de-b87e-166c53b5ea03","ios":"levelo://app?vid=cd96ffe2-0308-45de-b87e-166c53b5ea03"},"vehicle_type_id":"4","last_reported":1686254830,"current_range_meters":18800,"station_id":"ce4bhk92rcd13ifvqgb0","pricing_plan_id":"free"},{"bike_id":"b7dead98-b5b3-4730-b707-94ed16255947","system_id":"levelo_inurba_marseille","lat":43.25437,"lon":5.38161,"is_reserved":false,"is_disabled":false,"rental_uris":{"android":"levelo://app?vid=b7dead98-b5b3-4730-b707-94ed16255947","ios":"levelo://app?vid=b7dead98-b5b3-4730-b707-94ed16255947"},"vehicle_type_id":"4","last_reported":1686254830,"current_range_meters":31200,"station_id":"","pricing_plan_id":"free"},{"bike_id":"2d164d25-32f6-449c-9d8b-52599c239737","system_id":"levelo_inurba_marseille","lat":43.26241,"lon":5.41311,"is_reserved":false,"is_disabled":false,"rental_uris":{"android":"levelo://app?vid=2d164d25-32f6-449c-9d8b-52599c239737","ios":"levelo://app?vid=2d164d25-32f6-449c-9d8b-52599c239737"},"vehicle_type_id":"4","last_reported":1686254830,"current_range_meters":6400,"station_id":"","pricing_plan_id":"free"},{"bike_id":"0185af5b-b7a3-4b7f-be55-246b918f63da","system_id":"levelo_inurba_marseille","lat":43.25934,"lon":5.40909,"is_reserved":false,"is_disabled":false,"rental_uris":{"android":"levelo://app?vid=0185af5b-b7a3-4b7f-be55-246b918f63da","ios":"levelo://app?vid=0185af5b-b7a3-4b7f-be55-246b918f63da"},"vehicle_type_id":"4","last_reported":1686254830,"current_range_meters":2400,"station_id":"","pricing_plan_id":"free"},{"bike_id":"116fb517-ed39-4f40-b988-2a95b7fc816f","system_id":"levelo_inurba_marseille","lat":43.25002,"lon":5.3891,"is_reserved":false,"is_disabled":false,"rental_uris":{"android":"levelo://app?vid=116fb517-ed39-4f40-b988-2a95b7fc816f","ios":"levelo://app?vid=116fb517-ed39-4f40-b988-2a95b7fc816f"},"vehicle_type_id":"4","last_reported":1686254830,"current_range_meters":30400,"station_id":"ce4bhgp2rcd13ifvqfd0","pricing_plan_id":"free"},{"bike_id":"bd685546-2778-49c3-9647-109d57774d65","system_id":"levelo_inurba_marseille","lat":43.250009,"lon":5.389195,"is_reserved":false,"is_disabled":false,"rental_uris":{"android":"levelo://app?vid=bd685546-2778-49c3-9647-109d57774d65","ios":"levelo://app?vid=bd685546-2778-49c3-9647-109d57774d65"},"vehicle_type_id":"4","last_reported":1686254830,"current_range_meters":6800,"station_id":"ce4bhgp2rcd13ifvqfd0","pricing_plan_id":"free"},{"bike_id":"5a32ccd9-fde0-41a0-937d-a8964dbf3228","system_id":"levelo_inurba_marseille","lat":43.250966,"lon":5.395186,"is_reserved":false,"is_disabled":false,"rental_uris":{"android":"levelo://app?vid=5a32ccd9-fde0-41a0-937d-a8964dbf3228","ios":"levelo://app?vid=5a32ccd9-fde0-41a0-937d-a8964dbf3228"},"vehicle_type_id":"4","last_reported":1686254830,"current_range_meters":23600,"station_id":"ce4bhm12rcd13ifvqgkg","pricing_plan_id":"free"},{"bike_id":"974a7382-dab4-47b9-b30b-45983b311ca6","system_id":"levelo_inurba_marseille","lat":43.24693,"lon":5.382096,"is_reserved":false,"is_disabled":false,"rental_uris":{"android":"levelo://app?vid=974a7382-dab4-47b9-b30b-45983b311ca6","ios":"levelo://app?vid=974a7382-dab4-47b9-b30b-45983b311ca6"},"vehicle_type_id":"4","last_reported":1686254830,"current_range_meters":30400,"station_id":"ce4bhih2rcd13ifvqfr0","pricing_plan_id":"free"},{"bike_id":"d01a5d10-49da-4064-adb7-bd7f0e90d9e6","system_id":"levelo_inurba_marseille","lat":43.25102,"lon":5.403214,"is_reserved":false,"is_disabled":false,"rental_uris":{"android":"levelo://app?vid=d01a5d10-49da-4064-adb7-bd7f0e90d9e6","ios":"levelo://app?vid=d01a5d10-49da-4064-adb7-bd7f0e90d9e6"},"vehicle_type_id":"4","last_reported":1686254830,"current_range_meters":16400,"station_id":"ce4bhlh2rcd13ifvqgig","pricing_plan_id":"free"},{"bike_id":"a2df6417-7ddd-4b76-8a68-7ed2c48d3c11","system_id":"levelo_inurba_marseille","lat":43.246467,"lon":5.388984,"is_reserved":false,"is_disabled":false,"rental_uris":{"android":"levelo://app?vid=a2df6417-7ddd-4b76-8a68-7ed2c48d3c11","ios":"levelo://app?vid=a2df6417-7ddd-4b76-8a68-7ed2c48d3c11"},"vehicle_type_id":"4","last_reported":1686254830,"current_range_meters":5200,"station_id":"ce4bhg12rcd13ifvqf60","pricing_plan_id":"free"},{"bike_id":"940eacf2-046e-4c23-b58f-b9bf32cb37fa","system_id":"levelo_inurba_marseille","lat":43.245581,"lon":5.395069,"is_reserved":false,"is_disabled":false,"rental_uris":{"android":"levelo://app?vid=940eacf2-046e-4c23-b58f-b9bf32cb37fa","ios":"levelo://app?vid=940eacf2-046e-4c23-b58f-b9bf32cb37fa"},"vehicle_type_id":"4","last_reported":1686254830,"current_range_meters":18400,"station_id":"ce4bhlp2rcd13ifvqgjg","pricing_plan_id":"free"},{"bike_id":"8ede6b0e-e99d-489f-bc27-16ae038b2a59","system_id":"levelo_inurba_marseille","lat":43.245581,"lon":5.395069,"is_reserved":false,"is_disabled":false,"rental_uris":{"android":"levelo://app?vid=8ede6b0e-e99d-489f-bc27-16ae038b2a59","ios":"levelo://app?vid=8ede6b0e-e99d-489f-bc27-16ae038b2a59"},"vehicle_type_id":"4","last_reported":1686254830,"current_range_meters":0,"station_id":"ce4bhlp2rcd13ifvqgjg","pricing_plan_id":"free"},{"bike_id":"0662262d-c1b5-43ed-a541-62735e4ddd22","system_id":"levelo_inurba_marseille","lat":43.244912,"lon":5.401913,"is_reserved":false,"is_disabled":false,"rental_uris":{"android":"levelo://app?vid=0662262d-c1b5-43ed-a541-62735e4ddd22","ios":"levelo://app?vid=0662262d-c1b5-43ed-a541-62735e4ddd22"},"vehicle_type_id":"4","last_reported":1686254830,"current_range_meters":0,"station_id":"ce4bhs92rcd13ifvqi0g","pricing_plan_id":"free"},{"bike_id":"c52c2628-7093-4905-88fb-a8a57f5c5e55","system_id":"levelo_inurba_marseille","lat":43.239588,"lon":5.366238,"is_reserved":false,"is_disabled":false,"rental_uris":{"android":"levelo://app?vid=c52c2628-7093-4905-88fb-a8a57f5c5e55","ios":"levelo://app?vid=c52c2628-7093-4905-88fb-a8a57f5c5e55"},"vehicle_type_id":"4","last_reported":1686254830,"current_range_meters":26000,"station_id":"ce4bhi12rcd13ifvqfp0","pricing_plan_id":"free"},{"bike_id":"2f9789d0-577e-4b51-aacb-ed01ccd3e8de","system_id":"levelo_inurba_marseille","lat":43.239588,"lon":5.366238,"is_reserved":false,"is_disabled":false,"rental_uris":{"android":"levelo://app?vid=2f9789d0-577e-4b51-aacb-ed01ccd3e8de","ios":"levelo://app?vid=2f9789d0-577e-4b51-aacb-ed01ccd3e8de"},"vehicle_type_id":"4","last_reported":1686254830,"current_range_meters":17600,"station_id":"ce4bhi12rcd13ifvqfp0","pricing_plan_id":"free"},{"bike_id":"d3b49f61-f9bd-43f3-a281-0a2fb9b51c91","system_id":"levelo_inurba_marseille","lat":43.23298,"lon":5.35286,"is_reserved":false,"is_disabled":false,"rental_uris":{"android":"levelo://app?vid=d3b49f61-f9bd-43f3-a281-0a2fb9b51c91","ios":"levelo://app?vid=d3b49f61-f9bd-43f3-a281-0a2fb9b51c91"},"vehicle_type_id":"4","last_reported":1686254830,"current_range_meters":21600,"station_id":"","pricing_plan_id":"free"},{"bike_id":"596bf2f0-220c-4ef6-a062-229e445f45f2","system_id":"levelo_inurba_marseille","lat":43.23258,"lon":5.35435,"is_reserved":false,"is_disabled":false,"rental_uris":{"android":"levelo://app?vid=596bf2f0-220c-4ef6-a062-229e445f45f2","ios":"levelo://app?vid=596bf2f0-220c-4ef6-a062-229e445f45f2"},"vehicle_type_id":"4","last_reported":1686254830,"current_range_meters":8000,"station_id":"","pricing_plan_id":"free"},{"bike_id":"58bdd804-da75-4d54-b358-be1b4b052690","system_id":"levelo_inurba_marseille","lat":43.231794,"lon":5.400052,"is_reserved":false,"is_disabled":false,"rental_uris":{"android":"levelo://app?vid=58bdd804-da75-4d54-b358-be1b4b052690","ios":"levelo://app?vid=58bdd804-da75-4d54-b358-be1b4b052690"},"vehicle_type_id":"4","last_reported":1686254830,"current_range_meters":31200,"station_id":"ce4bhn12rcd13ifvqgqg","pricing_plan_id":"free"},{"bike_id":"00fa260d-7703-42bd-8c51-d6b0c3fcb538","system_id":"levelo_inurba_marseille","lat":43.231794,"lon":5.400052,"is_reserved":false,"is_disabled":false,"rental_uris":{"android":"levelo://app?vid=00fa260d-7703-42bd-8c51-d6b0c3fcb538","ios":"levelo://app?vid=00fa260d-7703-42bd-8c51-d6b0c3fcb538"},"vehicle_type_id":"4","last_reported":1686254830,"current_range_meters":7600,"station_id":"ce4bhn12rcd13ifvqgqg","pricing_plan_id":"free"},{"bike_id":"14746f68-e90f-436e-a836-e39e13032520","system_id":"levelo_inurba_marseille","lat":43.231794,"lon":5.400052,"is_reserved":false,"is_disabled":false,"rental_uris":{"android":"levelo://app?vid=14746f68-e90f-436e-a836-e39e13032520","ios":"levelo://app?vid=14746f68-e90f-436e-a836-e39e13032520"},"vehicle_type_id":"4","last_reported":1686254830,"current_range_meters":19200,"station_id":"ce4bhn12rcd13ifvqgqg","pricing_plan_id":"free"},{"bike_id":"9d317af0-f5f1-4f41-a6a7-b11c162bfb81","system_id":"levelo_inurba_marseille","lat":43.23178,"lon":5.39994,"is_reserved":false,"is_disabled":false,"rental_uris":{"android":"levelo://app?vid=9d317af0-f5f1-4f41-a6a7-b11c162bfb81","ios":"levelo://app?vid=9d317af0-f5f1-4f41-a6a7-b11c162bfb81"},"vehicle_type_id":"4","last_reported":1686254830,"current_range_meters":30400,"station_id":"ce4bhn12rcd13ifvqgqg","pricing_plan_id":"free"}]}}