{"last_updated":1758269648,"ttl":60,"version":"2.2","data":{"bikes":[{"bike_id":"5cebaa99-7be9-4a3f-9cc0-5cdfdaef03f0","system_id":"levelo_inurba_marseille","lat":43.22551,"lon":5.34771,"is_reserved":false,"is_disabled":false,"rental_uris":{"android":"levelo://app?vid=5cebaa99-7be9-4a3f-9cc0-5cdfdaef03f0","ios":"levelo://app?vid=5cebaa99-7be9-4a3f-9cc0-5cdfdaef03f0"},"vehicle_type_id":"4","last_reported":1758269648,"current_range_meters":2800,"station_id":"","pricing_plan_id":"cebpf4jnsgd1na2vs0mg"},{"bike_id":"482e2c82-16d1-48f0-937e-25e09b2f2ae4","system_id":"levelo_inurba_marseille","lat":43.29017,"lon":5.38647,"is_reserved":false,"is_disabled":false,"rental_uris":{"android":"levelo://app?vid=482e2c82-16d1-48f0-937e-25e09b2f2ae4","ios":"levelo://app?vid=482e2c82-16d1-48f0-937e-25e09b2f2ae4"},"vehicle_type_id":"4","last_reported":1758269648,"current_range_meters":2800,"station_id":"ce4bh4p2rcd13ifvqe0g","pricing_plan_id":"cebpf4jnsgd1na2vs0mg"},{"bike_id":"e820c689-e974-4315-9bed-010e44b9c698","system_id":"levelo_inurba_marseille","lat":43.28121,"lon":5.35022,"is_reserved":false,"is_disabled":false,"rental_uris":{"android":"levelo://app?vid=e820c689-e974-4315-9bed-010e44b9c698","ios":"levelo://app?vid=e820c689-e974-4315-9bed-010e44b9c698"},"vehicle_type_id":"4","last_reported":1758269648,"current_range_meters":3200,"station_id":"","pricing_plan_id":"cebpf4jnsgd1na2vs0mg"},{"bike_id":"8f3f0f0f-47be-411d-9ef8-5f8e7cb3eaad","system_id":"levelo_inurba_marseille","lat":43.24386,"lon":5.3706,"is_reserved":false,"is_disabled":false,"rental_uris":{"android":"levelo://app?vid=8f3f0f0f-47be-411d-9ef8-5f8e7cb3eaad","ios":"levelo://app?vid=8f3f0f0f-47be-411d-9ef8-5f8e7cb3eaad"},"vehicle_type_id":"4","last_reported":1758269648,"current_range_meters":3200,"station_id":"ce4bhhh2rcd13ifvqfk0","pricing_plan_id":"cebpf4jnsgd1na2vs0mg"},{"bike_id":"2c8dc3aa-34e7-4f6d-82c3-e89b9f9232bd","system_id":"levelo_inurba_marseille","lat":43.273748,"lon":5.362609,"is_reserved":false,"is_disabled":false,"rental_uris":{"android":"levelo://app?vid=2c8dc3aa-34e7-4f6d-82c3-e89b9f9232bd","ios":"levelo://app?vid=2c8dc3aa-34e7-4f6d-82c3-e89b9f9232bd"},"vehicle_type_id":"4","last_reported":1758269648,"current_range_meters":3600,"station_id":"ce4bhbh2rcd13ifvqeo0","pricing_plan_id":"cebpf4jnsgd1na2vs0mg"},{"bike_id":"fd8afd27-85b5-4153-82fc-fda6ffdc758c","system_id":"levelo_inurba_marseille","lat":43.3112,"lon":5.37764,"is_reserved":false,"is_disabled":false,"rental_uris":{"android":"levelo://app?vid=fd8afd27-85b5-4153-82fc-fda6ffdc758c","ios":"levelo://app?vid=fd8afd27-85b5-4153-82fc-fda6ffdc758c"},"vehicle_type_id":"4","last_reported":1758269648,"current_range_meters":3600,"station_id":"ce4bgt92rcd13ifvqcg0","pricing_plan_id":"cebpf4jnsgd1na2vs0mg"},{"bike_id":"12465162-d643-483b-a1af-cd18ec1f196a","system_id":"levelo_inurba_marseille","lat":43.29009,"lon":5.3561,"is_reserved":false,"is_disabled":false,"rental_uris":{"android":"levelo://app?vid=12465162-d643-483b-a1af-cd18ec1f196a","ios":"levelo://app?vid=12465162-d643-483b-a1af-cd18ec1f196a"},"vehicle_type_id":"4","last_reported":1758269648,"current_range_meters":4000,"station_id":"ce4bhb92rcd13ifvqen0","pricing_plan_id":"cebpf4jnsgd1na2vs0mg"},{"bike_id":"0e21f20d-e541-4e87-b362-394afbfa1e68","system_id":"levelo_inurba_marseille","lat":43.2655,"lon":5.37282,"is_reserved":false,"is_disabled":false,"rental_uris":{"android":"levelo://app?vid=0e21f20d-e541-4e87-b362-394afbfa1e68","ios":"levelo://app?vid=0e21f20d-e541-4e87-b362-394afbfa1e68"},"vehicle_type_id":"4","last_reported":1758269648,"current_range_meters":4400,"station_id":"ce4bhg12rcd13ifvqf70","pricing_plan_id":"cebpf4jnsgd1na2vs0mg"},{"bike_id":"fa89bfaa-d1bd-4e96-9a96-07b6a4c6e9cf","system_id":"levelo_inurba_marseille","lat":43.29914,"lon":5.37473,"is_reserved":false,"is_disabled":false,"rental_uris":{"android":"levelo://app?vid=fa89bfaa-d1bd-4e96-9a96-07b6a4c6e9cf","ios":"levelo://app?vid=fa89bfaa-d1bd-4e96-9a96-07b6a4c6e9cf"},"vehicle_type_id":"4","last_reported":1758269648,"current_range_meters":4400,"station_id":"","pricing_plan_id":"cebpf4jnsgd1na2vs0mg"},{"bike_id":"59eba6ec-9d56-47dd-a2dc-46713ec1d0fe","system_id":"levelo_inurba_marseille","lat":43.31752,"lon":5.39013,"is_reserved":false,"is_disabled":false,"rental_uris":{"android":"levelo://app?vid=59eba6ec-9d56-47dd-a2dc-46713ec1d0fe","ios":"levelo://app?vid=59eba6ec-9d56-47dd-a2dc-46713ec1d0fe"},"vehicle_type_id":"4","last_reported":1758269648,"current_range_meters":4400,"station_id":"ce4bhqp2rcd13ifvqhng","pricing_plan_id":"cebpf4jnsgd1na2vs0mg"},{"bike_id":"6f23014c-eadd-44d8-8739-0edc9f01479a","system_id":"levelo_inurba_marseille","lat":43.33506,"lon":5.41039,"is_reserved":false,"is_disabled":false,"rental_uris":{"android":"levelo://app?vid=6f23014c-eadd-44d8-8739-0edc9f01479a","ios":"levelo://app?vid=6f23014c-eadd-44d8-8739-0edc9f01479a"},"vehicle_type_id":"4","last_reported":1758269648,"current_range_meters":4400,"station_id":"","pricing_plan_id":"cebpf4jnsgd1na2vs0mg"},{"bike_id":"34c03273-c5ef-4d77-95a8-eeeeaff92ed8","system_id":"levelo_inurba_marseille","lat":43.27207,"lon":5.39183,"is_reserved":false,"is_disabled":false,"rental_uris":{"android":"levelo://app?vid=34c03273-c5ef-4d77-95a8-eeeeaff92ed8","ios":"levelo://app?vid=34c03273-c5ef-4d77-95a8-eeeeaff92ed8"},"vehicle_type_id":"4","last_reported":1758269648,"current_range_meters":4800,"station_id":"ce4bhhp2rcd13ifvqfm0","pricing_plan_id":"cebpf4jnsgd1na2vs0mg"},{"bike_id":"059c0ba7-1dcb-4f29-8d05-6060640937cc","system_id":"levelo_inurba_marseille","lat":43.32973,"lon":5.38928,"is_reserved":false,"is_disabled":false,"rental_uris":{"android":"levelo://app?vid=059c0ba7-1dcb-4f29-8d05-6060640937cc","ios":"levelo://app?vid=059c0ba7-1dcb-4f29-8d05-6060640937cc"},"vehicle_type_id":"4","last_reported":1758269648,"current_range_meters":4800,"station_id":"","pricing_plan_id":"cebpf4jnsgd1na2vs0mg"},{"bike_id":"1790256a-3aac-4067-aa24-35ce37b2ff86","system_id":"levelo_inurba_marseille","lat":43.26209,"lon":5.40456,"is_reserved":false,"is_disabled":false,"rental_uris":{"android":"levelo://app?vid=1790256a-3aac-4067-aa24-35ce37b2ff86","ios":"levelo://app?vid=1790256a-3aac-4067-aa24-35ce37b2ff86"},"vehicle_type_id":"4","last_reported":1758269648,"current_range_meters":4800,"station_id":"ce4bhmh2rcd13ifvqgmg","pricing_plan_id":"cebpf4jnsgd1na2vs0mg"},{"bike_id":"190d0825-c1b9-4efd-8a03-d87285d4a5b6","system_id":"levelo_inurba_marseille","lat":43.29813,"lon":5.37699,"is_reserved":false,"is_disabled":false,"rental_uris":{"android":"levelo://app?vid=190d0825-c1b9-4efd-8a03-d87285d4a5b6","ios":"levelo://app?vid=190d0825-c1b9-4efd-8a03-d87285d4a5b6"},"vehicle_type_id":"4","last_reported":1758269648,"current_range_meters":4800,"station_id":"","pricing_plan_id":"cebpf4jnsgd1na2vs0mg"},{"bike_id":"d4361cae-d513-4968-86ab-d2a76f74da3b","system_id":"levelo_inurba_marseille","lat":43.292592,"lon":5.376264,"is_reserved":false,"is_disabled":false,"rental_uris":{"android":"levelo://app?vid=d4361cae-d513-4968-86ab-d2a76f74da3b","ios":"levelo://app?vid=d4361cae-d513-4968-86ab-d2a76f74da3b"},"vehicle_type_id":"4","last_reported":1758269648,"current_range_meters":5600,"station_id":"ce4bgi12rcd13ifvqb80","pricing_plan_id":"cebpf4jnsgd1na2vs0mg"},{"bike_id":"71f98bea-d2c6-4708-9011-517b72f720c3","system_id":"levelo_inurba_marseille","lat":43.22559,"lon":5.41626,"is_reserved":false,"is_disabled":false,"rental_uris":{"android":"levelo://app?vid=71f98bea-d2c6-4708-9011-517b72f720c3","ios":"levelo://app?vid=71f98bea-d2c6-4708-9011-517b72f720c3"},"vehicle_type_id":"4","last_reported":1758269648,"current_range_meters":5600,"station_id":"st_d2o4gvlbi1j2169b742g","pricing_plan_id":"cebpf4jnsgd1na2vs0mg"},{"bike_id":"820cfe61-9cd1-43d3-857e-ffc3c3072371","system_id":"levelo_inurba_marseille","lat":43.25931,"lon":5.40878,"is_reserved":false,"is_disabled":false,"rental_uris":{"android":"levelo://app?vid=820cfe61-9cd1-43d3-857e-ffc3c3072371","ios":"levelo://app?vid=820cfe61-9cd1-43d3-857e-ffc3c3072371"},"vehicle_type_id":"4","last_reported":1758269648,"current_range_meters":6000,"station_id":"ce4bhm92rcd13ifvqglg","pricing_plan_id":"cebpf4jnsgd1na2vs0mg"},{"bike_id":"6b2df98a-f50c-47c5-9c2f-43c491c2fa84","system_id":"levelo_inurba_marseille","lat":43.284758,"lon":5.384199,"is_reserved":false,"is_disabled":false,"rental_uris":{"android":"levelo://app?vid=6b2df98a-f50c-47c5-9c2f-43c491c2fa84","ios":"levelo://app?vid=6b2df98a-f50c-47c5-9c2f-43c491c2fa84"},"vehicle_type_id":"4","last_reported":1758269648,"current_range_meters":6000,"station_id":"ce4bh512rcd13ifvqe3g","pricing_plan_id":"cebpf4jnsgd1na2vs0mg"},{"bike_id":"ba4b6ac1-d4d5-4e9e-ad59-a622a021f146","system_id":"levelo_inurba_marseille","lat":43.23964,"lon":5.36631,"is_reserved":false,"is_disabled":false,"rental_uris":{"android":"levelo://app?vid=ba4b6ac1-d4d5-4e9e-ad59-a622a021f146","ios":"levelo://app?vid=ba4b6ac1-d4d5-4e9e-ad59-a622a021f146"},"vehicle_type_id":"4","last_reported":1758269648,"current_range_meters":6000,"station_id":"ce4bhi12rcd13ifvqfp0","pricing_plan_id":"cebpf4jnsgd1na2vs0mg"},{"bike_id":"b7a15c2c-04a8-440a-b6a2-23d3321df891","system_id":"levelo_inurba_marseille","lat":43.28922,"lon":5.38396,"is_reserved":false,"is_disabled":false,"rental_uris":{"android":"levelo://app?vid=b7a15c2c-04a8-440a-b6a2-23d3321df891","ios":"levelo://app?vid=b7a15c2c-04a8-440a-b6a2-23d3321df891"},"vehicle_type_id":"4","last_reported":1758269648,"current_range_meters":6400,"station_id":"ce4bh612rcd13ifvqe6g","pricing_plan_id":"cebpf4jnsgd1na2vs0mg"},{"bike_id":"93e5c623-c8a6-4d8e-bf10-07c65c8fdfbb","system_id":"levelo_inurba_marseille","lat":43.28452,"lon":5.38056,"is_reserved":false,"is_disabled":false,"rental_uris":{"android":"levelo://app?vid=93e5c623-c8a6-4d8e-bf10-07c65c8fdfbb","ios":"levelo://app?vid=93e5c623-c8a6-4d8e-bf10-07c65c8fdfbb"},"vehicle_type_id":"4","last_reported":1758269648,"current_range_meters":6400,"station_id":"ce4bh412rcd13ifvqdr0","pricing_plan_id":"cebpf4jnsgd1na2vs0mg"},{"bike_id":"45afe5f4-5cbe-49c2-a913-33c967100178","system_id":"levelo_inurba_marseille","lat":43.29776,"lon":5.380931,"is_reserved":false,"is_disabled":false,"rental_uris":{"android":"levelo://app?vid=45afe5f4-5cbe-49c2-a913-33c967100178","ios":"levelo://app?vid=45afe5f4-5cbe-49c2-a913-33c967100178"},"vehicle_type_id":"4","last_reported":1758269648,"current_range_meters":6400,"station_id":"","pricing_plan_id":"cebpf4jnsgd1na2vs0mg"},{"bike_id":"dfe9bbea-2480-47f8-9bfe-5f13271aedce","system_id":"levelo_inurba_marseille","lat":43.23147,"lon":5.43712,"is_reserved":false,"is_disabled":false,"rental_uris":{"android":"levelo://app?vid=dfe9bbea-2480-47f8-9bfe-5f13271aedce","ios":"levelo://app?vid=dfe9bbea-2480-47f8-9bfe-5f13271aedce"},"vehicle_type_id":"4","last_reported":1758269648,"current_range_meters":6800,"station_id":"ce4bhmp2rcd13ifvqgog","pricing_plan_id":"cebpf4jnsgd1na2vs0mg"},{"bike_id":"7432172a-5f4c-405d-a59b-830718959c34","system_id":"levelo_inurba_marseille","lat":43.29048,"lon":5.37572,"is_reserved":false,"is_disabled":false,"rental_uris":{"android":"levelo://app?vid=7432172a-5f4c-405d-a59b-830718959c34","ios":"levelo://app?vid=7432172a-5f4c-405d-a59b-830718959c34"},"vehicle_type_id":"4","last_reported":1758269648,"current_range_meters":6800,"station_id":"ce4bh692rcd13ifvqe90","pricing_plan_id":"cebpf4jnsgd1na2vs0mg"},{"bike_id":"61beea36-4bda-4aa6-84ea-eeb119cc83ff","system_id":"levelo_inurba_marseille","lat":43.225324,"lon":5.348382,"is_reserved":false,"is_disabled":false,"rental_uris":{"android":"levelo://app?vid=61beea36-4bda-4aa6-84ea-eeb119cc83ff","ios":"levelo://app?vid=61beea36-4bda-4aa6-84ea-eeb119cc83ff"},"vehicle_type_id":"4","last_reported":1758269648,"current_range_meters":6800,"station_id":"","pricing_plan_id":"cebpf4jnsgd1na2vs0mg"},{"bike_id":"55dabd6d-650f-4485-8c0b-6a5763700e61","system_id":"levelo_inurba_marseille","lat":43.25778,"lon":5.38721,"is_reserved":false,"is_disabled":false,"rental_uris":{"android":"levelo://app?vid=55dabd6d-650f-4485-8c0b-6a5763700e61","ios":"levelo://app?vid=55dabd6d-650f-4485-8c0b-6a5763700e61"},"vehicle_type_id":"4","last_reported":1758269648,"current_range_meters":6800,"station_id":"","pricing_plan_id":"cebpf4jnsgd1na2vs0mg"},{"bike_id":"5b9154a6-77b7-4f68-9c74-8a857839fefe","system_id":"levelo_inurba_marseille","lat":43.2407,"lon":5.37758,"is_reserved":false,"is_disabled":false,"rental_uris":{"android":"levelo://app?vid=5b9154a6-77b7-4f68-9c74-8a857839fefe","ios":"levelo://app?vid=5b9154a6-77b7-4f68-9c74-8a857839fefe"},"vehicle_type_id":"4","last_reported":1758269648,"current_range_meters":6800,"station_id":"ce4bhnp2rcd13ifvqgvg","pricing_plan_id":"cebpf4jnsgd1na2vs0mg"},{"bike_id":"55dfb17a-dc13-4669-82ac-2c676d600c2d","system_id":"levelo_inurba_marseille","lat":43.31351,"lon":5.37936,"is_reserved":false,"is_disabled":true,"rental_uris":{"android":"levelo://app?vid=55dfb17a-dc13-4669-82ac-2c676d600c2d","ios":"levelo://app?vid=55dfb17a-dc13-4669-82ac-2c676d600c2d"},"vehicle_type_id":"4","last_reported":1758269648,"current_range_meters":7200,"station_id":"","pricing_plan_id":"cebpf4jnsgd1na2vs0mg"},{"bike_id":"55eb9bad-8159-4d2e-8331-e18215ecc476","system_id":"levelo_inurba_marseille","lat":43.25925,"lon":5.40898,"is_reserved":false,"is_disabled":false,"rental_uris":{"android":"levelo://app?vid=55eb9bad-8159-4d2e-8331-e18215ecc476","ios":"levelo://app?vid=55eb9bad-8159-4d2e-8331-e18215ecc476"},"vehicle_type_id":"4","last_reported":1758269648,"current_range_meters":7200,"station_id":"ce4bhm92rcd13ifvqglg","pricing_plan_id":"cebpf4jnsgd1na2vs0mg"},{"bike_id":"3fc9c347-9d65-4210-9ef4-90c36924a1b3","system_id":"levelo_inurba_marseille","lat":43.30646,"lon":5.40089,"is_reserved":false,"is_disabled":false,"rental_uris":{"android":"levelo://app?vid=3fc9c347-9d65-4210-9ef4-90c36924a1b3","ios":"levelo://app?vid=3fc9c347-9d65-4210-9ef4-90c36924a1b3"},"vehicle_type_id":"4","last_reported":1758269648,"current_range_meters":8000,"station_id":"ce4bh112rcd13ifvqda0","pricing_plan_id":"cebpf4jnsgd1na2vs0mg"},{"bike_id":"7745eab8-3d48-4349-b863-861b7cc7cbd1","system_id":"levelo_inurba_marseille","lat":43.290054,"lon":5.381405,"is_reserved":false,"is_disabled":false,"rental_uris":{"android":"levelo://app?vid=7745eab8-3d48-4349-b863-861b7cc7cbd1","ios":"levelo://app?vid=7745eab8-3d48-4349-b863-861b7cc7cbd1"},"vehicle_type_id":"4","last_reported":1758269648,"current_range_meters":8000,"station_id":"","pricing_plan_id":"cebpf4jnsgd1na2vs0mg"},{"bike_id":"a12678d8-0b58-4235-9f6d-77c5425accec","system_id":"levelo_inurba_marseille","lat":43.24167,"lon":5.36397,"is_reserved":false,"is_disabled":false,"rental_uris":{"android":"levelo://app?vid=a12678d8-0b58-4235-9f6d-77c5425accec","ios":"levelo://app?vid=a12678d8-0b58-4235-9f6d-77c5425accec"},"vehicle_type_id":"4","last_reported":1758269648,"current_range_meters":8000,"station_id":"cpo36qri1sfpv3e86is0","pricing_plan_id":"cebpf4jnsgd1na2vs0mg"},{"bike_id":"cf66592a-d8fa-4c6c-9927-5d7a9fef5026","system_id":"levelo_inurba_marseille","lat":43.26269,"lon":5.39845,"is_reserved":false,"is_disabled":false,"rental_uris":{"android":"levelo://app?vid=cf66592a-d8fa-4c6c-9927-5d7a9fef5026","ios":"levelo://app?vid=cf66592a-d8fa-4c6c-9927-5d7a9fef5026"},"vehicle_type_id":"4","last_reported":1758269648,"current_range_meters":8400,"station_id":"","pricing_plan_id":"cebpf4jnsgd1na2vs0mg"},{"bike_id":"5d54e5f7-0fde-4460-8ad9-6459313a3946","system_id":"levelo_inurba_marseille","lat":43.33601,"lon":5.41033,"is_reserved":false,"is_disabled":false,"rental_uris":{"android":"levelo://app?vid=5d54e5f7-0fde-4460-8ad9-6459313a3946","ios":"levelo://app?vid=5d54e5f7-0fde-4460-8ad9-6459313a3946"},"vehicle_type_id":"4","last_reported":1758269648,"current_range_meters":8400,"station_id":"ce4bhqh2rcd13ifvqhmg","pricing_plan_id":"cebpf4jnsgd1na2vs0mg"},{"bike_id":"54ddc3cf-9751-4cf5-bc01-14e97afa15f0","system_id":"levelo_inurba_marseille","lat":43.30123,"lon":5.39878,"is_reserved":false,"is_disabled":false,"rental_uris":{"android":"levelo://app?vid=54ddc3cf-9751-4cf5-bc01-14e97afa15f0","ios":"levelo://app?vid=54ddc3cf-9751-4cf5-bc01-14e97afa15f0"},"vehicle_type_id":"4","last_reported":1758269648,"current_range_meters":8400,"station_id":"ce4bh0h2rcd13ifvqd40","pricing_plan_id":"cebpf4jnsgd1na2vs0mg"},{"bike_id":"7ebfaaab-df55-4d1e-84d7-e0a0ff170dd9","system_id":"levelo_inurba_marseille","lat":43.31224,"lon":5.36902,"is_reserved":false,"is_disabled":false,"rental_uris":{"android":"levelo://app?vid=7ebfaaab-df55-4d1e-84d7-e0a0ff170dd9","ios":"levelo://app?vid=7ebfaaab-df55-4d1e-84d7-e0a0ff170dd9"},"vehicle_type_id":"4","last_reported":1758269648,"current_range_meters":8800,"station_id":"ce4bgl92rcd13ifvqbq0","pricing_plan_id":"cebpf4jnsgd1na2vs0mg"},{"bike_id":"9ed8f41c-ed70-4652-8086-bdb21017f3cf","system_id":"levelo_inurba_marseille","lat":43.30908,"lon":5.36866,"is_reserved":false,"is_disabled":false,"rental_uris":{"android":"levelo://app?vid=9ed8f41c-ed70-4652-8086-bdb21017f3cf","ios":"levelo://app?vid=9ed8f41c-ed70-4652-8086-bdb21017f3cf"},"vehicle_type_id":"4","last_reported":1758269648,"current_range_meters":8800,"station_id":"ce4bgn92rcd13ifvqbvg","pricing_plan_id":"cebpf4jnsgd1na2vs0mg"},{"bike_id":"67bc5bed-2d3c-456b-b462-8085b8f0f7c8","system_id":"levelo_inurba_marseille","lat":43.29005,"lon":5.35607,"is_reserved":false,"is_disabled":false,"rental_uris":{"android":"levelo://app?vid=67bc5bed-2d3c-456b-b462-8085b8f0f7c8","ios":"levelo://app?vid=67bc5bed-2d3c-456b-b462-8085b8f0f7c8"},"vehicle_type_id":"4","last_reported":1758269648,"current_range_meters":8800,"station_id":"ce4bhb92rcd13ifvqen0","pricing_plan_id":"cebpf4jnsgd1na2vs0mg"},{"bike_id":"2c81f725-645c-49cf-92d3-67ddcabc275f","system_id":"levelo_inurba_marseille","lat":43.24048,"lon":5.37761,"is_reserved":false,"is_disabled":false,"rental_uris":{"android":"levelo://app?vid=2c81f725-645c-49cf-92d3-67ddcabc275f","ios":"levelo://app?vid=2c81f725-645c-49cf-92d3-67ddcabc275f"},"vehicle_type_id":"4","last_reported":1758269648,"current_range_meters":8800,"station_id":"ce4bhnp2rcd13ifvqgvg","pricing_plan_id":"cebpf4jnsgd1na2vs0mg"},{"bike_id":"b6cd050c-3621-4111-b672-a130f51f2ac9","system_id":"levelo_inurba_marseille","lat":43.23149,"lon":5.43724,"is_reserved":false,"is_disabled":false,"rental_uris":{"android":"levelo://app?vid=b6cd050c-3621-4111-b672-a130f51f2ac9","ios":"levelo://app?vid=b6cd050c-3621-4111-b672-a130f51f2ac9"},"vehicle_type_id":"4","last_reported":1758269648,"current_range_meters":8800,"station_id":"ce4bhmp2rcd13ifvqgog","pricing_plan_id":"cebpf4jnsgd1na2vs0mg"},{"bike_id":"d1788760-0706-4b90-8999-db00a9e42210","system_id":"levelo_inurba_marseille","lat":43.32797,"lon":5.41011,"is_reserved":false,"is_disabled":true,"rental_uris":{"android":"levelo://app?vid=d1788760-0706-4b90-8999-db00a9e42210","ios":"levelo://app?vid=d1788760-0706-4b90-8999-db00a9e42210"},"vehicle_type_id":"4","last_reported":1758269648,"current_range_meters":8800,"station_id":"","pricing_plan_id":"cebpf4jnsgd1na2vs0mg"},{"bike_id":"2dec8c38-8e53-4475-a4f2-5caebfd8a70e","system_id":"levelo_inurba_marseille","lat":43.33767,"lon":5.37425,"is_reserved":false,"is_disabled":false,"rental_uris":{"android":"levelo://app?vid=2dec8c38-8e53-4475-a4f2-5caebfd8a70e","ios":"levelo://app?vid=2dec8c38-8e53-4475-a4f2-5caebfd8a70e"},"vehicle_type_id":"4","last_reported":1758269648,"current_range_meters":8800,"station_id":"","pricing_plan_id":"cebpf4jnsgd1na2vs0mg"},{"bike_id":"78891fef-3811-412b-be0a-555b8244a94c","system_id":"levelo_inurba_marseille","lat":43.29001,"lon":5.35615,"is_reserved":false,"is_disabled":false,"rental_uris":{"android":"levelo://app?vid=78891fef-3811-412b-be0a-555b8244a94c","ios":"levelo://app?vid=78891fef-3811-412b-be0a-555b8244a94c"},"vehicle_type_id":"4","last_reported":1758269648,"current_range_meters":8800,"station_id":"ce4bhb92rcd13ifvqen0","pricing_plan_id":"cebpf4jnsgd1na2vs0mg"},{"bike_id":"64b8f5d2-16ee-4c85-a97d-7145fcb10104","system_id":"levelo_inurba_marseille","lat":43.225343,"lon":5.348349,"is_reserved":false,"is_disabled":false,"rental_uris":{"android":"levelo://app?vid=64b8f5d2-16ee-4c85-a97d-7145fcb10104","ios":"levelo://app?vid=64b8f5d2-16ee-4c85-a97d-7145fcb10104"},"vehicle_type_id":"4","last_reported":1758269648,"current_range_meters":9200,"station_id":"","pricing_plan_id":"cebpf4jnsgd1na2vs0mg"},{"bike_id":"0e4cc57c-0a65-4172-ab47-4a51f3fd6640","system_id":"levelo_inurba_marseille","lat":43.2593,"lon":5.40911,"is_reserved":false,"is_disabled":false,"rental_uris":{"android":"levelo://app?vid=0e4cc57c-0a65-4172-ab47-4a51f3fd6640","ios":"levelo://app?vid=0e4cc57c-0a65-4172-ab47-4a51f3fd6640"},"vehicle_type_id":"4","last_reported":1758269648,"current_range_meters":9200,"station_id":"ce4bhm92rcd13ifvqglg","pricing_plan_id":"cebpf4jnsgd1na2vs0mg"},{"bike_id":"451c3e08-c3ef-48cb-8da6-7e16b266b37a","system_id":"levelo_inurba_marseille","lat":43.2315,"lon":5.43725,"is_reserved":false,"is_disabled":false,"rental_uris":{"android":"levelo://app?vid=451c3e08-c3ef-48cb-8da6-7e16b266b37a","ios":"levelo://app?vid=451c3e08-c3ef-48cb-8da6-7e16b266b37a"},"vehicle_type_id":"4","last_reported":1758269648,"current_range_meters":9200,"station_id":"ce4bhmp2rcd13ifvqgog","pricing_plan_id":"cebpf4jnsgd1na2vs0mg"},{"bike_id":"c3d14e52-ea9b-43cc-9859-2b97a61d0f4b","system_id":"levelo_inurba_marseille","lat":43.31167,"lon":5.38717,"is_reserved":false,"is_disabled":false,"rental_uris":{"android":"levelo://app?vid=c3d14e52-ea9b-43cc-9859-2b97a61d0f4b","ios":"levelo://app?vid=c3d14e52-ea9b-43cc-9859-2b97a61d0f4b"},"vehicle_type_id":"4","last_reported":1758269648,"current_range_meters":8800,"station_id":"ce4bgv12rcd13ifvqcp0","pricing_plan_id":"cebpf4jnsgd1na2vs0mg"},{"bike_id":"ecae0099-f44d-4a0c-b05f-47b6a0660640","system_id":"levelo_inurba_marseille","lat":43.3047,"lon":5.37896,"is_reserved":false,"is_disabled":false,"rental_uris":{"android":"levelo://app?vid=ecae0099-f44d-4a0c-b05f-47b6a0660640","ios":"levelo://app?vid=ecae0099-f44d-4a0c-b05f-47b6a0660640"},"vehicle_type_id":"4","last_reported":1758269648,"current_range_meters":9200,"station_id":"","pricing_plan_id":"cebpf4jnsgd1na2vs0mg"},{"bike_id":"516d6fa4-5ec8-43d8-9799-78f121192d58","system_id":"levelo_inurba_marseille","lat":43.30926,"lon":5.40156,"is_reserved":false,"is_disabled":false,"rental_uris":{"android":"levelo://app?vid=516d6fa4-5ec8-43d8-9799-78f121192d58","ios":"levelo://app?vid=516d6fa4-5ec8-43d8-9799-78f121192d58"},"vehicle_type_id":"4","last_reported":1758269648,"current_range_meters":9200,"station_id":"ce4bgvp2rcd13ifvqct0","pricing_plan_id":"cebpf4jnsgd1na2vs0mg"},{"bike_id":"2dec21eb-ba66-4ce5-996e-0ce46ea88dcd","system_id":"levelo_inurba_marseille","lat":43.26679,"lon":5.38272,"is_reserved":false,"is_disabled":false,"rental_uris":{"android":"levelo://app?vid=2dec21eb-ba66-4ce5-996e-0ce46ea88dcd","ios":"levelo://app?vid=2dec21eb-ba66-4ce5-996e-0ce46ea88dcd"},"vehicle_type_id":"4","last_reported":1758269648,"current_range_meters":8800,"station_id":"ce4bhg92rcd13ifvqf90","pricing_plan_id":"cebpf4jnsgd1na2vs0mg"},{"bike_id":"cd5ea3c4-33a7-4755-986b-502c7b2660f7","system_id":"levelo_inurba_marseille","lat":43.33752,"lon":5.37403,"is_reserved":false,"is_disabled":false,"rental_uris":{"android":"levelo://app?vid=cd5ea3c4-33a7-4755-986b-502c7b2660f7","ios":"levelo://app?vid=cd5ea3c4-33a7-4755-986b-502c7b2660f7"},"vehicle_type_id":"4","last_reported":1758269648,"current_range_meters":9600,"station_id":"","pricing_plan_id":"cebpf4jnsgd1na2vs0mg"},{"bike_id":"c03db5d6-931c-41e0-bfa5-6550a106fb99","system_id":"levelo_inurba_marseille","lat":43.23289,"lon":5.36023,"is_reserved":false,"is_disabled":false,"rental_uris":{"android":"levelo://app?vid=c03db5d6-931c-41e0-bfa5-6550a106fb99","ios":"levelo://app?vid=c03db5d6-931c-41e0-bfa5-6550a106fb99"},"vehicle_type_id":"4","last_reported":1758269648,"current_range_meters":9600,"station_id":"","pricing_plan_id":"cebpf4jnsgd1na2vs0mg"},{"bike_id":"0dc941c8-29ff-4ab8-8316-7c70af97a6ee","system_id":"levelo_inurba_marseille","lat":43.30605,"lon":5.37222,"is_reserved":false,"is_disabled":false,"rental_uris":{"android":"levelo://app?vid=0dc941c8-29ff-4ab8-8316-7c70af97a6ee","ios":"levelo://app?vid=0dc941c8-29ff-4ab8-8316-7c70af97a6ee"},"vehicle_type_id":"4","last_reported":1758269648,"current_range_meters":9600,"station_id":"ce4bgqh2rcd13ifvqc4g","pricing_plan_id":"cebpf4jnsgd1na2vs0mg"},{"bike_id":"ba4aa27f-c736-41dd-9bb3-a4723df3a9b6","system_id":"levelo_inurba_marseille","lat":43.278093,"lon":5.407154,"is_reserved":false,"is_disabled":true,"rental_uris":{"android":"levelo://app?vid=ba4aa27f-c736-41dd-9bb3-a4723df3a9b6","ios":"levelo://app?vid=ba4aa27f-c736-41dd-9bb3-a4723df3a9b6"},"vehicle_type_id":"4","last_reported":1758269648,"current_range_meters":9600,"station_id":"ce4bhnh2rcd13ifvqgtg","pricing_plan_id":"cebpf4jnsgd1na2vs0mg"},{"bike_id":"42323a1a-489c-43cb-90ae-c675b27444d5","system_id":"levelo_inurba_marseille","lat":43.21643,"lon":5.34386,"is_reserved":false,"is_disabled":false,"rental_uris":{"android":"levelo://app?vid=42323a1a-489c-43cb-90ae-c675b27444d5","ios":"levelo://app?vid=42323a1a-489c-43cb-90ae-c675b27444d5"},"vehicle_type_id":"4","last_reported":1758269648,"current_range_meters":9600,"station_id":"","pricing_plan_id":"cebpf4jnsgd1na2vs0mg"},{"bike_id":"7db21d13-b175-4d33-8d32-872f23f8bb68","system_id":"levelo_inurba_marseille","lat":43.28076,"lon":5.39662,"is_reserved":false,"is_disabled":false,"rental_uris":{"android":"levelo://app?vid=7db21d13-b175-4d33-8d32-872f23f8bb68","ios":"levelo://app?vid=7db21d13-b175-4d33-8d32-872f23f8bb68"},"vehicle_type_id":"4","last_reported":1758269648,"current_range_meters":9600,"station_id":"ce4bho12rcd13ifvqh2g","pricing_plan_id":"cebpf4jnsgd1na2vs0mg"},{"bike_id":"c0aa5c7c-fdba-48e0-a4d1-c0b26ad30635","system_id":"levelo_inurba_marseille","lat":43.28031,"lon":5.36942,"is_reserved":false,"is_disabled":false,"rental_uris":{"android":"levelo://app?vid=c0aa5c7c-fdba-48e0-a4d1-c0b26ad30635","ios":"levelo://app?vid=c0aa5c7c-fdba-48e0-a4d1-c0b26ad30635"},"vehicle_type_id":"4","last_reported":1758269648,"current_range_meters":9600,"station_id":"ce4bha12rcd13ifvqef0","pricing_plan_id":"cebpf4jnsgd1na2vs0mg"},{"bike_id":"7cd98a07-771f-4451-8dd1-f7ed20ecc98e","system_id":"levelo_inurba_marseille","lat":43.23149,"lon":5.4372,"is_reserved":false,"is_disabled":false,"rental_uris":{"android":"levelo://app?vid=7cd98a07-771f-4451-8dd1-f7ed20ecc98e","ios":"levelo://app?vid=7cd98a07-771f-4451-8dd1-f7ed20ecc98e"},"vehicle_type_id":"4","last_reported":1758269648,"current_range_meters":10000,"station_id":"ce4bhmp2rcd13ifvqgog","pricing_plan_id":"cebpf4jnsgd1na2vs0mg"},{"bike_id":"b82f0259-678f-49b8-b7f8-2b64e33c43a1","system_id":"levelo_inurba_marseille","lat":43.29579,"lon":5.36742,"is_reserved":false,"is_disabled":false,"rental_uris":{"android":"levelo://app?vid=b82f0259-678f-49b8-b7f8-2b64e33c43a1","ios":"levelo://app?vid=b82f0259-678f-49b8-b7f8-2b64e33c43a1"},"vehicle_type_id":"4","last_reported":1758269648,"current_range_meters":10000,"station_id":"ce4bgph2rcd13ifvqc2g","pricing_plan_id":"cebpf4jnsgd1na2vs0mg"},{"bike_id":"4cdfe731-dfa9-4871-8741-ce0d359b15db","system_id":"levelo_inurba_marseille","lat":43.29017,"lon":5.38131,"is_reserved":false,"is_disabled":false,"rental_uris":{"android":"levelo://app?vid=4cdfe731-dfa9-4871-8741-ce0d359b15db","ios":"levelo://app?vid=4cdfe731-dfa9-4871-8741-ce0d359b15db"},"vehicle_type_id":"4","last_reported":1758269648,"current_range_meters":10000,"station_id":"ce4bh4p2rcd13ifvqe1g","pricing_plan_id":"cebpf4jnsgd1na2vs0mg"},{"bike_id":"7eff6a69-2c6b-4158-8d95-c2488ba38dff","system_id":"levelo_inurba_marseille","lat":43.31352,"lon":5.38521,"is_reserved":false,"is_disabled":true,"rental_uris":{"android":"levelo://app?vid=7eff6a69-2c6b-4158-8d95-c2488ba38dff","ios":"levelo://app?vid=7eff6a69-2c6b-4158-8d95-c2488ba38dff"},"vehicle_type_id":"4","last_reported":1758269648,"current_range_meters":10000,"station_id":"ce4bgt92rcd13ifvqcf0","pricing_plan_id":"cebpf4jnsgd1na2vs0mg"},{"bike_id":"7bb05219-6e3b-4b0d-8c79-bfc0c25c024c","system_id":"levelo_inurba_marseille","lat":43.30608,"lon":5.3722,"is_reserved":false,"is_disabled":false,"rental_uris":{"android":"levelo://app?vid=7bb05219-6e3b-4b0d-8c79-bfc0c25c024c","ios":"levelo://app?vid=7bb05219-6e3b-4b0d-8c79-bfc0c25c024c"},"vehicle_type_id":"4","last_reported":1758269648,"current_range_meters":10000,"station_id":"ce4bgqh2rcd13ifvqc4g","pricing_plan_id":"cebpf4jnsgd1na2vs0mg"},{"bike_id":"e6f8489d-fe42-4015-a82c-b604c2c8b33e","system_id":"levelo_inurba_marseille","lat":43.29799,"lon":5.36672,"is_reserved":false,"is_disabled":false,"rental_uris":{"android":"levelo://app?vid=e6f8489d-fe42-4015-a82c-b604c2c8b33e","ios":"levelo://app?vid=e6f8489d-fe42-4015-a82c-b604c2c8b33e"},"vehicle_type_id":"4","last_reported":1758269648,"current_range_meters":10000,"station_id":"","pricing_plan_id":"cebpf4jnsgd1na2vs0mg"},{"bike_id":"b5a1936b-d8c8-4ef2-aecb-cdab4c4277b8","system_id":"levelo_inurba_marseille","lat":43.24072,"lon":5.37762,"is_reserved":false,"is_disabled":false,"rental_uris":{"android":"levelo://app?vid=b5a1936b-d8c8-4ef2-aecb-cdab4c4277b8","ios":"levelo://app?vid=b5a1936b-d8c8-4ef2-aecb-cdab4c4277b8"},"vehicle_type_id":"4","last_reported":1758269648,"current_range_meters":10800,"station_id":"ce4bhnp2rcd13ifvqgvg","pricing_plan_id":"cebpf4jnsgd1na2vs0mg"},{"bike_id":"cad97885-b582-49b2-8b83-0a6c3d079fc6","system_id":"levelo_inurba_marseille","lat":43.297018,"lon":5.365873,"is_reserved":false,"is_disabled":false,"rental_uris":{"android":"levelo://app?vid=cad97885-b582-49b2-8b83-0a6c3d079fc6","ios":"levelo://app?vid=cad97885-b582-49b2-8b83-0a6c3d079fc6"},"vehicle_type_id":"4","last_reported":1758269648,"current_range_meters":10800,"station_id":"ce4bgn12rcd13ifvqbt0","pricing_plan_id":"cebpf4jnsgd1na2vs0mg"},{"bike_id":"9eb14fc1-f8ba-4e17-bf87-60337ce5f28f","system_id":"levelo_inurba_marseille","lat":43.29546,"lon":5.37621,"is_reserved":false,"is_disabled":false,"rental_uris":{"android":"levelo://app?vid=9eb14fc1-f8ba-4e17-bf87-60337ce5f28f","ios":"levelo://app?vid=9eb14fc1-f8ba-4e17-bf87-60337ce5f28f"},"vehicle_type_id":"4","last_reported":1758269648,"current_range_meters":10800,"station_id":"","pricing_plan_id":"cebpf4jnsgd1na2vs0mg"},{"bike_id":"be9ee84b-9ec1-497c-800c-5907ad1418ae","system_id":"levelo_inurba_marseille","lat":43.22558,"lon":5.41629,"is_reserved":false,"is_disabled":false,"rental_uris":{"android":"levelo://app?vid=be9ee84b-9ec1-497c-800c-5907ad1418ae","ios":"levelo://app?vid=be9ee84b-9ec1-497c-800c-5907ad1418ae"},"vehicle_type_id":"4","last_reported":1758269648,"current_range_meters":10800,"station_id":"st_d2o4gvlbi1j2169b742g","pricing_plan_id":"cebpf4jnsgd1na2vs0mg"},{"bike_id":"1f2d16d8-43da-4534-932c-2d6027910ada","system_id":"levelo_inurba_marseille","lat":43.27202,"lon":5.3918,"is_reserved":false,"is_disabled":false,"rental_uris":{"android":"levelo://app?vid=1f2d16d8-43da-4534-932c-2d6027910ada","ios":"levelo://app?vid=1f2d16d8-43da-4534-932c-2d6027910ada"},"vehicle_type_id":"4","last_reported":1758269648,"current_range_meters":10800,"station_id":"ce4bhhp2rcd13ifvqfm0","pricing_plan_id":"cebpf4jnsgd1na2vs0mg"},{"bike_id":"94903905-403e-47df-b9f4-0edec49d1874","system_id":"levelo_inurba_marseille","lat":43.2736,"lon":5.42397,"is_reserved":false,"is_disabled":false,"rental_uris":{"android":"levelo://app?vid=94903905-403e-47df-b9f4-0edec49d1874","ios":"levelo://app?vid=94903905-403e-47df-b9f4-0edec49d1874"},"vehicle_type_id":"4","last_reported":1758269648,"current_range_meters":10800,"station_id":"","pricing_plan_id":"cebpf4jnsgd1na2vs0mg"},{"bike_id":"80a9a218-f77f-42ce-8136-b0dceb9fc366","system_id":"levelo_inurba_marseille","lat":43.267867,"lon":5.394102,"is_reserved":false,"is_disabled":false,"rental_uris":{"android":"levelo://app?vid=80a9a218-f77f-42ce-8136-b0dceb9fc366","ios":"levelo://app?vid=80a9a218-f77f-42ce-8136-b0dceb9fc366"},"vehicle_type_id":"4","last_reported":1758269648,"current_range_meters":11200,"station_id":"ce4bhh12rcd13ifvqfg0","pricing_plan_id":"cebpf4jnsgd1na2vs0mg"},{"bike_id":"bff9166b-dfab-4f13-bbd2-3b86b79ec07a","system_id":"levelo_inurba_marseille","lat":43.28409,"lon":5.3498,"is_reserved":false,"is_disabled":false,"rental_uris":{"android":"levelo://app?vid=bff9166b-dfab-4f13-bbd2-3b86b79ec07a","ios":"levelo://app?vid=bff9166b-dfab-4f13-bbd2-3b86b79ec07a"},"vehicle_type_id":"4","last_reported":1758269648,"current_range_meters":10800,"station_id":"ce4bhbh2rcd13ifvqepg","pricing_plan_id":"cebpf4jnsgd1na2vs0mg"},{"bike_id":"a4faa1fd-62ee-404a-aff8-b79ea6b6b5d2","system_id":"levelo_inurba_marseille","lat":43.32986,"lon":5.39245,"is_reserved":false,"is_disabled":false,"rental_uris":{"android":"levelo://app?vid=a4faa1fd-62ee-404a-aff8-b79ea6b6b5d2","ios":"levelo://app?vid=a4faa1fd-62ee-404a-aff8-b79ea6b6b5d2"},"vehicle_type_id":"4","last_reported":1758269648,"current_range_meters":11200,"station_id":"","pricing_plan_id":"cebpf4jnsgd1na2vs0mg"},{"bike_id":"b7b78504-d9fd-430a-8c8b-e893cf1452be","system_id":"levelo_inurba_marseille","lat":43.27192,"lon":5.39172,"is_reserved":false,"is_disabled":false,"rental_uris":{"android":"levelo://app?vid=b7b78504-d9fd-430a-8c8b-e893cf1452be","ios":"levelo://app?vid=b7b78504-d9fd-430a-8c8b-e893cf1452be"},"vehicle_type_id":"4","last_reported":1758269648,"current_range_meters":11200,"station_id":"ce4bhhp2rcd13ifvqfm0","pricing_plan_id":"cebpf4jnsgd1na2vs0mg"},{"bike_id":"c14aa80a-1e18-482f-b51a-1b21cce74564","system_id":"levelo_inurba_marseille","lat":43.24073,"lon":5.37749,"is_reserved":false,"is_disabled":false,"rental_uris":{"android":"levelo://app?vid=c14aa80a-1e18-482f-b51a-1b21cce74564","ios":"levelo://app?vid=c14aa80a-1e18-482f-b51a-1b21cce74564"},"vehicle_type_id":"4","last_reported":1758269648,"current_range_meters":11200,"station_id":"ce4bhnp2rcd13ifvqgvg","pricing_plan_id":"cebpf4jnsgd1na2vs0mg"},{"bike_id":"bed1584b-076b-4655-8924-1f15056146b3","system_id":"levelo_inurba_marseille","lat":43.32361,"lon":5.36721,"is_reserved":false,"is_disabled":false,"rental_uris":{"android":"levelo://app?vid=bed1584b-076b-4655-8924-1f15056146b3","ios":"levelo://app?vid=bed1584b-076b-4655-8924-1f15056146b3"},"vehicle_type_id":"4","last_reported":1758269648,"current_range_meters":11200,"station_id":"ce4bhsh2rcd13ifvqi2g","pricing_plan_id":"cebpf4jnsgd1na2vs0mg"},{"bike_id":"5c5339d3-66d3-4775-b401-7b17c0d8cada","system_id":"levelo_inurba_marseille","lat":43.31345,"lon":5.36706,"is_reserved":false,"is_disabled":false,"rental_uris":{"android":"levelo://app?vid=5c5339d3-66d3-4775-b401-7b17c0d8cada","ios":"levelo://app?vid=5c5339d3-66d3-4775-b401-7b17c0d8cada"},"vehicle_type_id":"4","last_reported":1758269648,"current_range_meters":11200,"station_id":"ce4bgr92rcd13ifvqc6g","pricing_plan_id":"cebpf4jnsgd1na2vs0mg"},{"bike_id":"fa0847a4-8d8b-47a2-9c0d-c16fe7a48c9b","system_id":"levelo_inurba_marseille","lat":43.330285,"lon":5.390556,"is_reserved":false,"is_disabled":false,"rental_uris":{"android":"levelo://app?vid=fa0847a4-8d8b-47a2-9c0d-c16fe7a48c9b","ios":"levelo://app?vid=fa0847a4-8d8b-47a2-9c0d-c16fe7a48c9b"},"vehicle_type_id":"4","last_reported":1758269648,"current_range_meters":11200,"station_id":"","pricing_plan_id":"cebpf4jnsgd1na2vs0mg"},{"bike_id":"1c6fe76d-60d5-4230-a7f8-f8ef02309ce2","system_id":"levelo_inurba_marseille","lat":43.24063,"lon":5.37757,"is_reserved":false,"is_disabled":false,"rental_uris":{"android":"levelo://app?vid=1c6fe76d-60d5-4230-a7f8-f8ef02309ce2","ios":"levelo://app?vid=1c6fe76d-60d5-4230-a7f8-f8ef02309ce2"},"vehicle_type_id":"4","last_reported":1758269648,"current_range_meters":11200,"station_id":"ce4bhnp2rcd13ifvqgvg","pricing_plan_id":"cebpf4jnsgd1na2vs0mg"},{"bike_id":"f2e49732-6a84-44dd-8bcb-da6447440a25","system_id":"levelo_inurba_marseille","lat":43.29301,"lon":5.37452,"is_reserved":false,"is_disabled":false,"rental_uris":{"android":"levelo://app?vid=f2e49732-6a84-44dd-8bcb-da6447440a25","ios":"levelo://app?vid=f2e49732-6a84-44dd-8bcb-da6447440a25"},"vehicle_type_id":"4","last_reported":1758269648,"current_range_meters":11600,"station_id":"ce4bgi12rcd13ifvqb70","pricing_plan_id":"cebpf4jnsgd1na2vs0mg"},{"bike_id":"ba57759b-8745-4f3c-9f8c-6919ac6b64fb","system_id":"levelo_inurba_marseille","lat":43.28979,"lon":5.37846,"is_reserved":false,"is_disabled":false,"rental_uris":{"android":"levelo://app?vid=ba57759b-8745-4f3c-9f8c-6919ac6b64fb","ios":"levelo://app?vid=ba57759b-8745-4f3c-9f8c-6919ac6b64fb"},"vehicle_type_id":"4","last_reported":1758269648,"current_range_meters":11600,"station_id":"ce4bh9p2rcd13ifvqed0","pricing_plan_id":"cebpf4jnsgd1na2vs0mg"},{"bike_id":"e942f984-8fe7-48d1-8f04-3806656b9996","system_id":"levelo_inurba_marseille","lat":43.33596,"lon":5.37955,"is_reserved":false,"is_disabled":false,"rental_uris":{"android":"levelo://app?vid=e942f984-8fe7-48d1-8f04-3806656b9996","ios":"levelo://app?vid=e942f984-8fe7-48d1-8f04-3806656b9996"},"vehicle_type_id":"4","last_reported":1758269648,"current_range_meters":11600,"station_id":"","pricing_plan_id":"cebpf4jnsgd1na2vs0mg"},{"bike_id":"be699bdc-ad49-4b8b-a7a0-77eca3557c70","system_id":"levelo_inurba_marseille","lat":43.32344,"lon":5.3672,"is_reserved":false,"is_disabled":false,"rental_uris":{"android":"levelo://app?vid=be699bdc-ad49-4b8b-a7a0-77eca3557c70","ios":"levelo://app?vid=be699bdc-ad49-4b8b-a7a0-77eca3557c70"},"vehicle_type_id":"4","last_reported":1758269648,"current_range_meters":11600,"station_id":"ce4bhsh2rcd13ifvqi2g","pricing_plan_id":"cebpf4jnsgd1na2vs0mg"},{"bike_id":"718915f9-7b00-42d2-9832-ccb24078eb66","system_id":"levelo_inurba_marseille","lat":43.30891,"lon":5.37198,"is_reserved":false,"is_disabled":false,"rental_uris":{"android":"levelo://app?vid=718915f9-7b00-42d2-9832-ccb24078eb66","ios":"levelo://app?vid=718915f9-7b00-42d2-9832-ccb24078eb66"},"vehicle_type_id":"4","last_reported":1758269648,"current_range_meters":11200,"station_id":"ce4bguh2rcd13ifvqckg","pricing_plan_id":"cebpf4jnsgd1na2vs0mg"},{"bike_id":"22f0687d-25d3-4094-9c4a-293a61e189a6","system_id":"levelo_inurba_marseille","lat":43.2463,"lon":5.39626,"is_reserved":false,"is_disabled":false,"rental_uris":{"android":"levelo://app?vid=22f0687d-25d3-4094-9c4a-293a61e189a6","ios":"levelo://app?vid=22f0687d-25d3-4094-9c4a-293a61e189a6"},"vehicle_type_id":"4","last_reported":1758269648,"current_range_meters":11600,"station_id":"","pricing_plan_id":"cebpf4jnsgd1na2vs0mg"},{"bike_id":"c7aef6b3-35b5-491e-a90f-bfaf42e9b9a1","system_id":"levelo_inurba_marseille","lat":43.33601,"lon":5.41033,"is_reserved":false,"is_disabled":false,"rental_uris":{"android":"levelo://app?vid=c7aef6b3-35b5-491e-a90f-bfaf42e9b9a1","ios":"levelo://app?vid=c7aef6b3-35b5-491e-a90f-bfaf42e9b9a1"},"vehicle_type_id":"4","last_reported":1758269648,"current_range_meters":11600,"station_id":"ce4bhqh2rcd13ifvqhmg","pricing_plan_id":"cebpf4jnsgd1na2vs0mg"},{"bike_id":"8efe7e61-2652-47d7-8629-22ffde0204f9","system_id":"levelo_inurba_marseille","lat":43.34145,"lon":5.409353,"is_reserved":false,"is_disabled":false,"rental_uris":{"android":"levelo://app?vid=8efe7e61-2652-47d7-8629-22ffde0204f9","ios":"levelo://app?vid=8efe7e61-2652-47d7-8629-22ffde0204f9"},"vehicle_type_id":"4","last_reported":1758269648,"current_range_meters":12000,"station_id":"ce4bhqh2rcd13ifvqhlg","pricing_plan_id":"cebpf4jnsgd1na2vs0mg"},{"bike_id":"ed20f1d8-bc72-415d-8a8f-af83da4fa7d9","system_id":"levelo_inurba_marseille","lat":43.33485,"lon":5.36246,"is_reserved":false,"is_disabled":false,"rental_uris":{"android":"levelo://app?vid=ed20f1d8-bc72-415d-8a8f-af83da4fa7d9","ios":"levelo://app?vid=ed20f1d8-bc72-415d-8a8f-af83da4fa7d9"},"vehicle_type_id":"4","last_reported":1758269648,"current_range_meters":12000,"station_id":"","pricing_plan_id":"cebpf4jnsgd1na2vs0mg"},{"bike_id":"89176b7a-039d-45d2-b64f-79e25f22cfd3","system_id":"levelo_inurba_marseille","lat":43.337444,"lon":5.374475,"is_reserved":false,"is_disabled":false,"rental_uris":{"android":"levelo://app?vid=89176b7a-039d-45d2-b64f-79e25f22cfd3","ios":"levelo://app?vid=89176b7a-039d-45d2-b64f-79e25f22cfd3"},"vehicle_type_id":"4","last_reported":1758269648,"current_range_meters":12400,"station_id":"","pricing_plan_id":"cebpf4jnsgd1na2vs0mg"},{"bike_id":"82ff2aa5-7947-4d6a-b628-a72140befcb9","system_id":"levelo_inurba_marseille","lat":43.23149,"lon":5.43717,"is_reserved":false,"is_disabled":false,"rental_uris":{"android":"levelo://app?vid=82ff2aa5-7947-4d6a-b628-a72140befcb9","ios":"levelo://app?vid=82ff2aa5-7947-4d6a-b628-a72140befcb9"},"vehicle_type_id":"4","last_reported":1758269648,"current_range_meters":12400,"station_id":"ce4bhmp2rcd13ifvqgog","pricing_plan_id":"cebpf4jnsgd1na2vs0mg"},{"bike_id":"f1647b5e-b3dc-4a34-900c-c0d87463b02b","system_id":"levelo_inurba_marseille","lat":43.31127,"lon":5.37758,"is_reserved":false,"is_disabled":false,"rental_uris":{"android":"levelo://app?vid=f1647b5e-b3dc-4a34-900c-c0d87463b02b","ios":"levelo://app?vid=f1647b5e-b3dc-4a34-900c-c0d87463b02b"},"vehicle_type_id":"4","last_reported":1758269648,"current_range_meters":12400,"station_id":"ce4bgt92rcd13ifvqcg0","pricing_plan_id":"cebpf4jnsgd1na2vs0mg"},{"bike_id":"f9418cc9-c64d-43d9-9060-3aeedd69cdee","system_id":"levelo_inurba_marseille","lat":43.33069,"lon":5.37857,"is_reserved":false,"is_disabled":false,"rental_uris":{"android":"levelo://app?vid=f9418cc9-c64d-43d9-9060-3aeedd69cdee","ios":"levelo://app?vid=f9418cc9-c64d-43d9-9060-3aeedd69cdee"},"vehicle_type_id":"4","last_reported":1758269648,"current_range_meters":12400,"station_id":"","pricing_plan_id":"cebpf4jnsgd1na2vs0mg"},{"bike_id":"fb78ea42-e26f-45b3-a617-d3474b811b72","system_id":"levelo_inurba_marseille","lat":43.29882,"lon":5.37928,"is_reserved":false,"is_disabled":false,"rental_uris":{"android":"levelo://app?vid=fb78ea42-e26f-45b3-a617-d3474b811b72","ios":"levelo://app?vid=fb78ea42-e26f-45b3-a617-d3474b811b72"},"vehicle_type_id":"4","last_reported":1758269648,"current_range_meters":12800,"station_id":"","pricing_plan_id":"cebpf4jnsgd1na2vs0mg"},{"bike_id":"bb87557f-5eb9-40b5-b3ec-09ab6f6601e9","system_id":"levelo_inurba_marseille","lat":43.29527,"lon":5.37506,"is_reserved":false,"is_disabled":false,"rental_uris":{"android":"levelo://app?vid=bb87557f-5eb9-40b5-b3ec-09ab6f6601e9","ios":"levelo://app?vid=bb87557f-5eb9-40b5-b3ec-09ab6f6601e9"},"vehicle_type_id":"4","last_reported":1758269648,"current_range_meters":12800,"station_id":"ce4bgkp2rcd13ifvqbmg","pricing_plan_id":"cebpf4jnsgd1na2vs0mg"},{"bike_id":"4d31d6a2-5c55-4520-b4f8-6d5088da6969","system_id":"levelo_inurba_marseille","lat":43.30872,"lon":5.39649,"is_reserved":false,"is_disabled":false,"rental_uris":{"android":"levelo://app?vid=4d31d6a2-5c55-4520-b4f8-6d5088da6969","ios":"levelo://app?vid=4d31d6a2-5c55-4520-b4f8-6d5088da6969"},"vehicle_type_id":"4","last_reported":1758269648,"current_range_meters":12400,"station_id":"ce4bh012rcd13ifvqcv0","pricing_plan_id":"cebpf4jnsgd1na2vs0mg"},{"bike_id":"4341df71-11d4-4878-b657-c65b2d88e04c","system_id":"levelo_inurba_marseille","lat":43.24388,"lon":5.37048,"is_reserved":false,"is_disabled":false,"rental_uris":{"android":"levelo://app?vid=4341df71-11d4-4878-b657-c65b2d88e04c","ios":"levelo://app?vid=4341df71-11d4-4878-b657-c65b2d88e04c"},"vehicle_type_id":"4","last_reported":1758269648,"current_range_meters":13600,"station_id":"ce4bhhh2rcd13ifvqfk0","pricing_plan_id":"cebpf4jnsgd1na2vs0mg"},{"bike_id":"9d8b4944-013e-4958-9415-40d7b5ee9701","system_id":"levelo_inurba_marseille","lat":43.3161,"lon":5.38184,"is_reserved":false,"is_disabled":false,"rental_uris":{"android":"levelo://app?vid=9d8b4944-013e-4958-9415-40d7b5ee9701","ios":"levelo://app?vid=9d8b4944-013e-4958-9415-40d7b5ee9701"},"vehicle_type_id":"4","last_reported":1758269648,"current_range_meters":13600,"station_id":"","pricing_plan_id":"cebpf4jnsgd1na2vs0mg"},{"bike_id":"af39a0bc-2d86-451e-9395-4158bb4bccfc","system_id":"levelo_inurba_marseille","lat":43.239627,"lon":5.366278,"is_reserved":false,"is_disabled":false,"rental_uris":{"android":"levelo://app?vid=af39a0bc-2d86-451e-9395-4158bb4bccfc","ios":"levelo://app?vid=af39a0bc-2d86-451e-9395-4158bb4bccfc"},"vehicle_type_id":"4","last_reported":1758269648,"current_range_meters":13600,"station_id":"ce4bhi12rcd13ifvqfp0","pricing_plan_id":"cebpf4jnsgd1na2vs0mg"},{"bike_id":"19f64cae-be91-429b-94d1-510b1793badb","system_id":"levelo_inurba_marseille","lat":43.29799,"lon":5.40386,"is_reserved":false,"is_disabled":false,"rental_uris":{"android":"levelo://app?vid=19f64cae-be91-429b-94d1-510b1793badb","ios":"levelo://app?vid=19f64cae-be91-429b-94d1-510b1793badb"},"vehicle_type_id":"4","last_reported":1758269648,"current_range_meters":13600,"station_id":"ce4bh112rcd13ifvqd90","pricing_plan_id":"cebpf4jnsgd1na2vs0mg"},{"bike_id":"a55caa39-2d4c-4494-95e6-ea3b05e2c1fe","system_id":"levelo_inurba_marseille","lat":43.32468,"lon":5.36575,"is_reserved":false,"is_disabled":false,"rental_uris":{"android":"levelo://app?vid=a55caa39-2d4c-4494-95e6-ea3b05e2c1fe","ios":"levelo://app?vid=a55caa39-2d4c-4494-95e6-ea3b05e2c1fe"},"vehicle_type_id":"4","last_reported":1758269648,"current_range_meters":14000,"station_id":"ce4bhs12rcd13ifvqhvg","pricing_plan_id":"cebpf4jnsgd1na2vs0mg"},{"bike_id":"d4de0e10-26de-4d74-9609-91a2a4571523","system_id":"levelo_inurba_marseille","lat":43.23193,"lon":5.3555,"is_reserved":false,"is_disabled":false,"rental_uris":{"android":"levelo://app?vid=d4de0e10-26de-4d74-9609-91a2a4571523","ios":"levelo://app?vid=d4de0e10-26de-4d74-9609-91a2a4571523"},"vehicle_type_id":"4","last_reported":1758269648,"current_range_meters":14000,"station_id":"ce4bhu92rcd13ifvqi70","pricing_plan_id":"cebpf4jnsgd1na2vs0mg"},{"bike_id":"85b2f184-eabf-4304-911c-4aaceb0860d6","system_id":"levelo_inurba_marseille","lat":43.32376,"lon":5.36775,"is_reserved":false,"is_disabled":false,"rental_uris":{"android":"levelo://app?vid=85b2f184-eabf-4304-911c-4aaceb0860d6","ios":"levelo://app?vid=85b2f184-eabf-4304-911c-4aaceb0860d6"},"vehicle_type_id":"4","last_reported":1758269648,"current_range_meters":14000,"station_id":"ce4bhsh2rcd13ifvqi2g","pricing_plan_id":"cebpf4jnsgd1na2vs0mg"},{"bike_id":"d0800c74-8054-46c5-8886-40d371b2bb58","system_id":"levelo_inurba_marseille","lat":43.29309,"lon":5.37176,"is_reserved":false,"is_disabled":false,"rental_uris":{"android":"levelo://app?vid=d0800c74-8054-46c5-8886-40d371b2bb58","ios":"levelo://app?vid=d0800c74-8054-46c5-8886-40d371b2bb58"},"vehicle_type_id":"4","last_reported":1758269648,"current_range_meters":14000,"station_id":"ce4bgh92rcd13ifvqb40","pricing_plan_id":"cebpf4jnsgd1na2vs0mg"},{"bike_id":"bf6e6d27-c09e-4725-9fbc-20073fd5a515","system_id":"levelo_inurba_marseille","lat":43.289376,"lon":5.396214,"is_reserved":false,"is_disabled":false,"rental_uris":{"android":"levelo://app?vid=bf6e6d27-c09e-4725-9fbc-20073fd5a515","ios":"levelo://app?vid=bf6e6d27-c09e-4725-9fbc-20073fd5a515"},"vehicle_type_id":"4","last_reported":1758269648,"current_range_meters":14000,"station_id":"","pricing_plan_id":"cebpf4jnsgd1na2vs0mg"},{"bike_id":"0960e3dd-c358-4474-bd10-8223758e1f6b","system_id":"levelo_inurba_marseille","lat":43.296996,"lon":5.376855,"is_reserved":false,"is_disabled":false,"rental_uris":{"android":"levelo://app?vid=0960e3dd-c358-4474-bd10-8223758e1f6b","ios":"levelo://app?vid=0960e3dd-c358-4474-bd10-8223758e1f6b"},"vehicle_type_id":"4","last_reported":1758269648,"current_range_meters":14000,"station_id":"","pricing_plan_id":"cebpf4jnsgd1na2vs0mg"},{"bike_id":"abdb25e5-3623-4b64-b82b-dc29ce9d8a68","system_id":"levelo_inurba_marseille","lat":43.32467,"lon":5.36567,"is_reserved":false,"is_disabled":false,"rental_uris":{"android":"levelo://app?vid=abdb25e5-3623-4b64-b82b-dc29ce9d8a68","ios":"levelo://app?vid=abdb25e5-3623-4b64-b82b-dc29ce9d8a68"},"vehicle_type_id":"4","last_reported":1758269648,"current_range_meters":14000,"station_id":"ce4bhs12rcd13ifvqhvg","pricing_plan_id":"cebpf4jnsgd1na2vs0mg"},{"bike_id":"0d9edbf8-e222-4f58-8507-cb6fd06720fd","system_id":"levelo_inurba_marseille","lat":43.2315,"lon":5.43718,"is_reserved":false,"is_disabled":false,"rental_uris":{"android":"levelo://app?vid=0d9edbf8-e222-4f58-8507-cb6fd06720fd","ios":"levelo://app?vid=0d9edbf8-e222-4f58-8507-cb6fd06720fd"},"vehicle_type_id":"4","last_reported":1758269648,"current_range_meters":14000,"station_id":"ce4bhmp2rcd13ifvqgog","pricing_plan_id":"cebpf4jnsgd1na2vs0mg"},{"bike_id":"a3749031-fc87-414b-b1d7-6da84d4f4591","system_id":"levelo_inurba_marseille","lat":43.3014,"lon":5.38781,"is_reserved":false,"is_disabled":false,"rental_uris":{"android":"levelo://app?vid=a3749031-fc87-414b-b1d7-6da84d4f4591","ios":"levelo://app?vid=a3749031-fc87-414b-b1d7-6da84d4f4591"},"vehicle_type_id":"4","last_reported":1758269648,"current_range_meters":14000,"station_id":"ce4bghh2rcd13ifvqb60","pricing_plan_id":"cebpf4jnsgd1na2vs0mg"},{"bike_id":"35d68a0d-01b7-4409-bde5-caad565a8828","system_id":"levelo_inurba_marseille","lat":43.30158,"lon":5.37431,"is_reserved":false,"is_disabled":false,"rental_uris":{"android":"levelo://app?vid=35d68a0d-01b7-4409-bde5-caad565a8828","ios":"levelo://app?vid=35d68a0d-01b7-4409-bde5-caad565a8828"},"vehicle_type_id":"4","last_reported":1758269648,"current_range_meters":14400,"station_id":"ce4bgs92rcd13ifvqcc0","pricing_plan_id":"cebpf4jnsgd1na2vs0mg"},{"bike_id":"7606323b-0e1f-4f0f-b1c6-d6569d2061de","system_id":"levelo_inurba_marseille","lat":43.25932,"lon":5.40907,"is_reserved":false,"is_disabled":false,"rental_uris":{"android":"levelo://app?vid=7606323b-0e1f-4f0f-b1c6-d6569d2061de","ios":"levelo://app?vid=7606323b-0e1f-4f0f-b1c6-d6569d2061de"},"vehicle_type_id":"4","last_reported":1758269648,"current_range_meters":14400,"station_id":"ce4bhm92rcd13ifvqglg","pricing_plan_id":"cebpf4jnsgd1na2vs0mg"},{"bike_id":"423c0fd4-001e-4839-a975-6f9a3cc9d53c","system_id":"levelo_inurba_marseille","lat":43.30603,"lon":5.37224,"is_reserved":false,"is_disabled":false,"rental_uris":{"android":"levelo://app?vid=423c0fd4-001e-4839-a975-6f9a3cc9d53c","ios":"levelo://app?vid=423c0fd4-001e-4839-a975-6f9a3cc9d53c"},"vehicle_type_id":"4","last_reported":1758269648,"current_range_meters":14400,"station_id":"ce4bgqh2rcd13ifvqc4g","pricing_plan_id":"cebpf4jnsgd1na2vs0mg"},{"bike_id":"1fbc944e-6d1f-4b2a-ad0b-f30de7078a23","system_id":"levelo_inurba_marseille","lat":43.29075,"lon":5.37155,"is_reserved":false,"is_disabled":false,"rental_uris":{"android":"levelo://app?vid=1fbc944e-6d1f-4b2a-ad0b-f30de7078a23","ios":"levelo://app?vid=1fbc944e-6d1f-4b2a-ad0b-f30de7078a23"},"vehicle_type_id":"4","last_reported":1758269648,"current_range_meters":14400,"station_id":"ce4bh5p2rcd13ifvqe4g","pricing_plan_id":"cebpf4jnsgd1na2vs0mg"},{"bike_id":"7d924fc9-268a-441c-8040-7bdca2a3852a","system_id":"levelo_inurba_marseille","lat":43.231421,"lon":5.437152,"is_reserved":false,"is_disabled":false,"rental_uris":{"android":"levelo://app?vid=7d924fc9-268a-441c-8040-7bdca2a3852a","ios":"levelo://app?vid=7d924fc9-268a-441c-8040-7bdca2a3852a"},"vehicle_type_id":"4","last_reported":1758269648,"current_range_meters":14000,"station_id":"ce4bhmp2rcd13ifvqgog","pricing_plan_id":"cebpf4jnsgd1na2vs0mg"},{"bike_id":"426a0d4f-1906-4980-b10e-dc011b38a421","system_id":"levelo_inurba_marseille","lat":43.32363,"lon":5.38886,"is_reserved":false,"is_disabled":false,"rental_uris":{"android":"levelo://app?vid=426a0d4f-1906-4980-b10e-dc011b38a421","ios":"levelo://app?vid=426a0d4f-1906-4980-b10e-dc011b38a421"},"vehicle_type_id":"4","last_reported":1758269648,"current_range_meters":14800,"station_id":"ce4bhqp2rcd13ifvqhog","pricing_plan_id":"cebpf4jnsgd1na2vs0mg"},{"bike_id":"c52abb94-5b85-4197-8121-bf0f477c7924","system_id":"levelo_inurba_marseille","lat":43.333009,"lon":5.410255,"is_reserved":false,"is_disabled":false,"rental_uris":{"android":"levelo://app?vid=c52abb94-5b85-4197-8121-bf0f477c7924","ios":"levelo://app?vid=c52abb94-5b85-4197-8121-bf0f477c7924"},"vehicle_type_id":"4","last_reported":1758269648,"current_range_meters":14800,"station_id":"","pricing_plan_id":"cebpf4jnsgd1na2vs0mg"},{"bike_id":"f42d6184-5a89-47c2-a265-d290dd8607d6","system_id":"levelo_inurba_marseille","lat":43.30941,"lon":5.401747,"is_reserved":false,"is_disabled":false,"rental_uris":{"android":"levelo://app?vid=f42d6184-5a89-47c2-a265-d290dd8607d6","ios":"levelo://app?vid=f42d6184-5a89-47c2-a265-d290dd8607d6"},"vehicle_type_id":"4","last_reported":1758269648,"current_range_meters":14800,"station_id":"ce4bgvp2rcd13ifvqct0","pricing_plan_id":"cebpf4jnsgd1na2vs0mg"},{"bike_id":"a0cb40db-0501-4f8a-b155-e0ce329c239d","system_id":"levelo_inurba_marseille","lat":43.29845,"lon":5.36273,"is_reserved":false,"is_disabled":false,"rental_uris":{"android":"levelo://app?vid=a0cb40db-0501-4f8a-b155-e0ce329c239d","ios":"levelo://app?vid=a0cb40db-0501-4f8a-b155-e0ce329c239d"},"vehicle_type_id":"4","last_reported":1758269648,"current_range_meters":15200,"station_id":"ce4bgpp2rcd13ifvqc3g","pricing_plan_id":"cebpf4jnsgd1na2vs0mg"},{"bike_id":"8ec05b67-eac1-47c5-bea0-c0d0cb07649e","system_id":"levelo_inurba_marseille","lat":43.31119,"lon":5.37772,"is_reserved":false,"is_disabled":false,"rental_uris":{"android":"levelo://app?vid=8ec05b67-eac1-47c5-bea0-c0d0cb07649e","ios":"levelo://app?vid=8ec05b67-eac1-47c5-bea0-c0d0cb07649e"},"vehicle_type_id":"4","last_reported":1758269648,"current_range_meters":15200,"station_id":"ce4bgt92rcd13ifvqcg0","pricing_plan_id":"cebpf4jnsgd1na2vs0mg"},{"bike_id":"9c0693b2-33f4-40d9-85fa-754a770a9d54","system_id":"levelo_inurba_marseille","lat":43.295188,"lon":5.390328,"is_reserved":false,"is_disabled":false,"rental_uris":{"android":"levelo://app?vid=9c0693b2-33f4-40d9-85fa-754a770a9d54","ios":"levelo://app?vid=9c0693b2-33f4-40d9-85fa-754a770a9d54"},"vehicle_type_id":"4","last_reported":1758269648,"current_range_meters":15200,"station_id":"ce4bh312rcd13ifvqdj0","pricing_plan_id":"cebpf4jnsgd1na2vs0mg"},{"bike_id":"438ead59-de14-4fa0-a61d-03a70a4122ae","system_id":"levelo_inurba_marseille","lat":43.317567,"lon":5.383145,"is_reserved":false,"is_disabled":true,"rental_uris":{"android":"levelo://app?vid=438ead59-de14-4fa0-a61d-03a70a4122ae","ios":"levelo://app?vid=438ead59-de14-4fa0-a61d-03a70a4122ae"},"vehicle_type_id":"4","last_reported":1758269648,"current_range_meters":15200,"station_id":"","pricing_plan_id":"cebpf4jnsgd1na2vs0mg"},{"bike_id":"703475ee-3854-4f59-822d-a7bdb11b43d0","system_id":"levelo_inurba_marseille","lat":43.32479,"lon":5.36616,"is_reserved":false,"is_disabled":false,"rental_uris":{"android":"levelo://app?vid=703475ee-3854-4f59-822d-a7bdb11b43d0","ios":"levelo://app?vid=703475ee-3854-4f59-822d-a7bdb11b43d0"},"vehicle_type_id":"4","last_reported":1758269648,"current_range_meters":16000,"station_id":"ce4bhs12rcd13ifvqhvg","pricing_plan_id":"cebpf4jnsgd1na2vs0mg"},{"bike_id":"a1759435-7c8c-454b-b3b7-2dee821a2bbd","system_id":"levelo_inurba_marseille","lat":43.24179,"lon":5.39726,"is_reserved":false,"is_disabled":false,"rental_uris":{"android":"levelo://app?vid=a1759435-7c8c-454b-b3b7-2dee821a2bbd","ios":"levelo://app?vid=a1759435-7c8c-454b-b3b7-2dee821a2bbd"},"vehicle_type_id":"4","last_reported":1758269648,"current_range_meters":16000,"station_id":"ce4bhn12rcd13ifvqgpg","pricing_plan_id":"cebpf4jnsgd1na2vs0mg"},{"bike_id":"7df5983d-afc7-4c15-a3e6-ba7d41a736f9","system_id":"levelo_inurba_marseille","lat":43.24514,"lon":5.3735,"is_reserved":false,"is_disabled":true,"rental_uris":{"android":"levelo://app?vid=7df5983d-afc7-4c15-a3e6-ba7d41a736f9","ios":"levelo://app?vid=7df5983d-afc7-4c15-a3e6-ba7d41a736f9"},"vehicle_type_id":"4","last_reported":1758269648,"current_range_meters":16000,"station_id":"","pricing_plan_id":"cebpf4jnsgd1na2vs0mg"},{"bike_id":"1e49be67-046c-490d-bed5-acacb7818ce7","system_id":"levelo_inurba_marseille","lat":43.231482,"lon":5.437218,"is_reserved":false,"is_disabled":false,"rental_uris":{"android":"levelo://app?vid=1e49be67-046c-490d-bed5-acacb7818ce7","ios":"levelo://app?vid=1e49be67-046c-490d-bed5-acacb7818ce7"},"vehicle_type_id":"4","last_reported":1758269648,"current_range_meters":16000,"station_id":"ce4bhmp2rcd13ifvqgog","pricing_plan_id":"cebpf4jnsgd1na2vs0mg"},{"bike_id":"3bc55b74-eb07-4466-8bdc-16723c3f40c8","system_id":"levelo_inurba_marseille","lat":43.26571,"lon":5.39395,"is_reserved":false,"is_disabled":false,"rental_uris":{"android":"levelo://app?vid=3bc55b74-eb07-4466-8bdc-16723c3f40c8","ios":"levelo://app?vid=3bc55b74-eb07-4466-8bdc-16723c3f40c8"},"vehicle_type_id":"4","last_reported":1758269648,"current_range_meters":16400,"station_id":"","pricing_plan_id":"cebpf4jnsgd1na2vs0mg"},{"bike_id":"73d02e95-e5a4-4300-aaf4-5842cc070637","system_id":"levelo_inurba_marseille","lat":43.2847,"lon":5.38434,"is_reserved":false,"is_disabled":true,"rental_uris":{"android":"levelo://app?vid=73d02e95-e5a4-4300-aaf4-5842cc070637","ios":"levelo://app?vid=73d02e95-e5a4-4300-aaf4-5842cc070637"},"vehicle_type_id":"4","last_reported":1758269648,"current_range_meters":16400,"station_id":"ce4bh512rcd13ifvqe3g","pricing_plan_id":"cebpf4jnsgd1na2vs0mg"},{"bike_id":"f85a8c4d-f9d0-4136-9b57-8bfb28db950c","system_id":"levelo_inurba_marseille","lat":43.31883,"lon":5.3743,"is_reserved":false,"is_disabled":false,"rental_uris":{"android":"levelo://app?vid=f85a8c4d-f9d0-4136-9b57-8bfb28db950c","ios":"levelo://app?vid=f85a8c4d-f9d0-4136-9b57-8bfb28db950c"},"vehicle_type_id":"4","last_reported":1758269648,"current_range_meters":16400,"station_id":"","pricing_plan_id":"cebpf4jnsgd1na2vs0mg"},{"bike_id":"3f1be6fc-bfb7-40d0-ba0c-e5c1ead152b4","system_id":"levelo_inurba_marseille","lat":43.28602,"lon":5.38422,"is_reserved":false,"is_disabled":true,"rental_uris":{"android":"levelo://app?vid=3f1be6fc-bfb7-40d0-ba0c-e5c1ead152b4","ios":"levelo://app?vid=3f1be6fc-bfb7-40d0-ba0c-e5c1ead152b4"},"vehicle_type_id":"4","last_reported":1758269648,"current_range_meters":16400,"station_id":"","pricing_plan_id":"cebpf4jnsgd1na2vs0mg"},{"bike_id":"b1aea033-d9a7-44a7-8a23-2e263bbc1dee","system_id":"levelo_inurba_marseille","lat":43.30455,"lon":5.36671,"is_reserved":false,"is_disabled":false,"rental_uris":{"android":"levelo://app?vid=b1aea033-d9a7-44a7-8a23-2e263bbc1dee","ios":"levelo://app?vid=b1aea033-d9a7-44a7-8a23-2e263bbc1dee"},"vehicle_type_id":"4","last_reported":1758269648,"current_range_meters":16400,"station_id":"","pricing_plan_id":"cebpf4jnsgd1na2vs0mg"},{"bike_id":"40646b6d-992c-4d14-b0f8-6c16472024c2","system_id":"levelo_inurba_marseille","lat":43.21745,"lon":5.34598,"is_reserved":false,"is_disabled":false,"rental_uris":{"android":"levelo://app?vid=40646b6d-992c-4d14-b0f8-6c16472024c2","ios":"levelo://app?vid=40646b6d-992c-4d14-b0f8-6c16472024c2"},"vehicle_type_id":"4","last_reported":1758269648,"current_range_meters":16400,"station_id":"","pricing_plan_id":"cebpf4jnsgd1na2vs0mg"},{"bike_id":"26b43886-fa77-4bdc-88cd-18b348cfd5a1","system_id":"levelo_inurba_marseille","lat":43.24176,"lon":5.39728,"is_reserved":false,"is_disabled":false,"rental_uris":{"android":"levelo://app?vid=26b43886-fa77-4bdc-88cd-18b348cfd5a1","ios":"levelo://app?vid=26b43886-fa77-4bdc-88cd-18b348cfd5a1"},"vehicle_type_id":"4","last_reported":1758269648,"current_range_meters":16400,"station_id":"ce4bhn12rcd13ifvqgpg","pricing_plan_id":"cebpf4jnsgd1na2vs0mg"},{"bike_id":"518eef5b-9e3c-4b06-94a9-56e70af9d262","system_id":"levelo_inurba_marseille","lat":43.30811,"lon":5.38157,"is_reserved":false,"is_disabled":true,"rental_uris":{"android":"levelo://app?vid=518eef5b-9e3c-4b06-94a9-56e70af9d262","ios":"levelo://app?vid=518eef5b-9e3c-4b06-94a9-56e70af9d262"},"vehicle_type_id":"4","last_reported":1758269648,"current_range_meters":16400,"station_id":"ce4bgt12rcd13ifvqce0","pricing_plan_id":"cebpf4jnsgd1na2vs0mg"},{"bike_id":"a5b16399-9a20-4b46-8928-debc37ec2a7b","system_id":"levelo_inurba_marseille","lat":43.270587,"lon":5.402527,"is_reserved":false,"is_disabled":false,"rental_uris":{"android":"levelo://app?vid=a5b16399-9a20-4b46-8928-debc37ec2a7b","ios":"levelo://app?vid=a5b16399-9a20-4b46-8928-debc37ec2a7b"},"vehicle_type_id":"4","last_reported":1758269648,"current_range_meters":16800,"station_id":"ce4bhk92rcd13ifvqgc0","pricing_plan_id":"cebpf4jnsgd1na2vs0mg"},{"bike_id":"28a15100-f19b-4439-8cf8-d40546960916","system_id":"levelo_inurba_marseille","lat":43.27206,"lon":5.39172,"is_reserved":false,"is_disabled":false,"rental_uris":{"android":"levelo://app?vid=28a15100-f19b-4439-8cf8-d40546960916","ios":"levelo://app?vid=28a15100-f19b-4439-8cf8-d40546960916"},"vehicle_type_id":"4","last_reported":1758269648,"current_range_meters":17200,"station_id":"ce4bhhp2rcd13ifvqfm0","pricing_plan_id":"cebpf4jnsgd1na2vs0mg"},{"bike_id":"b083180e-5270-4d54-ac91-583447fb356e","system_id":"levelo_inurba_marseille","lat":43.26556,"lon":5.37281,"is_reserved":false,"is_disabled":false,"rental_uris":{"android":"levelo://app?vid=b083180e-5270-4d54-ac91-583447fb356e","ios":"levelo://app?vid=b083180e-5270-4d54-ac91-583447fb356e"},"vehicle_type_id":"4","last_reported":1758269648,"current_range_meters":17200,"station_id":"ce4bhgp2rcd13ifvqfc0","pricing_plan_id":"cebpf4jnsgd1na2vs0mg"},{"bike_id":"835975a0-27c7-47e7-bc1c-b8ba0b505127","system_id":"levelo_inurba_marseille","lat":43.32581,"lon":5.3779,"is_reserved":false,"is_disabled":false,"rental_uris":{"android":"levelo://app?vid=835975a0-27c7-47e7-bc1c-b8ba0b505127","ios":"levelo://app?vid=835975a0-27c7-47e7-bc1c-b8ba0b505127"},"vehicle_type_id":"4","last_reported":1758269648,"current_range_meters":17200,"station_id":"","pricing_plan_id":"cebpf4jnsgd1na2vs0mg"},{"bike_id":"6c2c7fc8-53c9-4e73-8e20-f193590dbe08","system_id":"levelo_inurba_marseille","lat":43.25924,"lon":5.40913,"is_reserved":false,"is_disabled":false,"rental_uris":{"android":"levelo://app?vid=6c2c7fc8-53c9-4e73-8e20-f193590dbe08","ios":"levelo://app?vid=6c2c7fc8-53c9-4e73-8e20-f193590dbe08"},"vehicle_type_id":"4","last_reported":1758269648,"current_range_meters":17600,"station_id":"ce4bhm92rcd13ifvqglg","pricing_plan_id":"cebpf4jnsgd1na2vs0mg"},{"bike_id":"c4706891-6ce1-4440-91ff-a3ecf2ff007e","system_id":"levelo_inurba_marseille","lat":43.26374,"lon":5.40075,"is_reserved":false,"is_disabled":false,"rental_uris":{"android":"levelo://app?vid=c4706891-6ce1-4440-91ff-a3ecf2ff007e","ios":"levelo://app?vid=c4706891-6ce1-4440-91ff-a3ecf2ff007e"},"vehicle_type_id":"4","last_reported":1758269648,"current_range_meters":17600,"station_id":"","pricing_plan_id":"cebpf4jnsgd1na2vs0mg"},{"bike_id":"f2d3e12d-5354-4469-a6e7-bfb2047cbcf4","system_id":"levelo_inurba_marseille","lat":43.290373,"lon":5.399623,"is_reserved":false,"is_disabled":false,"rental_uris":{"android":"levelo://app?vid=f2d3e12d-5354-4469-a6e7-bfb2047cbcf4","ios":"levelo://app?vid=f2d3e12d-5354-4469-a6e7-bfb2047cbcf4"},"vehicle_type_id":"4","last_reported":1758269648,"current_range_meters":18800,"station_id":"ce4bh392rcd13ifvqdm0","pricing_plan_id":"cebpf4jnsgd1na2vs0mg"},{"bike_id":"445fcaa8-1878-47eb-b033-a3a669fb7efe","system_id":"levelo_inurba_marseille","lat":43.31462,"lon":5.37036,"is_reserved":false,"is_disabled":false,"rental_uris":{"android":"levelo://app?vid=445fcaa8-1878-47eb-b033-a3a669fb7efe","ios":"levelo://app?vid=445fcaa8-1878-47eb-b033-a3a669fb7efe"},"vehicle_type_id":"4","last_reported":1758269648,"current_range_meters":18000,"station_id":"","pricing_plan_id":"cebpf4jnsgd1na2vs0mg"},{"bike_id":"772854de-37b6-4c56-a37b-960fa67c7d4f","system_id":"levelo_inurba_marseille","lat":43.29306,"lon":5.37177,"is_reserved":false,"is_disabled":false,"rental_uris":{"android":"levelo://app?vid=772854de-37b6-4c56-a37b-960fa67c7d4f","ios":"levelo://app?vid=772854de-37b6-4c56-a37b-960fa67c7d4f"},"vehicle_type_id":"4","last_reported":1758269648,"current_range_meters":18000,"station_id":"ce4bgh92rcd13ifvqb40","pricing_plan_id":"cebpf4jnsgd1na2vs0mg"},{"bike_id":"b3f805f4-32c0-40f7-919f-c3ce034b9afc","system_id":"levelo_inurba_marseille","lat":43.24058,"lon":5.37765,"is_reserved":false,"is_disabled":false,"rental_uris":{"android":"levelo://app?vid=b3f805f4-32c0-40f7-919f-c3ce034b9afc","ios":"levelo://app?vid=b3f805f4-32c0-40f7-919f-c3ce034b9afc"},"vehicle_type_id":"4","last_reported":1758269648,"current_range_meters":18000,"station_id":"ce4bhnp2rcd13ifvqgvg","pricing_plan_id":"cebpf4jnsgd1na2vs0mg"},{"bike_id":"33818846-0d25-4edd-ac89-ec4366db7dd2","system_id":"levelo_inurba_marseille","lat":43.30885,"lon":5.37194,"is_reserved":false,"is_disabled":false,"rental_uris":{"android":"levelo://app?vid=33818846-0d25-4edd-ac89-ec4366db7dd2","ios":"levelo://app?vid=33818846-0d25-4edd-ac89-ec4366db7dd2"},"vehicle_type_id":"4","last_reported":1758269648,"current_range_meters":17600,"station_id":"ce4bguh2rcd13ifvqckg","pricing_plan_id":"cebpf4jnsgd1na2vs0mg"},{"bike_id":"43d57fd4-047e-4ac8-97e5-ec9b96239472","system_id":"levelo_inurba_marseille","lat":43.32942,"lon":5.39128,"is_reserved":false,"is_disabled":false,"rental_uris":{"android":"levelo://app?vid=43d57fd4-047e-4ac8-97e5-ec9b96239472","ios":"levelo://app?vid=43d57fd4-047e-4ac8-97e5-ec9b96239472"},"vehicle_type_id":"4","last_reported":1758269648,"current_range_meters":18000,"station_id":"","pricing_plan_id":"cebpf4jnsgd1na2vs0mg"},{"bike_id":"f042c047-3fc7-4c7a-a9dd-66d0c5c72370","system_id":"levelo_inurba_marseille","lat":43.317135,"lon":5.377143,"is_reserved":false,"is_disabled":true,"rental_uris":{"android":"levelo://app?vid=f042c047-3fc7-4c7a-a9dd-66d0c5c72370","ios":"levelo://app?vid=f042c047-3fc7-4c7a-a9dd-66d0c5c72370"},"vehicle_type_id":"4","last_reported":1758269648,"current_range_meters":18000,"station_id":"ce4bgth2rcd13ifvqch0","pricing_plan_id":"cebpf4jnsgd1na2vs0mg"},{"bike_id":"e88386b8-7aca-418e-890a-a1ac409a820e","system_id":"levelo_inurba_marseille","lat":43.25936,"lon":5.40895,"is_reserved":false,"is_disabled":false,"rental_uris":{"android":"levelo://app?vid=e88386b8-7aca-418e-890a-a1ac409a820e","ios":"levelo://app?vid=e88386b8-7aca-418e-890a-a1ac409a820e"},"vehicle_type_id":"4","last_reported":1758269648,"current_range_meters":18000,"station_id":"ce4bhm92rcd13ifvqglg","pricing_plan_id":"cebpf4jnsgd1na2vs0mg"},{"bike_id":"a4449944-05e1-4ff0-a8f6-77a49e97e05f","system_id":"levelo_inurba_marseille","lat":43.30913,"lon":5.36838,"is_reserved":false,"is_disabled":false,"rental_uris":{"android":"levelo://app?vid=a4449944-05e1-4ff0-a8f6-77a49e97e05f","ios":"levelo://app?vid=a4449944-05e1-4ff0-a8f6-77a49e97e05f"},"vehicle_type_id":"4","last_reported":1758269648,"current_range_meters":18800,"station_id":"ce4bgn92rcd13ifvqbvg","pricing_plan_id":"cebpf4jnsgd1na2vs0mg"},{"bike_id":"af92115d-6f7a-49ce-a65e-77f9182df835","system_id":"levelo_inurba_marseille","lat":43.21748,"lon":5.34621,"is_reserved":false,"is_disabled":true,"rental_uris":{"android":"levelo://app?vid=af92115d-6f7a-49ce-a65e-77f9182df835","ios":"levelo://app?vid=af92115d-6f7a-49ce-a65e-77f9182df835"},"vehicle_type_id":"4","last_reported":1758269648,"current_range_meters":18800,"station_id":"st_cvj6r9ubvosntc0bgbag","pricing_plan_id":"cebpf4jnsgd1na2vs0mg"},{"bike_id":"fb43276c-23a7-4135-b7a0-a9bc26a44868","system_id":"levelo_inurba_marseille","lat":43.28943,"lon":5.3964,"is_reserved":false,"is_disabled":true,"rental_uris":{"android":"levelo://app?vid=fb43276c-23a7-4135-b7a0-a9bc26a44868","ios":"levelo://app?vid=fb43276c-23a7-4135-b7a0-a9bc26a44868"},"vehicle_type_id":"4","last_reported":1758269648,"current_range_meters":18800,"station_id":"ce4bh3h2rcd13ifvqdn0","pricing_plan_id":"cebpf4jnsgd1na2vs0mg"},{"bike_id":"af0490b6-c1c9-4895-8a15-568d23e0a730","system_id":"levelo_inurba_marseille","lat":43.28066,"lon":5.40777,"is_reserved":false,"is_disabled":false,"rental_uris":{"android":"levelo://app?vid=af0490b6-c1c9-4895-8a15-568d23e0a730","ios":"levelo://app?vid=af0490b6-c1c9-4895-8a15-568d23e0a730"},"vehicle_type_id":"4","last_reported":1758269648,"current_range_meters":18800,"station_id":"","pricing_plan_id":"cebpf4jnsgd1na2vs0mg"},{"bike_id":"55d1bc08-fd54-4a82-afc7-2adcaa7b1c4e","system_id":"levelo_inurba_marseille","lat":43.30008,"lon":5.37717,"is_reserved":false,"is_disabled":false,"rental_uris":{"android":"levelo://app?vid=55d1bc08-fd54-4a82-afc7-2adcaa7b1c4e","ios":"levelo://app?vid=55d1bc08-fd54-4a82-afc7-2adcaa7b1c4e"},"vehicle_type_id":"4","last_reported":1758269648,"current_range_meters":18800,"station_id":"","pricing_plan_id":"cebpf4jnsgd1na2vs0mg"},{"bike_id":"eed63ad6-bea5-438c-b4a8-01b88c2fcbbc","system_id":"levelo_inurba_marseille","lat":43.25948,"lon":5.40901,"is_reserved":false,"is_disabled":false,"rental_uris":{"android":"levelo://app?vid=eed63ad6-bea5-438c-b4a8-01b88c2fcbbc","ios":"levelo://app?vid=eed63ad6-bea5-438c-b4a8-01b88c2fcbbc"},"vehicle_type_id":"4","last_reported":1758269648,"current_range_meters":18800,"station_id":"ce4bhm92rcd13ifvqglg","pricing_plan_id":"cebpf4jnsgd1na2vs0mg"},{"bike_id":"ee479808-ccf7-496d-a474-890938802a78","system_id":"levelo_inurba_marseille","lat":43.27206,"lon":5.39186,"is_reserved":false,"is_disabled":false,"rental_uris":{"android":"levelo://app?vid=ee479808-ccf7-496d-a474-890938802a78","ios":"levelo://app?vid=ee479808-ccf7-496d-a474-890938802a78"},"vehicle_type_id":"4","last_reported":1758269648,"current_range_meters":18800,"station_id":"ce4bhhp2rcd13ifvqfm0","pricing_plan_id":"cebpf4jnsgd1na2vs0mg"},{"bike_id":"a826ad86-657e-471a-9f88-068a8cb0ac1f","system_id":"levelo_inurba_marseille","lat":43.28175,"lon":5.42626,"is_reserved":false,"is_disabled":true,"rental_uris":{"android":"levelo://app?vid=a826ad86-657e-471a-9f88-068a8cb0ac1f","ios":"levelo://app?vid=a826ad86-657e-471a-9f88-068a8cb0ac1f"},"vehicle_type_id":"4","last_reported":1758269648,"current_range_meters":18800,"station_id":"ce4bhnh2rcd13ifvqgug","pricing_plan_id":"cebpf4jnsgd1na2vs0mg"},{"bike_id":"ebdf1a71-6961-4d5f-9e77-d7ffd520c7a2","system_id":"levelo_inurba_marseille","lat":43.33597,"lon":5.41016,"is_reserved":false,"is_disabled":false,"rental_uris":{"android":"levelo://app?vid=ebdf1a71-6961-4d5f-9e77-d7ffd520c7a2","ios":"levelo://app?vid=ebdf1a71-6961-4d5f-9e77-d7ffd520c7a2"},"vehicle_type_id":"4","last_reported":1758269648,"current_range_meters":11200,"station_id":"ce4bhqh2rcd13ifvqhmg","pricing_plan_id":"cebpf4jnsgd1na2vs0mg"},{"bike_id":"b810ec46-97ab-4356-95f9-0c9d02506d5a","system_id":"levelo_inurba_marseille","lat":43.24458,"lon":5.39039,"is_reserved":false,"is_disabled":false,"rental_uris":{"android":"levelo://app?vid=b810ec46-97ab-4356-95f9-0c9d02506d5a","ios":"levelo://app?vid=b810ec46-97ab-4356-95f9-0c9d02506d5a"},"vehicle_type_id":"4","last_reported":1758269648,"current_range_meters":19200,"station_id":"","pricing_plan_id":"cebpf4jnsgd1na2vs0mg"},{"bike_id":"a181ceb0-92f4-48b4-a7f7-5531b131e2c2","system_id":"levelo_inurba_marseille","lat":43.28852,"lon":5.3931,"is_reserved":false,"is_disabled":false,"rental_uris":{"android":"levelo://app?vid=a181ceb0-92f4-48b4-a7f7-5531b131e2c2","ios":"levelo://app?vid=a181ceb0-92f4-48b4-a7f7-5531b131e2c2"},"vehicle_type_id":"4","last_reported":1758269648,"current_range_meters":19200,"station_id":"ce4bh2p2rcd13ifvqdi0","pricing_plan_id":"cebpf4jnsgd1na2vs0mg"},{"bike_id":"106faa18-a231-4308-b258-fff5bbcfbb35","system_id":"levelo_inurba_marseille","lat":43.286964,"lon":5.399769,"is_reserved":false,"is_disabled":false,"rental_uris":{"android":"levelo://app?vid=106faa18-a231-4308-b258-fff5bbcfbb35","ios":"levelo://app?vid=106faa18-a231-4308-b258-fff5bbcfbb35"},"vehicle_type_id":"4","last_reported":1758269648,"current_range_meters":19200,"station_id":"ce4bho92rcd13ifvqh3g","pricing_plan_id":"cebpf4jnsgd1na2vs0mg"},{"bike_id":"3d158a28-bece-4b10-9f82-ab3eb3313408","system_id":"levelo_inurba_marseille","lat":43.337485,"lon":5.374512,"is_reserved":false,"is_disabled":false,"rental_uris":{"android":"levelo://app?vid=3d158a28-bece-4b10-9f82-ab3eb3313408","ios":"levelo://app?vid=3d158a28-bece-4b10-9f82-ab3eb3313408"},"vehicle_type_id":"4","last_reported":1758269648,"current_range_meters":19200,"station_id":"","pricing_plan_id":"cebpf4jnsgd1na2vs0mg"},{"bike_id":"969e50c3-a6fa-49a2-8381-35f10a15b038","system_id":"levelo_inurba_marseille","lat":43.22569,"lon":5.41629,"is_reserved":false,"is_disabled":false,"rental_uris":{"android":"levelo://app?vid=969e50c3-a6fa-49a2-8381-35f10a15b038","ios":"levelo://app?vid=969e50c3-a6fa-49a2-8381-35f10a15b038"},"vehicle_type_id":"4","last_reported":1758269648,"current_range_meters":19200,"station_id":"st_d2o4gvlbi1j2169b742g","pricing_plan_id":"cebpf4jnsgd1na2vs0mg"},{"bike_id":"2981461f-37a3-4153-b773-66deeff4ba14","system_id":"levelo_inurba_marseille","lat":43.26952,"lon":5.38631,"is_reserved":false,"is_disabled":false,"rental_uris":{"android":"levelo://app?vid=2981461f-37a3-4153-b773-66deeff4ba14","ios":"levelo://app?vid=2981461f-37a3-4153-b773-66deeff4ba14"},"vehicle_type_id":"4","last_reported":1758269648,"current_range_meters":20000,"station_id":"ce4bhh92rcd13ifvqfh0","pricing_plan_id":"cebpf4jnsgd1na2vs0mg"},{"bike_id":"0f7caa9f-1d1a-40d7-9b4a-2f8720e63681","system_id":"levelo_inurba_marseille","lat":43.30857,"lon":5.37494,"is_reserved":false,"is_disabled":false,"rental_uris":{"android":"levelo://app?vid=0f7caa9f-1d1a-40d7-9b4a-2f8720e63681","ios":"levelo://app?vid=0f7caa9f-1d1a-40d7-9b4a-2f8720e63681"},"vehicle_type_id":"4","last_reported":1758269648,"current_range_meters":19600,"station_id":"","pricing_plan_id":"cebpf4jnsgd1na2vs0mg"},{"bike_id":"faf2e67b-946d-4fb4-b9a5-aa709cd3f3ab","system_id":"levelo_inurba_marseille","lat":43.2803,"lon":5.36954,"is_reserved":false,"is_disabled":false,"rental_uris":{"android":"levelo://app?vid=faf2e67b-946d-4fb4-b9a5-aa709cd3f3ab","ios":"levelo://app?vid=faf2e67b-946d-4fb4-b9a5-aa709cd3f3ab"},"vehicle_type_id":"4","last_reported":1758269648,"current_range_meters":19600,"station_id":"ce4bha12rcd13ifvqef0","pricing_plan_id":"cebpf4jnsgd1na2vs0mg"},{"bike_id":"11edcca3-db83-4d43-a183-5fd0028a9d2f","system_id":"levelo_inurba_marseille","lat":43.30633,"lon":5.37203,"is_reserved":false,"is_disabled":false,"rental_uris":{"android":"levelo://app?vid=11edcca3-db83-4d43-a183-5fd0028a9d2f","ios":"levelo://app?vid=11edcca3-db83-4d43-a183-5fd0028a9d2f"},"vehicle_type_id":"4","last_reported":1758269648,"current_range_meters":19600,"station_id":"ce4bgqh2rcd13ifvqc4g","pricing_plan_id":"cebpf4jnsgd1na2vs0mg"},{"bike_id":"016479c8-adb3-4e9f-91ab-63dde4601175","system_id":"levelo_inurba_marseille","lat":43.2979,"lon":5.3812,"is_reserved":false,"is_disabled":true,"rental_uris":{"android":"levelo://app?vid=016479c8-adb3-4e9f-91ab-63dde4601175","ios":"levelo://app?vid=016479c8-adb3-4e9f-91ab-63dde4601175"},"vehicle_type_id":"4","last_reported":1758269648,"current_range_meters":19600,"station_id":"ce4bgip2rcd13ifvqbb0","pricing_plan_id":"cebpf4jnsgd1na2vs0mg"},{"bike_id":"6e5fbf7e-9be6-491b-afa5-8392769bcea2","system_id":"levelo_inurba_marseille","lat":43.31394,"lon":5.36694,"is_reserved":false,"is_disabled":false,"rental_uris":{"android":"levelo://app?vid=6e5fbf7e-9be6-491b-afa5-8392769bcea2","ios":"levelo://app?vid=6e5fbf7e-9be6-491b-afa5-8392769bcea2"},"vehicle_type_id":"4","last_reported":1758269648,"current_range_meters":19600,"station_id":"","pricing_plan_id":"cebpf4jnsgd1na2vs0mg"},{"bike_id":"cd5b6b01-990b-45d2-ab26-2fb6ba46f4bd","system_id":"levelo_inurba_marseille","lat":43.24169,"lon":5.39735,"is_reserved":false,"is_disabled":false,"rental_uris":{"android":"levelo://app?vid=cd5b6b01-990b-45d2-ab26-2fb6ba46f4bd","ios":"levelo://app?vid=cd5b6b01-990b-45d2-ab26-2fb6ba46f4bd"},"vehicle_type_id":"4","last_reported":1758269648,"current_range_meters":19600,"station_id":"ce4bhn12rcd13ifvqgpg","pricing_plan_id":"cebpf4jnsgd1na2vs0mg"},{"bike_id":"3ac64ef2-976c-42b2-b40a-7880b220798c","system_id":"levelo_inurba_marseille","lat":43.24054,"lon":5.3771,"is_reserved":false,"is_disabled":false,"rental_uris":{"android":"levelo://app?vid=3ac64ef2-976c-42b2-b40a-7880b220798c","ios":"levelo://app?vid=3ac64ef2-976c-42b2-b40a-7880b220798c"},"vehicle_type_id":"4","last_reported":1758269648,"current_range_meters":19600,"station_id":"ce4bhnp2rcd13ifvqgvg","pricing_plan_id":"cebpf4jnsgd1na2vs0mg"},{"bike_id":"0d8fff3f-f3da-4f8f-88f0-73c48989167c","system_id":"levelo_inurba_marseille","lat":43.24081,"lon":5.37757,"is_reserved":false,"is_disabled":false,"rental_uris":{"android":"levelo://app?vid=0d8fff3f-f3da-4f8f-88f0-73c48989167c","ios":"levelo://app?vid=0d8fff3f-f3da-4f8f-88f0-73c48989167c"},"vehicle_type_id":"4","last_reported":1758269648,"current_range_meters":19600,"station_id":"ce4bhnp2rcd13ifvqgvg","pricing_plan_id":"cebpf4jnsgd1na2vs0mg"},{"bike_id":"71f2778a-2b29-41d4-b5cc-f35efa4b34b3","system_id":"levelo_inurba_marseille","lat":43.30883,"lon":5.36856,"is_reserved":false,"is_disabled":false,"rental_uris":{"android":"levelo://app?vid=71f2778a-2b29-41d4-b5cc-f35efa4b34b3","ios":"levelo://app?vid=71f2778a-2b29-41d4-b5cc-f35efa4b34b3"},"vehicle_type_id":"4","last_reported":1758269648,"current_range_meters":19600,"station_id":"ce4bgn92rcd13ifvqbvg","pricing_plan_id":"cebpf4jnsgd1na2vs0mg"},{"bike_id":"2a00cb84-e9e6-4781-804d-0494d7480777","system_id":"levelo_inurba_marseille","lat":43.22517,"lon":5.41679,"is_reserved":false,"is_disabled":false,"rental_uris":{"android":"levelo://app?vid=2a00cb84-e9e6-4781-804d-0494d7480777","ios":"levelo://app?vid=2a00cb84-e9e6-4781-804d-0494d7480777"},"vehicle_type_id":"4","last_reported":1758269648,"current_range_meters":20000,"station_id":"st_d2o4gvlbi1j2169b742g","pricing_plan_id":"cebpf4jnsgd1na2vs0mg"},{"bike_id":"2c734c36-442f-468e-ab47-e34ad5183e32","system_id":"levelo_inurba_marseille","lat":43.25772,"lon":5.41047,"is_reserved":false,"is_disabled":true,"rental_uris":{"android":"levelo://app?vid=2c734c36-442f-468e-ab47-e34ad5183e32","ios":"levelo://app?vid=2c734c36-442f-468e-ab47-e34ad5183e32"},"vehicle_type_id":"4","last_reported":1758269648,"current_range_meters":20000,"station_id":"","pricing_plan_id":"cebpf4jnsgd1na2vs0mg"},{"bike_id":"f6e20ab9-6cee-4c56-9843-19248b3a5aaa","system_id":"levelo_inurba_marseille","lat":43.27677,"lon":5.38863,"is_reserved":false,"is_disabled":false,"rental_uris":{"android":"levelo://app?vid=f6e20ab9-6cee-4c56-9843-19248b3a5aaa","ios":"levelo://app?vid=f6e20ab9-6cee-4c56-9843-19248b3a5aaa"},"vehicle_type_id":"4","last_reported":1758269648,"current_range_meters":20000,"station_id":"ce4bhi12rcd13ifvqfo0","pricing_plan_id":"cebpf4jnsgd1na2vs0mg"},{"bike_id":"58cf797e-3a87-4d23-b3dd-f2ada5fb26ef","system_id":"levelo_inurba_marseille","lat":43.25921,"lon":5.40899,"is_reserved":false,"is_disabled":false,"rental_uris":{"android":"levelo://app?vid=58cf797e-3a87-4d23-b3dd-f2ada5fb26ef","ios":"levelo://app?vid=58cf797e-3a87-4d23-b3dd-f2ada5fb26ef"},"vehicle_type_id":"4","last_reported":1758269648,"current_range_meters":20000,"station_id":"ce4bhm92rcd13ifvqglg","pricing_plan_id":"cebpf4jnsgd1na2vs0mg"},{"bike_id":"a07a513e-e5a9-4481-8592-d991379bc662","system_id":"levelo_inurba_marseille","lat":43.337536,"lon":5.374536,"is_reserved":false,"is_disabled":false,"rental_uris":{"android":"levelo://app?vid=a07a513e-e5a9-4481-8592-d991379bc662","ios":"levelo://app?vid=a07a513e-e5a9-4481-8592-d991379bc662"},"vehicle_type_id":"4","last_reported":1758269648,"current_range_meters":20000,"station_id":"","pricing_plan_id":"cebpf4jnsgd1na2vs0mg"},{"bike_id":"68adab37-f5ad-4072-b58a-fe6c68285ca6","system_id":"levelo_inurba_marseille","lat":43.30605,"lon":5.3762,"is_reserved":false,"is_disabled":false,"rental_uris":{"android":"levelo://app?vid=68adab37-f5ad-4072-b58a-fe6c68285ca6","ios":"levelo://app?vid=68adab37-f5ad-4072-b58a-fe6c68285ca6"},"vehicle_type_id":"4","last_reported":1758269648,"current_range_meters":20400,"station_id":"","pricing_plan_id":"cebpf4jnsgd1na2vs0mg"},{"bike_id":"6f4a295f-810c-4fdf-8569-c6c117876fc7","system_id":"levelo_inurba_marseille","lat":43.29015,"lon":5.38132,"is_reserved":false,"is_disabled":false,"rental_uris":{"android":"levelo://app?vid=6f4a295f-810c-4fdf-8569-c6c117876fc7","ios":"levelo://app?vid=6f4a295f-810c-4fdf-8569-c6c117876fc7"},"vehicle_type_id":"4","last_reported":1758269648,"current_range_meters":20400,"station_id":"ce4bh4p2rcd13ifvqe1g","pricing_plan_id":"cebpf4jnsgd1na2vs0mg"},{"bike_id":"7a015196-7914-43c2-bee3-98013d8c05dd","system_id":"levelo_inurba_marseille","lat":43.26556,"lon":5.40314,"is_reserved":false,"is_disabled":false,"rental_uris":{"android":"levelo://app?vid=7a015196-7914-43c2-bee3-98013d8c05dd","ios":"levelo://app?vid=7a015196-7914-43c2-bee3-98013d8c05dd"},"vehicle_type_id":"4","last_reported":1758269648,"current_range_meters":20400,"station_id":"ce4bhmp2rcd13ifvqgng","pricing_plan_id":"cebpf4jnsgd1na2vs0mg"},{"bike_id":"d9b2cf94-228a-4aaa-a7df-d12e2e06c63d","system_id":"levelo_inurba_marseille","lat":43.24081,"lon":5.3776,"is_reserved":false,"is_disabled":false,"rental_uris":{"android":"levelo://app?vid=d9b2cf94-228a-4aaa-a7df-d12e2e06c63d","ios":"levelo://app?vid=d9b2cf94-228a-4aaa-a7df-d12e2e06c63d"},"vehicle_type_id":"4","last_reported":1758269648,"current_range_meters":20400,"station_id":"ce4bhnp2rcd13ifvqgvg","pricing_plan_id":"cebpf4jnsgd1na2vs0mg"},{"bike_id":"b05ab237-5916-46ac-a2fb-5139a54b4b22","system_id":"levelo_inurba_marseille","lat":43.241705,"lon":5.363922,"is_reserved":false,"is_disabled":false,"rental_uris":{"android":"levelo://app?vid=b05ab237-5916-46ac-a2fb-5139a54b4b22","ios":"levelo://app?vid=b05ab237-5916-46ac-a2fb-5139a54b4b22"},"vehicle_type_id":"4","last_reported":1758269648,"current_range_meters":20400,"station_id":"cpo36qri1sfpv3e86is0","pricing_plan_id":"cebpf4jnsgd1na2vs0mg"},{"bike_id":"fc295755-b59a-482b-a470-e42ea6bb5c5e","system_id":"levelo_inurba_marseille","lat":43.29866,"lon":5.39746,"is_reserved":false,"is_disabled":false,"rental_uris":{"android":"levelo://app?vid=fc295755-b59a-482b-a470-e42ea6bb5c5e","ios":"levelo://app?vid=fc295755-b59a-482b-a470-e42ea6bb5c5e"},"vehicle_type_id":"4","last_reported":1758269648,"current_range_meters":20400,"station_id":"ce4bh0h2rcd13ifvqd50","pricing_plan_id":"cebpf4jnsgd1na2vs0mg"},{"bike_id":"f270bc75-6c0e-470e-8e08-d0a182248e6f","system_id":"levelo_inurba_marseille","lat":43.27552,"lon":5.38456,"is_reserved":false,"is_disabled":false,"rental_uris":{"android":"levelo://app?vid=f270bc75-6c0e-470e-8e08-d0a182248e6f","ios":"levelo://app?vid=f270bc75-6c0e-470e-8e08-d0a182248e6f"},"vehicle_type_id":"4","last_reported":1758269648,"current_range_meters":20000,"station_id":"ce4bhh92rcd13ifvqfi0","pricing_plan_id":"cebpf4jnsgd1na2vs0mg"},{"bike_id":"60edad07-3f89-4999-84b6-58bad1f6a665","system_id":"levelo_inurba_marseille","lat":43.27209,"lon":5.39188,"is_reserved":false,"is_disabled":false,"rental_uris":{"android":"levelo://app?vid=60edad07-3f89-4999-84b6-58bad1f6a665","ios":"levelo://app?vid=60edad07-3f89-4999-84b6-58bad1f6a665"},"vehicle_type_id":"4","last_reported":1758269648,"current_range_meters":20400,"station_id":"ce4bhhp2rcd13ifvqfm0","pricing_plan_id":"cebpf4jnsgd1na2vs0mg"},{"bike_id":"579524a7-534b-4d5e-8393-4b981fc7ceec","system_id":"levelo_inurba_marseille","lat":43.29115,"lon":5.37612,"is_reserved":false,"is_disabled":false,"rental_uris":{"android":"levelo://app?vid=579524a7-534b-4d5e-8393-4b981fc7ceec","ios":"levelo://app?vid=579524a7-534b-4d5e-8393-4b981fc7ceec"},"vehicle_type_id":"4","last_reported":1758269648,"current_range_meters":20800,"station_id":"","pricing_plan_id":"cebpf4jnsgd1na2vs0mg"},{"bike_id":"09e041f8-2230-4fcc-aab7-d2dc0874149e","system_id":"levelo_inurba_marseille","lat":43.28482,"lon":5.38575,"is_reserved":false,"is_disabled":false,"rental_uris":{"android":"levelo://app?vid=09e041f8-2230-4fcc-aab7-d2dc0874149e","ios":"levelo://app?vid=09e041f8-2230-4fcc-aab7-d2dc0874149e"},"vehicle_type_id":"4","last_reported":1758269648,"current_range_meters":20400,"station_id":"ce4bh8p2rcd13ifvqeb0","pricing_plan_id":"cebpf4jnsgd1na2vs0mg"},{"bike_id":"cabe4622-3f3b-4816-b42b-af79d787ab06","system_id":"levelo_inurba_marseille","lat":43.29172,"lon":5.37159,"is_reserved":false,"is_disabled":false,"rental_uris":{"android":"levelo://app?vid=cabe4622-3f3b-4816-b42b-af79d787ab06","ios":"levelo://app?vid=cabe4622-3f3b-4816-b42b-af79d787ab06"},"vehicle_type_id":"4","last_reported":1758269648,"current_range_meters":20800,"station_id":"ce4bha92rcd13ifvqeh0","pricing_plan_id":"cebpf4jnsgd1na2vs0mg"},{"bike_id":"f2e95db7-81cd-49ed-bf06-14fd898848f3","system_id":"levelo_inurba_marseille","lat":43.30482,"lon":5.37908,"is_reserved":false,"is_disabled":true,"rental_uris":{"android":"levelo://app?vid=f2e95db7-81cd-49ed-bf06-14fd898848f3","ios":"levelo://app?vid=f2e95db7-81cd-49ed-bf06-14fd898848f3"},"vehicle_type_id":"4","last_reported":1758269648,"current_range_meters":20800,"station_id":"ce4bgup2rcd13ifvqcn0","pricing_plan_id":"cebpf4jnsgd1na2vs0mg"},{"bike_id":"46e4b3a2-a8d2-418f-9656-4498c6d33916","system_id":"levelo_inurba_marseille","lat":43.30607,"lon":5.3722,"is_reserved":false,"is_disabled":false,"rental_uris":{"android":"levelo://app?vid=46e4b3a2-a8d2-418f-9656-4498c6d33916","ios":"levelo://app?vid=46e4b3a2-a8d2-418f-9656-4498c6d33916"},"vehicle_type_id":"4","last_reported":1758269648,"current_range_meters":20800,"station_id":"ce4bgqh2rcd13ifvqc4g","pricing_plan_id":"cebpf4jnsgd1na2vs0mg"},{"bike_id":"7b96a97a-6f2f-4736-b0b4-f6e5b2974fcf","system_id":"levelo_inurba_marseille","lat":43.32488,"lon":5.36571,"is_reserved":false,"is_disabled":false,"rental_uris":{"android":"levelo://app?vid=7b96a97a-6f2f-4736-b0b4-f6e5b2974fcf","ios":"levelo://app?vid=7b96a97a-6f2f-4736-b0b4-f6e5b2974fcf"},"vehicle_type_id":"4","last_reported":1758269648,"current_range_meters":21600,"station_id":"ce4bhs12rcd13ifvqhvg","pricing_plan_id":"cebpf4jnsgd1na2vs0mg"},{"bike_id":"a0beaba9-6b98-4620-a700-ce07f5f94dd7","system_id":"levelo_inurba_marseille","lat":43.29173,"lon":5.37146,"is_reserved":false,"is_disabled":false,"rental_uris":{"android":"levelo://app?vid=a0beaba9-6b98-4620-a700-ce07f5f94dd7","ios":"levelo://app?vid=a0beaba9-6b98-4620-a700-ce07f5f94dd7"},"vehicle_type_id":"4","last_reported":1758269648,"current_range_meters":21600,"station_id":"ce4bha92rcd13ifvqeh0","pricing_plan_id":"cebpf4jnsgd1na2vs0mg"},{"bike_id":"ea624334-f062-49b3-b9ba-f85a8d13d259","system_id":"levelo_inurba_marseille","lat":43.24074,"lon":5.37752,"is_reserved":false,"is_disabled":false,"rental_uris":{"android":"levelo://app?vid=ea624334-f062-49b3-b9ba-f85a8d13d259","ios":"levelo://app?vid=ea624334-f062-49b3-b9ba-f85a8d13d259"},"vehicle_type_id":"4","last_reported":1758269648,"current_range_meters":21600,"station_id":"ce4bhnp2rcd13ifvqgvg","pricing_plan_id":"cebpf4jnsgd1na2vs0mg"},{"bike_id":"5b8859fd-80b7-45d2-846d-03f14bc72483","system_id":"levelo_inurba_marseille","lat":43.24076,"lon":5.37753,"is_reserved":false,"is_disabled":false,"rental_uris":{"android":"levelo://app?vid=5b8859fd-80b7-45d2-846d-03f14bc72483","ios":"levelo://app?vid=5b8859fd-80b7-45d2-846d-03f14bc72483"},"vehicle_type_id":"4","last_reported":1758269648,"current_range_meters":21600,"station_id":"ce4bhnp2rcd13ifvqgvg","pricing_plan_id":"cebpf4jnsgd1na2vs0mg"},{"bike_id":"394be144-9a9d-4dce-9089-47d533f116ca","system_id":"levelo_inurba_marseille","lat":43.33021,"lon":5.39045,"is_reserved":false,"is_disabled":false,"rental_uris":{"android":"levelo://app?vid=394be144-9a9d-4dce-9089-47d533f116ca","ios":"levelo://app?vid=394be144-9a9d-4dce-9089-47d533f116ca"},"vehicle_type_id":"4","last_reported":1758269648,"current_range_meters":21600,"station_id":"ce4bhr92rcd13ifvqhrg","pricing_plan_id":"cebpf4jnsgd1na2vs0mg"},{"bike_id":"b8161180-4f60-4d7d-bbf7-8192e95857c3","system_id":"levelo_inurba_marseille","lat":43.246529,"lon":5.3816,"is_reserved":false,"is_disabled":false,"rental_uris":{"android":"levelo://app?vid=b8161180-4f60-4d7d-bbf7-8192e95857c3","ios":"levelo://app?vid=b8161180-4f60-4d7d-bbf7-8192e95857c3"},"vehicle_type_id":"4","last_reported":1758269648,"current_range_meters":21600,"station_id":"ce4bhih2rcd13ifvqfr0","pricing_plan_id":"cebpf4jnsgd1na2vs0mg"},{"bike_id":"ff44f1ad-2efa-4491-b8e1-7e77aa981a6b","system_id":"levelo_inurba_marseille","lat":43.30133,"lon":5.37424,"is_reserved":false,"is_disabled":false,"rental_uris":{"android":"levelo://app?vid=ff44f1ad-2efa-4491-b8e1-7e77aa981a6b","ios":"levelo://app?vid=ff44f1ad-2efa-4491-b8e1-7e77aa981a6b"},"vehicle_type_id":"4","last_reported":1758269648,"current_range_meters":21600,"station_id":"ce4bgs92rcd13ifvqcc0","pricing_plan_id":"cebpf4jnsgd1na2vs0mg"},{"bike_id":"b8af4056-fb36-4e39-a4f0-5cd179383459","system_id":"levelo_inurba_marseille","lat":43.32918,"lon":5.38949,"is_reserved":false,"is_disabled":false,"rental_uris":{"android":"levelo://app?vid=b8af4056-fb36-4e39-a4f0-5cd179383459","ios":"levelo://app?vid=b8af4056-fb36-4e39-a4f0-5cd179383459"},"vehicle_type_id":"4","last_reported":1758269648,"current_range_meters":21600,"station_id":"","pricing_plan_id":"cebpf4jnsgd1na2vs0mg"},{"bike_id":"37f99d20-8b7f-45c6-94aa-9a4143897022","system_id":"levelo_inurba_marseille","lat":43.30924,"lon":5.40131,"is_reserved":false,"is_disabled":false,"rental_uris":{"android":"levelo://app?vid=37f99d20-8b7f-45c6-94aa-9a4143897022","ios":"levelo://app?vid=37f99d20-8b7f-45c6-94aa-9a4143897022"},"vehicle_type_id":"4","last_reported":1758269648,"current_range_meters":22000,"station_id":"","pricing_plan_id":"cebpf4jnsgd1na2vs0mg"},{"bike_id":"5c572a3e-5d98-4f1f-9b4b-4ba8c6c776c5","system_id":"levelo_inurba_marseille","lat":43.30435,"lon":5.3889,"is_reserved":false,"is_disabled":false,"rental_uris":{"android":"levelo://app?vid=5c572a3e-5d98-4f1f-9b4b-4ba8c6c776c5","ios":"levelo://app?vid=5c572a3e-5d98-4f1f-9b4b-4ba8c6c776c5"},"vehicle_type_id":"4","last_reported":1758269648,"current_range_meters":22000,"station_id":"ce4bgk12rcd13ifvqbi0","pricing_plan_id":"cebpf4jnsgd1na2vs0mg"},{"bike_id":"7a15d92f-7be6-4c35-a733-907359471e75","system_id":"levelo_inurba_marseille","lat":43.25939,"lon":5.40889,"is_reserved":false,"is_disabled":false,"rental_uris":{"android":"levelo://app?vid=7a15d92f-7be6-4c35-a733-907359471e75","ios":"levelo://app?vid=7a15d92f-7be6-4c35-a733-907359471e75"},"vehicle_type_id":"4","last_reported":1758269648,"current_range_meters":22000,"station_id":"ce4bhm92rcd13ifvqglg","pricing_plan_id":"cebpf4jnsgd1na2vs0mg"},{"bike_id":"76bbf107-7ec5-4826-b296-ab629ecd14ab","system_id":"levelo_inurba_marseille","lat":43.29848,"lon":5.42041,"is_reserved":false,"is_disabled":false,"rental_uris":{"android":"levelo://app?vid=76bbf107-7ec5-4826-b296-ab629ecd14ab","ios":"levelo://app?vid=76bbf107-7ec5-4826-b296-ab629ecd14ab"},"vehicle_type_id":"4","last_reported":1758269648,"current_range_meters":22000,"station_id":"","pricing_plan_id":"cebpf4jnsgd1na2vs0mg"},{"bike_id":"cfe6dec4-7099-43b3-9e41-3212cd5eeadd","system_id":"levelo_inurba_marseille","lat":43.29612,"lon":5.37725,"is_reserved":false,"is_disabled":true,"rental_uris":{"android":"levelo://app?vid=cfe6dec4-7099-43b3-9e41-3212cd5eeadd","ios":"levelo://app?vid=cfe6dec4-7099-43b3-9e41-3212cd5eeadd"},"vehicle_type_id":"4","last_reported":1758269648,"current_range_meters":22400,"station_id":"ce4bgi92rcd13ifvqb90","pricing_plan_id":"cebpf4jnsgd1na2vs0mg"},{"bike_id":"97514a44-1f4d-4ae1-a270-04ca7b75c621","system_id":"levelo_inurba_marseille","lat":43.28865,"lon":5.42527,"is_reserved":false,"is_disabled":false,"rental_uris":{"android":"levelo://app?vid=97514a44-1f4d-4ae1-a270-04ca7b75c621","ios":"levelo://app?vid=97514a44-1f4d-4ae1-a270-04ca7b75c621"},"vehicle_type_id":"4","last_reported":1758269648,"current_range_meters":22400,"station_id":"","pricing_plan_id":"cebpf4jnsgd1na2vs0mg"},{"bike_id":"932aaedf-dd17-4047-8c0a-8fa28c4ede96","system_id":"levelo_inurba_marseille","lat":43.33774,"lon":5.37485,"is_reserved":false,"is_disabled":false,"rental_uris":{"android":"levelo://app?vid=932aaedf-dd17-4047-8c0a-8fa28c4ede96","ios":"levelo://app?vid=932aaedf-dd17-4047-8c0a-8fa28c4ede96"},"vehicle_type_id":"4","last_reported":1758269648,"current_range_meters":22400,"station_id":"","pricing_plan_id":"cebpf4jnsgd1na2vs0mg"},{"bike_id":"e56196b7-7022-4cae-b3b9-e5bb7c9769e1","system_id":"levelo_inurba_marseille","lat":43.296182,"lon":5.371538,"is_reserved":false,"is_disabled":false,"rental_uris":{"android":"levelo://app?vid=e56196b7-7022-4cae-b3b9-e5bb7c9769e1","ios":"levelo://app?vid=e56196b7-7022-4cae-b3b9-e5bb7c9769e1"},"vehicle_type_id":"4","last_reported":1758269648,"current_range_meters":22400,"station_id":"ce4bgnh2rcd13ifvqc0g","pricing_plan_id":"cebpf4jnsgd1na2vs0mg"},{"bike_id":"a102a601-e183-40b4-84a9-2f5bb5f58b6e","system_id":"levelo_inurba_marseille","lat":43.26556,"lon":5.37292,"is_reserved":false,"is_disabled":false,"rental_uris":{"android":"levelo://app?vid=a102a601-e183-40b4-84a9-2f5bb5f58b6e","ios":"levelo://app?vid=a102a601-e183-40b4-84a9-2f5bb5f58b6e"},"vehicle_type_id":"4","last_reported":1758269648,"current_range_meters":22400,"station_id":"ce4bhg12rcd13ifvqf70","pricing_plan_id":"cebpf4jnsgd1na2vs0mg"},{"bike_id":"3e04d389-e297-452a-b8b2-965283497357","system_id":"levelo_inurba_marseille","lat":43.29791,"lon":5.38094,"is_reserved":false,"is_disabled":false,"rental_uris":{"android":"levelo://app?vid=3e04d389-e297-452a-b8b2-965283497357","ios":"levelo://app?vid=3e04d389-e297-452a-b8b2-965283497357"},"vehicle_type_id":"4","last_reported":1758269648,"current_range_meters":22800,"station_id":"ce4bgip2rcd13ifvqbb0","pricing_plan_id":"cebpf4jnsgd1na2vs0mg"},{"bike_id":"fd9bc142-7164-4077-87b5-1495b3b9dfb8","system_id":"levelo_inurba_marseille","lat":43.24078,"lon":5.37753,"is_reserved":false,"is_disabled":false,"rental_uris":{"android":"levelo://app?vid=fd9bc142-7164-4077-87b5-1495b3b9dfb8","ios":"levelo://app?vid=fd9bc142-7164-4077-87b5-1495b3b9dfb8"},"vehicle_type_id":"4","last_reported":1758269648,"current_range_meters":23200,"station_id":"ce4bhnp2rcd13ifvqgvg","pricing_plan_id":"cebpf4jnsgd1na2vs0mg"},{"bike_id":"2204e3b8-c2d4-43db-b7c0-119a82947efd","system_id":"levelo_inurba_marseille","lat":43.29567,"lon":5.39974,"is_reserved":false,"is_disabled":false,"rental_uris":{"android":"levelo://app?vid=2204e3b8-c2d4-43db-b7c0-119a82947efd","ios":"levelo://app?vid=2204e3b8-c2d4-43db-b7c0-119a82947efd"},"vehicle_type_id":"4","last_reported":1758269648,"current_range_meters":23200,"station_id":"","pricing_plan_id":"cebpf4jnsgd1na2vs0mg"},{"bike_id":"324703f0-b795-4808-8d7a-569ab75fdccd","system_id":"levelo_inurba_marseille","lat":43.276731,"lon":5.388449,"is_reserved":false,"is_disabled":false,"rental_uris":{"android":"levelo://app?vid=324703f0-b795-4808-8d7a-569ab75fdccd","ios":"levelo://app?vid=324703f0-b795-4808-8d7a-569ab75fdccd"},"vehicle_type_id":"4","last_reported":1758269648,"current_range_meters":23200,"station_id":"ce4bhi12rcd13ifvqfo0","pricing_plan_id":"cebpf4jnsgd1na2vs0mg"},{"bike_id":"f44a04e3-02b9-4890-83ea-79b51fe65cf3","system_id":"levelo_inurba_marseille","lat":43.240763,"lon":5.377605,"is_reserved":false,"is_disabled":false,"rental_uris":{"android":"levelo://app?vid=f44a04e3-02b9-4890-83ea-79b51fe65cf3","ios":"levelo://app?vid=f44a04e3-02b9-4890-83ea-79b51fe65cf3"},"vehicle_type_id":"4","last_reported":1758269648,"current_range_meters":23200,"station_id":"ce4bhnp2rcd13ifvqgvg","pricing_plan_id":"cebpf4jnsgd1na2vs0mg"},{"bike_id":"e86857f8-f405-4657-b145-ec58ed187087","system_id":"levelo_inurba_marseille","lat":43.31484,"lon":5.3881,"is_reserved":false,"is_disabled":false,"rental_uris":{"android":"levelo://app?vid=e86857f8-f405-4657-b145-ec58ed187087","ios":"levelo://app?vid=e86857f8-f405-4657-b145-ec58ed187087"},"vehicle_type_id":"4","last_reported":1758269648,"current_range_meters":23200,"station_id":"ce4bgt92rcd13ifvqcf0","pricing_plan_id":"cebpf4jnsgd1na2vs0mg"},{"bike_id":"3dd9860a-65d7-4144-aa91-065e5ee72883","system_id":"levelo_inurba_marseille","lat":43.23138,"lon":5.4371,"is_reserved":false,"is_disabled":false,"rental_uris":{"android":"levelo://app?vid=3dd9860a-65d7-4144-aa91-065e5ee72883","ios":"levelo://app?vid=3dd9860a-65d7-4144-aa91-065e5ee72883"},"vehicle_type_id":"4","last_reported":1758269648,"current_range_meters":23200,"station_id":"ce4bhmp2rcd13ifvqgog","pricing_plan_id":"cebpf4jnsgd1na2vs0mg"},{"bike_id":"5bc77e9b-4435-4cd7-b8dc-50526e416bea","system_id":"levelo_inurba_marseille","lat":43.284638,"lon":5.35889,"is_reserved":false,"is_disabled":false,"rental_uris":{"android":"levelo://app?vid=5bc77e9b-4435-4cd7-b8dc-50526e416bea","ios":"levelo://app?vid=5bc77e9b-4435-4cd7-b8dc-50526e416bea"},"vehicle_type_id":"4","last_reported":1758269648,"current_range_meters":22800,"station_id":"ce4bhah2rcd13ifvqei0","pricing_plan_id":"cebpf4jnsgd1na2vs0mg"},{"bike_id":"6798d070-a356-49c0-b377-5333bdc450af","system_id":"levelo_inurba_marseille","lat":43.30537,"lon":5.36556,"is_reserved":false,"is_disabled":false,"rental_uris":{"android":"levelo://app?vid=6798d070-a356-49c0-b377-5333bdc450af","ios":"levelo://app?vid=6798d070-a356-49c0-b377-5333bdc450af"},"vehicle_type_id":"4","last_reported":1758269648,"current_range_meters":23200,"station_id":"ce4bgs12rcd13ifvqcag","pricing_plan_id":"cebpf4jnsgd1na2vs0mg"},{"bike_id":"f0a7dead-c107-4943-b803-28630d8500e3","system_id":"levelo_inurba_marseille","lat":43.24167,"lon":5.364,"is_reserved":false,"is_disabled":false,"rental_uris":{"android":"levelo://app?vid=f0a7dead-c107-4943-b803-28630d8500e3","ios":"levelo://app?vid=f0a7dead-c107-4943-b803-28630d8500e3"},"vehicle_type_id":"4","last_reported":1758269648,"current_range_meters":23200,"station_id":"","pricing_plan_id":"cebpf4jnsgd1na2vs0mg"},{"bike_id":"a271aaca-ecb5-49af-a1e0-02fd6255653e","system_id":"levelo_inurba_marseille","lat":43.29883,"lon":5.39769,"is_reserved":false,"is_disabled":false,"rental_uris":{"android":"levelo://app?vid=a271aaca-ecb5-49af-a1e0-02fd6255653e","ios":"levelo://app?vid=a271aaca-ecb5-49af-a1e0-02fd6255653e"},"vehicle_type_id":"4","last_reported":1758269648,"current_range_meters":23200,"station_id":"ce4bh0h2rcd13ifvqd50","pricing_plan_id":"cebpf4jnsgd1na2vs0mg"},{"bike_id":"f66bcc7d-b696-431b-9567-10ee2134a42f","system_id":"levelo_inurba_marseille","lat":43.27192,"lon":5.39163,"is_reserved":false,"is_disabled":false,"rental_uris":{"android":"levelo://app?vid=f66bcc7d-b696-431b-9567-10ee2134a42f","ios":"levelo://app?vid=f66bcc7d-b696-431b-9567-10ee2134a42f"},"vehicle_type_id":"4","last_reported":1758269648,"current_range_meters":22800,"station_id":"ce4bhhp2rcd13ifvqfm0","pricing_plan_id":"cebpf4jnsgd1na2vs0mg"},{"bike_id":"1d0b5d60-568f-4170-98dc-84bbc30b1c4e","system_id":"levelo_inurba_marseille","lat":43.28355,"lon":5.43846,"is_reserved":false,"is_disabled":false,"rental_uris":{"android":"levelo://app?vid=1d0b5d60-568f-4170-98dc-84bbc30b1c4e","ios":"levelo://app?vid=1d0b5d60-568f-4170-98dc-84bbc30b1c4e"},"vehicle_type_id":"4","last_reported":1758269648,"current_range_meters":23200,"station_id":"","pricing_plan_id":"cebpf4jnsgd1na2vs0mg"},{"bike_id":"b803a5ac-e2a0-4af9-84fa-e50c6957c56b","system_id":"levelo_inurba_marseille","lat":43.287143,"lon":5.37943,"is_reserved":false,"is_disabled":false,"rental_uris":{"android":"levelo://app?vid=b803a5ac-e2a0-4af9-84fa-e50c6957c56b","ios":"levelo://app?vid=b803a5ac-e2a0-4af9-84fa-e50c6957c56b"},"vehicle_type_id":"4","last_reported":1758269648,"current_range_meters":24000,"station_id":"ce4bh9p2rcd13ifvqec0","pricing_plan_id":"cebpf4jnsgd1na2vs0mg"},{"bike_id":"42380e20-6608-4c25-9b8e-00c6b246b55a","system_id":"levelo_inurba_marseille","lat":43.30456,"lon":5.37903,"is_reserved":false,"is_disabled":false,"rental_uris":{"android":"levelo://app?vid=42380e20-6608-4c25-9b8e-00c6b246b55a","ios":"levelo://app?vid=42380e20-6608-4c25-9b8e-00c6b246b55a"},"vehicle_type_id":"4","last_reported":1758269648,"current_range_meters":23200,"station_id":"ce4bgup2rcd13ifvqcn0","pricing_plan_id":"cebpf4jnsgd1na2vs0mg"},{"bike_id":"4d8d7169-a7dd-4674-bee6-300857f86484","system_id":"levelo_inurba_marseille","lat":43.24386,"lon":5.37061,"is_reserved":false,"is_disabled":false,"rental_uris":{"android":"levelo://app?vid=4d8d7169-a7dd-4674-bee6-300857f86484","ios":"levelo://app?vid=4d8d7169-a7dd-4674-bee6-300857f86484"},"vehicle_type_id":"4","last_reported":1758269648,"current_range_meters":23200,"station_id":"ce4bhhh2rcd13ifvqfk0","pricing_plan_id":"cebpf4jnsgd1na2vs0mg"},