{"last_updated":1748499347,"ttl":60,"version":"2.2","data":{"bikes":[{"bike_id":"55d42eeb-6b71-4987-a0f2-3d758b10d43e","system_id":"levelo_inurba_marseille","lat":43.33771,"lon":5.37424,"is_reserved":false,"is_disabled":true,"rental_uris":{"android":"levelo://app?vid=55d42eeb-6b71-4987-a0f2-3d758b10d43e","ios":"levelo://app?vid=55d42eeb-6b71-4987-a0f2-3d758b10d43e"},"vehicle_type_id":"4","last_reported":1748499347,"current_range_meters":0,"station_id":"","pricing_plan_id":"cebpf4jnsgd1na2vs0mg"},{"bike_id":"7f4b6069-304f-4d75-a8b9-d3db83a055ca","system_id":"levelo_inurba_marseille","lat":43.217477,"lon":5.346257,"is_reserved":false,"is_disabled":true,"rental_uris":{"android":"levelo://app?vid=7f4b6069-304f-4d75-a8b9-d3db83a055ca","ios":"levelo://app?vid=7f4b6069-304f-4d75-a8b9-d3db83a055ca"},"vehicle_type_id":"4","last_reported":1748499347,"current_range_meters":0,"station_id":"","pricing_plan_id":"cebpf4jnsgd1na2vs0mg"},{"bike_id":"b7fe4621-b706-42f0-9085-4811142f84e8","system_id":"levelo_inurba_marseille","lat":43.337499,"lon":5.374469,"is_reserved":false,"is_disabled":true,"rental_uris":{"android":"levelo://app?vid=b7fe4621-b706-42f0-9085-4811142f84e8","ios":"levelo://app?vid=b7fe4621-b706-42f0-9085-4811142f84e8"},"vehicle_type_id":"4","last_reported":1748499347,"current_range_meters":0,"station_id":"","pricing_plan_id":"cebpf4jnsgd1na2vs0mg"},{"bike_id":"fe000210-af5a-4367-8a9d-4202f00949cb","system_id":"levelo_inurba_marseille","lat":43.28288,"lon":5.40644,"is_reserved":false,"is_disabled":true,"rental_uris":{"android":"levelo://app?vid=fe000210-af5a-4367-8a9d-4202f00949cb","ios":"levelo://app?vid=fe000210-af5a-4367-8a9d-4202f00949cb"},"vehicle_type_id":"4","last_reported":1748499347,"current_range_meters":0,"station_id":"","pricing_plan_id":"cebpf4jnsgd1na2vs0mg"},{"bike_id":"ad402f0f-3192-410c-afac-8cf064a40c6d","system_id":"levelo_inurba_marseille","lat":43.337444,"lon":5.374475,"is_reserved":false,"is_disabled":true,"rental_uris":{"android":"levelo://app?vid=ad402f0f-3192-410c-afac-8cf064a40c6d","ios":"levelo://app?vid=ad402f0f-3192-410c-afac-8cf064a40c6d"},"vehicle_type_id":"4","last_reported":1748499347,"current_range_meters":0,"station_id":"","pricing_plan_id":"cebpf4jnsgd1na2vs0mg"},{"bike_id":"80dc1064-d63f-4a22-ad21-d8abd70986c0","system_id":"levelo_inurba_marseille","lat":43.33758,"lon":5.374827,"is_reserved":false,"is_disabled":true,"rental_uris":{"android":"levelo://app?vid=80dc1064-d63f-4a22-ad21-d8abd70986c0","ios":"levelo://app?vid=80dc1064-d63f-4a22-ad21-d8abd70986c0"},"vehicle_type_id":"4","last_reported":1748499347,"current_range_meters":0,"station_id":"","pricing_plan_id":"cebpf4jnsgd1na2vs0mg"},{"bike_id":"d3bf3c55-5769-4b15-9eb1-28f17ada09fd","system_id":"levelo_inurba_marseille","lat":43.321469,"lon":5.387769,"is_reserved":false,"is_disabled":true,"rental_uris":{"android":"levelo://app?vid=d3bf3c55-5769-4b15-9eb1-28f17ada09fd","ios":"levelo://app?vid=d3bf3c55-5769-4b15-9eb1-28f17ada09fd"},"vehicle_type_id":"4","last_reported":1748499347,"current_range_meters":0,"station_id":"","pricing_plan_id":"cebpf4jnsgd1na2vs0mg"},{"bike_id":"2fd7e160-685c-4858-b57b-dcaef27a8e94","system_id":"levelo_inurba_marseille","lat":43.230331,"lon":5.401847,"is_reserved":false,"is_disabled":true,"rental_uris":{"android":"levelo://app?vid=2fd7e160-685c-4858-b57b-dcaef27a8e94","ios":"levelo://app?vid=2fd7e160-685c-4858-b57b-dcaef27a8e94"},"vehicle_type_id":"4","last_reported":1748499347,"current_range_meters":0,"station_id":"","pricing_plan_id":"cebpf4jnsgd1na2vs0mg"},{"bike_id":"e73357c5-67ed-4075-84be-4246c5fbde4a","system_id":"levelo_inurba_marseille","lat":43.23144,"lon":5.43723,"is_reserved":false,"is_disabled":true,"rental_uris":{"android":"levelo://app?vid=e73357c5-67ed-4075-84be-4246c5fbde4a","ios":"levelo://app?vid=e73357c5-67ed-4075-84be-4246c5fbde4a"},"vehicle_type_id":"4","last_reported":1748499347,"current_range_meters":0,"station_id":"ce4bhmp2rcd13ifvqgog","pricing_plan_id":"cebpf4jnsgd1na2vs0mg"},{"bike_id":"ce526b8a-caa2-4d66-9928-344df9acf135","system_id":"levelo_inurba_marseille","lat":43.32363,"lon":5.38885,"is_reserved":false,"is_disabled":true,"rental_uris":{"android":"levelo://app?vid=ce526b8a-caa2-4d66-9928-344df9acf135","ios":"levelo://app?vid=ce526b8a-caa2-4d66-9928-344df9acf135"},"vehicle_type_id":"4","last_reported":1748499347,"current_range_meters":0,"station_id":"ce4bhqp2rcd13ifvqhog","pricing_plan_id":"cebpf4jnsgd1na2vs0mg"},{"bike_id":"5aefb386-e416-4906-998c-ff23207edc6c","system_id":"levelo_inurba_marseille","lat":43.21763,"lon":5.34604,"is_reserved":false,"is_disabled":true,"rental_uris":{"android":"levelo://app?vid=5aefb386-e416-4906-998c-ff23207edc6c","ios":"levelo://app?vid=5aefb386-e416-4906-998c-ff23207edc6c"},"vehicle_type_id":"4","last_reported":1748499347,"current_range_meters":0,"station_id":"st_cvj6r9ubvosntc0bgbag","pricing_plan_id":"cebpf4jnsgd1na2vs0mg"},{"bike_id":"443004d0-5e76-4011-aa1d-e28b9d37d601","system_id":"levelo_inurba_marseille","lat":43.31556,"lon":5.36923,"is_reserved":false,"is_disabled":true,"rental_uris":{"android":"levelo://app?vid=443004d0-5e76-4011-aa1d-e28b9d37d601","ios":"levelo://app?vid=443004d0-5e76-4011-aa1d-e28b9d37d601"},"vehicle_type_id":"4","last_reported":1748499347,"current_range_meters":800,"station_id":"","pricing_plan_id":"cebpf4jnsgd1na2vs0mg"},{"bike_id":"ce78f808-b7c2-47bc-8d9f-de87423062f7","system_id":"levelo_inurba_marseille","lat":43.30469,"lon":5.37909,"is_reserved":false,"is_disabled":true,"rental_uris":{"android":"levelo://app?vid=ce78f808-b7c2-47bc-8d9f-de87423062f7","ios":"levelo://app?vid=ce78f808-b7c2-47bc-8d9f-de87423062f7"},"vehicle_type_id":"4","last_reported":1748499347,"current_range_meters":800,"station_id":"ce4bgup2rcd13ifvqcn0","pricing_plan_id":"cebpf4jnsgd1na2vs0mg"},{"bike_id":"dba3dbf7-9f80-4f77-baad-bdc1b1227129","system_id":"levelo_inurba_marseille","lat":43.21773,"lon":5.34628,"is_reserved":false,"is_disabled":true,"rental_uris":{"android":"levelo://app?vid=dba3dbf7-9f80-4f77-baad-bdc1b1227129","ios":"levelo://app?vid=dba3dbf7-9f80-4f77-baad-bdc1b1227129"},"vehicle_type_id":"4","last_reported":1748499347,"current_range_meters":1200,"station_id":"","pricing_plan_id":"cebpf4jnsgd1na2vs0mg"},{"bike_id":"38f21575-0e86-4c6a-aac5-732a93136600","system_id":"levelo_inurba_marseille","lat":43.33024,"lon":5.39047,"is_reserved":false,"is_disabled":true,"rental_uris":{"android":"levelo://app?vid=38f21575-0e86-4c6a-aac5-732a93136600","ios":"levelo://app?vid=38f21575-0e86-4c6a-aac5-732a93136600"},"vehicle_type_id":"4","last_reported":1748499347,"current_range_meters":1200,"station_id":"ce4bhr92rcd13ifvqhrg","pricing_plan_id":"cebpf4jnsgd1na2vs0mg"},{"bike_id":"4d66d567-36e9-4f64-863c-56dd68426a6b","system_id":"levelo_inurba_marseille","lat":43.2904,"lon":5.39945,"is_reserved":false,"is_disabled":true,"rental_uris":{"android":"levelo://app?vid=4d66d567-36e9-4f64-863c-56dd68426a6b","ios":"levelo://app?vid=4d66d567-36e9-4f64-863c-56dd68426a6b"},"vehicle_type_id":"4","last_reported":1748499347,"current_range_meters":2000,"station_id":"ce4bh392rcd13ifvqdm0","pricing_plan_id":"cebpf4jnsgd1na2vs0mg"},{"bike_id":"6b28ce9a-ad10-4de9-b817-ad6102345757","system_id":"levelo_inurba_marseille","lat":43.273733,"lon":5.36258,"is_reserved":false,"is_disabled":true,"rental_uris":{"android":"levelo://app?vid=6b28ce9a-ad10-4de9-b817-ad6102345757","ios":"levelo://app?vid=6b28ce9a-ad10-4de9-b817-ad6102345757"},"vehicle_type_id":"4","last_reported":1748499347,"current_range_meters":2000,"station_id":"ce4bhbh2rcd13ifvqeo0","pricing_plan_id":"cebpf4jnsgd1na2vs0mg"},{"bike_id":"1e715644-3e61-4fbb-badf-737d6871d3e7","system_id":"levelo_inurba_marseille","lat":43.29702,"lon":5.36619,"is_reserved":false,"is_disabled":false,"rental_uris":{"android":"levelo://app?vid=1e715644-3e61-4fbb-badf-737d6871d3e7","ios":"levelo://app?vid=1e715644-3e61-4fbb-badf-737d6871d3e7"},"vehicle_type_id":"4","last_reported":1748499347,"current_range_meters":2800,"station_id":"ce4bgn12rcd13ifvqbt0","pricing_plan_id":"cebpf4jnsgd1na2vs0mg"},{"bike_id":"79fa2c16-3fb6-467d-b11f-01c41dbd318a","system_id":"levelo_inurba_marseille","lat":43.29895,"lon":5.436654,"is_reserved":false,"is_disabled":false,"rental_uris":{"android":"levelo://app?vid=79fa2c16-3fb6-467d-b11f-01c41dbd318a","ios":"levelo://app?vid=79fa2c16-3fb6-467d-b11f-01c41dbd318a"},"vehicle_type_id":"4","last_reported":1748499347,"current_range_meters":2800,"station_id":"ce4bhpp2rcd13ifvqhfg","pricing_plan_id":"cebpf4jnsgd1na2vs0mg"},{"bike_id":"677239f9-f924-46d2-84f6-5f061d6df066","system_id":"levelo_inurba_marseille","lat":43.30569,"lon":5.37447,"is_reserved":false,"is_disabled":false,"rental_uris":{"android":"levelo://app?vid=677239f9-f924-46d2-84f6-5f061d6df066","ios":"levelo://app?vid=677239f9-f924-46d2-84f6-5f061d6df066"},"vehicle_type_id":"4","last_reported":1748499347,"current_range_meters":3200,"station_id":"","pricing_plan_id":"cebpf4jnsgd1na2vs0mg"},{"bike_id":"85ab9e49-2de9-4c78-9df8-e03a0245b0f2","system_id":"levelo_inurba_marseille","lat":43.25344,"lon":5.39503,"is_reserved":false,"is_disabled":false,"rental_uris":{"android":"levelo://app?vid=85ab9e49-2de9-4c78-9df8-e03a0245b0f2","ios":"levelo://app?vid=85ab9e49-2de9-4c78-9df8-e03a0245b0f2"},"vehicle_type_id":"4","last_reported":1748499347,"current_range_meters":3600,"station_id":"","pricing_plan_id":"cebpf4jnsgd1na2vs0mg"},{"bike_id":"6d2f49d4-4079-41f0-a189-90db2e417369","system_id":"levelo_inurba_marseille","lat":43.33352,"lon":5.40042,"is_reserved":false,"is_disabled":false,"rental_uris":{"android":"levelo://app?vid=6d2f49d4-4079-41f0-a189-90db2e417369","ios":"levelo://app?vid=6d2f49d4-4079-41f0-a189-90db2e417369"},"vehicle_type_id":"4","last_reported":1748499347,"current_range_meters":4000,"station_id":"","pricing_plan_id":"cebpf4jnsgd1na2vs0mg"},{"bike_id":"97639e6e-4fb0-4576-866f-ade9d49ef449","system_id":"levelo_inurba_marseille","lat":43.30468,"lon":5.3789,"is_reserved":false,"is_disabled":false,"rental_uris":{"android":"levelo://app?vid=97639e6e-4fb0-4576-866f-ade9d49ef449","ios":"levelo://app?vid=97639e6e-4fb0-4576-866f-ade9d49ef449"},"vehicle_type_id":"4","last_reported":1748499347,"current_range_meters":4000,"station_id":"ce4bgup2rcd13ifvqcn0","pricing_plan_id":"cebpf4jnsgd1na2vs0mg"},{"bike_id":"106a6c35-356d-40a4-9d1b-3a8604b3267c","system_id":"levelo_inurba_marseille","lat":43.27918,"lon":5.395759,"is_reserved":false,"is_disabled":false,"rental_uris":{"android":"levelo://app?vid=106a6c35-356d-40a4-9d1b-3a8604b3267c","ios":"levelo://app?vid=106a6c35-356d-40a4-9d1b-3a8604b3267c"},"vehicle_type_id":"4","last_reported":1748499347,"current_range_meters":4000,"station_id":"ce4bhf92rcd13ifvqf40","pricing_plan_id":"cebpf4jnsgd1na2vs0mg"},{"bike_id":"db9704fb-5b96-4afd-a18d-9c5620985697","system_id":"levelo_inurba_marseille","lat":43.26804,"lon":5.40256,"is_reserved":false,"is_disabled":false,"rental_uris":{"android":"levelo://app?vid=db9704fb-5b96-4afd-a18d-9c5620985697","ios":"levelo://app?vid=db9704fb-5b96-4afd-a18d-9c5620985697"},"vehicle_type_id":"4","last_reported":1748499347,"current_range_meters":4000,"station_id":"ce501612rcd8frsf0b60","pricing_plan_id":"cebpf4jnsgd1na2vs0mg"},{"bike_id":"e662cfdf-7308-445f-8e14-4d33034d33f2","system_id":"levelo_inurba_marseille","lat":43.25104,"lon":5.40336,"is_reserved":false,"is_disabled":false,"rental_uris":{"android":"levelo://app?vid=e662cfdf-7308-445f-8e14-4d33034d33f2","ios":"levelo://app?vid=e662cfdf-7308-445f-8e14-4d33034d33f2"},"vehicle_type_id":"4","last_reported":1748499347,"current_range_meters":4400,"station_id":"ce4bhlh2rcd13ifvqgig","pricing_plan_id":"cebpf4jnsgd1na2vs0mg"},{"bike_id":"697f1bc0-ae34-4ad9-8ede-6a27c99a6ea7","system_id":"levelo_inurba_marseille","lat":43.28005,"lon":5.41699,"is_reserved":false,"is_disabled":false,"rental_uris":{"android":"levelo://app?vid=697f1bc0-ae34-4ad9-8ede-6a27c99a6ea7","ios":"levelo://app?vid=697f1bc0-ae34-4ad9-8ede-6a27c99a6ea7"},"vehicle_type_id":"4","last_reported":1748499347,"current_range_meters":4400,"station_id":"ce4bho12rcd13ifvqh1g","pricing_plan_id":"cebpf4jnsgd1na2vs0mg"},{"bike_id":"87b395fb-0dfd-464d-b68d-3afc622e0d48","system_id":"levelo_inurba_marseille","lat":43.29544,"lon":5.39462,"is_reserved":false,"is_disabled":false,"rental_uris":{"android":"levelo://app?vid=87b395fb-0dfd-464d-b68d-3afc622e0d48","ios":"levelo://app?vid=87b395fb-0dfd-464d-b68d-3afc622e0d48"},"vehicle_type_id":"4","last_reported":1748499347,"current_range_meters":4800,"station_id":"","pricing_plan_id":"cebpf4jnsgd1na2vs0mg"},{"bike_id":"1a9deaa6-5b0b-41ea-a3a0-9c49f0de8473","system_id":"levelo_inurba_marseille","lat":43.29335,"lon":5.41165,"is_reserved":false,"is_disabled":false,"rental_uris":{"android":"levelo://app?vid=1a9deaa6-5b0b-41ea-a3a0-9c49f0de8473","ios":"levelo://app?vid=1a9deaa6-5b0b-41ea-a3a0-9c49f0de8473"},"vehicle_type_id":"4","last_reported":1748499347,"current_range_meters":4800,"station_id":"","pricing_plan_id":"cebpf4jnsgd1na2vs0mg"},{"bike_id":"55edb2b6-24f5-484b-a859-47a014e0bde2","system_id":"levelo_inurba_marseille","lat":43.32629,"lon":5.36678,"is_reserved":false,"is_disabled":false,"rental_uris":{"android":"levelo://app?vid=55edb2b6-24f5-484b-a859-47a014e0bde2","ios":"levelo://app?vid=55edb2b6-24f5-484b-a859-47a014e0bde2"},"vehicle_type_id":"4","last_reported":1748499347,"current_range_meters":4800,"station_id":"","pricing_plan_id":"cebpf4jnsgd1na2vs0mg"},{"bike_id":"8b686f9a-13e4-448a-8045-4620b1af486c","system_id":"levelo_inurba_marseille","lat":43.30648,"lon":5.40077,"is_reserved":false,"is_disabled":false,"rental_uris":{"android":"levelo://app?vid=8b686f9a-13e4-448a-8045-4620b1af486c","ios":"levelo://app?vid=8b686f9a-13e4-448a-8045-4620b1af486c"},"vehicle_type_id":"4","last_reported":1748499347,"current_range_meters":4800,"station_id":"ce4bh112rcd13ifvqda0","pricing_plan_id":"cebpf4jnsgd1na2vs0mg"},{"bike_id":"e1364e17-964d-4c3a-a68e-ace0c23aee68","system_id":"levelo_inurba_marseille","lat":43.288413,"lon":5.393303,"is_reserved":false,"is_disabled":false,"rental_uris":{"android":"levelo://app?vid=e1364e17-964d-4c3a-a68e-ace0c23aee68","ios":"levelo://app?vid=e1364e17-964d-4c3a-a68e-ace0c23aee68"},"vehicle_type_id":"4","last_reported":1748499347,"current_range_meters":4800,"station_id":"ce4bh2p2rcd13ifvqdi0","pricing_plan_id":"cebpf4jnsgd1na2vs0mg"},{"bike_id":"fc751a98-3313-41f0-9fb9-ac1a18360a9d","system_id":"levelo_inurba_marseille","lat":43.28419,"lon":5.34975,"is_reserved":false,"is_disabled":false,"rental_uris":{"android":"levelo://app?vid=fc751a98-3313-41f0-9fb9-ac1a18360a9d","ios":"levelo://app?vid=fc751a98-3313-41f0-9fb9-ac1a18360a9d"},"vehicle_type_id":"4","last_reported":1748499347,"current_range_meters":4800,"station_id":"ce4bhbh2rcd13ifvqepg","pricing_plan_id":"cebpf4jnsgd1na2vs0mg"},{"bike_id":"99c1aac8-49be-4ed9-9cfb-15448d6fd0a2","system_id":"levelo_inurba_marseille","lat":43.28716,"lon":5.39984,"is_reserved":false,"is_disabled":false,"rental_uris":{"android":"levelo://app?vid=99c1aac8-49be-4ed9-9cfb-15448d6fd0a2","ios":"levelo://app?vid=99c1aac8-49be-4ed9-9cfb-15448d6fd0a2"},"vehicle_type_id":"4","last_reported":1748499347,"current_range_meters":4800,"station_id":"ce4bho92rcd13ifvqh3g","pricing_plan_id":"cebpf4jnsgd1na2vs0mg"},{"bike_id":"d440bf96-43ec-45b0-b01f-1c5328ca29b2","system_id":"levelo_inurba_marseille","lat":43.27964,"lon":5.38717,"is_reserved":false,"is_disabled":false,"rental_uris":{"android":"levelo://app?vid=d440bf96-43ec-45b0-b01f-1c5328ca29b2","ios":"levelo://app?vid=d440bf96-43ec-45b0-b01f-1c5328ca29b2"},"vehicle_type_id":"4","last_reported":1748499347,"current_range_meters":5600,"station_id":"ce4bhg12rcd13ifvqf80","pricing_plan_id":"cebpf4jnsgd1na2vs0mg"},{"bike_id":"4a459007-110d-4362-aac3-42bccc4a5fc8","system_id":"levelo_inurba_marseille","lat":43.27187,"lon":5.39196,"is_reserved":false,"is_disabled":false,"rental_uris":{"android":"levelo://app?vid=4a459007-110d-4362-aac3-42bccc4a5fc8","ios":"levelo://app?vid=4a459007-110d-4362-aac3-42bccc4a5fc8"},"vehicle_type_id":"4","last_reported":1748499347,"current_range_meters":5600,"station_id":"ce4bhhp2rcd13ifvqfm0","pricing_plan_id":"cebpf4jnsgd1na2vs0mg"},{"bike_id":"e79ef05e-bb28-4c4b-a45f-1945f54353c7","system_id":"levelo_inurba_marseille","lat":43.240612,"lon":5.377636,"is_reserved":false,"is_disabled":false,"rental_uris":{"android":"levelo://app?vid=e79ef05e-bb28-4c4b-a45f-1945f54353c7","ios":"levelo://app?vid=e79ef05e-bb28-4c4b-a45f-1945f54353c7"},"vehicle_type_id":"4","last_reported":1748499347,"current_range_meters":5600,"station_id":"ce4bhnp2rcd13ifvqgvg","pricing_plan_id":"cebpf4jnsgd1na2vs0mg"},{"bike_id":"7911cebf-5c32-4409-bd84-2cbae9e6ba97","system_id":"levelo_inurba_marseille","lat":43.323233,"lon":5.406317,"is_reserved":false,"is_disabled":false,"rental_uris":{"android":"levelo://app?vid=7911cebf-5c32-4409-bd84-2cbae9e6ba97","ios":"levelo://app?vid=7911cebf-5c32-4409-bd84-2cbae9e6ba97"},"vehicle_type_id":"4","last_reported":1748499347,"current_range_meters":5600,"station_id":"ce4bhq92rcd13ifvqhjg","pricing_plan_id":"cebpf4jnsgd1na2vs0mg"},{"bike_id":"e81c314f-503d-4896-a793-3e0edb6bdb80","system_id":"levelo_inurba_marseille","lat":43.32291,"lon":5.38318,"is_reserved":false,"is_disabled":false,"rental_uris":{"android":"levelo://app?vid=e81c314f-503d-4896-a793-3e0edb6bdb80","ios":"levelo://app?vid=e81c314f-503d-4896-a793-3e0edb6bdb80"},"vehicle_type_id":"4","last_reported":1748499347,"current_range_meters":5600,"station_id":"ce4bhr12rcd13ifvqhqg","pricing_plan_id":"cebpf4jnsgd1na2vs0mg"},{"bike_id":"98234324-f3a3-438f-801c-39490a7c5660","system_id":"levelo_inurba_marseille","lat":43.337279,"lon":5.391892,"is_reserved":false,"is_disabled":false,"rental_uris":{"android":"levelo://app?vid=98234324-f3a3-438f-801c-39490a7c5660","ios":"levelo://app?vid=98234324-f3a3-438f-801c-39490a7c5660"},"vehicle_type_id":"4","last_reported":1748499347,"current_range_meters":5600,"station_id":"ce4bhr92rcd13ifvqhsg","pricing_plan_id":"cebpf4jnsgd1na2vs0mg"},{"bike_id":"36e737dc-96e2-4d4b-bae1-8df484b4aa33","system_id":"levelo_inurba_marseille","lat":43.28264,"lon":5.35057,"is_reserved":false,"is_disabled":false,"rental_uris":{"android":"levelo://app?vid=36e737dc-96e2-4d4b-bae1-8df484b4aa33","ios":"levelo://app?vid=36e737dc-96e2-4d4b-bae1-8df484b4aa33"},"vehicle_type_id":"4","last_reported":1748499347,"current_range_meters":6000,"station_id":"ce4bhbp2rcd13ifvqerg","pricing_plan_id":"cebpf4jnsgd1na2vs0mg"},{"bike_id":"9167ea6a-ce66-49ff-859f-3ca7c151003d","system_id":"levelo_inurba_marseille","lat":43.241805,"lon":5.397304,"is_reserved":false,"is_disabled":false,"rental_uris":{"android":"levelo://app?vid=9167ea6a-ce66-49ff-859f-3ca7c151003d","ios":"levelo://app?vid=9167ea6a-ce66-49ff-859f-3ca7c151003d"},"vehicle_type_id":"4","last_reported":1748499347,"current_range_meters":6000,"station_id":"ce4bhn12rcd13ifvqgpg","pricing_plan_id":"cebpf4jnsgd1na2vs0mg"},{"bike_id":"c3a0bd73-5813-47f0-a5c8-27701041c8ba","system_id":"levelo_inurba_marseille","lat":43.27246,"lon":5.42402,"is_reserved":false,"is_disabled":false,"rental_uris":{"android":"levelo://app?vid=c3a0bd73-5813-47f0-a5c8-27701041c8ba","ios":"levelo://app?vid=c3a0bd73-5813-47f0-a5c8-27701041c8ba"},"vehicle_type_id":"4","last_reported":1748499347,"current_range_meters":6400,"station_id":"","pricing_plan_id":"cebpf4jnsgd1na2vs0mg"},{"bike_id":"1490c9d6-e6f8-49e5-a25d-0d3c77d24807","system_id":"levelo_inurba_marseille","lat":43.292999,"lon":5.374568,"is_reserved":false,"is_disabled":false,"rental_uris":{"android":"levelo://app?vid=1490c9d6-e6f8-49e5-a25d-0d3c77d24807","ios":"levelo://app?vid=1490c9d6-e6f8-49e5-a25d-0d3c77d24807"},"vehicle_type_id":"4","last_reported":1748499347,"current_range_meters":6400,"station_id":"ce4bgi12rcd13ifvqb70","pricing_plan_id":"cebpf4jnsgd1na2vs0mg"},{"bike_id":"3de69e24-c62a-42bc-ab23-d6fb07ff3a7f","system_id":"levelo_inurba_marseille","lat":43.30148,"lon":5.38059,"is_reserved":false,"is_disabled":false,"rental_uris":{"android":"levelo://app?vid=3de69e24-c62a-42bc-ab23-d6fb07ff3a7f","ios":"levelo://app?vid=3de69e24-c62a-42bc-ab23-d6fb07ff3a7f"},"vehicle_type_id":"4","last_reported":1748499347,"current_range_meters":6400,"station_id":"ce4bgjp2rcd13ifvqbh0","pricing_plan_id":"cebpf4jnsgd1na2vs0mg"},{"bike_id":"98d347c6-14e6-4d92-b31c-7483df770580","system_id":"levelo_inurba_marseille","lat":43.2623,"lon":5.40454,"is_reserved":false,"is_disabled":false,"rental_uris":{"android":"levelo://app?vid=98d347c6-14e6-4d92-b31c-7483df770580","ios":"levelo://app?vid=98d347c6-14e6-4d92-b31c-7483df770580"},"vehicle_type_id":"4","last_reported":1748499347,"current_range_meters":6400,"station_id":"ce4bhmh2rcd13ifvqgmg","pricing_plan_id":"cebpf4jnsgd1na2vs0mg"},{"bike_id":"e7c8a9b9-0f7e-4f93-8f26-86f0646a609e","system_id":"levelo_inurba_marseille","lat":43.331096,"lon":5.385208,"is_reserved":false,"is_disabled":false,"rental_uris":{"android":"levelo://app?vid=e7c8a9b9-0f7e-4f93-8f26-86f0646a609e","ios":"levelo://app?vid=e7c8a9b9-0f7e-4f93-8f26-86f0646a609e"},"vehicle_type_id":"4","last_reported":1748499347,"current_range_meters":6800,"station_id":"","pricing_plan_id":"cebpf4jnsgd1na2vs0mg"},{"bike_id":"44a04aac-0228-4a88-b1c4-62daa67746f4","system_id":"levelo_inurba_marseille","lat":43.303712,"lon":5.425031,"is_reserved":false,"is_disabled":false,"rental_uris":{"android":"levelo://app?vid=44a04aac-0228-4a88-b1c4-62daa67746f4","ios":"levelo://app?vid=44a04aac-0228-4a88-b1c4-62daa67746f4"},"vehicle_type_id":"4","last_reported":1748499347,"current_range_meters":6800,"station_id":"ce4bhoh2rcd13ifvqh6g","pricing_plan_id":"cebpf4jnsgd1na2vs0mg"},{"bike_id":"6d7cfdcd-f061-4eee-b4e5-78d9b6729328","system_id":"levelo_inurba_marseille","lat":43.33001,"lon":5.43848,"is_reserved":false,"is_disabled":false,"rental_uris":{"android":"levelo://app?vid=6d7cfdcd-f061-4eee-b4e5-78d9b6729328","ios":"levelo://app?vid=6d7cfdcd-f061-4eee-b4e5-78d9b6729328"},"vehicle_type_id":"4","last_reported":1748499347,"current_range_meters":7200,"station_id":"","pricing_plan_id":"cebpf4jnsgd1na2vs0mg"},{"bike_id":"63dcf5e7-add3-4475-ba20-98b0733097e2","system_id":"levelo_inurba_marseille","lat":43.30136,"lon":5.38069,"is_reserved":false,"is_disabled":false,"rental_uris":{"android":"levelo://app?vid=63dcf5e7-add3-4475-ba20-98b0733097e2","ios":"levelo://app?vid=63dcf5e7-add3-4475-ba20-98b0733097e2"},"vehicle_type_id":"4","last_reported":1748499347,"current_range_meters":7200,"station_id":"ce4bgjp2rcd13ifvqbh0","pricing_plan_id":"cebpf4jnsgd1na2vs0mg"},{"bike_id":"aeb94751-36eb-4d35-b5b3-2fa799561193","system_id":"levelo_inurba_marseille","lat":43.30783,"lon":5.37639,"is_reserved":false,"is_disabled":false,"rental_uris":{"android":"levelo://app?vid=aeb94751-36eb-4d35-b5b3-2fa799561193","ios":"levelo://app?vid=aeb94751-36eb-4d35-b5b3-2fa799561193"},"vehicle_type_id":"4","last_reported":1748499347,"current_range_meters":7200,"station_id":"ce4bgv92rcd13ifvqcq0","pricing_plan_id":"cebpf4jnsgd1na2vs0mg"},{"bike_id":"2c561fcc-c166-4477-ba05-0bd219968719","system_id":"levelo_inurba_marseille","lat":43.29447,"lon":5.39752,"is_reserved":false,"is_disabled":false,"rental_uris":{"android":"levelo://app?vid=2c561fcc-c166-4477-ba05-0bd219968719","ios":"levelo://app?vid=2c561fcc-c166-4477-ba05-0bd219968719"},"vehicle_type_id":"4","last_reported":1748499347,"current_range_meters":7200,"station_id":"ce4bh3h2rcd13ifvqdo0","pricing_plan_id":"cebpf4jnsgd1na2vs0mg"},{"bike_id":"3d8a0e37-a8de-4f1c-b43d-d8f01c58bb77","system_id":"levelo_inurba_marseille","lat":43.28675,"lon":5.3868,"is_reserved":false,"is_disabled":false,"rental_uris":{"android":"levelo://app?vid=3d8a0e37-a8de-4f1c-b43d-d8f01c58bb77","ios":"levelo://app?vid=3d8a0e37-a8de-4f1c-b43d-d8f01c58bb77"},"vehicle_type_id":"4","last_reported":1748499347,"current_range_meters":7200,"station_id":"ce4bh492rcd13ifvqdug","pricing_plan_id":"cebpf4jnsgd1na2vs0mg"},{"bike_id":"aece26bf-35dd-4abb-a667-c9df8ed9e08d","system_id":"levelo_inurba_marseille","lat":43.27379,"lon":5.36274,"is_reserved":false,"is_disabled":false,"rental_uris":{"android":"levelo://app?vid=aece26bf-35dd-4abb-a667-c9df8ed9e08d","ios":"levelo://app?vid=aece26bf-35dd-4abb-a667-c9df8ed9e08d"},"vehicle_type_id":"4","last_reported":1748499347,"current_range_meters":7200,"station_id":"ce4bhbh2rcd13ifvqeo0","pricing_plan_id":"cebpf4jnsgd1na2vs0mg"},{"bike_id":"eefbf0be-aede-4ce4-8e0c-8d5278212334","system_id":"levelo_inurba_marseille","lat":43.251126,"lon":5.403491,"is_reserved":false,"is_disabled":false,"rental_uris":{"android":"levelo://app?vid=eefbf0be-aede-4ce4-8e0c-8d5278212334","ios":"levelo://app?vid=eefbf0be-aede-4ce4-8e0c-8d5278212334"},"vehicle_type_id":"4","last_reported":1748499347,"current_range_meters":7200,"station_id":"ce4bhlh2rcd13ifvqgig","pricing_plan_id":"cebpf4jnsgd1na2vs0mg"},{"bike_id":"985a5028-4b22-4637-856d-8c1e1dd035e0","system_id":"levelo_inurba_marseille","lat":43.294071,"lon":5.40131,"is_reserved":false,"is_disabled":false,"rental_uris":{"android":"levelo://app?vid=985a5028-4b22-4637-856d-8c1e1dd035e0","ios":"levelo://app?vid=985a5028-4b22-4637-856d-8c1e1dd035e0"},"vehicle_type_id":"4","last_reported":1748499347,"current_range_meters":8000,"station_id":"","pricing_plan_id":"cebpf4jnsgd1na2vs0mg"},{"bike_id":"e1ba23a0-b941-4ae8-a1d4-7ce538631bf9","system_id":"levelo_inurba_marseille","lat":43.30163,"lon":5.3809,"is_reserved":false,"is_disabled":false,"rental_uris":{"android":"levelo://app?vid=e1ba23a0-b941-4ae8-a1d4-7ce538631bf9","ios":"levelo://app?vid=e1ba23a0-b941-4ae8-a1d4-7ce538631bf9"},"vehicle_type_id":"4","last_reported":1748499347,"current_range_meters":8000,"station_id":"ce4bgjp2rcd13ifvqbh0","pricing_plan_id":"cebpf4jnsgd1na2vs0mg"},{"bike_id":"ce7b18e4-7948-40ae-b647-c69f45870dbb","system_id":"levelo_inurba_marseille","lat":43.30931,"lon":5.40177,"is_reserved":false,"is_disabled":false,"rental_uris":{"android":"levelo://app?vid=ce7b18e4-7948-40ae-b647-c69f45870dbb","ios":"levelo://app?vid=ce7b18e4-7948-40ae-b647-c69f45870dbb"},"vehicle_type_id":"4","last_reported":1748499347,"current_range_meters":8000,"station_id":"ce4bgvp2rcd13ifvqct0","pricing_plan_id":"cebpf4jnsgd1na2vs0mg"},{"bike_id":"ceb48744-414b-491c-a245-f9a32d77c61d","system_id":"levelo_inurba_marseille","lat":43.28152,"lon":5.42655,"is_reserved":false,"is_disabled":false,"rental_uris":{"android":"levelo://app?vid=ceb48744-414b-491c-a245-f9a32d77c61d","ios":"levelo://app?vid=ceb48744-414b-491c-a245-f9a32d77c61d"},"vehicle_type_id":"4","last_reported":1748499347,"current_range_meters":8000,"station_id":"ce4bhnh2rcd13ifvqgug","pricing_plan_id":"cebpf4jnsgd1na2vs0mg"},{"bike_id":"39237a4d-1869-4c40-896a-ab5c39731355","system_id":"levelo_inurba_marseille","lat":43.2808,"lon":5.39703,"is_reserved":false,"is_disabled":false,"rental_uris":{"android":"levelo://app?vid=39237a4d-1869-4c40-896a-ab5c39731355","ios":"levelo://app?vid=39237a4d-1869-4c40-896a-ab5c39731355"},"vehicle_type_id":"4","last_reported":1748499347,"current_range_meters":8000,"station_id":"ce4bho12rcd13ifvqh2g","pricing_plan_id":"cebpf4jnsgd1na2vs0mg"},{"bike_id":"b6194222-a80b-43bc-b765-fba2143e9c5c","system_id":"levelo_inurba_marseille","lat":43.23208,"lon":5.35575,"is_reserved":false,"is_disabled":false,"rental_uris":{"android":"levelo://app?vid=b6194222-a80b-43bc-b765-fba2143e9c5c","ios":"levelo://app?vid=b6194222-a80b-43bc-b765-fba2143e9c5c"},"vehicle_type_id":"4","last_reported":1748499347,"current_range_meters":8000,"station_id":"ce4bhu92rcd13ifvqi70","pricing_plan_id":"cebpf4jnsgd1na2vs0mg"},{"bike_id":"be4b293e-8744-4637-8ca2-a3e9032e9cec","system_id":"levelo_inurba_marseille","lat":43.22947,"lon":5.35378,"is_reserved":false,"is_disabled":false,"rental_uris":{"android":"levelo://app?vid=be4b293e-8744-4637-8ca2-a3e9032e9cec","ios":"levelo://app?vid=be4b293e-8744-4637-8ca2-a3e9032e9cec"},"vehicle_type_id":"4","last_reported":1748499347,"current_range_meters":8000,"station_id":"cpo3532slgdg3j2ikp40","pricing_plan_id":"cebpf4jnsgd1na2vs0mg"},{"bike_id":"1eed49fb-ce64-4ebd-9903-7d87835a2ccf","system_id":"levelo_inurba_marseille","lat":43.2976,"lon":5.46007,"is_reserved":false,"is_disabled":false,"rental_uris":{"android":"levelo://app?vid=1eed49fb-ce64-4ebd-9903-7d87835a2ccf","ios":"levelo://app?vid=1eed49fb-ce64-4ebd-9903-7d87835a2ccf"},"vehicle_type_id":"4","last_reported":1748499347,"current_range_meters":8400,"station_id":"","pricing_plan_id":"cebpf4jnsgd1na2vs0mg"},{"bike_id":"346b4841-9c0b-4ec9-8c69-927873e37bb5","system_id":"levelo_inurba_marseille","lat":43.2988,"lon":5.36316,"is_reserved":false,"is_disabled":false,"rental_uris":{"android":"levelo://app?vid=346b4841-9c0b-4ec9-8c69-927873e37bb5","ios":"levelo://app?vid=346b4841-9c0b-4ec9-8c69-927873e37bb5"},"vehicle_type_id":"4","last_reported":1748499347,"current_range_meters":8400,"station_id":"","pricing_plan_id":"cebpf4jnsgd1na2vs0mg"},{"bike_id":"3c68f385-ffba-4d15-b971-4641effeeac9","system_id":"levelo_inurba_marseille","lat":43.28229,"lon":5.39056,"is_reserved":false,"is_disabled":false,"rental_uris":{"android":"levelo://app?vid=3c68f385-ffba-4d15-b971-4641effeeac9","ios":"levelo://app?vid=3c68f385-ffba-4d15-b971-4641effeeac9"},"vehicle_type_id":"4","last_reported":1748499347,"current_range_meters":8400,"station_id":"","pricing_plan_id":"cebpf4jnsgd1na2vs0mg"},{"bike_id":"9d8a073e-f5f9-4c10-b98c-72efc4846a30","system_id":"levelo_inurba_marseille","lat":43.302895,"lon":5.447092,"is_reserved":false,"is_disabled":false,"rental_uris":{"android":"levelo://app?vid=9d8a073e-f5f9-4c10-b98c-72efc4846a30","ios":"levelo://app?vid=9d8a073e-f5f9-4c10-b98c-72efc4846a30"},"vehicle_type_id":"4","last_reported":1748499347,"current_range_meters":8400,"station_id":"","pricing_plan_id":"cebpf4jnsgd1na2vs0mg"},{"bike_id":"e27576b3-b957-46db-b1cc-d41105dc071a","system_id":"levelo_inurba_marseille","lat":43.30152,"lon":5.38092,"is_reserved":false,"is_disabled":false,"rental_uris":{"android":"levelo://app?vid=e27576b3-b957-46db-b1cc-d41105dc071a","ios":"levelo://app?vid=e27576b3-b957-46db-b1cc-d41105dc071a"},"vehicle_type_id":"4","last_reported":1748499347,"current_range_meters":8400,"station_id":"ce4bgjp2rcd13ifvqbh0","pricing_plan_id":"cebpf4jnsgd1na2vs0mg"},{"bike_id":"e40b9479-26e0-453c-bb5a-8e9a2bcde75c","system_id":"levelo_inurba_marseille","lat":43.30948,"lon":5.39034,"is_reserved":false,"is_disabled":false,"rental_uris":{"android":"levelo://app?vid=e40b9479-26e0-453c-bb5a-8e9a2bcde75c","ios":"levelo://app?vid=e40b9479-26e0-453c-bb5a-8e9a2bcde75c"},"vehicle_type_id":"4","last_reported":1748499347,"current_range_meters":8400,"station_id":"ce4bgup2rcd13ifvqco0","pricing_plan_id":"cebpf4jnsgd1na2vs0mg"},{"bike_id":"0c2931e3-efa6-4677-8fe3-5845950a3358","system_id":"levelo_inurba_marseille","lat":43.30925,"lon":5.40138,"is_reserved":false,"is_disabled":false,"rental_uris":{"android":"levelo://app?vid=0c2931e3-efa6-4677-8fe3-5845950a3358","ios":"levelo://app?vid=0c2931e3-efa6-4677-8fe3-5845950a3358"},"vehicle_type_id":"4","last_reported":1748499347,"current_range_meters":8400,"station_id":"ce4bgvp2rcd13ifvqct0","pricing_plan_id":"cebpf4jnsgd1na2vs0mg"},{"bike_id":"e2695898-3d8e-445c-b107-83d988a84c50","system_id":"levelo_inurba_marseille","lat":43.28028,"lon":5.36944,"is_reserved":false,"is_disabled":false,"rental_uris":{"android":"levelo://app?vid=e2695898-3d8e-445c-b107-83d988a84c50","ios":"levelo://app?vid=e2695898-3d8e-445c-b107-83d988a84c50"},"vehicle_type_id":"4","last_reported":1748499347,"current_range_meters":8400,"station_id":"ce4bha12rcd13ifvqef0","pricing_plan_id":"cebpf4jnsgd1na2vs0mg"},{"bike_id":"10445e78-de74-4e03-b139-5898ffe94d58","system_id":"levelo_inurba_marseille","lat":43.27224,"lon":5.39193,"is_reserved":false,"is_disabled":false,"rental_uris":{"android":"levelo://app?vid=10445e78-de74-4e03-b139-5898ffe94d58","ios":"levelo://app?vid=10445e78-de74-4e03-b139-5898ffe94d58"},"vehicle_type_id":"4","last_reported":1748499347,"current_range_meters":8400,"station_id":"ce4bhhp2rcd13ifvqfm0","pricing_plan_id":"cebpf4jnsgd1na2vs0mg"},{"bike_id":"16578a9c-c460-4d38-be25-a20250881a73","system_id":"levelo_inurba_marseille","lat":43.322228,"lon":5.384281,"is_reserved":false,"is_disabled":false,"rental_uris":{"android":"levelo://app?vid=16578a9c-c460-4d38-be25-a20250881a73","ios":"levelo://app?vid=16578a9c-c460-4d38-be25-a20250881a73"},"vehicle_type_id":"4","last_reported":1748499347,"current_range_meters":8800,"station_id":"","pricing_plan_id":"cebpf4jnsgd1na2vs0mg"},{"bike_id":"5cc874f1-fcba-418a-95cb-eb3493ff9f0b","system_id":"levelo_inurba_marseille","lat":43.317216,"lon":5.405255,"is_reserved":false,"is_disabled":false,"rental_uris":{"android":"levelo://app?vid=5cc874f1-fcba-418a-95cb-eb3493ff9f0b","ios":"levelo://app?vid=5cc874f1-fcba-418a-95cb-eb3493ff9f0b"},"vehicle_type_id":"4","last_reported":1748499347,"current_range_meters":8800,"station_id":"","pricing_plan_id":"cebpf4jnsgd1na2vs0mg"},{"bike_id":"ac543a72-051c-4590-8b3f-b593381f998e","system_id":"levelo_inurba_marseille","lat":43.3015,"lon":5.381,"is_reserved":false,"is_disabled":false,"rental_uris":{"android":"levelo://app?vid=ac543a72-051c-4590-8b3f-b593381f998e","ios":"levelo://app?vid=ac543a72-051c-4590-8b3f-b593381f998e"},"vehicle_type_id":"4","last_reported":1748499347,"current_range_meters":8800,"station_id":"ce4bgjp2rcd13ifvqbh0","pricing_plan_id":"cebpf4jnsgd1na2vs0mg"},{"bike_id":"5050b52e-8ad3-400c-9ba1-7c7971cc22da","system_id":"levelo_inurba_marseille","lat":43.298908,"lon":5.397511,"is_reserved":false,"is_disabled":false,"rental_uris":{"android":"levelo://app?vid=5050b52e-8ad3-400c-9ba1-7c7971cc22da","ios":"levelo://app?vid=5050b52e-8ad3-400c-9ba1-7c7971cc22da"},"vehicle_type_id":"4","last_reported":1748499347,"current_range_meters":8800,"station_id":"ce4bh0h2rcd13ifvqd50","pricing_plan_id":"cebpf4jnsgd1na2vs0mg"},{"bike_id":"67f50ba8-a46d-49e5-8f4f-3db792e5b15a","system_id":"levelo_inurba_marseille","lat":43.284841,"lon":5.384363,"is_reserved":false,"is_disabled":false,"rental_uris":{"android":"levelo://app?vid=67f50ba8-a46d-49e5-8f4f-3db792e5b15a","ios":"levelo://app?vid=67f50ba8-a46d-49e5-8f4f-3db792e5b15a"},"vehicle_type_id":"4","last_reported":1748499347,"current_range_meters":8800,"station_id":"ce4bh512rcd13ifvqe3g","pricing_plan_id":"cebpf4jnsgd1na2vs0mg"},{"bike_id":"2fac5d15-c5a1-4d94-a91a-2de306a0346b","system_id":"levelo_inurba_marseille","lat":43.23974,"lon":5.36643,"is_reserved":false,"is_disabled":false,"rental_uris":{"android":"levelo://app?vid=2fac5d15-c5a1-4d94-a91a-2de306a0346b","ios":"levelo://app?vid=2fac5d15-c5a1-4d94-a91a-2de306a0346b"},"vehicle_type_id":"4","last_reported":1748499347,"current_range_meters":8800,"station_id":"ce4bhi12rcd13ifvqfp0","pricing_plan_id":"cebpf4jnsgd1na2vs0mg"},{"bike_id":"73cac34e-d062-41e0-b470-256fba4a42bc","system_id":"levelo_inurba_marseille","lat":43.27829,"lon":5.392,"is_reserved":false,"is_disabled":false,"rental_uris":{"android":"levelo://app?vid=73cac34e-d062-41e0-b470-256fba4a42bc","ios":"levelo://app?vid=73cac34e-d062-41e0-b470-256fba4a42bc"},"vehicle_type_id":"4","last_reported":1748499347,"current_range_meters":8800,"station_id":"ce4bhjp2rcd13ifvqga0","pricing_plan_id":"cebpf4jnsgd1na2vs0mg"},{"bike_id":"16f8c46e-dbc6-4ab1-941f-3d93ad546819","system_id":"levelo_inurba_marseille","lat":43.323,"lon":5.3828,"is_reserved":false,"is_disabled":false,"rental_uris":{"android":"levelo://app?vid=16f8c46e-dbc6-4ab1-941f-3d93ad546819","ios":"levelo://app?vid=16f8c46e-dbc6-4ab1-941f-3d93ad546819"},"vehicle_type_id":"4","last_reported":1748499347,"current_range_meters":8800,"station_id":"ce4bhr12rcd13ifvqhqg","pricing_plan_id":"cebpf4jnsgd1na2vs0mg"},{"bike_id":"0dde7803-e4b4-44c8-98fe-68ad6fa3cde1","system_id":"levelo_inurba_marseille","lat":43.31731,"lon":5.38883,"is_reserved":false,"is_disabled":false,"rental_uris":{"android":"levelo://app?vid=0dde7803-e4b4-44c8-98fe-68ad6fa3cde1","ios":"levelo://app?vid=0dde7803-e4b4-44c8-98fe-68ad6fa3cde1"},"vehicle_type_id":"4","last_reported":1748499347,"current_range_meters":9200,"station_id":"","pricing_plan_id":"cebpf4jnsgd1na2vs0mg"},{"bike_id":"2f650bb1-6027-4191-83d2-16315820a0a7","system_id":"levelo_inurba_marseille","lat":43.29979,"lon":5.37357,"is_reserved":false,"is_disabled":false,"rental_uris":{"android":"levelo://app?vid=2f650bb1-6027-4191-83d2-16315820a0a7","ios":"levelo://app?vid=2f650bb1-6027-4191-83d2-16315820a0a7"},"vehicle_type_id":"4","last_reported":1748499347,"current_range_meters":9200,"station_id":"","pricing_plan_id":"cebpf4jnsgd1na2vs0mg"},{"bike_id":"e96e6ad8-66a5-4a74-9b8a-04311f0e6684","system_id":"levelo_inurba_marseille","lat":43.331023,"lon":5.389387,"is_reserved":false,"is_disabled":false,"rental_uris":{"android":"levelo://app?vid=e96e6ad8-66a5-4a74-9b8a-04311f0e6684","ios":"levelo://app?vid=e96e6ad8-66a5-4a74-9b8a-04311f0e6684"},"vehicle_type_id":"4","last_reported":1748499347,"current_range_meters":9200,"station_id":"","pricing_plan_id":"cebpf4jnsgd1na2vs0mg"},{"bike_id":"14b37733-acd4-481b-a3aa-be1a6ac992e3","system_id":"levelo_inurba_marseille","lat":43.29978,"lon":5.37157,"is_reserved":false,"is_disabled":false,"rental_uris":{"android":"levelo://app?vid=14b37733-acd4-481b-a3aa-be1a6ac992e3","ios":"levelo://app?vid=14b37733-acd4-481b-a3aa-be1a6ac992e3"},"vehicle_type_id":"4","last_reported":1748499347,"current_range_meters":9200,"station_id":"ce4bgr92rcd13ifvqc7g","pricing_plan_id":"cebpf4jnsgd1na2vs0mg"},{"bike_id":"31c3b208-56cd-46d6-99c4-93414088c6fa","system_id":"levelo_inurba_marseille","lat":43.28157,"lon":5.42648,"is_reserved":false,"is_disabled":false,"rental_uris":{"android":"levelo://app?vid=31c3b208-56cd-46d6-99c4-93414088c6fa","ios":"levelo://app?vid=31c3b208-56cd-46d6-99c4-93414088c6fa"},"vehicle_type_id":"4","last_reported":1748499347,"current_range_meters":9200,"station_id":"ce4bhnh2rcd13ifvqgug","pricing_plan_id":"cebpf4jnsgd1na2vs0mg"},{"bike_id":"e0800363-90d1-425c-be97-5251f4e6b38b","system_id":"levelo_inurba_marseille","lat":43.280004,"lon":5.416654,"is_reserved":false,"is_disabled":false,"rental_uris":{"android":"levelo://app?vid=e0800363-90d1-425c-be97-5251f4e6b38b","ios":"levelo://app?vid=e0800363-90d1-425c-be97-5251f4e6b38b"},"vehicle_type_id":"4","last_reported":1748499347,"current_range_meters":9200,"station_id":"ce4bho12rcd13ifvqh1g","pricing_plan_id":"cebpf4jnsgd1na2vs0mg"},{"bike_id":"dabe1f74-e9a6-4ba9-86df-0aab5d6a979d","system_id":"levelo_inurba_marseille","lat":43.31717,"lon":5.4371,"is_reserved":false,"is_disabled":false,"rental_uris":{"android":"levelo://app?vid=dabe1f74-e9a6-4ba9-86df-0aab5d6a979d","ios":"levelo://app?vid=dabe1f74-e9a6-4ba9-86df-0aab5d6a979d"},"vehicle_type_id":"4","last_reported":1748499347,"current_range_meters":9200,"station_id":"ce4bhp92rcd13ifvqhcg","pricing_plan_id":"cebpf4jnsgd1na2vs0mg"},{"bike_id":"1839a72b-1f19-439f-ba17-e7974ed596b4","system_id":"levelo_inurba_marseille","lat":43.321003,"lon":5.374766,"is_reserved":false,"is_disabled":false,"rental_uris":{"android":"levelo://app?vid=1839a72b-1f19-439f-ba17-e7974ed596b4","ios":"levelo://app?vid=1839a72b-1f19-439f-ba17-e7974ed596b4"},"vehicle_type_id":"4","last_reported":1748499347,"current_range_meters":9600,"station_id":"","pricing_plan_id":"cebpf4jnsgd1na2vs0mg"},{"bike_id":"6020956d-907b-4d6d-a09e-7e7340ad3d59","system_id":"levelo_inurba_marseille","lat":43.29287,"lon":5.40129,"is_reserved":false,"is_disabled":false,"rental_uris":{"android":"levelo://app?vid=6020956d-907b-4d6d-a09e-7e7340ad3d59","ios":"levelo://app?vid=6020956d-907b-4d6d-a09e-7e7340ad3d59"},"vehicle_type_id":"4","last_reported":1748499347,"current_range_meters":9600,"station_id":"ce4bh312rcd13ifvqdk0","pricing_plan_id":"cebpf4jnsgd1na2vs0mg"},{"bike_id":"87bbad0c-8c28-481d-9de5-144650e2492b","system_id":"levelo_inurba_marseille","lat":43.248104,"lon":5.374636,"is_reserved":false,"is_disabled":false,"rental_uris":{"android":"levelo://app?vid=87bbad0c-8c28-481d-9de5-144650e2492b","ios":"levelo://app?vid=87bbad0c-8c28-481d-9de5-144650e2492b"},"vehicle_type_id":"4","last_reported":1748499347,"current_range_meters":9600,"station_id":"ce4bhgh2rcd13ifvqfb0","pricing_plan_id":"cebpf4jnsgd1na2vs0mg"},{"bike_id":"181d697e-b7c9-4331-b0b7-e9989b13a5fa","system_id":"levelo_inurba_marseille","lat":43.26178,"lon":5.40387,"is_reserved":false,"is_disabled":false,"rental_uris":{"android":"levelo://app?vid=181d697e-b7c9-4331-b0b7-e9989b13a5fa","ios":"levelo://app?vid=181d697e-b7c9-4331-b0b7-e9989b13a5fa"},"vehicle_type_id":"4","last_reported":1748499347,"current_range_meters":9600,"station_id":"ce4bhmh2rcd13ifvqgmg","pricing_plan_id":"cebpf4jnsgd1na2vs0mg"},{"bike_id":"60af92f5-378b-4ca7-965f-8544c59fbbda","system_id":"levelo_inurba_marseille","lat":43.282128,"lon":5.390674,"is_reserved":false,"is_disabled":false,"rental_uris":{"android":"levelo://app?vid=60af92f5-378b-4ca7-965f-8544c59fbbda","ios":"levelo://app?vid=60af92f5-378b-4ca7-965f-8544c59fbbda"},"vehicle_type_id":"4","last_reported":1748499347,"current_range_meters":10000,"station_id":"","pricing_plan_id":"cebpf4jnsgd1na2vs0mg"},{"bike_id":"22771043-09b1-43eb-91e0-5c845144e1e3","system_id":"levelo_inurba_marseille","lat":43.277099,"lon":5.408854,"is_reserved":false,"is_disabled":false,"rental_uris":{"android":"levelo://app?vid=22771043-09b1-43eb-91e0-5c845144e1e3","ios":"levelo://app?vid=22771043-09b1-43eb-91e0-5c845144e1e3"},"vehicle_type_id":"4","last_reported":1748499347,"current_range_meters":10000,"station_id":"","pricing_plan_id":"cebpf4jnsgd1na2vs0mg"},{"bike_id":"3013266d-03ec-4779-8d20-2e5da0a480f7","system_id":"levelo_inurba_marseille","lat":43.31637,"lon":5.38806,"is_reserved":false,"is_disabled":false,"rental_uris":{"android":"levelo://app?vid=3013266d-03ec-4779-8d20-2e5da0a480f7","ios":"levelo://app?vid=3013266d-03ec-4779-8d20-2e5da0a480f7"},"vehicle_type_id":"4","last_reported":1748499347,"current_range_meters":10000,"station_id":"","pricing_plan_id":"cebpf4jnsgd1na2vs0mg"},{"bike_id":"b30bb0e4-57e3-482e-b23d-e8852f73bdf6","system_id":"levelo_inurba_marseille","lat":43.30155,"lon":5.38075,"is_reserved":false,"is_disabled":false,"rental_uris":{"android":"levelo://app?vid=b30bb0e4-57e3-482e-b23d-e8852f73bdf6","ios":"levelo://app?vid=b30bb0e4-57e3-482e-b23d-e8852f73bdf6"},"vehicle_type_id":"4","last_reported":1748499347,"current_range_meters":10000,"station_id":"ce4bgjp2rcd13ifvqbh0","pricing_plan_id":"cebpf4jnsgd1na2vs0mg"},{"bike_id":"a09d9f3d-435b-42a4-b533-6b0196c08dd6","system_id":"levelo_inurba_marseille","lat":43.308775,"lon":5.396389,"is_reserved":false,"is_disabled":false,"rental_uris":{"android":"levelo://app?vid=a09d9f3d-435b-42a4-b533-6b0196c08dd6","ios":"levelo://app?vid=a09d9f3d-435b-42a4-b533-6b0196c08dd6"},"vehicle_type_id":"4","last_reported":1748499347,"current_range_meters":10000,"station_id":"ce4bh012rcd13ifvqcv0","pricing_plan_id":"cebpf4jnsgd1na2vs0mg"},{"bike_id":"61ff3d2c-9950-405e-8098-6ab5d21669e7","system_id":"levelo_inurba_marseille","lat":43.26779,"lon":5.39433,"is_reserved":false,"is_disabled":false,"rental_uris":{"android":"levelo://app?vid=61ff3d2c-9950-405e-8098-6ab5d21669e7","ios":"levelo://app?vid=61ff3d2c-9950-405e-8098-6ab5d21669e7"},"vehicle_type_id":"4","last_reported":1748499347,"current_range_meters":10000,"station_id":"ce4bhh12rcd13ifvqfg0","pricing_plan_id":"cebpf4jnsgd1na2vs0mg"},{"bike_id":"47f55a1f-8588-4781-bc30-f75474d90e6f","system_id":"levelo_inurba_marseille","lat":43.241715,"lon":5.397395,"is_reserved":false,"is_disabled":false,"rental_uris":{"android":"levelo://app?vid=47f55a1f-8588-4781-bc30-f75474d90e6f","ios":"levelo://app?vid=47f55a1f-8588-4781-bc30-f75474d90e6f"},"vehicle_type_id":"4","last_reported":1748499347,"current_range_meters":10000,"station_id":"ce4bhn12rcd13ifvqgpg","pricing_plan_id":"cebpf4jnsgd1na2vs0mg"},{"bike_id":"91355bf8-577c-482b-b451-9461084a40c7","system_id":"levelo_inurba_marseille","lat":43.287004,"lon":5.39983,"is_reserved":false,"is_disabled":false,"rental_uris":{"android":"levelo://app?vid=91355bf8-577c-482b-b451-9461084a40c7","ios":"levelo://app?vid=91355bf8-577c-482b-b451-9461084a40c7"},"vehicle_type_id":"4","last_reported":1748499347,"current_range_meters":10000,"station_id":"ce4bho92rcd13ifvqh3g","pricing_plan_id":"cebpf4jnsgd1na2vs0mg"},{"bike_id":"6de0c367-16d8-40fd-95d0-4105c0b2586d","system_id":"levelo_inurba_marseille","lat":43.32672,"lon":5.40985,"is_reserved":false,"is_disabled":false,"rental_uris":{"android":"levelo://app?vid=6de0c367-16d8-40fd-95d0-4105c0b2586d","ios":"levelo://app?vid=6de0c367-16d8-40fd-95d0-4105c0b2586d"},"vehicle_type_id":"4","last_reported":1748499347,"current_range_meters":10000,"station_id":"ce4bhpp2rcd13ifvqhgg","pricing_plan_id":"cebpf4jnsgd1na2vs0mg"},{"bike_id":"c7b8b51e-c853-4352-9193-32615af234ef","system_id":"levelo_inurba_marseille","lat":43.26189,"lon":5.42066,"is_reserved":false,"is_disabled":false,"rental_uris":{"android":"levelo://app?vid=c7b8b51e-c853-4352-9193-32615af234ef","ios":"levelo://app?vid=c7b8b51e-c853-4352-9193-32615af234ef"},"vehicle_type_id":"4","last_reported":1748499347,"current_range_meters":10800,"station_id":"","pricing_plan_id":"cebpf4jnsgd1na2vs0mg"},{"bike_id":"0c86123a-f449-45da-b9f5-701d3abcb46e","system_id":"levelo_inurba_marseille","lat":43.30887,"lon":5.39637,"is_reserved":false,"is_disabled":false,"rental_uris":{"android":"levelo://app?vid=0c86123a-f449-45da-b9f5-701d3abcb46e","ios":"levelo://app?vid=0c86123a-f449-45da-b9f5-701d3abcb46e"},"vehicle_type_id":"4","last_reported":1748499347,"current_range_meters":10800,"station_id":"ce4bh012rcd13ifvqcv0","pricing_plan_id":"cebpf4jnsgd1na2vs0mg"},{"bike_id":"7270ff1a-574f-4ae9-8b4f-de038997e410","system_id":"levelo_inurba_marseille","lat":43.30874,"lon":5.39669,"is_reserved":false,"is_disabled":false,"rental_uris":{"android":"levelo://app?vid=7270ff1a-574f-4ae9-8b4f-de038997e410","ios":"levelo://app?vid=7270ff1a-574f-4ae9-8b4f-de038997e410"},"vehicle_type_id":"4","last_reported":1748499347,"current_range_meters":10800,"station_id":"ce4bh012rcd13ifvqcv0","pricing_plan_id":"cebpf4jnsgd1na2vs0mg"},{"bike_id":"c7c51efa-1ecf-4f30-bdea-fc254873f793","system_id":"levelo_inurba_marseille","lat":43.28415,"lon":5.3499,"is_reserved":false,"is_disabled":false,"rental_uris":{"android":"levelo://app?vid=c7c51efa-1ecf-4f30-bdea-fc254873f793","ios":"levelo://app?vid=c7c51efa-1ecf-4f30-bdea-fc254873f793"},"vehicle_type_id":"4","last_reported":1748499347,"current_range_meters":10800,"station_id":"ce4bhbh2rcd13ifvqepg","pricing_plan_id":"cebpf4jnsgd1na2vs0mg"},{"bike_id":"685b3984-6ff2-4846-a44b-da0bc9a61c62","system_id":"levelo_inurba_marseille","lat":43.239633,"lon":5.366435,"is_reserved":false,"is_disabled":false,"rental_uris":{"android":"levelo://app?vid=685b3984-6ff2-4846-a44b-da0bc9a61c62","ios":"levelo://app?vid=685b3984-6ff2-4846-a44b-da0bc9a61c62"},"vehicle_type_id":"4","last_reported":1748499347,"current_range_meters":10800,"station_id":"ce4bhi12rcd13ifvqfp0","pricing_plan_id":"cebpf4jnsgd1na2vs0mg"},{"bike_id":"1f05a494-96b9-47a4-8160-db2c6c734351","system_id":"levelo_inurba_marseille","lat":43.25112,"lon":5.40322,"is_reserved":false,"is_disabled":false,"rental_uris":{"android":"levelo://app?vid=1f05a494-96b9-47a4-8160-db2c6c734351","ios":"levelo://app?vid=1f05a494-96b9-47a4-8160-db2c6c734351"},"vehicle_type_id":"4","last_reported":1748499347,"current_range_meters":10800,"station_id":"ce4bhlh2rcd13ifvqgig","pricing_plan_id":"cebpf4jnsgd1na2vs0mg"},{"bike_id":"2864c75b-5c31-4f51-804b-e90944a6d524","system_id":"levelo_inurba_marseille","lat":43.25119,"lon":5.40324,"is_reserved":false,"is_disabled":false,"rental_uris":{"android":"levelo://app?vid=2864c75b-5c31-4f51-804b-e90944a6d524","ios":"levelo://app?vid=2864c75b-5c31-4f51-804b-e90944a6d524"},"vehicle_type_id":"4","last_reported":1748499347,"current_range_meters":10800,"station_id":"ce4bhlh2rcd13ifvqgig","pricing_plan_id":"cebpf4jnsgd1na2vs0mg"},{"bike_id":"aadac860-d43c-4062-897b-20d300d16764","system_id":"levelo_inurba_marseille","lat":43.26804,"lon":5.40252,"is_reserved":false,"is_disabled":false,"rental_uris":{"android":"levelo://app?vid=aadac860-d43c-4062-897b-20d300d16764","ios":"levelo://app?vid=aadac860-d43c-4062-897b-20d300d16764"},"vehicle_type_id":"4","last_reported":1748499347,"current_range_meters":10800,"station_id":"ce501612rcd8frsf0b60","pricing_plan_id":"cebpf4jnsgd1na2vs0mg"},{"bike_id":"ab18719d-c5e7-4613-9c7e-1fe47406cb4b","system_id":"levelo_inurba_marseille","lat":43.30937,"lon":5.40109,"is_reserved":false,"is_disabled":false,"rental_uris":{"android":"levelo://app?vid=ab18719d-c5e7-4613-9c7e-1fe47406cb4b","ios":"levelo://app?vid=ab18719d-c5e7-4613-9c7e-1fe47406cb4b"},"vehicle_type_id":"4","last_reported":1748499347,"current_range_meters":11200,"station_id":"ce4bgvp2rcd13ifvqct0","pricing_plan_id":"cebpf4jnsgd1na2vs0mg"},{"bike_id":"242d6f50-6baa-4482-ac10-969dbe706946","system_id":"levelo_inurba_marseille","lat":43.292527,"lon":5.408987,"is_reserved":false,"is_disabled":false,"rental_uris":{"android":"levelo://app?vid=242d6f50-6baa-4482-ac10-969dbe706946","ios":"levelo://app?vid=242d6f50-6baa-4482-ac10-969dbe706946"},"vehicle_type_id":"4","last_reported":1748499347,"current_range_meters":11200,"station_id":"ce4bh192rcd13ifvqdc0","pricing_plan_id":"cebpf4jnsgd1na2vs0mg"},{"bike_id":"3fc67f89-f02f-409d-8786-4f5d1332679d","system_id":"levelo_inurba_marseille","lat":43.24386,"lon":5.37054,"is_reserved":false,"is_disabled":false,"rental_uris":{"android":"levelo://app?vid=3fc67f89-f02f-409d-8786-4f5d1332679d","ios":"levelo://app?vid=3fc67f89-f02f-409d-8786-4f5d1332679d"},"vehicle_type_id":"4","last_reported":1748499347,"current_range_meters":11200,"station_id":"ce4bhhh2rcd13ifvqfk0","pricing_plan_id":"cebpf4jnsgd1na2vs0mg"},{"bike_id":"eb44d6c0-1424-44dc-849f-1bc6e19b8694","system_id":"levelo_inurba_marseille","lat":43.23182,"lon":5.39994,"is_reserved":false,"is_disabled":false,"rental_uris":{"android":"levelo://app?vid=eb44d6c0-1424-44dc-849f-1bc6e19b8694","ios":"levelo://app?vid=eb44d6c0-1424-44dc-849f-1bc6e19b8694"},"vehicle_type_id":"4","last_reported":1748499347,"current_range_meters":11200,"station_id":"ce4bhn12rcd13ifvqgqg","pricing_plan_id":"cebpf4jnsgd1na2vs0mg"},{"bike_id":"32ce1fee-e11e-4b6b-91ef-373111975b5a","system_id":"levelo_inurba_marseille","lat":43.280711,"lon":5.396449,"is_reserved":false,"is_disabled":false,"rental_uris":{"android":"levelo://app?vid=32ce1fee-e11e-4b6b-91ef-373111975b5a","ios":"levelo://app?vid=32ce1fee-e11e-4b6b-91ef-373111975b5a"},"vehicle_type_id":"4","last_reported":1748499347,"current_range_meters":11200,"station_id":"ce4bho12rcd13ifvqh2g","pricing_plan_id":"cebpf4jnsgd1na2vs0mg"},{"bike_id":"dfd8a92a-8547-40b8-9f1a-8cf8dc5a7a8c","system_id":"levelo_inurba_marseille","lat":43.317135,"lon":5.437059,"is_reserved":false,"is_disabled":false,"rental_uris":{"android":"levelo://app?vid=dfd8a92a-8547-40b8-9f1a-8cf8dc5a7a8c","ios":"levelo://app?vid=dfd8a92a-8547-40b8-9f1a-8cf8dc5a7a8c"},"vehicle_type_id":"4","last_reported":1748499347,"current_range_meters":11200,"station_id":"ce4bhp92rcd13ifvqhcg","pricing_plan_id":"cebpf4jnsgd1na2vs0mg"},{"bike_id":"8cae9003-b8a4-48e5-a072-65bbb7096fc6","system_id":"levelo_inurba_marseille","lat":43.30785,"lon":5.37643,"is_reserved":false,"is_disabled":false,"rental_uris":{"android":"levelo://app?vid=8cae9003-b8a4-48e5-a072-65bbb7096fc6","ios":"levelo://app?vid=8cae9003-b8a4-48e5-a072-65bbb7096fc6"},"vehicle_type_id":"4","last_reported":1748499347,"current_range_meters":11600,"station_id":"ce4bgv92rcd13ifvqcq0","pricing_plan_id":"cebpf4jnsgd1na2vs0mg"},{"bike_id":"ba0c24f2-b0ca-494a-9857-649f84664514","system_id":"levelo_inurba_marseille","lat":43.309291,"lon":5.401391,"is_reserved":false,"is_disabled":false,"rental_uris":{"android":"levelo://app?vid=ba0c24f2-b0ca-494a-9857-649f84664514","ios":"levelo://app?vid=ba0c24f2-b0ca-494a-9857-649f84664514"},"vehicle_type_id":"4","last_reported":1748499347,"current_range_meters":11600,"station_id":"ce4bgvp2rcd13ifvqct0","pricing_plan_id":"cebpf4jnsgd1na2vs0mg"},{"bike_id":"f090e212-d3c8-4736-afad-80cfe2b8e432","system_id":"levelo_inurba_marseille","lat":43.30799,"lon":5.43542,"is_reserved":false,"is_disabled":false,"rental_uris":{"android":"levelo://app?vid=f090e212-d3c8-4736-afad-80cfe2b8e432","ios":"levelo://app?vid=f090e212-d3c8-4736-afad-80cfe2b8e432"},"vehicle_type_id":"4","last_reported":1748499347,"current_range_meters":11600,"station_id":"ce4bhph2rcd13ifvqheg","pricing_plan_id":"cebpf4jnsgd1na2vs0mg"},{"bike_id":"08e9a078-7add-4dfa-b105-36513aa3622b","system_id":"levelo_inurba_marseille","lat":43.26945,"lon":5.40241,"is_reserved":false,"is_disabled":false,"rental_uris":{"android":"levelo://app?vid=08e9a078-7add-4dfa-b105-36513aa3622b","ios":"levelo://app?vid=08e9a078-7add-4dfa-b105-36513aa3622b"},"vehicle_type_id":"4","last_reported":1748499347,"current_range_meters":11600,"station_id":"cjm6bp8fraef2m0cb0m0","pricing_plan_id":"cebpf4jnsgd1na2vs0mg"},{"bike_id":"5425969b-1595-4148-b19f-88f5aacdc526","system_id":"levelo_inurba_marseille","lat":43.30648,"lon":5.40082,"is_reserved":false,"is_disabled":false,"rental_uris":{"android":"levelo://app?vid=5425969b-1595-4148-b19f-88f5aacdc526","ios":"levelo://app?vid=5425969b-1595-4148-b19f-88f5aacdc526"},"vehicle_type_id":"4","last_reported":1748499347,"current_range_meters":12000,"station_id":"ce4bh112rcd13ifvqda0","pricing_plan_id":"cebpf4jnsgd1na2vs0mg"},{"bike_id":"cc2536f5-d400-4045-ae04-96109c4d0ea4","system_id":"levelo_inurba_marseille","lat":43.303769,"lon":5.424824,"is_reserved":false,"is_disabled":false,"rental_uris":{"android":"levelo://app?vid=cc2536f5-d400-4045-ae04-96109c4d0ea4","ios":"levelo://app?vid=cc2536f5-d400-4045-ae04-96109c4d0ea4"},"vehicle_type_id":"4","last_reported":1748499347,"current_range_meters":12000,"station_id":"ce4bhoh2rcd13ifvqh6g","pricing_plan_id":"cebpf4jnsgd1na2vs0mg"},{"bike_id":"42dca157-bdb0-4361-8022-7979135f94aa","system_id":"levelo_inurba_marseille","lat":43.28565,"lon":5.36686,"is_reserved":false,"is_disabled":false,"rental_uris":{"android":"levelo://app?vid=42dca157-bdb0-4361-8022-7979135f94aa","ios":"levelo://app?vid=42dca157-bdb0-4361-8022-7979135f94aa"},"vehicle_type_id":"4","last_reported":1748499347,"current_range_meters":12400,"station_id":"","pricing_plan_id":"cebpf4jnsgd1na2vs0mg"},{"bike_id":"74596cad-01b8-4827-9b35-ca1f4056673c","system_id":"levelo_inurba_marseille","lat":43.32415,"lon":5.38358,"is_reserved":false,"is_disabled":false,"rental_uris":{"android":"levelo://app?vid=74596cad-01b8-4827-9b35-ca1f4056673c","ios":"levelo://app?vid=74596cad-01b8-4827-9b35-ca1f4056673c"},"vehicle_type_id":"4","last_reported":1748499347,"current_range_meters":12400,"station_id":"","pricing_plan_id":"cebpf4jnsgd1na2vs0mg"},{"bike_id":"1c9b4761-e609-4e32-850e-f95c9f07553f","system_id":"levelo_inurba_marseille","lat":43.30885,"lon":5.39637,"is_reserved":false,"is_disabled":false,"rental_uris":{"android":"levelo://app?vid=1c9b4761-e609-4e32-850e-f95c9f07553f","ios":"levelo://app?vid=1c9b4761-e609-4e32-850e-f95c9f07553f"},"vehicle_type_id":"4","last_reported":1748499347,"current_range_meters":12400,"station_id":"ce4bh012rcd13ifvqcv0","pricing_plan_id":"cebpf4jnsgd1na2vs0mg"},{"bike_id":"e8fc83e2-d4df-483b-8d3e-92a5c04412b8","system_id":"levelo_inurba_marseille","lat":43.29528,"lon":5.39396,"is_reserved":false,"is_disabled":false,"rental_uris":{"android":"levelo://app?vid=e8fc83e2-d4df-483b-8d3e-92a5c04412b8","ios":"levelo://app?vid=e8fc83e2-d4df-483b-8d3e-92a5c04412b8"},"vehicle_type_id":"4","last_reported":1748499347,"current_range_meters":12400,"station_id":"ce4bh292rcd13ifvqdf0","pricing_plan_id":"cebpf4jnsgd1na2vs0mg"},{"bike_id":"1a21a57a-e955-42be-927d-b20db9aae82f","system_id":"levelo_inurba_marseille","lat":43.2621,"lon":5.37441,"is_reserved":false,"is_disabled":false,"rental_uris":{"android":"levelo://app?vid=1a21a57a-e955-42be-927d-b20db9aae82f","ios":"levelo://app?vid=1a21a57a-e955-42be-927d-b20db9aae82f"},"vehicle_type_id":"4","last_reported":1748499347,"current_range_meters":12400,"station_id":"ce4bhgp2rcd13ifvqfc0","pricing_plan_id":"cebpf4jnsgd1na2vs0mg"},{"bike_id":"19c319b8-cb5c-4a9f-a123-c087da106c08","system_id":"levelo_inurba_marseille","lat":43.2593,"lon":5.40905,"is_reserved":false,"is_disabled":false,"rental_uris":{"android":"levelo://app?vid=19c319b8-cb5c-4a9f-a123-c087da106c08","ios":"levelo://app?vid=19c319b8-cb5c-4a9f-a123-c087da106c08"},"vehicle_type_id":"4","last_reported":1748499347,"current_range_meters":12400,"station_id":"ce4bhm92rcd13ifvqglg","pricing_plan_id":"cebpf4jnsgd1na2vs0mg"},{"bike_id":"d1160911-5dba-4a70-bdeb-2e5a47931200","system_id":"levelo_inurba_marseille","lat":43.27991,"lon":5.41662,"is_reserved":false,"is_disabled":false,"rental_uris":{"android":"levelo://app?vid=d1160911-5dba-4a70-bdeb-2e5a47931200","ios":"levelo://app?vid=d1160911-5dba-4a70-bdeb-2e5a47931200"},"vehicle_type_id":"4","last_reported":1748499347,"current_range_meters":12400,"station_id":"ce4bho12rcd13ifvqh1g","pricing_plan_id":"cebpf4jnsgd1na2vs0mg"},{"bike_id":"20216ba5-61bf-44de-983d-1d2b80d544f3","system_id":"levelo_inurba_marseille","lat":43.217576,"lon":5.345973,"is_reserved":false,"is_disabled":false,"rental_uris":{"android":"levelo://app?vid=20216ba5-61bf-44de-983d-1d2b80d544f3","ios":"levelo://app?vid=20216ba5-61bf-44de-983d-1d2b80d544f3"},"vehicle_type_id":"4","last_reported":1748499347,"current_range_meters":12400,"station_id":"st_cvj6r9ubvosntc0bgbag","pricing_plan_id":"cebpf4jnsgd1na2vs0mg"},{"bike_id":"8ea4d048-223c-4b9f-a79c-b8dc2c65d878","system_id":"levelo_inurba_marseille","lat":43.25127,"lon":5.40302,"is_reserved":false,"is_disabled":false,"rental_uris":{"android":"levelo://app?vid=8ea4d048-223c-4b9f-a79c-b8dc2c65d878","ios":"levelo://app?vid=8ea4d048-223c-4b9f-a79c-b8dc2c65d878"},"vehicle_type_id":"4","last_reported":1748499347,"current_range_meters":12800,"station_id":"ce4bhlh2rcd13ifvqgig","pricing_plan_id":"cebpf4jnsgd1na2vs0mg"},{"bike_id":"446740e3-6543-4ad8-8d09-08b6a7fbd149","system_id":"levelo_inurba_marseille","lat":43.30609,"lon":5.37451,"is_reserved":false,"is_disabled":false,"rental_uris":{"android":"levelo://app?vid=446740e3-6543-4ad8-8d09-08b6a7fbd149","ios":"levelo://app?vid=446740e3-6543-4ad8-8d09-08b6a7fbd149"},"vehicle_type_id":"4","last_reported":1748499347,"current_range_meters":13600,"station_id":"","pricing_plan_id":"cebpf4jnsgd1na2vs0mg"},{"bike_id":"16ea5078-ceef-44c1-9c69-d088f9994440","system_id":"levelo_inurba_marseille","lat":43.30889,"lon":5.371925,"is_reserved":false,"is_disabled":false,"rental_uris":{"android":"levelo://app?vid=16ea5078-ceef-44c1-9c69-d088f9994440","ios":"levelo://app?vid=16ea5078-ceef-44c1-9c69-d088f9994440"},"vehicle_type_id":"4","last_reported":1748499347,"current_range_meters":13600,"station_id":"ce4bguh2rcd13ifvqckg","pricing_plan_id":"cebpf4jnsgd1na2vs0mg"},{"bike_id":"865dced6-4767-44f8-b4b9-2868a3d6910b","system_id":"levelo_inurba_marseille","lat":43.28039,"lon":5.36946,"is_reserved":false,"is_disabled":false,"rental_uris":{"android":"levelo://app?vid=865dced6-4767-44f8-b4b9-2868a3d6910b","ios":"levelo://app?vid=865dced6-4767-44f8-b4b9-2868a3d6910b"},"vehicle_type_id":"4","last_reported":1748499347,"current_range_meters":13600,"station_id":"ce4bha12rcd13ifvqef0","pricing_plan_id":"cebpf4jnsgd1na2vs0mg"},{"bike_id":"36fc1326-d8b9-4280-8634-1f810d31d6e7","system_id":"levelo_inurba_marseille","lat":43.25105,"lon":5.4032,"is_reserved":false,"is_disabled":false,"rental_uris":{"android":"levelo://app?vid=36fc1326-d8b9-4280-8634-1f810d31d6e7","ios":"levelo://app?vid=36fc1326-d8b9-4280-8634-1f810d31d6e7"},"vehicle_type_id":"4","last_reported":1748499347,"current_range_meters":13600,"station_id":"ce4bhlh2rcd13ifvqgig","pricing_plan_id":"cebpf4jnsgd1na2vs0mg"},{"bike_id":"ae9e0357-b73f-43bb-ad14-492ca30fa510","system_id":"levelo_inurba_marseille","lat":43.25937,"lon":5.40882,"is_reserved":false,"is_disabled":false,"rental_uris":{"android":"levelo://app?vid=ae9e0357-b73f-43bb-ad14-492ca30fa510","ios":"levelo://app?vid=ae9e0357-b73f-43bb-ad14-492ca30fa510"},"vehicle_type_id":"4","last_reported":1748499347,"current_range_meters":13600,"station_id":"ce4bhm92rcd13ifvqglg","pricing_plan_id":"cebpf4jnsgd1na2vs0mg"},{"bike_id":"221eab07-12e0-4f23-8c3a-9f3c22311a6b","system_id":"levelo_inurba_marseille","lat":43.23189,"lon":5.39993,"is_reserved":false,"is_disabled":false,"rental_uris":{"android":"levelo://app?vid=221eab07-12e0-4f23-8c3a-9f3c22311a6b","ios":"levelo://app?vid=221eab07-12e0-4f23-8c3a-9f3c22311a6b"},"vehicle_type_id":"4","last_reported":1748499347,"current_range_meters":13600,"station_id":"ce4bhn12rcd13ifvqgqg","pricing_plan_id":"cebpf4jnsgd1na2vs0mg"},{"bike_id":"9a7ce25c-cbcf-4aac-acf7-3d032c62f0d0","system_id":"levelo_inurba_marseille","lat":43.28565,"lon":5.39504,"is_reserved":false,"is_disabled":false,"rental_uris":{"android":"levelo://app?vid=9a7ce25c-cbcf-4aac-acf7-3d032c62f0d0","ios":"levelo://app?vid=9a7ce25c-cbcf-4aac-acf7-3d032c62f0d0"},"vehicle_type_id":"4","last_reported":1748499347,"current_range_meters":14000,"station_id":"ce4bh292rcd13ifvqdg0","pricing_plan_id":"cebpf4jnsgd1na2vs0mg"},{"bike_id":"4c053a53-5a50-4e31-8104-9b41d82b2307","system_id":"levelo_inurba_marseille","lat":43.33068,"lon":5.39342,"is_reserved":false,"is_disabled":false,"rental_uris":{"android":"levelo://app?vid=4c053a53-5a50-4e31-8104-9b41d82b2307","ios":"levelo://app?vid=4c053a53-5a50-4e31-8104-9b41d82b2307"},"vehicle_type_id":"4","last_reported":1748499347,"current_range_meters":14400,"station_id":"","pricing_plan_id":"cebpf4jnsgd1na2vs0mg"},{"bike_id":"4607379c-9a5a-4d9c-8cea-20530a7eb964","system_id":"levelo_inurba_marseille","lat":43.309304,"lon":5.40155,"is_reserved":false,"is_disabled":false,"rental_uris":{"android":"levelo://app?vid=4607379c-9a5a-4d9c-8cea-20530a7eb964","ios":"levelo://app?vid=4607379c-9a5a-4d9c-8cea-20530a7eb964"},"vehicle_type_id":"4","last_reported":1748499347,"current_range_meters":14400,"station_id":"ce4bgvp2rcd13ifvqct0","pricing_plan_id":"cebpf4jnsgd1na2vs0mg"},{"bike_id":"b16bdeb1-44f6-4034-93d8-89900e3f5438","system_id":"levelo_inurba_marseille","lat":43.26572,"lon":5.39001,"is_reserved":false,"is_disabled":false,"rental_uris":{"android":"levelo://app?vid=b16bdeb1-44f6-4034-93d8-89900e3f5438","ios":"levelo://app?vid=b16bdeb1-44f6-4034-93d8-89900e3f5438"},"vehicle_type_id":"4","last_reported":1748499347,"current_range_meters":14400,"station_id":"ce4bhe12rcd13ifvqf30","pricing_plan_id":"cebpf4jnsgd1na2vs0mg"},{"bike_id":"a829ba8e-bf90-4a53-baee-0213b780debc","system_id":"levelo_inurba_marseille","lat":43.29268,"lon":5.40132,"is_reserved":false,"is_disabled":false,"rental_uris":{"android":"levelo://app?vid=a829ba8e-bf90-4a53-baee-0213b780debc","ios":"levelo://app?vid=a829ba8e-bf90-4a53-baee-0213b780debc"},"vehicle_type_id":"4","last_reported":1748499347,"current_range_meters":14800,"station_id":"ce4bh312rcd13ifvqdk0","pricing_plan_id":"cebpf4jnsgd1na2vs0mg"},{"bike_id":"1593ae6e-a41f-4398-8a0d-d8943190b5f1","system_id":"levelo_inurba_marseille","lat":43.284145,"lon":5.375164,"is_reserved":false,"is_disabled":false,"rental_uris":{"android":"levelo://app?vid=1593ae6e-a41f-4398-8a0d-d8943190b5f1","ios":"levelo://app?vid=1593ae6e-a41f-4398-8a0d-d8943190b5f1"},"vehicle_type_id":"4","last_reported":1748499347,"current_range_meters":14800,"station_id":"ce4bh412rcd13ifvqds0","pricing_plan_id":"cebpf4jnsgd1na2vs0mg"},{"bike_id":"e9cda520-c6f4-465d-ad7f-8c059b3dc45a","system_id":"levelo_inurba_marseille","lat":43.313357,"lon":5.384373,"is_reserved":false,"is_disabled":false,"rental_uris":{"android":"levelo://app?vid=e9cda520-c6f4-465d-ad7f-8c059b3dc45a","ios":"levelo://app?vid=e9cda520-c6f4-465d-ad7f-8c059b3dc45a"},"vehicle_type_id":"4","last_reported":1748499347,"current_range_meters":15200,"station_id":"ce4bgt92rcd13ifvqcf0","pricing_plan_id":"cebpf4jnsgd1na2vs0mg"},{"bike_id":"8f7f9dba-c1a2-4705-9cfb-78b381b601cf","system_id":"levelo_inurba_marseille","lat":43.30932,"lon":5.40152,"is_reserved":false,"is_disabled":false,"rental_uris":{"android":"levelo://app?vid=8f7f9dba-c1a2-4705-9cfb-78b381b601cf","ios":"levelo://app?vid=8f7f9dba-c1a2-4705-9cfb-78b381b601cf"},"vehicle_type_id":"4","last_reported":1748499347,"current_range_meters":15200,"station_id":"ce4bgvp2rcd13ifvqct0","pricing_plan_id":"cebpf4jnsgd1na2vs0mg"},{"bike_id":"7b64b9e6-3c9a-49de-ae0e-b49897caef8d","system_id":"levelo_inurba_marseille","lat":43.30882,"lon":5.39645,"is_reserved":false,"is_disabled":false,"rental_uris":{"android":"levelo://app?vid=7b64b9e6-3c9a-49de-ae0e-b49897caef8d","ios":"levelo://app?vid=7b64b9e6-3c9a-49de-ae0e-b49897caef8d"},"vehicle_type_id":"4","last_reported":1748499347,"current_range_meters":15200,"station_id":"ce4bh012rcd13ifvqcv0","pricing_plan_id":"cebpf4jnsgd1na2vs0mg"},{"bike_id":"caba691e-3e1a-4a91-8958-c8fc2e373e15","system_id":"levelo_inurba_marseille","lat":43.337372,"lon":5.391851,"is_reserved":false,"is_disabled":false,"rental_uris":{"android":"levelo://app?vid=caba691e-3e1a-4a91-8958-c8fc2e373e15","ios":"levelo://app?vid=caba691e-3e1a-4a91-8958-c8fc2e373e15"},"vehicle_type_id":"4","last_reported":1748499347,"current_range_meters":15200,"station_id":"ce4bhr92rcd13ifvqhsg","pricing_plan_id":"cebpf4jnsgd1na2vs0mg"},{"bike_id":"ec973944-b3ce-4a54-931a-e4bf2b0084e5","system_id":"levelo_inurba_marseille","lat":43.29843,"lon":5.36272,"is_reserved":false,"is_disabled":false,"rental_uris":{"android":"levelo://app?vid=ec973944-b3ce-4a54-931a-e4bf2b0084e5","ios":"levelo://app?vid=ec973944-b3ce-4a54-931a-e4bf2b0084e5"},"vehicle_type_id":"4","last_reported":1748499347,"current_range_meters":16000,"station_id":"ce4bgpp2rcd13ifvqc3g","pricing_plan_id":"cebpf4jnsgd1na2vs0mg"},{"bike_id":"9a8ecd66-2bff-4799-88d1-e3d65db33a9f","system_id":"levelo_inurba_marseille","lat":43.30927,"lon":5.40144,"is_reserved":false,"is_disabled":false,"rental_uris":{"android":"levelo://app?vid=9a8ecd66-2bff-4799-88d1-e3d65db33a9f","ios":"levelo://app?vid=9a8ecd66-2bff-4799-88d1-e3d65db33a9f"},"vehicle_type_id":"4","last_reported":1748499347,"current_range_meters":16000,"station_id":"ce4bgvp2rcd13ifvqct0","pricing_plan_id":"cebpf4jnsgd1na2vs0mg"},{"bike_id":"f12dfea2-4a20-4463-aa3e-7c0b4a86991a","system_id":"levelo_inurba_marseille","lat":43.28419,"lon":5.37515,"is_reserved":false,"is_disabled":false,"rental_uris":{"android":"levelo://app?vid=f12dfea2-4a20-4463-aa3e-7c0b4a86991a","ios":"levelo://app?vid=f12dfea2-4a20-4463-aa3e-7c0b4a86991a"},"vehicle_type_id":"4","last_reported":1748499347,"current_range_meters":16000,"station_id":"ce4bh412rcd13ifvqds0","pricing_plan_id":"cebpf4jnsgd1na2vs0mg"},{"bike_id":"204ccfe1-9199-4970-adb6-0a4f6a62a5df","system_id":"levelo_inurba_marseille","lat":43.27915,"lon":5.395794,"is_reserved":false,"is_disabled":false,"rental_uris":{"android":"levelo://app?vid=204ccfe1-9199-4970-adb6-0a4f6a62a5df","ios":"levelo://app?vid=204ccfe1-9199-4970-adb6-0a4f6a62a5df"},"vehicle_type_id":"4","last_reported":1748499347,"current_range_meters":16000,"station_id":"ce4bhf92rcd13ifvqf40","pricing_plan_id":"cebpf4jnsgd1na2vs0mg"},{"bike_id":"b7d0182b-44ef-4781-8968-d21fb3c02045","system_id":"levelo_inurba_marseille","lat":43.25084,"lon":5.39516,"is_reserved":false,"is_disabled":false,"rental_uris":{"android":"levelo://app?vid=b7d0182b-44ef-4781-8968-d21fb3c02045","ios":"levelo://app?vid=b7d0182b-44ef-4781-8968-d21fb3c02045"},"vehicle_type_id":"4","last_reported":1748499347,"current_range_meters":16000,"station_id":"ce4bhm12rcd13ifvqgkg","pricing_plan_id":"cebpf4jnsgd1na2vs0mg"},{"bike_id":"268d8a39-8ebd-464e-bfc7-cb2851008607","system_id":"levelo_inurba_marseille","lat":43.24173,"lon":5.39716,"is_reserved":false,"is_disabled":false,"rental_uris":{"android":"levelo://app?vid=268d8a39-8ebd-464e-bfc7-cb2851008607","ios":"levelo://app?vid=268d8a39-8ebd-464e-bfc7-cb2851008607"},"vehicle_type_id":"4","last_reported":1748499347,"current_range_meters":16000,"station_id":"ce4bhn12rcd13ifvqgpg","pricing_plan_id":"cebpf4jnsgd1na2vs0mg"},{"bike_id":"ad6aca86-7934-43a8-93e5-11f3e998538f","system_id":"levelo_inurba_marseille","lat":43.27951,"lon":5.4102,"is_reserved":false,"is_disabled":false,"rental_uris":{"android":"levelo://app?vid=ad6aca86-7934-43a8-93e5-11f3e998538f","ios":"levelo://app?vid=ad6aca86-7934-43a8-93e5-11f3e998538f"},"vehicle_type_id":"4","last_reported":1748499347,"current_range_meters":16000,"station_id":"ce4bhnp2rcd13ifvqh0g","pricing_plan_id":"cebpf4jnsgd1na2vs0mg"},{"bike_id":"0e009545-9acc-491d-b143-22cbd0096db4","system_id":"levelo_inurba_marseille","lat":43.33036,"lon":5.39046,"is_reserved":false,"is_disabled":false,"rental_uris":{"android":"levelo://app?vid=0e009545-9acc-491d-b143-22cbd0096db4","ios":"levelo://app?vid=0e009545-9acc-491d-b143-22cbd0096db4"},"vehicle_type_id":"4","last_reported":1748499347,"current_range_meters":16400,"station_id":"","pricing_plan_id":"cebpf4jnsgd1na2vs0mg"},{"bike_id":"7cebb823-96d0-49f3-8455-0b619a5fe90e","system_id":"levelo_inurba_marseille","lat":43.30151,"lon":5.38074,"is_reserved":false,"is_disabled":false,"rental_uris":{"android":"levelo://app?vid=7cebb823-96d0-49f3-8455-0b619a5fe90e","ios":"levelo://app?vid=7cebb823-96d0-49f3-8455-0b619a5fe90e"},"vehicle_type_id":"4","last_reported":1748499347,"current_range_meters":16400,"station_id":"ce4bgjp2rcd13ifvqbh0","pricing_plan_id":"cebpf4jnsgd1na2vs0mg"},{"bike_id":"1d6d9702-438d-454d-974c-3073193f149e","system_id":"levelo_inurba_marseille","lat":43.30792,"lon":5.37658,"is_reserved":false,"is_disabled":false,"rental_uris":{"android":"levelo://app?vid=1d6d9702-438d-454d-974c-3073193f149e","ios":"levelo://app?vid=1d6d9702-438d-454d-974c-3073193f149e"},"vehicle_type_id":"4","last_reported":1748499347,"current_range_meters":16400,"station_id":"ce4bgv92rcd13ifvqcq0","pricing_plan_id":"cebpf4jnsgd1na2vs0mg"},{"bike_id":"3a980c08-346a-4f7f-9170-58456c34fda5","system_id":"levelo_inurba_marseille","lat":43.31705,"lon":5.40448,"is_reserved":false,"is_disabled":false,"rental_uris":{"android":"levelo://app?vid=3a980c08-346a-4f7f-9170-58456c34fda5","ios":"levelo://app?vid=3a980c08-346a-4f7f-9170-58456c34fda5"},"vehicle_type_id":"4","last_reported":1748499347,"current_range_meters":16400,"station_id":"ce4bh012rcd13ifvqd00","pricing_plan_id":"cebpf4jnsgd1na2vs0mg"},{"bike_id":"6829e209-471a-4f5d-bdfa-f6471e8f3b4e","system_id":"levelo_inurba_marseille","lat":43.298712,"lon":5.397289,"is_reserved":false,"is_disabled":false,"rental_uris":{"android":"levelo://app?vid=6829e209-471a-4f5d-bdfa-f6471e8f3b4e","ios":"levelo://app?vid=6829e209-471a-4f5d-bdfa-f6471e8f3b4e"},"vehicle_type_id":"4","last_reported":1748499347,"current_range_meters":16400,"station_id":"ce4bh0h2rcd13ifvqd50","pricing_plan_id":"cebpf4jnsgd1na2vs0mg"},{"bike_id":"0aeb2502-24df-4bc6-9001-b9ffef9b7ace","system_id":"levelo_inurba_marseille","lat":43.28417,"lon":5.37502,"is_reserved":false,"is_disabled":false,"rental_uris":{"android":"levelo://app?vid=0aeb2502-24df-4bc6-9001-b9ffef9b7ace","ios":"levelo://app?vid=0aeb2502-24df-4bc6-9001-b9ffef9b7ace"},"vehicle_type_id":"4","last_reported":1748499347,"current_range_meters":16400,"station_id":"ce4bh412rcd13ifvqds0","pricing_plan_id":"cebpf4jnsgd1na2vs0mg"},{"bike_id":"adcee82c-9db2-40d0-9e4e-8dd831ea6879","system_id":"levelo_inurba_marseille","lat":43.2791,"lon":5.39594,"is_reserved":false,"is_disabled":false,"rental_uris":{"android":"levelo://app?vid=adcee82c-9db2-40d0-9e4e-8dd831ea6879","ios":"levelo://app?vid=adcee82c-9db2-40d0-9e4e-8dd831ea6879"},"vehicle_type_id":"4","last_reported":1748499347,"current_range_meters":16400,"station_id":"ce4bhf92rcd13ifvqf40","pricing_plan_id":"cebpf4jnsgd1na2vs0mg"},{"bike_id":"c29ce092-0794-4ee5-b982-bf3dc415ac4e","system_id":"levelo_inurba_marseille","lat":43.248114,"lon":5.374553,"is_reserved":false,"is_disabled":false,"rental_uris":{"android":"levelo://app?vid=c29ce092-0794-4ee5-b982-bf3dc415ac4e","ios":"levelo://app?vid=c29ce092-0794-4ee5-b982-bf3dc415ac4e"},"vehicle_type_id":"4","last_reported":1748499347,"current_range_meters":16400,"station_id":"ce4bhgh2rcd13ifvqfb0","pricing_plan_id":"cebpf4jnsgd1na2vs0mg"},{"bike_id":"747224c9-7e52-4c58-9390-d943c4f5446c","system_id":"levelo_inurba_marseille","lat":43.2718,"lon":5.40987,"is_reserved":false,"is_disabled":false,"rental_uris":{"android":"levelo://app?vid=747224c9-7e52-4c58-9390-d943c4f5446c","ios":"levelo://app?vid=747224c9-7e52-4c58-9390-d943c4f5446c"},"vehicle_type_id":"4","last_reported":1748499347,"current_range_meters":16400,"station_id":"ce4bhl12rcd13ifvqgf0","pricing_plan_id":"cebpf4jnsgd1na2vs0mg"},{"bike_id":"8023504d-3ac6-4178-b0fc-b7283e21344c","system_id":"levelo_inurba_marseille","lat":43.27943,"lon":5.41037,"is_reserved":false,"is_disabled":false,"rental_uris":{"android":"levelo://app?vid=8023504d-3ac6-4178-b0fc-b7283e21344c","ios":"levelo://app?vid=8023504d-3ac6-4178-b0fc-b7283e21344c"},"vehicle_type_id":"4","last_reported":1748499347,"current_range_meters":16400,"station_id":"ce4bhnp2rcd13ifvqh0g","pricing_plan_id":"cebpf4jnsgd1na2vs0mg"},{"bike_id":"5acaccd8-78cb-4a55-9bc7-0d6139a2d3b4","system_id":"levelo_inurba_marseille","lat":43.28697,"lon":5.39979,"is_reserved":false,"is_disabled":false,"rental_uris":{"android":"levelo://app?vid=5acaccd8-78cb-4a55-9bc7-0d6139a2d3b4","ios":"levelo://app?vid=5acaccd8-78cb-4a55-9bc7-0d6139a2d3b4"},"vehicle_type_id":"4","last_reported":1748499347,"current_range_meters":16400,"station_id":"ce4bho92rcd13ifvqh3g","pricing_plan_id":"cebpf4jnsgd1na2vs0mg"},{"bike_id":"b7020ec2-d08d-489a-8b7c-6a077dc1acf5","system_id":"levelo_inurba_marseille","lat":43.23293,"lon":5.36104,"is_reserved":false,"is_disabled":false,"rental_uris":{"android":"levelo://app?vid=b7020ec2-d08d-489a-8b7c-6a077dc1acf5","ios":"levelo://app?vid=b7020ec2-d08d-489a-8b7c-6a077dc1acf5"},"vehicle_type_id":"4","last_reported":1748499347,"current_range_meters":16800,"station_id":"","pricing_plan_id":"cebpf4jnsgd1na2vs0mg"},{"bike_id":"6b77d8e2-6914-4f74-b37c-4eb29bd3731c","system_id":"levelo_inurba_marseille","lat":43.25952,"lon":5.40881,"is_reserved":false,"is_disabled":false,"rental_uris":{"android":"levelo://app?vid=6b77d8e2-6914-4f74-b37c-4eb29bd3731c","ios":"levelo://app?vid=6b77d8e2-6914-4f74-b37c-4eb29bd3731c"},"vehicle_type_id":"4","last_reported":1748499347,"current_range_meters":16800,"station_id":"ce4bhm92rcd13ifvqglg","pricing_plan_id":"cebpf4jnsgd1na2vs0mg"},{"bike_id":"9a86381f-51bc-4d54-858d-d27c0e51d901","system_id":"levelo_inurba_marseille","lat":43.30736,"lon":5.42437,"is_reserved":false,"is_disabled":false,"rental_uris":{"android":"levelo://app?vid=9a86381f-51bc-4d54-858d-d27c0e51d901","ios":"levelo://app?vid=9a86381f-51bc-4d54-858d-d27c0e51d901"},"vehicle_type_id":"4","last_reported":1748499347,"current_range_meters":16800,"station_id":"st_cvj6ca6bvosntc0bfgr0","pricing_plan_id":"cebpf4jnsgd1na2vs0mg"},{"bike_id":"84b1cdb3-afec-4946-99df-4fcba5b743f0","system_id":"levelo_inurba_marseille","lat":43.26126,"lon":5.40112,"is_reserved":false,"is_disabled":false,"rental_uris":{"android":"levelo://app?vid=84b1cdb3-afec-4946-99df-4fcba5b743f0","ios":"levelo://app?vid=84b1cdb3-afec-4946-99df-4fcba5b743f0"},"vehicle_type_id":"4","last_reported":1748499347,"current_range_meters":17200,"station_id":"","pricing_plan_id":"cebpf4jnsgd1na2vs0mg"},{"bike_id":"381c23b0-a96d-4eeb-9825-9f605d6bdde1","system_id":"levelo_inurba_marseille","lat":43.303228,"lon":5.404433,"is_reserved":false,"is_disabled":false,"rental_uris":{"android":"levelo://app?vid=381c23b0-a96d-4eeb-9825-9f605d6bdde1","ios":"levelo://app?vid=381c23b0-a96d-4eeb-9825-9f605d6bdde1"},"vehicle_type_id":"4","last_reported":1748499347,"current_range_meters":17200,"station_id":"ce4bh012rcd13ifvqd10","pricing_plan_id":"cebpf4jnsgd1na2vs0mg"},{"bike_id":"861ca05e-27ed-4f0b-9b40-090302e61cea","system_id":"levelo_inurba_marseille","lat":43.29284,"lon":5.40109,"is_reserved":false,"is_disabled":false,"rental_uris":{"android":"levelo://app?vid=861ca05e-27ed-4f0b-9b40-090302e61cea","ios":"levelo://app?vid=861ca05e-27ed-4f0b-9b40-090302e61cea"},"vehicle_type_id":"4","last_reported":1748499347,"current_range_meters":17200,"station_id":"ce4bh312rcd13ifvqdk0","pricing_plan_id":"cebpf4jnsgd1na2vs0mg"},{"bike_id":"dbe562a8-5982-4674-8802-fa833cff5d97","system_id":"levelo_inurba_marseille","lat":43.251082,"lon":5.403317,"is_reserved":false,"is_disabled":false,"rental_uris":{"android":"levelo://app?vid=dbe562a8-5982-4674-8802-fa833cff5d97","ios":"levelo://app?vid=dbe562a8-5982-4674-8802-fa833cff5d97"},"vehicle_type_id":"4","last_reported":1748499347,"current_range_meters":17200,"station_id":"ce4bhlh2rcd13ifvqgig","pricing_plan_id":"cebpf4jnsgd1na2vs0mg"},{"bike_id":"f61b7f73-84e3-4805-a73d-0334d49a8a59","system_id":"levelo_inurba_marseille","lat":43.231888,"lon":5.399949,"is_reserved":false,"is_disabled":false,"rental_uris":{"android":"levelo://app?vid=f61b7f73-84e3-4805-a73d-0334d49a8a59","ios":"levelo://app?vid=f61b7f73-84e3-4805-a73d-0334d49a8a59"},"vehicle_type_id":"4","last_reported":1748499347,"current_range_meters":17200,"station_id":"ce4bhn12rcd13ifvqgqg","pricing_plan_id":"cebpf4jnsgd1na2vs0mg"},{"bike_id":"f677692c-6f6c-496b-9875-62ce29648eb6","system_id":"levelo_inurba_marseille","lat":43.22935,"lon":5.35364,"is_reserved":false,"is_disabled":false,"rental_uris":{"android":"levelo://app?vid=f677692c-6f6c-496b-9875-62ce29648eb6","ios":"levelo://app?vid=f677692c-6f6c-496b-9875-62ce29648eb6"},"vehicle_type_id":"4","last_reported":1748499347,"current_range_meters":17200,"station_id":"cpo3532slgdg3j2ikp40","pricing_plan_id":"cebpf4jnsgd1na2vs0mg"},{"bike_id":"8c97fff1-6e92-4505-8156-524e8d160332","system_id":"levelo_inurba_marseille","lat":43.29363,"lon":5.37841,"is_reserved":false,"is_disabled":false,"rental_uris":{"android":"levelo://app?vid=8c97fff1-6e92-4505-8156-524e8d160332","ios":"levelo://app?vid=8c97fff1-6e92-4505-8156-524e8d160332"},"vehicle_type_id":"4","last_reported":1748499347,"current_range_meters":17600,"station_id":"ce4bgjh2rcd13ifvqbf0","pricing_plan_id":"cebpf4jnsgd1na2vs0mg"},{"bike_id":"f2a069da-6900-4855-adbc-a279e29c9129","system_id":"levelo_inurba_marseille","lat":43.284797,"lon":5.384197,"is_reserved":false,"is_disabled":false,"rental_uris":{"android":"levelo://app?vid=f2a069da-6900-4855-adbc-a279e29c9129","ios":"levelo://app?vid=f2a069da-6900-4855-adbc-a279e29c9129"},"vehicle_type_id":"4","last_reported":1748499347,"current_range_meters":17600,"station_id":"ce4bh512rcd13ifvqe3g","pricing_plan_id":"cebpf4jnsgd1na2vs0mg"},{"bike_id":"2735a3a9-84da-44a3-ad9f-c026f1a2e41c","system_id":"levelo_inurba_marseille","lat":43.28465,"lon":5.35901,"is_reserved":false,"is_disabled":false,"rental_uris":{"android":"levelo://app?vid=2735a3a9-84da-44a3-ad9f-c026f1a2e41c","ios":"levelo://app?vid=2735a3a9-84da-44a3-ad9f-c026f1a2e41c"},"vehicle_type_id":"4","last_reported":1748499347,"current_range_meters":17600,"station_id":"ce4bhah2rcd13ifvqei0","pricing_plan_id":"cebpf4jnsgd1na2vs0mg"},{"bike_id":"f4e8e0bb-ba43-4097-bfe7-dcd796aa03f2","system_id":"levelo_inurba_marseille","lat":43.279902,"lon":5.416645,"is_reserved":false,"is_disabled":false,"rental_uris":{"android":"levelo://app?vid=f4e8e0bb-ba43-4097-bfe7-dcd796aa03f2","ios":"levelo://app?vid=f4e8e0bb-ba43-4097-bfe7-dcd796aa03f2"},"vehicle_type_id":"4","last_reported":1748499347,"current_range_meters":17600,"station_id":"ce4bho12rcd13ifvqh1g","pricing_plan_id":"cebpf4jnsgd1na2vs0mg"},{"bike_id":"7243d7c8-02f5-4392-89cf-8c360e846d55","system_id":"levelo_inurba_marseille","lat":43.252721,"lon":5.378323,"is_reserved":false,"is_disabled":false,"rental_uris":{"android":"levelo://app?vid=7243d7c8-02f5-4392-89cf-8c360e846d55","ios":"levelo://app?vid=7243d7c8-02f5-4392-89cf-8c360e846d55"},"vehicle_type_id":"4","last_reported":1748499347,"current_range_meters":18000,"station_id":"","pricing_plan_id":"cebpf4jnsgd1na2vs0mg"},{"bike_id":"0bef0415-ce51-40f5-8a31-e3d1218996d8","system_id":"levelo_inurba_marseille","lat":43.289406,"lon":5.357461,"is_reserved":false,"is_disabled":false,"rental_uris":{"android":"levelo://app?vid=0bef0415-ce51-40f5-8a31-e3d1218996d8","ios":"levelo://app?vid=0bef0415-ce51-40f5-8a31-e3d1218996d8"},"vehicle_type_id":"4","last_reported":1748499347,"current_range_meters":18000,"station_id":"","pricing_plan_id":"cebpf4jnsgd1na2vs0mg"},{"bike_id":"9e077e27-33c0-4331-96cc-ce43f93f1c2b","system_id":"levelo_inurba_marseille","lat":43.26732,"lon":5.37211,"is_reserved":false,"is_disabled":false,"rental_uris":{"android":"levelo://app?vid=9e077e27-33c0-4331-96cc-ce43f93f1c2b","ios":"levelo://app?vid=9e077e27-33c0-4331-96cc-ce43f93f1c2b"},"vehicle_type_id":"4","last_reported":1748499347,"current_range_meters":18000,"station_id":"","pricing_plan_id":"cebpf4jnsgd1na2vs0mg"},{"bike_id":"6449e09c-aa70-4db4-8717-6cdd9456c498","system_id":"levelo_inurba_marseille","lat":43.30467,"lon":5.37919,"is_reserved":false,"is_disabled":false,"rental_uris":{"android":"levelo://app?vid=6449e09c-aa70-4db4-8717-6cdd9456c498","ios":"levelo://app?vid=6449e09c-aa70-4db4-8717-6cdd9456c498"},"vehicle_type_id":"4","last_reported":1748499347,"current_range_meters":18000,"station_id":"ce4bgup2rcd13ifvqcn0","pricing_plan_id":"cebpf4jnsgd1na2vs0mg"},{"bike_id":"1a6c25a4-9881-46c2-adf8-20a7a21d1772","system_id":"levelo_inurba_marseille","lat":43.30254,"lon":5.40056,"is_reserved":false,"is_disabled":false,"rental_uris":{"android":"levelo://app?vid=1a6c25a4-9881-46c2-adf8-20a7a21d1772","ios":"levelo://app?vid=1a6c25a4-9881-46c2-adf8-20a7a21d1772"},"vehicle_type_id":"4","last_reported":1748499347,"current_range_meters":18000,"station_id":"ce4bgvh2rcd13ifvqcs0","pricing_plan_id":"cebpf4jnsgd1na2vs0mg"},{"bike_id":"bd424364-9cf2-4bb8-822f-5ad8131fbbde","system_id":"levelo_inurba_marseille","lat":43.30931,"lon":5.40133,"is_reserved":false,"is_disabled":false,"rental_uris":{"android":"levelo://app?vid=bd424364-9cf2-4bb8-822f-5ad8131fbbde","ios":"levelo://app?vid=bd424364-9cf2-4bb8-822f-5ad8131fbbde"},"vehicle_type_id":"4","last_reported":1748499347,"current_range_meters":18000,"station_id":"ce4bgvp2rcd13ifvqct0","pricing_plan_id":"cebpf4jnsgd1na2vs0mg"},{"bike_id":"8025af9a-957c-4dae-8aec-93c2f16f7798","system_id":"levelo_inurba_marseille","lat":43.301339,"lon":5.398779,"is_reserved":false,"is_disabled":false,"rental_uris":{"android":"levelo://app?vid=8025af9a-957c-4dae-8aec-93c2f16f7798","ios":"levelo://app?vid=8025af9a-957c-4dae-8aec-93c2f16f7798"},"vehicle_type_id":"4","last_reported":1748499347,"current_range_meters":18000,"station_id":"ce4bh0h2rcd13ifvqd40","pricing_plan_id":"cebpf4jnsgd1na2vs0mg"},{"bike_id":"9d7f5467-8060-4fd8-a149-7bfedb3e803a","system_id":"levelo_inurba_marseille","lat":43.306485,"lon":5.40071,"is_reserved":false,"is_disabled":false,"rental_uris":{"android":"levelo://app?vid=9d7f5467-8060-4fd8-a149-7bfedb3e803a","ios":"levelo://app?vid=9d7f5467-8060-4fd8-a149-7bfedb3e803a"},"vehicle_type_id":"4","last_reported":1748499347,"current_range_meters":18800,"station_id":"ce4bh112rcd13ifvqda0","pricing_plan_id":"cebpf4jnsgd1na2vs0mg"},{"bike_id":"b9fc76d8-1bdf-48f3-84a2-3e91d9ed74dc","system_id":"levelo_inurba_marseille","lat":43.307944,"lon":5.435332,"is_reserved":false,"is_disabled":false,"rental_uris":{"android":"levelo://app?vid=b9fc76d8-1bdf-48f3-84a2-3e91d9ed74dc","ios":"levelo://app?vid=b9fc76d8-1bdf-48f3-84a2-3e91d9ed74dc"},"vehicle_type_id":"4","last_reported":1748499347,"current_range_meters":18800,"station_id":"ce4bhph2rcd13ifvqheg","pricing_plan_id":"cebpf4jnsgd1na2vs0mg"},{"bike_id":"c1fe417f-2f0f-4b99-a6b4-c44acd65845f","system_id":"levelo_inurba_marseille","lat":43.331101,"lon":5.385169,"is_reserved":false,"is_disabled":false,"rental_uris":{"android":"levelo://app?vid=c1fe417f-2f0f-4b99-a6b4-c44acd65845f","ios":"levelo://app?vid=c1fe417f-2f0f-4b99-a6b4-c44acd65845f"},"vehicle_type_id":"4","last_reported":1748499347,"current_range_meters":19200,"station_id":"","pricing_plan_id":"cebpf4jnsgd1na2vs0mg"},{"bike_id":"737a56ca-50c6-44cd-b7ed-70eaefbd8a5d","system_id":"levelo_inurba_marseille","lat":43.30452,"lon":5.38903,"is_reserved":false,"is_disabled":false,"rental_uris":{"android":"levelo://app?vid=737a56ca-50c6-44cd-b7ed-70eaefbd8a5d","ios":"levelo://app?vid=737a56ca-50c6-44cd-b7ed-70eaefbd8a5d"},"vehicle_type_id":"4","last_reported":1748499347,"current_range_meters":19200,"station_id":"ce4bgk12rcd13ifvqbi0","pricing_plan_id":"cebpf4jnsgd1na2vs0mg"},{"bike_id":"4a925db8-d3ae-4f8c-80c1-a7789c81e90e","system_id":"levelo_inurba_marseille","lat":43.27938,"lon":5.41026,"is_reserved":false,"is_disabled":false,"rental_uris":{"android":"levelo://app?vid=4a925db8-d3ae-4f8c-80c1-a7789c81e90e","ios":"levelo://app?vid=4a925db8-d3ae-4f8c-80c1-a7789c81e90e"},"vehicle_type_id":"4","last_reported":1748499347,"current_range_meters":19200,"station_id":"ce4bhnp2rcd13ifvqh0g","pricing_plan_id":"cebpf4jnsgd1na2vs0mg"},{"bike_id":"43e6ed40-4275-42eb-84b4-268ba8898d1d","system_id":"levelo_inurba_marseille","lat":43.287034,"lon":5.399824,"is_reserved":false,"is_disabled":false,"rental_uris":{"android":"levelo://app?vid=43e6ed40-4275-42eb-84b4-268ba8898d1d","ios":"levelo://app?vid=43e6ed40-4275-42eb-84b4-268ba8898d1d"},"vehicle_type_id":"4","last_reported":1748499347,"current_range_meters":19200,"station_id":"ce4bho92rcd13ifvqh3g","pricing_plan_id":"cebpf4jnsgd1na2vs0mg"},{"bike_id":"da990dcb-4bfa-4fbb-85a7-420225f26d7c","system_id":"levelo_inurba_marseille","lat":43.323396,"lon":5.406161,"is_reserved":false,"is_disabled":false,"rental_uris":{"android":"levelo://app?vid=da990dcb-4bfa-4fbb-85a7-420225f26d7c","ios":"levelo://app?vid=da990dcb-4bfa-4fbb-85a7-420225f26d7c"},"vehicle_type_id":"4","last_reported":1748499347,"current_range_meters":19200,"station_id":"ce4bhq92rcd13ifvqhjg","pricing_plan_id":"cebpf4jnsgd1na2vs0mg"},{"bike_id":"502b1051-0bae-4a23-bcbf-a876bfe3288a","system_id":"levelo_inurba_marseille","lat":43.31272,"lon":5.38268,"is_reserved":false,"is_disabled":false,"rental_uris":{"android":"levelo://app?vid=502b1051-0bae-4a23-bcbf-a876bfe3288a","ios":"levelo://app?vid=502b1051-0bae-4a23-bcbf-a876bfe3288a"},"vehicle_type_id":"4","last_reported":1748499347,"current_range_meters":19600,"station_id":"","pricing_plan_id":"cebpf4jnsgd1na2vs0mg"},{"bike_id":"999eb41a-e382-4270-a80b-768df394cd56","system_id":"levelo_inurba_marseille","lat":43.29286,"lon":5.40123,"is_reserved":false,"is_disabled":false,"rental_uris":{"android":"levelo://app?vid=999eb41a-e382-4270-a80b-768df394cd56","ios":"levelo://app?vid=999eb41a-e382-4270-a80b-768df394cd56"},"vehicle_type_id":"4","last_reported":1748499347,"current_range_meters":19600,"station_id":"ce4bh312rcd13ifvqdk0","pricing_plan_id":"cebpf4jnsgd1na2vs0mg"},{"bike_id":"abbd8cd5-5059-446a-a8b1-6bc7d4f02032","system_id":"levelo_inurba_marseille","lat":43.30374,"lon":5.42485,"is_reserved":false,"is_disabled":false,"rental_uris":{"android":"levelo://app?vid=abbd8cd5-5059-446a-a8b1-6bc7d4f02032","ios":"levelo://app?vid=abbd8cd5-5059-446a-a8b1-6bc7d4f02032"},"vehicle_type_id":"4","last_reported":1748499347,"current_range_meters":19600,"station_id":"ce4bhoh2rcd13ifvqh6g","pricing_plan_id":"cebpf4jnsgd1na2vs0mg"},{"bike_id":"12fb6655-991b-4561-99ed-737b85e43a99","system_id":"levelo_inurba_marseille","lat":43.307324,"lon":5.424534,"is_reserved":false,"is_disabled":false,"rental_uris":{"android":"levelo://app?vid=12fb6655-991b-4561-99ed-737b85e43a99","ios":"levelo://app?vid=12fb6655-991b-4561-99ed-737b85e43a99"},"vehicle_type_id":"4","last_reported":1748499347,"current_range_meters":19600,"station_id":"st_cvj6ca6bvosntc0bfgr0","pricing_plan_id":"cebpf4jnsgd1na2vs0mg"},{"bike_id":"d27ee93f-776e-4f83-9aea-9ac5fbe19ad8","system_id":"levelo_inurba_marseille","lat":43.30225,"lon":5.38174,"is_reserved":false,"is_disabled":false,"rental_uris":{"android":"levelo://app?vid=d27ee93f-776e-4f83-9aea-9ac5fbe19ad8","ios":"levelo://app?vid=d27ee93f-776e-4f83-9aea-9ac5fbe19ad8"},"vehicle_type_id":"4","last_reported":1748499347,"current_range_meters":20000,"station_id":"","pricing_plan_id":"cebpf4jnsgd1na2vs0mg"},{"bike_id":"5289106b-22b3-4a79-8cf4-556467ef5b25","system_id":"levelo_inurba_marseille","lat":43.30867,"lon":5.39654,"is_reserved":false,"is_disabled":false,"rental_uris":{"android":"levelo://app?vid=5289106b-22b3-4a79-8cf4-556467ef5b25","ios":"levelo://app?vid=5289106b-22b3-4a79-8cf4-556467ef5b25"},"vehicle_type_id":"4","last_reported":1748499347,"current_range_meters":20000,"station_id":"ce4bh012rcd13ifvqcv0","pricing_plan_id":"cebpf4jnsgd1na2vs0mg"},{"bike_id":"6ad41f9b-58e2-4568-9a5e-bc6091e58ecf","system_id":"levelo_inurba_marseille","lat":43.30637,"lon":5.40091,"is_reserved":false,"is_disabled":false,"rental_uris":{"android":"levelo://app?vid=6ad41f9b-58e2-4568-9a5e-bc6091e58ecf","ios":"levelo://app?vid=6ad41f9b-58e2-4568-9a5e-bc6091e58ecf"},"vehicle_type_id":"4","last_reported":1748499347,"current_range_meters":20000,"station_id":"ce4bh112rcd13ifvqda0","pricing_plan_id":"cebpf4jnsgd1na2vs0mg"},{"bike_id":"aac9bfdc-4e9a-477e-b684-02fdb0c182eb","system_id":"levelo_inurba_marseille","lat":43.30338,"lon":5.41833,"is_reserved":false,"is_disabled":false,"rental_uris":{"android":"levelo://app?vid=aac9bfdc-4e9a-477e-b684-02fdb0c182eb","ios":"levelo://app?vid=aac9bfdc-4e9a-477e-b684-02fdb0c182eb"},"vehicle_type_id":"4","last_reported":1748499347,"current_range_meters":20000,"station_id":"ce4bhop2rcd13ifvqh7g","pricing_plan_id":"cebpf4jnsgd1na2vs0mg"},{"bike_id":"9fe1e697-36ec-421f-b0be-031c2f5ed7f3","system_id":"levelo_inurba_marseille","lat":43.33742,"lon":5.37404,"is_reserved":false,"is_disabled":false,"rental_uris":{"android":"levelo://app?vid=9fe1e697-36ec-421f-b0be-031c2f5ed7f3","ios":"levelo://app?vid=9fe1e697-36ec-421f-b0be-031c2f5ed7f3"},"vehicle_type_id":"4","last_reported":1748499347,"current_range_meters":20400,"station_id":"","pricing_plan_id":"cebpf4jnsgd1na2vs0mg"},{"bike_id":"f038d5ea-f100-453b-8bd1-d3fcfb459ef3","system_id":"levelo_inurba_marseille","lat":43.3093,"lon":5.40144,"is_reserved":false,"is_disabled":false,"rental_uris":{"android":"levelo://app?vid=f038d5ea-f100-453b-8bd1-d3fcfb459ef3","ios":"levelo://app?vid=f038d5ea-f100-453b-8bd1-d3fcfb459ef3"},"vehicle_type_id":"4","last_reported":1748499347,"current_range_meters":20400,"station_id":"ce4bgvp2rcd13ifvqct0","pricing_plan_id":"cebpf4jnsgd1na2vs0mg"},{"bike_id":"d212ef34-26ea-4a0b-9211-294132305dd8","system_id":"levelo_inurba_marseille","lat":43.29003,"lon":5.38126,"is_reserved":false,"is_disabled":false,"rental_uris":{"android":"levelo://app?vid=d212ef34-26ea-4a0b-9211-294132305dd8","ios":"levelo://app?vid=d212ef34-26ea-4a0b-9211-294132305dd8"},"vehicle_type_id":"4","last_reported":1748499347,"current_range_meters":20400,"station_id":"ce4bh4p2rcd13ifvqe1g","pricing_plan_id":"cebpf4jnsgd1na2vs0mg"},{"bike_id":"9e3e64a8-8cce-46a2-a88f-058c92e8dc51","system_id":"levelo_inurba_marseille","lat":43.28159,"lon":5.42651,"is_reserved":false,"is_disabled":false,"rental_uris":{"android":"levelo://app?vid=9e3e64a8-8cce-46a2-a88f-058c92e8dc51","ios":"levelo://app?vid=9e3e64a8-8cce-46a2-a88f-058c92e8dc51"},"vehicle_type_id":"4","last_reported":1748499347,"current_range_meters":20400,"station_id":"ce4bhnh2rcd13ifvqgug","pricing_plan_id":"cebpf4jnsgd1na2vs0mg"},{"bike_id":"a447963e-94ac-4b8f-90ea-0398379bb8ff","system_id":"levelo_inurba_marseille","lat":43.30653,"lon":5.40063,"is_reserved":false,"is_disabled":false,"rental_uris":{"android":"levelo://app?vid=a447963e-94ac-4b8f-90ea-0398379bb8ff","ios":"levelo://app?vid=a447963e-94ac-4b8f-90ea-0398379bb8ff"},"vehicle_type_id":"4","last_reported":1748499347,"current_range_meters":20800,"station_id":"ce4bh112rcd13ifvqda0","pricing_plan_id":"cebpf4jnsgd1na2vs0mg"},{"bike_id":"2783806a-a105-412b-ad5c-52d45fbadf99","system_id":"levelo_inurba_marseille","lat":43.25498,"lon":5.37653,"is_reserved":false,"is_disabled":false,"rental_uris":{"android":"levelo://app?vid=2783806a-a105-412b-ad5c-52d45fbadf99","ios":"levelo://app?vid=2783806a-a105-412b-ad5c-52d45fbadf99"},"vehicle_type_id":"4","last_reported":1748499347,"current_range_meters":20800,"station_id":"ce4bhh12rcd13ifvqff0","pricing_plan_id":"cebpf4jnsgd1na2vs0mg"},{"bike_id":"4a4ee0ef-c1bc-479a-b23c-9133a3f030ba","system_id":"levelo_inurba_marseille","lat":43.33601,"lon":5.40972,"is_reserved":false,"is_disabled":false,"rental_uris":{"android":"levelo://app?vid=4a4ee0ef-c1bc-479a-b23c-9133a3f030ba","ios":"levelo://app?vid=4a4ee0ef-c1bc-479a-b23c-9133a3f030ba"},"vehicle_type_id":"4","last_reported":1748499347,"current_range_meters":20800,"station_id":"ce4bhqh2rcd13ifvqhmg","pricing_plan_id":"cebpf4jnsgd1na2vs0mg"},{"bike_id":"709437a4-34f7-463d-9e26-4bbbb76837bc","system_id":"levelo_inurba_marseille","lat":43.28561,"lon":5.38019,"is_reserved":false,"is_disabled":false,"rental_uris":{"android":"levelo://app?vid=709437a4-34f7-463d-9e26-4bbbb76837bc","ios":"levelo://app?vid=709437a4-34f7-463d-9e26-4bbbb76837bc"},"vehicle_type_id":"4","last_reported":1748499347,"current_range_meters":21600,"station_id":"","pricing_plan_id":"cebpf4jnsgd1na2vs0mg"},{"bike_id":"205aee11-ed02-4f66-b7aa-19b2da2d2adc","system_id":"levelo_inurba_marseille","lat":43.305304,"lon":5.384445,"is_reserved":false,"is_disabled":false,"rental_uris":{"android":"levelo://app?vid=205aee11-ed02-4f66-b7aa-19b2da2d2adc","ios":"levelo://app?vid=205aee11-ed02-4f66-b7aa-19b2da2d2adc"},"vehicle_type_id":"4","last_reported":1748499347,"current_range_meters":21600,"station_id":"ce4bgg92rcd13ifvqb30","pricing_plan_id":"cebpf4jnsgd1na2vs0mg"},{"bike_id":"c76e6c1e-b134-4d6f-8d71-70c1bc11c22a","system_id":"levelo_inurba_marseille","lat":43.30154,"lon":5.381,"is_reserved":false,"is_disabled":false,"rental_uris":{"android":"levelo://app?vid=c76e6c1e-b134-4d6f-8d71-70c1bc11c22a","ios":"levelo://app?vid=c76e6c1e-b134-4d6f-8d71-70c1bc11c22a"},"vehicle_type_id":"4","last_reported":1748499347,"current_range_meters":21600,"station_id":"ce4bgjp2rcd13ifvqbh0","pricing_plan_id":"cebpf4jnsgd1na2vs0mg"},{"bike_id":"e2e9a358-4d1e-48c9-8d64-bf5ecca6030a","system_id":"levelo_inurba_marseille","lat":43.308848,"lon":5.396486,"is_reserved":false,"is_disabled":false,"rental_uris":{"android":"levelo://app?vid=e2e9a358-4d1e-48c9-8d64-bf5ecca6030a","ios":"levelo://app?vid=e2e9a358-4d1e-48c9-8d64-bf5ecca6030a"},"vehicle_type_id":"4","last_reported":1748499347,"current_range_meters":21600,"station_id":"ce4bh012rcd13ifvqcv0","pricing_plan_id":"cebpf4jnsgd1na2vs0mg"},{"bike_id":"24fac7d8-b294-491e-9322-2bc2c0a9e2ad","system_id":"levelo_inurba_marseille","lat":43.28943,"lon":5.3663,"is_reserved":false,"is_disabled":false,"rental_uris":{"android":"levelo://app?vid=24fac7d8-b294-491e-9322-2bc2c0a9e2ad","ios":"levelo://app?vid=24fac7d8-b294-491e-9322-2bc2c0a9e2ad"},"vehicle_type_id":"4","last_reported":1748499347,"current_range_meters":21600,"station_id":"ce4bhap2rcd13ifvqek0","pricing_plan_id":"cebpf4jnsgd1na2vs0mg"},{"bike_id":"51e4d7d6-d8e1-4e92-8d67-fdf57ac85052","system_id":"levelo_inurba_marseille","lat":43.28261,"lon":5.35062,"is_reserved":false,"is_disabled":false,"rental_uris":{"android":"levelo://app?vid=51e4d7d6-d8e1-4e92-8d67-fdf57ac85052","ios":"levelo://app?vid=51e4d7d6-d8e1-4e92-8d67-fdf57ac85052"},"vehicle_type_id":"4","last_reported":1748499347,"current_range_meters":21600,"station_id":"ce4bhbp2rcd13ifvqerg","pricing_plan_id":"cebpf4jnsgd1na2vs0mg"},{"bike_id":"b6e23a82-0133-4930-a014-a64cb993dc64","system_id":"levelo_inurba_marseille","lat":43.27498,"lon":5.42445,"is_reserved":false,"is_disabled":false,"rental_uris":{"android":"levelo://app?vid=b6e23a82-0133-4930-a014-a64cb993dc64","ios":"levelo://app?vid=b6e23a82-0133-4930-a014-a64cb993dc64"},"vehicle_type_id":"4","last_reported":1748499347,"current_range_meters":21600,"station_id":"ce4bhn92rcd13ifvqgrg","pricing_plan_id":"cebpf4jnsgd1na2vs0mg"},{"bike_id":"7596b472-0f65-4ce8-90b9-07c86d98d9af","system_id":"levelo_inurba_marseille","lat":43.27948,"lon":5.41042,"is_reserved":false,"is_disabled":false,"rental_uris":{"android":"levelo://app?vid=7596b472-0f65-4ce8-90b9-07c86d98d9af","ios":"levelo://app?vid=7596b472-0f65-4ce8-90b9-07c86d98d9af"},"vehicle_type_id":"4","last_reported":1748499347,"current_range_meters":21600,"station_id":"ce4bhnp2rcd13ifvqh0g","pricing_plan_id":"cebpf4jnsgd1na2vs0mg"},{"bike_id":"f552191a-4b4f-47d1-a1e2-436b5464aef0","system_id":"levelo_inurba_marseille","lat":43.28706,"lon":5.39966,"is_reserved":false,"is_disabled":false,"rental_uris":{"android":"levelo://app?vid=f552191a-4b4f-47d1-a1e2-436b5464aef0","ios":"levelo://app?vid=f552191a-4b4f-47d1-a1e2-436b5464aef0"},"vehicle_type_id":"4","last_reported":1748499347,"current_range_meters":21600,"station_id":"ce4bho92rcd13ifvqh3g","pricing_plan_id":"cebpf4jnsgd1na2vs0mg"},{"bike_id":"56118b1f-13ce-432c-804d-331641f1c399","system_id":"levelo_inurba_marseille","lat":43.3015,"lon":5.38091,"is_reserved":false,"is_disabled":false,"rental_uris":{"android":"levelo://app?vid=56118b1f-13ce-432c-804d-331641f1c399","ios":"levelo://app?vid=56118b1f-13ce-432c-804d-331641f1c399"},"vehicle_type_id":"4","last_reported":1748499347,"current_range_meters":22000,"station_id":"ce4bgjp2rcd13ifvqbh0","pricing_plan_id":"cebpf4jnsgd1na2vs0mg"},{"bike_id":"b2a1f15a-eaa2-42dc-ba83-6d6f139531a4","system_id":"levelo_inurba_marseille","lat":43.298922,"lon":5.436609,"is_reserved":false,"is_disabled":false,"rental_uris":{"android":"levelo://app?vid=b2a1f15a-eaa2-42dc-ba83-6d6f139531a4","ios":"levelo://app?vid=b2a1f15a-eaa2-42dc-ba83-6d6f139531a4"},"vehicle_type_id":"4","last_reported":1748499347,"current_range_meters":22000,"station_id":"ce4bhpp2rcd13ifvqhfg","pricing_plan_id":"cebpf4jnsgd1na2vs0mg"},{"bike_id":"5fa764c9-5838-432b-8380-bd208a78dd8c","system_id":"levelo_inurba_marseille","lat":43.30843,"lon":5.39683,"is_reserved":false,"is_disabled":false,"rental_uris":{"android":"levelo://app?vid=5fa764c9-5838-432b-8380-bd208a78dd8c","ios":"levelo://app?vid=5fa764c9-5838-432b-8380-bd208a78dd8c"},"vehicle_type_id":"4","last_reported":1748499347,"current_range_meters":22400,"station_id":"","pricing_plan_id":"cebpf4jnsgd1na2vs0mg"},{"bike_id":"1c13c776-2d25-4710-ae5b-0c668655ab31","system_id":"levelo_inurba_marseille","lat":43.305422,"lon":5.384263,"is_reserved":false,"is_disabled":false,"rental_uris":{"android":"levelo://app?vid=1c13c776-2d25-4710-ae5b-0c668655ab31","ios":"levelo://app?vid=1c13c776-2d25-4710-ae5b-0c668655ab31"},"vehicle_type_id":"4","last_reported":1748499347,"current_range_meters":22400,"station_id":"ce4bgg92rcd13ifvqb30","pricing_plan_id":"cebpf4jnsgd1na2vs0mg"},{"bike_id":"43b68c73-6479-4b65-8cbe-aa28867ffcd0","system_id":"levelo_inurba_marseille","lat":43.305445,"lon":5.384306,"is_reserved":false,"is_disabled":false,"rental_uris":{"android":"levelo://app?vid=43b68c73-6479-4b65-8cbe-aa28867ffcd0","ios":"levelo://app?vid=43b68c73-6479-4b65-8cbe-aa28867ffcd0"},"vehicle_type_id":"4","last_reported":1748499347,"current_range_meters":22400,"station_id":"ce4bgg92rcd13ifvqb30","pricing_plan_id":"cebpf4jnsgd1na2vs0mg"},{"bike_id":"b7ec073b-dbce-40cc-8457-05a0ae43c895","system_id":"levelo_inurba_marseille","lat":43.28657,"lon":5.38657,"is_reserved":false,"is_disabled":false,"rental_uris":{"android":"levelo://app?vid=b7ec073b-dbce-40cc-8457-05a0ae43c895","ios":"levelo://app?vid=b7ec073b-dbce-40cc-8457-05a0ae43c895"},"vehicle_type_id":"4","last_reported":1748499347,"current_range_meters":22400,"station_id":"ce4bh492rcd13ifvqdug","pricing_plan_id":"cebpf4jnsgd1na2vs0mg"},{"bike_id":"d31d8480-68c2-4f98-8b51-c22189cece71","system_id":"levelo_inurba_marseille","lat":43.25095,"lon":5.4034,"is_reserved":false,"is_disabled":false,"rental_uris":{"android":"levelo://app?vid=d31d8480-68c2-4f98-8b51-c22189cece71","ios":"levelo://app?vid=d31d8480-68c2-4f98-8b51-c22189cece71"},"vehicle_type_id":"4","last_reported":1748499347,"current_range_meters":22400,"station_id":"ce4bhlh2rcd13ifvqgig","pricing_plan_id":"cebpf4jnsgd1na2vs0mg"},{"bike_id":"a0778334-a936-4f65-83ab-d23f81e49d72","system_id":"levelo_inurba_marseille","lat":43.329977,"lon":5.438518,"is_reserved":false,"is_disabled":false,"rental_uris":{"android":"levelo://app?vid=a0778334-a936-4f65-83ab-d23f81e49d72","ios":"levelo://app?vid=a0778334-a936-4f65-83ab-d23f81e49d72"},