{"last_updated":1701428749,"ttl":30,"version":"2.2","data":{"bikes":[{"bike_id":"b251a47d-5e15-4d8b-bc37-fa99487a2a7a","system_id":"levelo_inurba_marseille","lat":43.313391,"lon":5.36706,"is_reserved":false,"is_disabled":false,"rental_uris":{"android":"levelo://app?vid=b251a47d-5e15-4d8b-bc37-fa99487a2a7a","ios":"levelo://app?vid=b251a47d-5e15-4d8b-bc37-fa99487a2a7a"},"vehicle_type_id":"4","last_reported":1701428749,"current_range_meters":25600,"station_id":"ce4bgr92rcd13ifvqc6g","pricing_plan_id":"free"},{"bike_id":"edcccf5a-9912-4a81-954a-48a819d3434c","system_id":"levelo_inurba_marseille","lat":43.313391,"lon":5.36706,"is_reserved":false,"is_disabled":false,"rental_uris":{"android":"levelo://app?vid=edcccf5a-9912-4a81-954a-48a819d3434c","ios":"levelo://app?vid=edcccf5a-9912-4a81-954a-48a819d3434c"},"vehicle_type_id":"4","last_reported":1701428749,"current_range_meters":24800,"station_id":"ce4bgr92rcd13ifvqc6g","pricing_plan_id":"free"},{"bike_id":"1a76aa3d-1a6d-4927-9799-d53f46ab134d","system_id":"levelo_inurba_marseille","lat":43.31341,"lon":5.367098,"is_reserved":false,"is_disabled":false,"rental_uris":{"android":"levelo://app?vid=1a76aa3d-1a6d-4927-9799-d53f46ab134d","ios":"levelo://app?vid=1a76aa3d-1a6d-4927-9799-d53f46ab134d"},"vehicle_type_id":"4","last_reported":1701428749,"current_range_meters":800,"station_id":"ce4bgr92rcd13ifvqc6g","pricing_plan_id":"free"},{"bike_id":"850b513c-e180-463d-933e-e187c3a0d6b3","system_id":"levelo_inurba_marseille","lat":43.31341,"lon":5.367098,"is_reserved":false,"is_disabled":false,"rental_uris":{"android":"levelo://app?vid=850b513c-e180-463d-933e-e187c3a0d6b3","ios":"levelo://app?vid=850b513c-e180-463d-933e-e187c3a0d6b3"},"vehicle_type_id":"4","last_reported":1701428749,"current_range_meters":26800,"station_id":"ce4bgr92rcd13ifvqc6g","pricing_plan_id":"free"},{"bike_id":"98052f90-fd8a-4055-aa05-7fd8f142eeed","system_id":"levelo_inurba_marseille","lat":43.309076,"lon":5.368465,"is_reserved":false,"is_disabled":false,"rental_uris":{"android":"levelo://app?vid=98052f90-fd8a-4055-aa05-7fd8f142eeed","ios":"levelo://app?vid=98052f90-fd8a-4055-aa05-7fd8f142eeed"},"vehicle_type_id":"4","last_reported":1701428749,"current_range_meters":31200,"station_id":"ce4bgn92rcd13ifvqbvg","pricing_plan_id":"free"},{"bike_id":"8f16ac6f-a8d7-4472-8174-fdf1a7e66d17","system_id":"levelo_inurba_marseille","lat":43.309076,"lon":5.368465,"is_reserved":false,"is_disabled":false,"rental_uris":{"android":"levelo://app?vid=8f16ac6f-a8d7-4472-8174-fdf1a7e66d17","ios":"levelo://app?vid=8f16ac6f-a8d7-4472-8174-fdf1a7e66d17"},"vehicle_type_id":"4","last_reported":1701428749,"current_range_meters":31200,"station_id":"ce4bgn92rcd13ifvqbvg","pricing_plan_id":"free"},{"bike_id":"85ebfaaa-3017-45f3-906e-a6c2319c069c","system_id":"levelo_inurba_marseille","lat":43.30873,"lon":5.36861,"is_reserved":false,"is_disabled":false,"rental_uris":{"android":"levelo://app?vid=85ebfaaa-3017-45f3-906e-a6c2319c069c","ios":"levelo://app?vid=85ebfaaa-3017-45f3-906e-a6c2319c069c"},"vehicle_type_id":"4","last_reported":1701428749,"current_range_meters":10800,"station_id":"ce4bgn92rcd13ifvqbvg","pricing_plan_id":"free"},{"bike_id":"f6d1f7fd-4323-4284-8320-c6a66c4f407b","system_id":"levelo_inurba_marseille","lat":43.309039,"lon":5.371797,"is_reserved":false,"is_disabled":false,"rental_uris":{"android":"levelo://app?vid=f6d1f7fd-4323-4284-8320-c6a66c4f407b","ios":"levelo://app?vid=f6d1f7fd-4323-4284-8320-c6a66c4f407b"},"vehicle_type_id":"4","last_reported":1701428749,"current_range_meters":26400,"station_id":"ce4bguh2rcd13ifvqckg","pricing_plan_id":"free"},{"bike_id":"652bdf15-0322-4e94-9c8d-7cd42baef8a6","system_id":"levelo_inurba_marseille","lat":43.305714,"lon":5.365633,"is_reserved":false,"is_disabled":false,"rental_uris":{"android":"levelo://app?vid=652bdf15-0322-4e94-9c8d-7cd42baef8a6","ios":"levelo://app?vid=652bdf15-0322-4e94-9c8d-7cd42baef8a6"},"vehicle_type_id":"4","last_reported":1701428749,"current_range_meters":24400,"station_id":"ce4bgs12rcd13ifvqcag","pricing_plan_id":"free"},{"bike_id":"e8610a3e-8f46-49f3-82a1-c01c20430d0c","system_id":"levelo_inurba_marseille","lat":43.305714,"lon":5.365633,"is_reserved":false,"is_disabled":false,"rental_uris":{"android":"levelo://app?vid=e8610a3e-8f46-49f3-82a1-c01c20430d0c","ios":"levelo://app?vid=e8610a3e-8f46-49f3-82a1-c01c20430d0c"},"vehicle_type_id":"4","last_reported":1701428749,"current_range_meters":29200,"station_id":"ce4bgs12rcd13ifvqcag","pricing_plan_id":"free"},{"bike_id":"25da1b31-1c6c-4c83-889d-29852c9f9167","system_id":"levelo_inurba_marseille","lat":43.305714,"lon":5.365633,"is_reserved":false,"is_disabled":false,"rental_uris":{"android":"levelo://app?vid=25da1b31-1c6c-4c83-889d-29852c9f9167","ios":"levelo://app?vid=25da1b31-1c6c-4c83-889d-29852c9f9167"},"vehicle_type_id":"4","last_reported":1701428749,"current_range_meters":25600,"station_id":"ce4bgs12rcd13ifvqcag","pricing_plan_id":"free"},{"bike_id":"3b24f21f-f1f7-4d99-afea-2fa584e3d664","system_id":"levelo_inurba_marseille","lat":43.305706,"lon":5.365654,"is_reserved":false,"is_disabled":false,"rental_uris":{"android":"levelo://app?vid=3b24f21f-f1f7-4d99-afea-2fa584e3d664","ios":"levelo://app?vid=3b24f21f-f1f7-4d99-afea-2fa584e3d664"},"vehicle_type_id":"4","last_reported":1701428749,"current_range_meters":31600,"station_id":"ce4bgs12rcd13ifvqcag","pricing_plan_id":"free"},{"bike_id":"9204e4e9-9259-4b00-af32-cf1621761ebb","system_id":"levelo_inurba_marseille","lat":43.305706,"lon":5.365654,"is_reserved":false,"is_disabled":false,"rental_uris":{"android":"levelo://app?vid=9204e4e9-9259-4b00-af32-cf1621761ebb","ios":"levelo://app?vid=9204e4e9-9259-4b00-af32-cf1621761ebb"},"vehicle_type_id":"4","last_reported":1701428749,"current_range_meters":31200,"station_id":"ce4bgs12rcd13ifvqcag","pricing_plan_id":"free"},{"bike_id":"081fc797-391d-4f24-9d91-ced3a512d87e","system_id":"levelo_inurba_marseille","lat":43.305706,"lon":5.365654,"is_reserved":false,"is_disabled":false,"rental_uris":{"android":"levelo://app?vid=081fc797-391d-4f24-9d91-ced3a512d87e","ios":"levelo://app?vid=081fc797-391d-4f24-9d91-ced3a512d87e"},"vehicle_type_id":"4","last_reported":1701428749,"current_range_meters":30800,"station_id":"ce4bgs12rcd13ifvqcag","pricing_plan_id":"free"},{"bike_id":"19a394ab-5379-4fbb-b5f1-19110da6b508","system_id":"levelo_inurba_marseille","lat":43.305706,"lon":5.365654,"is_reserved":false,"is_disabled":false,"rental_uris":{"android":"levelo://app?vid=19a394ab-5379-4fbb-b5f1-19110da6b508","ios":"levelo://app?vid=19a394ab-5379-4fbb-b5f1-19110da6b508"},"vehicle_type_id":"4","last_reported":1701428749,"current_range_meters":15600,"station_id":"ce4bgs12rcd13ifvqcag","pricing_plan_id":"free"},{"bike_id":"b59036a9-a375-4842-b3b4-03903a34888a","system_id":"levelo_inurba_marseille","lat":43.305989,"lon":5.37225,"is_reserved":false,"is_disabled":false,"rental_uris":{"android":"levelo://app?vid=b59036a9-a375-4842-b3b4-03903a34888a","ios":"levelo://app?vid=b59036a9-a375-4842-b3b4-03903a34888a"},"vehicle_type_id":"4","last_reported":1701428749,"current_range_meters":19200,"station_id":"ce4bgqh2rcd13ifvqc4g","pricing_plan_id":"free"},{"bike_id":"7bdbcfe9-924e-49e5-849f-fb7276f261aa","system_id":"levelo_inurba_marseille","lat":43.31048,"lon":5.37755,"is_reserved":false,"is_disabled":false,"rental_uris":{"android":"levelo://app?vid=7bdbcfe9-924e-49e5-849f-fb7276f261aa","ios":"levelo://app?vid=7bdbcfe9-924e-49e5-849f-fb7276f261aa"},"vehicle_type_id":"4","last_reported":1701428749,"current_range_meters":11200,"station_id":"","pricing_plan_id":"free"},{"bike_id":"727d231a-d425-4d8f-ad3f-99b5a47572e8","system_id":"levelo_inurba_marseille","lat":43.30439,"lon":5.36753,"is_reserved":false,"is_disabled":false,"rental_uris":{"android":"levelo://app?vid=727d231a-d425-4d8f-ad3f-99b5a47572e8","ios":"levelo://app?vid=727d231a-d425-4d8f-ad3f-99b5a47572e8"},"vehicle_type_id":"4","last_reported":1701428749,"current_range_meters":28400,"station_id":"","pricing_plan_id":"free"},{"bike_id":"f427a2c3-6e4a-446b-ae2f-9be8aa7f4122","system_id":"levelo_inurba_marseille","lat":43.31719,"lon":5.376813,"is_reserved":false,"is_disabled":false,"rental_uris":{"android":"levelo://app?vid=f427a2c3-6e4a-446b-ae2f-9be8aa7f4122","ios":"levelo://app?vid=f427a2c3-6e4a-446b-ae2f-9be8aa7f4122"},"vehicle_type_id":"4","last_reported":1701428749,"current_range_meters":2000,"station_id":"","pricing_plan_id":"free"},{"bike_id":"e913f328-1e31-4c22-bd87-f809ea246de4","system_id":"levelo_inurba_marseille","lat":43.317168,"lon":5.376883,"is_reserved":false,"is_disabled":false,"rental_uris":{"android":"levelo://app?vid=e913f328-1e31-4c22-bd87-f809ea246de4","ios":"levelo://app?vid=e913f328-1e31-4c22-bd87-f809ea246de4"},"vehicle_type_id":"4","last_reported":1701428749,"current_range_meters":4400,"station_id":"","pricing_plan_id":"free"},{"bike_id":"a353da53-2844-47b1-b7b8-563a86bb4f14","system_id":"levelo_inurba_marseille","lat":43.315385,"lon":5.380372,"is_reserved":false,"is_disabled":false,"rental_uris":{"android":"levelo://app?vid=a353da53-2844-47b1-b7b8-563a86bb4f14","ios":"levelo://app?vid=a353da53-2844-47b1-b7b8-563a86bb4f14"},"vehicle_type_id":"4","last_reported":1701428749,"current_range_meters":20800,"station_id":"ce4bhsp2rcd13ifvqi50","pricing_plan_id":"free"},{"bike_id":"49d3ed61-c008-495a-88ed-54f3b6096f3d","system_id":"levelo_inurba_marseille","lat":43.301939,"lon":5.366286,"is_reserved":false,"is_disabled":false,"rental_uris":{"android":"levelo://app?vid=49d3ed61-c008-495a-88ed-54f3b6096f3d","ios":"levelo://app?vid=49d3ed61-c008-495a-88ed-54f3b6096f3d"},"vehicle_type_id":"4","last_reported":1701428749,"current_range_meters":14000,"station_id":"ce4bgrh2rcd13ifvqc8g","pricing_plan_id":"free"},{"bike_id":"f5590548-a543-4166-b63f-4793c8899830","system_id":"levelo_inurba_marseille","lat":43.30143,"lon":5.37413,"is_reserved":false,"is_disabled":false,"rental_uris":{"android":"levelo://app?vid=f5590548-a543-4166-b63f-4793c8899830","ios":"levelo://app?vid=f5590548-a543-4166-b63f-4793c8899830"},"vehicle_type_id":"4","last_reported":1701428749,"current_range_meters":12800,"station_id":"ce4bgs92rcd13ifvqcc0","pricing_plan_id":"free"},{"bike_id":"9f2dcaa3-86f6-4ca1-98d7-163e7a543245","system_id":"levelo_inurba_marseille","lat":43.301429,"lon":5.37413,"is_reserved":false,"is_disabled":false,"rental_uris":{"android":"levelo://app?vid=9f2dcaa3-86f6-4ca1-98d7-163e7a543245","ios":"levelo://app?vid=9f2dcaa3-86f6-4ca1-98d7-163e7a543245"},"vehicle_type_id":"4","last_reported":1701428749,"current_range_meters":17600,"station_id":"ce4bgs92rcd13ifvqcc0","pricing_plan_id":"free"},{"bike_id":"0007c01c-a7cf-47cc-b942-ed6a1818dd46","system_id":"levelo_inurba_marseille","lat":43.301429,"lon":5.37413,"is_reserved":false,"is_disabled":false,"rental_uris":{"android":"levelo://app?vid=0007c01c-a7cf-47cc-b942-ed6a1818dd46","ios":"levelo://app?vid=0007c01c-a7cf-47cc-b942-ed6a1818dd46"},"vehicle_type_id":"4","last_reported":1701428749,"current_range_meters":31200,"station_id":"ce4bgs92rcd13ifvqcc0","pricing_plan_id":"free"},{"bike_id":"09e01f44-f909-4852-ba39-6eedd97688e1","system_id":"levelo_inurba_marseille","lat":43.301429,"lon":5.37413,"is_reserved":false,"is_disabled":false,"rental_uris":{"android":"levelo://app?vid=09e01f44-f909-4852-ba39-6eedd97688e1","ios":"levelo://app?vid=09e01f44-f909-4852-ba39-6eedd97688e1"},"vehicle_type_id":"4","last_reported":1701428749,"current_range_meters":22000,"station_id":"ce4bgs92rcd13ifvqcc0","pricing_plan_id":"free"},{"bike_id":"2275aca5-3158-4c2c-8022-ca5d2714bc86","system_id":"levelo_inurba_marseille","lat":43.319997,"lon":5.381594,"is_reserved":false,"is_disabled":false,"rental_uris":{"android":"levelo://app?vid=2275aca5-3158-4c2c-8022-ca5d2714bc86","ios":"levelo://app?vid=2275aca5-3158-4c2c-8022-ca5d2714bc86"},"vehicle_type_id":"4","last_reported":1701428749,"current_range_meters":19600,"station_id":"ce4bhr12rcd13ifvqhpg","pricing_plan_id":"free"},{"bike_id":"bc78d325-38f0-4ca6-8328-030e1a3885fa","system_id":"levelo_inurba_marseille","lat":43.299724,"lon":5.371829,"is_reserved":false,"is_disabled":false,"rental_uris":{"android":"levelo://app?vid=bc78d325-38f0-4ca6-8328-030e1a3885fa","ios":"levelo://app?vid=bc78d325-38f0-4ca6-8328-030e1a3885fa"},"vehicle_type_id":"4","last_reported":1701428749,"current_range_meters":25600,"station_id":"ce4bgr92rcd13ifvqc7g","pricing_plan_id":"free"},{"bike_id":"e785b381-2dae-4db7-a1d8-6d3dbf5d3f8d","system_id":"levelo_inurba_marseille","lat":43.299724,"lon":5.371829,"is_reserved":false,"is_disabled":false,"rental_uris":{"android":"levelo://app?vid=e785b381-2dae-4db7-a1d8-6d3dbf5d3f8d","ios":"levelo://app?vid=e785b381-2dae-4db7-a1d8-6d3dbf5d3f8d"},"vehicle_type_id":"4","last_reported":1701428749,"current_range_meters":18000,"station_id":"ce4bgr92rcd13ifvqc7g","pricing_plan_id":"free"},{"bike_id":"748d12ab-8e09-4ecd-b2d2-cbe0ea9624f6","system_id":"levelo_inurba_marseille","lat":43.29855,"lon":5.367639,"is_reserved":false,"is_disabled":false,"rental_uris":{"android":"levelo://app?vid=748d12ab-8e09-4ecd-b2d2-cbe0ea9624f6","ios":"levelo://app?vid=748d12ab-8e09-4ecd-b2d2-cbe0ea9624f6"},"vehicle_type_id":"4","last_reported":1701428749,"current_range_meters":11200,"station_id":"","pricing_plan_id":"free"},{"bike_id":"4c06f9be-7b97-4bdb-a530-fa10b066c687","system_id":"levelo_inurba_marseille","lat":43.298433,"lon":5.362774,"is_reserved":false,"is_disabled":false,"rental_uris":{"android":"levelo://app?vid=4c06f9be-7b97-4bdb-a530-fa10b066c687","ios":"levelo://app?vid=4c06f9be-7b97-4bdb-a530-fa10b066c687"},"vehicle_type_id":"4","last_reported":1701428749,"current_range_meters":27600,"station_id":"ce4bgpp2rcd13ifvqc3g","pricing_plan_id":"free"},{"bike_id":"aebb5f1f-3a1e-4323-a4f0-ae83e0b78d14","system_id":"levelo_inurba_marseille","lat":43.327603,"lon":5.36705,"is_reserved":false,"is_disabled":false,"rental_uris":{"android":"levelo://app?vid=aebb5f1f-3a1e-4323-a4f0-ae83e0b78d14","ios":"levelo://app?vid=aebb5f1f-3a1e-4323-a4f0-ae83e0b78d14"},"vehicle_type_id":"4","last_reported":1701428749,"current_range_meters":21200,"station_id":"","pricing_plan_id":"free"},{"bike_id":"25edd7c8-cdc2-4480-8b3b-d3fd538b256c","system_id":"levelo_inurba_marseille","lat":43.297794,"lon":5.370888,"is_reserved":false,"is_disabled":false,"rental_uris":{"android":"levelo://app?vid=25edd7c8-cdc2-4480-8b3b-d3fd538b256c","ios":"levelo://app?vid=25edd7c8-cdc2-4480-8b3b-d3fd538b256c"},"vehicle_type_id":"4","last_reported":1701428749,"current_range_meters":26000,"station_id":"ce4bgop2rcd13ifvqc1g","pricing_plan_id":"free"},{"bike_id":"65073be3-64d5-4947-9113-fd11101b78dd","system_id":"levelo_inurba_marseille","lat":43.322872,"lon":5.382756,"is_reserved":false,"is_disabled":false,"rental_uris":{"android":"levelo://app?vid=65073be3-64d5-4947-9113-fd11101b78dd","ios":"levelo://app?vid=65073be3-64d5-4947-9113-fd11101b78dd"},"vehicle_type_id":"4","last_reported":1701428749,"current_range_meters":13200,"station_id":"ce4bhr12rcd13ifvqhqg","pricing_plan_id":"free"},{"bike_id":"2484d89c-f06b-463b-bfb4-4415361ed078","system_id":"levelo_inurba_marseille","lat":43.328371,"lon":5.366909,"is_reserved":false,"is_disabled":false,"rental_uris":{"android":"levelo://app?vid=2484d89c-f06b-463b-bfb4-4415361ed078","ios":"levelo://app?vid=2484d89c-f06b-463b-bfb4-4415361ed078"},"vehicle_type_id":"4","last_reported":1701428749,"current_range_meters":20000,"station_id":"ce4bhs92rcd13ifvqi0g","pricing_plan_id":"free"},{"bike_id":"07888275-36c5-45f1-b842-fc521ca19014","system_id":"levelo_inurba_marseille","lat":43.29703,"lon":5.36613,"is_reserved":false,"is_disabled":false,"rental_uris":{"android":"levelo://app?vid=07888275-36c5-45f1-b842-fc521ca19014","ios":"levelo://app?vid=07888275-36c5-45f1-b842-fc521ca19014"},"vehicle_type_id":"4","last_reported":1701428749,"current_range_meters":17200,"station_id":"ce4bgn12rcd13ifvqbt0","pricing_plan_id":"free"},{"bike_id":"5983625d-69f5-485f-a399-daec2999c965","system_id":"levelo_inurba_marseille","lat":43.321525,"lon":5.385771,"is_reserved":false,"is_disabled":false,"rental_uris":{"android":"levelo://app?vid=5983625d-69f5-485f-a399-daec2999c965","ios":"levelo://app?vid=5983625d-69f5-485f-a399-daec2999c965"},"vehicle_type_id":"4","last_reported":1701428749,"current_range_meters":6800,"station_id":"","pricing_plan_id":"free"},{"bike_id":"76b6d16b-b40d-4238-9bcd-d112ec59c279","system_id":"levelo_inurba_marseille","lat":43.2968,"lon":5.37291,"is_reserved":false,"is_disabled":false,"rental_uris":{"android":"levelo://app?vid=76b6d16b-b40d-4238-9bcd-d112ec59c279","ios":"levelo://app?vid=76b6d16b-b40d-4238-9bcd-d112ec59c279"},"vehicle_type_id":"4","last_reported":1701428749,"current_range_meters":31200,"station_id":"ce4bgk12rcd13ifvqbj0","pricing_plan_id":"free"},{"bike_id":"4d1698b1-f1cd-4258-8be2-7d4239eb6575","system_id":"levelo_inurba_marseille","lat":43.2968,"lon":5.37291,"is_reserved":false,"is_disabled":false,"rental_uris":{"android":"levelo://app?vid=4d1698b1-f1cd-4258-8be2-7d4239eb6575","ios":"levelo://app?vid=4d1698b1-f1cd-4258-8be2-7d4239eb6575"},"vehicle_type_id":"4","last_reported":1701428749,"current_range_meters":8800,"station_id":"ce4bgk12rcd13ifvqbj0","pricing_plan_id":"free"},{"bike_id":"d068864e-3768-4cb7-8f2c-e01febcf4d60","system_id":"levelo_inurba_marseille","lat":43.29615,"lon":5.36513,"is_reserved":false,"is_disabled":false,"rental_uris":{"android":"levelo://app?vid=d068864e-3768-4cb7-8f2c-e01febcf4d60","ios":"levelo://app?vid=d068864e-3768-4cb7-8f2c-e01febcf4d60"},"vehicle_type_id":"4","last_reported":1701428749,"current_range_meters":8000,"station_id":"","pricing_plan_id":"free"},{"bike_id":"8bd3fad4-cc18-4bde-b6f6-e79751f64c7a","system_id":"levelo_inurba_marseille","lat":43.309589,"lon":5.390258,"is_reserved":false,"is_disabled":false,"rental_uris":{"android":"levelo://app?vid=8bd3fad4-cc18-4bde-b6f6-e79751f64c7a","ios":"levelo://app?vid=8bd3fad4-cc18-4bde-b6f6-e79751f64c7a"},"vehicle_type_id":"4","last_reported":1701428749,"current_range_meters":1600,"station_id":"ce4bgup2rcd13ifvqco0","pricing_plan_id":"free"},{"bike_id":"28b607eb-313a-4d37-bf2c-9c0e1ecbd718","system_id":"levelo_inurba_marseille","lat":43.299028,"lon":5.381509,"is_reserved":false,"is_disabled":false,"rental_uris":{"android":"levelo://app?vid=28b607eb-313a-4d37-bf2c-9c0e1ecbd718","ios":"levelo://app?vid=28b607eb-313a-4d37-bf2c-9c0e1ecbd718"},"vehicle_type_id":"4","last_reported":1701428749,"current_range_meters":16000,"station_id":"ce4bgj12rcd13ifvqbc0","pricing_plan_id":"free"},{"bike_id":"2f6553f0-c25f-45be-ab14-340715bbe506","system_id":"levelo_inurba_marseille","lat":43.309589,"lon":5.390258,"is_reserved":false,"is_disabled":false,"rental_uris":{"android":"levelo://app?vid=2f6553f0-c25f-45be-ab14-340715bbe506","ios":"levelo://app?vid=2f6553f0-c25f-45be-ab14-340715bbe506"},"vehicle_type_id":"4","last_reported":1701428749,"current_range_meters":22400,"station_id":"ce4bgup2rcd13ifvqco0","pricing_plan_id":"free"},{"bike_id":"53faf339-723a-4046-b928-af627b7b42b2","system_id":"levelo_inurba_marseille","lat":43.309589,"lon":5.390258,"is_reserved":false,"is_disabled":false,"rental_uris":{"android":"levelo://app?vid=53faf339-723a-4046-b928-af627b7b42b2","ios":"levelo://app?vid=53faf339-723a-4046-b928-af627b7b42b2"},"vehicle_type_id":"4","last_reported":1701428749,"current_range_meters":21600,"station_id":"ce4bgup2rcd13ifvqco0","pricing_plan_id":"free"},{"bike_id":"9ce6d0b9-2f06-49c5-a996-dd91580233ec","system_id":"levelo_inurba_marseille","lat":43.299028,"lon":5.381509,"is_reserved":false,"is_disabled":false,"rental_uris":{"android":"levelo://app?vid=9ce6d0b9-2f06-49c5-a996-dd91580233ec","ios":"levelo://app?vid=9ce6d0b9-2f06-49c5-a996-dd91580233ec"},"vehicle_type_id":"4","last_reported":1701428749,"current_range_meters":8800,"station_id":"ce4bgj12rcd13ifvqbc0","pricing_plan_id":"free"},{"bike_id":"57dcbb85-919a-4c8a-89a1-2e4092a69e8b","system_id":"levelo_inurba_marseille","lat":43.295748,"lon":5.37522,"is_reserved":false,"is_disabled":false,"rental_uris":{"android":"levelo://app?vid=57dcbb85-919a-4c8a-89a1-2e4092a69e8b","ios":"levelo://app?vid=57dcbb85-919a-4c8a-89a1-2e4092a69e8b"},"vehicle_type_id":"4","last_reported":1701428749,"current_range_meters":15200,"station_id":"ce4bgh92rcd13ifvqb50","pricing_plan_id":"free"},{"bike_id":"80586d6c-087b-4dad-90a1-70ad9aa6ac8d","system_id":"levelo_inurba_marseille","lat":43.295748,"lon":5.37522,"is_reserved":false,"is_disabled":false,"rental_uris":{"android":"levelo://app?vid=80586d6c-087b-4dad-90a1-70ad9aa6ac8d","ios":"levelo://app?vid=80586d6c-087b-4dad-90a1-70ad9aa6ac8d"},"vehicle_type_id":"4","last_reported":1701428749,"current_range_meters":15600,"station_id":"ce4bgh92rcd13ifvqb50","pricing_plan_id":"free"},{"bike_id":"b9cf419e-1f0e-42d6-aa0b-35969bf861bf","system_id":"levelo_inurba_marseille","lat":43.299717,"lon":5.384845,"is_reserved":false,"is_disabled":false,"rental_uris":{"android":"levelo://app?vid=b9cf419e-1f0e-42d6-aa0b-35969bf861bf","ios":"levelo://app?vid=b9cf419e-1f0e-42d6-aa0b-35969bf861bf"},"vehicle_type_id":"4","last_reported":1701428749,"current_range_meters":30800,"station_id":"ce4bgj92rcd13ifvqbd0","pricing_plan_id":"free"},{"bike_id":"1178d7eb-1ddb-4d3c-a94b-11b6f49137f7","system_id":"levelo_inurba_marseille","lat":43.295279,"lon":5.375048,"is_reserved":false,"is_disabled":false,"rental_uris":{"android":"levelo://app?vid=1178d7eb-1ddb-4d3c-a94b-11b6f49137f7","ios":"levelo://app?vid=1178d7eb-1ddb-4d3c-a94b-11b6f49137f7"},"vehicle_type_id":"4","last_reported":1701428749,"current_range_meters":25200,"station_id":"ce4bgkp2rcd13ifvqbmg","pricing_plan_id":"free"},{"bike_id":"81c81765-686e-4ef8-8ba0-60d7276501a3","system_id":"levelo_inurba_marseille","lat":43.32367,"lon":5.388836,"is_reserved":false,"is_disabled":false,"rental_uris":{"android":"levelo://app?vid=81c81765-686e-4ef8-8ba0-60d7276501a3","ios":"levelo://app?vid=81c81765-686e-4ef8-8ba0-60d7276501a3"},"vehicle_type_id":"4","last_reported":1701428749,"current_range_meters":26400,"station_id":"ce4bhqp2rcd13ifvqhog","pricing_plan_id":"free"},{"bike_id":"3c0270a6-35fb-45c1-9416-77ab60825095","system_id":"levelo_inurba_marseille","lat":43.32364,"lon":5.38885,"is_reserved":false,"is_disabled":false,"rental_uris":{"android":"levelo://app?vid=3c0270a6-35fb-45c1-9416-77ab60825095","ios":"levelo://app?vid=3c0270a6-35fb-45c1-9416-77ab60825095"},"vehicle_type_id":"4","last_reported":1701428749,"current_range_meters":17200,"station_id":"ce4bhqp2rcd13ifvqhog","pricing_plan_id":"free"},{"bike_id":"eaa0e7e7-2390-47fa-909b-7b240952cbef","system_id":"levelo_inurba_marseille","lat":43.31947,"lon":5.39217,"is_reserved":false,"is_disabled":false,"rental_uris":{"android":"levelo://app?vid=eaa0e7e7-2390-47fa-909b-7b240952cbef","ios":"levelo://app?vid=eaa0e7e7-2390-47fa-909b-7b240952cbef"},"vehicle_type_id":"4","last_reported":1701428749,"current_range_meters":18400,"station_id":"","pricing_plan_id":"free"},{"bike_id":"e496554f-819b-40bb-8d57-1e113054c1a0","system_id":"levelo_inurba_marseille","lat":43.29602,"lon":5.381084,"is_reserved":false,"is_disabled":false,"rental_uris":{"android":"levelo://app?vid=e496554f-819b-40bb-8d57-1e113054c1a0","ios":"levelo://app?vid=e496554f-819b-40bb-8d57-1e113054c1a0"},"vehicle_type_id":"4","last_reported":1701428749,"current_range_meters":19600,"station_id":"ce4bgl12rcd13ifvqbo0","pricing_plan_id":"free"},{"bike_id":"e47a3258-e7f9-4b67-aac0-dd56f8b43739","system_id":"levelo_inurba_marseille","lat":43.293259,"lon":5.371586,"is_reserved":false,"is_disabled":false,"rental_uris":{"android":"levelo://app?vid=e47a3258-e7f9-4b67-aac0-dd56f8b43739","ios":"levelo://app?vid=e47a3258-e7f9-4b67-aac0-dd56f8b43739"},"vehicle_type_id":"4","last_reported":1701428749,"current_range_meters":10400,"station_id":"ce4bgh92rcd13ifvqb40","pricing_plan_id":"free"},{"bike_id":"b2232199-1f0b-476c-a94d-65e4e8babe80","system_id":"levelo_inurba_marseille","lat":43.293259,"lon":5.371586,"is_reserved":false,"is_disabled":false,"rental_uris":{"android":"levelo://app?vid=b2232199-1f0b-476c-a94d-65e4e8babe80","ios":"levelo://app?vid=b2232199-1f0b-476c-a94d-65e4e8babe80"},"vehicle_type_id":"4","last_reported":1701428749,"current_range_meters":9200,"station_id":"ce4bgh92rcd13ifvqb40","pricing_plan_id":"free"},{"bike_id":"de264b55-302d-4b6d-9f41-f03bcb36eb47","system_id":"levelo_inurba_marseille","lat":43.29268,"lon":5.36853,"is_reserved":false,"is_disabled":false,"rental_uris":{"android":"levelo://app?vid=de264b55-302d-4b6d-9f41-f03bcb36eb47","ios":"levelo://app?vid=de264b55-302d-4b6d-9f41-f03bcb36eb47"},"vehicle_type_id":"4","last_reported":1701428749,"current_range_meters":17600,"station_id":"ce4bhbp2rcd13ifvqesg","pricing_plan_id":"free"},{"bike_id":"7b351a3a-bcea-47dc-b6b7-cf4cf1eec181","system_id":"levelo_inurba_marseille","lat":43.305994,"lon":5.393687,"is_reserved":false,"is_disabled":false,"rental_uris":{"android":"levelo://app?vid=7b351a3a-bcea-47dc-b6b7-cf4cf1eec181","ios":"levelo://app?vid=7b351a3a-bcea-47dc-b6b7-cf4cf1eec181"},"vehicle_type_id":"4","last_reported":1701428749,"current_range_meters":20400,"station_id":"ce4bh0p2rcd13ifvqd80","pricing_plan_id":"free"},{"bike_id":"27f89021-fc9b-45a7-97f8-84c49dbd39de","system_id":"levelo_inurba_marseille","lat":43.293009,"lon":5.374584,"is_reserved":false,"is_disabled":false,"rental_uris":{"android":"levelo://app?vid=27f89021-fc9b-45a7-97f8-84c49dbd39de","ios":"levelo://app?vid=27f89021-fc9b-45a7-97f8-84c49dbd39de"},"vehicle_type_id":"4","last_reported":1701428749,"current_range_meters":29600,"station_id":"ce4bgi12rcd13ifvqb70","pricing_plan_id":"free"},{"bike_id":"8f35eb39-ebbc-4f36-9c6a-d4098ff4388e","system_id":"levelo_inurba_marseille","lat":43.293725,"lon":5.37831,"is_reserved":false,"is_disabled":false,"rental_uris":{"android":"levelo://app?vid=8f35eb39-ebbc-4f36-9c6a-d4098ff4388e","ios":"levelo://app?vid=8f35eb39-ebbc-4f36-9c6a-d4098ff4388e"},"vehicle_type_id":"4","last_reported":1701428749,"current_range_meters":26000,"station_id":"ce4bgjh2rcd13ifvqbf0","pricing_plan_id":"free"},{"bike_id":"1220565c-4da4-48ef-bfe7-91a18148600d","system_id":"levelo_inurba_marseille","lat":43.296935,"lon":5.376544,"is_reserved":false,"is_disabled":false,"rental_uris":{"android":"levelo://app?vid=1220565c-4da4-48ef-bfe7-91a18148600d","ios":"levelo://app?vid=1220565c-4da4-48ef-bfe7-91a18148600d"},"vehicle_type_id":"4","last_reported":1701428749,"current_range_meters":24400,"station_id":"ce4bgkh2rcd13ifvqbl0","pricing_plan_id":"free"},{"bike_id":"bd73e8fd-d6f5-4744-9d85-195d675bc3d3","system_id":"levelo_inurba_marseille","lat":43.292663,"lon":5.376394,"is_reserved":false,"is_disabled":false,"rental_uris":{"android":"levelo://app?vid=bd73e8fd-d6f5-4744-9d85-195d675bc3d3","ios":"levelo://app?vid=bd73e8fd-d6f5-4744-9d85-195d675bc3d3"},"vehicle_type_id":"4","last_reported":1701428749,"current_range_meters":26000,"station_id":"ce4bgi12rcd13ifvqb80","pricing_plan_id":"free"},{"bike_id":"aae8d6ec-8065-49e1-a761-083f86065f94","system_id":"levelo_inurba_marseille","lat":43.298764,"lon":5.388973,"is_reserved":false,"is_disabled":false,"rental_uris":{"android":"levelo://app?vid=aae8d6ec-8065-49e1-a761-083f86065f94","ios":"levelo://app?vid=aae8d6ec-8065-49e1-a761-083f86065f94"},"vehicle_type_id":"4","last_reported":1701428749,"current_range_meters":10400,"station_id":"ce4bh392rcd13ifvqdl0","pricing_plan_id":"free"},{"bike_id":"488263c5-da5d-4fd0-b52b-dcbfc48a5a2a","system_id":"levelo_inurba_marseille","lat":43.292663,"lon":5.376394,"is_reserved":false,"is_disabled":false,"rental_uris":{"android":"levelo://app?vid=488263c5-da5d-4fd0-b52b-dcbfc48a5a2a","ios":"levelo://app?vid=488263c5-da5d-4fd0-b52b-dcbfc48a5a2a"},"vehicle_type_id":"4","last_reported":1701428749,"current_range_meters":20000,"station_id":"ce4bgi12rcd13ifvqb80","pricing_plan_id":"free"},{"bike_id":"adfa9e48-7d35-4208-b4cf-bc9d2cc03272","system_id":"levelo_inurba_marseille","lat":43.289184,"lon":5.366408,"is_reserved":false,"is_disabled":false,"rental_uris":{"android":"levelo://app?vid=adfa9e48-7d35-4208-b4cf-bc9d2cc03272","ios":"levelo://app?vid=adfa9e48-7d35-4208-b4cf-bc9d2cc03272"},"vehicle_type_id":"4","last_reported":1701428749,"current_range_meters":0,"station_id":"ce4bhap2rcd13ifvqek0","pricing_plan_id":"free"},{"bike_id":"b9d092b0-83eb-41af-b3b6-bffc8aaa08ad","system_id":"levelo_inurba_marseille","lat":43.290327,"lon":5.375711,"is_reserved":false,"is_disabled":false,"rental_uris":{"android":"levelo://app?vid=b9d092b0-83eb-41af-b3b6-bffc8aaa08ad","ios":"levelo://app?vid=b9d092b0-83eb-41af-b3b6-bffc8aaa08ad"},"vehicle_type_id":"4","last_reported":1701428749,"current_range_meters":30800,"station_id":"ce4bh692rcd13ifvqe90","pricing_plan_id":"free"},{"bike_id":"3ae39e67-a55d-4fcf-a339-287ef7901132","system_id":"levelo_inurba_marseille","lat":43.294114,"lon":5.386185,"is_reserved":false,"is_disabled":false,"rental_uris":{"android":"levelo://app?vid=3ae39e67-a55d-4fcf-a339-287ef7901132","ios":"levelo://app?vid=3ae39e67-a55d-4fcf-a339-287ef7901132"},"vehicle_type_id":"4","last_reported":1701428749,"current_range_meters":17600,"station_id":"","pricing_plan_id":"free"},{"bike_id":"4e7ef3ec-02fb-45d3-8a48-27b9ab0ec25c","system_id":"levelo_inurba_marseille","lat":43.289184,"lon":5.366408,"is_reserved":false,"is_disabled":false,"rental_uris":{"android":"levelo://app?vid=4e7ef3ec-02fb-45d3-8a48-27b9ab0ec25c","ios":"levelo://app?vid=4e7ef3ec-02fb-45d3-8a48-27b9ab0ec25c"},"vehicle_type_id":"4","last_reported":1701428749,"current_range_meters":16000,"station_id":"ce4bhap2rcd13ifvqek0","pricing_plan_id":"free"},{"bike_id":"b921a9db-6ab8-45cf-8402-aed14bcce053","system_id":"levelo_inurba_marseille","lat":43.289325,"lon":5.364005,"is_reserved":false,"is_disabled":false,"rental_uris":{"android":"levelo://app?vid=b921a9db-6ab8-45cf-8402-aed14bcce053","ios":"levelo://app?vid=b921a9db-6ab8-45cf-8402-aed14bcce053"},"vehicle_type_id":"4","last_reported":1701428749,"current_range_meters":26400,"station_id":"ce4bhc92rcd13ifvqetg","pricing_plan_id":"free"},{"bike_id":"90a716c4-bbc6-4ef7-8bf4-c3e6581afb1c","system_id":"levelo_inurba_marseille","lat":43.304296,"lon":5.397513,"is_reserved":false,"is_disabled":false,"rental_uris":{"android":"levelo://app?vid=90a716c4-bbc6-4ef7-8bf4-c3e6581afb1c","ios":"levelo://app?vid=90a716c4-bbc6-4ef7-8bf4-c3e6581afb1c"},"vehicle_type_id":"4","last_reported":1701428749,"current_range_meters":12000,"station_id":"ce4bh092rcd13ifvqd20","pricing_plan_id":"free"},{"bike_id":"92957591-d164-454c-9a3d-dcdc99b2f7b3","system_id":"levelo_inurba_marseille","lat":43.292642,"lon":5.384254,"is_reserved":false,"is_disabled":false,"rental_uris":{"android":"levelo://app?vid=92957591-d164-454c-9a3d-dcdc99b2f7b3","ios":"levelo://app?vid=92957591-d164-454c-9a3d-dcdc99b2f7b3"},"vehicle_type_id":"4","last_reported":1701428749,"current_range_meters":24800,"station_id":"ce4bh692rcd13ifvqea0","pricing_plan_id":"free"},{"bike_id":"f0384faa-7c9e-4201-8a74-9d51df307acd","system_id":"levelo_inurba_marseille","lat":43.292644,"lon":5.384257,"is_reserved":false,"is_disabled":false,"rental_uris":{"android":"levelo://app?vid=f0384faa-7c9e-4201-8a74-9d51df307acd","ios":"levelo://app?vid=f0384faa-7c9e-4201-8a74-9d51df307acd"},"vehicle_type_id":"4","last_reported":1701428749,"current_range_meters":18400,"station_id":"ce4bh692rcd13ifvqea0","pricing_plan_id":"free"},{"bike_id":"47b8a7e6-43cc-4648-b559-b3ff0bc86c18","system_id":"levelo_inurba_marseille","lat":43.304296,"lon":5.397513,"is_reserved":false,"is_disabled":false,"rental_uris":{"android":"levelo://app?vid=47b8a7e6-43cc-4648-b559-b3ff0bc86c18","ios":"levelo://app?vid=47b8a7e6-43cc-4648-b559-b3ff0bc86c18"},"vehicle_type_id":"4","last_reported":1701428749,"current_range_meters":22000,"station_id":"ce4bh092rcd13ifvqd20","pricing_plan_id":"free"},{"bike_id":"2a438dee-cbbb-430c-b506-f20b2c6fb129","system_id":"levelo_inurba_marseille","lat":43.292642,"lon":5.384254,"is_reserved":false,"is_disabled":false,"rental_uris":{"android":"levelo://app?vid=2a438dee-cbbb-430c-b506-f20b2c6fb129","ios":"levelo://app?vid=2a438dee-cbbb-430c-b506-f20b2c6fb129"},"vehicle_type_id":"4","last_reported":1701428749,"current_range_meters":22000,"station_id":"ce4bh692rcd13ifvqea0","pricing_plan_id":"free"},{"bike_id":"8e7f2006-2a0d-4bdb-a8aa-abf6f4f85120","system_id":"levelo_inurba_marseille","lat":43.292642,"lon":5.384254,"is_reserved":false,"is_disabled":false,"rental_uris":{"android":"levelo://app?vid=8e7f2006-2a0d-4bdb-a8aa-abf6f4f85120","ios":"levelo://app?vid=8e7f2006-2a0d-4bdb-a8aa-abf6f4f85120"},"vehicle_type_id":"4","last_reported":1701428749,"current_range_meters":10800,"station_id":"ce4bh692rcd13ifvqea0","pricing_plan_id":"free"},{"bike_id":"fdc2fc9e-2f29-4c49-bcea-7a560d4446be","system_id":"levelo_inurba_marseille","lat":43.33044,"lon":5.38915,"is_reserved":false,"is_disabled":false,"rental_uris":{"android":"levelo://app?vid=fdc2fc9e-2f29-4c49-bcea-7a560d4446be","ios":"levelo://app?vid=fdc2fc9e-2f29-4c49-bcea-7a560d4446be"},"vehicle_type_id":"4","last_reported":1701428749,"current_range_meters":13600,"station_id":"ce4bhr92rcd13ifvqhrg","pricing_plan_id":"free"},{"bike_id":"f71bec80-1512-44cd-95d2-3d7fdee5df30","system_id":"levelo_inurba_marseille","lat":43.330442,"lon":5.389148,"is_reserved":false,"is_disabled":false,"rental_uris":{"android":"levelo://app?vid=f71bec80-1512-44cd-95d2-3d7fdee5df30","ios":"levelo://app?vid=f71bec80-1512-44cd-95d2-3d7fdee5df30"},"vehicle_type_id":"4","last_reported":1701428749,"current_range_meters":16400,"station_id":"ce4bhr92rcd13ifvqhrg","pricing_plan_id":"free"},{"bike_id":"433c11ae-8306-4bbf-850d-086e9b9b8b2e","system_id":"levelo_inurba_marseille","lat":43.2909,"lon":5.381212,"is_reserved":false,"is_disabled":false,"rental_uris":{"android":"levelo://app?vid=433c11ae-8306-4bbf-850d-086e9b9b8b2e","ios":"levelo://app?vid=433c11ae-8306-4bbf-850d-086e9b9b8b2e"},"vehicle_type_id":"4","last_reported":1701428749,"current_range_meters":14800,"station_id":"ce4bh512rcd13ifvqe2g","pricing_plan_id":"free"},{"bike_id":"5f1ee8a6-c7d6-403f-8c71-40a31b9ba1dc","system_id":"levelo_inurba_marseille","lat":43.295169,"lon":5.390426,"is_reserved":false,"is_disabled":false,"rental_uris":{"android":"levelo://app?vid=5f1ee8a6-c7d6-403f-8c71-40a31b9ba1dc","ios":"levelo://app?vid=5f1ee8a6-c7d6-403f-8c71-40a31b9ba1dc"},"vehicle_type_id":"4","last_reported":1701428749,"current_range_meters":4800,"station_id":"ce4bh3p2rcd13ifvqdp0","pricing_plan_id":"free"},{"bike_id":"a2c112a6-58e1-4e8b-8be8-80d2c9d8d3d7","system_id":"levelo_inurba_marseille","lat":43.31265,"lon":5.401699,"is_reserved":false,"is_disabled":false,"rental_uris":{"android":"levelo://app?vid=a2c112a6-58e1-4e8b-8be8-80d2c9d8d3d7","ios":"levelo://app?vid=a2c112a6-58e1-4e8b-8be8-80d2c9d8d3d7"},"vehicle_type_id":"4","last_reported":1701428749,"current_range_meters":14800,"station_id":"","pricing_plan_id":"free"},{"bike_id":"2f518c84-ce3e-435a-bb16-00b5addbf05a","system_id":"levelo_inurba_marseille","lat":43.30932,"lon":5.40145,"is_reserved":false,"is_disabled":false,"rental_uris":{"android":"levelo://app?vid=2f518c84-ce3e-435a-bb16-00b5addbf05a","ios":"levelo://app?vid=2f518c84-ce3e-435a-bb16-00b5addbf05a"},"vehicle_type_id":"4","last_reported":1701428749,"current_range_meters":28400,"station_id":"ce4bgvp2rcd13ifvqct0","pricing_plan_id":"free"},{"bike_id":"27f2f5b0-cab9-49c9-ae68-f465c3096012","system_id":"levelo_inurba_marseille","lat":43.30642,"lon":5.401031,"is_reserved":false,"is_disabled":false,"rental_uris":{"android":"levelo://app?vid=27f2f5b0-cab9-49c9-ae68-f465c3096012","ios":"levelo://app?vid=27f2f5b0-cab9-49c9-ae68-f465c3096012"},"vehicle_type_id":"4","last_reported":1701428749,"current_range_meters":6800,"station_id":"ce4bh112rcd13ifvqda0","pricing_plan_id":"free"},{"bike_id":"db713d58-a527-4177-b280-4f20ee920f9a","system_id":"levelo_inurba_marseille","lat":43.306412,"lon":5.401035,"is_reserved":false,"is_disabled":false,"rental_uris":{"android":"levelo://app?vid=db713d58-a527-4177-b280-4f20ee920f9a","ios":"levelo://app?vid=db713d58-a527-4177-b280-4f20ee920f9a"},"vehicle_type_id":"4","last_reported":1701428749,"current_range_meters":26000,"station_id":"ce4bh112rcd13ifvqda0","pricing_plan_id":"free"},{"bike_id":"78f844a9-902b-43fd-bbf4-dc3db9afbc4c","system_id":"levelo_inurba_marseille","lat":43.301117,"lon":5.398795,"is_reserved":false,"is_disabled":false,"rental_uris":{"android":"levelo://app?vid=78f844a9-902b-43fd-bbf4-dc3db9afbc4c","ios":"levelo://app?vid=78f844a9-902b-43fd-bbf4-dc3db9afbc4c"},"vehicle_type_id":"4","last_reported":1701428749,"current_range_meters":18400,"station_id":"ce4bh0h2rcd13ifvqd40","pricing_plan_id":"free"},{"bike_id":"845e7538-e230-4c74-a388-1b02c78ec354","system_id":"levelo_inurba_marseille","lat":43.298681,"lon":5.397225,"is_reserved":false,"is_disabled":false,"rental_uris":{"android":"levelo://app?vid=845e7538-e230-4c74-a388-1b02c78ec354","ios":"levelo://app?vid=845e7538-e230-4c74-a388-1b02c78ec354"},"vehicle_type_id":"4","last_reported":1701428749,"current_range_meters":0,"station_id":"ce4bh0h2rcd13ifvqd50","pricing_plan_id":"free"},{"bike_id":"accc5198-7ba5-4109-a2e3-8509665c970c","system_id":"levelo_inurba_marseille","lat":43.289307,"lon":5.38406,"is_reserved":false,"is_disabled":false,"rental_uris":{"android":"levelo://app?vid=accc5198-7ba5-4109-a2e3-8509665c970c","ios":"levelo://app?vid=accc5198-7ba5-4109-a2e3-8509665c970c"},"vehicle_type_id":"4","last_reported":1701428749,"current_range_meters":14400,"station_id":"ce4bh612rcd13ifvqe6g","pricing_plan_id":"free"},{"bike_id":"92dacd10-7f70-42b4-b897-a51e1bae2cfd","system_id":"levelo_inurba_marseille","lat":43.290345,"lon":5.38646,"is_reserved":false,"is_disabled":false,"rental_uris":{"android":"levelo://app?vid=92dacd10-7f70-42b4-b897-a51e1bae2cfd","ios":"levelo://app?vid=92dacd10-7f70-42b4-b897-a51e1bae2cfd"},"vehicle_type_id":"4","last_reported":1701428749,"current_range_meters":15600,"station_id":"ce4bh4p2rcd13ifvqe0g","pricing_plan_id":"free"},{"bike_id":"51e80092-f709-463a-96a2-8b25587b914d","system_id":"levelo_inurba_marseille","lat":43.286039,"lon":5.370681,"is_reserved":false,"is_disabled":false,"rental_uris":{"android":"levelo://app?vid=51e80092-f709-463a-96a2-8b25587b914d","ios":"levelo://app?vid=51e80092-f709-463a-96a2-8b25587b914d"},"vehicle_type_id":"4","last_reported":1701428749,"current_range_meters":29200,"station_id":"ce4bht12rcd13ifvqi60","pricing_plan_id":"free"},{"bike_id":"7283da21-0399-442a-8ff2-149ecb52f3f5","system_id":"levelo_inurba_marseille","lat":43.295748,"lon":5.37522,"is_reserved":false,"is_disabled":false,"rental_uris":{"android":"levelo://app?vid=7283da21-0399-442a-8ff2-149ecb52f3f5","ios":"levelo://app?vid=7283da21-0399-442a-8ff2-149ecb52f3f5"},"vehicle_type_id":"4","last_reported":1701428749,"current_range_meters":8400,"station_id":"ce4bgh92rcd13ifvqb50","pricing_plan_id":"free"},{"bike_id":"f8b91441-9311-4f78-9166-b83ce5b41b94","system_id":"levelo_inurba_marseille","lat":43.286595,"lon":5.386795,"is_reserved":false,"is_disabled":false,"rental_uris":{"android":"levelo://app?vid=f8b91441-9311-4f78-9166-b83ce5b41b94","ios":"levelo://app?vid=f8b91441-9311-4f78-9166-b83ce5b41b94"},"vehicle_type_id":"4","last_reported":1701428749,"current_range_meters":20000,"station_id":"ce4bh492rcd13ifvqdug","pricing_plan_id":"free"},{"bike_id":"c64abbd9-83e6-40f7-a16e-72e1c40f00d7","system_id":"levelo_inurba_marseille","lat":43.319179,"lon":5.407725,"is_reserved":false,"is_disabled":false,"rental_uris":{"android":"levelo://app?vid=c64abbd9-83e6-40f7-a16e-72e1c40f00d7","ios":"levelo://app?vid=c64abbd9-83e6-40f7-a16e-72e1c40f00d7"},"vehicle_type_id":"4","last_reported":1701428749,"current_range_meters":26400,"station_id":"ce4bhq12rcd13ifvqhig","pricing_plan_id":"free"},{"bike_id":"11d25991-4e02-4cd5-af98-b74a360492d1","system_id":"levelo_inurba_marseille","lat":43.319179,"lon":5.407725,"is_reserved":false,"is_disabled":false,"rental_uris":{"android":"levelo://app?vid=11d25991-4e02-4cd5-af98-b74a360492d1","ios":"levelo://app?vid=11d25991-4e02-4cd5-af98-b74a360492d1"},"vehicle_type_id":"4","last_reported":1701428749,"current_range_meters":20800,"station_id":"ce4bhq12rcd13ifvqhig","pricing_plan_id":"free"},{"bike_id":"86c4b3e8-18ea-4577-836b-930b6393e819","system_id":"levelo_inurba_marseille","lat":43.319179,"lon":5.407725,"is_reserved":false,"is_disabled":false,"rental_uris":{"android":"levelo://app?vid=86c4b3e8-18ea-4577-836b-930b6393e819","ios":"levelo://app?vid=86c4b3e8-18ea-4577-836b-930b6393e819"},"vehicle_type_id":"4","last_reported":1701428749,"current_range_meters":20800,"station_id":"ce4bhq12rcd13ifvqhig","pricing_plan_id":"free"},{"bike_id":"acac0f34-456f-4fd9-867f-f563b7c6929b","system_id":"levelo_inurba_marseille","lat":43.297946,"lon":5.404063,"is_reserved":false,"is_disabled":false,"rental_uris":{"android":"levelo://app?vid=acac0f34-456f-4fd9-867f-f563b7c6929b","ios":"levelo://app?vid=acac0f34-456f-4fd9-867f-f563b7c6929b"},"vehicle_type_id":"4","last_reported":1701428749,"current_range_meters":25600,"station_id":"ce4bh112rcd13ifvqd90","pricing_plan_id":"free"},{"bike_id":"6f1a2a99-12b9-4800-bd16-1e7e3636cb58","system_id":"levelo_inurba_marseille","lat":43.28856,"lon":5.393885,"is_reserved":false,"is_disabled":false,"rental_uris":{"android":"levelo://app?vid=6f1a2a99-12b9-4800-bd16-1e7e3636cb58","ios":"levelo://app?vid=6f1a2a99-12b9-4800-bd16-1e7e3636cb58"},"vehicle_type_id":"4","last_reported":1701428749,"current_range_meters":22000,"station_id":"","pricing_plan_id":"free"},{"bike_id":"9b15ef46-30df-42fe-824d-23282580e785","system_id":"levelo_inurba_marseille","lat":43.28039,"lon":5.369297,"is_reserved":false,"is_disabled":false,"rental_uris":{"android":"levelo://app?vid=9b15ef46-30df-42fe-824d-23282580e785","ios":"levelo://app?vid=9b15ef46-30df-42fe-824d-23282580e785"},"vehicle_type_id":"4","last_reported":1701428749,"current_range_meters":31200,"station_id":"ce4bha12rcd13ifvqef0","pricing_plan_id":"free"},{"bike_id":"d1070d5c-2ba5-4ca1-9a3a-38e3bc241466","system_id":"levelo_inurba_marseille","lat":43.296263,"lon":5.40601,"is_reserved":false,"is_disabled":false,"rental_uris":{"android":"levelo://app?vid=d1070d5c-2ba5-4ca1-9a3a-38e3bc241466","ios":"levelo://app?vid=d1070d5c-2ba5-4ca1-9a3a-38e3bc241466"},"vehicle_type_id":"4","last_reported":1701428749,"current_range_meters":15600,"station_id":"ce4bh0h2rcd13ifvqd60","pricing_plan_id":"free"},{"bike_id":"9fdb7f97-586d-42d2-befd-15216ba2e422","system_id":"levelo_inurba_marseille","lat":43.284317,"lon":5.391844,"is_reserved":false,"is_disabled":false,"rental_uris":{"android":"levelo://app?vid=9fdb7f97-586d-42d2-befd-15216ba2e422","ios":"levelo://app?vid=9fdb7f97-586d-42d2-befd-15216ba2e422"},"vehicle_type_id":"4","last_reported":1701428749,"current_range_meters":0,"station_id":"ce4bhoh2rcd13ifvqh5g","pricing_plan_id":"free"},{"bike_id":"5d88c0e3-21e9-4f59-894b-c801e4262c59","system_id":"levelo_inurba_marseille","lat":43.326605,"lon":5.409903,"is_reserved":false,"is_disabled":false,"rental_uris":{"android":"levelo://app?vid=5d88c0e3-21e9-4f59-894b-c801e4262c59","ios":"levelo://app?vid=5d88c0e3-21e9-4f59-894b-c801e4262c59"},"vehicle_type_id":"4","last_reported":1701428749,"current_range_meters":21600,"station_id":"ce4bhpp2rcd13ifvqhgg","pricing_plan_id":"free"},{"bike_id":"edccd163-f6e1-4e7d-bc68-768d7ebe881c","system_id":"levelo_inurba_marseille","lat":43.32537,"lon":5.41088,"is_reserved":false,"is_disabled":false,"rental_uris":{"android":"levelo://app?vid=edccd163-f6e1-4e7d-bc68-768d7ebe881c","ios":"levelo://app?vid=edccd163-f6e1-4e7d-bc68-768d7ebe881c"},"vehicle_type_id":"4","last_reported":1701428749,"current_range_meters":26400,"station_id":"","pricing_plan_id":"free"},{"bike_id":"5ff25c6f-84c6-4d54-8fde-14346380acdc","system_id":"levelo_inurba_marseille","lat":43.320045,"lon":5.415048,"is_reserved":false,"is_disabled":false,"rental_uris":{"android":"levelo://app?vid=5ff25c6f-84c6-4d54-8fde-14346380acdc","ios":"levelo://app?vid=5ff25c6f-84c6-4d54-8fde-14346380acdc"},"vehicle_type_id":"4","last_reported":1701428749,"current_range_meters":400,"station_id":"ce4bhq92rcd13ifvqhkg","pricing_plan_id":"free"},{"bike_id":"b733fb37-a63f-44e3-a557-fb3456feeea0","system_id":"levelo_inurba_marseille","lat":43.325233,"lon":5.414318,"is_reserved":false,"is_disabled":false,"rental_uris":{"android":"levelo://app?vid=b733fb37-a63f-44e3-a557-fb3456feeea0","ios":"levelo://app?vid=b733fb37-a63f-44e3-a557-fb3456feeea0"},"vehicle_type_id":"4","last_reported":1701428749,"current_range_meters":20400,"station_id":"ce4bhq12rcd13ifvqhhg","pricing_plan_id":"free"},{"bike_id":"0f2ffed4-f777-46c6-9794-3a8eb32acdbc","system_id":"levelo_inurba_marseille","lat":43.280784,"lon":5.396622,"is_reserved":false,"is_disabled":false,"rental_uris":{"android":"levelo://app?vid=0f2ffed4-f777-46c6-9794-3a8eb32acdbc","ios":"levelo://app?vid=0f2ffed4-f777-46c6-9794-3a8eb32acdbc"},"vehicle_type_id":"4","last_reported":1701428749,"current_range_meters":20800,"station_id":"ce4bho12rcd13ifvqh2g","pricing_plan_id":"free"},{"bike_id":"08c0013c-ef39-4065-a4ee-38d17f7415eb","system_id":"levelo_inurba_marseille","lat":43.278399,"lon":5.392139,"is_reserved":false,"is_disabled":false,"rental_uris":{"android":"levelo://app?vid=08c0013c-ef39-4065-a4ee-38d17f7415eb","ios":"levelo://app?vid=08c0013c-ef39-4065-a4ee-38d17f7415eb"},"vehicle_type_id":"4","last_reported":1701428749,"current_range_meters":19600,"station_id":"ce4bhjp2rcd13ifvqga0","pricing_plan_id":"free"},{"bike_id":"1354e941-3828-4201-81e9-f39ec7856483","system_id":"levelo_inurba_marseille","lat":43.278401,"lon":5.392152,"is_reserved":false,"is_disabled":false,"rental_uris":{"android":"levelo://app?vid=1354e941-3828-4201-81e9-f39ec7856483","ios":"levelo://app?vid=1354e941-3828-4201-81e9-f39ec7856483"},"vehicle_type_id":"4","last_reported":1701428749,"current_range_meters":15600,"station_id":"ce4bhjp2rcd13ifvqga0","pricing_plan_id":"free"},{"bike_id":"9f67283d-c590-46ae-a374-af8fdbffda4a","system_id":"levelo_inurba_marseille","lat":43.273613,"lon":5.362705,"is_reserved":false,"is_disabled":false,"rental_uris":{"android":"levelo://app?vid=9f67283d-c590-46ae-a374-af8fdbffda4a","ios":"levelo://app?vid=9f67283d-c590-46ae-a374-af8fdbffda4a"},"vehicle_type_id":"4","last_reported":1701428749,"current_range_meters":27600,"station_id":"ce4bhbh2rcd13ifvqeo0","pricing_plan_id":"free"},{"bike_id":"75d0f960-80ea-40d1-a755-552035939c7a","system_id":"levelo_inurba_marseille","lat":43.273613,"lon":5.362705,"is_reserved":false,"is_disabled":false,"rental_uris":{"android":"levelo://app?vid=75d0f960-80ea-40d1-a755-552035939c7a","ios":"levelo://app?vid=75d0f960-80ea-40d1-a755-552035939c7a"},"vehicle_type_id":"4","last_reported":1701428749,"current_range_meters":27600,"station_id":"ce4bhbh2rcd13ifvqeo0","pricing_plan_id":"free"},{"bike_id":"a0ba15a3-d12e-4ea4-b1d7-15f758773042","system_id":"levelo_inurba_marseille","lat":43.273613,"lon":5.362705,"is_reserved":false,"is_disabled":false,"rental_uris":{"android":"levelo://app?vid=a0ba15a3-d12e-4ea4-b1d7-15f758773042","ios":"levelo://app?vid=a0ba15a3-d12e-4ea4-b1d7-15f758773042"},"vehicle_type_id":"4","last_reported":1701428749,"current_range_meters":26800,"station_id":"ce4bhbh2rcd13ifvqeo0","pricing_plan_id":"free"},{"bike_id":"0a81f6bb-b326-4b9d-83ee-e98fdff56b1c","system_id":"levelo_inurba_marseille","lat":43.273609,"lon":5.362708,"is_reserved":false,"is_disabled":false,"rental_uris":{"android":"levelo://app?vid=0a81f6bb-b326-4b9d-83ee-e98fdff56b1c","ios":"levelo://app?vid=0a81f6bb-b326-4b9d-83ee-e98fdff56b1c"},"vehicle_type_id":"4","last_reported":1701428749,"current_range_meters":23200,"station_id":"ce4bhbh2rcd13ifvqeo0","pricing_plan_id":"free"},{"bike_id":"7a8bc633-5cb7-4cb8-aa03-1d1b4da3af70","system_id":"levelo_inurba_marseille","lat":43.273609,"lon":5.362708,"is_reserved":false,"is_disabled":false,"rental_uris":{"android":"levelo://app?vid=7a8bc633-5cb7-4cb8-aa03-1d1b4da3af70","ios":"levelo://app?vid=7a8bc633-5cb7-4cb8-aa03-1d1b4da3af70"},"vehicle_type_id":"4","last_reported":1701428749,"current_range_meters":30400,"station_id":"ce4bhbh2rcd13ifvqeo0","pricing_plan_id":"free"},{"bike_id":"b99822e9-bc2b-433b-bd3e-097546b6f0e4","system_id":"levelo_inurba_marseille","lat":43.276769,"lon":5.388787,"is_reserved":false,"is_disabled":false,"rental_uris":{"android":"levelo://app?vid=b99822e9-bc2b-433b-bd3e-097546b6f0e4","ios":"levelo://app?vid=b99822e9-bc2b-433b-bd3e-097546b6f0e4"},"vehicle_type_id":"4","last_reported":1701428749,"current_range_meters":21200,"station_id":"ce4bhi12rcd13ifvqfo0","pricing_plan_id":"free"},{"bike_id":"3085d4c3-ef31-4a6b-b366-274046474510","system_id":"levelo_inurba_marseille","lat":43.276771,"lon":5.388799,"is_reserved":false,"is_disabled":false,"rental_uris":{"android":"levelo://app?vid=3085d4c3-ef31-4a6b-b366-274046474510","ios":"levelo://app?vid=3085d4c3-ef31-4a6b-b366-274046474510"},"vehicle_type_id":"4","last_reported":1701428749,"current_range_meters":17600,"station_id":"ce4bhi12rcd13ifvqfo0","pricing_plan_id":"free"},{"bike_id":"2e953f8f-fa1f-47ac-820c-68fd9914ac9d","system_id":"levelo_inurba_marseille","lat":43.276771,"lon":5.388799,"is_reserved":false,"is_disabled":false,"rental_uris":{"android":"levelo://app?vid=2e953f8f-fa1f-47ac-820c-68fd9914ac9d","ios":"levelo://app?vid=2e953f8f-fa1f-47ac-820c-68fd9914ac9d"},"vehicle_type_id":"4","last_reported":1701428749,"current_range_meters":10800,"station_id":"ce4bhi12rcd13ifvqfo0","pricing_plan_id":"free"},{"bike_id":"9dc16fa2-eebc-47fb-b528-f9f861ddda62","system_id":"levelo_inurba_marseille","lat":43.279952,"lon":5.400085,"is_reserved":false,"is_disabled":false,"rental_uris":{"android":"levelo://app?vid=9dc16fa2-eebc-47fb-b528-f9f861ddda62","ios":"levelo://app?vid=9dc16fa2-eebc-47fb-b528-f9f861ddda62"},"vehicle_type_id":"4","last_reported":1701428749,"current_range_meters":26800,"station_id":"ce4bho92rcd13ifvqh4g","pricing_plan_id":"free"},{"bike_id":"a862f8d3-9c65-4e03-8387-7b9d5fb1832b","system_id":"levelo_inurba_marseille","lat":43.310785,"lon":5.424305,"is_reserved":false,"is_disabled":false,"rental_uris":{"android":"levelo://app?vid=a862f8d3-9c65-4e03-8387-7b9d5fb1832b","ios":"levelo://app?vid=a862f8d3-9c65-4e03-8387-7b9d5fb1832b"},"vehicle_type_id":"4","last_reported":1701428749,"current_range_meters":31200,"station_id":"ce4bhp92rcd13ifvqhag","pricing_plan_id":"free"},{"bike_id":"2f711f01-b9ab-4fa4-b7ee-42fd5a353234","system_id":"levelo_inurba_marseille","lat":43.310785,"lon":5.424305,"is_reserved":false,"is_disabled":false,"rental_uris":{"android":"levelo://app?vid=2f711f01-b9ab-4fa4-b7ee-42fd5a353234","ios":"levelo://app?vid=2f711f01-b9ab-4fa4-b7ee-42fd5a353234"},"vehicle_type_id":"4","last_reported":1701428749,"current_range_meters":31200,"station_id":"ce4bhp92rcd13ifvqhag","pricing_plan_id":"free"},{"bike_id":"d6cd08ef-c934-44a0-a330-510b886d15f8","system_id":"levelo_inurba_marseille","lat":43.310785,"lon":5.424305,"is_reserved":false,"is_disabled":false,"rental_uris":{"android":"levelo://app?vid=d6cd08ef-c934-44a0-a330-510b886d15f8","ios":"levelo://app?vid=d6cd08ef-c934-44a0-a330-510b886d15f8"},"vehicle_type_id":"4","last_reported":1701428749,"current_range_meters":31200,"station_id":"ce4bhp92rcd13ifvqhag","pricing_plan_id":"free"},{"bike_id":"717e71d4-a423-4e33-ac89-92ec18fed671","system_id":"levelo_inurba_marseille","lat":43.310785,"lon":5.424305,"is_reserved":false,"is_disabled":false,"rental_uris":{"android":"levelo://app?vid=717e71d4-a423-4e33-ac89-92ec18fed671","ios":"levelo://app?vid=717e71d4-a423-4e33-ac89-92ec18fed671"},"vehicle_type_id":"4","last_reported":1701428749,"current_range_meters":26400,"station_id":"ce4bhp92rcd13ifvqhag","pricing_plan_id":"free"},{"bike_id":"d4026725-dd25-4c54-b587-ef51a846128e","system_id":"levelo_inurba_marseille","lat":43.340804,"lon":5.410219,"is_reserved":false,"is_disabled":false,"rental_uris":{"android":"levelo://app?vid=d4026725-dd25-4c54-b587-ef51a846128e","ios":"levelo://app?vid=d4026725-dd25-4c54-b587-ef51a846128e"},"vehicle_type_id":"4","last_reported":1701428749,"current_range_meters":31600,"station_id":"ce4bhqh2rcd13ifvqhlg","pricing_plan_id":"free"},{"bike_id":"de3e8642-1450-4df2-80c0-78076ea97a99","system_id":"levelo_inurba_marseille","lat":43.340804,"lon":5.410219,"is_reserved":false,"is_disabled":false,"rental_uris":{"android":"levelo://app?vid=de3e8642-1450-4df2-80c0-78076ea97a99","ios":"levelo://app?vid=de3e8642-1450-4df2-80c0-78076ea97a99"},"vehicle_type_id":"4","last_reported":1701428749,"current_range_meters":27600,"station_id":"ce4bhqh2rcd13ifvqhlg","pricing_plan_id":"free"},{"bike_id":"ad319ad3-5072-496b-979f-e5645940bdaf","system_id":"levelo_inurba_marseille","lat":43.29548,"lon":5.42285,"is_reserved":false,"is_disabled":false,"rental_uris":{"android":"levelo://app?vid=ad319ad3-5072-496b-979f-e5645940bdaf","ios":"levelo://app?vid=ad319ad3-5072-496b-979f-e5645940bdaf"},"vehicle_type_id":"4","last_reported":1701428749,"current_range_meters":22400,"station_id":"ce4bhph2rcd13ifvqhdg","pricing_plan_id":"free"},{"bike_id":"417c69e6-6a4f-4bdd-963e-5db439dc6333","system_id":"levelo_inurba_marseille","lat":43.295523,"lon":5.422926,"is_reserved":false,"is_disabled":false,"rental_uris":{"android":"levelo://app?vid=417c69e6-6a4f-4bdd-963e-5db439dc6333","ios":"levelo://app?vid=417c69e6-6a4f-4bdd-963e-5db439dc6333"},"vehicle_type_id":"4","last_reported":1701428749,"current_range_meters":22400,"station_id":"ce4bhph2rcd13ifvqhdg","pricing_plan_id":"free"},{"bike_id":"074d7c53-c267-4753-aa33-3da5891509f9","system_id":"levelo_inurba_marseille","lat":43.295523,"lon":5.422926,"is_reserved":false,"is_disabled":false,"rental_uris":{"android":"levelo://app?vid=074d7c53-c267-4753-aa33-3da5891509f9","ios":"levelo://app?vid=074d7c53-c267-4753-aa33-3da5891509f9"},"vehicle_type_id":"4","last_reported":1701428749,"current_range_meters":8800,"station_id":"ce4bhph2rcd13ifvqhdg","pricing_plan_id":"free"},{"bike_id":"eff3e467-b6de-457a-b6cd-4671a56a96b0","system_id":"levelo_inurba_marseille","lat":43.295511,"lon":5.422926,"is_reserved":false,"is_disabled":false,"rental_uris":{"android":"levelo://app?vid=eff3e467-b6de-457a-b6cd-4671a56a96b0","ios":"levelo://app?vid=eff3e467-b6de-457a-b6cd-4671a56a96b0"},"vehicle_type_id":"4","last_reported":1701428749,"current_range_meters":23600,"station_id":"ce4bhph2rcd13ifvqhdg","pricing_plan_id":"free"},{"bike_id":"388a6879-f249-4931-b2ec-56a2c3dfa162","system_id":"levelo_inurba_marseille","lat":43.278128,"lon":5.407195,"is_reserved":false,"is_disabled":false,"rental_uris":{"android":"levelo://app?vid=388a6879-f249-4931-b2ec-56a2c3dfa162","ios":"levelo://app?vid=388a6879-f249-4931-b2ec-56a2c3dfa162"},"vehicle_type_id":"4","last_reported":1701428749,"current_range_meters":13600,"station_id":"ce4bhnh2rcd13ifvqgtg","pricing_plan_id":"free"},{"bike_id":"b9eb8be7-7bda-48a7-86b9-0631fb094831","system_id":"levelo_inurba_marseille","lat":43.278128,"lon":5.407195,"is_reserved":false,"is_disabled":false,"rental_uris":{"android":"levelo://app?vid=b9eb8be7-7bda-48a7-86b9-0631fb094831","ios":"levelo://app?vid=b9eb8be7-7bda-48a7-86b9-0631fb094831"},"vehicle_type_id":"4","last_reported":1701428749,"current_range_meters":31200,"station_id":"ce4bhnh2rcd13ifvqgtg","pricing_plan_id":"free"},{"bike_id":"120de992-b7b7-47ce-af26-2eb102c4a443","system_id":"levelo_inurba_marseille","lat":43.278128,"lon":5.407195,"is_reserved":false,"is_disabled":false,"rental_uris":{"android":"levelo://app?vid=120de992-b7b7-47ce-af26-2eb102c4a443","ios":"levelo://app?vid=120de992-b7b7-47ce-af26-2eb102c4a443"},"vehicle_type_id":"4","last_reported":1701428749,"current_range_meters":8800,"station_id":"ce4bhnh2rcd13ifvqgtg","pricing_plan_id":"free"},{"bike_id":"f413424e-68b3-448b-821f-328a3b9a9d22","system_id":"levelo_inurba_marseille","lat":43.269467,"lon":5.386439,"is_reserved":false,"is_disabled":false,"rental_uris":{"android":"levelo://app?vid=f413424e-68b3-448b-821f-328a3b9a9d22","ios":"levelo://app?vid=f413424e-68b3-448b-821f-328a3b9a9d22"},"vehicle_type_id":"4","last_reported":1701428749,"current_range_meters":16000,"station_id":"ce4bhh92rcd13ifvqfh0","pricing_plan_id":"free"},{"bike_id":"51691c18-c89c-4fff-bd7f-ca085470dcf8","system_id":"levelo_inurba_marseille","lat":43.26682,"lon":5.38269,"is_reserved":false,"is_disabled":false,"rental_uris":{"android":"levelo://app?vid=51691c18-c89c-4fff-bd7f-ca085470dcf8","ios":"levelo://app?vid=51691c18-c89c-4fff-bd7f-ca085470dcf8"},"vehicle_type_id":"4","last_reported":1701428749,"current_range_meters":10000,"station_id":"ce4bhg92rcd13ifvqf90","pricing_plan_id":"free"},{"bike_id":"bc0bf0ac-ab02-43a5-add1-5a50b7dffb98","system_id":"levelo_inurba_marseille","lat":43.265714,"lon":5.372891,"is_reserved":false,"is_disabled":false,"rental_uris":{"android":"levelo://app?vid=bc0bf0ac-ab02-43a5-add1-5a50b7dffb98","ios":"levelo://app?vid=bc0bf0ac-ab02-43a5-add1-5a50b7dffb98"},"vehicle_type_id":"4","last_reported":1701428749,"current_range_meters":29200,"station_id":"ce4bhg12rcd13ifvqf70","pricing_plan_id":"free"},{"bike_id":"70e785fb-a7de-44b8-a8c4-01afa0c2577c","system_id":"levelo_inurba_marseille","lat":43.26681,"lon":5.382694,"is_reserved":false,"is_disabled":false,"rental_uris":{"android":"levelo://app?vid=70e785fb-a7de-44b8-a8c4-01afa0c2577c","ios":"levelo://app?vid=70e785fb-a7de-44b8-a8c4-01afa0c2577c"},"vehicle_type_id":"4","last_reported":1701428749,"current_range_meters":21600,"station_id":"ce4bhg92rcd13ifvqf90","pricing_plan_id":"free"},{"bike_id":"3fdabccc-9366-442c-866d-685c36da6b9d","system_id":"levelo_inurba_marseille","lat":43.265714,"lon":5.372891,"is_reserved":false,"is_disabled":false,"rental_uris":{"android":"levelo://app?vid=3fdabccc-9366-442c-866d-685c36da6b9d","ios":"levelo://app?vid=3fdabccc-9366-442c-866d-685c36da6b9d"},"vehicle_type_id":"4","last_reported":1701428749,"current_range_meters":26800,"station_id":"ce4bhg12rcd13ifvqf70","pricing_plan_id":"free"},{"bike_id":"e7472a37-3e7c-412c-8cd7-13dc4682f8b3","system_id":"levelo_inurba_marseille","lat":43.267966,"lon":5.393976,"is_reserved":false,"is_disabled":false,"rental_uris":{"android":"levelo://app?vid=e7472a37-3e7c-412c-8cd7-13dc4682f8b3","ios":"levelo://app?vid=e7472a37-3e7c-412c-8cd7-13dc4682f8b3"},"vehicle_type_id":"4","last_reported":1701428749,"current_range_meters":10000,"station_id":"ce4bhh12rcd13ifvqfg0","pricing_plan_id":"free"},{"bike_id":"5c4a254e-a7b6-411f-93a8-d81837ab7f6a","system_id":"levelo_inurba_marseille","lat":43.267966,"lon":5.393976,"is_reserved":false,"is_disabled":false,"rental_uris":{"android":"levelo://app?vid=5c4a254e-a7b6-411f-93a8-d81837ab7f6a","ios":"levelo://app?vid=5c4a254e-a7b6-411f-93a8-d81837ab7f6a"},"vehicle_type_id":"4","last_reported":1701428749,"current_range_meters":30400,"station_id":"ce4bhh12rcd13ifvqfg0","pricing_plan_id":"free"},{"bike_id":"251ce5e7-acea-418e-9a44-6e58b0a9a360","system_id":"levelo_inurba_marseille","lat":43.267966,"lon":5.393976,"is_reserved":false,"is_disabled":false,"rental_uris":{"android":"levelo://app?vid=251ce5e7-acea-418e-9a44-6e58b0a9a360","ios":"levelo://app?vid=251ce5e7-acea-418e-9a44-6e58b0a9a360"},"vehicle_type_id":"4","last_reported":1701428749,"current_range_meters":19200,"station_id":"ce4bhh12rcd13ifvqfg0","pricing_plan_id":"free"},{"bike_id":"3da38adb-17bb-47a1-b2b1-5ea50dcafb3d","system_id":"levelo_inurba_marseille","lat":43.267966,"lon":5.393976,"is_reserved":false,"is_disabled":false,"rental_uris":{"android":"levelo://app?vid=3da38adb-17bb-47a1-b2b1-5ea50dcafb3d","ios":"levelo://app?vid=3da38adb-17bb-47a1-b2b1-5ea50dcafb3d"},"vehicle_type_id":"4","last_reported":1701428749,"current_range_meters":16800,"station_id":"ce4bhh12rcd13ifvqfg0","pricing_plan_id":"free"},{"bike_id":"3445ee90-dd31-4025-b60f-eb54f4817ce2","system_id":"levelo_inurba_marseille","lat":43.265714,"lon":5.372891,"is_reserved":false,"is_disabled":false,"rental_uris":{"android":"levelo://app?vid=3445ee90-dd31-4025-b60f-eb54f4817ce2","ios":"levelo://app?vid=3445ee90-dd31-4025-b60f-eb54f4817ce2"},"vehicle_type_id":"4","last_reported":1701428749,"current_range_meters":20800,"station_id":"ce4bhg12rcd13ifvqf70","pricing_plan_id":"free"},{"bike_id":"70d9562c-6f71-49b4-b8d1-e85ded830516","system_id":"levelo_inurba_marseille","lat":43.26568,"lon":5.38999,"is_reserved":false,"is_disabled":false,"rental_uris":{"android":"levelo://app?vid=70d9562c-6f71-49b4-b8d1-e85ded830516","ios":"levelo://app?vid=70d9562c-6f71-49b4-b8d1-e85ded830516"},"vehicle_type_id":"4","last_reported":1701428749,"current_range_meters":1200,"station_id":"ce4bhe12rcd13ifvqf30","pricing_plan_id":"free"},{"bike_id":"c5c6225e-6b4b-48b5-9dd5-fe0590fd9dfc","system_id":"levelo_inurba_marseille","lat":43.26949,"lon":5.40262,"is_reserved":false,"is_disabled":false,"rental_uris":{"android":"levelo://app?vid=c5c6225e-6b4b-48b5-9dd5-fe0590fd9dfc","ios":"levelo://app?vid=c5c6225e-6b4b-48b5-9dd5-fe0590fd9dfc"},"vehicle_type_id":"4","last_reported":1701428749,"current_range_meters":20400,"station_id":"cjm6bp8fraef2m0cb0m0","pricing_plan_id":"free"},{"bike_id":"226ed5d5-14ab-4a32-8059-657e034f5dee","system_id":"levelo_inurba_marseille","lat":43.261782,"lon":5.374515,"is_reserved":false,"is_disabled":false,"rental_uris":{"android":"levelo://app?vid=226ed5d5-14ab-4a32-8059-657e034f5dee","ios":"levelo://app?vid=226ed5d5-14ab-4a32-8059-657e034f5dee"},"vehicle_type_id":"4","last_reported":1701428749,"current_range_meters":26800,"station_id":"ce4bhgp2rcd13ifvqfc0","pricing_plan_id":"free"},{"bike_id":"6394474e-85a8-4fc5-ba69-bca97359fd9e","system_id":"levelo_inurba_marseille","lat":43.317104,"lon":5.436818,"is_reserved":false,"is_disabled":false,"rental_uris":{"android":"levelo://app?vid=6394474e-85a8-4fc5-ba69-bca97359fd9e","ios":"levelo://app?vid=6394474e-85a8-4fc5-ba69-bca97359fd9e"},"vehicle_type_id":"4","last_reported":1701428749,"current_range_meters":19600,"station_id":"ce4bhp92rcd13ifvqhcg","pricing_plan_id":"free"},{"bike_id":"f034ef14-36cd-4aca-ba0d-4a84bd730784","system_id":"levelo_inurba_marseille","lat":43.261782,"lon":5.374515,"is_reserved":false,"is_disabled":false,"rental_uris":{"android":"levelo://app?vid=f034ef14-36cd-4aca-ba0d-4a84bd730784","ios":"levelo://app?vid=f034ef14-36cd-4aca-ba0d-4a84bd730784"},"vehicle_type_id":"4","last_reported":1701428749,"current_range_meters":30000,"station_id":"ce4bhgp2rcd13ifvqfc0","pricing_plan_id":"free"},{"bike_id":"b72ed223-97c5-42ae-bce3-7e46874b40e7","system_id":"levelo_inurba_marseille","lat":43.267959,"lon":5.402685,"is_reserved":false,"is_disabled":false,"rental_uris":{"android":"levelo://app?vid=b72ed223-97c5-42ae-bce3-7e46874b40e7","ios":"levelo://app?vid=b72ed223-97c5-42ae-bce3-7e46874b40e7"},"vehicle_type_id":"4","last_reported":1701428749,"current_range_meters":17600,"station_id":"ce501612rcd8frsf0b60","pricing_plan_id":"free"},{"bike_id":"a1298899-2854-4c3c-9b02-441e606c1bd1","system_id":"levelo_inurba_marseille","lat":43.26802,"lon":5.40267,"is_reserved":false,"is_disabled":false,"rental_uris":{"android":"levelo://app?vid=a1298899-2854-4c3c-9b02-441e606c1bd1","ios":"levelo://app?vid=a1298899-2854-4c3c-9b02-441e606c1bd1"},"vehicle_type_id":"4","last_reported":1701428749,"current_range_meters":3600,"station_id":"ce501612rcd8frsf0b60","pricing_plan_id":"free"},{"bike_id":"3e4fb47e-33e8-4ee2-bfc1-1bd948cfa529","system_id":"levelo_inurba_marseille","lat":43.281548,"lon":5.42643,"is_reserved":false,"is_disabled":false,"rental_uris":{"android":"levelo://app?vid=3e4fb47e-33e8-4ee2-bfc1-1bd948cfa529","ios":"levelo://app?vid=3e4fb47e-33e8-4ee2-bfc1-1bd948cfa529"},"vehicle_type_id":"4","last_reported":1701428749,"current_range_meters":31200,"station_id":"ce4bhnh2rcd13ifvqgug","pricing_plan_id":"free"},{"bike_id":"a265f57d-2203-4406-8278-bc194922c399","system_id":"levelo_inurba_marseille","lat":43.28151,"lon":5.42639,"is_reserved":false,"is_disabled":false,"rental_uris":{"android":"levelo://app?vid=a265f57d-2203-4406-8278-bc194922c399","ios":"levelo://app?vid=a265f57d-2203-4406-8278-bc194922c399"},"vehicle_type_id":"4","last_reported":1701428749,"current_range_meters":31200,"station_id":"ce4bhnh2rcd13ifvqgug","pricing_plan_id":"free"},{"bike_id":"cb609a7b-f9ee-4981-a18f-2f84ebe6425d","system_id":"levelo_inurba_marseille","lat":43.281548,"lon":5.42643,"is_reserved":false,"is_disabled":false,"rental_uris":{"android":"levelo://app?vid=cb609a7b-f9ee-4981-a18f-2f84ebe6425d","ios":"levelo://app?vid=cb609a7b-f9ee-4981-a18f-2f84ebe6425d"},"vehicle_type_id":"4","last_reported":1701428749,"current_range_meters":30000,"station_id":"ce4bhnh2rcd13ifvqgug","pricing_plan_id":"free"},{"bike_id":"08ee9831-e27a-4de6-b434-68bc147048ef","system_id":"levelo_inurba_marseille","lat":43.281548,"lon":5.42643,"is_reserved":false,"is_disabled":false,"rental_uris":{"android":"levelo://app?vid=08ee9831-e27a-4de6-b434-68bc147048ef","ios":"levelo://app?vid=08ee9831-e27a-4de6-b434-68bc147048ef"},"vehicle_type_id":"4","last_reported":1701428749,"current_range_meters":31200,"station_id":"ce4bhnh2rcd13ifvqgug","pricing_plan_id":"free"},{"bike_id":"3532a786-7312-4db1-88be-2e5e8a274941","system_id":"levelo_inurba_marseille","lat":43.281548,"lon":5.42643,"is_reserved":false,"is_disabled":false,"rental_uris":{"android":"levelo://app?vid=3532a786-7312-4db1-88be-2e5e8a274941","ios":"levelo://app?vid=3532a786-7312-4db1-88be-2e5e8a274941"},"vehicle_type_id":"4","last_reported":1701428749,"current_range_meters":26800,"station_id":"ce4bhnh2rcd13ifvqgug","pricing_plan_id":"free"},{"bike_id":"5275b2c7-f1b0-4393-bb76-e3a85b467510","system_id":"levelo_inurba_marseille","lat":43.26088,"lon":5.39762,"is_reserved":false,"is_disabled":false,"rental_uris":{"android":"levelo://app?vid=5275b2c7-f1b0-4393-bb76-e3a85b467510","ios":"levelo://app?vid=5275b2c7-f1b0-4393-bb76-e3a85b467510"},"vehicle_type_id":"4","last_reported":1701428749,"current_range_meters":20800,"station_id":"","pricing_plan_id":"free"},{"bike_id":"7b5a692f-8620-4269-b938-b35847cae01d","system_id":"levelo_inurba_marseille","lat":43.258224,"lon":5.394369,"is_reserved":false,"is_disabled":false,"rental_uris":{"android":"levelo://app?vid=7b5a692f-8620-4269-b938-b35847cae01d","ios":"levelo://app?vid=7b5a692f-8620-4269-b938-b35847cae01d"},"vehicle_type_id":"4","last_reported":1701428749,"current_range_meters":31200,"station_id":"ce4bhip2rcd13ifvqft0","pricing_plan_id":"free"},{"bike_id":"2154cb26-1954-4a05-ad07-68887a197990","system_id":"levelo_inurba_marseille","lat":43.258224,"lon":5.394369,"is_reserved":false,"is_disabled":false,"rental_uris":{"android":"levelo://app?vid=2154cb26-1954-4a05-ad07-68887a197990","ios":"levelo://app?vid=2154cb26-1954-4a05-ad07-68887a197990"},"vehicle_type_id":"4","last_reported":1701428749,"current_range_meters":9600,"station_id":"ce4bhip2rcd13ifvqft0","pricing_plan_id":"free"},{"bike_id":"ef729fe7-869e-431d-af1b-d3628a7a88a9","system_id":"levelo_inurba_marseille","lat":43.25501,"lon":5.37646,"is_reserved":false,"is_disabled":false,"rental_uris":{"android":"levelo://app?vid=ef729fe7-869e-431d-af1b-d3628a7a88a9","ios":"levelo://app?vid=ef729fe7-869e-431d-af1b-d3628a7a88a9"},"vehicle_type_id":"4","last_reported":1701428749,"current_range_meters":27200,"station_id":"ce4bhh12rcd13ifvqff0","pricing_plan_id":"free"},{"bike_id":"4b6cd26e-9f31-4ae2-97cb-a20cc5c3fe7e","system_id":"levelo_inurba_marseille","lat":43.27073,"lon":5.42279,"is_reserved":false,"is_disabled":false,"rental_uris":{"android":"levelo://app?vid=4b6cd26e-9f31-4ae2-97cb-a20cc5c3fe7e","ios":"levelo://app?vid=4b6cd26e-9f31-4ae2-97cb-a20cc5c3fe7e"},"vehicle_type_id":"4","last_reported":1701428749,"current_range_meters":15200,"station_id":"ce4bhk92rcd13ifvqgb0","pricing_plan_id":"free"},{"bike_id":"d28c2101-138c-4829-a4d2-de1aa91912ed","system_id":"levelo_inurba_marseille","lat":43.270721,"lon":5.422764,"is_reserved":false,"is_disabled":false,"rental_uris":{"android":"levelo://app?vid=d28c2101-138c-4829-a4d2-de1aa91912ed","ios":"levelo://app?vid=d28c2101-138c-4829-a4d2-de1aa91912ed"},"vehicle_type_id":"4","last_reported":1701428749,"current_range_meters":9600,"station_id":"ce4bhk92rcd13ifvqgb0","pricing_plan_id":"free"},{"bike_id":"39a41fc6-fb12-4304-b9bd-c12fd73ba948","system_id":"levelo_inurba_marseille","lat":43.270721,"lon":5.422764,"is_reserved":false,"is_disabled":false,"rental_uris":{"android":"levelo://app?vid=39a41fc6-fb12-4304-b9bd-c12fd73ba948","ios":"levelo://app?vid=39a41fc6-fb12-4304-b9bd-c12fd73ba948"},"vehicle_type_id":"4","last_reported":1701428749,"current_range_meters":31200,"station_id":"ce4bhk92rcd13ifvqgb0","pricing_plan_id":"free"},{"bike_id":"2e8cc1f5-1e9a-4211-8d71-225cdc6b3eb9","system_id":"levelo_inurba_marseille","lat":43.250023,"lon":5.38919,"is_reserved":false,"is_disabled":false,"rental_uris":{"android":"levelo://app?vid=2e8cc1f5-1e9a-4211-8d71-225cdc6b3eb9","ios":"levelo://app?vid=2e8cc1f5-1e9a-4211-8d71-225cdc6b3eb9"},"vehicle_type_id":"4","last_reported":1701428749,"current_range_meters":9200,"station_id":"ce4bhgp2rcd13ifvqfd0","pricing_plan_id":"free"},{"bike_id":"be30aff5-fbcc-4b18-b536-1b1e3fd71369","system_id":"levelo_inurba_marseille","lat":43.250023,"lon":5.38919,"is_reserved":false,"is_disabled":false,"rental_uris":{"android":"levelo://app?vid=be30aff5-fbcc-4b18-b536-1b1e3fd71369","ios":"levelo://app?vid=be30aff5-fbcc-4b18-b536-1b1e3fd71369"},"vehicle_type_id":"4","last_reported":1701428749,"current_range_meters":30800,"station_id":"ce4bhgp2rcd13ifvqfd0","pricing_plan_id":"free"},{"bike_id":"62d76b4d-bedb-4eb9-ac2a-c868acbefde4","system_id":"levelo_inurba_marseille","lat":43.250966,"lon":5.395186,"is_reserved":false,"is_disabled":false,"rental_uris":{"android":"levelo://app?vid=62d76b4d-bedb-4eb9-ac2a-c868acbefde4","ios":"levelo://app?vid=62d76b4d-bedb-4eb9-ac2a-c868acbefde4"},"vehicle_type_id":"4","last_reported":1701428749,"current_range_meters":8000,"station_id":"ce4bhm12rcd13ifvqgkg","pricing_plan_id":"free"},{"bike_id":"cb938066-d8a6-4d83-9100-1429f7ddc323","system_id":"levelo_inurba_marseille","lat":43.24672,"lon":5.381606,"is_reserved":false,"is_disabled":false,"rental_uris":{"android":"levelo://app?vid=cb938066-d8a6-4d83-9100-1429f7ddc323","ios":"levelo://app?vid=cb938066-d8a6-4d83-9100-1429f7ddc323"},"vehicle_type_id":"4","last_reported":1701428749,"current_range_meters":27600,"station_id":"ce4bhih2rcd13ifvqfr0","pricing_plan_id":"free"},{"bike_id":"732665e2-c9f6-46bb-8f74-6cb0802c01f7","system_id":"levelo_inurba_marseille","lat":43.24693,"lon":5.382096,"is_reserved":false,"is_disabled":false,"rental_uris":{"android":"levelo://app?vid=732665e2-c9f6-46bb-8f74-6cb0802c01f7","ios":"levelo://app?vid=732665e2-c9f6-46bb-8f74-6cb0802c01f7"},"vehicle_type_id":"4","last_reported":1701428749,"current_range_meters":800,"station_id":"ce4bhih2rcd13ifvqfr0","pricing_plan_id":"free"},{"bike_id":"59cf6d6b-d7f0-4625-8cd9-7b7a3fc5ea32","system_id":"levelo_inurba_marseille","lat":43.25102,"lon":5.403214,"is_reserved":false,"is_disabled":false,"rental_uris":{"android":"levelo://app?vid=59cf6d6b-d7f0-4625-8cd9-7b7a3fc5ea32","ios":"levelo://app?vid=59cf6d6b-d7f0-4625-8cd9-7b7a3fc5ea32"},"vehicle_type_id":"4","last_reported":1701428749,"current_range_meters":27600,"station_id":"ce4bhlh2rcd13ifvqgig","pricing_plan_id":"free"},{"bike_id":"e1d4d083-7758-478a-a6a3-73908e3a2840","system_id":"levelo_inurba_marseille","lat":43.24693,"lon":5.382096,"is_reserved":false,"is_disabled":false,"rental_uris":{"android":"levelo://app?vid=e1d4d083-7758-478a-a6a3-73908e3a2840","ios":"levelo://app?vid=e1d4d083-7758-478a-a6a3-73908e3a2840"},"vehicle_type_id":"4","last_reported":1701428749,"current_range_meters":25200,"station_id":"ce4bhih2rcd13ifvqfr0","pricing_plan_id":"free"},{"bike_id":"a6fb93bb-27c3-4cc3-95bf-e4dbd1c05b01","system_id":"levelo_inurba_marseille","lat":43.25102,"lon":5.403214,"is_reserved":false,"is_disabled":false,"rental_uris":{"android":"levelo://app?vid=a6fb93bb-27c3-4cc3-95bf-e4dbd1c05b01","ios":"levelo://app?vid=a6fb93bb-27c3-4cc3-95bf-e4dbd1c05b01"},"vehicle_type_id":"4","last_reported":1701428749,"current_range_meters":30400,"station_id":"ce4bhlh2rcd13ifvqgig","pricing_plan_id":"free"},{"bike_id":"e791f8d3-8957-42b4-8101-aea576b91388","system_id":"levelo_inurba_marseille","lat":43.25102,"lon":5.403214,"is_reserved":false,"is_disabled":false,"rental_uris":{"android":"levelo://app?vid=e791f8d3-8957-42b4-8101-aea576b91388","ios":"levelo://app?vid=e791f8d3-8957-42b4-8101-aea576b91388"},"vehicle_type_id":"4","last_reported":1701428749,"current_range_meters":31200,"station_id":"ce4bhlh2rcd13ifvqgig","pricing_plan_id":"free"},{"bike_id":"edc0e680-2548-4339-8fb5-1532d40e4393","system_id":"levelo_inurba_marseille","lat":43.25102,"lon":5.403214,"is_reserved":false,"is_disabled":false,"rental_uris":{"android":"levelo://app?vid=edc0e680-2548-4339-8fb5-1532d40e4393","ios":"levelo://app?vid=edc0e680-2548-4339-8fb5-1532d40e4393"},"vehicle_type_id":"4","last_reported":1701428749,"current_range_meters":29600,"station_id":"ce4bhlh2rcd13ifvqgig","pricing_plan_id":"free"},{"bike_id":"c2f1e999-97d1-4144-8d54-51ab8659f27c","system_id":"levelo_inurba_marseille","lat":43.25102,"lon":5.403214,"is_reserved":false,"is_disabled":false,"rental_uris":{"android":"levelo://app?vid=c2f1e999-97d1-4144-8d54-51ab8659f27c","ios":"levelo://app?vid=c2f1e999-97d1-4144-8d54-51ab8659f27c"},"vehicle_type_id":"4","last_reported":1701428749,"current_range_meters":22000,"station_id":"ce4bhlh2rcd13ifvqgig","pricing_plan_id":"free"},{"bike_id":"fd3461e4-1744-459a-9a63-ffaaba8fe639","system_id":"levelo_inurba_marseille","lat":43.25102,"lon":5.403214,"is_reserved":false,"is_disabled":false,"rental_uris":{"android":"levelo://app?vid=fd3461e4-1744-459a-9a63-ffaaba8fe639","ios":"levelo://app?vid=fd3461e4-1744-459a-9a63-ffaaba8fe639"},"vehicle_type_id":"4","last_reported":1701428749,"current_range_meters":5200,"station_id":"ce4bhlh2rcd13ifvqgig","pricing_plan_id":"free"},{"bike_id":"c0e62aaa-5463-40b9-b530-ba2c8260d22b","system_id":"levelo_inurba_marseille","lat":43.25102,"lon":5.403214,"is_reserved":false,"is_disabled":false,"rental_uris":{"android":"levelo://app?vid=c0e62aaa-5463-40b9-b530-ba2c8260d22b","ios":"levelo://app?vid=c0e62aaa-5463-40b9-b530-ba2c8260d22b"},"vehicle_type_id":"4","last_reported":1701428749,"current_range_meters":28400,"station_id":"ce4bhlh2rcd13ifvqgig","pricing_plan_id":"free"},{"bike_id":"dffdc9cd-9ac4-47e9-a727-966cfa8b6920","system_id":"levelo_inurba_marseille","lat":43.25102,"lon":5.403214,"is_reserved":false,"is_disabled":false,"rental_uris":{"android":"levelo://app?vid=dffdc9cd-9ac4-47e9-a727-966cfa8b6920","ios":"levelo://app?vid=dffdc9cd-9ac4-47e9-a727-966cfa8b6920"},"vehicle_type_id":"4","last_reported":1701428749,"current_range_meters":27600,"station_id":"ce4bhlh2rcd13ifvqgig","pricing_plan_id":"free"},{"bike_id":"7ba9088a-340f-416f-8ba5-cad713ef11a0","system_id":"levelo_inurba_marseille","lat":43.243883,"lon":5.370578,"is_reserved":false,"is_disabled":false,"rental_uris":{"android":"levelo://app?vid=7ba9088a-340f-416f-8ba5-cad713ef11a0","ios":"levelo://app?vid=7ba9088a-340f-416f-8ba5-cad713ef11a0"},"vehicle_type_id":"4","last_reported":1701428749,"current_range_meters":26800,"station_id":"ce4bhnp2rcd13ifvqgvg","pricing_plan_id":"free"},{"bike_id":"85a9a632-6c49-4162-8650-f086e5aac88d","system_id":"levelo_inurba_marseille","lat":43.243884,"lon":5.370736,"is_reserved":false,"is_disabled":false,"rental_uris":{"android":"levelo://app?vid=85a9a632-6c49-4162-8650-f086e5aac88d","ios":"levelo://app?vid=85a9a632-6c49-4162-8650-f086e5aac88d"},"vehicle_type_id":"4","last_reported":1701428749,"current_range_meters":19200,"station_id":"ce4bhhh2rcd13ifvqfk0","pricing_plan_id":"free"},{"bike_id":"22af8a33-5d19-4f58-a48b-393cf5164aa7","system_id":"levelo_inurba_marseille","lat":43.24075,"lon":5.37756,"is_reserved":false,"is_disabled":false,"rental_uris":{"android":"levelo://app?vid=22af8a33-5d19-4f58-a48b-393cf5164aa7","ios":"levelo://app?vid=22af8a33-5d19-4f58-a48b-393cf5164aa7"},"vehicle_type_id":"4","last_reported":1701428749,"current_range_meters":30000,"station_id":"ce4bhnp2rcd13ifvqgvg","pricing_plan_id":"free"},{"bike_id":"168c9a65-5caf-4575-a261-728005b57a26","system_id":"levelo_inurba_marseille","lat":43.24075,"lon":5.3776,"is_reserved":false,"is_disabled":false,"rental_uris":{"android":"levelo://app?vid=168c9a65-5caf-4575-a261-728005b57a26","ios":"levelo://app?vid=168c9a65-5caf-4575-a261-728005b57a26"},"vehicle_type_id":"4","last_reported":1701428749,"current_range_meters":17600,"station_id":"ce4bhnp2rcd13ifvqgvg","pricing_plan_id":"free"},{"bike_id":"1ff49f5f-c774-4946-b848-51862abc125d","system_id":"levelo_inurba_marseille","lat":43.24075,"lon":5.37763,"is_reserved":false,"is_disabled":false,"rental_uris":{"android":"levelo://app?vid=1ff49f5f-c774-4946-b848-51862abc125d","ios":"levelo://app?vid=1ff49f5f-c774-4946-b848-51862abc125d"},"vehicle_type_id":"4","last_reported":1701428749,"current_range_meters":26400,"station_id":"ce4bhnp2rcd13ifvqgvg","pricing_plan_id":"free"},{"bike_id":"397cfeeb-d1ee-48f7-a8de-062693bea79f","system_id":"levelo_inurba_marseille","lat":43.24075,"lon":5.37763,"is_reserved":false,"is_disabled":false,"rental_uris":{"android":"levelo://app?vid=397cfeeb-d1ee-48f7-a8de-062693bea79f","ios":"levelo://app?vid=397cfeeb-d1ee-48f7-a8de-062693bea79f"},"vehicle_type_id":"4","last_reported":1701428749,"current_range_meters":27200,"station_id":"ce4bhnp2rcd13ifvqgvg","pricing_plan_id":"free"},{"bike_id":"f3c565df-1269-480c-b0a3-44da6ed812af","system_id":"levelo_inurba_marseille","lat":43.240623,"lon":5.377642,"is_reserved":false,"is_disabled":false,"rental_uris":{"android":"levelo://app?vid=f3c565df-1269-480c-b0a3-44da6ed812af","ios":"levelo://app?vid=f3c565df-1269-480c-b0a3-44da6ed812af"},"vehicle_type_id":"4","last_reported":1701428749,"current_range_meters":20000,"station_id":"ce4bhnp2rcd13ifvqgvg","pricing_plan_id":"free"},{"bike_id":"f1464391-aa4c-4383-be86-daa5a1d1f34d","system_id":"levelo_inurba_marseille","lat":43.24074,"lon":5.3776,"is_reserved":false,"is_disabled":false,"rental_uris":{"android":"levelo://app?vid=f1464391-aa4c-4383-be86-daa5a1d1f34d","ios":"levelo://app?vid=f1464391-aa4c-4383-be86-daa5a1d1f34d"},"vehicle_type_id":"4","last_reported":1701428749,"current_range_meters":31200,"station_id":"ce4bhnp2rcd13ifvqgvg","pricing_plan_id":"free"},{"bike_id":"387ece9e-8fd6-43b0-a3ad-424c2fada7b0","system_id":"levelo_inurba_marseille","lat":43.24073,"lon":5.37756,"is_reserved":false,"is_disabled":false,"rental_uris":{"android":"levelo://app?vid=387ece9e-8fd6-43b0-a3ad-424c2fada7b0","ios":"levelo://app?vid=387ece9e-8fd6-43b0-a3ad-424c2fada7b0"},"vehicle_type_id":"4","last_reported":1701428749,"current_range_meters":10400,"station_id":"ce4bhnp2rcd13ifvqgvg","pricing_plan_id":"free"},{"bike_id":"e3c78006-5ac2-4c7b-9373-b1a04f04badf","system_id":"levelo_inurba_marseille","lat":43.24073,"lon":5.37756,"is_reserved":false,"is_disabled":false,"rental_uris":{"android":"levelo://app?vid=e3c78006-5ac2-4c7b-9373-b1a04f04badf","ios":"levelo://app?vid=e3c78006-5ac2-4c7b-9373-b1a04f04badf"},"vehicle_type_id":"4","last_reported":1701428749,"current_range_meters":6800,"station_id":"ce4bhnp2rcd13ifvqgvg","pricing_plan_id":"free"},{"bike_id":"c7a4e119-a725-4d8e-b2b5-b0b67991847d","system_id":"levelo_inurba_marseille","lat":43.24072,"lon":5.3776,"is_reserved":false,"is_disabled":false,"rental_uris":{"android":"levelo://app?vid=c7a4e119-a725-4d8e-b2b5-b0b67991847d","ios":"levelo://app?vid=c7a4e119-a725-4d8e-b2b5-b0b67991847d"},"vehicle_type_id":"4","last_reported":1701428749,"current_range_meters":17600,"station_id":"ce4bhnp2rcd13ifvqgvg","pricing_plan_id":"free"},{"bike_id":"aeccdc95-2abc-4c4c-84cc-de036b1e6846","system_id":"levelo_inurba_marseille","lat":43.24071,"lon":5.37763,"is_reserved":false,"is_disabled":false,"rental_uris":{"android":"levelo://app?vid=aeccdc95-2abc-4c4c-84cc-de036b1e6846","ios":"levelo://app?vid=aeccdc95-2abc-4c4c-84cc-de036b1e6846"},"vehicle_type_id":"4","last_reported":1701428749,"current_range_meters":16800,"station_id":"ce4bhnp2rcd13ifvqgvg","pricing_plan_id":"free"},{"bike_id":"e47d7064-1951-4979-b605-3fd7f7608f13","system_id":"levelo_inurba_marseille","lat":43.24067,"lon":5.37765,"is_reserved":false,"is_disabled":false,"rental_uris":{"android":"levelo://app?vid=e47d7064-1951-4979-b605-3fd7f7608f13","ios":"levelo://app?vid=e47d7064-1951-4979-b605-3fd7f7608f13"},"vehicle_type_id":"4","last_reported":1701428749,"current_range_meters":28000,"station_id":"ce4bhnp2rcd13ifvqgvg","pricing_plan_id":"free"},{"bike_id":"6bffa76e-215a-4ee5-91e1-b2b1de52a36d","system_id":"levelo_inurba_marseille","lat":43.24067,"lon":5.37765,"is_reserved":false,"is_disabled":false,"rental_uris":{"android":"levelo://app?vid=6bffa76e-215a-4ee5-91e1-b2b1de52a36d","ios":"levelo://app?vid=6bffa76e-215a-4ee5-91e1-b2b1de52a36d"},"vehicle_type_id":"4","last_reported":1701428749,"current_range_meters":400,"station_id":"ce4bhnp2rcd13ifvqgvg","pricing_plan_id":"free"},{"bike_id":"93f73566-622c-4ec8-9b11-ebca7fafe29d","system_id":"levelo_inurba_marseille","lat":43.240653,"lon":5.377547,"is_reserved":false,"is_disabled":false,"rental_uris":{"android":"levelo://app?vid=93f73566-622c-4ec8-9b11-ebca7fafe29d","ios":"levelo://app?vid=93f73566-622c-4ec8-9b11-ebca7fafe29d"},"vehicle_type_id":"4","last_reported":1701428749,"current_range_meters":13600,"station_id":"ce4bhnp2rcd13ifvqgvg","pricing_plan_id":"free"},{"bike_id":"81c09cca-d601-4e28-a05e-741e7272df3b","system_id":"levelo_inurba_marseille","lat":43.239588,"lon":5.366238,"is_reserved":false,"is_disabled":false,"rental_uris":{"android":"levelo://app?vid=81c09cca-d601-4e28-a05e-741e7272df3b","ios":"levelo://app?vid=81c09cca-d601-4e28-a05e-741e7272df3b"},"vehicle_type_id":"4","last_reported":1701428749,"current_range_meters":15200,"station_id":"ce4bhi12rcd13ifvqfp0","pricing_plan_id":"free"},{"bike_id":"460ff11d-43d6-4fa0-9381-c598ad26d49a","system_id":"levelo_inurba_marseille","lat":43.241793,"lon":5.397317,"is_reserved":false,"is_disabled":false,"rental_uris":{"android":"levelo://app?vid=460ff11d-43d6-4fa0-9381-c598ad26d49a","ios":"levelo://app?vid=460ff11d-43d6-4fa0-9381-c598ad26d49a"},"vehicle_type_id":"4","last_reported":1701428749,"current_range_meters":22000,"station_id":"ce4bhn12rcd13ifvqgpg","pricing_plan_id":"free"},{"bike_id":"3ecf9bd9-273b-44cb-bcf5-e6a8b3379dfc","system_id":"levelo_inurba_marseille","lat":43.241772,"lon":5.39732,"is_reserved":false,"is_disabled":false,"rental_uris":{"android":"levelo://app?vid=3ecf9bd9-273b-44cb-bcf5-e6a8b3379dfc","ios":"levelo://app?vid=3ecf9bd9-273b-44cb-bcf5-e6a8b3379dfc"},"vehicle_type_id":"4","last_reported":1701428749,"current_range_meters":21600,"station_id":"ce4bhn12rcd13ifvqgpg","pricing_plan_id":"free"},{"bike_id":"6382809b-45d0-4ad2-8be7-697249f82077","system_id":"levelo_inurba_marseille","lat":43.231919,"lon":5.355532,"is_reserved":false,"is_disabled":false,"rental_uris":{"android":"levelo://app?vid=6382809b-45d0-4ad2-8be7-697249f82077","ios":"levelo://app?vid=6382809b-45d0-4ad2-8be7-697249f82077"},"vehicle_type_id":"4","last_reported":1701428749,"current_range_meters":31200,"station_id":"ce4bhu92rcd13ifvqi70","pricing_plan_id":"free"},{"bike_id":"d1703505-b125-4a98-a807-11024241bc04","system_id":"levelo_inurba_marseille","lat":43.231923,"lon":5.355545,"is_reserved":false,"is_disabled":false,"rental_uris":{"android":"levelo://app?vid=d1703505-b125-4a98-a807-11024241bc04","ios":"levelo://app?vid=d1703505-b125-4a98-a807-11024241bc04"},"vehicle_type_id":"4","last_reported":1701428749,"current_range_meters":31200,"station_id":"ce4bhu92rcd13ifvqi70","pricing_plan_id":"free"},{"bike_id":"cf3102c4-88e0-4a41-86b7-69a76932d3e6","system_id":"levelo_inurba_marseille","lat":43.231923,"lon":5.355545,"is_reserved":false,"is_disabled":false,"rental_uris":{"android":"levelo://app?vid=cf3102c4-88e0-4a41-86b7-69a76932d3e6","ios":"levelo://app?vid=cf3102c4-88e0-4a41-86b7-69a76932d3e6"},"vehicle_type_id":"4","last_reported":1701428749,"current_range_meters":31200,"station_id":"ce4bhu92rcd13ifvqi70","pricing_plan_id":"free"},{"bike_id":"1eeab9a5-d341-4bc8-8d21-ee151ff9d9b2","system_id":"levelo_inurba_marseille","lat":43.231886,"lon":5.399842,"is_reserved":false,"is_disabled":false,"rental_uris":{"android":"levelo://app?vid=1eeab9a5-d341-4bc8-8d21-ee151ff9d9b2","ios":"levelo://app?vid=1eeab9a5-d341-4bc8-8d21-ee151ff9d9b2"},"vehicle_type_id":"4","last_reported":1701428749,"current_range_meters":24000,"station_id":"ce4bhn12rcd13ifvqgqg","pricing_plan_id":"free"},{"bike_id":"cdfcf9d8-5b42-40a1-9c86-605bac4b94e5","system_id":"levelo_inurba_marseille","lat":43.231793,"lon":5.400044,"is_reserved":false,"is_disabled":false,"rental_uris":{"android":"levelo://app?vid=cdfcf9d8-5b42-40a1-9c86-605bac4b94e5","ios":"levelo://app?vid=cdfcf9d8-5b42-40a1-9c86-605bac4b94e5"},"vehicle_type_id":"4","last_reported":1701428749,"current_range_meters":22800,"station_id":"ce4bhn12rcd13ifvqgqg","pricing_plan_id":"free"},{"bike_id":"c7c2550a-b1a8-47c5-84f9-e24deae05cc5","system_id":"levelo_inurba_marseille","lat":43.23173,"lon":5.39984,"is_reserved":false,"is_disabled":false,"rental_uris":{"android":"levelo://app?vid=c7c2550a-b1a8-47c5-84f9-e24deae05cc5","ios":"levelo://app?vid=c7c2550a-b1a8-47c5-84f9-e24deae05cc5"},"vehicle_type_id":"4","last_reported":1701428749,"current_range_meters":10800,"station_id":"ce4bhn12rcd13ifvqgqg","pricing_plan_id":"free"},{"bike_id":"a16c4306-025a-4fd8-97c3-2b13abc3d7b4","system_id":"levelo_inurba_marseille","lat":43.231562,"lon":5.436933,"is_reserved":false,"is_disabled":false,"rental_uris":{"android":"levelo://app?vid=a16c4306-025a-4fd8-97c3-2b13abc3d7b4","ios":"levelo://app?vid=a16c4306-025a-4fd8-97c3-2b13abc3d7b4"},"vehicle_type_id":"4","last_reported":1701428749,"current_range_meters":3600,"station_id":"ce4bhmp2rcd13ifvqgog","pricing_plan_id":"free"},{"bike_id":"f28cfabb-59d3-49b1-a4ac-bf53d4ac67aa","system_id":"levelo_inurba_marseille","lat":43.23155,"lon":5.43714,"is_reserved":false,"is_disabled":false,"rental_uris":{"android":"levelo://app?vid=f28cfabb-59d3-49b1-a4ac-bf53d4ac67aa","ios":"levelo://app?vid=f28cfabb-59d3-49b1-a4ac-bf53d4ac67aa"},"vehicle_type_id":"4","last_reported":1701428749,"current_range_meters":15200,"station_id":"ce4bhmp2rcd13ifvqgog","pricing_plan_id":"free"},{"bike_id":"20cf5f87-1e3a-455f-b7ab-bd7bbc1d0cda","system_id":"levelo_inurba_marseille","lat":43.23155,"lon":5.43717,"is_reserved":false,"is_disabled":false,"rental_uris":{"android":"levelo://app?vid=20cf5f87-1e3a-455f-b7ab-bd7bbc1d0cda","ios":"levelo://app?vid=20cf5f87-1e3a-455f-b7ab-bd7bbc1d0cda"},"vehicle_type_id":"4","last_reported":1701428749,"current_range_meters":12800,"station_id":"ce4bhmp2rcd13ifvqgog","pricing_plan_id":"free"},{"bike_id":"16142c69-3ea7-4628-8f42-f75831211f2c","system_id":"levelo_inurba_marseille","lat":43.231562,"lon":5.436933,"is_reserved":false,"is_disabled":false,"rental_uris":{"android":"levelo://app?vid=16142c69-3ea7-4628-8f42-f75831211f2c","ios":"levelo://app?vid=16142c69-3ea7-4628-8f42-f75831211f2c"},"vehicle_type_id":"4","last_reported":1701428749,"current_range_meters":10800,"station_id":"ce4bhmp2rcd13ifvqgog","pricing_plan_id":"free"},{"bike_id":"0e617cb6-db97-42ca-83e1-3e2687a5c54e","system_id":"levelo_inurba_marseille","lat":43.23151,"lon":5.43712,"is_reserved":false,"is_disabled":false,"rental_uris":{"android":"levelo://app?vid=0e617cb6-db97-42ca-83e1-3e2687a5c54e","ios":"levelo://app?vid=0e617cb6-db97-42ca-83e1-3e2687a5c54e"},"vehicle_type_id":"4","last_reported":1701428749,"current_range_meters":26000,"station_id":"ce4bhmp2rcd13ifvqgog","pricing_plan_id":"free"},{"bike_id":"9b2f92f0-7b31-452f-80c7-f6e0e9fd621d","system_id":"levelo_inurba_marseille","lat":43.231562,"lon":5.436933,"is_reserved":false,"is_disabled":false,"rental_uris":{"android":"levelo://app?vid=9b2f92f0-7b31-452f-80c7-f6e0e9fd621d","ios":"levelo://app?vid=9b2f92f0-7b31-452f-80c7-f6e0e9fd621d"},"vehicle_type_id":"4","last_reported":1701428749,"current_range_meters":18400,"station_id":"ce4bhmp2rcd13ifvqgog","pricing_plan_id":"free"},{"bike_id":"c5fb2db4-3062-4bf2-b2e9-6eaf675f3993","system_id":"levelo_inurba_marseille","lat":43.231562,"lon":5.436933,"is_reserved":false,"is_disabled":false,"rental_uris":{"android":"levelo://app?vid=c5fb2db4-3062-4bf2-b2e9-6eaf675f3993","ios":"levelo://app?vid=c5fb2db4-3062-4bf2-b2e9-6eaf675f3993"},"vehicle_type_id":"4","last_reported":1701428749,"current_range_meters":15200,"station_id":"ce4bhmp2rcd13ifvqgog","pricing_plan_id":"free"},{"bike_id":"e860733d-32b2-4530-9269-159d78c73731","system_id":"levelo_inurba_marseille","lat":43.23148,"lon":5.43715,"is_reserved":false,"is_disabled":false,"rental_uris":{"android":"levelo://app?vid=e860733d-32b2-4530-9269-159d78c73731","ios":"levelo://app?vid=e860733d-32b2-4530-9269-159d78c73731"},"vehicle_type_id":"4","last_reported":1701428749,"current_range_meters":28000,"station_id":"ce4bhmp2rcd13ifvqgog","pricing_plan_id":"free"},{"bike_id":"156294f3-1370-429a-8410-0489841900f9","system_id":"levelo_inurba_marseille","lat":43.231562,"lon":5.436933,"is_reserved":false,"is_disabled":false,"rental_uris":{"android":"levelo://app?vid=156294f3-1370-429a-8410-0489841900f9","ios":"levelo://app?vid=156294f3-1370-429a-8410-0489841900f9"},"vehicle_type_id":"4","last_reported":1701428749,"current_range_meters":10800,"station_id":"ce4bhmp2rcd13ifvqgog","pricing_plan_id":"free"},{"bike_id":"3981a8fd-24c6-4214-aeb3-6399f0bdb1e3","system_id":"levelo_inurba_marseille","lat":43.231562,"lon":5.436933,"is_reserved":false,"is_disabled":false,"rental_uris":{"android":"levelo://app?vid=3981a8fd-24c6-4214-aeb3-6399f0bdb1e3","ios":"levelo://app?vid=3981a8fd-24c6-4214-aeb3-6399f0bdb1e3"},"vehicle_type_id":"4","last_reported":1701428749,"current_range_meters":31600,"station_id":"ce4bhmp2rcd13ifvqgog","pricing_plan_id":"free"},{"bike_id":"1b49a464-cf33-4093-a58f-a6ea95f6dcf1","system_id":"levelo_inurba_marseille","lat":43.23148,"lon":5.43722,"is_reserved":false,"is_disabled":false,"rental_uris":{"android":"levelo://app?vid=1b49a464-cf33-4093-a58f-a6ea95f6dcf1","ios":"levelo://app?vid=1b49a464-cf33-4093-a58f-a6ea95f6dcf1"},"vehicle_type_id":"4","last_reported":1701428749,"current_range_meters":11600,"station_id":"ce4bhmp2rcd13ifvqgog","pricing_plan_id":"free"},{"bike_id":"8f7bf4bc-06c1-4fe0-9dd1-fbfece98a6a0","system_id":"levelo_inurba_marseille","lat":43.231562,"lon":5.436933,"is_reserved":false,"is_disabled":false,"rental_uris":{"android":"levelo://app?vid=8f7bf4bc-06c1-4fe0-9dd1-fbfece98a6a0","ios":"levelo://app?vid=8f7bf4bc-06c1-4fe0-9dd1-fbfece98a6a0"},"vehicle_type_id":"4","last_reported":1701428749,"current_range_meters":18400,"station_id":"ce4bhmp2rcd13ifvqgog","pricing_plan_id":"free"},{"bike_id":"9dd6a3fb-6382-4a43-8e9f-ca16e115e7a9","system_id":"levelo_inurba_marseille","lat":43.231562,"lon":5.436933,"is_reserved":false,"is_disabled":false,"rental_uris":{"android":"levelo://app?vid=9dd6a3fb-6382-4a43-8e9f-ca16e115e7a9","ios":"levelo://app?vid=9dd6a3fb-6382-4a43-8e9f-ca16e115e7a9"},"vehicle_type_id":"4","last_reported":1701428749,"current_range_meters":16800,"station_id":"ce4bhmp2rcd13ifvqgog","pricing_plan_id":"free"}]}}