{"last_updated":1685484410,"ttl":30,"version":"2.2","data":{"bikes":[{"bike_id":"49689e6f-c268-45e8-9e8f-623dda2ae55c","system_id":"levelo_inurba_marseille","lat":43.312239,"lon":5.368562,"is_reserved":false,"is_disabled":false,"rental_uris":{"android":"levelo://app?vid=49689e6f-c268-45e8-9e8f-623dda2ae55c","ios":"levelo://app?vid=49689e6f-c268-45e8-9e8f-623dda2ae55c"},"vehicle_type_id":"4","last_reported":1685484410,"current_range_meters":18800,"station_id":"ce4bgl92rcd13ifvqbq0","pricing_plan_id":"free"},{"bike_id":"e203d44d-19dc-4db5-8180-0d0ea3cef55e","system_id":"levelo_inurba_marseille","lat":43.309076,"lon":5.368465,"is_reserved":false,"is_disabled":false,"rental_uris":{"android":"levelo://app?vid=e203d44d-19dc-4db5-8180-0d0ea3cef55e","ios":"levelo://app?vid=e203d44d-19dc-4db5-8180-0d0ea3cef55e"},"vehicle_type_id":"4","last_reported":1685484410,"current_range_meters":21200,"station_id":"ce4bgn92rcd13ifvqbvg","pricing_plan_id":"free"},{"bike_id":"9ff597da-aade-4bde-bc24-4a06f91dddac","system_id":"levelo_inurba_marseille","lat":43.314811,"lon":5.373103,"is_reserved":false,"is_disabled":false,"rental_uris":{"android":"levelo://app?vid=9ff597da-aade-4bde-bc24-4a06f91dddac","ios":"levelo://app?vid=9ff597da-aade-4bde-bc24-4a06f91dddac"},"vehicle_type_id":"4","last_reported":1685484410,"current_range_meters":8800,"station_id":"ce4bgt12rcd13ifvqcd0","pricing_plan_id":"free"},{"bike_id":"38177474-7dc8-4ce2-a0df-f228f42bb190","system_id":"levelo_inurba_marseille","lat":43.314811,"lon":5.373104,"is_reserved":false,"is_disabled":false,"rental_uris":{"android":"levelo://app?vid=38177474-7dc8-4ce2-a0df-f228f42bb190","ios":"levelo://app?vid=38177474-7dc8-4ce2-a0df-f228f42bb190"},"vehicle_type_id":"4","last_reported":1685484410,"current_range_meters":27200,"station_id":"ce4bgt12rcd13ifvqcd0","pricing_plan_id":"free"},{"bike_id":"3c48dc15-a4da-49fd-b298-9f37b27e027f","system_id":"levelo_inurba_marseille","lat":43.314811,"lon":5.373103,"is_reserved":false,"is_disabled":false,"rental_uris":{"android":"levelo://app?vid=3c48dc15-a4da-49fd-b298-9f37b27e027f","ios":"levelo://app?vid=3c48dc15-a4da-49fd-b298-9f37b27e027f"},"vehicle_type_id":"4","last_reported":1685484410,"current_range_meters":17200,"station_id":"ce4bgt12rcd13ifvqcd0","pricing_plan_id":"free"},{"bike_id":"38faefb2-13c4-4388-9ded-db6c0cc01c86","system_id":"levelo_inurba_marseille","lat":43.314811,"lon":5.373103,"is_reserved":false,"is_disabled":false,"rental_uris":{"android":"levelo://app?vid=38faefb2-13c4-4388-9ded-db6c0cc01c86","ios":"levelo://app?vid=38faefb2-13c4-4388-9ded-db6c0cc01c86"},"vehicle_type_id":"4","last_reported":1685484410,"current_range_meters":10800,"station_id":"ce4bgt12rcd13ifvqcd0","pricing_plan_id":"free"},{"bike_id":"f66ea311-53db-4aa2-99c1-084d8af90062","system_id":"levelo_inurba_marseille","lat":43.314811,"lon":5.373104,"is_reserved":false,"is_disabled":false,"rental_uris":{"android":"levelo://app?vid=f66ea311-53db-4aa2-99c1-084d8af90062","ios":"levelo://app?vid=f66ea311-53db-4aa2-99c1-084d8af90062"},"vehicle_type_id":"4","last_reported":1685484410,"current_range_meters":7200,"station_id":"ce4bgt12rcd13ifvqcd0","pricing_plan_id":"free"},{"bike_id":"fc9f211c-82d8-4021-a7ac-d1339846376b","system_id":"levelo_inurba_marseille","lat":43.308614,"lon":5.372098,"is_reserved":false,"is_disabled":false,"rental_uris":{"android":"levelo://app?vid=fc9f211c-82d8-4021-a7ac-d1339846376b","ios":"levelo://app?vid=fc9f211c-82d8-4021-a7ac-d1339846376b"},"vehicle_type_id":"4","last_reported":1685484410,"current_range_meters":12000,"station_id":"ce4bguh2rcd13ifvqckg","pricing_plan_id":"free"},{"bike_id":"f08ef44f-b6d3-4b45-acb0-92da5597a291","system_id":"levelo_inurba_marseille","lat":43.308614,"lon":5.372098,"is_reserved":false,"is_disabled":false,"rental_uris":{"android":"levelo://app?vid=f08ef44f-b6d3-4b45-acb0-92da5597a291","ios":"levelo://app?vid=f08ef44f-b6d3-4b45-acb0-92da5597a291"},"vehicle_type_id":"4","last_reported":1685484410,"current_range_meters":2000,"station_id":"ce4bguh2rcd13ifvqckg","pricing_plan_id":"free"},{"bike_id":"37a85ad5-7654-4f7c-91cb-95c4eda6da41","system_id":"levelo_inurba_marseille","lat":43.31338,"lon":5.37616,"is_reserved":false,"is_disabled":false,"rental_uris":{"android":"levelo://app?vid=37a85ad5-7654-4f7c-91cb-95c4eda6da41","ios":"levelo://app?vid=37a85ad5-7654-4f7c-91cb-95c4eda6da41"},"vehicle_type_id":"4","last_reported":1685484410,"current_range_meters":0,"station_id":"","pricing_plan_id":"free"},{"bike_id":"f69a3f8a-adab-435a-ad98-4302ca7a3c35","system_id":"levelo_inurba_marseille","lat":43.31845,"lon":5.37313,"is_reserved":false,"is_disabled":false,"rental_uris":{"android":"levelo://app?vid=f69a3f8a-adab-435a-ad98-4302ca7a3c35","ios":"levelo://app?vid=f69a3f8a-adab-435a-ad98-4302ca7a3c35"},"vehicle_type_id":"4","last_reported":1685484410,"current_range_meters":20000,"station_id":"","pricing_plan_id":"free"},{"bike_id":"9241aff1-92a4-4e63-bf46-a91be467dff8","system_id":"levelo_inurba_marseille","lat":43.30554,"lon":5.36541,"is_reserved":false,"is_disabled":false,"rental_uris":{"android":"levelo://app?vid=9241aff1-92a4-4e63-bf46-a91be467dff8","ios":"levelo://app?vid=9241aff1-92a4-4e63-bf46-a91be467dff8"},"vehicle_type_id":"4","last_reported":1685484410,"current_range_meters":9200,"station_id":"","pricing_plan_id":"free"},{"bike_id":"a1e10d75-b8e5-414b-97a7-1aafe01b702f","system_id":"levelo_inurba_marseille","lat":43.3112,"lon":5.37759,"is_reserved":false,"is_disabled":false,"rental_uris":{"android":"levelo://app?vid=a1e10d75-b8e5-414b-97a7-1aafe01b702f","ios":"levelo://app?vid=a1e10d75-b8e5-414b-97a7-1aafe01b702f"},"vehicle_type_id":"4","last_reported":1685484410,"current_range_meters":28400,"station_id":"ce4bgt92rcd13ifvqcg0","pricing_plan_id":"free"},{"bike_id":"065d1e48-6944-42d1-ac1f-c065136b4498","system_id":"levelo_inurba_marseille","lat":43.31113,"lon":5.37758,"is_reserved":false,"is_disabled":false,"rental_uris":{"android":"levelo://app?vid=065d1e48-6944-42d1-ac1f-c065136b4498","ios":"levelo://app?vid=065d1e48-6944-42d1-ac1f-c065136b4498"},"vehicle_type_id":"4","last_reported":1685484410,"current_range_meters":0,"station_id":"ce4bgt92rcd13ifvqcg0","pricing_plan_id":"free"},{"bike_id":"e75ef3e0-adf7-463c-9396-b7c620108e40","system_id":"levelo_inurba_marseille","lat":43.317075,"lon":5.377367,"is_reserved":false,"is_disabled":false,"rental_uris":{"android":"levelo://app?vid=e75ef3e0-adf7-463c-9396-b7c620108e40","ios":"levelo://app?vid=e75ef3e0-adf7-463c-9396-b7c620108e40"},"vehicle_type_id":"4","last_reported":1685484410,"current_range_meters":28000,"station_id":"ce4bgth2rcd13ifvqch0","pricing_plan_id":"free"},{"bike_id":"8ff05bf0-fbb1-4eac-b82d-bff21c420814","system_id":"levelo_inurba_marseille","lat":43.303046,"lon":5.368981,"is_reserved":false,"is_disabled":false,"rental_uris":{"android":"levelo://app?vid=8ff05bf0-fbb1-4eac-b82d-bff21c420814","ios":"levelo://app?vid=8ff05bf0-fbb1-4eac-b82d-bff21c420814"},"vehicle_type_id":"4","last_reported":1685484410,"current_range_meters":0,"station_id":"ce4bgqh2rcd13ifvqc5g","pricing_plan_id":"free"},{"bike_id":"1e7d1eba-5d61-4b0f-a0e8-9c632bd20a5f","system_id":"levelo_inurba_marseille","lat":43.303046,"lon":5.368981,"is_reserved":false,"is_disabled":false,"rental_uris":{"android":"levelo://app?vid=1e7d1eba-5d61-4b0f-a0e8-9c632bd20a5f","ios":"levelo://app?vid=1e7d1eba-5d61-4b0f-a0e8-9c632bd20a5f"},"vehicle_type_id":"4","last_reported":1685484410,"current_range_meters":4400,"station_id":"ce4bgqh2rcd13ifvqc5g","pricing_plan_id":"free"},{"bike_id":"4efeb099-e2f1-4bda-98ab-8276cf67f88e","system_id":"levelo_inurba_marseille","lat":43.303046,"lon":5.368981,"is_reserved":false,"is_disabled":false,"rental_uris":{"android":"levelo://app?vid=4efeb099-e2f1-4bda-98ab-8276cf67f88e","ios":"levelo://app?vid=4efeb099-e2f1-4bda-98ab-8276cf67f88e"},"vehicle_type_id":"4","last_reported":1685484410,"current_range_meters":0,"station_id":"ce4bgqh2rcd13ifvqc5g","pricing_plan_id":"free"},{"bike_id":"44aa7c3d-b71e-4995-8376-6ce341ddf7e1","system_id":"levelo_inurba_marseille","lat":43.303046,"lon":5.368981,"is_reserved":false,"is_disabled":false,"rental_uris":{"android":"levelo://app?vid=44aa7c3d-b71e-4995-8376-6ce341ddf7e1","ios":"levelo://app?vid=44aa7c3d-b71e-4995-8376-6ce341ddf7e1"},"vehicle_type_id":"4","last_reported":1685484410,"current_range_meters":0,"station_id":"ce4bgqh2rcd13ifvqc5g","pricing_plan_id":"free"},{"bike_id":"5d350d2f-765c-4641-9274-6fac24be13e2","system_id":"levelo_inurba_marseille","lat":43.315293,"lon":5.380349,"is_reserved":false,"is_disabled":false,"rental_uris":{"android":"levelo://app?vid=5d350d2f-765c-4641-9274-6fac24be13e2","ios":"levelo://app?vid=5d350d2f-765c-4641-9274-6fac24be13e2"},"vehicle_type_id":"4","last_reported":1685484410,"current_range_meters":15200,"station_id":"ce4bhsp2rcd13ifvqi50","pricing_plan_id":"free"},{"bike_id":"5df8a2b0-98b3-4922-898a-fe2e4dd7dbca","system_id":"levelo_inurba_marseille","lat":43.301939,"lon":5.366286,"is_reserved":false,"is_disabled":false,"rental_uris":{"android":"levelo://app?vid=5df8a2b0-98b3-4922-898a-fe2e4dd7dbca","ios":"levelo://app?vid=5df8a2b0-98b3-4922-898a-fe2e4dd7dbca"},"vehicle_type_id":"4","last_reported":1685484410,"current_range_meters":24800,"station_id":"ce4bgrh2rcd13ifvqc8g","pricing_plan_id":"free"},{"bike_id":"3f7ca422-d838-4eba-b10c-1805dd5bf1a0","system_id":"levelo_inurba_marseille","lat":43.30892,"lon":5.38132,"is_reserved":false,"is_disabled":false,"rental_uris":{"android":"levelo://app?vid=3f7ca422-d838-4eba-b10c-1805dd5bf1a0","ios":"levelo://app?vid=3f7ca422-d838-4eba-b10c-1805dd5bf1a0"},"vehicle_type_id":"4","last_reported":1685484410,"current_range_meters":4000,"station_id":"","pricing_plan_id":"free"},{"bike_id":"76067bb6-47bb-4aad-bbc7-cdd1a9afbbaf","system_id":"levelo_inurba_marseille","lat":43.3081,"lon":5.38148,"is_reserved":false,"is_disabled":false,"rental_uris":{"android":"levelo://app?vid=76067bb6-47bb-4aad-bbc7-cdd1a9afbbaf","ios":"levelo://app?vid=76067bb6-47bb-4aad-bbc7-cdd1a9afbbaf"},"vehicle_type_id":"4","last_reported":1685484410,"current_range_meters":0,"station_id":"ce4bgt12rcd13ifvqce0","pricing_plan_id":"free"},{"bike_id":"81392307-b0cb-448c-8256-f7ea21b7d432","system_id":"levelo_inurba_marseille","lat":43.30801,"lon":5.3815,"is_reserved":false,"is_disabled":false,"rental_uris":{"android":"levelo://app?vid=81392307-b0cb-448c-8256-f7ea21b7d432","ios":"levelo://app?vid=81392307-b0cb-448c-8256-f7ea21b7d432"},"vehicle_type_id":"4","last_reported":1685484410,"current_range_meters":400,"station_id":"ce4bgt12rcd13ifvqce0","pricing_plan_id":"free"},{"bike_id":"9afdbd76-b6ce-4748-853c-b5d9aafe1255","system_id":"levelo_inurba_marseille","lat":43.30805,"lon":5.38153,"is_reserved":false,"is_disabled":false,"rental_uris":{"android":"levelo://app?vid=9afdbd76-b6ce-4748-853c-b5d9aafe1255","ios":"levelo://app?vid=9afdbd76-b6ce-4748-853c-b5d9aafe1255"},"vehicle_type_id":"4","last_reported":1685484410,"current_range_meters":0,"station_id":"ce4bgt12rcd13ifvqce0","pricing_plan_id":"free"},{"bike_id":"a8705a52-a1e9-4970-9ba6-3e7de29751d1","system_id":"levelo_inurba_marseille","lat":43.308,"lon":5.38152,"is_reserved":false,"is_disabled":false,"rental_uris":{"android":"levelo://app?vid=a8705a52-a1e9-4970-9ba6-3e7de29751d1","ios":"levelo://app?vid=a8705a52-a1e9-4970-9ba6-3e7de29751d1"},"vehicle_type_id":"4","last_reported":1685484410,"current_range_meters":19200,"station_id":"ce4bgt12rcd13ifvqce0","pricing_plan_id":"free"},{"bike_id":"bf8a6a8a-d255-4b5e-8d71-f050a6b13b13","system_id":"levelo_inurba_marseille","lat":43.30788,"lon":5.38161,"is_reserved":false,"is_disabled":false,"rental_uris":{"android":"levelo://app?vid=bf8a6a8a-d255-4b5e-8d71-f050a6b13b13","ios":"levelo://app?vid=bf8a6a8a-d255-4b5e-8d71-f050a6b13b13"},"vehicle_type_id":"4","last_reported":1685484410,"current_range_meters":2000,"station_id":"ce4bgt12rcd13ifvqce0","pricing_plan_id":"free"},{"bike_id":"fc6a9e7a-c2fa-4d55-8573-e7b426de5906","system_id":"levelo_inurba_marseille","lat":43.304606,"lon":5.379026,"is_reserved":false,"is_disabled":false,"rental_uris":{"android":"levelo://app?vid=fc6a9e7a-c2fa-4d55-8573-e7b426de5906","ios":"levelo://app?vid=fc6a9e7a-c2fa-4d55-8573-e7b426de5906"},"vehicle_type_id":"4","last_reported":1685484410,"current_range_meters":6400,"station_id":"ce4bgup2rcd13ifvqcn0","pricing_plan_id":"free"},{"bike_id":"e1b7e638-db54-42d5-ae85-3e1337e37665","system_id":"levelo_inurba_marseille","lat":43.3164,"lon":5.38344,"is_reserved":false,"is_disabled":false,"rental_uris":{"android":"levelo://app?vid=e1b7e638-db54-42d5-ae85-3e1337e37665","ios":"levelo://app?vid=e1b7e638-db54-42d5-ae85-3e1337e37665"},"vehicle_type_id":"4","last_reported":1685484410,"current_range_meters":16400,"station_id":"","pricing_plan_id":"free"},{"bike_id":"c905a6bf-bfd4-4edc-87b4-53204571edf4","system_id":"levelo_inurba_marseille","lat":43.319935,"lon":5.381699,"is_reserved":false,"is_disabled":false,"rental_uris":{"android":"levelo://app?vid=c905a6bf-bfd4-4edc-87b4-53204571edf4","ios":"levelo://app?vid=c905a6bf-bfd4-4edc-87b4-53204571edf4"},"vehicle_type_id":"4","last_reported":1685484410,"current_range_meters":11600,"station_id":"ce4bhr12rcd13ifvqhpg","pricing_plan_id":"free"},{"bike_id":"354b0fa4-ad0e-4963-8a0d-454634836276","system_id":"levelo_inurba_marseille","lat":43.31996,"lon":5.38161,"is_reserved":false,"is_disabled":false,"rental_uris":{"android":"levelo://app?vid=354b0fa4-ad0e-4963-8a0d-454634836276","ios":"levelo://app?vid=354b0fa4-ad0e-4963-8a0d-454634836276"},"vehicle_type_id":"4","last_reported":1685484410,"current_range_meters":13600,"station_id":"ce4bhr12rcd13ifvqhpg","pricing_plan_id":"free"},{"bike_id":"c8709798-536b-403d-8a69-309799a2d285","system_id":"levelo_inurba_marseille","lat":43.313571,"lon":5.384829,"is_reserved":false,"is_disabled":false,"rental_uris":{"android":"levelo://app?vid=c8709798-536b-403d-8a69-309799a2d285","ios":"levelo://app?vid=c8709798-536b-403d-8a69-309799a2d285"},"vehicle_type_id":"4","last_reported":1685484410,"current_range_meters":3600,"station_id":"ce4bgt92rcd13ifvqcf0","pricing_plan_id":"free"},{"bike_id":"c27aee8d-53b3-4dfa-a72d-6330a1e77bd8","system_id":"levelo_inurba_marseille","lat":43.305364,"lon":5.384119,"is_reserved":false,"is_disabled":false,"rental_uris":{"android":"levelo://app?vid=c27aee8d-53b3-4dfa-a72d-6330a1e77bd8","ios":"levelo://app?vid=c27aee8d-53b3-4dfa-a72d-6330a1e77bd8"},"vehicle_type_id":"4","last_reported":1685484410,"current_range_meters":3600,"station_id":"ce4bgg92rcd13ifvqb30","pricing_plan_id":"free"},{"bike_id":"20457520-0e1f-44d0-9d00-893c918424eb","system_id":"levelo_inurba_marseille","lat":43.299243,"lon":5.37481,"is_reserved":false,"is_disabled":false,"rental_uris":{"android":"levelo://app?vid=20457520-0e1f-44d0-9d00-893c918424eb","ios":"levelo://app?vid=20457520-0e1f-44d0-9d00-893c918424eb"},"vehicle_type_id":"4","last_reported":1685484410,"current_range_meters":8000,"station_id":"ce4bgjh2rcd13ifvqbg0","pricing_plan_id":"free"},{"bike_id":"c5dc23ed-5802-4031-9ed4-0590b80a970a","system_id":"levelo_inurba_marseille","lat":43.299243,"lon":5.374807,"is_reserved":false,"is_disabled":false,"rental_uris":{"android":"levelo://app?vid=c5dc23ed-5802-4031-9ed4-0590b80a970a","ios":"levelo://app?vid=c5dc23ed-5802-4031-9ed4-0590b80a970a"},"vehicle_type_id":"4","last_reported":1685484410,"current_range_meters":6400,"station_id":"ce4bgjh2rcd13ifvqbg0","pricing_plan_id":"free"},{"bike_id":"6fae88fd-38ae-4e77-85d1-eb370700ab8c","system_id":"levelo_inurba_marseille","lat":43.29712,"lon":5.3661,"is_reserved":false,"is_disabled":false,"rental_uris":{"android":"levelo://app?vid=6fae88fd-38ae-4e77-85d1-eb370700ab8c","ios":"levelo://app?vid=6fae88fd-38ae-4e77-85d1-eb370700ab8c"},"vehicle_type_id":"4","last_reported":1685484410,"current_range_meters":17600,"station_id":"","pricing_plan_id":"free"},{"bike_id":"eccca70c-0886-4086-94da-09d5cb3b24a3","system_id":"levelo_inurba_marseille","lat":43.32838,"lon":5.36676,"is_reserved":false,"is_disabled":false,"rental_uris":{"android":"levelo://app?vid=eccca70c-0886-4086-94da-09d5cb3b24a3","ios":"levelo://app?vid=eccca70c-0886-4086-94da-09d5cb3b24a3"},"vehicle_type_id":"4","last_reported":1685484410,"current_range_meters":13200,"station_id":"ce4bhs92rcd13ifvqi0g","pricing_plan_id":"free"},{"bike_id":"b8ba35bf-de5c-44f3-ada5-5e7534ce4494","system_id":"levelo_inurba_marseille","lat":43.29703,"lon":5.36601,"is_reserved":false,"is_disabled":false,"rental_uris":{"android":"levelo://app?vid=b8ba35bf-de5c-44f3-ada5-5e7534ce4494","ios":"levelo://app?vid=b8ba35bf-de5c-44f3-ada5-5e7534ce4494"},"vehicle_type_id":"4","last_reported":1685484410,"current_range_meters":19600,"station_id":"","pricing_plan_id":"free"},{"bike_id":"4cda252f-b056-45fd-9715-bfe4918d2925","system_id":"levelo_inurba_marseille","lat":43.296935,"lon":5.376544,"is_reserved":false,"is_disabled":false,"rental_uris":{"android":"levelo://app?vid=4cda252f-b056-45fd-9715-bfe4918d2925","ios":"levelo://app?vid=4cda252f-b056-45fd-9715-bfe4918d2925"},"vehicle_type_id":"4","last_reported":1685484410,"current_range_meters":15200,"station_id":"ce4bgkh2rcd13ifvqbl0","pricing_plan_id":"free"},{"bike_id":"ec8d49e4-550e-4038-88cf-064667d96cda","system_id":"levelo_inurba_marseille","lat":43.296131,"lon":5.370791,"is_reserved":false,"is_disabled":false,"rental_uris":{"android":"levelo://app?vid=ec8d49e4-550e-4038-88cf-064667d96cda","ios":"levelo://app?vid=ec8d49e4-550e-4038-88cf-064667d96cda"},"vehicle_type_id":"4","last_reported":1685484410,"current_range_meters":30000,"station_id":"ce4bgnh2rcd13ifvqc0g","pricing_plan_id":"free"},{"bike_id":"84445be9-af68-4c10-93af-6d5d0d2efaf9","system_id":"levelo_inurba_marseille","lat":43.296131,"lon":5.370791,"is_reserved":false,"is_disabled":false,"rental_uris":{"android":"levelo://app?vid=84445be9-af68-4c10-93af-6d5d0d2efaf9","ios":"levelo://app?vid=84445be9-af68-4c10-93af-6d5d0d2efaf9"},"vehicle_type_id":"4","last_reported":1685484410,"current_range_meters":27200,"station_id":"ce4bgnh2rcd13ifvqc0g","pricing_plan_id":"free"},{"bike_id":"91b92a01-f52b-4107-9d86-ef4b96e3f47d","system_id":"levelo_inurba_marseille","lat":43.29646,"lon":5.37444,"is_reserved":false,"is_disabled":false,"rental_uris":{"android":"levelo://app?vid=91b92a01-f52b-4107-9d86-ef4b96e3f47d","ios":"levelo://app?vid=91b92a01-f52b-4107-9d86-ef4b96e3f47d"},"vehicle_type_id":"4","last_reported":1685484410,"current_range_meters":0,"station_id":"","pricing_plan_id":"free"},{"bike_id":"591bf06c-66fe-4af0-ac06-1a3079c875a3","system_id":"levelo_inurba_marseille","lat":43.304278,"lon":5.388868,"is_reserved":false,"is_disabled":false,"rental_uris":{"android":"levelo://app?vid=591bf06c-66fe-4af0-ac06-1a3079c875a3","ios":"levelo://app?vid=591bf06c-66fe-4af0-ac06-1a3079c875a3"},"vehicle_type_id":"4","last_reported":1685484410,"current_range_meters":16400,"station_id":"ce4bgk12rcd13ifvqbi0","pricing_plan_id":"free"},{"bike_id":"ca50f942-59d2-4866-a94c-8943731a2fe9","system_id":"levelo_inurba_marseille","lat":43.304278,"lon":5.388868,"is_reserved":false,"is_disabled":false,"rental_uris":{"android":"levelo://app?vid=ca50f942-59d2-4866-a94c-8943731a2fe9","ios":"levelo://app?vid=ca50f942-59d2-4866-a94c-8943731a2fe9"},"vehicle_type_id":"4","last_reported":1685484410,"current_range_meters":0,"station_id":"ce4bgk12rcd13ifvqbi0","pricing_plan_id":"free"},{"bike_id":"255f5014-a74d-47d1-a2e0-f24e01690aba","system_id":"levelo_inurba_marseille","lat":43.304274,"lon":5.388873,"is_reserved":false,"is_disabled":false,"rental_uris":{"android":"levelo://app?vid=255f5014-a74d-47d1-a2e0-f24e01690aba","ios":"levelo://app?vid=255f5014-a74d-47d1-a2e0-f24e01690aba"},"vehicle_type_id":"4","last_reported":1685484410,"current_range_meters":2000,"station_id":"ce4bgk12rcd13ifvqbi0","pricing_plan_id":"free"},{"bike_id":"fd4521c0-73d8-48c0-9567-11650a01a472","system_id":"levelo_inurba_marseille","lat":43.304274,"lon":5.388873,"is_reserved":false,"is_disabled":false,"rental_uris":{"android":"levelo://app?vid=fd4521c0-73d8-48c0-9567-11650a01a472","ios":"levelo://app?vid=fd4521c0-73d8-48c0-9567-11650a01a472"},"vehicle_type_id":"4","last_reported":1685484410,"current_range_meters":12800,"station_id":"ce4bgk12rcd13ifvqbi0","pricing_plan_id":"free"},{"bike_id":"7efd6ace-913e-4df0-bd47-a48b6cf440a5","system_id":"levelo_inurba_marseille","lat":43.304278,"lon":5.388868,"is_reserved":false,"is_disabled":false,"rental_uris":{"android":"levelo://app?vid=7efd6ace-913e-4df0-bd47-a48b6cf440a5","ios":"levelo://app?vid=7efd6ace-913e-4df0-bd47-a48b6cf440a5"},"vehicle_type_id":"4","last_reported":1685484410,"current_range_meters":800,"station_id":"ce4bgk12rcd13ifvqbi0","pricing_plan_id":"free"},{"bike_id":"99e027a4-7ccc-4125-b568-85b5869ed739","system_id":"levelo_inurba_marseille","lat":43.299707,"lon":5.384859,"is_reserved":false,"is_disabled":false,"rental_uris":{"android":"levelo://app?vid=99e027a4-7ccc-4125-b568-85b5869ed739","ios":"levelo://app?vid=99e027a4-7ccc-4125-b568-85b5869ed739"},"vehicle_type_id":"4","last_reported":1685484410,"current_range_meters":23600,"station_id":"ce4bgj92rcd13ifvqbd0","pricing_plan_id":"free"},{"bike_id":"bf9b2695-2725-4b42-8eec-da1a47943275","system_id":"levelo_inurba_marseille","lat":43.299707,"lon":5.384859,"is_reserved":false,"is_disabled":false,"rental_uris":{"android":"levelo://app?vid=bf9b2695-2725-4b42-8eec-da1a47943275","ios":"levelo://app?vid=bf9b2695-2725-4b42-8eec-da1a47943275"},"vehicle_type_id":"4","last_reported":1685484410,"current_range_meters":23200,"station_id":"ce4bgj92rcd13ifvqbd0","pricing_plan_id":"free"},{"bike_id":"570390b8-979f-433e-9c60-86f7208e8571","system_id":"levelo_inurba_marseille","lat":43.32367,"lon":5.388836,"is_reserved":false,"is_disabled":false,"rental_uris":{"android":"levelo://app?vid=570390b8-979f-433e-9c60-86f7208e8571","ios":"levelo://app?vid=570390b8-979f-433e-9c60-86f7208e8571"},"vehicle_type_id":"4","last_reported":1685484410,"current_range_meters":18800,"station_id":"ce4bhqp2rcd13ifvqhog","pricing_plan_id":"free"},{"bike_id":"d86a8c46-240d-427f-979b-5b78cfe3b6c1","system_id":"levelo_inurba_marseille","lat":43.32365,"lon":5.38876,"is_reserved":false,"is_disabled":false,"rental_uris":{"android":"levelo://app?vid=d86a8c46-240d-427f-979b-5b78cfe3b6c1","ios":"levelo://app?vid=d86a8c46-240d-427f-979b-5b78cfe3b6c1"},"vehicle_type_id":"4","last_reported":1685484410,"current_range_meters":20000,"station_id":"ce4bhqp2rcd13ifvqhog","pricing_plan_id":"free"},{"bike_id":"950f3a0b-8466-40bf-8f81-5f5cf1a96632","system_id":"levelo_inurba_marseille","lat":43.32367,"lon":5.388836,"is_reserved":false,"is_disabled":false,"rental_uris":{"android":"levelo://app?vid=950f3a0b-8466-40bf-8f81-5f5cf1a96632","ios":"levelo://app?vid=950f3a0b-8466-40bf-8f81-5f5cf1a96632"},"vehicle_type_id":"4","last_reported":1685484410,"current_range_meters":3200,"station_id":"ce4bhqp2rcd13ifvqhog","pricing_plan_id":"free"},{"bike_id":"fdaa9378-2bab-4dcd-ac61-bb973ffc0375","system_id":"levelo_inurba_marseille","lat":43.32363,"lon":5.38883,"is_reserved":false,"is_disabled":false,"rental_uris":{"android":"levelo://app?vid=fdaa9378-2bab-4dcd-ac61-bb973ffc0375","ios":"levelo://app?vid=fdaa9378-2bab-4dcd-ac61-bb973ffc0375"},"vehicle_type_id":"4","last_reported":1685484410,"current_range_meters":10800,"station_id":"ce4bhqp2rcd13ifvqhog","pricing_plan_id":"free"},{"bike_id":"019e8e5f-898c-403c-bff5-44d0c77958de","system_id":"levelo_inurba_marseille","lat":43.32361,"lon":5.38889,"is_reserved":false,"is_disabled":false,"rental_uris":{"android":"levelo://app?vid=019e8e5f-898c-403c-bff5-44d0c77958de","ios":"levelo://app?vid=019e8e5f-898c-403c-bff5-44d0c77958de"},"vehicle_type_id":"4","last_reported":1685484410,"current_range_meters":22000,"station_id":"ce4bhqp2rcd13ifvqhog","pricing_plan_id":"free"},{"bike_id":"6345f779-7590-4ebf-81b7-14a3c3a95e37","system_id":"levelo_inurba_marseille","lat":43.32368,"lon":5.38883,"is_reserved":false,"is_disabled":false,"rental_uris":{"android":"levelo://app?vid=6345f779-7590-4ebf-81b7-14a3c3a95e37","ios":"levelo://app?vid=6345f779-7590-4ebf-81b7-14a3c3a95e37"},"vehicle_type_id":"4","last_reported":1685484410,"current_range_meters":0,"station_id":"ce4bhqp2rcd13ifvqhog","pricing_plan_id":"free"},{"bike_id":"00c9b202-b5b6-4f69-8084-db1f9466ee79","system_id":"levelo_inurba_marseille","lat":43.32367,"lon":5.388836,"is_reserved":false,"is_disabled":false,"rental_uris":{"android":"levelo://app?vid=00c9b202-b5b6-4f69-8084-db1f9466ee79","ios":"levelo://app?vid=00c9b202-b5b6-4f69-8084-db1f9466ee79"},"vehicle_type_id":"4","last_reported":1685484410,"current_range_meters":20000,"station_id":"ce4bhqp2rcd13ifvqhog","pricing_plan_id":"free"},{"bike_id":"fabaf230-0d87-4275-a007-cb9cb5958506","system_id":"levelo_inurba_marseille","lat":43.292749,"lon":5.368398,"is_reserved":false,"is_disabled":false,"rental_uris":{"android":"levelo://app?vid=fabaf230-0d87-4275-a007-cb9cb5958506","ios":"levelo://app?vid=fabaf230-0d87-4275-a007-cb9cb5958506"},"vehicle_type_id":"4","last_reported":1685484410,"current_range_meters":13600,"station_id":"ce4bhbp2rcd13ifvqesg","pricing_plan_id":"free"},{"bike_id":"7e812f63-ca76-4026-87dd-94ee6b3fdde7","system_id":"levelo_inurba_marseille","lat":43.292311,"lon":5.360731,"is_reserved":false,"is_disabled":false,"rental_uris":{"android":"levelo://app?vid=7e812f63-ca76-4026-87dd-94ee6b3fdde7","ios":"levelo://app?vid=7e812f63-ca76-4026-87dd-94ee6b3fdde7"},"vehicle_type_id":"4","last_reported":1685484410,"current_range_meters":31200,"station_id":"ce4bhbh2rcd13ifvqeqg","pricing_plan_id":"free"},{"bike_id":"696a7ecc-503b-4c7e-9248-f2cd1e39a817","system_id":"levelo_inurba_marseille","lat":43.300852,"lon":5.390859,"is_reserved":false,"is_disabled":false,"rental_uris":{"android":"levelo://app?vid=696a7ecc-503b-4c7e-9248-f2cd1e39a817","ios":"levelo://app?vid=696a7ecc-503b-4c7e-9248-f2cd1e39a817"},"vehicle_type_id":"4","last_reported":1685484410,"current_range_meters":4400,"station_id":"ce4bh192rcd13ifvqdb0","pricing_plan_id":"free"},{"bike_id":"30923814-85c8-48c0-84f2-48e5c05f4c9a","system_id":"levelo_inurba_marseille","lat":43.292311,"lon":5.360731,"is_reserved":false,"is_disabled":false,"rental_uris":{"android":"levelo://app?vid=30923814-85c8-48c0-84f2-48e5c05f4c9a","ios":"levelo://app?vid=30923814-85c8-48c0-84f2-48e5c05f4c9a"},"vehicle_type_id":"4","last_reported":1685484410,"current_range_meters":31200,"station_id":"ce4bhbh2rcd13ifvqeqg","pricing_plan_id":"free"},{"bike_id":"3471ed8c-cbef-40a4-84b5-268df89e9243","system_id":"levelo_inurba_marseille","lat":43.292311,"lon":5.360731,"is_reserved":false,"is_disabled":false,"rental_uris":{"android":"levelo://app?vid=3471ed8c-cbef-40a4-84b5-268df89e9243","ios":"levelo://app?vid=3471ed8c-cbef-40a4-84b5-268df89e9243"},"vehicle_type_id":"4","last_reported":1685484410,"current_range_meters":30000,"station_id":"ce4bhbh2rcd13ifvqeqg","pricing_plan_id":"free"},{"bike_id":"9b5df379-67fd-4c5b-923f-866c0ed0be0d","system_id":"levelo_inurba_marseille","lat":43.29874,"lon":5.38903,"is_reserved":false,"is_disabled":false,"rental_uris":{"android":"levelo://app?vid=9b5df379-67fd-4c5b-923f-866c0ed0be0d","ios":"levelo://app?vid=9b5df379-67fd-4c5b-923f-866c0ed0be0d"},"vehicle_type_id":"4","last_reported":1685484410,"current_range_meters":18400,"station_id":"ce4bh392rcd13ifvqdl0","pricing_plan_id":"free"},{"bike_id":"d7a39ad4-b024-42ee-b071-56489df0d5a1","system_id":"levelo_inurba_marseille","lat":43.33227,"lon":5.37871,"is_reserved":false,"is_disabled":false,"rental_uris":{"android":"levelo://app?vid=d7a39ad4-b024-42ee-b071-56489df0d5a1","ios":"levelo://app?vid=d7a39ad4-b024-42ee-b071-56489df0d5a1"},"vehicle_type_id":"4","last_reported":1685484410,"current_range_meters":4800,"station_id":"","pricing_plan_id":"free"},{"bike_id":"1667aa5e-9b29-41bc-ae4e-048bc4ff61a2","system_id":"levelo_inurba_marseille","lat":43.298764,"lon":5.388973,"is_reserved":false,"is_disabled":false,"rental_uris":{"android":"levelo://app?vid=1667aa5e-9b29-41bc-ae4e-048bc4ff61a2","ios":"levelo://app?vid=1667aa5e-9b29-41bc-ae4e-048bc4ff61a2"},"vehicle_type_id":"4","last_reported":1685484410,"current_range_meters":1200,"station_id":"ce4bh392rcd13ifvqdl0","pricing_plan_id":"free"},{"bike_id":"8dcc4783-0cad-4e70-a35c-b71d990ac801","system_id":"levelo_inurba_marseille","lat":43.298764,"lon":5.388973,"is_reserved":false,"is_disabled":false,"rental_uris":{"android":"levelo://app?vid=8dcc4783-0cad-4e70-a35c-b71d990ac801","ios":"levelo://app?vid=8dcc4783-0cad-4e70-a35c-b71d990ac801"},"vehicle_type_id":"4","last_reported":1685484410,"current_range_meters":18800,"station_id":"ce4bh392rcd13ifvqdl0","pricing_plan_id":"free"},{"bike_id":"b957909a-34d2-41d3-8de3-e134c1b33f3f","system_id":"levelo_inurba_marseille","lat":43.30885,"lon":5.39628,"is_reserved":false,"is_disabled":false,"rental_uris":{"android":"levelo://app?vid=b957909a-34d2-41d3-8de3-e134c1b33f3f","ios":"levelo://app?vid=b957909a-34d2-41d3-8de3-e134c1b33f3f"},"vehicle_type_id":"4","last_reported":1685484410,"current_range_meters":7200,"station_id":"","pricing_plan_id":"free"},{"bike_id":"fc6a581c-fae6-4cea-9b2f-d9a711eabf4d","system_id":"levelo_inurba_marseille","lat":43.3089,"lon":5.3963,"is_reserved":false,"is_disabled":false,"rental_uris":{"android":"levelo://app?vid=fc6a581c-fae6-4cea-9b2f-d9a711eabf4d","ios":"levelo://app?vid=fc6a581c-fae6-4cea-9b2f-d9a711eabf4d"},"vehicle_type_id":"4","last_reported":1685484410,"current_range_meters":1600,"station_id":"ce4bh012rcd13ifvqcv0","pricing_plan_id":"free"},{"bike_id":"70e494ad-cfc1-4e9c-af5e-9523fcee80ad","system_id":"levelo_inurba_marseille","lat":43.309038,"lon":5.396546,"is_reserved":false,"is_disabled":false,"rental_uris":{"android":"levelo://app?vid=70e494ad-cfc1-4e9c-af5e-9523fcee80ad","ios":"levelo://app?vid=70e494ad-cfc1-4e9c-af5e-9523fcee80ad"},"vehicle_type_id":"4","last_reported":1685484410,"current_range_meters":9600,"station_id":"ce4bh012rcd13ifvqcv0","pricing_plan_id":"free"},{"bike_id":"b7569e9d-dffc-454f-ac0d-95f57abacbe4","system_id":"levelo_inurba_marseille","lat":43.309038,"lon":5.396546,"is_reserved":false,"is_disabled":false,"rental_uris":{"android":"levelo://app?vid=b7569e9d-dffc-454f-ac0d-95f57abacbe4","ios":"levelo://app?vid=b7569e9d-dffc-454f-ac0d-95f57abacbe4"},"vehicle_type_id":"4","last_reported":1685484410,"current_range_meters":12400,"station_id":"ce4bh012rcd13ifvqcv0","pricing_plan_id":"free"},{"bike_id":"5b786c0d-33e6-4e74-8aeb-67a0741e93e4","system_id":"levelo_inurba_marseille","lat":43.30884,"lon":5.3963,"is_reserved":false,"is_disabled":false,"rental_uris":{"android":"levelo://app?vid=5b786c0d-33e6-4e74-8aeb-67a0741e93e4","ios":"levelo://app?vid=5b786c0d-33e6-4e74-8aeb-67a0741e93e4"},"vehicle_type_id":"4","last_reported":1685484410,"current_range_meters":6800,"station_id":"","pricing_plan_id":"free"},{"bike_id":"7121b6c4-25e3-416e-9ab6-bddb8bd3d30e","system_id":"levelo_inurba_marseille","lat":43.309038,"lon":5.396546,"is_reserved":false,"is_disabled":false,"rental_uris":{"android":"levelo://app?vid=7121b6c4-25e3-416e-9ab6-bddb8bd3d30e","ios":"levelo://app?vid=7121b6c4-25e3-416e-9ab6-bddb8bd3d30e"},"vehicle_type_id":"4","last_reported":1685484410,"current_range_meters":800,"station_id":"ce4bh012rcd13ifvqcv0","pricing_plan_id":"free"},{"bike_id":"7dae2ea0-3748-4b5c-82ea-b14d67b41830","system_id":"levelo_inurba_marseille","lat":43.309038,"lon":5.396546,"is_reserved":false,"is_disabled":false,"rental_uris":{"android":"levelo://app?vid=7dae2ea0-3748-4b5c-82ea-b14d67b41830","ios":"levelo://app?vid=7dae2ea0-3748-4b5c-82ea-b14d67b41830"},"vehicle_type_id":"4","last_reported":1685484410,"current_range_meters":0,"station_id":"ce4bh012rcd13ifvqcv0","pricing_plan_id":"free"},{"bike_id":"71bf4c89-f421-424d-be50-d74901604058","system_id":"levelo_inurba_marseille","lat":43.309038,"lon":5.396546,"is_reserved":false,"is_disabled":false,"rental_uris":{"android":"levelo://app?vid=71bf4c89-f421-424d-be50-d74901604058","ios":"levelo://app?vid=71bf4c89-f421-424d-be50-d74901604058"},"vehicle_type_id":"4","last_reported":1685484410,"current_range_meters":16000,"station_id":"ce4bh012rcd13ifvqcv0","pricing_plan_id":"free"},{"bike_id":"d4258804-4979-4b98-b51f-00b83257367e","system_id":"levelo_inurba_marseille","lat":43.309038,"lon":5.396546,"is_reserved":false,"is_disabled":false,"rental_uris":{"android":"levelo://app?vid=d4258804-4979-4b98-b51f-00b83257367e","ios":"levelo://app?vid=d4258804-4979-4b98-b51f-00b83257367e"},"vehicle_type_id":"4","last_reported":1685484410,"current_range_meters":14000,"station_id":"ce4bh012rcd13ifvqcv0","pricing_plan_id":"free"},{"bike_id":"f2310550-d05e-4e08-b368-263b3bea4e6c","system_id":"levelo_inurba_marseille","lat":43.29193,"lon":5.35802,"is_reserved":false,"is_disabled":false,"rental_uris":{"android":"levelo://app?vid=f2310550-d05e-4e08-b368-263b3bea4e6c","ios":"levelo://app?vid=f2310550-d05e-4e08-b368-263b3bea4e6c"},"vehicle_type_id":"4","last_reported":1685484410,"current_range_meters":15200,"station_id":"","pricing_plan_id":"free"},{"bike_id":"c1a75a9a-f72f-46e6-b76b-9bb720ad187b","system_id":"levelo_inurba_marseille","lat":43.291994,"lon":5.357886,"is_reserved":false,"is_disabled":false,"rental_uris":{"android":"levelo://app?vid=c1a75a9a-f72f-46e6-b76b-9bb720ad187b","ios":"levelo://app?vid=c1a75a9a-f72f-46e6-b76b-9bb720ad187b"},"vehicle_type_id":"4","last_reported":1685484410,"current_range_meters":31200,"station_id":"ce4bhb12rcd13ifvqel0","pricing_plan_id":"free"},{"bike_id":"06ea85e9-8d7f-4f7e-b1e8-69bd60535abd","system_id":"levelo_inurba_marseille","lat":43.291994,"lon":5.357886,"is_reserved":false,"is_disabled":false,"rental_uris":{"android":"levelo://app?vid=06ea85e9-8d7f-4f7e-b1e8-69bd60535abd","ios":"levelo://app?vid=06ea85e9-8d7f-4f7e-b1e8-69bd60535abd"},"vehicle_type_id":"4","last_reported":1685484410,"current_range_meters":31200,"station_id":"ce4bhb12rcd13ifvqel0","pricing_plan_id":"free"},{"bike_id":"cbd76196-25d2-4a10-9416-f1dbe2237a8a","system_id":"levelo_inurba_marseille","lat":43.313291,"lon":5.396838,"is_reserved":false,"is_disabled":false,"rental_uris":{"android":"levelo://app?vid=cbd76196-25d2-4a10-9416-f1dbe2237a8a","ios":"levelo://app?vid=cbd76196-25d2-4a10-9416-f1dbe2237a8a"},"vehicle_type_id":"4","last_reported":1685484410,"current_range_meters":7200,"station_id":"ce4bgvp2rcd13ifvqcu0","pricing_plan_id":"free"},{"bike_id":"4e9a0eaf-87b4-4c37-9af5-3f9a9500c766","system_id":"levelo_inurba_marseille","lat":43.29188,"lon":5.358,"is_reserved":false,"is_disabled":false,"rental_uris":{"android":"levelo://app?vid=4e9a0eaf-87b4-4c37-9af5-3f9a9500c766","ios":"levelo://app?vid=4e9a0eaf-87b4-4c37-9af5-3f9a9500c766"},"vehicle_type_id":"4","last_reported":1685484410,"current_range_meters":0,"station_id":"ce4bhb12rcd13ifvqel0","pricing_plan_id":"free"},{"bike_id":"04ce4d69-0dc2-4b1f-8c3c-2ffa59dc0eb9","system_id":"levelo_inurba_marseille","lat":43.313291,"lon":5.396838,"is_reserved":false,"is_disabled":false,"rental_uris":{"android":"levelo://app?vid=04ce4d69-0dc2-4b1f-8c3c-2ffa59dc0eb9","ios":"levelo://app?vid=04ce4d69-0dc2-4b1f-8c3c-2ffa59dc0eb9"},"vehicle_type_id":"4","last_reported":1685484410,"current_range_meters":7200,"station_id":"ce4bgvp2rcd13ifvqcu0","pricing_plan_id":"free"},{"bike_id":"62a96452-6deb-48f1-9690-4b0a043e20a2","system_id":"levelo_inurba_marseille","lat":43.309038,"lon":5.396546,"is_reserved":false,"is_disabled":false,"rental_uris":{"android":"levelo://app?vid=62a96452-6deb-48f1-9690-4b0a043e20a2","ios":"levelo://app?vid=62a96452-6deb-48f1-9690-4b0a043e20a2"},"vehicle_type_id":"4","last_reported":1685484410,"current_range_meters":23200,"station_id":"ce4bh012rcd13ifvqcv0","pricing_plan_id":"free"},{"bike_id":"fcc7c5c4-a3ff-4ef0-8c37-dd7ec7f9a968","system_id":"levelo_inurba_marseille","lat":43.29185,"lon":5.35803,"is_reserved":false,"is_disabled":false,"rental_uris":{"android":"levelo://app?vid=fcc7c5c4-a3ff-4ef0-8c37-dd7ec7f9a968","ios":"levelo://app?vid=fcc7c5c4-a3ff-4ef0-8c37-dd7ec7f9a968"},"vehicle_type_id":"4","last_reported":1685484410,"current_range_meters":31200,"station_id":"","pricing_plan_id":"free"},{"bike_id":"e8e94dc6-2dee-40e3-b4ea-4ea0081092dc","system_id":"levelo_inurba_marseille","lat":43.291994,"lon":5.357886,"is_reserved":false,"is_disabled":false,"rental_uris":{"android":"levelo://app?vid=e8e94dc6-2dee-40e3-b4ea-4ea0081092dc","ios":"levelo://app?vid=e8e94dc6-2dee-40e3-b4ea-4ea0081092dc"},"vehicle_type_id":"4","last_reported":1685484410,"current_range_meters":31200,"station_id":"ce4bhb12rcd13ifvqel0","pricing_plan_id":"free"},{"bike_id":"fbd6adc3-6fc4-4df6-a708-fd6f404aa006","system_id":"levelo_inurba_marseille","lat":43.291994,"lon":5.357886,"is_reserved":false,"is_disabled":false,"rental_uris":{"android":"levelo://app?vid=fbd6adc3-6fc4-4df6-a708-fd6f404aa006","ios":"levelo://app?vid=fbd6adc3-6fc4-4df6-a708-fd6f404aa006"},"vehicle_type_id":"4","last_reported":1685484410,"current_range_meters":31200,"station_id":"ce4bhb12rcd13ifvqel0","pricing_plan_id":"free"},{"bike_id":"9fb1c38f-584e-46f1-a54a-ff83a711ddd6","system_id":"levelo_inurba_marseille","lat":43.309038,"lon":5.396546,"is_reserved":false,"is_disabled":false,"rental_uris":{"android":"levelo://app?vid=9fb1c38f-584e-46f1-a54a-ff83a711ddd6","ios":"levelo://app?vid=9fb1c38f-584e-46f1-a54a-ff83a711ddd6"},"vehicle_type_id":"4","last_reported":1685484410,"current_range_meters":19600,"station_id":"ce4bh012rcd13ifvqcv0","pricing_plan_id":"free"},{"bike_id":"9240270b-aa8f-45f2-bee8-97784f3b87c7","system_id":"levelo_inurba_marseille","lat":43.29529,"lon":5.38516,"is_reserved":false,"is_disabled":false,"rental_uris":{"android":"levelo://app?vid=9240270b-aa8f-45f2-bee8-97784f3b87c7","ios":"levelo://app?vid=9240270b-aa8f-45f2-bee8-97784f3b87c7"},"vehicle_type_id":"4","last_reported":1685484410,"current_range_meters":8400,"station_id":"","pricing_plan_id":"free"},{"bike_id":"27a4b560-cdfa-499b-8263-bc04759bba01","system_id":"levelo_inurba_marseille","lat":43.29529,"lon":5.385581,"is_reserved":false,"is_disabled":false,"rental_uris":{"android":"levelo://app?vid=27a4b560-cdfa-499b-8263-bc04759bba01","ios":"levelo://app?vid=27a4b560-cdfa-499b-8263-bc04759bba01"},"vehicle_type_id":"4","last_reported":1685484410,"current_range_meters":19600,"station_id":"ce4bgih2rcd13ifvqba0","pricing_plan_id":"free"},{"bike_id":"3b054fc9-0fdb-461c-8db9-97c1e16173a2","system_id":"levelo_inurba_marseille","lat":43.29528,"lon":5.38545,"is_reserved":false,"is_disabled":false,"rental_uris":{"android":"levelo://app?vid=3b054fc9-0fdb-461c-8db9-97c1e16173a2","ios":"levelo://app?vid=3b054fc9-0fdb-461c-8db9-97c1e16173a2"},"vehicle_type_id":"4","last_reported":1685484410,"current_range_meters":0,"station_id":"ce4bgih2rcd13ifvqba0","pricing_plan_id":"free"},{"bike_id":"44dadcb9-9f3c-4b9d-be82-fe2591c63072","system_id":"levelo_inurba_marseille","lat":43.289184,"lon":5.366408,"is_reserved":false,"is_disabled":false,"rental_uris":{"android":"levelo://app?vid=44dadcb9-9f3c-4b9d-be82-fe2591c63072","ios":"levelo://app?vid=44dadcb9-9f3c-4b9d-be82-fe2591c63072"},"vehicle_type_id":"4","last_reported":1685484410,"current_range_meters":9600,"station_id":"ce4bhap2rcd13ifvqek0","pricing_plan_id":"free"},{"bike_id":"0f2cf4fb-4c49-4753-ada5-20fd75ae1c73","system_id":"levelo_inurba_marseille","lat":43.289468,"lon":5.363719,"is_reserved":false,"is_disabled":false,"rental_uris":{"android":"levelo://app?vid=0f2cf4fb-4c49-4753-ada5-20fd75ae1c73","ios":"levelo://app?vid=0f2cf4fb-4c49-4753-ada5-20fd75ae1c73"},"vehicle_type_id":"4","last_reported":1685484410,"current_range_meters":11200,"station_id":"ce4bhc92rcd13ifvqetg","pricing_plan_id":"free"},{"bike_id":"8a7da7a7-c441-46d4-a7d1-d4b929cb0c84","system_id":"levelo_inurba_marseille","lat":43.289468,"lon":5.363719,"is_reserved":false,"is_disabled":false,"rental_uris":{"android":"levelo://app?vid=8a7da7a7-c441-46d4-a7d1-d4b929cb0c84","ios":"levelo://app?vid=8a7da7a7-c441-46d4-a7d1-d4b929cb0c84"},"vehicle_type_id":"4","last_reported":1685484410,"current_range_meters":29200,"station_id":"ce4bhc92rcd13ifvqetg","pricing_plan_id":"free"},{"bike_id":"60420cf4-3b82-4648-be0e-9089e403318d","system_id":"levelo_inurba_marseille","lat":43.33043,"lon":5.38909,"is_reserved":false,"is_disabled":false,"rental_uris":{"android":"levelo://app?vid=60420cf4-3b82-4648-be0e-9089e403318d","ios":"levelo://app?vid=60420cf4-3b82-4648-be0e-9089e403318d"},"vehicle_type_id":"4","last_reported":1685484410,"current_range_meters":21600,"station_id":"ce4bhr92rcd13ifvqhrg","pricing_plan_id":"free"},{"bike_id":"fc3299c6-1d72-487d-ba07-6cfc0fb311dc","system_id":"levelo_inurba_marseille","lat":43.3304,"lon":5.38914,"is_reserved":false,"is_disabled":false,"rental_uris":{"android":"levelo://app?vid=fc3299c6-1d72-487d-ba07-6cfc0fb311dc","ios":"levelo://app?vid=fc3299c6-1d72-487d-ba07-6cfc0fb311dc"},"vehicle_type_id":"4","last_reported":1685484410,"current_range_meters":23200,"station_id":"ce4bhr92rcd13ifvqhrg","pricing_plan_id":"free"},{"bike_id":"8a189623-63fb-4c2a-846b-aa33f34b5cfd","system_id":"levelo_inurba_marseille","lat":43.33035,"lon":5.38924,"is_reserved":false,"is_disabled":false,"rental_uris":{"android":"levelo://app?vid=8a189623-63fb-4c2a-846b-aa33f34b5cfd","ios":"levelo://app?vid=8a189623-63fb-4c2a-846b-aa33f34b5cfd"},"vehicle_type_id":"4","last_reported":1685484410,"current_range_meters":25200,"station_id":"ce4bhr92rcd13ifvqhrg","pricing_plan_id":"free"},{"bike_id":"9fda4b32-966e-4aba-96ef-41f727f15bba","system_id":"levelo_inurba_marseille","lat":43.33045,"lon":5.3891,"is_reserved":false,"is_disabled":false,"rental_uris":{"android":"levelo://app?vid=9fda4b32-966e-4aba-96ef-41f727f15bba","ios":"levelo://app?vid=9fda4b32-966e-4aba-96ef-41f727f15bba"},"vehicle_type_id":"4","last_reported":1685484410,"current_range_meters":25200,"station_id":"ce4bhr92rcd13ifvqhrg","pricing_plan_id":"free"},{"bike_id":"69f87366-090d-4bc0-9758-0f42d6ed45ce","system_id":"levelo_inurba_marseille","lat":43.33041,"lon":5.38919,"is_reserved":false,"is_disabled":false,"rental_uris":{"android":"levelo://app?vid=69f87366-090d-4bc0-9758-0f42d6ed45ce","ios":"levelo://app?vid=69f87366-090d-4bc0-9758-0f42d6ed45ce"},"vehicle_type_id":"4","last_reported":1685484410,"current_range_meters":24000,"station_id":"ce4bhr92rcd13ifvqhrg","pricing_plan_id":"free"},{"bike_id":"12864b0e-1999-49e8-96bc-e85377e156dc","system_id":"levelo_inurba_marseille","lat":43.33041,"lon":5.3892,"is_reserved":false,"is_disabled":false,"rental_uris":{"android":"levelo://app?vid=12864b0e-1999-49e8-96bc-e85377e156dc","ios":"levelo://app?vid=12864b0e-1999-49e8-96bc-e85377e156dc"},"vehicle_type_id":"4","last_reported":1685484410,"current_range_meters":5200,"station_id":"ce4bhr92rcd13ifvqhrg","pricing_plan_id":"free"},{"bike_id":"ab12f796-137d-4e28-95ee-ac5af904c7f8","system_id":"levelo_inurba_marseille","lat":43.33038,"lon":5.38926,"is_reserved":false,"is_disabled":false,"rental_uris":{"android":"levelo://app?vid=ab12f796-137d-4e28-95ee-ac5af904c7f8","ios":"levelo://app?vid=ab12f796-137d-4e28-95ee-ac5af904c7f8"},"vehicle_type_id":"4","last_reported":1685484410,"current_range_meters":24800,"station_id":"ce4bhr92rcd13ifvqhrg","pricing_plan_id":"free"},{"bike_id":"4f7803a6-3392-44b5-aa81-dde8a03de0fc","system_id":"levelo_inurba_marseille","lat":43.33044,"lon":5.38918,"is_reserved":false,"is_disabled":false,"rental_uris":{"android":"levelo://app?vid=4f7803a6-3392-44b5-aa81-dde8a03de0fc","ios":"levelo://app?vid=4f7803a6-3392-44b5-aa81-dde8a03de0fc"},"vehicle_type_id":"4","last_reported":1685484410,"current_range_meters":15600,"station_id":"ce4bhr92rcd13ifvqhrg","pricing_plan_id":"free"},{"bike_id":"e17b760b-3b7c-4e64-a8af-9d845037c413","system_id":"levelo_inurba_marseille","lat":43.33045,"lon":5.38917,"is_reserved":false,"is_disabled":false,"rental_uris":{"android":"levelo://app?vid=e17b760b-3b7c-4e64-a8af-9d845037c413","ios":"levelo://app?vid=e17b760b-3b7c-4e64-a8af-9d845037c413"},"vehicle_type_id":"4","last_reported":1685484410,"current_range_meters":27200,"station_id":"ce4bhr92rcd13ifvqhrg","pricing_plan_id":"free"},{"bike_id":"350c384e-357a-4fb1-a3ed-7d71c088d7a4","system_id":"levelo_inurba_marseille","lat":43.290104,"lon":5.356111,"is_reserved":false,"is_disabled":false,"rental_uris":{"android":"levelo://app?vid=350c384e-357a-4fb1-a3ed-7d71c088d7a4","ios":"levelo://app?vid=350c384e-357a-4fb1-a3ed-7d71c088d7a4"},"vehicle_type_id":"4","last_reported":1685484410,"current_range_meters":28800,"station_id":"ce4bhb92rcd13ifvqen0","pricing_plan_id":"free"},{"bike_id":"467af7d8-93f8-4c2c-be3e-26fa7e226626","system_id":"levelo_inurba_marseille","lat":43.290103,"lon":5.356114,"is_reserved":false,"is_disabled":false,"rental_uris":{"android":"levelo://app?vid=467af7d8-93f8-4c2c-be3e-26fa7e226626","ios":"levelo://app?vid=467af7d8-93f8-4c2c-be3e-26fa7e226626"},"vehicle_type_id":"4","last_reported":1685484410,"current_range_meters":31200,"station_id":"ce4bhb92rcd13ifvqen0","pricing_plan_id":"free"},{"bike_id":"214cd52b-86dc-4d7c-b8c8-656e445142b6","system_id":"levelo_inurba_marseille","lat":43.330454,"lon":5.389224,"is_reserved":false,"is_disabled":false,"rental_uris":{"android":"levelo://app?vid=214cd52b-86dc-4d7c-b8c8-656e445142b6","ios":"levelo://app?vid=214cd52b-86dc-4d7c-b8c8-656e445142b6"},"vehicle_type_id":"4","last_reported":1685484410,"current_range_meters":28800,"station_id":"","pricing_plan_id":"free"},{"bike_id":"0f131166-1ac4-462b-95af-b6eb64cf7f18","system_id":"levelo_inurba_marseille","lat":43.33044,"lon":5.38926,"is_reserved":false,"is_disabled":false,"rental_uris":{"android":"levelo://app?vid=0f131166-1ac4-462b-95af-b6eb64cf7f18","ios":"levelo://app?vid=0f131166-1ac4-462b-95af-b6eb64cf7f18"},"vehicle_type_id":"4","last_reported":1685484410,"current_range_meters":24400,"station_id":"ce4bhr92rcd13ifvqhrg","pricing_plan_id":"free"},{"bike_id":"cb582382-ad88-4521-bbea-3be9b991f8ed","system_id":"levelo_inurba_marseille","lat":43.290104,"lon":5.356111,"is_reserved":false,"is_disabled":false,"rental_uris":{"android":"levelo://app?vid=cb582382-ad88-4521-bbea-3be9b991f8ed","ios":"levelo://app?vid=cb582382-ad88-4521-bbea-3be9b991f8ed"},"vehicle_type_id":"4","last_reported":1685484410,"current_range_meters":31200,"station_id":"ce4bhb92rcd13ifvqen0","pricing_plan_id":"free"},{"bike_id":"5aa3fb2e-d821-4550-bc98-e0bc04749237","system_id":"levelo_inurba_marseille","lat":43.290103,"lon":5.356114,"is_reserved":false,"is_disabled":false,"rental_uris":{"android":"levelo://app?vid=5aa3fb2e-d821-4550-bc98-e0bc04749237","ios":"levelo://app?vid=5aa3fb2e-d821-4550-bc98-e0bc04749237"},"vehicle_type_id":"4","last_reported":1685484410,"current_range_meters":31200,"station_id":"ce4bhb92rcd13ifvqen0","pricing_plan_id":"free"},{"bike_id":"be115698-ed9e-4818-8cb1-06cf0878778d","system_id":"levelo_inurba_marseille","lat":43.291024,"lon":5.381386,"is_reserved":false,"is_disabled":false,"rental_uris":{"android":"levelo://app?vid=be115698-ed9e-4818-8cb1-06cf0878778d","ios":"levelo://app?vid=be115698-ed9e-4818-8cb1-06cf0878778d"},"vehicle_type_id":"4","last_reported":1685484410,"current_range_meters":2000,"station_id":"","pricing_plan_id":"free"},{"bike_id":"a28eb57b-767b-4257-be61-b77082e471e4","system_id":"levelo_inurba_marseille","lat":43.290164,"lon":5.381274,"is_reserved":false,"is_disabled":false,"rental_uris":{"android":"levelo://app?vid=a28eb57b-767b-4257-be61-b77082e471e4","ios":"levelo://app?vid=a28eb57b-767b-4257-be61-b77082e471e4"},"vehicle_type_id":"4","last_reported":1685484410,"current_range_meters":7200,"station_id":"ce4bgt12rcd13ifvqcd0","pricing_plan_id":"free"},{"bike_id":"4fb3a8f8-45ef-40b1-b678-fc899cfcef48","system_id":"levelo_inurba_marseille","lat":43.28856,"lon":5.358371,"is_reserved":false,"is_disabled":false,"rental_uris":{"android":"levelo://app?vid=4fb3a8f8-45ef-40b1-b678-fc899cfcef48","ios":"levelo://app?vid=4fb3a8f8-45ef-40b1-b678-fc899cfcef48"},"vehicle_type_id":"4","last_reported":1685484410,"current_range_meters":27200,"station_id":"ce4bhb12rcd13ifvqem0","pricing_plan_id":"free"},{"bike_id":"b97b511a-a8b4-4a93-8e02-ff1a0f0c893e","system_id":"levelo_inurba_marseille","lat":43.28856,"lon":5.358371,"is_reserved":false,"is_disabled":false,"rental_uris":{"android":"levelo://app?vid=b97b511a-a8b4-4a93-8e02-ff1a0f0c893e","ios":"levelo://app?vid=b97b511a-a8b4-4a93-8e02-ff1a0f0c893e"},"vehicle_type_id":"4","last_reported":1685484410,"current_range_meters":20000,"station_id":"ce4bhb12rcd13ifvqem0","pricing_plan_id":"free"},{"bike_id":"82fb39aa-7165-41fc-92aa-403bbd9a72f7","system_id":"levelo_inurba_marseille","lat":43.28849,"lon":5.35841,"is_reserved":false,"is_disabled":false,"rental_uris":{"android":"levelo://app?vid=82fb39aa-7165-41fc-92aa-403bbd9a72f7","ios":"levelo://app?vid=82fb39aa-7165-41fc-92aa-403bbd9a72f7"},"vehicle_type_id":"4","last_reported":1685484410,"current_range_meters":0,"station_id":"ce4bhb12rcd13ifvqem0","pricing_plan_id":"free"},{"bike_id":"fb83ae1c-54d8-4b9c-b81f-4865ad9627b0","system_id":"levelo_inurba_marseille","lat":43.286591,"lon":5.363346,"is_reserved":false,"is_disabled":false,"rental_uris":{"android":"levelo://app?vid=fb83ae1c-54d8-4b9c-b81f-4865ad9627b0","ios":"levelo://app?vid=fb83ae1c-54d8-4b9c-b81f-4865ad9627b0"},"vehicle_type_id":"4","last_reported":1685484410,"current_range_meters":0,"station_id":"ce4bhah2rcd13ifvqej0","pricing_plan_id":"free"},{"bike_id":"141c14ea-594b-43ee-894e-8c44af1dcd73","system_id":"levelo_inurba_marseille","lat":43.33741,"lon":5.37457,"is_reserved":false,"is_disabled":false,"rental_uris":{"android":"levelo://app?vid=141c14ea-594b-43ee-894e-8c44af1dcd73","ios":"levelo://app?vid=141c14ea-594b-43ee-894e-8c44af1dcd73"},"vehicle_type_id":"4","last_reported":1685484410,"current_range_meters":28000,"station_id":"","pricing_plan_id":"free"},{"bike_id":"6d678481-0e0b-436a-aa94-9d12fa2c91f5","system_id":"levelo_inurba_marseille","lat":43.33748,"lon":5.3743,"is_reserved":false,"is_disabled":false,"rental_uris":{"android":"levelo://app?vid=6d678481-0e0b-436a-aa94-9d12fa2c91f5","ios":"levelo://app?vid=6d678481-0e0b-436a-aa94-9d12fa2c91f5"},"vehicle_type_id":"4","last_reported":1685484410,"current_range_meters":30000,"station_id":"","pricing_plan_id":"free"},{"bike_id":"556c6db1-2600-4c2b-9521-aae8453517c1","system_id":"levelo_inurba_marseille","lat":43.33751,"lon":5.37445,"is_reserved":false,"is_disabled":false,"rental_uris":{"android":"levelo://app?vid=556c6db1-2600-4c2b-9521-aae8453517c1","ios":"levelo://app?vid=556c6db1-2600-4c2b-9521-aae8453517c1"},"vehicle_type_id":"4","last_reported":1685484410,"current_range_meters":4000,"station_id":"","pricing_plan_id":"free"},{"bike_id":"60365b11-ef18-42d8-96a4-e4f2839d6bb5","system_id":"levelo_inurba_marseille","lat":43.33759,"lon":5.37451,"is_reserved":false,"is_disabled":false,"rental_uris":{"android":"levelo://app?vid=60365b11-ef18-42d8-96a4-e4f2839d6bb5","ios":"levelo://app?vid=60365b11-ef18-42d8-96a4-e4f2839d6bb5"},"vehicle_type_id":"4","last_reported":1685484410,"current_range_meters":29600,"station_id":"","pricing_plan_id":"free"},{"bike_id":"9cfb7c24-c245-4d1a-ae96-510492ac389a","system_id":"levelo_inurba_marseille","lat":43.30642,"lon":5.401031,"is_reserved":false,"is_disabled":false,"rental_uris":{"android":"levelo://app?vid=9cfb7c24-c245-4d1a-ae96-510492ac389a","ios":"levelo://app?vid=9cfb7c24-c245-4d1a-ae96-510492ac389a"},"vehicle_type_id":"4","last_reported":1685484410,"current_range_meters":800,"station_id":"ce4bh112rcd13ifvqda0","pricing_plan_id":"free"},{"bike_id":"61c719db-daae-4f13-b259-d05f297b4a6f","system_id":"levelo_inurba_marseille","lat":43.33771,"lon":5.37465,"is_reserved":false,"is_disabled":false,"rental_uris":{"android":"levelo://app?vid=61c719db-daae-4f13-b259-d05f297b4a6f","ios":"levelo://app?vid=61c719db-daae-4f13-b259-d05f297b4a6f"},"vehicle_type_id":"4","last_reported":1685484410,"current_range_meters":27600,"station_id":"","pricing_plan_id":"free"},{"bike_id":"00da35a5-2e39-42c8-aef7-a58fb6f6817f","system_id":"levelo_inurba_marseille","lat":43.298681,"lon":5.397225,"is_reserved":false,"is_disabled":false,"rental_uris":{"android":"levelo://app?vid=00da35a5-2e39-42c8-aef7-a58fb6f6817f","ios":"levelo://app?vid=00da35a5-2e39-42c8-aef7-a58fb6f6817f"},"vehicle_type_id":"4","last_reported":1685484410,"current_range_meters":1200,"station_id":"ce4bh0h2rcd13ifvqd50","pricing_plan_id":"free"},{"bike_id":"2f1bc252-6b14-4245-a18f-f98862c9e5ff","system_id":"levelo_inurba_marseille","lat":43.28711,"lon":5.37393,"is_reserved":false,"is_disabled":false,"rental_uris":{"android":"levelo://app?vid=2f1bc252-6b14-4245-a18f-f98862c9e5ff","ios":"levelo://app?vid=2f1bc252-6b14-4245-a18f-f98862c9e5ff"},"vehicle_type_id":"4","last_reported":1685484410,"current_range_meters":11600,"station_id":"","pricing_plan_id":"free"},{"bike_id":"26ffa246-1f6b-49fd-9824-44b92fc56d19","system_id":"levelo_inurba_marseille","lat":43.28707,"lon":5.37393,"is_reserved":false,"is_disabled":false,"rental_uris":{"android":"levelo://app?vid=26ffa246-1f6b-49fd-9824-44b92fc56d19","ios":"levelo://app?vid=26ffa246-1f6b-49fd-9824-44b92fc56d19"},"vehicle_type_id":"4","last_reported":1685484410,"current_range_meters":22000,"station_id":"","pricing_plan_id":"free"},{"bike_id":"97f4eb4b-5f19-4f80-b124-f67e45d61994","system_id":"levelo_inurba_marseille","lat":43.28705,"lon":5.3739,"is_reserved":false,"is_disabled":false,"rental_uris":{"android":"levelo://app?vid=97f4eb4b-5f19-4f80-b124-f67e45d61994","ios":"levelo://app?vid=97f4eb4b-5f19-4f80-b124-f67e45d61994"},"vehicle_type_id":"4","last_reported":1685484410,"current_range_meters":10400,"station_id":"","pricing_plan_id":"free"},{"bike_id":"bef9e35a-5326-48a9-87f8-6c7e381be40b","system_id":"levelo_inurba_marseille","lat":43.286591,"lon":5.363346,"is_reserved":false,"is_disabled":false,"rental_uris":{"android":"levelo://app?vid=bef9e35a-5326-48a9-87f8-6c7e381be40b","ios":"levelo://app?vid=bef9e35a-5326-48a9-87f8-6c7e381be40b"},"vehicle_type_id":"4","last_reported":1685484410,"current_range_meters":16400,"station_id":"ce4bhah2rcd13ifvqej0","pricing_plan_id":"free"},{"bike_id":"075851ff-039e-4470-97c6-dcadceaa048f","system_id":"levelo_inurba_marseille","lat":43.28662,"lon":5.36359,"is_reserved":false,"is_disabled":false,"rental_uris":{"android":"levelo://app?vid=075851ff-039e-4470-97c6-dcadceaa048f","ios":"levelo://app?vid=075851ff-039e-4470-97c6-dcadceaa048f"},"vehicle_type_id":"4","last_reported":1685484410,"current_range_meters":14800,"station_id":"ce4bhah2rcd13ifvqej0","pricing_plan_id":"free"},{"bike_id":"e5f85023-2bb8-464c-8f56-fc631c21752c","system_id":"levelo_inurba_marseille","lat":43.295194,"lon":5.39397,"is_reserved":false,"is_disabled":false,"rental_uris":{"android":"levelo://app?vid=e5f85023-2bb8-464c-8f56-fc631c21752c","ios":"levelo://app?vid=e5f85023-2bb8-464c-8f56-fc631c21752c"},"vehicle_type_id":"4","last_reported":1685484410,"current_range_meters":14000,"station_id":"ce4bh292rcd13ifvqdf0","pricing_plan_id":"free"},{"bike_id":"9b3ec492-d5fb-4275-85f3-a45f1934d4d9","system_id":"levelo_inurba_marseille","lat":43.290336,"lon":5.386425,"is_reserved":false,"is_disabled":false,"rental_uris":{"android":"levelo://app?vid=9b3ec492-d5fb-4275-85f3-a45f1934d4d9","ios":"levelo://app?vid=9b3ec492-d5fb-4275-85f3-a45f1934d4d9"},"vehicle_type_id":"4","last_reported":1685484410,"current_range_meters":22800,"station_id":"ce4bh4p2rcd13ifvqe0g","pricing_plan_id":"free"},{"bike_id":"25c92fe7-4c82-49a7-ae5d-a6de5a8903c6","system_id":"levelo_inurba_marseille","lat":43.302759,"lon":5.400793,"is_reserved":false,"is_disabled":false,"rental_uris":{"android":"levelo://app?vid=25c92fe7-4c82-49a7-ae5d-a6de5a8903c6","ios":"levelo://app?vid=25c92fe7-4c82-49a7-ae5d-a6de5a8903c6"},"vehicle_type_id":"4","last_reported":1685484410,"current_range_meters":8000,"station_id":"ce4bgvh2rcd13ifvqcs0","pricing_plan_id":"free"},{"bike_id":"7812dacd-2ca4-4911-8f51-a30da7c093d8","system_id":"levelo_inurba_marseille","lat":43.302759,"lon":5.400793,"is_reserved":false,"is_disabled":false,"rental_uris":{"android":"levelo://app?vid=7812dacd-2ca4-4911-8f51-a30da7c093d8","ios":"levelo://app?vid=7812dacd-2ca4-4911-8f51-a30da7c093d8"},"vehicle_type_id":"4","last_reported":1685484410,"current_range_meters":15200,"station_id":"ce4bgvh2rcd13ifvqcs0","pricing_plan_id":"free"},{"bike_id":"e405f402-b10f-49d4-a642-f6753d6c59a6","system_id":"levelo_inurba_marseille","lat":43.302546,"lon":5.400822,"is_reserved":false,"is_disabled":false,"rental_uris":{"android":"levelo://app?vid=e405f402-b10f-49d4-a642-f6753d6c59a6","ios":"levelo://app?vid=e405f402-b10f-49d4-a642-f6753d6c59a6"},"vehicle_type_id":"4","last_reported":1685484410,"current_range_meters":16800,"station_id":"","pricing_plan_id":"free"},{"bike_id":"2d7b6465-c978-48cc-a919-63da2c2f0981","system_id":"levelo_inurba_marseille","lat":43.286039,"lon":5.370679,"is_reserved":false,"is_disabled":false,"rental_uris":{"android":"levelo://app?vid=2d7b6465-c978-48cc-a919-63da2c2f0981","ios":"levelo://app?vid=2d7b6465-c978-48cc-a919-63da2c2f0981"},"vehicle_type_id":"4","last_reported":1685484410,"current_range_meters":27200,"station_id":"ce4bht12rcd13ifvqi60","pricing_plan_id":"free"},{"bike_id":"de01592f-bc93-4d53-8027-b5409b2bd3a8","system_id":"levelo_inurba_marseille","lat":43.287184,"lon":5.37937,"is_reserved":false,"is_disabled":false,"rental_uris":{"android":"levelo://app?vid=de01592f-bc93-4d53-8027-b5409b2bd3a8","ios":"levelo://app?vid=de01592f-bc93-4d53-8027-b5409b2bd3a8"},"vehicle_type_id":"4","last_reported":1685484410,"current_range_meters":14400,"station_id":"ce4bh9p2rcd13ifvqec0","pricing_plan_id":"free"},{"bike_id":"89d892ea-6098-4cd2-b4c9-e679c29d1310","system_id":"levelo_inurba_marseille","lat":43.287185,"lon":5.379373,"is_reserved":false,"is_disabled":false,"rental_uris":{"android":"levelo://app?vid=89d892ea-6098-4cd2-b4c9-e679c29d1310","ios":"levelo://app?vid=89d892ea-6098-4cd2-b4c9-e679c29d1310"},"vehicle_type_id":"4","last_reported":1685484410,"current_range_meters":30000,"station_id":"ce4bh9p2rcd13ifvqec0","pricing_plan_id":"free"},{"bike_id":"162b6ccf-e42b-4348-b92b-73d019665e1e","system_id":"levelo_inurba_marseille","lat":43.287184,"lon":5.37937,"is_reserved":false,"is_disabled":false,"rental_uris":{"android":"levelo://app?vid=162b6ccf-e42b-4348-b92b-73d019665e1e","ios":"levelo://app?vid=162b6ccf-e42b-4348-b92b-73d019665e1e"},"vehicle_type_id":"4","last_reported":1685484410,"current_range_meters":6000,"station_id":"ce4bh9p2rcd13ifvqec0","pricing_plan_id":"free"},{"bike_id":"7b255a8b-e742-476f-991a-1d347feee7ad","system_id":"levelo_inurba_marseille","lat":43.287184,"lon":5.37937,"is_reserved":false,"is_disabled":false,"rental_uris":{"android":"levelo://app?vid=7b255a8b-e742-476f-991a-1d347feee7ad","ios":"levelo://app?vid=7b255a8b-e742-476f-991a-1d347feee7ad"},"vehicle_type_id":"4","last_reported":1685484410,"current_range_meters":20400,"station_id":"ce4bh9p2rcd13ifvqec0","pricing_plan_id":"free"},{"bike_id":"a924e642-100e-49b7-b5db-783900567f14","system_id":"levelo_inurba_marseille","lat":43.287185,"lon":5.379373,"is_reserved":false,"is_disabled":false,"rental_uris":{"android":"levelo://app?vid=a924e642-100e-49b7-b5db-783900567f14","ios":"levelo://app?vid=a924e642-100e-49b7-b5db-783900567f14"},"vehicle_type_id":"4","last_reported":1685484410,"current_range_meters":21200,"station_id":"ce4bh9p2rcd13ifvqec0","pricing_plan_id":"free"},{"bike_id":"022ee839-8ec5-4a6f-b636-13629be8be2e","system_id":"levelo_inurba_marseille","lat":43.287185,"lon":5.379373,"is_reserved":false,"is_disabled":false,"rental_uris":{"android":"levelo://app?vid=022ee839-8ec5-4a6f-b636-13629be8be2e","ios":"levelo://app?vid=022ee839-8ec5-4a6f-b636-13629be8be2e"},"vehicle_type_id":"4","last_reported":1685484410,"current_range_meters":24400,"station_id":"ce4bh9p2rcd13ifvqec0","pricing_plan_id":"free"},{"bike_id":"6f3bb196-62e4-4c31-944d-a53d6aa676da","system_id":"levelo_inurba_marseille","lat":43.287185,"lon":5.379373,"is_reserved":false,"is_disabled":false,"rental_uris":{"android":"levelo://app?vid=6f3bb196-62e4-4c31-944d-a53d6aa676da","ios":"levelo://app?vid=6f3bb196-62e4-4c31-944d-a53d6aa676da"},"vehicle_type_id":"4","last_reported":1685484410,"current_range_meters":9200,"station_id":"ce4bh9p2rcd13ifvqec0","pricing_plan_id":"free"},{"bike_id":"0b9e5f8f-7f81-4d39-a343-14c9b9be1d78","system_id":"levelo_inurba_marseille","lat":43.316517,"lon":5.404375,"is_reserved":false,"is_disabled":false,"rental_uris":{"android":"levelo://app?vid=0b9e5f8f-7f81-4d39-a343-14c9b9be1d78","ios":"levelo://app?vid=0b9e5f8f-7f81-4d39-a343-14c9b9be1d78"},"vehicle_type_id":"4","last_reported":1685484410,"current_range_meters":8400,"station_id":"ce4bh012rcd13ifvqd00","pricing_plan_id":"free"},{"bike_id":"e1fbe19c-d466-45a5-bc79-78c1421f5149","system_id":"levelo_inurba_marseille","lat":43.316517,"lon":5.404375,"is_reserved":false,"is_disabled":false,"rental_uris":{"android":"levelo://app?vid=e1fbe19c-d466-45a5-bc79-78c1421f5149","ios":"levelo://app?vid=e1fbe19c-d466-45a5-bc79-78c1421f5149"},"vehicle_type_id":"4","last_reported":1685484410,"current_range_meters":4000,"station_id":"ce4bh012rcd13ifvqd00","pricing_plan_id":"free"},{"bike_id":"4b8210c3-cb6a-4498-9dcb-8d99971e4883","system_id":"levelo_inurba_marseille","lat":43.316517,"lon":5.404375,"is_reserved":false,"is_disabled":false,"rental_uris":{"android":"levelo://app?vid=4b8210c3-cb6a-4498-9dcb-8d99971e4883","ios":"levelo://app?vid=4b8210c3-cb6a-4498-9dcb-8d99971e4883"},"vehicle_type_id":"4","last_reported":1685484410,"current_range_meters":1600,"station_id":"ce4bh012rcd13ifvqd00","pricing_plan_id":"free"},{"bike_id":"f9e8bd25-a958-40ec-8b04-8ebbe4392fef","system_id":"levelo_inurba_marseille","lat":43.28462,"lon":5.35891,"is_reserved":false,"is_disabled":false,"rental_uris":{"android":"levelo://app?vid=f9e8bd25-a958-40ec-8b04-8ebbe4392fef","ios":"levelo://app?vid=f9e8bd25-a958-40ec-8b04-8ebbe4392fef"},"vehicle_type_id":"4","last_reported":1685484410,"current_range_meters":30000,"station_id":"ce4bhah2rcd13ifvqei0","pricing_plan_id":"free"},{"bike_id":"6e501417-b501-4677-88f6-36aa41b7f74a","system_id":"levelo_inurba_marseille","lat":43.284534,"lon":5.358662,"is_reserved":false,"is_disabled":false,"rental_uris":{"android":"levelo://app?vid=6e501417-b501-4677-88f6-36aa41b7f74a","ios":"levelo://app?vid=6e501417-b501-4677-88f6-36aa41b7f74a"},"vehicle_type_id":"4","last_reported":1685484410,"current_range_meters":18400,"station_id":"ce4bhah2rcd13ifvqei0","pricing_plan_id":"free"},{"bike_id":"54e32d61-a29f-44af-8f30-a74ebc961620","system_id":"levelo_inurba_marseille","lat":43.28458,"lon":5.35894,"is_reserved":false,"is_disabled":false,"rental_uris":{"android":"levelo://app?vid=54e32d61-a29f-44af-8f30-a74ebc961620","ios":"levelo://app?vid=54e32d61-a29f-44af-8f30-a74ebc961620"},"vehicle_type_id":"4","last_reported":1685484410,"current_range_meters":18400,"station_id":"ce4bhah2rcd13ifvqei0","pricing_plan_id":"free"},{"bike_id":"d030916d-2074-49d9-b803-7916736793df","system_id":"levelo_inurba_marseille","lat":43.284534,"lon":5.358662,"is_reserved":false,"is_disabled":false,"rental_uris":{"android":"levelo://app?vid=d030916d-2074-49d9-b803-7916736793df","ios":"levelo://app?vid=d030916d-2074-49d9-b803-7916736793df"},"vehicle_type_id":"4","last_reported":1685484410,"current_range_meters":7600,"station_id":"ce4bhah2rcd13ifvqei0","pricing_plan_id":"free"},{"bike_id":"2a31e3c4-d890-4394-9c56-a98e9e610ad2","system_id":"levelo_inurba_marseille","lat":43.284579,"lon":5.358865,"is_reserved":false,"is_disabled":false,"rental_uris":{"android":"levelo://app?vid=2a31e3c4-d890-4394-9c56-a98e9e610ad2","ios":"levelo://app?vid=2a31e3c4-d890-4394-9c56-a98e9e610ad2"},"vehicle_type_id":"4","last_reported":1685484410,"current_range_meters":19200,"station_id":"ce4bhah2rcd13ifvqei0","pricing_plan_id":"free"},{"bike_id":"1ed204aa-354d-4b3d-9139-e33a9e7cc4fa","system_id":"levelo_inurba_marseille","lat":43.284534,"lon":5.358662,"is_reserved":false,"is_disabled":false,"rental_uris":{"android":"levelo://app?vid=1ed204aa-354d-4b3d-9139-e33a9e7cc4fa","ios":"levelo://app?vid=1ed204aa-354d-4b3d-9139-e33a9e7cc4fa"},"vehicle_type_id":"4","last_reported":1685484410,"current_range_meters":22800,"station_id":"ce4bhah2rcd13ifvqei0","pricing_plan_id":"free"},{"bike_id":"ed7cb1d1-4d82-4dd6-959b-a55d2f27850d","system_id":"levelo_inurba_marseille","lat":43.284534,"lon":5.358662,"is_reserved":false,"is_disabled":false,"rental_uris":{"android":"levelo://app?vid=ed7cb1d1-4d82-4dd6-959b-a55d2f27850d","ios":"levelo://app?vid=ed7cb1d1-4d82-4dd6-959b-a55d2f27850d"},"vehicle_type_id":"4","last_reported":1685484410,"current_range_meters":9200,"station_id":"ce4bhah2rcd13ifvqei0","pricing_plan_id":"free"},{"bike_id":"e9bdc0eb-b630-44b8-9652-24a6fe3773dc","system_id":"levelo_inurba_marseille","lat":43.284534,"lon":5.358662,"is_reserved":false,"is_disabled":false,"rental_uris":{"android":"levelo://app?vid=e9bdc0eb-b630-44b8-9652-24a6fe3773dc","ios":"levelo://app?vid=e9bdc0eb-b630-44b8-9652-24a6fe3773dc"},"vehicle_type_id":"4","last_reported":1685484410,"current_range_meters":9200,"station_id":"ce4bhah2rcd13ifvqei0","pricing_plan_id":"free"},{"bike_id":"e4fc180c-3e44-470b-b4de-37e26d5d8f6e","system_id":"levelo_inurba_marseille","lat":43.284547,"lon":5.358896,"is_reserved":false,"is_disabled":false,"rental_uris":{"android":"levelo://app?vid=e4fc180c-3e44-470b-b4de-37e26d5d8f6e","ios":"levelo://app?vid=e4fc180c-3e44-470b-b4de-37e26d5d8f6e"},"vehicle_type_id":"4","last_reported":1685484410,"current_range_meters":24400,"station_id":"","pricing_plan_id":"free"},{"bike_id":"a1d9a4a0-c5af-4101-831d-dcb99233c58d","system_id":"levelo_inurba_marseille","lat":43.284545,"lon":5.358894,"is_reserved":false,"is_disabled":false,"rental_uris":{"android":"levelo://app?vid=a1d9a4a0-c5af-4101-831d-dcb99233c58d","ios":"levelo://app?vid=a1d9a4a0-c5af-4101-831d-dcb99233c58d"},"vehicle_type_id":"4","last_reported":1685484410,"current_range_meters":13200,"station_id":"ce4bhah2rcd13ifvqei0","pricing_plan_id":"free"},{"bike_id":"f1a43d3c-26fd-4570-b467-6fa9f6cdf2fa","system_id":"levelo_inurba_marseille","lat":43.284543,"lon":5.358884,"is_reserved":false,"is_disabled":false,"rental_uris":{"android":"levelo://app?vid=f1a43d3c-26fd-4570-b467-6fa9f6cdf2fa","ios":"levelo://app?vid=f1a43d3c-26fd-4570-b467-6fa9f6cdf2fa"},"vehicle_type_id":"4","last_reported":1685484410,"current_range_meters":0,"station_id":"ce4bhah2rcd13ifvqei0","pricing_plan_id":"free"},{"bike_id":"886d211e-4757-4535-afd9-997f0ca2bc17","system_id":"levelo_inurba_marseille","lat":43.284542,"lon":5.358874,"is_reserved":false,"is_disabled":false,"rental_uris":{"android":"levelo://app?vid=886d211e-4757-4535-afd9-997f0ca2bc17","ios":"levelo://app?vid=886d211e-4757-4535-afd9-997f0ca2bc17"},"vehicle_type_id":"4","last_reported":1685484410,"current_range_meters":22000,"station_id":"ce4bhah2rcd13ifvqei0","pricing_plan_id":"free"},{"bike_id":"8e342250-f1b6-4031-8873-ddaf4260e63a","system_id":"levelo_inurba_marseille","lat":43.284534,"lon":5.358662,"is_reserved":false,"is_disabled":false,"rental_uris":{"android":"levelo://app?vid=8e342250-f1b6-4031-8873-ddaf4260e63a","ios":"levelo://app?vid=8e342250-f1b6-4031-8873-ddaf4260e63a"},"vehicle_type_id":"4","last_reported":1685484410,"current_range_meters":22800,"station_id":"ce4bhah2rcd13ifvqei0","pricing_plan_id":"free"},{"bike_id":"af296459-2877-4692-a64b-17ff3fe14cbf","system_id":"levelo_inurba_marseille","lat":43.295713,"lon":5.399639,"is_reserved":false,"is_disabled":false,"rental_uris":{"android":"levelo://app?vid=af296459-2877-4692-a64b-17ff3fe14cbf","ios":"levelo://app?vid=af296459-2877-4692-a64b-17ff3fe14cbf"},"vehicle_type_id":"4","last_reported":1685484410,"current_range_meters":16800,"station_id":"ce4bh312rcd13ifvqdj0","pricing_plan_id":"free"},{"bike_id":"77669fe9-b4c9-4ada-8490-5b786ed2244d","system_id":"levelo_inurba_marseille","lat":43.295713,"lon":5.399639,"is_reserved":false,"is_disabled":false,"rental_uris":{"android":"levelo://app?vid=77669fe9-b4c9-4ada-8490-5b786ed2244d","ios":"levelo://app?vid=77669fe9-b4c9-4ada-8490-5b786ed2244d"},"vehicle_type_id":"4","last_reported":1685484410,"current_range_meters":4800,"station_id":"ce4bh312rcd13ifvqdj0","pricing_plan_id":"free"},{"bike_id":"757e53e1-8c71-4a06-b79f-c77221ecd04f","system_id":"levelo_inurba_marseille","lat":43.295713,"lon":5.399639,"is_reserved":false,"is_disabled":false,"rental_uris":{"android":"levelo://app?vid=757e53e1-8c71-4a06-b79f-c77221ecd04f","ios":"levelo://app?vid=757e53e1-8c71-4a06-b79f-c77221ecd04f"},"vehicle_type_id":"4","last_reported":1685484410,"current_range_meters":23600,"station_id":"ce4bh312rcd13ifvqdj0","pricing_plan_id":"free"},{"bike_id":"785ea76b-8d26-4e67-b32c-047153289f98","system_id":"levelo_inurba_marseille","lat":43.286595,"lon":5.386795,"is_reserved":false,"is_disabled":false,"rental_uris":{"android":"levelo://app?vid=785ea76b-8d26-4e67-b32c-047153289f98","ios":"levelo://app?vid=785ea76b-8d26-4e67-b32c-047153289f98"},"vehicle_type_id":"4","last_reported":1685484410,"current_range_meters":12800,"station_id":"ce4bh492rcd13ifvqdug","pricing_plan_id":"free"},{"bike_id":"044ca21d-49d8-4a77-9bbf-14e9a53f61fb","system_id":"levelo_inurba_marseille","lat":43.286595,"lon":5.386795,"is_reserved":false,"is_disabled":false,"rental_uris":{"android":"levelo://app?vid=044ca21d-49d8-4a77-9bbf-14e9a53f61fb","ios":"levelo://app?vid=044ca21d-49d8-4a77-9bbf-14e9a53f61fb"},"vehicle_type_id":"4","last_reported":1685484410,"current_range_meters":4400,"station_id":"ce4bh492rcd13ifvqdug","pricing_plan_id":"free"},{"bike_id":"5ee1a4d1-f1f4-4c88-aac5-7d470793bda5","system_id":"levelo_inurba_marseille","lat":43.30978,"lon":5.40796,"is_reserved":false,"is_disabled":false,"rental_uris":{"android":"levelo://app?vid=5ee1a4d1-f1f4-4c88-aac5-7d470793bda5","ios":"levelo://app?vid=5ee1a4d1-f1f4-4c88-aac5-7d470793bda5"},"vehicle_type_id":"4","last_reported":1685484410,"current_range_meters":12400,"station_id":"","pricing_plan_id":"free"},{"bike_id":"042b55f6-4a5c-4b15-8331-7d62823c0ce1","system_id":"levelo_inurba_marseille","lat":43.32336,"lon":5.4062,"is_reserved":false,"is_disabled":false,"rental_uris":{"android":"levelo://app?vid=042b55f6-4a5c-4b15-8331-7d62823c0ce1","ios":"levelo://app?vid=042b55f6-4a5c-4b15-8331-7d62823c0ce1"},"vehicle_type_id":"4","last_reported":1685484410,"current_range_meters":19600,"station_id":"ce4bhq92rcd13ifvqhjg","pricing_plan_id":"free"},{"bike_id":"cbed94f5-c0ca-4e39-8174-41e168963a4d","system_id":"levelo_inurba_marseille","lat":43.288497,"lon":5.393089,"is_reserved":false,"is_disabled":false,"rental_uris":{"android":"levelo://app?vid=cbed94f5-c0ca-4e39-8174-41e168963a4d","ios":"levelo://app?vid=cbed94f5-c0ca-4e39-8174-41e168963a4d"},"vehicle_type_id":"4","last_reported":1685484410,"current_range_meters":14000,"station_id":"ce4bh2p2rcd13ifvqdi0","pricing_plan_id":"free"},{"bike_id":"37d006b5-70a3-489b-b6b8-69d126f6bf09","system_id":"levelo_inurba_marseille","lat":43.283494,"lon":5.380945,"is_reserved":false,"is_disabled":false,"rental_uris":{"android":"levelo://app?vid=37d006b5-70a3-489b-b6b8-69d126f6bf09","ios":"levelo://app?vid=37d006b5-70a3-489b-b6b8-69d126f6bf09"},"vehicle_type_id":"4","last_reported":1685484410,"current_range_meters":10800,"station_id":"ce4bh412rcd13ifvqdr0","pricing_plan_id":"free"},{"bike_id":"8df9d29c-9003-40fc-993f-df7ec738a8c0","system_id":"levelo_inurba_marseille","lat":43.283494,"lon":5.380945,"is_reserved":false,"is_disabled":false,"rental_uris":{"android":"levelo://app?vid=8df9d29c-9003-40fc-993f-df7ec738a8c0","ios":"levelo://app?vid=8df9d29c-9003-40fc-993f-df7ec738a8c0"},"vehicle_type_id":"4","last_reported":1685484410,"current_range_meters":16400,"station_id":"ce4bh412rcd13ifvqdr0","pricing_plan_id":"free"},{"bike_id":"a00fb660-bd8d-4811-9a70-ce883195ee3a","system_id":"levelo_inurba_marseille","lat":43.284245,"lon":5.349907,"is_reserved":false,"is_disabled":false,"rental_uris":{"android":"levelo://app?vid=a00fb660-bd8d-4811-9a70-ce883195ee3a","ios":"levelo://app?vid=a00fb660-bd8d-4811-9a70-ce883195ee3a"},"vehicle_type_id":"4","last_reported":1685484410,"current_range_meters":31200,"station_id":"ce4bhbh2rcd13ifvqepg","pricing_plan_id":"free"},{"bike_id":"e60183ef-7fd3-441b-a7c7-1699f59bd946","system_id":"levelo_inurba_marseille","lat":43.284219,"lon":5.3497,"is_reserved":false,"is_disabled":false,"rental_uris":{"android":"levelo://app?vid=e60183ef-7fd3-441b-a7c7-1699f59bd946","ios":"levelo://app?vid=e60183ef-7fd3-441b-a7c7-1699f59bd946"},"vehicle_type_id":"4","last_reported":1685484410,"current_range_meters":27600,"station_id":"ce4bhbh2rcd13ifvqepg","pricing_plan_id":"free"},{"bike_id":"84360301-3650-40cb-a141-90447ba506d6","system_id":"levelo_inurba_marseille","lat":43.284219,"lon":5.3497,"is_reserved":false,"is_disabled":false,"rental_uris":{"android":"levelo://app?vid=84360301-3650-40cb-a141-90447ba506d6","ios":"levelo://app?vid=84360301-3650-40cb-a141-90447ba506d6"},"vehicle_type_id":"4","last_reported":1685484410,"current_range_meters":30400,"station_id":"ce4bhbh2rcd13ifvqepg","pricing_plan_id":"free"},{"bike_id":"2f26ba42-33ef-4ac7-bb36-19b467f3df5e","system_id":"levelo_inurba_marseille","lat":43.284217,"lon":5.349697,"is_reserved":false,"is_disabled":false,"rental_uris":{"android":"levelo://app?vid=2f26ba42-33ef-4ac7-bb36-19b467f3df5e","ios":"levelo://app?vid=2f26ba42-33ef-4ac7-bb36-19b467f3df5e"},"vehicle_type_id":"4","last_reported":1685484410,"current_range_meters":27200,"station_id":"ce4bhbh2rcd13ifvqepg","pricing_plan_id":"free"},{"bike_id":"2a5194fd-662e-4964-93fc-6f02cd83f5f0","system_id":"levelo_inurba_marseille","lat":43.292724,"lon":5.401131,"is_reserved":false,"is_disabled":false,"rental_uris":{"android":"levelo://app?vid=2a5194fd-662e-4964-93fc-6f02cd83f5f0","ios":"levelo://app?vid=2a5194fd-662e-4964-93fc-6f02cd83f5f0"},"vehicle_type_id":"4","last_reported":1685484410,"current_range_meters":25200,"station_id":"ce4bh312rcd13ifvqdk0","pricing_plan_id":"free"},{"bike_id":"2c533a66-d88d-4ff0-8df1-0d58d159c154","system_id":"levelo_inurba_marseille","lat":43.282754,"lon":5.350519,"is_reserved":false,"is_disabled":false,"rental_uris":{"android":"levelo://app?vid=2c533a66-d88d-4ff0-8df1-0d58d159c154","ios":"levelo://app?vid=2c533a66-d88d-4ff0-8df1-0d58d159c154"},"vehicle_type_id":"4","last_reported":1685484410,"current_range_meters":31200,"station_id":"ce4bhbp2rcd13ifvqerg","pricing_plan_id":"free"},{"bike_id":"f09a39f9-8c27-4f63-bfb7-42993c95973b","system_id":"levelo_inurba_marseille","lat":43.282754,"lon":5.350519,"is_reserved":false,"is_disabled":false,"rental_uris":{"android":"levelo://app?vid=f09a39f9-8c27-4f63-bfb7-42993c95973b","ios":"levelo://app?vid=f09a39f9-8c27-4f63-bfb7-42993c95973b"},"vehicle_type_id":"4","last_reported":1685484410,"current_range_meters":24000,"station_id":"ce4bhbp2rcd13ifvqerg","pricing_plan_id":"free"},{"bike_id":"8676ba80-64d1-476c-a247-2b76f3946fd0","system_id":"levelo_inurba_marseille","lat":43.283502,"lon":5.386471,"is_reserved":false,"is_disabled":false,"rental_uris":{"android":"levelo://app?vid=8676ba80-64d1-476c-a247-2b76f3946fd0","ios":"levelo://app?vid=8676ba80-64d1-476c-a247-2b76f3946fd0"},"vehicle_type_id":"4","last_reported":1685484410,"current_range_meters":28800,"station_id":"ce4bh492rcd13ifvqdvg","pricing_plan_id":"free"},{"bike_id":"f6c05ef9-e835-47b7-8f3c-d077dd0a422b","system_id":"levelo_inurba_marseille","lat":43.282744,"lon":5.350533,"is_reserved":false,"is_disabled":false,"rental_uris":{"android":"levelo://app?vid=f6c05ef9-e835-47b7-8f3c-d077dd0a422b","ios":"levelo://app?vid=f6c05ef9-e835-47b7-8f3c-d077dd0a422b"},"vehicle_type_id":"4","last_reported":1685484410,"current_range_meters":29600,"station_id":"ce4bhbp2rcd13ifvqerg","pricing_plan_id":"free"},{"bike_id":"81484b56-bcbd-4d2a-bce5-2b0590b7c08e","system_id":"levelo_inurba_marseille","lat":43.28039,"lon":5.369297,"is_reserved":false,"is_disabled":false,"rental_uris":{"android":"levelo://app?vid=81484b56-bcbd-4d2a-bce5-2b0590b7c08e","ios":"levelo://app?vid=81484b56-bcbd-4d2a-bce5-2b0590b7c08e"},"vehicle_type_id":"4","last_reported":1685484410,"current_range_meters":0,"station_id":"ce4bha12rcd13ifvqef0","pricing_plan_id":"free"},{"bike_id":"ff4a0e0e-16b5-4b4e-8795-f073839f6ae6","system_id":"levelo_inurba_marseille","lat":43.28037,"lon":5.36938,"is_reserved":false,"is_disabled":false,"rental_uris":{"android":"levelo://app?vid=ff4a0e0e-16b5-4b4e-8795-f073839f6ae6","ios":"levelo://app?vid=ff4a0e0e-16b5-4b4e-8795-f073839f6ae6"},"vehicle_type_id":"4","last_reported":1685484410,"current_range_meters":22800,"station_id":"ce4bha12rcd13ifvqef0","pricing_plan_id":"free"},{"bike_id":"73c88e86-eb54-4371-9100-860567764a8f","system_id":"levelo_inurba_marseille","lat":43.283502,"lon":5.386471,"is_reserved":false,"is_disabled":false,"rental_uris":{"android":"levelo://app?vid=73c88e86-eb54-4371-9100-860567764a8f","ios":"levelo://app?vid=73c88e86-eb54-4371-9100-860567764a8f"},"vehicle_type_id":"4","last_reported":1685484410,"current_range_meters":17600,"station_id":"ce4bh492rcd13ifvqdvg","pricing_plan_id":"free"},{"bike_id":"f4e9b45a-69d0-411d-afc6-6a5420a0527b","system_id":"levelo_inurba_marseille","lat":43.281044,"lon":5.378308,"is_reserved":false,"is_disabled":false,"rental_uris":{"android":"levelo://app?vid=f4e9b45a-69d0-411d-afc6-6a5420a0527b","ios":"levelo://app?vid=f4e9b45a-69d0-411d-afc6-6a5420a0527b"},"vehicle_type_id":"4","last_reported":1685484410,"current_range_meters":12000,"station_id":"ce4bha12rcd13ifvqee0","pricing_plan_id":"free"},{"bike_id":"d936ca4d-f6db-4f2e-8bc1-214fed5ca81d","system_id":"levelo_inurba_marseille","lat":43.281044,"lon":5.378308,"is_reserved":false,"is_disabled":false,"rental_uris":{"android":"levelo://app?vid=d936ca4d-f6db-4f2e-8bc1-214fed5ca81d","ios":"levelo://app?vid=d936ca4d-f6db-4f2e-8bc1-214fed5ca81d"},"vehicle_type_id":"4","last_reported":1685484410,"current_range_meters":6000,"station_id":"ce4bha12rcd13ifvqee0","pricing_plan_id":"free"},{"bike_id":"fa687e97-d02f-4e63-9bae-4043508c5750","system_id":"levelo_inurba_marseille","lat":43.28106,"lon":5.37832,"is_reserved":false,"is_disabled":false,"rental_uris":{"android":"levelo://app?vid=fa687e97-d02f-4e63-9bae-4043508c5750","ios":"levelo://app?vid=fa687e97-d02f-4e63-9bae-4043508c5750"},"vehicle_type_id":"4","last_reported":1685484410,"current_range_meters":14800,"station_id":"ce4bha12rcd13ifvqee0","pricing_plan_id":"free"},{"bike_id":"3ced4edc-081b-4d71-b7a3-95ba36da78ab","system_id":"levelo_inurba_marseille","lat":43.281044,"lon":5.378308,"is_reserved":false,"is_disabled":false,"rental_uris":{"android":"levelo://app?vid=3ced4edc-081b-4d71-b7a3-95ba36da78ab","ios":"levelo://app?vid=3ced4edc-081b-4d71-b7a3-95ba36da78ab"},"vehicle_type_id":"4","last_reported":1685484410,"current_range_meters":7200,"station_id":"ce4bha12rcd13ifvqee0","pricing_plan_id":"free"},{"bike_id":"dd671d84-0f00-4ead-93c0-1506bd5f6a3d","system_id":"levelo_inurba_marseille","lat":43.296263,"lon":5.40601,"is_reserved":false,"is_disabled":false,"rental_uris":{"android":"levelo://app?vid=dd671d84-0f00-4ead-93c0-1506bd5f6a3d","ios":"levelo://app?vid=dd671d84-0f00-4ead-93c0-1506bd5f6a3d"},"vehicle_type_id":"4","last_reported":1685484410,"current_range_meters":11600,"station_id":"ce4bh0h2rcd13ifvqd60","pricing_plan_id":"free"},{"bike_id":"c3e54d50-ffa2-4141-8984-a63dc9455a3f","system_id":"levelo_inurba_marseille","lat":43.281,"lon":5.37838,"is_reserved":false,"is_disabled":false,"rental_uris":{"android":"levelo://app?vid=c3e54d50-ffa2-4141-8984-a63dc9455a3f","ios":"levelo://app?vid=c3e54d50-ffa2-4141-8984-a63dc9455a3f"},"vehicle_type_id":"4","last_reported":1685484410,"current_range_meters":2800,"station_id":"ce4bha12rcd13ifvqee0","pricing_plan_id":"free"},{"bike_id":"b90ca2cf-8992-4012-8204-33fc6cf964ce","system_id":"levelo_inurba_marseille","lat":43.281044,"lon":5.378308,"is_reserved":false,"is_disabled":false,"rental_uris":{"android":"levelo://app?vid=b90ca2cf-8992-4012-8204-33fc6cf964ce","ios":"levelo://app?vid=b90ca2cf-8992-4012-8204-33fc6cf964ce"},"vehicle_type_id":"4","last_reported":1685484410,"current_range_meters":800,"station_id":"ce4bha12rcd13ifvqee0","pricing_plan_id":"free"},{"bike_id":"ea314057-5e59-41a4-aaea-39a3e02af7f7","system_id":"levelo_inurba_marseille","lat":43.284462,"lon":5.392121,"is_reserved":false,"is_disabled":false,"rental_uris":{"android":"levelo://app?vid=ea314057-5e59-41a4-aaea-39a3e02af7f7","ios":"levelo://app?vid=ea314057-5e59-41a4-aaea-39a3e02af7f7"},"vehicle_type_id":"4","last_reported":1685484410,"current_range_meters":15200,"station_id":"ce4bhoh2rcd13ifvqh5g","pricing_plan_id":"free"},{"bike_id":"a8ba557f-4815-401e-a508-2dad9796a417","system_id":"levelo_inurba_marseille","lat":43.284462,"lon":5.392121,"is_reserved":false,"is_disabled":false,"rental_uris":{"android":"levelo://app?vid=a8ba557f-4815-401e-a508-2dad9796a417","ios":"levelo://app?vid=a8ba557f-4815-401e-a508-2dad9796a417"},"vehicle_type_id":"4","last_reported":1685484410,"current_range_meters":10000,"station_id":"ce4bhoh2rcd13ifvqh5g","pricing_plan_id":"free"},{"bike_id":"7fba69c3-2208-4c1c-9d91-ae5143cc8c3e","system_id":"levelo_inurba_marseille","lat":43.284462,"lon":5.392121,"is_reserved":false,"is_disabled":false,"rental_uris":{"android":"levelo://app?vid=7fba69c3-2208-4c1c-9d91-ae5143cc8c3e","ios":"levelo://app?vid=7fba69c3-2208-4c1c-9d91-ae5143cc8c3e"},"vehicle_type_id":"4","last_reported":1685484410,"current_range_meters":11600,"station_id":"ce4bhoh2rcd13ifvqh5g","pricing_plan_id":"free"},{"bike_id":"9fe9cef6-8baf-4e93-8b97-09b8196fb8bf","system_id":"levelo_inurba_marseille","lat":43.284462,"lon":5.392121,"is_reserved":false,"is_disabled":false,"rental_uris":{"android":"levelo://app?vid=9fe9cef6-8baf-4e93-8b97-09b8196fb8bf","ios":"levelo://app?vid=9fe9cef6-8baf-4e93-8b97-09b8196fb8bf"},"vehicle_type_id":"4","last_reported":1685484410,"current_range_meters":26800,"station_id":"ce4bhoh2rcd13ifvqh5g","pricing_plan_id":"free"},{"bike_id":"fbb577a4-eed8-491a-bdb8-322b6a269a96","system_id":"levelo_inurba_marseille","lat":43.284462,"lon":5.392121,"is_reserved":false,"is_disabled":false,"rental_uris":{"android":"levelo://app?vid=fbb577a4-eed8-491a-bdb8-322b6a269a96","ios":"levelo://app?vid=fbb577a4-eed8-491a-bdb8-322b6a269a96"},"vehicle_type_id":"4","last_reported":1685484410,"current_range_meters":10800,"station_id":"ce4bhoh2rcd13ifvqh5g","pricing_plan_id":"free"},{"bike_id":"6e252060-382c-4010-ac97-f27c35a6c767","system_id":"levelo_inurba_marseille","lat":43.28573,"lon":5.394992,"is_reserved":false,"is_disabled":false,"rental_uris":{"android":"levelo://app?vid=6e252060-382c-4010-ac97-f27c35a6c767","ios":"levelo://app?vid=6e252060-382c-4010-ac97-f27c35a6c767"},"vehicle_type_id":"4","last_reported":1685484410,"current_range_meters":20400,"station_id":"ce4bh292rcd13ifvqdg0","pricing_plan_id":"free"},{"bike_id":"ed4f7a9c-396e-48e9-bb92-4f85311bbf96","system_id":"levelo_inurba_marseille","lat":43.28573,"lon":5.394992,"is_reserved":false,"is_disabled":false,"rental_uris":{"android":"levelo://app?vid=ed4f7a9c-396e-48e9-bb92-4f85311bbf96","ios":"levelo://app?vid=ed4f7a9c-396e-48e9-bb92-4f85311bbf96"},"vehicle_type_id":"4","last_reported":1685484410,"current_range_meters":28000,"station_id":"ce4bh292rcd13ifvqdg0","pricing_plan_id":"free"},{"bike_id":"0c2130f1-8a87-464f-b8c2-31f5105fe06e","system_id":"levelo_inurba_marseille","lat":43.285742,"lon":5.395004,"is_reserved":false,"is_disabled":false,"rental_uris":{"android":"levelo://app?vid=0c2130f1-8a87-464f-b8c2-31f5105fe06e","ios":"levelo://app?vid=0c2130f1-8a87-464f-b8c2-31f5105fe06e"},"vehicle_type_id":"4","last_reported":1685484410,"current_range_meters":28400,"station_id":"ce4bh292rcd13ifvqdg0","pricing_plan_id":"free"},{"bike_id":"8f86cc0a-cd38-454b-b551-1061baa02a2c","system_id":"levelo_inurba_marseille","lat":43.285742,"lon":5.395004,"is_reserved":false,"is_disabled":false,"rental_uris":{"android":"levelo://app?vid=8f86cc0a-cd38-454b-b551-1061baa02a2c","ios":"levelo://app?vid=8f86cc0a-cd38-454b-b551-1061baa02a2c"},"vehicle_type_id":"4","last_reported":1685484410,"current_range_meters":27600,"station_id":"ce4bh292rcd13ifvqdg0","pricing_plan_id":"free"},{"bike_id":"cf83d07c-0d14-439b-a0ff-6247426bc1a9","system_id":"levelo_inurba_marseille","lat":43.304188,"lon":5.412904,"is_reserved":false,"is_disabled":false,"rental_uris":{"android":"levelo://app?vid=cf83d07c-0d14-439b-a0ff-6247426bc1a9","ios":"levelo://app?vid=cf83d07c-0d14-439b-a0ff-6247426bc1a9"},"vehicle_type_id":"4","last_reported":1685484410,"current_range_meters":3600,"station_id":"ce4bhop2rcd13ifvqh8g","pricing_plan_id":"free"},{"bike_id":"9e453d2b-20e2-4054-b13e-454c7b9d96e4","system_id":"levelo_inurba_marseille","lat":43.304188,"lon":5.412904,"is_reserved":false,"is_disabled":false,"rental_uris":{"android":"levelo://app?vid=9e453d2b-20e2-4054-b13e-454c7b9d96e4","ios":"levelo://app?vid=9e453d2b-20e2-4054-b13e-454c7b9d96e4"},"vehicle_type_id":"4","last_reported":1685484410,"current_range_meters":4800,"station_id":"ce4bhop2rcd13ifvqh8g","pricing_plan_id":"free"},{"bike_id":"38eab051-fd2b-4c5b-8df1-73e620e96be2","system_id":"levelo_inurba_marseille","lat":43.30417,"lon":5.41286,"is_reserved":false,"is_disabled":false,"rental_uris":{"android":"levelo://app?vid=38eab051-fd2b-4c5b-8df1-73e620e96be2","ios":"levelo://app?vid=38eab051-fd2b-4c5b-8df1-73e620e96be2"},"vehicle_type_id":"4","last_reported":1685484410,"current_range_meters":26400,"station_id":"ce4bhop2rcd13ifvqh8g","pricing_plan_id":"free"},{"bike_id":"ce88dbf2-fe42-445a-bf05-9e504a30570a","system_id":"levelo_inurba_marseille","lat":43.304188,"lon":5.412904,"is_reserved":false,"is_disabled":false,"rental_uris":{"android":"levelo://app?vid=ce88dbf2-fe42-445a-bf05-9e504a30570a","ios":"levelo://app?vid=ce88dbf2-fe42-445a-bf05-9e504a30570a"},"vehicle_type_id":"4","last_reported":1685484410,"current_range_meters":9200,"station_id":"ce4bhop2rcd13ifvqh8g","pricing_plan_id":"free"},{"bike_id":"1b22ee18-85aa-4254-89f5-c643bdb060c8","system_id":"levelo_inurba_marseille","lat":43.27902,"lon":5.38006,"is_reserved":false,"is_disabled":false,"rental_uris":{"android":"levelo://app?vid=1b22ee18-85aa-4254-89f5-c643bdb060c8","ios":"levelo://app?vid=1b22ee18-85aa-4254-89f5-c643bdb060c8"},"vehicle_type_id":"4","last_reported":1685484410,"current_range_meters":0,"station_id":"","pricing_plan_id":"free"},{"bike_id":"84c18c90-4808-4d98-abd9-58d24c90a056","system_id":"levelo_inurba_marseille","lat":43.27901,"lon":5.38003,"is_reserved":false,"is_disabled":false,"rental_uris":{"android":"levelo://app?vid=84c18c90-4808-4d98-abd9-58d24c90a056","ios":"levelo://app?vid=84c18c90-4808-4d98-abd9-58d24c90a056"},"vehicle_type_id":"4","last_reported":1685484410,"current_range_meters":0,"station_id":"","pricing_plan_id":"free"},{"bike_id":"e104fbcd-a52d-4f30-8fc3-f670696f6643","system_id":"levelo_inurba_marseille","lat":43.287154,"lon":5.399979,"is_reserved":false,"is_disabled":false,"rental_uris":{"android":"levelo://app?vid=e104fbcd-a52d-4f30-8fc3-f670696f6643","ios":"levelo://app?vid=e104fbcd-a52d-4f30-8fc3-f670696f6643"},"vehicle_type_id":"4","last_reported":1685484410,"current_range_meters":26400,"station_id":"ce4bho92rcd13ifvqh3g","pricing_plan_id":"free"},{"bike_id":"16f99704-0490-4275-bc89-5df096a0dc29","system_id":"levelo_inurba_marseille","lat":43.287154,"lon":5.399979,"is_reserved":false,"is_disabled":false,"rental_uris":{"android":"levelo://app?vid=16f99704-0490-4275-bc89-5df096a0dc29","ios":"levelo://app?vid=16f99704-0490-4275-bc89-5df096a0dc29"},"vehicle_type_id":"4","last_reported":1685484410,"current_range_meters":30400,"station_id":"ce4bho92rcd13ifvqh3g","pricing_plan_id":"free"},{"bike_id":"52c4e1d8-8889-4e8a-be01-1bc0d78c3308","system_id":"levelo_inurba_marseille","lat":43.27895,"lon":5.3801,"is_reserved":false,"is_disabled":false,"rental_uris":{"android":"levelo://app?vid=52c4e1d8-8889-4e8a-be01-1bc0d78c3308","ios":"levelo://app?vid=52c4e1d8-8889-4e8a-be01-1bc0d78c3308"},"vehicle_type_id":"4","last_reported":1685484410,"current_range_meters":14000,"station_id":"","pricing_plan_id":"free"},{"bike_id":"039c1dc6-f6a6-459b-9b37-354f36d57b7a","system_id":"levelo_inurba_marseille","lat":43.287154,"lon":5.399979,"is_reserved":false,"is_disabled":false,"rental_uris":{"android":"levelo://app?vid=039c1dc6-f6a6-459b-9b37-354f36d57b7a","ios":"levelo://app?vid=039c1dc6-f6a6-459b-9b37-354f36d57b7a"},"vehicle_type_id":"4","last_reported":1685484410,"current_range_meters":4400,"station_id":"ce4bho92rcd13ifvqh3g","pricing_plan_id":"free"},{"bike_id":"6cdca788-52f3-429a-b37a-5d043fab7fa4","system_id":"levelo_inurba_marseille","lat":43.287154,"lon":5.399979,"is_reserved":false,"is_disabled":false,"rental_uris":{"android":"levelo://app?vid=6cdca788-52f3-429a-b37a-5d043fab7fa4","ios":"levelo://app?vid=6cdca788-52f3-429a-b37a-5d043fab7fa4"},"vehicle_type_id":"4","last_reported":1685484410,"current_range_meters":27600,"station_id":"ce4bho92rcd13ifvqh3g","pricing_plan_id":"free"},{"bike_id":"0476a345-2cdb-4389-ae34-91dd32411f9b","system_id":"levelo_inurba_marseille","lat":43.287154,"lon":5.399979,"is_reserved":false,"is_disabled":false,"rental_uris":{"android":"levelo://app?vid=0476a345-2cdb-4389-ae34-91dd32411f9b","ios":"levelo://app?vid=0476a345-2cdb-4389-ae34-91dd32411f9b"},"vehicle_type_id":"4","last_reported":1685484410,"current_range_meters":10000,"station_id":"ce4bho92rcd13ifvqh3g","pricing_plan_id":"free"},{"bike_id":"46526e6d-aea9-444a-a541-7e3cd42690a6","system_id":"levelo_inurba_marseille","lat":43.27854,"lon":5.35455,"is_reserved":false,"is_disabled":false,"rental_uris":{"android":"levelo://app?vid=46526e6d-aea9-444a-a541-7e3cd42690a6","ios":"levelo://app?vid=46526e6d-aea9-444a-a541-7e3cd42690a6"},"vehicle_type_id":"4","last_reported":1685484410,"current_range_meters":31600,"station_id":"","pricing_plan_id":"free"},{"bike_id":"9cd78ed6-2b4d-4499-8907-c58d8b9cb0a1","system_id":"levelo_inurba_marseille","lat":43.292571,"lon":5.409107,"is_reserved":false,"is_disabled":false,"rental_uris":{"android":"levelo://app?vid=9cd78ed6-2b4d-4499-8907-c58d8b9cb0a1","ios":"levelo://app?vid=9cd78ed6-2b4d-4499-8907-c58d8b9cb0a1"},"vehicle_type_id":"4","last_reported":1685484410,"current_range_meters":21200,"station_id":"ce4bh192rcd13ifvqdc0","pricing_plan_id":"free"},{"bike_id":"b294ddd3-a1ce-43f4-b5cf-c3cc9722ddba","system_id":"levelo_inurba_marseille","lat":43.29262,"lon":5.40908,"is_reserved":false,"is_disabled":false,"rental_uris":{"android":"levelo://app?vid=b294ddd3-a1ce-43f4-b5cf-c3cc9722ddba","ios":"levelo://app?vid=b294ddd3-a1ce-43f4-b5cf-c3cc9722ddba"},"vehicle_type_id":"4","last_reported":1685484410,"current_range_meters":29200,"station_id":"ce4bh192rcd13ifvqdc0","pricing_plan_id":"free"},{"bike_id":"45e5bd68-dd35-4677-80e0-260f3c0f32d2","system_id":"levelo_inurba_marseille","lat":43.292571,"lon":5.409107,"is_reserved":false,"is_disabled":false,"rental_uris":{"android":"levelo://app?vid=45e5bd68-dd35-4677-80e0-260f3c0f32d2","ios":"levelo://app?vid=45e5bd68-dd35-4677-80e0-260f3c0f32d2"},"vehicle_type_id":"4","last_reported":1685484410,"current_range_meters":23200,"station_id":"ce4bh192rcd13ifvqdc0","pricing_plan_id":"free"},{"bike_id":"cd562709-5849-4169-aa5e-b85feaaac1c9","system_id":"levelo_inurba_marseille","lat":43.27618,"lon":5.361009,"is_reserved":false,"is_disabled":false,"rental_uris":{"android":"levelo://app?vid=cd562709-5849-4169-aa5e-b85feaaac1c9","ios":"levelo://app?vid=cd562709-5849-4169-aa5e-b85feaaac1c9"},"vehicle_type_id":"4","last_reported":1685484410,"current_range_meters":14000,"station_id":"ce4bgj92rcd13ifvqbe0","pricing_plan_id":"free"},{"bike_id":"0b5c64b2-271f-4608-858a-85244443c56a","system_id":"levelo_inurba_marseille","lat":43.27618,"lon":5.361009,"is_reserved":false,"is_disabled":false,"rental_uris":{"android":"levelo://app?vid=0b5c64b2-271f-4608-858a-85244443c56a","ios":"levelo://app?vid=0b5c64b2-271f-4608-858a-85244443c56a"},"vehicle_type_id":"4","last_reported":1685484410,"current_range_meters":25200,"station_id":"ce4bgj92rcd13ifvqbe0","pricing_plan_id":"free"},{"bike_id":"10260389-e665-47e9-90d3-1f28e8da5b6a","system_id":"levelo_inurba_marseille","lat":43.27618,"lon":5.361009,"is_reserved":false,"is_disabled":false,"rental_uris":{"android":"levelo://app?vid=10260389-e665-47e9-90d3-1f28e8da5b6a","ios":"levelo://app?vid=10260389-e665-47e9-90d3-1f28e8da5b6a"},"vehicle_type_id":"4","last_reported":1685484410,"current_range_meters":25600,"station_id":"ce4bgj92rcd13ifvqbe0","pricing_plan_id":"free"},{"bike_id":"0f3d2445-001b-43a4-95b2-b50abe155585","system_id":"levelo_inurba_marseille","lat":43.27618,"lon":5.361009,"is_reserved":false,"is_disabled":false,"rental_uris":{"android":"levelo://app?vid=0f3d2445-001b-43a4-95b2-b50abe155585","ios":"levelo://app?vid=0f3d2445-001b-43a4-95b2-b50abe155585"},"vehicle_type_id":"4","last_reported":1685484410,"current_range_meters":28800,"station_id":"ce4bgj92rcd13ifvqbe0","pricing_plan_id":"free"},{"bike_id":"0ef0ca67-dd22-49c0-a5e2-120c084df86b","system_id":"levelo_inurba_marseille","lat":43.325233,"lon":5.414318,"is_reserved":false,"is_disabled":false,"rental_uris":{"android":"levelo://app?vid=0ef0ca67-dd22-49c0-a5e2-120c084df86b","ios":"levelo://app?vid=0ef0ca67-dd22-49c0-a5e2-120c084df86b"},"vehicle_type_id":"4","last_reported":1685484410,"current_range_meters":26000,"station_id":"ce4bhq12rcd13ifvqhhg","pricing_plan_id":"free"},{"bike_id":"11cea34d-9f67-41b3-9da8-2ba1bf4b6cf8","system_id":"levelo_inurba_marseille","lat":43.30383,"lon":5.41784,"is_reserved":false,"is_disabled":false,"rental_uris":{"android":"levelo://app?vid=11cea34d-9f67-41b3-9da8-2ba1bf4b6cf8","ios":"levelo://app?vid=11cea34d-9f67-41b3-9da8-2ba1bf4b6cf8"},"vehicle_type_id":"4","last_reported":1685484410,"current_range_meters":13600,"station_id":"","pricing_plan_id":"free"},{"bike_id":"b20414f8-93e3-4794-9c8a-5c3fcddae70d","system_id":"levelo_inurba_marseille","lat":43.280784,"lon":5.396622,"is_reserved":false,"is_disabled":false,"rental_uris":{"android":"levelo://app?vid=b20414f8-93e3-4794-9c8a-5c3fcddae70d","ios":"levelo://app?vid=b20414f8-93e3-4794-9c8a-5c3fcddae70d"},"vehicle_type_id":"4","last_reported":1685484410,"current_range_meters":4400,"station_id":"ce4bho12rcd13ifvqh2g","pricing_plan_id":"free"},{"bike_id":"e6ce957e-f8a7-4dd7-9ae3-1c41f7211023","system_id":"levelo_inurba_marseille","lat":43.273613,"lon":5.362705,"is_reserved":false,"is_disabled":false,"rental_uris":{"android":"levelo://app?vid=e6ce957e-f8a7-4dd7-9ae3-1c41f7211023","ios":"levelo://app?vid=e6ce957e-f8a7-4dd7-9ae3-1c41f7211023"},"vehicle_type_id":"4","last_reported":1685484410,"current_range_meters":400,"station_id":"ce4bhbh2rcd13ifvqeo0","pricing_plan_id":"free"},{"bike_id":"72049945-4d23-416a-a23d-2ce4e427430b","system_id":"levelo_inurba_marseille","lat":43.273613,"lon":5.362705,"is_reserved":false,"is_disabled":false,"rental_uris":{"android":"levelo://app?vid=72049945-4d23-416a-a23d-2ce4e427430b","ios":"levelo://app?vid=72049945-4d23-416a-a23d-2ce4e427430b"},"vehicle_type_id":"4","last_reported":1685484410,"current_range_meters":9600,"station_id":"ce4bhbh2rcd13ifvqeo0","pricing_plan_id":"free"},{"bike_id":"5f4b9962-7f74-454b-ad2a-32ffce9b02cb","system_id":"levelo_inurba_marseille","lat":43.27562,"lon":5.38406,"is_reserved":false,"is_disabled":false,"rental_uris":{"android":"levelo://app?vid=5f4b9962-7f74-454b-ad2a-32ffce9b02cb","ios":"levelo://app?vid=5f4b9962-7f74-454b-ad2a-32ffce9b02cb"},"vehicle_type_id":"4","last_reported":1685484410,"current_range_meters":12000,"station_id":"","pricing_plan_id":"free"},{"bike_id":"f077c1f3-3091-45d8-ba26-35ba7638d645","system_id":"levelo_inurba_marseille","lat":43.33612,"lon":5.410321,"is_reserved":false,"is_disabled":false,"rental_uris":{"android":"levelo://app?vid=f077c1f3-3091-45d8-ba26-35ba7638d645","ios":"levelo://app?vid=f077c1f3-3091-45d8-ba26-35ba7638d645"},"vehicle_type_id":"4","last_reported":1685484410,"current_range_meters":20000,"station_id":"ce4bhqh2rcd13ifvqhmg","pricing_plan_id":"free"},{"bike_id":"17675390-3e42-41cd-9dfc-9f15c50a8a37","system_id":"levelo_inurba_marseille","lat":43.276769,"lon":5.388787,"is_reserved":false,"is_disabled":false,"rental_uris":{"android":"levelo://app?vid=17675390-3e42-41cd-9dfc-9f15c50a8a37","ios":"levelo://app?vid=17675390-3e42-41cd-9dfc-9f15c50a8a37"},"vehicle_type_id":"4","last_reported":1685484410,"current_range_meters":16800,"station_id":"ce4bhi12rcd13ifvqfo0","pricing_plan_id":"free"},{"bike_id":"7b8aa523-c083-4e24-8319-02f43c5a26a2","system_id":"levelo_inurba_marseille","lat":43.336134,"lon":5.410341,"is_reserved":false,"is_disabled":false,"rental_uris":{"android":"levelo://app?vid=7b8aa523-c083-4e24-8319-02f43c5a26a2","ios":"levelo://app?vid=7b8aa523-c083-4e24-8319-02f43c5a26a2"},"vehicle_type_id":"4","last_reported":1685484410,"current_range_meters":6000,"station_id":"ce4bhqh2rcd13ifvqhmg","pricing_plan_id":"free"},{"bike_id":"681b36f1-8062-4f0a-801a-12c74c7a1e3a","system_id":"levelo_inurba_marseille","lat":43.33612,"lon":5.410321,"is_reserved":false,"is_disabled":false,"rental_uris":{"android":"levelo://app?vid=681b36f1-8062-4f0a-801a-12c74c7a1e3a","ios":"levelo://app?vid=681b36f1-8062-4f0a-801a-12c74c7a1e3a"},"vehicle_type_id":"4","last_reported":1685484410,"current_range_meters":16000,"station_id":"ce4bhqh2rcd13ifvqhmg","pricing_plan_id":"free"},{"bike_id":"887d9368-9a60-45c3-9913-0227991e56d2","system_id":"levelo_inurba_marseille","lat":43.310785,"lon":5.424305,"is_reserved":false,"is_disabled":false,"rental_uris":{"android":"levelo://app?vid=887d9368-9a60-45c3-9913-0227991e56d2","ios":"levelo://app?vid=887d9368-9a60-45c3-9913-0227991e56d2"},"vehicle_type_id":"4","last_reported":1685484410,"current_range_meters":12800,"station_id":"ce4bhp92rcd13ifvqhag","pricing_plan_id":"free"},{"bike_id":"886577f9-6371-42d5-bb55-797e5b8c8645","system_id":"levelo_inurba_marseille","lat":43.3036,"lon":5.4238,"is_reserved":false,"is_disabled":false,"rental_uris":{"android":"levelo://app?vid=886577f9-6371-42d5-bb55-797e5b8c8645","ios":"levelo://app?vid=886577f9-6371-42d5-bb55-797e5b8c8645"},"vehicle_type_id":"4","last_reported":1685484410,"current_range_meters":16000,"station_id":"","pricing_plan_id":"free"},{"bike_id":"27da7b1b-2907-4a16-8231-e2626b10a05f","system_id":"levelo_inurba_marseille","lat":43.27423,"lon":5.39418,"is_reserved":false,"is_disabled":false,"rental_uris":{"android":"levelo://app?vid=27da7b1b-2907-4a16-8231-e2626b10a05f","ios":"levelo://app?vid=27da7b1b-2907-4a16-8231-e2626b10a05f"},"vehicle_type_id":"4","last_reported":1685484410,"current_range_meters":4000,"station_id":"","pricing_plan_id":"free"},{"bike_id":"6add8997-27fa-44a0-b42b-872324a78393","system_id":"levelo_inurba_marseille","lat":43.278128,"lon":5.407195,"is_reserved":false,"is_disabled":false,"rental_uris":{"android":"levelo://app?vid=6add8997-27fa-44a0-b42b-872324a78393","ios":"levelo://app?vid=6add8997-27fa-44a0-b42b-872324a78393"},"vehicle_type_id":"4","last_reported":1685484410,"current_range_meters":22000,"station_id":"ce4bhnh2rcd13ifvqgtg","pricing_plan_id":"free"},{"bike_id":"ae0cfc4e-022d-4b4e-8e28-9715ff3a6056","system_id":"levelo_inurba_marseille","lat":43.278128,"lon":5.407195,"is_reserved":false,"is_disabled":false,"rental_uris":{"android":"levelo://app?vid=ae0cfc4e-022d-4b4e-8e28-9715ff3a6056","ios":"levelo://app?vid=ae0cfc4e-022d-4b4e-8e28-9715ff3a6056"},"vehicle_type_id":"4","last_reported":1685484410,"current_range_meters":32000,"station_id":"ce4bhnh2rcd13ifvqgtg","pricing_plan_id":"free"},{"bike_id":"bfd43609-6e23-43c7-81ac-c079a1b66c6e","system_id":"levelo_inurba_marseille","lat":43.278128,"lon":5.407195,"is_reserved":false,"is_disabled":false,"rental_uris":{"android":"levelo://app?vid=bfd43609-6e23-43c7-81ac-c079a1b66c6e","ios":"levelo://app?vid=bfd43609-6e23-43c7-81ac-c079a1b66c6e"},"vehicle_type_id":"4","last_reported":1685484410,"current_range_meters":15200,"station_id":"ce4bhnh2rcd13ifvqgtg","pricing_plan_id":"free"},{"bike_id":"dbc5f1d3-a82a-48ec-aa27-cbbd89938dd6","system_id":"levelo_inurba_marseille","lat":43.278128,"lon":5.407195,"is_reserved":false,"is_disabled":false,"rental_uris":{"android":"levelo://app?vid=dbc5f1d3-a82a-48ec-aa27-cbbd89938dd6","ios":"levelo://app?vid=dbc5f1d3-a82a-48ec-aa27-cbbd89938dd6"},