{"last_updated":1718219213,"ttl":30,"version":"2.2","data":{"bikes":[{"bike_id":"8ab491c2-2f49-481c-adf5-6ccbe4542f1e","system_id":"levelo_inurba_marseille","lat":43.312239,"lon":5.368562,"is_reserved":false,"is_disabled":false,"rental_uris":{"android":"levelo://app?vid=8ab491c2-2f49-481c-adf5-6ccbe4542f1e","ios":"levelo://app?vid=8ab491c2-2f49-481c-adf5-6ccbe4542f1e"},"vehicle_type_id":"4","last_reported":1718219213,"current_range_meters":9600,"station_id":"ce4bgl92rcd13ifvqbq0","pricing_plan_id":"cebpf4jnsgd1na2vs0mg"},{"bike_id":"8d13c95f-a148-441a-bfbe-b0ee2a71b687","system_id":"levelo_inurba_marseille","lat":43.312239,"lon":5.368562,"is_reserved":false,"is_disabled":false,"rental_uris":{"android":"levelo://app?vid=8d13c95f-a148-441a-bfbe-b0ee2a71b687","ios":"levelo://app?vid=8d13c95f-a148-441a-bfbe-b0ee2a71b687"},"vehicle_type_id":"4","last_reported":1718219213,"current_range_meters":13600,"station_id":"ce4bgl92rcd13ifvqbq0","pricing_plan_id":"cebpf4jnsgd1na2vs0mg"},{"bike_id":"de27f82e-81d6-42cc-9854-7ad08b628ee0","system_id":"levelo_inurba_marseille","lat":43.3151,"lon":5.37119,"is_reserved":false,"is_disabled":false,"rental_uris":{"android":"levelo://app?vid=de27f82e-81d6-42cc-9854-7ad08b628ee0","ios":"levelo://app?vid=de27f82e-81d6-42cc-9854-7ad08b628ee0"},"vehicle_type_id":"4","last_reported":1718219213,"current_range_meters":19600,"station_id":"","pricing_plan_id":"cebpf4jnsgd1na2vs0mg"},{"bike_id":"17527c28-032f-479d-b3e5-71e9f2a33602","system_id":"levelo_inurba_marseille","lat":43.309039,"lon":5.371797,"is_reserved":false,"is_disabled":false,"rental_uris":{"android":"levelo://app?vid=17527c28-032f-479d-b3e5-71e9f2a33602","ios":"levelo://app?vid=17527c28-032f-479d-b3e5-71e9f2a33602"},"vehicle_type_id":"4","last_reported":1718219213,"current_range_meters":2000,"station_id":"ce4bguh2rcd13ifvqckg","pricing_plan_id":"cebpf4jnsgd1na2vs0mg"},{"bike_id":"aa0d4bdf-ece2-4282-ab0d-12383b0ca241","system_id":"levelo_inurba_marseille","lat":43.31488,"lon":5.37298,"is_reserved":false,"is_disabled":false,"rental_uris":{"android":"levelo://app?vid=aa0d4bdf-ece2-4282-ab0d-12383b0ca241","ios":"levelo://app?vid=aa0d4bdf-ece2-4282-ab0d-12383b0ca241"},"vehicle_type_id":"4","last_reported":1718219213,"current_range_meters":9600,"station_id":"ce4bgt12rcd13ifvqcd0","pricing_plan_id":"cebpf4jnsgd1na2vs0mg"},{"bike_id":"9402f032-ded1-47dc-8909-3a2e83cdba70","system_id":"levelo_inurba_marseille","lat":43.31486,"lon":5.37304,"is_reserved":false,"is_disabled":false,"rental_uris":{"android":"levelo://app?vid=9402f032-ded1-47dc-8909-3a2e83cdba70","ios":"levelo://app?vid=9402f032-ded1-47dc-8909-3a2e83cdba70"},"vehicle_type_id":"4","last_reported":1718219213,"current_range_meters":8400,"station_id":"ce4bgt12rcd13ifvqcd0","pricing_plan_id":"cebpf4jnsgd1na2vs0mg"},{"bike_id":"09837747-dbca-4fc2-8fe0-569a6959d250","system_id":"levelo_inurba_marseille","lat":43.31483,"lon":5.3731,"is_reserved":false,"is_disabled":false,"rental_uris":{"android":"levelo://app?vid=09837747-dbca-4fc2-8fe0-569a6959d250","ios":"levelo://app?vid=09837747-dbca-4fc2-8fe0-569a6959d250"},"vehicle_type_id":"4","last_reported":1718219213,"current_range_meters":13200,"station_id":"ce4bgt12rcd13ifvqcd0","pricing_plan_id":"cebpf4jnsgd1na2vs0mg"},{"bike_id":"e103e9f8-f456-442a-bad2-e1dcf515e993","system_id":"levelo_inurba_marseille","lat":43.314811,"lon":5.373104,"is_reserved":false,"is_disabled":false,"rental_uris":{"android":"levelo://app?vid=e103e9f8-f456-442a-bad2-e1dcf515e993","ios":"levelo://app?vid=e103e9f8-f456-442a-bad2-e1dcf515e993"},"vehicle_type_id":"4","last_reported":1718219213,"current_range_meters":8800,"station_id":"ce4bgt12rcd13ifvqcd0","pricing_plan_id":"cebpf4jnsgd1na2vs0mg"},{"bike_id":"19e2a97b-fef1-4bea-a679-1796904b1126","system_id":"levelo_inurba_marseille","lat":43.30537,"lon":5.367345,"is_reserved":false,"is_disabled":false,"rental_uris":{"android":"levelo://app?vid=19e2a97b-fef1-4bea-a679-1796904b1126","ios":"levelo://app?vid=19e2a97b-fef1-4bea-a679-1796904b1126"},"vehicle_type_id":"4","last_reported":1718219213,"current_range_meters":5600,"station_id":"ce4bgrp2rcd13ifvqc9g","pricing_plan_id":"cebpf4jnsgd1na2vs0mg"},{"bike_id":"1f51622a-e486-41b2-aecc-fa3e188328a6","system_id":"levelo_inurba_marseille","lat":43.305706,"lon":5.365654,"is_reserved":false,"is_disabled":false,"rental_uris":{"android":"levelo://app?vid=1f51622a-e486-41b2-aecc-fa3e188328a6","ios":"levelo://app?vid=1f51622a-e486-41b2-aecc-fa3e188328a6"},"vehicle_type_id":"4","last_reported":1718219213,"current_range_meters":14400,"station_id":"ce4bgs12rcd13ifvqcag","pricing_plan_id":"cebpf4jnsgd1na2vs0mg"},{"bike_id":"ed16c5ff-08c4-4313-9a3b-654867f2c053","system_id":"levelo_inurba_marseille","lat":43.305989,"lon":5.37225,"is_reserved":false,"is_disabled":false,"rental_uris":{"android":"levelo://app?vid=ed16c5ff-08c4-4313-9a3b-654867f2c053","ios":"levelo://app?vid=ed16c5ff-08c4-4313-9a3b-654867f2c053"},"vehicle_type_id":"4","last_reported":1718219213,"current_range_meters":8400,"station_id":"ce4bgqh2rcd13ifvqc4g","pricing_plan_id":"cebpf4jnsgd1na2vs0mg"},{"bike_id":"de1092e7-fd25-40d2-af63-7a119e0cff0b","system_id":"levelo_inurba_marseille","lat":43.311131,"lon":5.377651,"is_reserved":false,"is_disabled":false,"rental_uris":{"android":"levelo://app?vid=de1092e7-fd25-40d2-af63-7a119e0cff0b","ios":"levelo://app?vid=de1092e7-fd25-40d2-af63-7a119e0cff0b"},"vehicle_type_id":"4","last_reported":1718219213,"current_range_meters":4000,"station_id":"ce4bgt92rcd13ifvqcg0","pricing_plan_id":"cebpf4jnsgd1na2vs0mg"},{"bike_id":"0e088e65-5819-4f82-879a-2c335e39b29e","system_id":"levelo_inurba_marseille","lat":43.311131,"lon":5.377651,"is_reserved":false,"is_disabled":false,"rental_uris":{"android":"levelo://app?vid=0e088e65-5819-4f82-879a-2c335e39b29e","ios":"levelo://app?vid=0e088e65-5819-4f82-879a-2c335e39b29e"},"vehicle_type_id":"4","last_reported":1718219213,"current_range_meters":5600,"station_id":"ce4bgt92rcd13ifvqcg0","pricing_plan_id":"cebpf4jnsgd1na2vs0mg"},{"bike_id":"3c5373f0-e091-464c-8563-6e5b75600403","system_id":"levelo_inurba_marseille","lat":43.311131,"lon":5.377651,"is_reserved":false,"is_disabled":false,"rental_uris":{"android":"levelo://app?vid=3c5373f0-e091-464c-8563-6e5b75600403","ios":"levelo://app?vid=3c5373f0-e091-464c-8563-6e5b75600403"},"vehicle_type_id":"4","last_reported":1718219213,"current_range_meters":23200,"station_id":"ce4bgt92rcd13ifvqcg0","pricing_plan_id":"cebpf4jnsgd1na2vs0mg"},{"bike_id":"117039e7-2616-441f-8590-c4c6ec10b6b6","system_id":"levelo_inurba_marseille","lat":43.311131,"lon":5.377651,"is_reserved":false,"is_disabled":false,"rental_uris":{"android":"levelo://app?vid=117039e7-2616-441f-8590-c4c6ec10b6b6","ios":"levelo://app?vid=117039e7-2616-441f-8590-c4c6ec10b6b6"},"vehicle_type_id":"4","last_reported":1718219213,"current_range_meters":31200,"station_id":"ce4bgt92rcd13ifvqcg0","pricing_plan_id":"cebpf4jnsgd1na2vs0mg"},{"bike_id":"7306bf08-3432-4489-92a5-6d447d70cc8e","system_id":"levelo_inurba_marseille","lat":43.311131,"lon":5.377651,"is_reserved":false,"is_disabled":false,"rental_uris":{"android":"levelo://app?vid=7306bf08-3432-4489-92a5-6d447d70cc8e","ios":"levelo://app?vid=7306bf08-3432-4489-92a5-6d447d70cc8e"},"vehicle_type_id":"4","last_reported":1718219213,"current_range_meters":23200,"station_id":"ce4bgt92rcd13ifvqcg0","pricing_plan_id":"cebpf4jnsgd1na2vs0mg"},{"bike_id":"fb3e4a6c-2322-4da2-a40f-8e63ac477515","system_id":"levelo_inurba_marseille","lat":43.311125,"lon":5.377624,"is_reserved":false,"is_disabled":false,"rental_uris":{"android":"levelo://app?vid=fb3e4a6c-2322-4da2-a40f-8e63ac477515","ios":"levelo://app?vid=fb3e4a6c-2322-4da2-a40f-8e63ac477515"},"vehicle_type_id":"4","last_reported":1718219213,"current_range_meters":800,"station_id":"ce4bgt92rcd13ifvqcg0","pricing_plan_id":"cebpf4jnsgd1na2vs0mg"},{"bike_id":"c1da5626-d0d0-499d-a1e8-28b5f98bb0e6","system_id":"levelo_inurba_marseille","lat":43.307945,"lon":5.376487,"is_reserved":false,"is_disabled":false,"rental_uris":{"android":"levelo://app?vid=c1da5626-d0d0-499d-a1e8-28b5f98bb0e6","ios":"levelo://app?vid=c1da5626-d0d0-499d-a1e8-28b5f98bb0e6"},"vehicle_type_id":"4","last_reported":1718219213,"current_range_meters":0,"station_id":"ce4bgv92rcd13ifvqcq0","pricing_plan_id":"cebpf4jnsgd1na2vs0mg"},{"bike_id":"3ff9a4ef-2456-4edf-9322-4c8a9c9def2c","system_id":"levelo_inurba_marseille","lat":43.317075,"lon":5.377367,"is_reserved":false,"is_disabled":false,"rental_uris":{"android":"levelo://app?vid=3ff9a4ef-2456-4edf-9322-4c8a9c9def2c","ios":"levelo://app?vid=3ff9a4ef-2456-4edf-9322-4c8a9c9def2c"},"vehicle_type_id":"4","last_reported":1718219213,"current_range_meters":4400,"station_id":"ce4bgth2rcd13ifvqch0","pricing_plan_id":"cebpf4jnsgd1na2vs0mg"},{"bike_id":"01ca70b6-4e2c-42cb-9aed-a8b80d5ea29c","system_id":"levelo_inurba_marseille","lat":43.309287,"lon":5.379113,"is_reserved":false,"is_disabled":false,"rental_uris":{"android":"levelo://app?vid=01ca70b6-4e2c-42cb-9aed-a8b80d5ea29c","ios":"levelo://app?vid=01ca70b6-4e2c-42cb-9aed-a8b80d5ea29c"},"vehicle_type_id":"4","last_reported":1718219213,"current_range_meters":7200,"station_id":"","pricing_plan_id":"cebpf4jnsgd1na2vs0mg"},{"bike_id":"45e149ce-6d76-4a84-a5e2-c012b9bab182","system_id":"levelo_inurba_marseille","lat":43.303046,"lon":5.368981,"is_reserved":false,"is_disabled":false,"rental_uris":{"android":"levelo://app?vid=45e149ce-6d76-4a84-a5e2-c012b9bab182","ios":"levelo://app?vid=45e149ce-6d76-4a84-a5e2-c012b9bab182"},"vehicle_type_id":"4","last_reported":1718219213,"current_range_meters":18800,"station_id":"ce4bgqh2rcd13ifvqc5g","pricing_plan_id":"cebpf4jnsgd1na2vs0mg"},{"bike_id":"1260fe28-8db8-4746-8567-ff8ba6f0c135","system_id":"levelo_inurba_marseille","lat":43.304606,"lon":5.379026,"is_reserved":false,"is_disabled":false,"rental_uris":{"android":"levelo://app?vid=1260fe28-8db8-4746-8567-ff8ba6f0c135","ios":"levelo://app?vid=1260fe28-8db8-4746-8567-ff8ba6f0c135"},"vehicle_type_id":"4","last_reported":1718219213,"current_range_meters":28800,"station_id":"ce4bgup2rcd13ifvqcn0","pricing_plan_id":"cebpf4jnsgd1na2vs0mg"},{"bike_id":"311a04bb-54b8-49c9-82d2-da57713df943","system_id":"levelo_inurba_marseille","lat":43.304606,"lon":5.379026,"is_reserved":false,"is_disabled":false,"rental_uris":{"android":"levelo://app?vid=311a04bb-54b8-49c9-82d2-da57713df943","ios":"levelo://app?vid=311a04bb-54b8-49c9-82d2-da57713df943"},"vehicle_type_id":"4","last_reported":1718219213,"current_range_meters":31200,"station_id":"ce4bgup2rcd13ifvqcn0","pricing_plan_id":"cebpf4jnsgd1na2vs0mg"},{"bike_id":"e329e16d-5ece-4547-b891-7f1a4fb0327a","system_id":"levelo_inurba_marseille","lat":43.324771,"lon":5.36557,"is_reserved":false,"is_disabled":false,"rental_uris":{"android":"levelo://app?vid=e329e16d-5ece-4547-b891-7f1a4fb0327a","ios":"levelo://app?vid=e329e16d-5ece-4547-b891-7f1a4fb0327a"},"vehicle_type_id":"4","last_reported":1718219213,"current_range_meters":10800,"station_id":"ce4bhs12rcd13ifvqhvg","pricing_plan_id":"cebpf4jnsgd1na2vs0mg"},{"bike_id":"211f9115-e6a8-4fc8-9664-8c0a58d47260","system_id":"levelo_inurba_marseille","lat":43.324771,"lon":5.36557,"is_reserved":false,"is_disabled":false,"rental_uris":{"android":"levelo://app?vid=211f9115-e6a8-4fc8-9664-8c0a58d47260","ios":"levelo://app?vid=211f9115-e6a8-4fc8-9664-8c0a58d47260"},"vehicle_type_id":"4","last_reported":1718219213,"current_range_meters":11200,"station_id":"ce4bhs12rcd13ifvqhvg","pricing_plan_id":"cebpf4jnsgd1na2vs0mg"},{"bike_id":"0b10ed5c-b5c4-4cac-9db6-f0c709beb0e6","system_id":"levelo_inurba_marseille","lat":43.324771,"lon":5.36557,"is_reserved":false,"is_disabled":false,"rental_uris":{"android":"levelo://app?vid=0b10ed5c-b5c4-4cac-9db6-f0c709beb0e6","ios":"levelo://app?vid=0b10ed5c-b5c4-4cac-9db6-f0c709beb0e6"},"vehicle_type_id":"4","last_reported":1718219213,"current_range_meters":1600,"station_id":"ce4bhs12rcd13ifvqhvg","pricing_plan_id":"cebpf4jnsgd1na2vs0mg"},{"bike_id":"f4113ec6-e013-4a52-867a-2c13ff111abd","system_id":"levelo_inurba_marseille","lat":43.310804,"lon":5.38359,"is_reserved":false,"is_disabled":false,"rental_uris":{"android":"levelo://app?vid=f4113ec6-e013-4a52-867a-2c13ff111abd","ios":"levelo://app?vid=f4113ec6-e013-4a52-867a-2c13ff111abd"},"vehicle_type_id":"4","last_reported":1718219213,"current_range_meters":26000,"station_id":"ce4bgv92rcd13ifvqcr0","pricing_plan_id":"cebpf4jnsgd1na2vs0mg"},{"bike_id":"150eea89-1b88-47d1-9c9a-a6f23c20915e","system_id":"levelo_inurba_marseille","lat":43.310804,"lon":5.38359,"is_reserved":false,"is_disabled":false,"rental_uris":{"android":"levelo://app?vid=150eea89-1b88-47d1-9c9a-a6f23c20915e","ios":"levelo://app?vid=150eea89-1b88-47d1-9c9a-a6f23c20915e"},"vehicle_type_id":"4","last_reported":1718219213,"current_range_meters":12800,"station_id":"ce4bgv92rcd13ifvqcr0","pricing_plan_id":"cebpf4jnsgd1na2vs0mg"},{"bike_id":"02c58b23-f02d-46a0-b257-13ee94837aa3","system_id":"levelo_inurba_marseille","lat":43.310804,"lon":5.38359,"is_reserved":false,"is_disabled":false,"rental_uris":{"android":"levelo://app?vid=02c58b23-f02d-46a0-b257-13ee94837aa3","ios":"levelo://app?vid=02c58b23-f02d-46a0-b257-13ee94837aa3"},"vehicle_type_id":"4","last_reported":1718219213,"current_range_meters":2000,"station_id":"ce4bgv92rcd13ifvqcr0","pricing_plan_id":"cebpf4jnsgd1na2vs0mg"},{"bike_id":"16e6f1f2-6b6f-4ed8-9ac1-fdcbf27d04ac","system_id":"levelo_inurba_marseille","lat":43.319935,"lon":5.381699,"is_reserved":false,"is_disabled":false,"rental_uris":{"android":"levelo://app?vid=16e6f1f2-6b6f-4ed8-9ac1-fdcbf27d04ac","ios":"levelo://app?vid=16e6f1f2-6b6f-4ed8-9ac1-fdcbf27d04ac"},"vehicle_type_id":"4","last_reported":1718219213,"current_range_meters":10000,"station_id":"ce4bhr12rcd13ifvqhpg","pricing_plan_id":"cebpf4jnsgd1na2vs0mg"},{"bike_id":"3792d2f0-e70f-44af-b88c-2898546cb996","system_id":"levelo_inurba_marseille","lat":43.319935,"lon":5.381699,"is_reserved":false,"is_disabled":false,"rental_uris":{"android":"levelo://app?vid=3792d2f0-e70f-44af-b88c-2898546cb996","ios":"levelo://app?vid=3792d2f0-e70f-44af-b88c-2898546cb996"},"vehicle_type_id":"4","last_reported":1718219213,"current_range_meters":11600,"station_id":"ce4bhr12rcd13ifvqhpg","pricing_plan_id":"cebpf4jnsgd1na2vs0mg"},{"bike_id":"9d708d7c-b7c6-4bfc-a304-093fb44408dd","system_id":"levelo_inurba_marseille","lat":43.313571,"lon":5.384829,"is_reserved":false,"is_disabled":false,"rental_uris":{"android":"levelo://app?vid=9d708d7c-b7c6-4bfc-a304-093fb44408dd","ios":"levelo://app?vid=9d708d7c-b7c6-4bfc-a304-093fb44408dd"},"vehicle_type_id":"4","last_reported":1718219213,"current_range_meters":2000,"station_id":"ce4bgt92rcd13ifvqcf0","pricing_plan_id":"cebpf4jnsgd1na2vs0mg"},{"bike_id":"899ad3df-712c-46b0-8ec7-ae111f93c8cd","system_id":"levelo_inurba_marseille","lat":43.313571,"lon":5.384829,"is_reserved":false,"is_disabled":false,"rental_uris":{"android":"levelo://app?vid=899ad3df-712c-46b0-8ec7-ae111f93c8cd","ios":"levelo://app?vid=899ad3df-712c-46b0-8ec7-ae111f93c8cd"},"vehicle_type_id":"4","last_reported":1718219213,"current_range_meters":30400,"station_id":"ce4bgt92rcd13ifvqcf0","pricing_plan_id":"cebpf4jnsgd1na2vs0mg"},{"bike_id":"7f205606-6d2c-4183-a3d6-88447b70b77b","system_id":"levelo_inurba_marseille","lat":43.313571,"lon":5.384829,"is_reserved":false,"is_disabled":false,"rental_uris":{"android":"levelo://app?vid=7f205606-6d2c-4183-a3d6-88447b70b77b","ios":"levelo://app?vid=7f205606-6d2c-4183-a3d6-88447b70b77b"},"vehicle_type_id":"4","last_reported":1718219213,"current_range_meters":22800,"station_id":"ce4bgt92rcd13ifvqcf0","pricing_plan_id":"cebpf4jnsgd1na2vs0mg"},{"bike_id":"06eeef96-03d8-41e4-849f-f1bf855f0ef0","system_id":"levelo_inurba_marseille","lat":43.299724,"lon":5.371829,"is_reserved":false,"is_disabled":false,"rental_uris":{"android":"levelo://app?vid=06eeef96-03d8-41e4-849f-f1bf855f0ef0","ios":"levelo://app?vid=06eeef96-03d8-41e4-849f-f1bf855f0ef0"},"vehicle_type_id":"4","last_reported":1718219213,"current_range_meters":12800,"station_id":"ce4bgr92rcd13ifvqc7g","pricing_plan_id":"cebpf4jnsgd1na2vs0mg"},{"bike_id":"18fa0d79-5073-4bf2-b0d9-1540bccb0ce0","system_id":"levelo_inurba_marseille","lat":43.299222,"lon":5.365554,"is_reserved":false,"is_disabled":false,"rental_uris":{"android":"levelo://app?vid=18fa0d79-5073-4bf2-b0d9-1540bccb0ce0","ios":"levelo://app?vid=18fa0d79-5073-4bf2-b0d9-1540bccb0ce0"},"vehicle_type_id":"4","last_reported":1718219213,"current_range_meters":24400,"station_id":"ce4bgm92rcd13ifvqbr0","pricing_plan_id":"cebpf4jnsgd1na2vs0mg"},{"bike_id":"fc1bee12-8e5a-4eff-a8b4-b9417cf8c148","system_id":"levelo_inurba_marseille","lat":43.29936,"lon":5.36546,"is_reserved":false,"is_disabled":false,"rental_uris":{"android":"levelo://app?vid=fc1bee12-8e5a-4eff-a8b4-b9417cf8c148","ios":"levelo://app?vid=fc1bee12-8e5a-4eff-a8b4-b9417cf8c148"},"vehicle_type_id":"4","last_reported":1718219213,"current_range_meters":0,"station_id":"ce4bgm92rcd13ifvqbr0","pricing_plan_id":"cebpf4jnsgd1na2vs0mg"},{"bike_id":"528fab31-b465-4b04-8490-11ad4fd79bd5","system_id":"levelo_inurba_marseille","lat":43.299296,"lon":5.365419,"is_reserved":false,"is_disabled":false,"rental_uris":{"android":"levelo://app?vid=528fab31-b465-4b04-8490-11ad4fd79bd5","ios":"levelo://app?vid=528fab31-b465-4b04-8490-11ad4fd79bd5"},"vehicle_type_id":"4","last_reported":1718219213,"current_range_meters":23600,"station_id":"ce4bgm92rcd13ifvqbr0","pricing_plan_id":"cebpf4jnsgd1na2vs0mg"},{"bike_id":"7c976dbb-e663-482f-8588-65a8d14e22c3","system_id":"levelo_inurba_marseille","lat":43.29921,"lon":5.36515,"is_reserved":false,"is_disabled":false,"rental_uris":{"android":"levelo://app?vid=7c976dbb-e663-482f-8588-65a8d14e22c3","ios":"levelo://app?vid=7c976dbb-e663-482f-8588-65a8d14e22c3"},"vehicle_type_id":"4","last_reported":1718219213,"current_range_meters":30000,"station_id":"ce4bgm92rcd13ifvqbr0","pricing_plan_id":"cebpf4jnsgd1na2vs0mg"},{"bike_id":"adc7420b-28dd-480a-9d24-2d067bc871aa","system_id":"levelo_inurba_marseille","lat":43.298433,"lon":5.362774,"is_reserved":false,"is_disabled":false,"rental_uris":{"android":"levelo://app?vid=adc7420b-28dd-480a-9d24-2d067bc871aa","ios":"levelo://app?vid=adc7420b-28dd-480a-9d24-2d067bc871aa"},"vehicle_type_id":"4","last_reported":1718219213,"current_range_meters":30400,"station_id":"ce4bgpp2rcd13ifvqc3g","pricing_plan_id":"cebpf4jnsgd1na2vs0mg"},{"bike_id":"e954e934-abeb-44b4-8656-3c67a8bdb469","system_id":"levelo_inurba_marseille","lat":43.298433,"lon":5.362774,"is_reserved":false,"is_disabled":false,"rental_uris":{"android":"levelo://app?vid=e954e934-abeb-44b4-8656-3c67a8bdb469","ios":"levelo://app?vid=e954e934-abeb-44b4-8656-3c67a8bdb469"},"vehicle_type_id":"4","last_reported":1718219213,"current_range_meters":19600,"station_id":"ce4bgpp2rcd13ifvqc3g","pricing_plan_id":"cebpf4jnsgd1na2vs0mg"},{"bike_id":"a01abe38-91ba-40e6-a023-1c204394c26c","system_id":"levelo_inurba_marseille","lat":43.298433,"lon":5.362774,"is_reserved":false,"is_disabled":false,"rental_uris":{"android":"levelo://app?vid=a01abe38-91ba-40e6-a023-1c204394c26c","ios":"levelo://app?vid=a01abe38-91ba-40e6-a023-1c204394c26c"},"vehicle_type_id":"4","last_reported":1718219213,"current_range_meters":14400,"station_id":"ce4bgpp2rcd13ifvqc3g","pricing_plan_id":"cebpf4jnsgd1na2vs0mg"},{"bike_id":"6f2ca6de-d8be-4de9-9707-bb3488dae3c9","system_id":"levelo_inurba_marseille","lat":43.298433,"lon":5.362774,"is_reserved":false,"is_disabled":false,"rental_uris":{"android":"levelo://app?vid=6f2ca6de-d8be-4de9-9707-bb3488dae3c9","ios":"levelo://app?vid=6f2ca6de-d8be-4de9-9707-bb3488dae3c9"},"vehicle_type_id":"4","last_reported":1718219213,"current_range_meters":30800,"station_id":"ce4bgpp2rcd13ifvqc3g","pricing_plan_id":"cebpf4jnsgd1na2vs0mg"},{"bike_id":"a8e7dc40-7692-404e-b302-36e6cb80cbdf","system_id":"levelo_inurba_marseille","lat":43.298433,"lon":5.362774,"is_reserved":false,"is_disabled":false,"rental_uris":{"android":"levelo://app?vid=a8e7dc40-7692-404e-b302-36e6cb80cbdf","ios":"levelo://app?vid=a8e7dc40-7692-404e-b302-36e6cb80cbdf"},"vehicle_type_id":"4","last_reported":1718219213,"current_range_meters":29600,"station_id":"ce4bgpp2rcd13ifvqc3g","pricing_plan_id":"cebpf4jnsgd1na2vs0mg"},{"bike_id":"08cc66de-1829-4efe-98ae-8d018d9a9d90","system_id":"levelo_inurba_marseille","lat":43.305364,"lon":5.384119,"is_reserved":false,"is_disabled":false,"rental_uris":{"android":"levelo://app?vid=08cc66de-1829-4efe-98ae-8d018d9a9d90","ios":"levelo://app?vid=08cc66de-1829-4efe-98ae-8d018d9a9d90"},"vehicle_type_id":"4","last_reported":1718219213,"current_range_meters":26400,"station_id":"ce4bgg92rcd13ifvqb30","pricing_plan_id":"cebpf4jnsgd1na2vs0mg"},{"bike_id":"72fc4ca8-c8d6-4539-80f4-34b1ed1e04c5","system_id":"levelo_inurba_marseille","lat":43.305364,"lon":5.384119,"is_reserved":false,"is_disabled":false,"rental_uris":{"android":"levelo://app?vid=72fc4ca8-c8d6-4539-80f4-34b1ed1e04c5","ios":"levelo://app?vid=72fc4ca8-c8d6-4539-80f4-34b1ed1e04c5"},"vehicle_type_id":"4","last_reported":1718219213,"current_range_meters":24400,"station_id":"ce4bgg92rcd13ifvqb30","pricing_plan_id":"cebpf4jnsgd1na2vs0mg"},{"bike_id":"bdd3a2fd-417d-4979-997f-5eeec324d139","system_id":"levelo_inurba_marseille","lat":43.31171,"lon":5.3871,"is_reserved":false,"is_disabled":false,"rental_uris":{"android":"levelo://app?vid=bdd3a2fd-417d-4979-997f-5eeec324d139","ios":"levelo://app?vid=bdd3a2fd-417d-4979-997f-5eeec324d139"},"vehicle_type_id":"4","last_reported":1718219213,"current_range_meters":0,"station_id":"ce4bgv12rcd13ifvqcp0","pricing_plan_id":"cebpf4jnsgd1na2vs0mg"},{"bike_id":"fe596353-de56-426e-af43-aa3533297794","system_id":"levelo_inurba_marseille","lat":43.311722,"lon":5.387247,"is_reserved":false,"is_disabled":false,"rental_uris":{"android":"levelo://app?vid=fe596353-de56-426e-af43-aa3533297794","ios":"levelo://app?vid=fe596353-de56-426e-af43-aa3533297794"},"vehicle_type_id":"4","last_reported":1718219213,"current_range_meters":10800,"station_id":"ce4bgv12rcd13ifvqcp0","pricing_plan_id":"cebpf4jnsgd1na2vs0mg"},{"bike_id":"28b65bbb-6cbd-43c9-8e99-c677abc75f45","system_id":"levelo_inurba_marseille","lat":43.311722,"lon":5.387247,"is_reserved":false,"is_disabled":false,"rental_uris":{"android":"levelo://app?vid=28b65bbb-6cbd-43c9-8e99-c677abc75f45","ios":"levelo://app?vid=28b65bbb-6cbd-43c9-8e99-c677abc75f45"},"vehicle_type_id":"4","last_reported":1718219213,"current_range_meters":23600,"station_id":"ce4bgv12rcd13ifvqcp0","pricing_plan_id":"cebpf4jnsgd1na2vs0mg"},{"bike_id":"e37df296-24d7-4907-a943-ec2b104f4ce3","system_id":"levelo_inurba_marseille","lat":43.311722,"lon":5.387247,"is_reserved":false,"is_disabled":false,"rental_uris":{"android":"levelo://app?vid=e37df296-24d7-4907-a943-ec2b104f4ce3","ios":"levelo://app?vid=e37df296-24d7-4907-a943-ec2b104f4ce3"},"vehicle_type_id":"4","last_reported":1718219213,"current_range_meters":22400,"station_id":"ce4bgv12rcd13ifvqcp0","pricing_plan_id":"cebpf4jnsgd1na2vs0mg"},{"bike_id":"cbd455fd-a387-4915-94f8-4bc7c1b4d22b","system_id":"levelo_inurba_marseille","lat":43.311722,"lon":5.387247,"is_reserved":false,"is_disabled":false,"rental_uris":{"android":"levelo://app?vid=cbd455fd-a387-4915-94f8-4bc7c1b4d22b","ios":"levelo://app?vid=cbd455fd-a387-4915-94f8-4bc7c1b4d22b"},"vehicle_type_id":"4","last_reported":1718219213,"current_range_meters":14000,"station_id":"ce4bgv12rcd13ifvqcp0","pricing_plan_id":"cebpf4jnsgd1na2vs0mg"},{"bike_id":"5ad299bc-7194-4685-8b19-1ea7d3bc1717","system_id":"levelo_inurba_marseille","lat":43.29824,"lon":5.37295,"is_reserved":false,"is_disabled":false,"rental_uris":{"android":"levelo://app?vid=5ad299bc-7194-4685-8b19-1ea7d3bc1717","ios":"levelo://app?vid=5ad299bc-7194-4685-8b19-1ea7d3bc1717"},"vehicle_type_id":"4","last_reported":1718219213,"current_range_meters":25200,"station_id":"","pricing_plan_id":"cebpf4jnsgd1na2vs0mg"},{"bike_id":"a9ac85be-0d6a-4a99-af54-aa130d9d8e24","system_id":"levelo_inurba_marseille","lat":43.297774,"lon":5.370875,"is_reserved":false,"is_disabled":false,"rental_uris":{"android":"levelo://app?vid=a9ac85be-0d6a-4a99-af54-aa130d9d8e24","ios":"levelo://app?vid=a9ac85be-0d6a-4a99-af54-aa130d9d8e24"},"vehicle_type_id":"4","last_reported":1718219213,"current_range_meters":24800,"station_id":"ce4bgop2rcd13ifvqc1g","pricing_plan_id":"cebpf4jnsgd1na2vs0mg"},{"bike_id":"c6994e27-3c01-43fb-8ede-8d7efae032b0","system_id":"levelo_inurba_marseille","lat":43.297794,"lon":5.370888,"is_reserved":false,"is_disabled":false,"rental_uris":{"android":"levelo://app?vid=c6994e27-3c01-43fb-8ede-8d7efae032b0","ios":"levelo://app?vid=c6994e27-3c01-43fb-8ede-8d7efae032b0"},"vehicle_type_id":"4","last_reported":1718219213,"current_range_meters":29600,"station_id":"ce4bgop2rcd13ifvqc1g","pricing_plan_id":"cebpf4jnsgd1na2vs0mg"},{"bike_id":"ef5f8927-6c1e-4538-8a7f-77b2ac32e081","system_id":"levelo_inurba_marseille","lat":43.297794,"lon":5.370888,"is_reserved":false,"is_disabled":false,"rental_uris":{"android":"levelo://app?vid=ef5f8927-6c1e-4538-8a7f-77b2ac32e081","ios":"levelo://app?vid=ef5f8927-6c1e-4538-8a7f-77b2ac32e081"},"vehicle_type_id":"4","last_reported":1718219213,"current_range_meters":0,"station_id":"ce4bgop2rcd13ifvqc1g","pricing_plan_id":"cebpf4jnsgd1na2vs0mg"},{"bike_id":"4f2afbcf-ffe7-4a2e-8e3e-be152f4cfb04","system_id":"levelo_inurba_marseille","lat":43.322872,"lon":5.382756,"is_reserved":false,"is_disabled":false,"rental_uris":{"android":"levelo://app?vid=4f2afbcf-ffe7-4a2e-8e3e-be152f4cfb04","ios":"levelo://app?vid=4f2afbcf-ffe7-4a2e-8e3e-be152f4cfb04"},"vehicle_type_id":"4","last_reported":1718219213,"current_range_meters":31200,"station_id":"ce4bhr12rcd13ifvqhqg","pricing_plan_id":"cebpf4jnsgd1na2vs0mg"},{"bike_id":"65d3454a-708f-4293-89b7-38811dc320a6","system_id":"levelo_inurba_marseille","lat":43.322872,"lon":5.382756,"is_reserved":false,"is_disabled":false,"rental_uris":{"android":"levelo://app?vid=65d3454a-708f-4293-89b7-38811dc320a6","ios":"levelo://app?vid=65d3454a-708f-4293-89b7-38811dc320a6"},"vehicle_type_id":"4","last_reported":1718219213,"current_range_meters":0,"station_id":"ce4bhr12rcd13ifvqhqg","pricing_plan_id":"cebpf4jnsgd1na2vs0mg"},{"bike_id":"0910f089-1a74-42f1-be05-ce3a5b6e2b55","system_id":"levelo_inurba_marseille","lat":43.322872,"lon":5.382756,"is_reserved":false,"is_disabled":false,"rental_uris":{"android":"levelo://app?vid=0910f089-1a74-42f1-be05-ce3a5b6e2b55","ios":"levelo://app?vid=0910f089-1a74-42f1-be05-ce3a5b6e2b55"},"vehicle_type_id":"4","last_reported":1718219213,"current_range_meters":2800,"station_id":"ce4bhr12rcd13ifvqhqg","pricing_plan_id":"cebpf4jnsgd1na2vs0mg"},{"bike_id":"56ae48b9-cb8d-4d94-966b-b3be837fb22c","system_id":"levelo_inurba_marseille","lat":43.322917,"lon":5.382717,"is_reserved":false,"is_disabled":false,"rental_uris":{"android":"levelo://app?vid=56ae48b9-cb8d-4d94-966b-b3be837fb22c","ios":"levelo://app?vid=56ae48b9-cb8d-4d94-966b-b3be837fb22c"},"vehicle_type_id":"4","last_reported":1718219213,"current_range_meters":2800,"station_id":"ce4bhr12rcd13ifvqhqg","pricing_plan_id":"cebpf4jnsgd1na2vs0mg"},{"bike_id":"c32123cd-eecc-4f9a-a83a-4ec57aa019d5","system_id":"levelo_inurba_marseille","lat":43.322872,"lon":5.382756,"is_reserved":false,"is_disabled":false,"rental_uris":{"android":"levelo://app?vid=c32123cd-eecc-4f9a-a83a-4ec57aa019d5","ios":"levelo://app?vid=c32123cd-eecc-4f9a-a83a-4ec57aa019d5"},"vehicle_type_id":"4","last_reported":1718219213,"current_range_meters":27200,"station_id":"ce4bhr12rcd13ifvqhqg","pricing_plan_id":"cebpf4jnsgd1na2vs0mg"},{"bike_id":"cfc53d0f-f753-4f3d-8c83-8cc5e3b3eb11","system_id":"levelo_inurba_marseille","lat":43.297163,"lon":5.365866,"is_reserved":false,"is_disabled":false,"rental_uris":{"android":"levelo://app?vid=cfc53d0f-f753-4f3d-8c83-8cc5e3b3eb11","ios":"levelo://app?vid=cfc53d0f-f753-4f3d-8c83-8cc5e3b3eb11"},"vehicle_type_id":"4","last_reported":1718219213,"current_range_meters":6400,"station_id":"ce4bgn12rcd13ifvqbt0","pricing_plan_id":"cebpf4jnsgd1na2vs0mg"},{"bike_id":"eb53c8f1-6cba-4b79-a2d7-d5003232207c","system_id":"levelo_inurba_marseille","lat":43.2968,"lon":5.37291,"is_reserved":false,"is_disabled":false,"rental_uris":{"android":"levelo://app?vid=eb53c8f1-6cba-4b79-a2d7-d5003232207c","ios":"levelo://app?vid=eb53c8f1-6cba-4b79-a2d7-d5003232207c"},"vehicle_type_id":"4","last_reported":1718219213,"current_range_meters":400,"station_id":"ce4bgk12rcd13ifvqbj0","pricing_plan_id":"cebpf4jnsgd1na2vs0mg"},{"bike_id":"a3d27607-9e16-4b4f-9554-7a9ff66b0783","system_id":"levelo_inurba_marseille","lat":43.29688,"lon":5.37225,"is_reserved":false,"is_disabled":false,"rental_uris":{"android":"levelo://app?vid=a3d27607-9e16-4b4f-9554-7a9ff66b0783","ios":"levelo://app?vid=a3d27607-9e16-4b4f-9554-7a9ff66b0783"},"vehicle_type_id":"4","last_reported":1718219213,"current_range_meters":2400,"station_id":"","pricing_plan_id":"cebpf4jnsgd1na2vs0mg"},{"bike_id":"9d5c7f55-0523-4246-8ee3-7b5dd9b70862","system_id":"levelo_inurba_marseille","lat":43.2968,"lon":5.37291,"is_reserved":false,"is_disabled":false,"rental_uris":{"android":"levelo://app?vid=9d5c7f55-0523-4246-8ee3-7b5dd9b70862","ios":"levelo://app?vid=9d5c7f55-0523-4246-8ee3-7b5dd9b70862"},"vehicle_type_id":"4","last_reported":1718219213,"current_range_meters":2400,"station_id":"ce4bgk12rcd13ifvqbj0","pricing_plan_id":"cebpf4jnsgd1na2vs0mg"},{"bike_id":"df557184-6202-4e09-9bc2-b703ca5f9ff2","system_id":"levelo_inurba_marseille","lat":43.29673,"lon":5.37234,"is_reserved":false,"is_disabled":false,"rental_uris":{"android":"levelo://app?vid=df557184-6202-4e09-9bc2-b703ca5f9ff2","ios":"levelo://app?vid=df557184-6202-4e09-9bc2-b703ca5f9ff2"},"vehicle_type_id":"4","last_reported":1718219213,"current_range_meters":25200,"station_id":"ce4bgk12rcd13ifvqbj0","pricing_plan_id":"cebpf4jnsgd1na2vs0mg"},{"bike_id":"88b95c62-abcb-4624-ae60-71fba6dabc57","system_id":"levelo_inurba_marseille","lat":43.29672,"lon":5.37238,"is_reserved":false,"is_disabled":false,"rental_uris":{"android":"levelo://app?vid=88b95c62-abcb-4624-ae60-71fba6dabc57","ios":"levelo://app?vid=88b95c62-abcb-4624-ae60-71fba6dabc57"},"vehicle_type_id":"4","last_reported":1718219213,"current_range_meters":22400,"station_id":"ce4bgk12rcd13ifvqbj0","pricing_plan_id":"cebpf4jnsgd1na2vs0mg"},{"bike_id":"b2511413-9aa7-45a2-abd8-5847aeb839df","system_id":"levelo_inurba_marseille","lat":43.2968,"lon":5.37291,"is_reserved":false,"is_disabled":false,"rental_uris":{"android":"levelo://app?vid=b2511413-9aa7-45a2-abd8-5847aeb839df","ios":"levelo://app?vid=b2511413-9aa7-45a2-abd8-5847aeb839df"},"vehicle_type_id":"4","last_reported":1718219213,"current_range_meters":31200,"station_id":"ce4bgk12rcd13ifvqbj0","pricing_plan_id":"cebpf4jnsgd1na2vs0mg"},{"bike_id":"f12fe903-e430-4a5b-854f-91048e026aaf","system_id":"levelo_inurba_marseille","lat":43.32947,"lon":5.36542,"is_reserved":false,"is_disabled":false,"rental_uris":{"android":"levelo://app?vid=f12fe903-e430-4a5b-854f-91048e026aaf","ios":"levelo://app?vid=f12fe903-e430-4a5b-854f-91048e026aaf"},"vehicle_type_id":"4","last_reported":1718219213,"current_range_meters":6000,"station_id":"","pricing_plan_id":"cebpf4jnsgd1na2vs0mg"},{"bike_id":"64b69b9f-ec5c-4ef5-a318-c010e86f0dc5","system_id":"levelo_inurba_marseille","lat":43.29573,"lon":5.367355,"is_reserved":false,"is_disabled":false,"rental_uris":{"android":"levelo://app?vid=64b69b9f-ec5c-4ef5-a318-c010e86f0dc5","ios":"levelo://app?vid=64b69b9f-ec5c-4ef5-a318-c010e86f0dc5"},"vehicle_type_id":"4","last_reported":1718219213,"current_range_meters":24400,"station_id":"ce4bgph2rcd13ifvqc2g","pricing_plan_id":"cebpf4jnsgd1na2vs0mg"},{"bike_id":"6695b6ee-962f-4314-a4dd-4f3ef21ac9b7","system_id":"levelo_inurba_marseille","lat":43.296131,"lon":5.370791,"is_reserved":false,"is_disabled":false,"rental_uris":{"android":"levelo://app?vid=6695b6ee-962f-4314-a4dd-4f3ef21ac9b7","ios":"levelo://app?vid=6695b6ee-962f-4314-a4dd-4f3ef21ac9b7"},"vehicle_type_id":"4","last_reported":1718219213,"current_range_meters":0,"station_id":"ce4bgnh2rcd13ifvqc0g","pricing_plan_id":"cebpf4jnsgd1na2vs0mg"},{"bike_id":"c1c83f05-1f3d-4bf3-aa33-f3d71410227e","system_id":"levelo_inurba_marseille","lat":43.296131,"lon":5.370791,"is_reserved":false,"is_disabled":false,"rental_uris":{"android":"levelo://app?vid=c1c83f05-1f3d-4bf3-aa33-f3d71410227e","ios":"levelo://app?vid=c1c83f05-1f3d-4bf3-aa33-f3d71410227e"},"vehicle_type_id":"4","last_reported":1718219213,"current_range_meters":30800,"station_id":"ce4bgnh2rcd13ifvqc0g","pricing_plan_id":"cebpf4jnsgd1na2vs0mg"},{"bike_id":"a9619996-dd0f-4ad6-a2aa-1441d0b24e4e","system_id":"levelo_inurba_marseille","lat":43.29573,"lon":5.367355,"is_reserved":false,"is_disabled":false,"rental_uris":{"android":"levelo://app?vid=a9619996-dd0f-4ad6-a2aa-1441d0b24e4e","ios":"levelo://app?vid=a9619996-dd0f-4ad6-a2aa-1441d0b24e4e"},"vehicle_type_id":"4","last_reported":1718219213,"current_range_meters":8400,"station_id":"ce4bgph2rcd13ifvqc2g","pricing_plan_id":"cebpf4jnsgd1na2vs0mg"},{"bike_id":"de8305ca-cfb6-43ef-8b95-5ca15e6cb78c","system_id":"levelo_inurba_marseille","lat":43.29573,"lon":5.367355,"is_reserved":false,"is_disabled":false,"rental_uris":{"android":"levelo://app?vid=de8305ca-cfb6-43ef-8b95-5ca15e6cb78c","ios":"levelo://app?vid=de8305ca-cfb6-43ef-8b95-5ca15e6cb78c"},"vehicle_type_id":"4","last_reported":1718219213,"current_range_meters":24800,"station_id":"ce4bgph2rcd13ifvqc2g","pricing_plan_id":"cebpf4jnsgd1na2vs0mg"},{"bike_id":"68364cc4-05ee-4c04-97a7-d83e9d1779fb","system_id":"levelo_inurba_marseille","lat":43.29573,"lon":5.367355,"is_reserved":false,"is_disabled":false,"rental_uris":{"android":"levelo://app?vid=68364cc4-05ee-4c04-97a7-d83e9d1779fb","ios":"levelo://app?vid=68364cc4-05ee-4c04-97a7-d83e9d1779fb"},"vehicle_type_id":"4","last_reported":1718219213,"current_range_meters":25200,"station_id":"ce4bgph2rcd13ifvqc2g","pricing_plan_id":"cebpf4jnsgd1na2vs0mg"},{"bike_id":"734746ba-7845-4b7a-b331-6cf9a3dfe0be","system_id":"levelo_inurba_marseille","lat":43.29722,"lon":5.37694,"is_reserved":false,"is_disabled":false,"rental_uris":{"android":"levelo://app?vid=734746ba-7845-4b7a-b331-6cf9a3dfe0be","ios":"levelo://app?vid=734746ba-7845-4b7a-b331-6cf9a3dfe0be"},"vehicle_type_id":"4","last_reported":1718219213,"current_range_meters":0,"station_id":"ce4bgkh2rcd13ifvqbl0","pricing_plan_id":"cebpf4jnsgd1na2vs0mg"},{"bike_id":"28247e53-798b-450d-a0e8-be5701cbc8d7","system_id":"levelo_inurba_marseille","lat":43.299028,"lon":5.381509,"is_reserved":false,"is_disabled":false,"rental_uris":{"android":"levelo://app?vid=28247e53-798b-450d-a0e8-be5701cbc8d7","ios":"levelo://app?vid=28247e53-798b-450d-a0e8-be5701cbc8d7"},"vehicle_type_id":"4","last_reported":1718219213,"current_range_meters":31200,"station_id":"ce4bgj12rcd13ifvqbc0","pricing_plan_id":"cebpf4jnsgd1na2vs0mg"},{"bike_id":"47cb9af8-9ffa-4754-96bd-ae30189e67da","system_id":"levelo_inurba_marseille","lat":43.299028,"lon":5.381509,"is_reserved":false,"is_disabled":false,"rental_uris":{"android":"levelo://app?vid=47cb9af8-9ffa-4754-96bd-ae30189e67da","ios":"levelo://app?vid=47cb9af8-9ffa-4754-96bd-ae30189e67da"},"vehicle_type_id":"4","last_reported":1718219213,"current_range_meters":30000,"station_id":"ce4bgj12rcd13ifvqbc0","pricing_plan_id":"cebpf4jnsgd1na2vs0mg"},{"bike_id":"0328fe69-0030-485f-8df5-cfb59d09c9fe","system_id":"levelo_inurba_marseille","lat":43.296935,"lon":5.376544,"is_reserved":false,"is_disabled":false,"rental_uris":{"android":"levelo://app?vid=0328fe69-0030-485f-8df5-cfb59d09c9fe","ios":"levelo://app?vid=0328fe69-0030-485f-8df5-cfb59d09c9fe"},"vehicle_type_id":"4","last_reported":1718219213,"current_range_meters":27200,"station_id":"ce4bgkh2rcd13ifvqbl0","pricing_plan_id":"cebpf4jnsgd1na2vs0mg"},{"bike_id":"4b586021-cc7d-4149-b172-c2108063fb78","system_id":"levelo_inurba_marseille","lat":43.296921,"lon":5.376579,"is_reserved":false,"is_disabled":false,"rental_uris":{"android":"levelo://app?vid=4b586021-cc7d-4149-b172-c2108063fb78","ios":"levelo://app?vid=4b586021-cc7d-4149-b172-c2108063fb78"},"vehicle_type_id":"4","last_reported":1718219213,"current_range_meters":0,"station_id":"ce4bgkh2rcd13ifvqbl0","pricing_plan_id":"cebpf4jnsgd1na2vs0mg"},{"bike_id":"5f3ebbe0-f2a4-4310-907d-48d065d90b25","system_id":"levelo_inurba_marseille","lat":43.317557,"lon":5.390173,"is_reserved":false,"is_disabled":false,"rental_uris":{"android":"levelo://app?vid=5f3ebbe0-f2a4-4310-907d-48d065d90b25","ios":"levelo://app?vid=5f3ebbe0-f2a4-4310-907d-48d065d90b25"},"vehicle_type_id":"4","last_reported":1718219213,"current_range_meters":27200,"station_id":"ce4bhqp2rcd13ifvqhng","pricing_plan_id":"cebpf4jnsgd1na2vs0mg"},{"bike_id":"da47640e-b13c-4e62-9f8e-f48530114ea3","system_id":"levelo_inurba_marseille","lat":43.298037,"lon":5.381066,"is_reserved":false,"is_disabled":false,"rental_uris":{"android":"levelo://app?vid=da47640e-b13c-4e62-9f8e-f48530114ea3","ios":"levelo://app?vid=da47640e-b13c-4e62-9f8e-f48530114ea3"},"vehicle_type_id":"4","last_reported":1718219213,"current_range_meters":26400,"station_id":"ce4bgip2rcd13ifvqbb0","pricing_plan_id":"cebpf4jnsgd1na2vs0mg"},{"bike_id":"ecf208f0-d391-4621-9d65-dc25681f88de","system_id":"levelo_inurba_marseille","lat":43.298037,"lon":5.381066,"is_reserved":false,"is_disabled":false,"rental_uris":{"android":"levelo://app?vid=ecf208f0-d391-4621-9d65-dc25681f88de","ios":"levelo://app?vid=ecf208f0-d391-4621-9d65-dc25681f88de"},"vehicle_type_id":"4","last_reported":1718219213,"current_range_meters":21200,"station_id":"ce4bgip2rcd13ifvqbb0","pricing_plan_id":"cebpf4jnsgd1na2vs0mg"},{"bike_id":"1076368f-4dfa-4c35-a8d5-08e021918f09","system_id":"levelo_inurba_marseille","lat":43.298037,"lon":5.381066,"is_reserved":false,"is_disabled":false,"rental_uris":{"android":"levelo://app?vid=1076368f-4dfa-4c35-a8d5-08e021918f09","ios":"levelo://app?vid=1076368f-4dfa-4c35-a8d5-08e021918f09"},"vehicle_type_id":"4","last_reported":1718219213,"current_range_meters":0,"station_id":"ce4bgip2rcd13ifvqbb0","pricing_plan_id":"cebpf4jnsgd1na2vs0mg"},{"bike_id":"f96a4db7-e76f-40e2-9565-d48f139bbec1","system_id":"levelo_inurba_marseille","lat":43.30433,"lon":5.38877,"is_reserved":false,"is_disabled":false,"rental_uris":{"android":"levelo://app?vid=f96a4db7-e76f-40e2-9565-d48f139bbec1","ios":"levelo://app?vid=f96a4db7-e76f-40e2-9565-d48f139bbec1"},"vehicle_type_id":"4","last_reported":1718219213,"current_range_meters":28000,"station_id":"ce4bgk12rcd13ifvqbi0","pricing_plan_id":"cebpf4jnsgd1na2vs0mg"},{"bike_id":"dc3af790-9d24-4d7f-9dbf-f88574ded82a","system_id":"levelo_inurba_marseille","lat":43.29579,"lon":5.37527,"is_reserved":false,"is_disabled":false,"rental_uris":{"android":"levelo://app?vid=dc3af790-9d24-4d7f-9dbf-f88574ded82a","ios":"levelo://app?vid=dc3af790-9d24-4d7f-9dbf-f88574ded82a"},"vehicle_type_id":"4","last_reported":1718219213,"current_range_meters":0,"station_id":"ce4bgh92rcd13ifvqb50","pricing_plan_id":"cebpf4jnsgd1na2vs0mg"},{"bike_id":"34adc1a2-36c7-4156-b871-7ed705a00922","system_id":"levelo_inurba_marseille","lat":43.304274,"lon":5.388873,"is_reserved":false,"is_disabled":false,"rental_uris":{"android":"levelo://app?vid=34adc1a2-36c7-4156-b871-7ed705a00922","ios":"levelo://app?vid=34adc1a2-36c7-4156-b871-7ed705a00922"},"vehicle_type_id":"4","last_reported":1718219213,"current_range_meters":11600,"station_id":"ce4bgk12rcd13ifvqbi0","pricing_plan_id":"cebpf4jnsgd1na2vs0mg"},{"bike_id":"d51343a7-e35a-4a22-a946-960c96d10a57","system_id":"levelo_inurba_marseille","lat":43.298037,"lon":5.381066,"is_reserved":false,"is_disabled":false,"rental_uris":{"android":"levelo://app?vid=d51343a7-e35a-4a22-a946-960c96d10a57","ios":"levelo://app?vid=d51343a7-e35a-4a22-a946-960c96d10a57"},"vehicle_type_id":"4","last_reported":1718219213,"current_range_meters":22000,"station_id":"ce4bgip2rcd13ifvqbb0","pricing_plan_id":"cebpf4jnsgd1na2vs0mg"},{"bike_id":"d51789ea-eb04-4e0b-b0d1-a567aa1af80c","system_id":"levelo_inurba_marseille","lat":43.304606,"lon":5.379026,"is_reserved":false,"is_disabled":false,"rental_uris":{"android":"levelo://app?vid=d51789ea-eb04-4e0b-b0d1-a567aa1af80c","ios":"levelo://app?vid=d51789ea-eb04-4e0b-b0d1-a567aa1af80c"},"vehicle_type_id":"4","last_reported":1718219213,"current_range_meters":9600,"station_id":"ce4bgup2rcd13ifvqcn0","pricing_plan_id":"cebpf4jnsgd1na2vs0mg"},{"bike_id":"9c735861-f79c-4bf1-99f9-88fc4e43d96d","system_id":"levelo_inurba_marseille","lat":43.304274,"lon":5.388873,"is_reserved":false,"is_disabled":false,"rental_uris":{"android":"levelo://app?vid=9c735861-f79c-4bf1-99f9-88fc4e43d96d","ios":"levelo://app?vid=9c735861-f79c-4bf1-99f9-88fc4e43d96d"},"vehicle_type_id":"4","last_reported":1718219213,"current_range_meters":4000,"station_id":"ce4bgk12rcd13ifvqbi0","pricing_plan_id":"cebpf4jnsgd1na2vs0mg"},{"bike_id":"d4f063fd-8e2e-4d8b-b382-3b03e987f425","system_id":"levelo_inurba_marseille","lat":43.295748,"lon":5.37522,"is_reserved":false,"is_disabled":false,"rental_uris":{"android":"levelo://app?vid=d4f063fd-8e2e-4d8b-b382-3b03e987f425","ios":"levelo://app?vid=d4f063fd-8e2e-4d8b-b382-3b03e987f425"},"vehicle_type_id":"4","last_reported":1718219213,"current_range_meters":12000,"station_id":"ce4bgh92rcd13ifvqb50","pricing_plan_id":"cebpf4jnsgd1na2vs0mg"},{"bike_id":"6d9564ab-d8ec-4f26-88d9-66b075086659","system_id":"levelo_inurba_marseille","lat":43.295748,"lon":5.37522,"is_reserved":false,"is_disabled":false,"rental_uris":{"android":"levelo://app?vid=6d9564ab-d8ec-4f26-88d9-66b075086659","ios":"levelo://app?vid=6d9564ab-d8ec-4f26-88d9-66b075086659"},"vehicle_type_id":"4","last_reported":1718219213,"current_range_meters":3600,"station_id":"ce4bgh92rcd13ifvqb50","pricing_plan_id":"cebpf4jnsgd1na2vs0mg"},{"bike_id":"a46596c5-4c71-47d8-9be3-57cc0f3f3027","system_id":"levelo_inurba_marseille","lat":43.304278,"lon":5.388868,"is_reserved":false,"is_disabled":false,"rental_uris":{"android":"levelo://app?vid=a46596c5-4c71-47d8-9be3-57cc0f3f3027","ios":"levelo://app?vid=a46596c5-4c71-47d8-9be3-57cc0f3f3027"},"vehicle_type_id":"4","last_reported":1718219213,"current_range_meters":30800,"station_id":"ce4bgk12rcd13ifvqbi0","pricing_plan_id":"cebpf4jnsgd1na2vs0mg"},{"bike_id":"ba15acd8-4db7-4fe5-8420-1b55d4c0539c","system_id":"levelo_inurba_marseille","lat":43.304274,"lon":5.388873,"is_reserved":false,"is_disabled":false,"rental_uris":{"android":"levelo://app?vid=ba15acd8-4db7-4fe5-8420-1b55d4c0539c","ios":"levelo://app?vid=ba15acd8-4db7-4fe5-8420-1b55d4c0539c"},"vehicle_type_id":"4","last_reported":1718219213,"current_range_meters":2400,"station_id":"ce4bgk12rcd13ifvqbi0","pricing_plan_id":"cebpf4jnsgd1na2vs0mg"},{"bike_id":"9145e49f-b96a-4a1c-b6d8-b31c451de65e","system_id":"levelo_inurba_marseille","lat":43.29977,"lon":5.38479,"is_reserved":false,"is_disabled":false,"rental_uris":{"android":"levelo://app?vid=9145e49f-b96a-4a1c-b6d8-b31c451de65e","ios":"levelo://app?vid=9145e49f-b96a-4a1c-b6d8-b31c451de65e"},"vehicle_type_id":"4","last_reported":1718219213,"current_range_meters":11600,"station_id":"ce4bgj92rcd13ifvqbd0","pricing_plan_id":"cebpf4jnsgd1na2vs0mg"},{"bike_id":"d92a4258-be79-4d0a-bd49-3a4f0ebd31ae","system_id":"levelo_inurba_marseille","lat":43.29976,"lon":5.38487,"is_reserved":false,"is_disabled":false,"rental_uris":{"android":"levelo://app?vid=d92a4258-be79-4d0a-bd49-3a4f0ebd31ae","ios":"levelo://app?vid=d92a4258-be79-4d0a-bd49-3a4f0ebd31ae"},"vehicle_type_id":"4","last_reported":1718219213,"current_range_meters":28000,"station_id":"ce4bgj92rcd13ifvqbd0","pricing_plan_id":"cebpf4jnsgd1na2vs0mg"},{"bike_id":"4c78a502-4a0d-4f0b-a463-5150aa755f5f","system_id":"levelo_inurba_marseille","lat":43.29973,"lon":5.38489,"is_reserved":false,"is_disabled":false,"rental_uris":{"android":"levelo://app?vid=4c78a502-4a0d-4f0b-a463-5150aa755f5f","ios":"levelo://app?vid=4c78a502-4a0d-4f0b-a463-5150aa755f5f"},"vehicle_type_id":"4","last_reported":1718219213,"current_range_meters":3600,"station_id":"ce4bgj92rcd13ifvqbd0","pricing_plan_id":"cebpf4jnsgd1na2vs0mg"},{"bike_id":"85b3de63-9866-4f70-94ca-2a74649f5e23","system_id":"levelo_inurba_marseille","lat":43.299724,"lon":5.384848,"is_reserved":false,"is_disabled":false,"rental_uris":{"android":"levelo://app?vid=85b3de63-9866-4f70-94ca-2a74649f5e23","ios":"levelo://app?vid=85b3de63-9866-4f70-94ca-2a74649f5e23"},"vehicle_type_id":"4","last_reported":1718219213,"current_range_meters":0,"station_id":"ce4bgj92rcd13ifvqbd0","pricing_plan_id":"cebpf4jnsgd1na2vs0mg"},{"bike_id":"2170a3bf-015c-4863-8c5c-2d186957bf53","system_id":"levelo_inurba_marseille","lat":43.32374,"lon":5.38873,"is_reserved":false,"is_disabled":false,"rental_uris":{"android":"levelo://app?vid=2170a3bf-015c-4863-8c5c-2d186957bf53","ios":"levelo://app?vid=2170a3bf-015c-4863-8c5c-2d186957bf53"},"vehicle_type_id":"4","last_reported":1718219213,"current_range_meters":16000,"station_id":"ce4bhqp2rcd13ifvqhog","pricing_plan_id":"cebpf4jnsgd1na2vs0mg"},{"bike_id":"3dd1841a-f8ce-4e47-a642-2760ce3ecfa3","system_id":"levelo_inurba_marseille","lat":43.32367,"lon":5.388836,"is_reserved":false,"is_disabled":false,"rental_uris":{"android":"levelo://app?vid=3dd1841a-f8ce-4e47-a642-2760ce3ecfa3","ios":"levelo://app?vid=3dd1841a-f8ce-4e47-a642-2760ce3ecfa3"},"vehicle_type_id":"4","last_reported":1718219213,"current_range_meters":20000,"station_id":"ce4bhqp2rcd13ifvqhog","pricing_plan_id":"cebpf4jnsgd1na2vs0mg"},{"bike_id":"a76bd820-1d15-4bcc-b9df-51fcf7c2f0ab","system_id":"levelo_inurba_marseille","lat":43.32367,"lon":5.388836,"is_reserved":false,"is_disabled":false,"rental_uris":{"android":"levelo://app?vid=a76bd820-1d15-4bcc-b9df-51fcf7c2f0ab","ios":"levelo://app?vid=a76bd820-1d15-4bcc-b9df-51fcf7c2f0ab"},"vehicle_type_id":"4","last_reported":1718219213,"current_range_meters":0,"station_id":"ce4bhqp2rcd13ifvqhog","pricing_plan_id":"cebpf4jnsgd1na2vs0mg"},{"bike_id":"12811c0d-a562-4fa5-bfc8-8df44ff483bf","system_id":"levelo_inurba_marseille","lat":43.32367,"lon":5.388836,"is_reserved":false,"is_disabled":false,"rental_uris":{"android":"levelo://app?vid=12811c0d-a562-4fa5-bfc8-8df44ff483bf","ios":"levelo://app?vid=12811c0d-a562-4fa5-bfc8-8df44ff483bf"},"vehicle_type_id":"4","last_reported":1718219213,"current_range_meters":6800,"station_id":"ce4bhqp2rcd13ifvqhog","pricing_plan_id":"cebpf4jnsgd1na2vs0mg"},{"bike_id":"f9233f2b-06d8-4ea1-9fb3-2d50e4b056e4","system_id":"levelo_inurba_marseille","lat":43.2941,"lon":5.37413,"is_reserved":false,"is_disabled":false,"rental_uris":{"android":"levelo://app?vid=f9233f2b-06d8-4ea1-9fb3-2d50e4b056e4","ios":"levelo://app?vid=f9233f2b-06d8-4ea1-9fb3-2d50e4b056e4"},"vehicle_type_id":"4","last_reported":1718219213,"current_range_meters":0,"station_id":"","pricing_plan_id":"cebpf4jnsgd1na2vs0mg"},{"bike_id":"f0e66573-3087-464c-845c-bbad563319f4","system_id":"levelo_inurba_marseille","lat":43.312899,"lon":5.393599,"is_reserved":false,"is_disabled":false,"rental_uris":{"android":"levelo://app?vid=f0e66573-3087-464c-845c-bbad563319f4","ios":"levelo://app?vid=f0e66573-3087-464c-845c-bbad563319f4"},"vehicle_type_id":"4","last_reported":1718219213,"current_range_meters":13600,"station_id":"ce4bhm12rcd13ifvqgkg","pricing_plan_id":"cebpf4jnsgd1na2vs0mg"},{"bike_id":"0da5c3b2-4e31-4732-9922-93132112f690","system_id":"levelo_inurba_marseille","lat":43.29595,"lon":5.38096,"is_reserved":false,"is_disabled":false,"rental_uris":{"android":"levelo://app?vid=0da5c3b2-4e31-4732-9922-93132112f690","ios":"levelo://app?vid=0da5c3b2-4e31-4732-9922-93132112f690"},"vehicle_type_id":"4","last_reported":1718219213,"current_range_meters":26400,"station_id":"ce4bgl12rcd13ifvqbo0","pricing_plan_id":"cebpf4jnsgd1na2vs0mg"},{"bike_id":"41f251be-fc24-490d-a0a4-bbbee75450a1","system_id":"levelo_inurba_marseille","lat":43.29601,"lon":5.381084,"is_reserved":false,"is_disabled":false,"rental_uris":{"android":"levelo://app?vid=41f251be-fc24-490d-a0a4-bbbee75450a1","ios":"levelo://app?vid=41f251be-fc24-490d-a0a4-bbbee75450a1"},"vehicle_type_id":"4","last_reported":1718219213,"current_range_meters":8000,"station_id":"ce4bgl12rcd13ifvqbo0","pricing_plan_id":"cebpf4jnsgd1na2vs0mg"},{"bike_id":"f2dd140d-6555-49db-8200-02868e966f47","system_id":"levelo_inurba_marseille","lat":43.29603,"lon":5.38152,"is_reserved":false,"is_disabled":false,"rental_uris":{"android":"levelo://app?vid=f2dd140d-6555-49db-8200-02868e966f47","ios":"levelo://app?vid=f2dd140d-6555-49db-8200-02868e966f47"},"vehicle_type_id":"4","last_reported":1718219213,"current_range_meters":3200,"station_id":"ce4bgl12rcd13ifvqbo0","pricing_plan_id":"cebpf4jnsgd1na2vs0mg"},{"bike_id":"de5357c5-0323-4ce4-940c-f2ab7b183f48","system_id":"levelo_inurba_marseille","lat":43.293,"lon":5.37167,"is_reserved":false,"is_disabled":false,"rental_uris":{"android":"levelo://app?vid=de5357c5-0323-4ce4-940c-f2ab7b183f48","ios":"levelo://app?vid=de5357c5-0323-4ce4-940c-f2ab7b183f48"},"vehicle_type_id":"4","last_reported":1718219213,"current_range_meters":0,"station_id":"ce4bgh92rcd13ifvqb40","pricing_plan_id":"cebpf4jnsgd1na2vs0mg"},{"bike_id":"2a752627-d824-4aee-b879-2686e3c473f3","system_id":"levelo_inurba_marseille","lat":43.292321,"lon":5.368345,"is_reserved":false,"is_disabled":false,"rental_uris":{"android":"levelo://app?vid=2a752627-d824-4aee-b879-2686e3c473f3","ios":"levelo://app?vid=2a752627-d824-4aee-b879-2686e3c473f3"},"vehicle_type_id":"4","last_reported":1718219213,"current_range_meters":8800,"station_id":"ce4bhbp2rcd13ifvqesg","pricing_plan_id":"cebpf4jnsgd1na2vs0mg"},{"bike_id":"f65ba34b-eaac-4ade-b231-51c231af5b0a","system_id":"levelo_inurba_marseille","lat":43.305994,"lon":5.393687,"is_reserved":false,"is_disabled":false,"rental_uris":{"android":"levelo://app?vid=f65ba34b-eaac-4ade-b231-51c231af5b0a","ios":"levelo://app?vid=f65ba34b-eaac-4ade-b231-51c231af5b0a"},"vehicle_type_id":"4","last_reported":1718219213,"current_range_meters":21200,"station_id":"ce4bh0p2rcd13ifvqd80","pricing_plan_id":"cebpf4jnsgd1na2vs0mg"},{"bike_id":"1db7c367-9a44-4071-9c8b-fda803b17515","system_id":"levelo_inurba_marseille","lat":43.305994,"lon":5.393687,"is_reserved":false,"is_disabled":false,"rental_uris":{"android":"levelo://app?vid=1db7c367-9a44-4071-9c8b-fda803b17515","ios":"levelo://app?vid=1db7c367-9a44-4071-9c8b-fda803b17515"},"vehicle_type_id":"4","last_reported":1718219213,"current_range_meters":18800,"station_id":"ce4bh0p2rcd13ifvqd80","pricing_plan_id":"cebpf4jnsgd1na2vs0mg"},{"bike_id":"c79b780b-6a8e-40c4-80dc-49970108a970","system_id":"levelo_inurba_marseille","lat":43.293009,"lon":5.374584,"is_reserved":false,"is_disabled":false,"rental_uris":{"android":"levelo://app?vid=c79b780b-6a8e-40c4-80dc-49970108a970","ios":"levelo://app?vid=c79b780b-6a8e-40c4-80dc-49970108a970"},"vehicle_type_id":"4","last_reported":1718219213,"current_range_meters":2000,"station_id":"ce4bgi12rcd13ifvqb70","pricing_plan_id":"cebpf4jnsgd1na2vs0mg"},{"bike_id":"db192bd7-1427-485f-8184-14ea790349a6","system_id":"levelo_inurba_marseille","lat":43.305994,"lon":5.393687,"is_reserved":false,"is_disabled":false,"rental_uris":{"android":"levelo://app?vid=db192bd7-1427-485f-8184-14ea790349a6","ios":"levelo://app?vid=db192bd7-1427-485f-8184-14ea790349a6"},"vehicle_type_id":"4","last_reported":1718219213,"current_range_meters":800,"station_id":"ce4bh0p2rcd13ifvqd80","pricing_plan_id":"cebpf4jnsgd1na2vs0mg"},{"bike_id":"e40c8f6b-4301-45a6-9a35-83508f7a28ea","system_id":"levelo_inurba_marseille","lat":43.305994,"lon":5.393687,"is_reserved":false,"is_disabled":false,"rental_uris":{"android":"levelo://app?vid=e40c8f6b-4301-45a6-9a35-83508f7a28ea","ios":"levelo://app?vid=e40c8f6b-4301-45a6-9a35-83508f7a28ea"},"vehicle_type_id":"4","last_reported":1718219213,"current_range_meters":4800,"station_id":"ce4bh0p2rcd13ifvqd80","pricing_plan_id":"cebpf4jnsgd1na2vs0mg"},{"bike_id":"1c42d3ab-1c42-4a05-968b-2adf36ed2599","system_id":"levelo_inurba_marseille","lat":43.305994,"lon":5.393687,"is_reserved":false,"is_disabled":false,"rental_uris":{"android":"levelo://app?vid=1c42d3ab-1c42-4a05-968b-2adf36ed2599","ios":"levelo://app?vid=1c42d3ab-1c42-4a05-968b-2adf36ed2599"},"vehicle_type_id":"4","last_reported":1718219213,"current_range_meters":16800,"station_id":"ce4bh0p2rcd13ifvqd80","pricing_plan_id":"cebpf4jnsgd1na2vs0mg"},{"bike_id":"42b34c63-7317-43ce-aad8-4cde3d07b05b","system_id":"levelo_inurba_marseille","lat":43.303002,"lon":5.392142,"is_reserved":false,"is_disabled":false,"rental_uris":{"android":"levelo://app?vid=42b34c63-7317-43ce-aad8-4cde3d07b05b","ios":"levelo://app?vid=42b34c63-7317-43ce-aad8-4cde3d07b05b"},"vehicle_type_id":"4","last_reported":1718219213,"current_range_meters":800,"station_id":"ce4bgkh2rcd13ifvqbk0","pricing_plan_id":"cebpf4jnsgd1na2vs0mg"},{"bike_id":"073a4176-027d-4324-aac1-ef9b3ca4b868","system_id":"levelo_inurba_marseille","lat":43.30085,"lon":5.390856,"is_reserved":false,"is_disabled":false,"rental_uris":{"android":"levelo://app?vid=073a4176-027d-4324-aac1-ef9b3ca4b868","ios":"levelo://app?vid=073a4176-027d-4324-aac1-ef9b3ca4b868"},"vehicle_type_id":"4","last_reported":1718219213,"current_range_meters":8400,"station_id":"ce4bh192rcd13ifvqdb0","pricing_plan_id":"cebpf4jnsgd1na2vs0mg"},{"bike_id":"7bbd61e1-004e-4175-b43e-24d4b26fec33","system_id":"levelo_inurba_marseille","lat":43.30085,"lon":5.390856,"is_reserved":false,"is_disabled":false,"rental_uris":{"android":"levelo://app?vid=7bbd61e1-004e-4175-b43e-24d4b26fec33","ios":"levelo://app?vid=7bbd61e1-004e-4175-b43e-24d4b26fec33"},"vehicle_type_id":"4","last_reported":1718219213,"current_range_meters":1600,"station_id":"ce4bh192rcd13ifvqdb0","pricing_plan_id":"cebpf4jnsgd1na2vs0mg"},{"bike_id":"3fe022a8-099c-40de-acbb-89cc1973cc8a","system_id":"levelo_inurba_marseille","lat":43.300852,"lon":5.390859,"is_reserved":false,"is_disabled":false,"rental_uris":{"android":"levelo://app?vid=3fe022a8-099c-40de-acbb-89cc1973cc8a","ios":"levelo://app?vid=3fe022a8-099c-40de-acbb-89cc1973cc8a"},"vehicle_type_id":"4","last_reported":1718219213,"current_range_meters":2000,"station_id":"ce4bh192rcd13ifvqdb0","pricing_plan_id":"cebpf4jnsgd1na2vs0mg"},{"bike_id":"74f178c9-0d1e-4aa0-a512-571c0102a39b","system_id":"levelo_inurba_marseille","lat":43.29222,"lon":5.36056,"is_reserved":false,"is_disabled":false,"rental_uris":{"android":"levelo://app?vid=74f178c9-0d1e-4aa0-a512-571c0102a39b","ios":"levelo://app?vid=74f178c9-0d1e-4aa0-a512-571c0102a39b"},"vehicle_type_id":"4","last_reported":1718219213,"current_range_meters":30800,"station_id":"ce4bhbh2rcd13ifvqeqg","pricing_plan_id":"cebpf4jnsgd1na2vs0mg"},{"bike_id":"eb952766-601c-4851-876a-ffd61cdcd277","system_id":"levelo_inurba_marseille","lat":43.300852,"lon":5.390859,"is_reserved":false,"is_disabled":false,"rental_uris":{"android":"levelo://app?vid=eb952766-601c-4851-876a-ffd61cdcd277","ios":"levelo://app?vid=eb952766-601c-4851-876a-ffd61cdcd277"},"vehicle_type_id":"4","last_reported":1718219213,"current_range_meters":31200,"station_id":"ce4bh192rcd13ifvqdb0","pricing_plan_id":"cebpf4jnsgd1na2vs0mg"},{"bike_id":"2d7a309d-617c-4694-960c-f99b6640d3d0","system_id":"levelo_inurba_marseille","lat":43.29883,"lon":5.38907,"is_reserved":false,"is_disabled":false,"rental_uris":{"android":"levelo://app?vid=2d7a309d-617c-4694-960c-f99b6640d3d0","ios":"levelo://app?vid=2d7a309d-617c-4694-960c-f99b6640d3d0"},"vehicle_type_id":"4","last_reported":1718219213,"current_range_meters":0,"station_id":"ce4bh392rcd13ifvqdl0","pricing_plan_id":"cebpf4jnsgd1na2vs0mg"},{"bike_id":"a5385542-8734-4885-a686-a0a53811c23b","system_id":"levelo_inurba_marseille","lat":43.29167,"lon":5.37157,"is_reserved":false,"is_disabled":false,"rental_uris":{"android":"levelo://app?vid=a5385542-8734-4885-a686-a0a53811c23b","ios":"levelo://app?vid=a5385542-8734-4885-a686-a0a53811c23b"},"vehicle_type_id":"4","last_reported":1718219213,"current_range_meters":24400,"station_id":"ce4bha92rcd13ifvqeh0","pricing_plan_id":"cebpf4jnsgd1na2vs0mg"},{"bike_id":"c7fe245c-6dd9-443f-9e4f-6aa3e739692e","system_id":"levelo_inurba_marseille","lat":43.309038,"lon":5.396546,"is_reserved":false,"is_disabled":false,"rental_uris":{"android":"levelo://app?vid=c7fe245c-6dd9-443f-9e4f-6aa3e739692e","ios":"levelo://app?vid=c7fe245c-6dd9-443f-9e4f-6aa3e739692e"},"vehicle_type_id":"4","last_reported":1718219213,"current_range_meters":8800,"station_id":"ce4bh012rcd13ifvqcv0","pricing_plan_id":"cebpf4jnsgd1na2vs0mg"},{"bike_id":"fad1f035-7e82-4ca9-b33b-158249f7aec5","system_id":"levelo_inurba_marseille","lat":43.309038,"lon":5.396546,"is_reserved":false,"is_disabled":false,"rental_uris":{"android":"levelo://app?vid=fad1f035-7e82-4ca9-b33b-158249f7aec5","ios":"levelo://app?vid=fad1f035-7e82-4ca9-b33b-158249f7aec5"},"vehicle_type_id":"4","last_reported":1718219213,"current_range_meters":21200,"station_id":"ce4bh012rcd13ifvqcv0","pricing_plan_id":"cebpf4jnsgd1na2vs0mg"},{"bike_id":"39963f3d-196c-4f1d-8530-b5f587752cd2","system_id":"levelo_inurba_marseille","lat":43.309047,"lon":5.396551,"is_reserved":false,"is_disabled":false,"rental_uris":{"android":"levelo://app?vid=39963f3d-196c-4f1d-8530-b5f587752cd2","ios":"levelo://app?vid=39963f3d-196c-4f1d-8530-b5f587752cd2"},"vehicle_type_id":"4","last_reported":1718219213,"current_range_meters":18800,"station_id":"ce4bh012rcd13ifvqcv0","pricing_plan_id":"cebpf4jnsgd1na2vs0mg"},{"bike_id":"f711bcba-9f31-413d-a703-fa16a8af1753","system_id":"levelo_inurba_marseille","lat":43.309038,"lon":5.396546,"is_reserved":false,"is_disabled":false,"rental_uris":{"android":"levelo://app?vid=f711bcba-9f31-413d-a703-fa16a8af1753","ios":"levelo://app?vid=f711bcba-9f31-413d-a703-fa16a8af1753"},"vehicle_type_id":"4","last_reported":1718219213,"current_range_meters":22400,"station_id":"ce4bh012rcd13ifvqcv0","pricing_plan_id":"cebpf4jnsgd1na2vs0mg"},{"bike_id":"64c254b0-5407-41d2-8e11-f71a1e9ef6c6","system_id":"levelo_inurba_marseille","lat":43.309047,"lon":5.396551,"is_reserved":false,"is_disabled":false,"rental_uris":{"android":"levelo://app?vid=64c254b0-5407-41d2-8e11-f71a1e9ef6c6","ios":"levelo://app?vid=64c254b0-5407-41d2-8e11-f71a1e9ef6c6"},"vehicle_type_id":"4","last_reported":1718219213,"current_range_meters":8000,"station_id":"ce4bh012rcd13ifvqcv0","pricing_plan_id":"cebpf4jnsgd1na2vs0mg"},{"bike_id":"2dba3c44-b933-43ed-962b-9814003e5098","system_id":"levelo_inurba_marseille","lat":43.309047,"lon":5.396551,"is_reserved":false,"is_disabled":false,"rental_uris":{"android":"levelo://app?vid=2dba3c44-b933-43ed-962b-9814003e5098","ios":"levelo://app?vid=2dba3c44-b933-43ed-962b-9814003e5098"},"vehicle_type_id":"4","last_reported":1718219213,"current_range_meters":16800,"station_id":"ce4bh012rcd13ifvqcv0","pricing_plan_id":"cebpf4jnsgd1na2vs0mg"},{"bike_id":"49dc5f94-61b7-4ea5-a4fe-9cb9c11b0cdd","system_id":"levelo_inurba_marseille","lat":43.309047,"lon":5.396551,"is_reserved":false,"is_disabled":false,"rental_uris":{"android":"levelo://app?vid=49dc5f94-61b7-4ea5-a4fe-9cb9c11b0cdd","ios":"levelo://app?vid=49dc5f94-61b7-4ea5-a4fe-9cb9c11b0cdd"},"vehicle_type_id":"4","last_reported":1718219213,"current_range_meters":8400,"station_id":"ce4bh012rcd13ifvqcv0","pricing_plan_id":"cebpf4jnsgd1na2vs0mg"},{"bike_id":"4badb878-f7fe-40d2-ac09-ab732fd35b54","system_id":"levelo_inurba_marseille","lat":43.309047,"lon":5.396551,"is_reserved":false,"is_disabled":false,"rental_uris":{"android":"levelo://app?vid=4badb878-f7fe-40d2-ac09-ab732fd35b54","ios":"levelo://app?vid=4badb878-f7fe-40d2-ac09-ab732fd35b54"},"vehicle_type_id":"4","last_reported":1718219213,"current_range_meters":7200,"station_id":"ce4bh012rcd13ifvqcv0","pricing_plan_id":"cebpf4jnsgd1na2vs0mg"},{"bike_id":"bb3296b4-3ca5-433c-8cb6-88cdb97dfe11","system_id":"levelo_inurba_marseille","lat":43.31327,"lon":5.397,"is_reserved":false,"is_disabled":false,"rental_uris":{"android":"levelo://app?vid=bb3296b4-3ca5-433c-8cb6-88cdb97dfe11","ios":"levelo://app?vid=bb3296b4-3ca5-433c-8cb6-88cdb97dfe11"},"vehicle_type_id":"4","last_reported":1718219213,"current_range_meters":11600,"station_id":"","pricing_plan_id":"cebpf4jnsgd1na2vs0mg"},{"bike_id":"c948fd18-5bff-4084-8ff5-6df87a4fc4de","system_id":"levelo_inurba_marseille","lat":43.30888,"lon":5.39657,"is_reserved":false,"is_disabled":false,"rental_uris":{"android":"levelo://app?vid=c948fd18-5bff-4084-8ff5-6df87a4fc4de","ios":"levelo://app?vid=c948fd18-5bff-4084-8ff5-6df87a4fc4de"},"vehicle_type_id":"4","last_reported":1718219213,"current_range_meters":0,"station_id":"ce4bh012rcd13ifvqcv0","pricing_plan_id":"cebpf4jnsgd1na2vs0mg"},{"bike_id":"409ab4bb-0435-4219-8803-ff82efe367a6","system_id":"levelo_inurba_marseille","lat":43.309038,"lon":5.396546,"is_reserved":false,"is_disabled":false,"rental_uris":{"android":"levelo://app?vid=409ab4bb-0435-4219-8803-ff82efe367a6","ios":"levelo://app?vid=409ab4bb-0435-4219-8803-ff82efe367a6"},"vehicle_type_id":"4","last_reported":1718219213,"current_range_meters":9600,"station_id":"ce4bh012rcd13ifvqcv0","pricing_plan_id":"cebpf4jnsgd1na2vs0mg"},{"bike_id":"8dcf51b6-544b-4195-b5e6-adb1d23ff248","system_id":"levelo_inurba_marseille","lat":43.309038,"lon":5.396546,"is_reserved":false,"is_disabled":false,"rental_uris":{"android":"levelo://app?vid=8dcf51b6-544b-4195-b5e6-adb1d23ff248","ios":"levelo://app?vid=8dcf51b6-544b-4195-b5e6-adb1d23ff248"},"vehicle_type_id":"4","last_reported":1718219213,"current_range_meters":18400,"station_id":"ce4bh012rcd13ifvqcv0","pricing_plan_id":"cebpf4jnsgd1na2vs0mg"},{"bike_id":"e2505d2f-457d-48f2-8e0b-53c53e3433c0","system_id":"levelo_inurba_marseille","lat":43.313291,"lon":5.396838,"is_reserved":false,"is_disabled":false,"rental_uris":{"android":"levelo://app?vid=e2505d2f-457d-48f2-8e0b-53c53e3433c0","ios":"levelo://app?vid=e2505d2f-457d-48f2-8e0b-53c53e3433c0"},"vehicle_type_id":"4","last_reported":1718219213,"current_range_meters":3600,"station_id":"ce4bgvp2rcd13ifvqcu0","pricing_plan_id":"cebpf4jnsgd1na2vs0mg"},{"bike_id":"f3545c1a-163e-42e8-8bd9-187fbdf40cd0","system_id":"levelo_inurba_marseille","lat":43.29532,"lon":5.38555,"is_reserved":false,"is_disabled":false,"rental_uris":{"android":"levelo://app?vid=f3545c1a-163e-42e8-8bd9-187fbdf40cd0","ios":"levelo://app?vid=f3545c1a-163e-42e8-8bd9-187fbdf40cd0"},"vehicle_type_id":"4","last_reported":1718219213,"current_range_meters":14000,"station_id":"ce4bgih2rcd13ifvqba0","pricing_plan_id":"cebpf4jnsgd1na2vs0mg"},{"bike_id":"179bee76-2019-4f80-b802-634e22df5e6e","system_id":"levelo_inurba_marseille","lat":43.290779,"lon":5.371482,"is_reserved":false,"is_disabled":false,"rental_uris":{"android":"levelo://app?vid=179bee76-2019-4f80-b802-634e22df5e6e","ios":"levelo://app?vid=179bee76-2019-4f80-b802-634e22df5e6e"},"vehicle_type_id":"4","last_reported":1718219213,"current_range_meters":12400,"station_id":"ce4bh5p2rcd13ifvqe4g","pricing_plan_id":"cebpf4jnsgd1na2vs0mg"},{"bike_id":"ae55b06c-d4f1-4621-9e1a-c2db2e909532","system_id":"levelo_inurba_marseille","lat":43.290779,"lon":5.371482,"is_reserved":false,"is_disabled":false,"rental_uris":{"android":"levelo://app?vid=ae55b06c-d4f1-4621-9e1a-c2db2e909532","ios":"levelo://app?vid=ae55b06c-d4f1-4621-9e1a-c2db2e909532"},"vehicle_type_id":"4","last_reported":1718219213,"current_range_meters":5600,"station_id":"ce4bh5p2rcd13ifvqe4g","pricing_plan_id":"cebpf4jnsgd1na2vs0mg"},{"bike_id":"a29a7195-d13a-427c-b5d3-e23d57531074","system_id":"levelo_inurba_marseille","lat":43.290779,"lon":5.371482,"is_reserved":false,"is_disabled":false,"rental_uris":{"android":"levelo://app?vid=a29a7195-d13a-427c-b5d3-e23d57531074","ios":"levelo://app?vid=a29a7195-d13a-427c-b5d3-e23d57531074"},"vehicle_type_id":"4","last_reported":1718219213,"current_range_meters":8800,"station_id":"ce4bh5p2rcd13ifvqe4g","pricing_plan_id":"cebpf4jnsgd1na2vs0mg"},{"bike_id":"29125faf-a855-4796-8d38-98f2f5de50ce","system_id":"levelo_inurba_marseille","lat":43.290779,"lon":5.371482,"is_reserved":false,"is_disabled":false,"rental_uris":{"android":"levelo://app?vid=29125faf-a855-4796-8d38-98f2f5de50ce","ios":"levelo://app?vid=29125faf-a855-4796-8d38-98f2f5de50ce"},"vehicle_type_id":"4","last_reported":1718219213,"current_range_meters":8000,"station_id":"ce4bh5p2rcd13ifvqe4g","pricing_plan_id":"cebpf4jnsgd1na2vs0mg"},{"bike_id":"2fbf7a59-d427-44a2-9c07-b2c59b4c14d9","system_id":"levelo_inurba_marseille","lat":43.290779,"lon":5.371482,"is_reserved":false,"is_disabled":false,"rental_uris":{"android":"levelo://app?vid=2fbf7a59-d427-44a2-9c07-b2c59b4c14d9","ios":"levelo://app?vid=2fbf7a59-d427-44a2-9c07-b2c59b4c14d9"},"vehicle_type_id":"4","last_reported":1718219213,"current_range_meters":5200,"station_id":"ce4bh5p2rcd13ifvqe4g","pricing_plan_id":"cebpf4jnsgd1na2vs0mg"},{"bike_id":"e0b01b76-8919-4029-8e24-12ef3bac2eca","system_id":"levelo_inurba_marseille","lat":43.302008,"lon":5.394694,"is_reserved":false,"is_disabled":false,"rental_uris":{"android":"levelo://app?vid=e0b01b76-8919-4029-8e24-12ef3bac2eca","ios":"levelo://app?vid=e0b01b76-8919-4029-8e24-12ef3bac2eca"},"vehicle_type_id":"4","last_reported":1718219213,"current_range_meters":15200,"station_id":"ce4bh0p2rcd13ifvqd70","pricing_plan_id":"cebpf4jnsgd1na2vs0mg"},{"bike_id":"7daebb65-8a0d-4b0a-97c2-7a48871110de","system_id":"levelo_inurba_marseille","lat":43.302008,"lon":5.394694,"is_reserved":false,"is_disabled":false,"rental_uris":{"android":"levelo://app?vid=7daebb65-8a0d-4b0a-97c2-7a48871110de","ios":"levelo://app?vid=7daebb65-8a0d-4b0a-97c2-7a48871110de"},"vehicle_type_id":"4","last_reported":1718219213,"current_range_meters":1600,"station_id":"ce4bh0p2rcd13ifvqd70","pricing_plan_id":"cebpf4jnsgd1na2vs0mg"},{"bike_id":"db593a50-7f09-44f5-9fca-6614d5e91d54","system_id":"levelo_inurba_marseille","lat":43.302008,"lon":5.394694,"is_reserved":false,"is_disabled":false,"rental_uris":{"android":"levelo://app?vid=db593a50-7f09-44f5-9fca-6614d5e91d54","ios":"levelo://app?vid=db593a50-7f09-44f5-9fca-6614d5e91d54"},"vehicle_type_id":"4","last_reported":1718219213,"current_range_meters":3200,"station_id":"ce4bh0p2rcd13ifvqd70","pricing_plan_id":"cebpf4jnsgd1na2vs0mg"},{"bike_id":"541a20eb-7bfe-4ea9-91ef-fbb3e97b18b9","system_id":"levelo_inurba_marseille","lat":43.302008,"lon":5.394694,"is_reserved":false,"is_disabled":false,"rental_uris":{"android":"levelo://app?vid=541a20eb-7bfe-4ea9-91ef-fbb3e97b18b9","ios":"levelo://app?vid=541a20eb-7bfe-4ea9-91ef-fbb3e97b18b9"},"vehicle_type_id":"4","last_reported":1718219213,"current_range_meters":13600,"station_id":"ce4bh0p2rcd13ifvqd70","pricing_plan_id":"cebpf4jnsgd1na2vs0mg"},{"bike_id":"d2a8cc3a-b6e7-4a07-bd1e-47621154bf93","system_id":"levelo_inurba_marseille","lat":43.290631,"lon":5.359244,"is_reserved":false,"is_disabled":false,"rental_uris":{"android":"levelo://app?vid=d2a8cc3a-b6e7-4a07-bd1e-47621154bf93","ios":"levelo://app?vid=d2a8cc3a-b6e7-4a07-bd1e-47621154bf93"},"vehicle_type_id":"4","last_reported":1718219213,"current_range_meters":12400,"station_id":"ce4bha92rcd13ifvqeg0","pricing_plan_id":"cebpf4jnsgd1na2vs0mg"},{"bike_id":"873f6ea8-fe41-48c9-8a98-53f40b29f59f","system_id":"levelo_inurba_marseille","lat":43.290631,"lon":5.359244,"is_reserved":false,"is_disabled":false,"rental_uris":{"android":"levelo://app?vid=873f6ea8-fe41-48c9-8a98-53f40b29f59f","ios":"levelo://app?vid=873f6ea8-fe41-48c9-8a98-53f40b29f59f"},"vehicle_type_id":"4","last_reported":1718219213,"current_range_meters":11600,"station_id":"ce4bha92rcd13ifvqeg0","pricing_plan_id":"cebpf4jnsgd1na2vs0mg"},{"bike_id":"721f7798-543f-43f2-80a4-2d50e62f3e3a","system_id":"levelo_inurba_marseille","lat":43.29327,"lon":5.383808,"is_reserved":false,"is_disabled":false,"rental_uris":{"android":"levelo://app?vid=721f7798-543f-43f2-80a4-2d50e62f3e3a","ios":"levelo://app?vid=721f7798-543f-43f2-80a4-2d50e62f3e3a"},"vehicle_type_id":"4","last_reported":1718219213,"current_range_meters":11600,"station_id":"","pricing_plan_id":"cebpf4jnsgd1na2vs0mg"},{"bike_id":"2f77c9a0-9ba6-419d-b05c-34eb3971bedc","system_id":"levelo_inurba_marseille","lat":43.294162,"lon":5.386292,"is_reserved":false,"is_disabled":false,"rental_uris":{"android":"levelo://app?vid=2f77c9a0-9ba6-419d-b05c-34eb3971bedc","ios":"levelo://app?vid=2f77c9a0-9ba6-419d-b05c-34eb3971bedc"},"vehicle_type_id":"4","last_reported":1718219213,"current_range_meters":23600,"station_id":"ce4bh2h2rcd13ifvqdh0","pricing_plan_id":"cebpf4jnsgd1na2vs0mg"},{"bike_id":"5c86896c-f8db-4588-8d61-d2d024ab4e65","system_id":"levelo_inurba_marseille","lat":43.294153,"lon":5.386305,"is_reserved":false,"is_disabled":false,"rental_uris":{"android":"levelo://app?vid=5c86896c-f8db-4588-8d61-d2d024ab4e65","ios":"levelo://app?vid=5c86896c-f8db-4588-8d61-d2d024ab4e65"},"vehicle_type_id":"4","last_reported":1718219213,"current_range_meters":5200,"station_id":"ce4bh2h2rcd13ifvqdh0","pricing_plan_id":"cebpf4jnsgd1na2vs0mg"},{"bike_id":"923766cb-6573-4f35-bddf-2a218a6a4ac1","system_id":"levelo_inurba_marseille","lat":43.29041,"lon":5.37561,"is_reserved":false,"is_disabled":false,"rental_uris":{"android":"levelo://app?vid=923766cb-6573-4f35-bddf-2a218a6a4ac1","ios":"levelo://app?vid=923766cb-6573-4f35-bddf-2a218a6a4ac1"},"vehicle_type_id":"4","last_reported":1718219213,"current_range_meters":0,"station_id":"ce4bh692rcd13ifvqe90","pricing_plan_id":"cebpf4jnsgd1na2vs0mg"},{"bike_id":"821f9833-17e4-4024-83c4-cf40a190f95c","system_id":"levelo_inurba_marseille","lat":43.294153,"lon":5.386305,"is_reserved":false,"is_disabled":false,"rental_uris":{"android":"levelo://app?vid=821f9833-17e4-4024-83c4-cf40a190f95c","ios":"levelo://app?vid=821f9833-17e4-4024-83c4-cf40a190f95c"},"vehicle_type_id":"4","last_reported":1718219213,"current_range_meters":3600,"station_id":"ce4bh2h2rcd13ifvqdh0","pricing_plan_id":"cebpf4jnsgd1na2vs0mg"},{"bike_id":"e7d9f961-1fd8-42bd-b3a8-d68bd80fc5a0","system_id":"levelo_inurba_marseille","lat":43.294162,"lon":5.386292,"is_reserved":false,"is_disabled":false,"rental_uris":{"android":"levelo://app?vid=e7d9f961-1fd8-42bd-b3a8-d68bd80fc5a0","ios":"levelo://app?vid=e7d9f961-1fd8-42bd-b3a8-d68bd80fc5a0"},"vehicle_type_id":"4","last_reported":1718219213,"current_range_meters":25600,"station_id":"ce4bh2h2rcd13ifvqdh0","pricing_plan_id":"cebpf4jnsgd1na2vs0mg"},{"bike_id":"ed97da80-2e0a-4062-94dc-bcdaed9ee234","system_id":"levelo_inurba_marseille","lat":43.294162,"lon":5.386292,"is_reserved":false,"is_disabled":false,"rental_uris":{"android":"levelo://app?vid=ed97da80-2e0a-4062-94dc-bcdaed9ee234","ios":"levelo://app?vid=ed97da80-2e0a-4062-94dc-bcdaed9ee234"},"vehicle_type_id":"4","last_reported":1718219213,"current_range_meters":21200,"station_id":"ce4bh2h2rcd13ifvqdh0","pricing_plan_id":"cebpf4jnsgd1na2vs0mg"},{"bike_id":"4cf331ad-df4b-4e1b-b286-0e21331d7579","system_id":"levelo_inurba_marseille","lat":43.294195,"lon":5.386173,"is_reserved":false,"is_disabled":false,"rental_uris":{"android":"levelo://app?vid=4cf331ad-df4b-4e1b-b286-0e21331d7579","ios":"levelo://app?vid=4cf331ad-df4b-4e1b-b286-0e21331d7579"},"vehicle_type_id":"4","last_reported":1718219213,"current_range_meters":29600,"station_id":"ce4bh2h2rcd13ifvqdh0","pricing_plan_id":"cebpf4jnsgd1na2vs0mg"},{"bike_id":"4f4129d9-35f9-4d5b-b4ee-df193b9f5b08","system_id":"levelo_inurba_marseille","lat":43.294153,"lon":5.386305,"is_reserved":false,"is_disabled":false,"rental_uris":{"android":"levelo://app?vid=4f4129d9-35f9-4d5b-b4ee-df193b9f5b08","ios":"levelo://app?vid=4f4129d9-35f9-4d5b-b4ee-df193b9f5b08"},"vehicle_type_id":"4","last_reported":1718219213,"current_range_meters":9600,"station_id":"ce4bh2h2rcd13ifvqdh0","pricing_plan_id":"cebpf4jnsgd1na2vs0mg"},{"bike_id":"9e883490-a106-4253-8971-9c7d671f29cc","system_id":"levelo_inurba_marseille","lat":43.294153,"lon":5.386305,"is_reserved":false,"is_disabled":false,"rental_uris":{"android":"levelo://app?vid=9e883490-a106-4253-8971-9c7d671f29cc","ios":"levelo://app?vid=9e883490-a106-4253-8971-9c7d671f29cc"},"vehicle_type_id":"4","last_reported":1718219213,"current_range_meters":31600,"station_id":"ce4bh2h2rcd13ifvqdh0","pricing_plan_id":"cebpf4jnsgd1na2vs0mg"},{"bike_id":"b079e7ae-2064-4307-8862-3b307337805a","system_id":"levelo_inurba_marseille","lat":43.290327,"lon":5.375711,"is_reserved":false,"is_disabled":false,"rental_uris":{"android":"levelo://app?vid=b079e7ae-2064-4307-8862-3b307337805a","ios":"levelo://app?vid=b079e7ae-2064-4307-8862-3b307337805a"},"vehicle_type_id":"4","last_reported":1718219213,"current_range_meters":26400,"station_id":"ce4bh692rcd13ifvqe90","pricing_plan_id":"cebpf4jnsgd1na2vs0mg"},{"bike_id":"a5a67078-7fdb-4859-819f-064a2e2b0c44","system_id":"levelo_inurba_marseille","lat":43.294223,"lon":5.386247,"is_reserved":false,"is_disabled":false,"rental_uris":{"android":"levelo://app?vid=a5a67078-7fdb-4859-819f-064a2e2b0c44","ios":"levelo://app?vid=a5a67078-7fdb-4859-819f-064a2e2b0c44"},"vehicle_type_id":"4","last_reported":1718219213,"current_range_meters":23600,"station_id":"ce4bh2h2rcd13ifvqdh0","pricing_plan_id":"cebpf4jnsgd1na2vs0mg"},{"bike_id":"be375132-7ace-42fd-8b44-cad603dbfa3e","system_id":"levelo_inurba_marseille","lat":43.289491,"lon":5.366326,"is_reserved":false,"is_disabled":false,"rental_uris":{"android":"levelo://app?vid=be375132-7ace-42fd-8b44-cad603dbfa3e","ios":"levelo://app?vid=be375132-7ace-42fd-8b44-cad603dbfa3e"},"vehicle_type_id":"4","last_reported":1718219213,"current_range_meters":28800,"station_id":"ce4bhap2rcd13ifvqek0","pricing_plan_id":"cebpf4jnsgd1na2vs0mg"},{"bike_id":"ba4ebdef-7ad9-4eb9-954d-f86486712b73","system_id":"levelo_inurba_marseille","lat":43.29418,"lon":5.38619,"is_reserved":false,"is_disabled":false,"rental_uris":{"android":"levelo://app?vid=ba4ebdef-7ad9-4eb9-954d-f86486712b73","ios":"levelo://app?vid=ba4ebdef-7ad9-4eb9-954d-f86486712b73"},"vehicle_type_id":"4","last_reported":1718219213,"current_range_meters":30400,"station_id":"ce4bh2h2rcd13ifvqdh0","pricing_plan_id":"cebpf4jnsgd1na2vs0mg"},{"bike_id":"165ae216-5f89-4fa0-90e0-aa147a7d3636","system_id":"levelo_inurba_marseille","lat":43.294174,"lon":5.386192,"is_reserved":false,"is_disabled":false,"rental_uris":{"android":"levelo://app?vid=165ae216-5f89-4fa0-90e0-aa147a7d3636","ios":"levelo://app?vid=165ae216-5f89-4fa0-90e0-aa147a7d3636"},"vehicle_type_id":"4","last_reported":1718219213,"current_range_meters":19600,"station_id":"ce4bh2h2rcd13ifvqdh0","pricing_plan_id":"cebpf4jnsgd1na2vs0mg"},{"bike_id":"b8a57c9a-817e-4f72-ade7-5cc4462203cd","system_id":"levelo_inurba_marseille","lat":43.294162,"lon":5.386292,"is_reserved":false,"is_disabled":false,"rental_uris":{"android":"levelo://app?vid=b8a57c9a-817e-4f72-ade7-5cc4462203cd","ios":"levelo://app?vid=b8a57c9a-817e-4f72-ade7-5cc4462203cd"},"vehicle_type_id":"4","last_reported":1718219213,"current_range_meters":22800,"station_id":"ce4bh2h2rcd13ifvqdh0","pricing_plan_id":"cebpf4jnsgd1na2vs0mg"},{"bike_id":"c578fdaf-83f2-404a-a59f-15022cd1345c","system_id":"levelo_inurba_marseille","lat":43.294153,"lon":5.386305,"is_reserved":false,"is_disabled":false,"rental_uris":{"android":"levelo://app?vid=c578fdaf-83f2-404a-a59f-15022cd1345c","ios":"levelo://app?vid=c578fdaf-83f2-404a-a59f-15022cd1345c"},"vehicle_type_id":"4","last_reported":1718219213,"current_range_meters":28400,"station_id":"ce4bh2h2rcd13ifvqdh0","pricing_plan_id":"cebpf4jnsgd1na2vs0mg"},{"bike_id":"e89764f2-26d8-4aaa-ac73-8c2c48684255","system_id":"levelo_inurba_marseille","lat":43.294153,"lon":5.386305,"is_reserved":false,"is_disabled":false,"rental_uris":{"android":"levelo://app?vid=e89764f2-26d8-4aaa-ac73-8c2c48684255","ios":"levelo://app?vid=e89764f2-26d8-4aaa-ac73-8c2c48684255"},"vehicle_type_id":"4","last_reported":1718219213,"current_range_meters":31600,"station_id":"ce4bh2h2rcd13ifvqdh0","pricing_plan_id":"cebpf4jnsgd1na2vs0mg"},{"bike_id":"4ae89784-6f15-4e6a-b5ce-0601e608d31b","system_id":"levelo_inurba_marseille","lat":43.294162,"lon":5.386292,"is_reserved":false,"is_disabled":false,"rental_uris":{"android":"levelo://app?vid=4ae89784-6f15-4e6a-b5ce-0601e608d31b","ios":"levelo://app?vid=4ae89784-6f15-4e6a-b5ce-0601e608d31b"},"vehicle_type_id":"4","last_reported":1718219213,"current_range_meters":23200,"station_id":"ce4bh2h2rcd13ifvqdh0","pricing_plan_id":"cebpf4jnsgd1na2vs0mg"},{"bike_id":"6400c349-0e82-42de-9dd9-6f41886b37f3","system_id":"levelo_inurba_marseille","lat":43.2942,"lon":5.38628,"is_reserved":false,"is_disabled":false,"rental_uris":{"android":"levelo://app?vid=6400c349-0e82-42de-9dd9-6f41886b37f3","ios":"levelo://app?vid=6400c349-0e82-42de-9dd9-6f41886b37f3"},"vehicle_type_id":"4","last_reported":1718219213,"current_range_meters":1600,"station_id":"","pricing_plan_id":"cebpf4jnsgd1na2vs0mg"},{"bike_id":"ba87a993-ff72-4cf3-adb1-a047734eaab4","system_id":"levelo_inurba_marseille","lat":43.294153,"lon":5.386305,"is_reserved":false,"is_disabled":false,"rental_uris":{"android":"levelo://app?vid=ba87a993-ff72-4cf3-adb1-a047734eaab4","ios":"levelo://app?vid=ba87a993-ff72-4cf3-adb1-a047734eaab4"},"vehicle_type_id":"4","last_reported":1718219213,"current_range_meters":31600,"station_id":"ce4bh2h2rcd13ifvqdh0","pricing_plan_id":"cebpf4jnsgd1na2vs0mg"},{"bike_id":"9b27092a-66e8-4bdd-8fc0-837b50e716f5","system_id":"levelo_inurba_marseille","lat":43.294162,"lon":5.386292,"is_reserved":false,"is_disabled":false,"rental_uris":{"android":"levelo://app?vid=9b27092a-66e8-4bdd-8fc0-837b50e716f5","ios":"levelo://app?vid=9b27092a-66e8-4bdd-8fc0-837b50e716f5"},"vehicle_type_id":"4","last_reported":1718219213,"current_range_meters":11200,"station_id":"ce4bh2h2rcd13ifvqdh0","pricing_plan_id":"cebpf4jnsgd1na2vs0mg"},{"bike_id":"a4b03945-a4f5-4c5b-8614-c8eec6873190","system_id":"levelo_inurba_marseille","lat":43.28945,"lon":5.36639,"is_reserved":false,"is_disabled":false,"rental_uris":{"android":"levelo://app?vid=a4b03945-a4f5-4c5b-8614-c8eec6873190","ios":"levelo://app?vid=a4b03945-a4f5-4c5b-8614-c8eec6873190"},"vehicle_type_id":"4","last_reported":1718219213,"current_range_meters":0,"station_id":"ce4bhap2rcd13ifvqek0","pricing_plan_id":"cebpf4jnsgd1na2vs0mg"},{"bike_id":"a6ce5384-fb77-47f6-add9-d195dfed5eb2","system_id":"levelo_inurba_marseille","lat":43.29419,"lon":5.386287,"is_reserved":false,"is_disabled":false,"rental_uris":{"android":"levelo://app?vid=a6ce5384-fb77-47f6-add9-d195dfed5eb2","ios":"levelo://app?vid=a6ce5384-fb77-47f6-add9-d195dfed5eb2"},"vehicle_type_id":"4","last_reported":1718219213,"current_range_meters":31200,"station_id":"ce4bh2h2rcd13ifvqdh0","pricing_plan_id":"cebpf4jnsgd1na2vs0mg"},{"bike_id":"be98b68f-23af-4fa4-b51f-0dda6c7322fb","system_id":"levelo_inurba_marseille","lat":43.289184,"lon":5.366408,"is_reserved":false,"is_disabled":false,"rental_uris":{"android":"levelo://app?vid=be98b68f-23af-4fa4-b51f-0dda6c7322fb","ios":"levelo://app?vid=be98b68f-23af-4fa4-b51f-0dda6c7322fb"},"vehicle_type_id":"4","last_reported":1718219213,"current_range_meters":11600,"station_id":"ce4bhap2rcd13ifvqek0","pricing_plan_id":"cebpf4jnsgd1na2vs0mg"},{"bike_id":"cb41bb2e-24de-4d1d-a347-f143993a5b5c","system_id":"levelo_inurba_marseille","lat":43.289184,"lon":5.366408,"is_reserved":false,"is_disabled":false,"rental_uris":{"android":"levelo://app?vid=cb41bb2e-24de-4d1d-a347-f143993a5b5c","ios":"levelo://app?vid=cb41bb2e-24de-4d1d-a347-f143993a5b5c"},"vehicle_type_id":"4","last_reported":1718219213,"current_range_meters":7200,"station_id":"ce4bhap2rcd13ifvqek0","pricing_plan_id":"cebpf4jnsgd1na2vs0mg"},{"bike_id":"88ed3061-a688-44f9-9e56-433d4ca9bd32","system_id":"levelo_inurba_marseille","lat":43.28939,"lon":5.36643,"is_reserved":false,"is_disabled":false,"rental_uris":{"android":"levelo://app?vid=88ed3061-a688-44f9-9e56-433d4ca9bd32","ios":"levelo://app?vid=88ed3061-a688-44f9-9e56-433d4ca9bd32"},"vehicle_type_id":"4","last_reported":1718219213,"current_range_meters":0,"station_id":"ce4bhap2rcd13ifvqek0","pricing_plan_id":"cebpf4jnsgd1na2vs0mg"},{"bike_id":"5384296b-49cd-4939-a5a8-6b0e842c11ae","system_id":"levelo_inurba_marseille","lat":43.290327,"lon":5.375711,"is_reserved":false,"is_disabled":false,"rental_uris":{"android":"levelo://app?vid=5384296b-49cd-4939-a5a8-6b0e842c11ae","ios":"levelo://app?vid=5384296b-49cd-4939-a5a8-6b0e842c11ae"},"vehicle_type_id":"4","last_reported":1718219213,"current_range_meters":18000,"station_id":"ce4bh692rcd13ifvqe90","pricing_plan_id":"cebpf4jnsgd1na2vs0mg"},{"bike_id":"3e314cb4-66f7-4558-bee5-db123c8b5538","system_id":"levelo_inurba_marseille","lat":43.28938,"lon":5.36637,"is_reserved":false,"is_disabled":false,"rental_uris":{"android":"levelo://app?vid=3e314cb4-66f7-4558-bee5-db123c8b5538","ios":"levelo://app?vid=3e314cb4-66f7-4558-bee5-db123c8b5538"},"vehicle_type_id":"4","last_reported":1718219213,"current_range_meters":28800,"station_id":"ce4bhap2rcd13ifvqek0","pricing_plan_id":"cebpf4jnsgd1na2vs0mg"},{"bike_id":"d02f4395-4ae7-45cf-bb7e-5c5a2c11105f","system_id":"levelo_inurba_marseille","lat":43.289184,"lon":5.366408,"is_reserved":false,"is_disabled":false,"rental_uris":{"android":"levelo://app?vid=d02f4395-4ae7-45cf-bb7e-5c5a2c11105f","ios":"levelo://app?vid=d02f4395-4ae7-45cf-bb7e-5c5a2c11105f"},"vehicle_type_id":"4","last_reported":1718219213,"current_range_meters":12000,"station_id":"ce4bhap2rcd13ifvqek0","pricing_plan_id":"cebpf4jnsgd1na2vs0mg"},{"bike_id":"76cc1d5e-4b3b-41bf-97ae-aea4fbe7d354","system_id":"levelo_inurba_marseille","lat":43.289468,"lon":5.363719,"is_reserved":false,"is_disabled":false,"rental_uris":{"android":"levelo://app?vid=76cc1d5e-4b3b-41bf-97ae-aea4fbe7d354","ios":"levelo://app?vid=76cc1d5e-4b3b-41bf-97ae-aea4fbe7d354"},"vehicle_type_id":"4","last_reported":1718219213,"current_range_meters":16800,"station_id":"ce4bhc92rcd13ifvqetg","pricing_plan_id":"cebpf4jnsgd1na2vs0mg"},{"bike_id":"157b94da-c6f1-4ab7-9a8d-d5591a79a7f0","system_id":"levelo_inurba_marseille","lat":43.289184,"lon":5.366408,"is_reserved":false,"is_disabled":false,"rental_uris":{"android":"levelo://app?vid=157b94da-c6f1-4ab7-9a8d-d5591a79a7f0","ios":"levelo://app?vid=157b94da-c6f1-4ab7-9a8d-d5591a79a7f0"},"vehicle_type_id":"4","last_reported":1718219213,"current_range_meters":0,"station_id":"ce4bhap2rcd13ifvqek0","pricing_plan_id":"cebpf4jnsgd1na2vs0mg"},{"bike_id":"36ee384c-3757-4b3e-ba22-aafeb788b506","system_id":"levelo_inurba_marseille","lat":43.289184,"lon":5.366408,"is_reserved":false,"is_disabled":false,"rental_uris":{"android":"levelo://app?vid=36ee384c-3757-4b3e-ba22-aafeb788b506","ios":"levelo://app?vid=36ee384c-3757-4b3e-ba22-aafeb788b506"},"vehicle_type_id":"4","last_reported":1718219213,"current_range_meters":2800,"station_id":"ce4bhap2rcd13ifvqek0","pricing_plan_id":"cebpf4jnsgd1na2vs0mg"},{"bike_id":"4c8d69e2-ea1b-42f1-89a1-1c34b1d41633","system_id":"levelo_inurba_marseille","lat":43.289468,"lon":5.363719,"is_reserved":false,"is_disabled":false,"rental_uris":{"android":"levelo://app?vid=4c8d69e2-ea1b-42f1-89a1-1c34b1d41633","ios":"levelo://app?vid=4c8d69e2-ea1b-42f1-89a1-1c34b1d41633"},"vehicle_type_id":"4","last_reported":1718219213,"current_range_meters":16000,"station_id":"ce4bhc92rcd13ifvqetg","pricing_plan_id":"cebpf4jnsgd1na2vs0mg"},{"bike_id":"e710f3fe-7bd9-4d05-b6c8-9d9c01905540","system_id":"levelo_inurba_marseille","lat":43.289468,"lon":5.363719,"is_reserved":false,"is_disabled":false,"rental_uris":{"android":"levelo://app?vid=e710f3fe-7bd9-4d05-b6c8-9d9c01905540","ios":"levelo://app?vid=e710f3fe-7bd9-4d05-b6c8-9d9c01905540"},"vehicle_type_id":"4","last_reported":1718219213,"current_range_meters":31200,"station_id":"ce4bhc92rcd13ifvqetg","pricing_plan_id":"cebpf4jnsgd1na2vs0mg"},{"bike_id":"d70e96fd-2115-4849-b9e3-ac88b97ed299","system_id":"levelo_inurba_marseille","lat":43.289468,"lon":5.363719,"is_reserved":false,"is_disabled":false,"rental_uris":{"android":"levelo://app?vid=d70e96fd-2115-4849-b9e3-ac88b97ed299","ios":"levelo://app?vid=d70e96fd-2115-4849-b9e3-ac88b97ed299"},"vehicle_type_id":"4","last_reported":1718219213,"current_range_meters":26400,"station_id":"ce4bhc92rcd13ifvqetg","pricing_plan_id":"cebpf4jnsgd1na2vs0mg"},{"bike_id":"edc7c956-a1bf-4981-9360-95a1bb2fd216","system_id":"levelo_inurba_marseille","lat":43.289468,"lon":5.363719,"is_reserved":false,"is_disabled":false,"rental_uris":{"android":"levelo://app?vid=edc7c956-a1bf-4981-9360-95a1bb2fd216","ios":"levelo://app?vid=edc7c956-a1bf-4981-9360-95a1bb2fd216"},"vehicle_type_id":"4","last_reported":1718219213,"current_range_meters":18400,"station_id":"ce4bhc92rcd13ifvqetg","pricing_plan_id":"cebpf4jnsgd1na2vs0mg"},{"bike_id":"89f4964a-8fca-40e1-a6a1-ba8ff76de592","system_id":"levelo_inurba_marseille","lat":43.292644,"lon":5.384257,"is_reserved":false,"is_disabled":false,"rental_uris":{"android":"levelo://app?vid=89f4964a-8fca-40e1-a6a1-ba8ff76de592","ios":"levelo://app?vid=89f4964a-8fca-40e1-a6a1-ba8ff76de592"},"vehicle_type_id":"4","last_reported":1718219213,"current_range_meters":3200,"station_id":"ce4bh692rcd13ifvqea0","pricing_plan_id":"cebpf4jnsgd1na2vs0mg"},{"bike_id":"8b0db9d0-455d-4ebe-85d3-eceaa7cf4c67","system_id":"levelo_inurba_marseille","lat":43.292642,"lon":5.384254,"is_reserved":false,"is_disabled":false,"rental_uris":{"android":"levelo://app?vid=8b0db9d0-455d-4ebe-85d3-eceaa7cf4c67","ios":"levelo://app?vid=8b0db9d0-455d-4ebe-85d3-eceaa7cf4c67"},"vehicle_type_id":"4","last_reported":1718219213,"current_range_meters":16800,"station_id":"ce4bh692rcd13ifvqea0","pricing_plan_id":"cebpf4jnsgd1na2vs0mg"},{"bike_id":"b4189247-a590-4e15-886f-f8e6d474a1c4","system_id":"levelo_inurba_marseille","lat":43.292644,"lon":5.384257,"is_reserved":false,"is_disabled":false,"rental_uris":{"android":"levelo://app?vid=b4189247-a590-4e15-886f-f8e6d474a1c4","ios":"levelo://app?vid=b4189247-a590-4e15-886f-f8e6d474a1c4"},"vehicle_type_id":"4","last_reported":1718219213,"current_range_meters":20000,"station_id":"ce4bh692rcd13ifvqea0","pricing_plan_id":"cebpf4jnsgd1na2vs0mg"},{"bike_id":"7215771a-58b6-4155-b36b-b3acda36fc14","system_id":"levelo_inurba_marseille","lat":43.292644,"lon":5.384257,"is_reserved":false,"is_disabled":false,"rental_uris":{"android":"levelo://app?vid=7215771a-58b6-4155-b36b-b3acda36fc14","ios":"levelo://app?vid=7215771a-58b6-4155-b36b-b3acda36fc14"},"vehicle_type_id":"4","last_reported":1718219213,"current_range_meters":21200,"station_id":"ce4bh692rcd13ifvqea0","pricing_plan_id":"cebpf4jnsgd1na2vs0mg"},{"bike_id":"35882ec2-d60b-4585-bfde-e91229c73255","system_id":"levelo_inurba_marseille","lat":43.292644,"lon":5.384257,"is_reserved":false,"is_disabled":false,"rental_uris":{"android":"levelo://app?vid=35882ec2-d60b-4585-bfde-e91229c73255","ios":"levelo://app?vid=35882ec2-d60b-4585-bfde-e91229c73255"},"vehicle_type_id":"4","last_reported":1718219213,"current_range_meters":0,"station_id":"ce4bh692rcd13ifvqea0","pricing_plan_id":"cebpf4jnsgd1na2vs0mg"},{"bike_id":"34513a1a-d587-4d14-a438-537209fa4834","system_id":"levelo_inurba_marseille","lat":43.304296,"lon":5.397513,"is_reserved":false,"is_disabled":false,"rental_uris":{"android":"levelo://app?vid=34513a1a-d587-4d14-a438-537209fa4834","ios":"levelo://app?vid=34513a1a-d587-4d14-a438-537209fa4834"},"vehicle_type_id":"4","last_reported":1718219213,"current_range_meters":8400,"station_id":"ce4bh092rcd13ifvqd20","pricing_plan_id":"cebpf4jnsgd1na2vs0mg"},{"bike_id":"7bf525c0-91d9-4540-b621-084704668565","system_id":"levelo_inurba_marseille","lat":43.29259,"lon":5.38438,"is_reserved":false,"is_disabled":false,"rental_uris":{"android":"levelo://app?vid=7bf525c0-91d9-4540-b621-084704668565","ios":"levelo://app?vid=7bf525c0-91d9-4540-b621-084704668565"},"vehicle_type_id":"4","last_reported":1718219213,"current_range_meters":0,"station_id":"ce4bh692rcd13ifvqea0","pricing_plan_id":"cebpf4jnsgd1na2vs0mg"},{"bike_id":"9e6feb9a-7b84-4205-9fa6-3b5852304984","system_id":"levelo_inurba_marseille","lat":43.290103,"lon":5.356114,"is_reserved":false,"is_disabled":false,"rental_uris":{"android":"levelo://app?vid=9e6feb9a-7b84-4205-9fa6-3b5852304984","ios":"levelo://app?vid=9e6feb9a-7b84-4205-9fa6-3b5852304984"},"vehicle_type_id":"4","last_reported":1718219213,"current_range_meters":0,"station_id":"ce4bhb92rcd13ifvqen0","pricing_plan_id":"cebpf4jnsgd1na2vs0mg"},{"bike_id":"6f205493-7350-4843-bfc9-7ab64b7c1b05","system_id":"levelo_inurba_marseille","lat":43.290104,"lon":5.356111,"is_reserved":false,"is_disabled":false,"rental_uris":{"android":"levelo://app?vid=6f205493-7350-4843-bfc9-7ab64b7c1b05","ios":"levelo://app?vid=6f205493-7350-4843-bfc9-7ab64b7c1b05"},"vehicle_type_id":"4","last_reported":1718219213,"current_range_meters":0,"station_id":"ce4bhb92rcd13ifvqen0","pricing_plan_id":"cebpf4jnsgd1na2vs0mg"},{"bike_id":"89ae51fa-86f9-46a1-b19a-2ee3cd088cc7","system_id":"levelo_inurba_marseille","lat":43.290104,"lon":5.356111,"is_reserved":false,"is_disabled":false,"rental_uris":{"android":"levelo://app?vid=89ae51fa-86f9-46a1-b19a-2ee3cd088cc7","ios":"levelo://app?vid=89ae51fa-86f9-46a1-b19a-2ee3cd088cc7"},"vehicle_type_id":"4","last_reported":1718219213,"current_range_meters":0,"station_id":"ce4bhb92rcd13ifvqen0","pricing_plan_id":"cebpf4jnsgd1na2vs0mg"},{"bike_id":"f8f5c89e-d863-43f6-be92-982f2b4906fe","system_id":"levelo_inurba_marseille","lat":43.290104,"lon":5.356111,"is_reserved":false,"is_disabled":false,"rental_uris":{"android":"levelo://app?vid=f8f5c89e-d863-43f6-be92-982f2b4906fe","ios":"levelo://app?vid=f8f5c89e-d863-43f6-be92-982f2b4906fe"},"vehicle_type_id":"4","last_reported":1718219213,"current_range_meters":3600,"station_id":"ce4bhb92rcd13ifvqen0","pricing_plan_id":"cebpf4jnsgd1na2vs0mg"},{"bike_id":"01d3c52b-40a2-49ce-8d92-9fa66798ad61","system_id":"levelo_inurba_marseille","lat":43.291,"lon":5.38138,"is_reserved":false,"is_disabled":false,"rental_uris":{"android":"levelo://app?vid=01d3c52b-40a2-49ce-8d92-9fa66798ad61","ios":"levelo://app?vid=01d3c52b-40a2-49ce-8d92-9fa66798ad61"},"vehicle_type_id":"4","last_reported":1718219213,"current_range_meters":9200,"station_id":"","pricing_plan_id":"cebpf4jnsgd1na2vs0mg"},{"bike_id":"8e84971e-fa2f-40c7-a735-93179fedd5e1","system_id":"levelo_inurba_marseille","lat":43.290995,"lon":5.381361,"is_reserved":false,"is_disabled":false,"rental_uris":{"android":"levelo://app?vid=8e84971e-fa2f-40c7-a735-93179fedd5e1","ios":"levelo://app?vid=8e84971e-fa2f-40c7-a735-93179fedd5e1"},"vehicle_type_id":"4","last_reported":1718219213,"current_range_meters":28400,"station_id":"ce4bh512rcd13ifvqe2g","pricing_plan_id":"cebpf4jnsgd1na2vs0mg"},{"bike_id":"2885ceb2-bac8-4130-9f10-68fcd583f138","system_id":"levelo_inurba_marseille","lat":43.290995,"lon":5.381361,"is_reserved":false,"is_disabled":false,"rental_uris":{"android":"levelo://app?vid=2885ceb2-bac8-4130-9f10-68fcd583f138","ios":"levelo://app?vid=2885ceb2-bac8-4130-9f10-68fcd583f138"},"vehicle_type_id":"4","last_reported":1718219213,"current_range_meters":8000,"station_id":"ce4bh512rcd13ifvqe2g","pricing_plan_id":"cebpf4jnsgd1na2vs0mg"},{"bike_id":"5d677960-5df0-44fd-8fbe-bfb12660cd05","system_id":"levelo_inurba_marseille","lat":43.290995,"lon":5.381361,"is_reserved":false,"is_disabled":false,"rental_uris":{"android":"levelo://app?vid=5d677960-5df0-44fd-8fbe-bfb12660cd05","ios":"levelo://app?vid=5d677960-5df0-44fd-8fbe-bfb12660cd05"},"vehicle_type_id":"4","last_reported":1718219213,"current_range_meters":10800,"station_id":"ce4bh512rcd13ifvqe2g","pricing_plan_id":"cebpf4jnsgd1na2vs0mg"},{"bike_id":"733e12e5-933e-4cc2-940e-b4bc52d13412","system_id":"levelo_inurba_marseille","lat":43.29794,"lon":5.39346,"is_reserved":false,"is_disabled":false,"rental_uris":{"android":"levelo://app?vid=733e12e5-933e-4cc2-940e-b4bc52d13412","ios":"levelo://app?vid=733e12e5-933e-4cc2-940e-b4bc52d13412"},"vehicle_type_id":"4","last_reported":1718219213,"current_range_meters":0,"station_id":"chh1huq6cuj3fo74tm60","pricing_plan_id":"cebpf4jnsgd1na2vs0mg"},{"bike_id":"595fa85c-dc85-44fe-af3f-c5bebb8ebe00","system_id":"levelo_inurba_marseille","lat":43.29788,"lon":5.39343,"is_reserved":false,"is_disabled":false,"rental_uris":{"android":"levelo://app?vid=595fa85c-dc85-44fe-af3f-c5bebb8ebe00","ios":"levelo://app?vid=595fa85c-dc85-44fe-af3f-c5bebb8ebe00"},"vehicle_type_id":"4","last_reported":1718219213,"current_range_meters":0,"station_id":"chh1huq6cuj3fo74tm60","pricing_plan_id":"cebpf4jnsgd1na2vs0mg"},{"bike_id":"4450611c-2a89-4b48-b32b-3d5344ebdf01","system_id":"levelo_inurba_marseille","lat":43.289741,"lon":5.378306,"is_reserved":false,"is_disabled":false,"rental_uris":{"android":"levelo://app?vid=4450611c-2a89-4b48-b32b-3d5344ebdf01","ios":"levelo://app?vid=4450611c-2a89-4b48-b32b-3d5344ebdf01"},"vehicle_type_id":"4","last_reported":1718219213,"current_range_meters":17600,"station_id":"ce4bh9p2rcd13ifvqed0","pricing_plan_id":"cebpf4jnsgd1na2vs0mg"},{"bike_id":"d4c4a678-686a-4cd3-9948-aa7b643962fb","system_id":"levelo_inurba_marseille","lat":43.330442,"lon":5.389148,"is_reserved":false,"is_disabled":false,"rental_uris":{"android":"levelo://app?vid=d4c4a678-686a-4cd3-9948-aa7b643962fb","ios":"levelo://app?vid=d4c4a678-686a-4cd3-9948-aa7b643962fb"},"vehicle_type_id":"4","last_reported":1718219213,"current_range_meters":29200,"station_id":"ce4bhr92rcd13ifvqhrg","pricing_plan_id":"cebpf4jnsgd1na2vs0mg"},{"bike_id":"14bd2a95-3021-423c-b799-cd6adb7ebbd3","system_id":"levelo_inurba_marseille","lat":43.33023,"lon":5.39039,"is_reserved":false,"is_disabled":false,"rental_uris":{"android":"levelo://app?vid=14bd2a95-3021-423c-b799-cd6adb7ebbd3","ios":"levelo://app?vid=14bd2a95-3021-423c-b799-cd6adb7ebbd3"},"vehicle_type_id":"4","last_reported":1718219213,"current_range_meters":0,"station_id":"","pricing_plan_id":"cebpf4jnsgd1na2vs0mg"},{"bike_id":"5ee97dda-89da-4def-a152-be496e41b8de","system_id":"levelo_inurba_marseille","lat":43.330442,"lon":5.389148,"is_reserved":false,"is_disabled":false,"rental_uris":{"android":"levelo://app?vid=5ee97dda-89da-4def-a152-be496e41b8de","ios":"levelo://app?vid=5ee97dda-89da-4def-a152-be496e41b8de"},"vehicle_type_id":"4","last_reported":1718219213,"current_range_meters":15200,"station_id":"ce4bhr92rcd13ifvqhrg","pricing_plan_id":"cebpf4jnsgd1na2vs0mg"},{"bike_id":"633c5f56-dead-483d-89ad-34c570258161","system_id":"levelo_inurba_marseille","lat":43.330442,"lon":5.389148,"is_reserved":false,"is_disabled":false,"rental_uris":{"android":"levelo://app?vid=633c5f56-dead-483d-89ad-34c570258161","ios":"levelo://app?vid=633c5f56-dead-483d-89ad-34c570258161"},"vehicle_type_id":"4","last_reported":1718219213,"current_range_meters":4800,"station_id":"ce4bhr92rcd13ifvqhrg","pricing_plan_id":"cebpf4jnsgd1na2vs0mg"},{"bike_id":"16565b95-ac1b-48f1-9c6c-7dcd090c299f","system_id":"levelo_inurba_marseille","lat":43.330442,"lon":5.389148,"is_reserved":false,"is_disabled":false,"rental_uris":{"android":"levelo://app?vid=16565b95-ac1b-48f1-9c6c-7dcd090c299f","ios":"levelo://app?vid=16565b95-ac1b-48f1-9c6c-7dcd090c299f"},"vehicle_type_id":"4","last_reported":1718219213,"current_range_meters":6000,"station_id":"ce4bhr92rcd13ifvqhrg","pricing_plan_id":"cebpf4jnsgd1na2vs0mg"},{"bike_id":"87607f48-04dd-4463-9b79-a7ba8b9706b3","system_id":"levelo_inurba_marseille","lat":43.330283,"lon":5.390399,"is_reserved":false,"is_disabled":false,"rental_uris":{"android":"levelo://app?vid=87607f48-04dd-4463-9b79-a7ba8b9706b3","ios":"levelo://app?vid=87607f48-04dd-4463-9b79-a7ba8b9706b3"},"vehicle_type_id":"4","last_reported":1718219213,"current_range_meters":12400,"station_id":"ce4bhr92rcd13ifvqhrg","pricing_plan_id":"cebpf4jnsgd1na2vs0mg"},{"bike_id":"dfc54fdd-895c-4d7b-9491-ff22f9872198","system_id":"levelo_inurba_marseille","lat":43.330442,"lon":5.389148,"is_reserved":false,"is_disabled":false,"rental_uris":{"android":"levelo://app?vid=dfc54fdd-895c-4d7b-9491-ff22f9872198","ios":"levelo://app?vid=dfc54fdd-895c-4d7b-9491-ff22f9872198"},"vehicle_type_id":"4","last_reported":1718219213,"current_range_meters":12800,"station_id":"ce4bhr92rcd13ifvqhrg","pricing_plan_id":"cebpf4jnsgd1na2vs0mg"},{"bike_id":"c2393794-6303-458c-bb9f-778379649b62","system_id":"levelo_inurba_marseille","lat":43.33028,"lon":5.39045,"is_reserved":false,"is_disabled":false,"rental_uris":{"android":"levelo://app?vid=c2393794-6303-458c-bb9f-778379649b62","ios":"levelo://app?vid=c2393794-6303-458c-bb9f-778379649b62"},"vehicle_type_id":"4","last_reported":1718219213,"current_range_meters":18400,"station_id":"ce4bhr92rcd13ifvqhrg","pricing_plan_id":"cebpf4jnsgd1na2vs0mg"},{"bike_id":"82385019-b075-4ada-9edd-db95a77ae121","system_id":"levelo_inurba_marseille","lat":43.33029,"lon":5.39047,"is_reserved":false,"is_disabled":false,"rental_uris":{"android":"levelo://app?vid=82385019-b075-4ada-9edd-db95a77ae121","ios":"levelo://app?vid=82385019-b075-4ada-9edd-db95a77ae121"},"vehicle_type_id":"4","last_reported":1718219213,"current_range_meters":8000,"station_id":"ce4bhr92rcd13ifvqhrg","pricing_plan_id":"cebpf4jnsgd1na2vs0mg"},{"bike_id":"e793d9a0-e50e-4ada-addc-527208f666a7","system_id":"levelo_inurba_marseille","lat":43.29028,"lon":5.3812,"is_reserved":false,"is_disabled":false,"rental_uris":{"android":"levelo://app?vid=e793d9a0-e50e-4ada-addc-527208f666a7","ios":"levelo://app?vid=e793d9a0-e50e-4ada-addc-527208f666a7"},"vehicle_type_id":"4","last_reported":1718219213,"current_range_meters":28800,"station_id":"ce4bh4p2rcd13ifvqe1g","pricing_plan_id":"cebpf4jnsgd1na2vs0mg"},{"bike_id":"322a6393-eaa2-4027-8584-e8a1382c49d2","system_id":"levelo_inurba_marseille","lat":43.29016,"lon":5.3813,"is_reserved":false,"is_disabled":false,"rental_uris":{"android":"levelo://app?vid=322a6393-eaa2-4027-8584-e8a1382c49d2","ios":"levelo://app?vid=322a6393-eaa2-4027-8584-e8a1382c49d2"},"vehicle_type_id":"4","last_reported":1718219213,"current_range_meters":4000,"station_id":"ce4bh4p2rcd13ifvqe1g","pricing_plan_id":"cebpf4jnsgd1na2vs0mg"},{"bike_id":"4a7bf0d4-5064-495a-9e1e-e3b5add526e0","system_id":"levelo_inurba_marseille","lat":43.290094,"lon":5.381264,"is_reserved":false,"is_disabled":false,"rental_uris":{"android":"levelo://app?vid=4a7bf0d4-5064-495a-9e1e-e3b5add526e0","ios":"levelo://app?vid=4a7bf0d4-5064-495a-9e1e-e3b5add526e0"},"vehicle_type_id":"4","last_reported":1718219213,"current_range_meters":6000,"station_id":"ce4bh4p2rcd13ifvqe1g","pricing_plan_id":"cebpf4jnsgd1na2vs0mg"},{"bike_id":"7a071ac4-7b3c-425c-972f-2fa3410a349c","system_id":"levelo_inurba_marseille","lat":43.290094,"lon":5.381264,"is_reserved":false,"is_disabled":false,"rental_uris":{"android":"levelo://app?vid=7a071ac4-7b3c-425c-972f-2fa3410a349c","ios":"levelo://app?vid=7a071ac4-7b3c-425c-972f-2fa3410a349c"},"vehicle_type_id":"4","last_reported":1718219213,"current_range_meters":400,"station_id":"ce4bh4p2rcd13ifvqe1g","pricing_plan_id":"cebpf4jnsgd1na2vs0mg"},{"bike_id":"51809f35-5f4d-4e1a-b5a8-5ced23aee1da","system_id":"levelo_inurba_marseille","lat":43.28856,"lon":5.358371,"is_reserved":false,"is_disabled":false,"rental_uris":{"android":"levelo://app?vid=51809f35-5f4d-4e1a-b5a8-5ced23aee1da","ios":"levelo://app?vid=51809f35-5f4d-4e1a-b5a8-5ced23aee1da"},"vehicle_type_id":"4","last_reported":1718219213,"current_range_meters":5600,"station_id":"ce4bhb12rcd13ifvqem0","pricing_plan_id":"cebpf4jnsgd1na2vs0mg"},{"bike_id":"3ade0d0f-6a66-4f9c-bafc-1cf03efa6d52","system_id":"levelo_inurba_marseille","lat":43.309371,"lon":5.401449,"is_reserved":false,"is_disabled":false,"rental_uris":{"android":"levelo://app?vid=3ade0d0f-6a66-4f9c-bafc-1cf03efa6d52","ios":"levelo://app?vid=3ade0d0f-6a66-4f9c-bafc-1cf03efa6d52"},"vehicle_type_id":"4","last_reported":1718219213,"current_range_meters":30800,"station_id":"ce4bgvp2rcd13ifvqct0","pricing_plan_id":"cebpf4jnsgd1na2vs0mg"},{"bike_id":"deb29cda-7477-4a87-9f5f-e002f8f07104","system_id":"levelo_inurba_marseille","lat":43.309371,"lon":5.401449,"is_reserved":false,"is_disabled":false,"rental_uris":{"android":"levelo://app?vid=deb29cda-7477-4a87-9f5f-e002f8f07104","ios":"levelo://app?vid=deb29cda-7477-4a87-9f5f-e002f8f07104"},"vehicle_type_id":"4","last_reported":1718219213,"current_range_meters":0,"station_id":"ce4bgvp2rcd13ifvqct0","pricing_plan_id":"cebpf4jnsgd1na2vs0mg"},{"bike_id":"1e280334-5f7d-455c-b78f-832949774d9f","system_id":"levelo_inurba_marseille","lat":43.309371,"lon":5.401449,"is_reserved":false,"is_disabled":false,"rental_uris":{"android":"levelo://app?vid=1e280334-5f7d-455c-b78f-832949774d9f","ios":"levelo://app?vid=1e280334-5f7d-455c-b78f-832949774d9f"},