{"last_updated":1723475403,"ttl":30,"version":"2.2","data":{"bikes":[{"bike_id":"a912f351-f2d3-4048-97fe-8f3883b84223","system_id":"levelo_inurba_marseille","lat":43.313508,"lon":5.367085,"is_reserved":false,"is_disabled":false,"rental_uris":{"android":"levelo://app?vid=a912f351-f2d3-4048-97fe-8f3883b84223","ios":"levelo://app?vid=a912f351-f2d3-4048-97fe-8f3883b84223"},"vehicle_type_id":"4","last_reported":1723475403,"current_range_meters":7200,"station_id":"ce4bgr92rcd13ifvqc6g","pricing_plan_id":"cebpf4jnsgd1na2vs0mg"},{"bike_id":"f7178606-0abc-48e2-9604-bc37bec3c007","system_id":"levelo_inurba_marseille","lat":43.312914,"lon":5.368314,"is_reserved":false,"is_disabled":false,"rental_uris":{"android":"levelo://app?vid=f7178606-0abc-48e2-9604-bc37bec3c007","ios":"levelo://app?vid=f7178606-0abc-48e2-9604-bc37bec3c007"},"vehicle_type_id":"4","last_reported":1723475403,"current_range_meters":800,"station_id":"","pricing_plan_id":"cebpf4jnsgd1na2vs0mg"},{"bike_id":"0436d3a7-5268-4c6f-9838-9100f925c925","system_id":"levelo_inurba_marseille","lat":43.31226,"lon":5.36848,"is_reserved":false,"is_disabled":false,"rental_uris":{"android":"levelo://app?vid=0436d3a7-5268-4c6f-9838-9100f925c925","ios":"levelo://app?vid=0436d3a7-5268-4c6f-9838-9100f925c925"},"vehicle_type_id":"4","last_reported":1723475403,"current_range_meters":18800,"station_id":"ce4bgl92rcd13ifvqbq0","pricing_plan_id":"cebpf4jnsgd1na2vs0mg"},{"bike_id":"c7dc67d2-cee4-4571-b15a-ab06c0f40e5b","system_id":"levelo_inurba_marseille","lat":43.31233,"lon":5.36856,"is_reserved":false,"is_disabled":false,"rental_uris":{"android":"levelo://app?vid=c7dc67d2-cee4-4571-b15a-ab06c0f40e5b","ios":"levelo://app?vid=c7dc67d2-cee4-4571-b15a-ab06c0f40e5b"},"vehicle_type_id":"4","last_reported":1723475403,"current_range_meters":27200,"station_id":"ce4bgl92rcd13ifvqbq0","pricing_plan_id":"cebpf4jnsgd1na2vs0mg"},{"bike_id":"ab024fd1-2bac-4e91-a651-a02f562b0409","system_id":"levelo_inurba_marseille","lat":43.312239,"lon":5.368562,"is_reserved":false,"is_disabled":false,"rental_uris":{"android":"levelo://app?vid=ab024fd1-2bac-4e91-a651-a02f562b0409","ios":"levelo://app?vid=ab024fd1-2bac-4e91-a651-a02f562b0409"},"vehicle_type_id":"4","last_reported":1723475403,"current_range_meters":20000,"station_id":"ce4bgl92rcd13ifvqbq0","pricing_plan_id":"cebpf4jnsgd1na2vs0mg"},{"bike_id":"07bdf5b5-9674-4ea0-aea0-ba94e3ae938f","system_id":"levelo_inurba_marseille","lat":43.3123,"lon":5.36861,"is_reserved":false,"is_disabled":false,"rental_uris":{"android":"levelo://app?vid=07bdf5b5-9674-4ea0-aea0-ba94e3ae938f","ios":"levelo://app?vid=07bdf5b5-9674-4ea0-aea0-ba94e3ae938f"},"vehicle_type_id":"4","last_reported":1723475403,"current_range_meters":5600,"station_id":"ce4bgl92rcd13ifvqbq0","pricing_plan_id":"cebpf4jnsgd1na2vs0mg"},{"bike_id":"11ab1f12-699e-4ac6-84fc-22cc122433b6","system_id":"levelo_inurba_marseille","lat":43.312239,"lon":5.368562,"is_reserved":false,"is_disabled":false,"rental_uris":{"android":"levelo://app?vid=11ab1f12-699e-4ac6-84fc-22cc122433b6","ios":"levelo://app?vid=11ab1f12-699e-4ac6-84fc-22cc122433b6"},"vehicle_type_id":"4","last_reported":1723475403,"current_range_meters":31600,"station_id":"ce4bgl92rcd13ifvqbq0","pricing_plan_id":"cebpf4jnsgd1na2vs0mg"},{"bike_id":"51176811-c4b1-40ed-bd71-55a9e9f036a0","system_id":"levelo_inurba_marseille","lat":43.312239,"lon":5.368562,"is_reserved":false,"is_disabled":false,"rental_uris":{"android":"levelo://app?vid=51176811-c4b1-40ed-bd71-55a9e9f036a0","ios":"levelo://app?vid=51176811-c4b1-40ed-bd71-55a9e9f036a0"},"vehicle_type_id":"4","last_reported":1723475403,"current_range_meters":8000,"station_id":"ce4bgl92rcd13ifvqbq0","pricing_plan_id":"cebpf4jnsgd1na2vs0mg"},{"bike_id":"495394da-9fec-4da4-840c-7c3924b40618","system_id":"levelo_inurba_marseille","lat":43.312239,"lon":5.368562,"is_reserved":false,"is_disabled":false,"rental_uris":{"android":"levelo://app?vid=495394da-9fec-4da4-840c-7c3924b40618","ios":"levelo://app?vid=495394da-9fec-4da4-840c-7c3924b40618"},"vehicle_type_id":"4","last_reported":1723475403,"current_range_meters":18800,"station_id":"ce4bgl92rcd13ifvqbq0","pricing_plan_id":"cebpf4jnsgd1na2vs0mg"},{"bike_id":"d9e9ec40-5fa0-4ddb-895f-7c73d17b08a3","system_id":"levelo_inurba_marseille","lat":43.312239,"lon":5.368562,"is_reserved":false,"is_disabled":false,"rental_uris":{"android":"levelo://app?vid=d9e9ec40-5fa0-4ddb-895f-7c73d17b08a3","ios":"levelo://app?vid=d9e9ec40-5fa0-4ddb-895f-7c73d17b08a3"},"vehicle_type_id":"4","last_reported":1723475403,"current_range_meters":9200,"station_id":"ce4bgl92rcd13ifvqbq0","pricing_plan_id":"cebpf4jnsgd1na2vs0mg"},{"bike_id":"72592e6e-36c4-46a2-86c2-d5ac252f8d37","system_id":"levelo_inurba_marseille","lat":43.312176,"lon":5.368608,"is_reserved":false,"is_disabled":false,"rental_uris":{"android":"levelo://app?vid=72592e6e-36c4-46a2-86c2-d5ac252f8d37","ios":"levelo://app?vid=72592e6e-36c4-46a2-86c2-d5ac252f8d37"},"vehicle_type_id":"4","last_reported":1723475403,"current_range_meters":23600,"station_id":"ce4bgl92rcd13ifvqbq0","pricing_plan_id":"cebpf4jnsgd1na2vs0mg"},{"bike_id":"02d27392-9465-4c8f-b8cc-bd119a9bb043","system_id":"levelo_inurba_marseille","lat":43.312239,"lon":5.368562,"is_reserved":false,"is_disabled":false,"rental_uris":{"android":"levelo://app?vid=02d27392-9465-4c8f-b8cc-bd119a9bb043","ios":"levelo://app?vid=02d27392-9465-4c8f-b8cc-bd119a9bb043"},"vehicle_type_id":"4","last_reported":1723475403,"current_range_meters":14800,"station_id":"ce4bgl92rcd13ifvqbq0","pricing_plan_id":"cebpf4jnsgd1na2vs0mg"},{"bike_id":"29181e36-9a86-4b44-b2b5-2c1643032917","system_id":"levelo_inurba_marseille","lat":43.312176,"lon":5.3687,"is_reserved":false,"is_disabled":false,"rental_uris":{"android":"levelo://app?vid=29181e36-9a86-4b44-b2b5-2c1643032917","ios":"levelo://app?vid=29181e36-9a86-4b44-b2b5-2c1643032917"},"vehicle_type_id":"4","last_reported":1723475403,"current_range_meters":20400,"station_id":"ce4bgl92rcd13ifvqbq0","pricing_plan_id":"cebpf4jnsgd1na2vs0mg"},{"bike_id":"2c804feb-f524-4e36-adc8-4d9298e4f4b0","system_id":"levelo_inurba_marseille","lat":43.31496,"lon":5.3731,"is_reserved":false,"is_disabled":false,"rental_uris":{"android":"levelo://app?vid=2c804feb-f524-4e36-adc8-4d9298e4f4b0","ios":"levelo://app?vid=2c804feb-f524-4e36-adc8-4d9298e4f4b0"},"vehicle_type_id":"4","last_reported":1723475403,"current_range_meters":18000,"station_id":"ce4bgt12rcd13ifvqcd0","pricing_plan_id":"cebpf4jnsgd1na2vs0mg"},{"bike_id":"2ff7317d-e466-482e-9a83-e2a1416a7a1c","system_id":"levelo_inurba_marseille","lat":43.30552,"lon":5.36702,"is_reserved":false,"is_disabled":false,"rental_uris":{"android":"levelo://app?vid=2ff7317d-e466-482e-9a83-e2a1416a7a1c","ios":"levelo://app?vid=2ff7317d-e466-482e-9a83-e2a1416a7a1c"},"vehicle_type_id":"4","last_reported":1723475403,"current_range_meters":0,"station_id":"ce4bgrp2rcd13ifvqc9g","pricing_plan_id":"cebpf4jnsgd1na2vs0mg"},{"bike_id":"49e90ef5-4dee-48eb-b83d-55891d83abaa","system_id":"levelo_inurba_marseille","lat":43.305712,"lon":5.365641,"is_reserved":false,"is_disabled":false,"rental_uris":{"android":"levelo://app?vid=49e90ef5-4dee-48eb-b83d-55891d83abaa","ios":"levelo://app?vid=49e90ef5-4dee-48eb-b83d-55891d83abaa"},"vehicle_type_id":"4","last_reported":1723475403,"current_range_meters":16400,"station_id":"ce4bgs12rcd13ifvqcag","pricing_plan_id":"cebpf4jnsgd1na2vs0mg"},{"bike_id":"a266fed1-c581-4327-9fa1-bfa41292a059","system_id":"levelo_inurba_marseille","lat":43.305712,"lon":5.365641,"is_reserved":false,"is_disabled":false,"rental_uris":{"android":"levelo://app?vid=a266fed1-c581-4327-9fa1-bfa41292a059","ios":"levelo://app?vid=a266fed1-c581-4327-9fa1-bfa41292a059"},"vehicle_type_id":"4","last_reported":1723475403,"current_range_meters":24400,"station_id":"ce4bgs12rcd13ifvqcag","pricing_plan_id":"cebpf4jnsgd1na2vs0mg"},{"bike_id":"81e906b4-3a7f-463e-89e3-7f23af8e4168","system_id":"levelo_inurba_marseille","lat":43.305714,"lon":5.365633,"is_reserved":false,"is_disabled":false,"rental_uris":{"android":"levelo://app?vid=81e906b4-3a7f-463e-89e3-7f23af8e4168","ios":"levelo://app?vid=81e906b4-3a7f-463e-89e3-7f23af8e4168"},"vehicle_type_id":"4","last_reported":1723475403,"current_range_meters":800,"station_id":"ce4bgs12rcd13ifvqcag","pricing_plan_id":"cebpf4jnsgd1na2vs0mg"},{"bike_id":"e6ce70d8-69f0-4569-96b9-a47ebcde9180","system_id":"levelo_inurba_marseille","lat":43.305714,"lon":5.365633,"is_reserved":false,"is_disabled":false,"rental_uris":{"android":"levelo://app?vid=e6ce70d8-69f0-4569-96b9-a47ebcde9180","ios":"levelo://app?vid=e6ce70d8-69f0-4569-96b9-a47ebcde9180"},"vehicle_type_id":"4","last_reported":1723475403,"current_range_meters":6000,"station_id":"ce4bgs12rcd13ifvqcag","pricing_plan_id":"cebpf4jnsgd1na2vs0mg"},{"bike_id":"54b586b4-a241-4df9-94b6-f64a5c5057b3","system_id":"levelo_inurba_marseille","lat":43.305706,"lon":5.365654,"is_reserved":false,"is_disabled":false,"rental_uris":{"android":"levelo://app?vid=54b586b4-a241-4df9-94b6-f64a5c5057b3","ios":"levelo://app?vid=54b586b4-a241-4df9-94b6-f64a5c5057b3"},"vehicle_type_id":"4","last_reported":1723475403,"current_range_meters":26400,"station_id":"ce4bgs12rcd13ifvqcag","pricing_plan_id":"cebpf4jnsgd1na2vs0mg"},{"bike_id":"abb6f719-e734-4c55-96ec-e6402e65370d","system_id":"levelo_inurba_marseille","lat":43.305368,"lon":5.367343,"is_reserved":false,"is_disabled":false,"rental_uris":{"android":"levelo://app?vid=abb6f719-e734-4c55-96ec-e6402e65370d","ios":"levelo://app?vid=abb6f719-e734-4c55-96ec-e6402e65370d"},"vehicle_type_id":"4","last_reported":1723475403,"current_range_meters":4800,"station_id":"ce4bgrp2rcd13ifvqc9g","pricing_plan_id":"cebpf4jnsgd1na2vs0mg"},{"bike_id":"16dc21e1-7c86-452a-a8e8-f5871b15f408","system_id":"levelo_inurba_marseille","lat":43.305989,"lon":5.37225,"is_reserved":false,"is_disabled":false,"rental_uris":{"android":"levelo://app?vid=16dc21e1-7c86-452a-a8e8-f5871b15f408","ios":"levelo://app?vid=16dc21e1-7c86-452a-a8e8-f5871b15f408"},"vehicle_type_id":"4","last_reported":1723475403,"current_range_meters":21600,"station_id":"ce4bgqh2rcd13ifvqc4g","pricing_plan_id":"cebpf4jnsgd1na2vs0mg"},{"bike_id":"5b68a1f4-2514-4974-bf0a-a02faee854fa","system_id":"levelo_inurba_marseille","lat":43.305989,"lon":5.37225,"is_reserved":false,"is_disabled":false,"rental_uris":{"android":"levelo://app?vid=5b68a1f4-2514-4974-bf0a-a02faee854fa","ios":"levelo://app?vid=5b68a1f4-2514-4974-bf0a-a02faee854fa"},"vehicle_type_id":"4","last_reported":1723475403,"current_range_meters":2000,"station_id":"ce4bgqh2rcd13ifvqc4g","pricing_plan_id":"cebpf4jnsgd1na2vs0mg"},{"bike_id":"b251c768-13a0-45fd-ad65-4e38d57ecd31","system_id":"levelo_inurba_marseille","lat":43.305989,"lon":5.37225,"is_reserved":false,"is_disabled":false,"rental_uris":{"android":"levelo://app?vid=b251c768-13a0-45fd-ad65-4e38d57ecd31","ios":"levelo://app?vid=b251c768-13a0-45fd-ad65-4e38d57ecd31"},"vehicle_type_id":"4","last_reported":1723475403,"current_range_meters":30400,"station_id":"ce4bgqh2rcd13ifvqc4g","pricing_plan_id":"cebpf4jnsgd1na2vs0mg"},{"bike_id":"35787eed-521a-46ef-88e1-2286ad7c1d29","system_id":"levelo_inurba_marseille","lat":43.30603,"lon":5.37233,"is_reserved":false,"is_disabled":false,"rental_uris":{"android":"levelo://app?vid=35787eed-521a-46ef-88e1-2286ad7c1d29","ios":"levelo://app?vid=35787eed-521a-46ef-88e1-2286ad7c1d29"},"vehicle_type_id":"4","last_reported":1723475403,"current_range_meters":29200,"station_id":"ce4bgqh2rcd13ifvqc4g","pricing_plan_id":"cebpf4jnsgd1na2vs0mg"},{"bike_id":"69db8bd4-79c8-483b-89a7-476a006a2403","system_id":"levelo_inurba_marseille","lat":43.305989,"lon":5.37225,"is_reserved":false,"is_disabled":false,"rental_uris":{"android":"levelo://app?vid=69db8bd4-79c8-483b-89a7-476a006a2403","ios":"levelo://app?vid=69db8bd4-79c8-483b-89a7-476a006a2403"},"vehicle_type_id":"4","last_reported":1723475403,"current_range_meters":0,"station_id":"ce4bgqh2rcd13ifvqc4g","pricing_plan_id":"cebpf4jnsgd1na2vs0mg"},{"bike_id":"59452c21-3828-4e6a-83f0-3dfc4a751b29","system_id":"levelo_inurba_marseille","lat":43.305989,"lon":5.37225,"is_reserved":false,"is_disabled":false,"rental_uris":{"android":"levelo://app?vid=59452c21-3828-4e6a-83f0-3dfc4a751b29","ios":"levelo://app?vid=59452c21-3828-4e6a-83f0-3dfc4a751b29"},"vehicle_type_id":"4","last_reported":1723475403,"current_range_meters":23600,"station_id":"ce4bgqh2rcd13ifvqc4g","pricing_plan_id":"cebpf4jnsgd1na2vs0mg"},{"bike_id":"3b5cc3c9-4c96-4ceb-9972-2b7e1539526d","system_id":"levelo_inurba_marseille","lat":43.307945,"lon":5.376487,"is_reserved":false,"is_disabled":false,"rental_uris":{"android":"levelo://app?vid=3b5cc3c9-4c96-4ceb-9972-2b7e1539526d","ios":"levelo://app?vid=3b5cc3c9-4c96-4ceb-9972-2b7e1539526d"},"vehicle_type_id":"4","last_reported":1723475403,"current_range_meters":18400,"station_id":"ce4bgv92rcd13ifvqcq0","pricing_plan_id":"cebpf4jnsgd1na2vs0mg"},{"bike_id":"a87c9564-117b-444e-a240-5a2759dfe419","system_id":"levelo_inurba_marseille","lat":43.307945,"lon":5.376487,"is_reserved":false,"is_disabled":false,"rental_uris":{"android":"levelo://app?vid=a87c9564-117b-444e-a240-5a2759dfe419","ios":"levelo://app?vid=a87c9564-117b-444e-a240-5a2759dfe419"},"vehicle_type_id":"4","last_reported":1723475403,"current_range_meters":29200,"station_id":"ce4bgv92rcd13ifvqcq0","pricing_plan_id":"cebpf4jnsgd1na2vs0mg"},{"bike_id":"d9ee89bd-2503-4231-8b83-978ac9e19919","system_id":"levelo_inurba_marseille","lat":43.30778,"lon":5.37652,"is_reserved":false,"is_disabled":false,"rental_uris":{"android":"levelo://app?vid=d9ee89bd-2503-4231-8b83-978ac9e19919","ios":"levelo://app?vid=d9ee89bd-2503-4231-8b83-978ac9e19919"},"vehicle_type_id":"4","last_reported":1723475403,"current_range_meters":20400,"station_id":"","pricing_plan_id":"cebpf4jnsgd1na2vs0mg"},{"bike_id":"bc7c1f13-3b42-4a69-abee-a61cad86d86d","system_id":"levelo_inurba_marseille","lat":43.307945,"lon":5.376487,"is_reserved":false,"is_disabled":false,"rental_uris":{"android":"levelo://app?vid=bc7c1f13-3b42-4a69-abee-a61cad86d86d","ios":"levelo://app?vid=bc7c1f13-3b42-4a69-abee-a61cad86d86d"},"vehicle_type_id":"4","last_reported":1723475403,"current_range_meters":26400,"station_id":"ce4bgv92rcd13ifvqcq0","pricing_plan_id":"cebpf4jnsgd1na2vs0mg"},{"bike_id":"abd94d36-572a-453d-bd4a-d270e5e162a1","system_id":"levelo_inurba_marseille","lat":43.307945,"lon":5.376487,"is_reserved":false,"is_disabled":false,"rental_uris":{"android":"levelo://app?vid=abd94d36-572a-453d-bd4a-d270e5e162a1","ios":"levelo://app?vid=abd94d36-572a-453d-bd4a-d270e5e162a1"},"vehicle_type_id":"4","last_reported":1723475403,"current_range_meters":26400,"station_id":"ce4bgv92rcd13ifvqcq0","pricing_plan_id":"cebpf4jnsgd1na2vs0mg"},{"bike_id":"d5834589-56f3-4b3b-aa29-bf6ef9c4740d","system_id":"levelo_inurba_marseille","lat":43.30304,"lon":5.368987,"is_reserved":false,"is_disabled":false,"rental_uris":{"android":"levelo://app?vid=d5834589-56f3-4b3b-aa29-bf6ef9c4740d","ios":"levelo://app?vid=d5834589-56f3-4b3b-aa29-bf6ef9c4740d"},"vehicle_type_id":"4","last_reported":1723475403,"current_range_meters":30000,"station_id":"ce4bgqh2rcd13ifvqc5g","pricing_plan_id":"cebpf4jnsgd1na2vs0mg"},{"bike_id":"350890e9-8667-45b1-b0a1-238b24a10749","system_id":"levelo_inurba_marseille","lat":43.303046,"lon":5.368981,"is_reserved":false,"is_disabled":false,"rental_uris":{"android":"levelo://app?vid=350890e9-8667-45b1-b0a1-238b24a10749","ios":"levelo://app?vid=350890e9-8667-45b1-b0a1-238b24a10749"},"vehicle_type_id":"4","last_reported":1723475403,"current_range_meters":2000,"station_id":"ce4bgqh2rcd13ifvqc5g","pricing_plan_id":"cebpf4jnsgd1na2vs0mg"},{"bike_id":"4fe2dc18-d782-4f6d-b652-6085bbfd36b6","system_id":"levelo_inurba_marseille","lat":43.308585,"lon":5.37932,"is_reserved":false,"is_disabled":false,"rental_uris":{"android":"levelo://app?vid=4fe2dc18-d782-4f6d-b652-6085bbfd36b6","ios":"levelo://app?vid=4fe2dc18-d782-4f6d-b652-6085bbfd36b6"},"vehicle_type_id":"4","last_reported":1723475403,"current_range_meters":20800,"station_id":"","pricing_plan_id":"cebpf4jnsgd1na2vs0mg"},{"bike_id":"4cd83869-ce9a-415f-a2e6-5da331652483","system_id":"levelo_inurba_marseille","lat":43.308012,"lon":5.381511,"is_reserved":false,"is_disabled":false,"rental_uris":{"android":"levelo://app?vid=4cd83869-ce9a-415f-a2e6-5da331652483","ios":"levelo://app?vid=4cd83869-ce9a-415f-a2e6-5da331652483"},"vehicle_type_id":"4","last_reported":1723475403,"current_range_meters":4800,"station_id":"ce4bgt12rcd13ifvqce0","pricing_plan_id":"cebpf4jnsgd1na2vs0mg"},{"bike_id":"6843e155-e42e-48bb-adf5-9d6f0074fe1c","system_id":"levelo_inurba_marseille","lat":43.308012,"lon":5.381511,"is_reserved":false,"is_disabled":false,"rental_uris":{"android":"levelo://app?vid=6843e155-e42e-48bb-adf5-9d6f0074fe1c","ios":"levelo://app?vid=6843e155-e42e-48bb-adf5-9d6f0074fe1c"},"vehicle_type_id":"4","last_reported":1723475403,"current_range_meters":22800,"station_id":"ce4bgt12rcd13ifvqce0","pricing_plan_id":"cebpf4jnsgd1na2vs0mg"},{"bike_id":"7b2a0f1b-af37-4ad8-9c43-6edf3c6c97b4","system_id":"levelo_inurba_marseille","lat":43.308012,"lon":5.381511,"is_reserved":false,"is_disabled":false,"rental_uris":{"android":"levelo://app?vid=7b2a0f1b-af37-4ad8-9c43-6edf3c6c97b4","ios":"levelo://app?vid=7b2a0f1b-af37-4ad8-9c43-6edf3c6c97b4"},"vehicle_type_id":"4","last_reported":1723475403,"current_range_meters":8800,"station_id":"ce4bgt12rcd13ifvqce0","pricing_plan_id":"cebpf4jnsgd1na2vs0mg"},{"bike_id":"1bad603d-2bb6-40cb-85f9-16c7e2d08840","system_id":"levelo_inurba_marseille","lat":43.308012,"lon":5.381511,"is_reserved":false,"is_disabled":false,"rental_uris":{"android":"levelo://app?vid=1bad603d-2bb6-40cb-85f9-16c7e2d08840","ios":"levelo://app?vid=1bad603d-2bb6-40cb-85f9-16c7e2d08840"},"vehicle_type_id":"4","last_reported":1723475403,"current_range_meters":21200,"station_id":"ce4bgt12rcd13ifvqce0","pricing_plan_id":"cebpf4jnsgd1na2vs0mg"},{"bike_id":"c64c74be-914c-40e6-a4cb-53793dc4ff3e","system_id":"levelo_inurba_marseille","lat":43.308012,"lon":5.381511,"is_reserved":false,"is_disabled":false,"rental_uris":{"android":"levelo://app?vid=c64c74be-914c-40e6-a4cb-53793dc4ff3e","ios":"levelo://app?vid=c64c74be-914c-40e6-a4cb-53793dc4ff3e"},"vehicle_type_id":"4","last_reported":1723475403,"current_range_meters":9200,"station_id":"ce4bgt12rcd13ifvqce0","pricing_plan_id":"cebpf4jnsgd1na2vs0mg"},{"bike_id":"61ea41a6-2a93-4409-9211-5719c9f1c1da","system_id":"levelo_inurba_marseille","lat":43.324771,"lon":5.36557,"is_reserved":false,"is_disabled":false,"rental_uris":{"android":"levelo://app?vid=61ea41a6-2a93-4409-9211-5719c9f1c1da","ios":"levelo://app?vid=61ea41a6-2a93-4409-9211-5719c9f1c1da"},"vehicle_type_id":"4","last_reported":1723475403,"current_range_meters":31200,"station_id":"ce4bhs12rcd13ifvqhvg","pricing_plan_id":"cebpf4jnsgd1na2vs0mg"},{"bike_id":"187630e8-683b-48ff-9b8b-cc34da109250","system_id":"levelo_inurba_marseille","lat":43.310804,"lon":5.38359,"is_reserved":false,"is_disabled":false,"rental_uris":{"android":"levelo://app?vid=187630e8-683b-48ff-9b8b-cc34da109250","ios":"levelo://app?vid=187630e8-683b-48ff-9b8b-cc34da109250"},"vehicle_type_id":"4","last_reported":1723475403,"current_range_meters":7200,"station_id":"ce4bgv92rcd13ifvqcr0","pricing_plan_id":"cebpf4jnsgd1na2vs0mg"},{"bike_id":"82ec18ff-ff23-430f-81a9-8bdc0169943e","system_id":"levelo_inurba_marseille","lat":43.319935,"lon":5.381699,"is_reserved":false,"is_disabled":false,"rental_uris":{"android":"levelo://app?vid=82ec18ff-ff23-430f-81a9-8bdc0169943e","ios":"levelo://app?vid=82ec18ff-ff23-430f-81a9-8bdc0169943e"},"vehicle_type_id":"4","last_reported":1723475403,"current_range_meters":26400,"station_id":"ce4bhr12rcd13ifvqhpg","pricing_plan_id":"cebpf4jnsgd1na2vs0mg"},{"bike_id":"b2245de5-5f52-413e-853a-d1da03e9b097","system_id":"levelo_inurba_marseille","lat":43.30612,"lon":5.38149,"is_reserved":false,"is_disabled":false,"rental_uris":{"android":"levelo://app?vid=b2245de5-5f52-413e-853a-d1da03e9b097","ios":"levelo://app?vid=b2245de5-5f52-413e-853a-d1da03e9b097"},"vehicle_type_id":"4","last_reported":1723475403,"current_range_meters":22400,"station_id":"","pricing_plan_id":"cebpf4jnsgd1na2vs0mg"},{"bike_id":"c84dd652-621c-45e0-891f-3b7a79a42fed","system_id":"levelo_inurba_marseille","lat":43.313586,"lon":5.384964,"is_reserved":false,"is_disabled":false,"rental_uris":{"android":"levelo://app?vid=c84dd652-621c-45e0-891f-3b7a79a42fed","ios":"levelo://app?vid=c84dd652-621c-45e0-891f-3b7a79a42fed"},"vehicle_type_id":"4","last_reported":1723475403,"current_range_meters":24400,"station_id":"ce4bgt92rcd13ifvqcf0","pricing_plan_id":"cebpf4jnsgd1na2vs0mg"},{"bike_id":"66ff5c4d-eab1-487c-8473-e1e12c857d7a","system_id":"levelo_inurba_marseille","lat":43.299724,"lon":5.371829,"is_reserved":false,"is_disabled":false,"rental_uris":{"android":"levelo://app?vid=66ff5c4d-eab1-487c-8473-e1e12c857d7a","ios":"levelo://app?vid=66ff5c4d-eab1-487c-8473-e1e12c857d7a"},"vehicle_type_id":"4","last_reported":1723475403,"current_range_meters":18000,"station_id":"ce4bgr92rcd13ifvqc7g","pricing_plan_id":"cebpf4jnsgd1na2vs0mg"},{"bike_id":"2e42627d-69e3-4c19-8cda-a9e0208f2770","system_id":"levelo_inurba_marseille","lat":43.298433,"lon":5.362774,"is_reserved":false,"is_disabled":false,"rental_uris":{"android":"levelo://app?vid=2e42627d-69e3-4c19-8cda-a9e0208f2770","ios":"levelo://app?vid=2e42627d-69e3-4c19-8cda-a9e0208f2770"},"vehicle_type_id":"4","last_reported":1723475403,"current_range_meters":20400,"station_id":"ce4bgpp2rcd13ifvqc3g","pricing_plan_id":"cebpf4jnsgd1na2vs0mg"},{"bike_id":"65182ff8-75b8-4f82-b34c-0e3f7ff631d5","system_id":"levelo_inurba_marseille","lat":43.298433,"lon":5.362774,"is_reserved":false,"is_disabled":false,"rental_uris":{"android":"levelo://app?vid=65182ff8-75b8-4f82-b34c-0e3f7ff631d5","ios":"levelo://app?vid=65182ff8-75b8-4f82-b34c-0e3f7ff631d5"},"vehicle_type_id":"4","last_reported":1723475403,"current_range_meters":0,"station_id":"ce4bgpp2rcd13ifvqc3g","pricing_plan_id":"cebpf4jnsgd1na2vs0mg"},{"bike_id":"2e7a36eb-93b5-4b26-a2a2-2bb5cdd6b20d","system_id":"levelo_inurba_marseille","lat":43.298433,"lon":5.362774,"is_reserved":false,"is_disabled":false,"rental_uris":{"android":"levelo://app?vid=2e7a36eb-93b5-4b26-a2a2-2bb5cdd6b20d","ios":"levelo://app?vid=2e7a36eb-93b5-4b26-a2a2-2bb5cdd6b20d"},"vehicle_type_id":"4","last_reported":1723475403,"current_range_meters":12800,"station_id":"ce4bgpp2rcd13ifvqc3g","pricing_plan_id":"cebpf4jnsgd1na2vs0mg"},{"bike_id":"d7872254-4428-4103-a79b-8ccccf02610e","system_id":"levelo_inurba_marseille","lat":43.298433,"lon":5.362774,"is_reserved":false,"is_disabled":false,"rental_uris":{"android":"levelo://app?vid=d7872254-4428-4103-a79b-8ccccf02610e","ios":"levelo://app?vid=d7872254-4428-4103-a79b-8ccccf02610e"},"vehicle_type_id":"4","last_reported":1723475403,"current_range_meters":12000,"station_id":"ce4bgpp2rcd13ifvqc3g","pricing_plan_id":"cebpf4jnsgd1na2vs0mg"},{"bike_id":"ebc4dd72-0dd7-4a55-a777-ed71b56e4fa9","system_id":"levelo_inurba_marseille","lat":43.298433,"lon":5.362774,"is_reserved":false,"is_disabled":false,"rental_uris":{"android":"levelo://app?vid=ebc4dd72-0dd7-4a55-a777-ed71b56e4fa9","ios":"levelo://app?vid=ebc4dd72-0dd7-4a55-a777-ed71b56e4fa9"},"vehicle_type_id":"4","last_reported":1723475403,"current_range_meters":12800,"station_id":"ce4bgpp2rcd13ifvqc3g","pricing_plan_id":"cebpf4jnsgd1na2vs0mg"},{"bike_id":"b61a340c-f7e3-4992-862a-8f8b6cd429f5","system_id":"levelo_inurba_marseille","lat":43.298433,"lon":5.362774,"is_reserved":false,"is_disabled":false,"rental_uris":{"android":"levelo://app?vid=b61a340c-f7e3-4992-862a-8f8b6cd429f5","ios":"levelo://app?vid=b61a340c-f7e3-4992-862a-8f8b6cd429f5"},"vehicle_type_id":"4","last_reported":1723475403,"current_range_meters":9600,"station_id":"ce4bgpp2rcd13ifvqc3g","pricing_plan_id":"cebpf4jnsgd1na2vs0mg"},{"bike_id":"c641e4ec-d224-4b4e-ae46-81dfb8ddcde4","system_id":"levelo_inurba_marseille","lat":43.298433,"lon":5.362774,"is_reserved":false,"is_disabled":false,"rental_uris":{"android":"levelo://app?vid=c641e4ec-d224-4b4e-ae46-81dfb8ddcde4","ios":"levelo://app?vid=c641e4ec-d224-4b4e-ae46-81dfb8ddcde4"},"vehicle_type_id":"4","last_reported":1723475403,"current_range_meters":16800,"station_id":"ce4bgpp2rcd13ifvqc3g","pricing_plan_id":"cebpf4jnsgd1na2vs0mg"},{"bike_id":"3af2a17f-29b3-43ba-8967-8393fad3a798","system_id":"levelo_inurba_marseille","lat":43.298433,"lon":5.362774,"is_reserved":false,"is_disabled":false,"rental_uris":{"android":"levelo://app?vid=3af2a17f-29b3-43ba-8967-8393fad3a798","ios":"levelo://app?vid=3af2a17f-29b3-43ba-8967-8393fad3a798"},"vehicle_type_id":"4","last_reported":1723475403,"current_range_meters":19600,"station_id":"ce4bgpp2rcd13ifvqc3g","pricing_plan_id":"cebpf4jnsgd1na2vs0mg"},{"bike_id":"91b466f8-2df6-4225-8c06-8062e229c5d3","system_id":"levelo_inurba_marseille","lat":43.298433,"lon":5.362774,"is_reserved":false,"is_disabled":false,"rental_uris":{"android":"levelo://app?vid=91b466f8-2df6-4225-8c06-8062e229c5d3","ios":"levelo://app?vid=91b466f8-2df6-4225-8c06-8062e229c5d3"},"vehicle_type_id":"4","last_reported":1723475403,"current_range_meters":19200,"station_id":"ce4bgpp2rcd13ifvqc3g","pricing_plan_id":"cebpf4jnsgd1na2vs0mg"},{"bike_id":"36ef0154-dfd5-411a-8b57-f51cd9b38c01","system_id":"levelo_inurba_marseille","lat":43.298433,"lon":5.362774,"is_reserved":false,"is_disabled":false,"rental_uris":{"android":"levelo://app?vid=36ef0154-dfd5-411a-8b57-f51cd9b38c01","ios":"levelo://app?vid=36ef0154-dfd5-411a-8b57-f51cd9b38c01"},"vehicle_type_id":"4","last_reported":1723475403,"current_range_meters":17600,"station_id":"ce4bgpp2rcd13ifvqc3g","pricing_plan_id":"cebpf4jnsgd1na2vs0mg"},{"bike_id":"7ecf17ed-96bf-4570-abe9-91a6b4cdd6dc","system_id":"levelo_inurba_marseille","lat":43.298433,"lon":5.362774,"is_reserved":false,"is_disabled":false,"rental_uris":{"android":"levelo://app?vid=7ecf17ed-96bf-4570-abe9-91a6b4cdd6dc","ios":"levelo://app?vid=7ecf17ed-96bf-4570-abe9-91a6b4cdd6dc"},"vehicle_type_id":"4","last_reported":1723475403,"current_range_meters":7200,"station_id":"ce4bgpp2rcd13ifvqc3g","pricing_plan_id":"cebpf4jnsgd1na2vs0mg"},{"bike_id":"814a5cae-efd9-4401-9d56-2ec06e008d94","system_id":"levelo_inurba_marseille","lat":43.298433,"lon":5.362774,"is_reserved":false,"is_disabled":false,"rental_uris":{"android":"levelo://app?vid=814a5cae-efd9-4401-9d56-2ec06e008d94","ios":"levelo://app?vid=814a5cae-efd9-4401-9d56-2ec06e008d94"},"vehicle_type_id":"4","last_reported":1723475403,"current_range_meters":22400,"station_id":"ce4bgpp2rcd13ifvqc3g","pricing_plan_id":"cebpf4jnsgd1na2vs0mg"},{"bike_id":"fabce175-638d-419a-b8f6-d786519ba193","system_id":"levelo_inurba_marseille","lat":43.311722,"lon":5.387247,"is_reserved":false,"is_disabled":false,"rental_uris":{"android":"levelo://app?vid=fabce175-638d-419a-b8f6-d786519ba193","ios":"levelo://app?vid=fabce175-638d-419a-b8f6-d786519ba193"},"vehicle_type_id":"4","last_reported":1723475403,"current_range_meters":28400,"station_id":"ce4bgv12rcd13ifvqcp0","pricing_plan_id":"cebpf4jnsgd1na2vs0mg"},{"bike_id":"1d64b48b-1b98-4330-9f43-d9b0b55fd5c8","system_id":"levelo_inurba_marseille","lat":43.311722,"lon":5.387247,"is_reserved":false,"is_disabled":false,"rental_uris":{"android":"levelo://app?vid=1d64b48b-1b98-4330-9f43-d9b0b55fd5c8","ios":"levelo://app?vid=1d64b48b-1b98-4330-9f43-d9b0b55fd5c8"},"vehicle_type_id":"4","last_reported":1723475403,"current_range_meters":16400,"station_id":"ce4bgv12rcd13ifvqcp0","pricing_plan_id":"cebpf4jnsgd1na2vs0mg"},{"bike_id":"021dad62-5ec7-4f03-89ec-d7ea577f8f5d","system_id":"levelo_inurba_marseille","lat":43.311722,"lon":5.387247,"is_reserved":false,"is_disabled":false,"rental_uris":{"android":"levelo://app?vid=021dad62-5ec7-4f03-89ec-d7ea577f8f5d","ios":"levelo://app?vid=021dad62-5ec7-4f03-89ec-d7ea577f8f5d"},"vehicle_type_id":"4","last_reported":1723475403,"current_range_meters":3600,"station_id":"ce4bgv12rcd13ifvqcp0","pricing_plan_id":"cebpf4jnsgd1na2vs0mg"},{"bike_id":"b92c164f-22a2-4af4-acb7-118164caae93","system_id":"levelo_inurba_marseille","lat":43.297774,"lon":5.370875,"is_reserved":false,"is_disabled":false,"rental_uris":{"android":"levelo://app?vid=b92c164f-22a2-4af4-acb7-118164caae93","ios":"levelo://app?vid=b92c164f-22a2-4af4-acb7-118164caae93"},"vehicle_type_id":"4","last_reported":1723475403,"current_range_meters":20800,"station_id":"ce4bgop2rcd13ifvqc1g","pricing_plan_id":"cebpf4jnsgd1na2vs0mg"},{"bike_id":"10f40ec8-aec3-4569-aad2-989a61c6100b","system_id":"levelo_inurba_marseille","lat":43.297163,"lon":5.365866,"is_reserved":false,"is_disabled":false,"rental_uris":{"android":"levelo://app?vid=10f40ec8-aec3-4569-aad2-989a61c6100b","ios":"levelo://app?vid=10f40ec8-aec3-4569-aad2-989a61c6100b"},"vehicle_type_id":"4","last_reported":1723475403,"current_range_meters":27600,"station_id":"ce4bgn12rcd13ifvqbt0","pricing_plan_id":"cebpf4jnsgd1na2vs0mg"},{"bike_id":"b47f6097-9cc0-4e68-85a3-526e420c4c09","system_id":"levelo_inurba_marseille","lat":43.297163,"lon":5.365866,"is_reserved":false,"is_disabled":false,"rental_uris":{"android":"levelo://app?vid=b47f6097-9cc0-4e68-85a3-526e420c4c09","ios":"levelo://app?vid=b47f6097-9cc0-4e68-85a3-526e420c4c09"},"vehicle_type_id":"4","last_reported":1723475403,"current_range_meters":25600,"station_id":"ce4bgn12rcd13ifvqbt0","pricing_plan_id":"cebpf4jnsgd1na2vs0mg"},{"bike_id":"3be9361f-ad94-4f4b-884f-24b1015b687f","system_id":"levelo_inurba_marseille","lat":43.297163,"lon":5.365866,"is_reserved":false,"is_disabled":false,"rental_uris":{"android":"levelo://app?vid=3be9361f-ad94-4f4b-884f-24b1015b687f","ios":"levelo://app?vid=3be9361f-ad94-4f4b-884f-24b1015b687f"},"vehicle_type_id":"4","last_reported":1723475403,"current_range_meters":31200,"station_id":"ce4bgn12rcd13ifvqbt0","pricing_plan_id":"cebpf4jnsgd1na2vs0mg"},{"bike_id":"17cb95af-c660-416f-b11f-d137a370dc50","system_id":"levelo_inurba_marseille","lat":43.297163,"lon":5.365866,"is_reserved":false,"is_disabled":false,"rental_uris":{"android":"levelo://app?vid=17cb95af-c660-416f-b11f-d137a370dc50","ios":"levelo://app?vid=17cb95af-c660-416f-b11f-d137a370dc50"},"vehicle_type_id":"4","last_reported":1723475403,"current_range_meters":2000,"station_id":"ce4bgn12rcd13ifvqbt0","pricing_plan_id":"cebpf4jnsgd1na2vs0mg"},{"bike_id":"2a703b5d-140f-45d5-80e8-c5a151f94d99","system_id":"levelo_inurba_marseille","lat":43.297163,"lon":5.365866,"is_reserved":false,"is_disabled":false,"rental_uris":{"android":"levelo://app?vid=2a703b5d-140f-45d5-80e8-c5a151f94d99","ios":"levelo://app?vid=2a703b5d-140f-45d5-80e8-c5a151f94d99"},"vehicle_type_id":"4","last_reported":1723475403,"current_range_meters":21200,"station_id":"ce4bgn12rcd13ifvqbt0","pricing_plan_id":"cebpf4jnsgd1na2vs0mg"},{"bike_id":"b210f0f4-8c39-41fb-9522-73e345e01993","system_id":"levelo_inurba_marseille","lat":43.298292,"lon":5.375973,"is_reserved":false,"is_disabled":false,"rental_uris":{"android":"levelo://app?vid=b210f0f4-8c39-41fb-9522-73e345e01993","ios":"levelo://app?vid=b210f0f4-8c39-41fb-9522-73e345e01993"},"vehicle_type_id":"4","last_reported":1723475403,"current_range_meters":9200,"station_id":"","pricing_plan_id":"cebpf4jnsgd1na2vs0mg"},{"bike_id":"f925dc32-1170-4f07-8662-0dc98345f84d","system_id":"levelo_inurba_marseille","lat":43.29672,"lon":5.369031,"is_reserved":false,"is_disabled":false,"rental_uris":{"android":"levelo://app?vid=f925dc32-1170-4f07-8662-0dc98345f84d","ios":"levelo://app?vid=f925dc32-1170-4f07-8662-0dc98345f84d"},"vehicle_type_id":"4","last_reported":1723475403,"current_range_meters":30800,"station_id":"","pricing_plan_id":"cebpf4jnsgd1na2vs0mg"},{"bike_id":"de911aa5-2770-4a97-93ba-6cd71a4ac3fb","system_id":"levelo_inurba_marseille","lat":43.29621,"lon":5.37144,"is_reserved":false,"is_disabled":false,"rental_uris":{"android":"levelo://app?vid=de911aa5-2770-4a97-93ba-6cd71a4ac3fb","ios":"levelo://app?vid=de911aa5-2770-4a97-93ba-6cd71a4ac3fb"},"vehicle_type_id":"4","last_reported":1723475403,"current_range_meters":0,"station_id":"ce4bgnh2rcd13ifvqc0g","pricing_plan_id":"cebpf4jnsgd1na2vs0mg"},{"bike_id":"08c76aa2-83ab-43b6-8e8f-f90a3cf71f64","system_id":"levelo_inurba_marseille","lat":43.299028,"lon":5.381509,"is_reserved":false,"is_disabled":false,"rental_uris":{"android":"levelo://app?vid=08c76aa2-83ab-43b6-8e8f-f90a3cf71f64","ios":"levelo://app?vid=08c76aa2-83ab-43b6-8e8f-f90a3cf71f64"},"vehicle_type_id":"4","last_reported":1723475403,"current_range_meters":0,"station_id":"ce4bgj12rcd13ifvqbc0","pricing_plan_id":"cebpf4jnsgd1na2vs0mg"},{"bike_id":"15ee085a-1ced-43e7-8b2e-077c46b3e7dc","system_id":"levelo_inurba_marseille","lat":43.317557,"lon":5.390173,"is_reserved":false,"is_disabled":false,"rental_uris":{"android":"levelo://app?vid=15ee085a-1ced-43e7-8b2e-077c46b3e7dc","ios":"levelo://app?vid=15ee085a-1ced-43e7-8b2e-077c46b3e7dc"},"vehicle_type_id":"4","last_reported":1723475403,"current_range_meters":27600,"station_id":"ce4bhqp2rcd13ifvqhng","pricing_plan_id":"cebpf4jnsgd1na2vs0mg"},{"bike_id":"e79cbf5f-4486-4b63-b3ce-8fd51b0b10a8","system_id":"levelo_inurba_marseille","lat":43.317557,"lon":5.390173,"is_reserved":false,"is_disabled":false,"rental_uris":{"android":"levelo://app?vid=e79cbf5f-4486-4b63-b3ce-8fd51b0b10a8","ios":"levelo://app?vid=e79cbf5f-4486-4b63-b3ce-8fd51b0b10a8"},"vehicle_type_id":"4","last_reported":1723475403,"current_range_meters":30800,"station_id":"ce4bhqp2rcd13ifvqhng","pricing_plan_id":"cebpf4jnsgd1na2vs0mg"},{"bike_id":"5378cf88-e67d-48b4-b197-5d94df87128d","system_id":"levelo_inurba_marseille","lat":43.296277,"lon":5.377108,"is_reserved":false,"is_disabled":false,"rental_uris":{"android":"levelo://app?vid=5378cf88-e67d-48b4-b197-5d94df87128d","ios":"levelo://app?vid=5378cf88-e67d-48b4-b197-5d94df87128d"},"vehicle_type_id":"4","last_reported":1723475403,"current_range_meters":4800,"station_id":"ce4bgi92rcd13ifvqb90","pricing_plan_id":"cebpf4jnsgd1na2vs0mg"},{"bike_id":"cfd834ed-3ece-4693-b5f0-11486babc583","system_id":"levelo_inurba_marseille","lat":43.29794,"lon":5.38107,"is_reserved":false,"is_disabled":false,"rental_uris":{"android":"levelo://app?vid=cfd834ed-3ece-4693-b5f0-11486babc583","ios":"levelo://app?vid=cfd834ed-3ece-4693-b5f0-11486babc583"},"vehicle_type_id":"4","last_reported":1723475403,"current_range_meters":1600,"station_id":"ce4bgip2rcd13ifvqbb0","pricing_plan_id":"cebpf4jnsgd1na2vs0mg"},{"bike_id":"7bffe689-54db-481e-9d02-fa9703b7f0a8","system_id":"levelo_inurba_marseille","lat":43.295748,"lon":5.37522,"is_reserved":false,"is_disabled":false,"rental_uris":{"android":"levelo://app?vid=7bffe689-54db-481e-9d02-fa9703b7f0a8","ios":"levelo://app?vid=7bffe689-54db-481e-9d02-fa9703b7f0a8"},"vehicle_type_id":"4","last_reported":1723475403,"current_range_meters":0,"station_id":"ce4bgh92rcd13ifvqb50","pricing_plan_id":"cebpf4jnsgd1na2vs0mg"},{"bike_id":"fc447d04-fcb1-4325-b148-81f85b6b1198","system_id":"levelo_inurba_marseille","lat":43.29629,"lon":5.3772,"is_reserved":false,"is_disabled":false,"rental_uris":{"android":"levelo://app?vid=fc447d04-fcb1-4325-b148-81f85b6b1198","ios":"levelo://app?vid=fc447d04-fcb1-4325-b148-81f85b6b1198"},"vehicle_type_id":"4","last_reported":1723475403,"current_range_meters":0,"station_id":"ce4bgi92rcd13ifvqb90","pricing_plan_id":"cebpf4jnsgd1na2vs0mg"},{"bike_id":"1f42b230-1c3b-445b-a99d-c5d5918c051c","system_id":"levelo_inurba_marseille","lat":43.304278,"lon":5.388868,"is_reserved":false,"is_disabled":false,"rental_uris":{"android":"levelo://app?vid=1f42b230-1c3b-445b-a99d-c5d5918c051c","ios":"levelo://app?vid=1f42b230-1c3b-445b-a99d-c5d5918c051c"},"vehicle_type_id":"4","last_reported":1723475403,"current_range_meters":24000,"station_id":"ce4bgk12rcd13ifvqbi0","pricing_plan_id":"cebpf4jnsgd1na2vs0mg"},{"bike_id":"8a76d260-ed46-4742-9087-b514a70a773d","system_id":"levelo_inurba_marseille","lat":43.298037,"lon":5.381066,"is_reserved":false,"is_disabled":false,"rental_uris":{"android":"levelo://app?vid=8a76d260-ed46-4742-9087-b514a70a773d","ios":"levelo://app?vid=8a76d260-ed46-4742-9087-b514a70a773d"},"vehicle_type_id":"4","last_reported":1723475403,"current_range_meters":1600,"station_id":"ce4bgip2rcd13ifvqbb0","pricing_plan_id":"cebpf4jnsgd1na2vs0mg"},{"bike_id":"55933ae4-5257-41c2-b1db-2ebf9cc02b02","system_id":"levelo_inurba_marseille","lat":43.29618,"lon":5.37745,"is_reserved":false,"is_disabled":false,"rental_uris":{"android":"levelo://app?vid=55933ae4-5257-41c2-b1db-2ebf9cc02b02","ios":"levelo://app?vid=55933ae4-5257-41c2-b1db-2ebf9cc02b02"},"vehicle_type_id":"4","last_reported":1723475403,"current_range_meters":18000,"station_id":"ce4bgi92rcd13ifvqb90","pricing_plan_id":"cebpf4jnsgd1na2vs0mg"},{"bike_id":"24310cb4-6bc4-4c14-9e7d-baed24b7bf9e","system_id":"levelo_inurba_marseille","lat":43.304606,"lon":5.379026,"is_reserved":false,"is_disabled":false,"rental_uris":{"android":"levelo://app?vid=24310cb4-6bc4-4c14-9e7d-baed24b7bf9e","ios":"levelo://app?vid=24310cb4-6bc4-4c14-9e7d-baed24b7bf9e"},"vehicle_type_id":"4","last_reported":1723475403,"current_range_meters":22400,"station_id":"ce4bgup2rcd13ifvqcn0","pricing_plan_id":"cebpf4jnsgd1na2vs0mg"},{"bike_id":"875311b2-9a4e-48f5-ac96-e3773d555d0d","system_id":"levelo_inurba_marseille","lat":43.292311,"lon":5.360731,"is_reserved":false,"is_disabled":false,"rental_uris":{"android":"levelo://app?vid=875311b2-9a4e-48f5-ac96-e3773d555d0d","ios":"levelo://app?vid=875311b2-9a4e-48f5-ac96-e3773d555d0d"},"vehicle_type_id":"4","last_reported":1723475403,"current_range_meters":0,"station_id":"ce4bhbh2rcd13ifvqeqg","pricing_plan_id":"cebpf4jnsgd1na2vs0mg"},{"bike_id":"ec5e9a92-3fba-41ee-9a29-5d29e25fb628","system_id":"levelo_inurba_marseille","lat":43.293259,"lon":5.371586,"is_reserved":false,"is_disabled":false,"rental_uris":{"android":"levelo://app?vid=ec5e9a92-3fba-41ee-9a29-5d29e25fb628","ios":"levelo://app?vid=ec5e9a92-3fba-41ee-9a29-5d29e25fb628"},"vehicle_type_id":"4","last_reported":1723475403,"current_range_meters":12800,"station_id":"ce4bgh92rcd13ifvqb40","pricing_plan_id":"cebpf4jnsgd1na2vs0mg"},{"bike_id":"bbf0b078-9d3f-40ff-94a0-d25ac4a7e89c","system_id":"levelo_inurba_marseille","lat":43.29303,"lon":5.37177,"is_reserved":false,"is_disabled":false,"rental_uris":{"android":"levelo://app?vid=bbf0b078-9d3f-40ff-94a0-d25ac4a7e89c","ios":"levelo://app?vid=bbf0b078-9d3f-40ff-94a0-d25ac4a7e89c"},"vehicle_type_id":"4","last_reported":1723475403,"current_range_meters":400,"station_id":"ce4bgh92rcd13ifvqb40","pricing_plan_id":"cebpf4jnsgd1na2vs0mg"},{"bike_id":"1f29cec0-105b-44f5-aca9-ff909ab0fe5b","system_id":"levelo_inurba_marseille","lat":43.29303,"lon":5.37181,"is_reserved":false,"is_disabled":false,"rental_uris":{"android":"levelo://app?vid=1f29cec0-105b-44f5-aca9-ff909ab0fe5b","ios":"levelo://app?vid=1f29cec0-105b-44f5-aca9-ff909ab0fe5b"},"vehicle_type_id":"4","last_reported":1723475403,"current_range_meters":0,"station_id":"ce4bgh92rcd13ifvqb40","pricing_plan_id":"cebpf4jnsgd1na2vs0mg"},{"bike_id":"918b45b4-4660-4753-ad81-294a046fc586","system_id":"levelo_inurba_marseille","lat":43.292735,"lon":5.368495,"is_reserved":false,"is_disabled":false,"rental_uris":{"android":"levelo://app?vid=918b45b4-4660-4753-ad81-294a046fc586","ios":"levelo://app?vid=918b45b4-4660-4753-ad81-294a046fc586"},"vehicle_type_id":"4","last_reported":1723475403,"current_range_meters":5600,"station_id":"ce4bhbp2rcd13ifvqesg","pricing_plan_id":"cebpf4jnsgd1na2vs0mg"},{"bike_id":"0f4f519c-723c-4a03-ad89-2d0cafa17354","system_id":"levelo_inurba_marseille","lat":43.293009,"lon":5.374584,"is_reserved":false,"is_disabled":false,"rental_uris":{"android":"levelo://app?vid=0f4f519c-723c-4a03-ad89-2d0cafa17354","ios":"levelo://app?vid=0f4f519c-723c-4a03-ad89-2d0cafa17354"},"vehicle_type_id":"4","last_reported":1723475403,"current_range_meters":28000,"station_id":"ce4bgi12rcd13ifvqb70","pricing_plan_id":"cebpf4jnsgd1na2vs0mg"},{"bike_id":"d129ca01-d72d-4330-b4e6-eb4804192710","system_id":"levelo_inurba_marseille","lat":43.305994,"lon":5.393687,"is_reserved":false,"is_disabled":false,"rental_uris":{"android":"levelo://app?vid=d129ca01-d72d-4330-b4e6-eb4804192710","ios":"levelo://app?vid=d129ca01-d72d-4330-b4e6-eb4804192710"},"vehicle_type_id":"4","last_reported":1723475403,"current_range_meters":2000,"station_id":"ce4bh0p2rcd13ifvqd80","pricing_plan_id":"cebpf4jnsgd1na2vs0mg"},{"bike_id":"c9f0ec17-abdf-4808-a37b-acb4478d63c5","system_id":"levelo_inurba_marseille","lat":43.305994,"lon":5.393687,"is_reserved":false,"is_disabled":false,"rental_uris":{"android":"levelo://app?vid=c9f0ec17-abdf-4808-a37b-acb4478d63c5","ios":"levelo://app?vid=c9f0ec17-abdf-4808-a37b-acb4478d63c5"},"vehicle_type_id":"4","last_reported":1723475403,"current_range_meters":19200,"station_id":"ce4bh0p2rcd13ifvqd80","pricing_plan_id":"cebpf4jnsgd1na2vs0mg"},{"bike_id":"8997be6d-6d8a-49fe-8912-bc3dccf11081","system_id":"levelo_inurba_marseille","lat":43.305994,"lon":5.393687,"is_reserved":false,"is_disabled":false,"rental_uris":{"android":"levelo://app?vid=8997be6d-6d8a-49fe-8912-bc3dccf11081","ios":"levelo://app?vid=8997be6d-6d8a-49fe-8912-bc3dccf11081"},"vehicle_type_id":"4","last_reported":1723475403,"current_range_meters":800,"station_id":"ce4bh0p2rcd13ifvqd80","pricing_plan_id":"cebpf4jnsgd1na2vs0mg"},{"bike_id":"8d37495d-9961-45f8-ba67-ee81725ae3ae","system_id":"levelo_inurba_marseille","lat":43.29228,"lon":5.36363,"is_reserved":false,"is_disabled":false,"rental_uris":{"android":"levelo://app?vid=8d37495d-9961-45f8-ba67-ee81725ae3ae","ios":"levelo://app?vid=8d37495d-9961-45f8-ba67-ee81725ae3ae"},"vehicle_type_id":"4","last_reported":1723475403,"current_range_meters":800,"station_id":"","pricing_plan_id":"cebpf4jnsgd1na2vs0mg"},{"bike_id":"12711802-f8fd-41db-969d-b9652823ec47","system_id":"levelo_inurba_marseille","lat":43.293009,"lon":5.374584,"is_reserved":false,"is_disabled":false,"rental_uris":{"android":"levelo://app?vid=12711802-f8fd-41db-969d-b9652823ec47","ios":"levelo://app?vid=12711802-f8fd-41db-969d-b9652823ec47"},"vehicle_type_id":"4","last_reported":1723475403,"current_range_meters":22000,"station_id":"ce4bgi12rcd13ifvqb70","pricing_plan_id":"cebpf4jnsgd1na2vs0mg"},{"bike_id":"feb310fd-05a3-412e-864b-f34b090a17c5","system_id":"levelo_inurba_marseille","lat":43.2936,"lon":5.37835,"is_reserved":false,"is_disabled":false,"rental_uris":{"android":"levelo://app?vid=feb310fd-05a3-412e-864b-f34b090a17c5","ios":"levelo://app?vid=feb310fd-05a3-412e-864b-f34b090a17c5"},"vehicle_type_id":"4","last_reported":1723475403,"current_range_meters":0,"station_id":"ce4bgjh2rcd13ifvqbf0","pricing_plan_id":"cebpf4jnsgd1na2vs0mg"},{"bike_id":"4b61b4c4-f5ef-4cb5-9ce7-c84ca2d8f98d","system_id":"levelo_inurba_marseille","lat":43.292311,"lon":5.360731,"is_reserved":false,"is_disabled":false,"rental_uris":{"android":"levelo://app?vid=4b61b4c4-f5ef-4cb5-9ce7-c84ca2d8f98d","ios":"levelo://app?vid=4b61b4c4-f5ef-4cb5-9ce7-c84ca2d8f98d"},"vehicle_type_id":"4","last_reported":1723475403,"current_range_meters":21200,"station_id":"ce4bhbh2rcd13ifvqeqg","pricing_plan_id":"cebpf4jnsgd1na2vs0mg"},{"bike_id":"1d729a82-9cc1-4b47-930e-8467517988f2","system_id":"levelo_inurba_marseille","lat":43.30085,"lon":5.390856,"is_reserved":false,"is_disabled":false,"rental_uris":{"android":"levelo://app?vid=1d729a82-9cc1-4b47-930e-8467517988f2","ios":"levelo://app?vid=1d729a82-9cc1-4b47-930e-8467517988f2"},"vehicle_type_id":"4","last_reported":1723475403,"current_range_meters":2000,"station_id":"ce4bh192rcd13ifvqdb0","pricing_plan_id":"cebpf4jnsgd1na2vs0mg"},{"bike_id":"895d84d8-19c5-4eda-8666-d01d513ec05d","system_id":"levelo_inurba_marseille","lat":43.292311,"lon":5.360731,"is_reserved":false,"is_disabled":false,"rental_uris":{"android":"levelo://app?vid=895d84d8-19c5-4eda-8666-d01d513ec05d","ios":"levelo://app?vid=895d84d8-19c5-4eda-8666-d01d513ec05d"},"vehicle_type_id":"4","last_reported":1723475403,"current_range_meters":26800,"station_id":"ce4bhbh2rcd13ifvqeqg","pricing_plan_id":"cebpf4jnsgd1na2vs0mg"},{"bike_id":"422cdc46-26ba-4efb-9c7f-3aada8ac098b","system_id":"levelo_inurba_marseille","lat":43.300852,"lon":5.390859,"is_reserved":false,"is_disabled":false,"rental_uris":{"android":"levelo://app?vid=422cdc46-26ba-4efb-9c7f-3aada8ac098b","ios":"levelo://app?vid=422cdc46-26ba-4efb-9c7f-3aada8ac098b"},"vehicle_type_id":"4","last_reported":1723475403,"current_range_meters":31200,"station_id":"ce4bh192rcd13ifvqdb0","pricing_plan_id":"cebpf4jnsgd1na2vs0mg"},{"bike_id":"039650c3-8113-4869-adcd-f8563da66393","system_id":"levelo_inurba_marseille","lat":43.293009,"lon":5.374584,"is_reserved":false,"is_disabled":false,"rental_uris":{"android":"levelo://app?vid=039650c3-8113-4869-adcd-f8563da66393","ios":"levelo://app?vid=039650c3-8113-4869-adcd-f8563da66393"},"vehicle_type_id":"4","last_reported":1723475403,"current_range_meters":22000,"station_id":"ce4bgi12rcd13ifvqb70","pricing_plan_id":"cebpf4jnsgd1na2vs0mg"},{"bike_id":"4dd3df97-f042-4ef0-9fba-47ec4b401346","system_id":"levelo_inurba_marseille","lat":43.29328,"lon":5.378413,"is_reserved":false,"is_disabled":false,"rental_uris":{"android":"levelo://app?vid=4dd3df97-f042-4ef0-9fba-47ec4b401346","ios":"levelo://app?vid=4dd3df97-f042-4ef0-9fba-47ec4b401346"},"vehicle_type_id":"4","last_reported":1723475403,"current_range_meters":12800,"station_id":"ce4bgjh2rcd13ifvqbf0","pricing_plan_id":"cebpf4jnsgd1na2vs0mg"},{"bike_id":"647c428a-e2ed-48f5-b9bc-ba4514d79d38","system_id":"levelo_inurba_marseille","lat":43.292005,"lon":5.357875,"is_reserved":false,"is_disabled":false,"rental_uris":{"android":"levelo://app?vid=647c428a-e2ed-48f5-b9bc-ba4514d79d38","ios":"levelo://app?vid=647c428a-e2ed-48f5-b9bc-ba4514d79d38"},"vehicle_type_id":"4","last_reported":1723475403,"current_range_meters":400,"station_id":"ce4bhb12rcd13ifvqel0","pricing_plan_id":"cebpf4jnsgd1na2vs0mg"},{"bike_id":"e2c33ccc-f30c-4458-bd13-b9b5180d5c78","system_id":"levelo_inurba_marseille","lat":43.29198,"lon":5.35801,"is_reserved":false,"is_disabled":false,"rental_uris":{"android":"levelo://app?vid=e2c33ccc-f30c-4458-bd13-b9b5180d5c78","ios":"levelo://app?vid=e2c33ccc-f30c-4458-bd13-b9b5180d5c78"},"vehicle_type_id":"4","last_reported":1723475403,"current_range_meters":26400,"station_id":"ce4bhb12rcd13ifvqel0","pricing_plan_id":"cebpf4jnsgd1na2vs0mg"},{"bike_id":"bbb8db70-e2c0-47d6-a58b-1fb302bf8859","system_id":"levelo_inurba_marseille","lat":43.291994,"lon":5.357886,"is_reserved":false,"is_disabled":false,"rental_uris":{"android":"levelo://app?vid=bbb8db70-e2c0-47d6-a58b-1fb302bf8859","ios":"levelo://app?vid=bbb8db70-e2c0-47d6-a58b-1fb302bf8859"},"vehicle_type_id":"4","last_reported":1723475403,"current_range_meters":12400,"station_id":"ce4bhb12rcd13ifvqel0","pricing_plan_id":"cebpf4jnsgd1na2vs0mg"},{"bike_id":"9d4b68a5-c93f-4844-a235-5ff4a055b660","system_id":"levelo_inurba_marseille","lat":43.292385,"lon":5.37767,"is_reserved":false,"is_disabled":false,"rental_uris":{"android":"levelo://app?vid=9d4b68a5-c93f-4844-a235-5ff4a055b660","ios":"levelo://app?vid=9d4b68a5-c93f-4844-a235-5ff4a055b660"},"vehicle_type_id":"4","last_reported":1723475403,"current_range_meters":4000,"station_id":"","pricing_plan_id":"cebpf4jnsgd1na2vs0mg"},{"bike_id":"ee22744c-aef0-40c9-8e08-26253714afdd","system_id":"levelo_inurba_marseille","lat":43.292005,"lon":5.357875,"is_reserved":false,"is_disabled":false,"rental_uris":{"android":"levelo://app?vid=ee22744c-aef0-40c9-8e08-26253714afdd","ios":"levelo://app?vid=ee22744c-aef0-40c9-8e08-26253714afdd"},"vehicle_type_id":"4","last_reported":1723475403,"current_range_meters":12400,"station_id":"ce4bhb12rcd13ifvqel0","pricing_plan_id":"cebpf4jnsgd1na2vs0mg"},{"bike_id":"8782928b-6a49-4f9a-9e39-8ea4b21b3f6d","system_id":"levelo_inurba_marseille","lat":43.313291,"lon":5.396838,"is_reserved":false,"is_disabled":false,"rental_uris":{"android":"levelo://app?vid=8782928b-6a49-4f9a-9e39-8ea4b21b3f6d","ios":"levelo://app?vid=8782928b-6a49-4f9a-9e39-8ea4b21b3f6d"},"vehicle_type_id":"4","last_reported":1723475403,"current_range_meters":24400,"station_id":"ce4bgvp2rcd13ifvqcu0","pricing_plan_id":"cebpf4jnsgd1na2vs0mg"},{"bike_id":"24ced918-17d1-4ff6-bc5f-c414f664f3c6","system_id":"levelo_inurba_marseille","lat":43.291994,"lon":5.357886,"is_reserved":false,"is_disabled":false,"rental_uris":{"android":"levelo://app?vid=24ced918-17d1-4ff6-bc5f-c414f664f3c6","ios":"levelo://app?vid=24ced918-17d1-4ff6-bc5f-c414f664f3c6"},"vehicle_type_id":"4","last_reported":1723475403,"current_range_meters":18400,"station_id":"ce4bhb12rcd13ifvqel0","pricing_plan_id":"cebpf4jnsgd1na2vs0mg"},{"bike_id":"70fe3f77-1dc7-4c81-93e8-85d5105ab4ea","system_id":"levelo_inurba_marseille","lat":43.30431,"lon":5.3947,"is_reserved":false,"is_disabled":false,"rental_uris":{"android":"levelo://app?vid=70fe3f77-1dc7-4c81-93e8-85d5105ab4ea","ios":"levelo://app?vid=70fe3f77-1dc7-4c81-93e8-85d5105ab4ea"},"vehicle_type_id":"4","last_reported":1723475403,"current_range_meters":24000,"station_id":"","pricing_plan_id":"cebpf4jnsgd1na2vs0mg"},{"bike_id":"d97abcdc-42a7-44cd-9b02-3975a0134447","system_id":"levelo_inurba_marseille","lat":43.309038,"lon":5.396546,"is_reserved":false,"is_disabled":false,"rental_uris":{"android":"levelo://app?vid=d97abcdc-42a7-44cd-9b02-3975a0134447","ios":"levelo://app?vid=d97abcdc-42a7-44cd-9b02-3975a0134447"},"vehicle_type_id":"4","last_reported":1723475403,"current_range_meters":27200,"station_id":"ce4bh012rcd13ifvqcv0","pricing_plan_id":"cebpf4jnsgd1na2vs0mg"},{"bike_id":"05fa43a0-e532-4630-b6f6-10303d2af9aa","system_id":"levelo_inurba_marseille","lat":43.309038,"lon":5.396546,"is_reserved":false,"is_disabled":false,"rental_uris":{"android":"levelo://app?vid=05fa43a0-e532-4630-b6f6-10303d2af9aa","ios":"levelo://app?vid=05fa43a0-e532-4630-b6f6-10303d2af9aa"},"vehicle_type_id":"4","last_reported":1723475403,"current_range_meters":4800,"station_id":"ce4bh012rcd13ifvqcv0","pricing_plan_id":"cebpf4jnsgd1na2vs0mg"},{"bike_id":"199cca53-97b4-48d6-834b-eea5289e8178","system_id":"levelo_inurba_marseille","lat":43.302008,"lon":5.394694,"is_reserved":false,"is_disabled":false,"rental_uris":{"android":"levelo://app?vid=199cca53-97b4-48d6-834b-eea5289e8178","ios":"levelo://app?vid=199cca53-97b4-48d6-834b-eea5289e8178"},"vehicle_type_id":"4","last_reported":1723475403,"current_range_meters":0,"station_id":"ce4bh0p2rcd13ifvqd70","pricing_plan_id":"cebpf4jnsgd1na2vs0mg"},{"bike_id":"87a54cb5-3c17-45af-b6fc-a6cf5e1d9f27","system_id":"levelo_inurba_marseille","lat":43.302008,"lon":5.394694,"is_reserved":false,"is_disabled":false,"rental_uris":{"android":"levelo://app?vid=87a54cb5-3c17-45af-b6fc-a6cf5e1d9f27","ios":"levelo://app?vid=87a54cb5-3c17-45af-b6fc-a6cf5e1d9f27"},"vehicle_type_id":"4","last_reported":1723475403,"current_range_meters":31200,"station_id":"ce4bh0p2rcd13ifvqd70","pricing_plan_id":"cebpf4jnsgd1na2vs0mg"},{"bike_id":"408afea9-085d-4bc7-9f0e-8a93999889d9","system_id":"levelo_inurba_marseille","lat":43.290631,"lon":5.359244,"is_reserved":false,"is_disabled":false,"rental_uris":{"android":"levelo://app?vid=408afea9-085d-4bc7-9f0e-8a93999889d9","ios":"levelo://app?vid=408afea9-085d-4bc7-9f0e-8a93999889d9"},"vehicle_type_id":"4","last_reported":1723475403,"current_range_meters":18400,"station_id":"ce4bha92rcd13ifvqeg0","pricing_plan_id":"cebpf4jnsgd1na2vs0mg"},{"bike_id":"db5da0b3-df17-44eb-9d4a-1b8152b9aa45","system_id":"levelo_inurba_marseille","lat":43.290624,"lon":5.359245,"is_reserved":false,"is_disabled":false,"rental_uris":{"android":"levelo://app?vid=db5da0b3-df17-44eb-9d4a-1b8152b9aa45","ios":"levelo://app?vid=db5da0b3-df17-44eb-9d4a-1b8152b9aa45"},"vehicle_type_id":"4","last_reported":1723475403,"current_range_meters":16400,"station_id":"ce4bha92rcd13ifvqeg0","pricing_plan_id":"cebpf4jnsgd1na2vs0mg"},{"bike_id":"2c951080-b093-4f75-95c6-7c1e32c007b6","system_id":"levelo_inurba_marseille","lat":43.290631,"lon":5.359244,"is_reserved":false,"is_disabled":false,"rental_uris":{"android":"levelo://app?vid=2c951080-b093-4f75-95c6-7c1e32c007b6","ios":"levelo://app?vid=2c951080-b093-4f75-95c6-7c1e32c007b6"},"vehicle_type_id":"4","last_reported":1723475403,"current_range_meters":18400,"station_id":"ce4bha92rcd13ifvqeg0","pricing_plan_id":"cebpf4jnsgd1na2vs0mg"},{"bike_id":"ad9868e8-d824-42ea-93d4-d2769e7e4466","system_id":"levelo_inurba_marseille","lat":43.290631,"lon":5.359244,"is_reserved":false,"is_disabled":false,"rental_uris":{"android":"levelo://app?vid=ad9868e8-d824-42ea-93d4-d2769e7e4466","ios":"levelo://app?vid=ad9868e8-d824-42ea-93d4-d2769e7e4466"},"vehicle_type_id":"4","last_reported":1723475403,"current_range_meters":14000,"station_id":"ce4bha92rcd13ifvqeg0","pricing_plan_id":"cebpf4jnsgd1na2vs0mg"},{"bike_id":"4f684a4a-cafc-44d0-af0c-7b23b4f6fd0d","system_id":"levelo_inurba_marseille","lat":43.290624,"lon":5.359245,"is_reserved":false,"is_disabled":false,"rental_uris":{"android":"levelo://app?vid=4f684a4a-cafc-44d0-af0c-7b23b4f6fd0d","ios":"levelo://app?vid=4f684a4a-cafc-44d0-af0c-7b23b4f6fd0d"},"vehicle_type_id":"4","last_reported":1723475403,"current_range_meters":10000,"station_id":"ce4bha92rcd13ifvqeg0","pricing_plan_id":"cebpf4jnsgd1na2vs0mg"},{"bike_id":"b0e0da62-739c-46a0-9c74-f0a005adca3c","system_id":"levelo_inurba_marseille","lat":43.289184,"lon":5.366408,"is_reserved":false,"is_disabled":false,"rental_uris":{"android":"levelo://app?vid=b0e0da62-739c-46a0-9c74-f0a005adca3c","ios":"levelo://app?vid=b0e0da62-739c-46a0-9c74-f0a005adca3c"},"vehicle_type_id":"4","last_reported":1723475403,"current_range_meters":3200,"station_id":"ce4bhap2rcd13ifvqek0","pricing_plan_id":"cebpf4jnsgd1na2vs0mg"},{"bike_id":"cc126991-f21d-459c-9d39-273273423c3e","system_id":"levelo_inurba_marseille","lat":43.290327,"lon":5.375711,"is_reserved":false,"is_disabled":false,"rental_uris":{"android":"levelo://app?vid=cc126991-f21d-459c-9d39-273273423c3e","ios":"levelo://app?vid=cc126991-f21d-459c-9d39-273273423c3e"},"vehicle_type_id":"4","last_reported":1723475403,"current_range_meters":10000,"station_id":"ce4bh692rcd13ifvqe90","pricing_plan_id":"cebpf4jnsgd1na2vs0mg"},{"bike_id":"c067b2a3-ad5a-4d9e-b1e9-e7645941f083","system_id":"levelo_inurba_marseille","lat":43.289468,"lon":5.363719,"is_reserved":false,"is_disabled":false,"rental_uris":{"android":"levelo://app?vid=c067b2a3-ad5a-4d9e-b1e9-e7645941f083","ios":"levelo://app?vid=c067b2a3-ad5a-4d9e-b1e9-e7645941f083"},"vehicle_type_id":"4","last_reported":1723475403,"current_range_meters":25600,"station_id":"ce4bhc92rcd13ifvqetg","pricing_plan_id":"cebpf4jnsgd1na2vs0mg"},{"bike_id":"0c18c089-9025-4648-b581-c77b7d8ef6f0","system_id":"levelo_inurba_marseille","lat":43.290327,"lon":5.375711,"is_reserved":false,"is_disabled":false,"rental_uris":{"android":"levelo://app?vid=0c18c089-9025-4648-b581-c77b7d8ef6f0","ios":"levelo://app?vid=0c18c089-9025-4648-b581-c77b7d8ef6f0"},"vehicle_type_id":"4","last_reported":1723475403,"current_range_meters":2400,"station_id":"ce4bh692rcd13ifvqe90","pricing_plan_id":"cebpf4jnsgd1na2vs0mg"},{"bike_id":"eb187c94-1f93-4738-9902-a75e31f7613e","system_id":"levelo_inurba_marseille","lat":43.289184,"lon":5.366408,"is_reserved":false,"is_disabled":false,"rental_uris":{"android":"levelo://app?vid=eb187c94-1f93-4738-9902-a75e31f7613e","ios":"levelo://app?vid=eb187c94-1f93-4738-9902-a75e31f7613e"},"vehicle_type_id":"4","last_reported":1723475403,"current_range_meters":0,"station_id":"ce4bhap2rcd13ifvqek0","pricing_plan_id":"cebpf4jnsgd1na2vs0mg"},{"bike_id":"daf58fce-0aee-45cb-803e-2442233c953d","system_id":"levelo_inurba_marseille","lat":43.289468,"lon":5.363719,"is_reserved":false,"is_disabled":false,"rental_uris":{"android":"levelo://app?vid=daf58fce-0aee-45cb-803e-2442233c953d","ios":"levelo://app?vid=daf58fce-0aee-45cb-803e-2442233c953d"},"vehicle_type_id":"4","last_reported":1723475403,"current_range_meters":24400,"station_id":"ce4bhc92rcd13ifvqetg","pricing_plan_id":"cebpf4jnsgd1na2vs0mg"},{"bike_id":"476bacc2-82a9-4968-94cd-d6ee0606e481","system_id":"levelo_inurba_marseille","lat":43.29419,"lon":5.38668,"is_reserved":false,"is_disabled":false,"rental_uris":{"android":"levelo://app?vid=476bacc2-82a9-4968-94cd-d6ee0606e481","ios":"levelo://app?vid=476bacc2-82a9-4968-94cd-d6ee0606e481"},"vehicle_type_id":"4","last_reported":1723475403,"current_range_meters":2800,"station_id":"ce4bh2h2rcd13ifvqdh0","pricing_plan_id":"cebpf4jnsgd1na2vs0mg"},{"bike_id":"68febf5f-4dc3-419e-b728-bc54b3194231","system_id":"levelo_inurba_marseille","lat":43.304274,"lon":5.397513,"is_reserved":false,"is_disabled":false,"rental_uris":{"android":"levelo://app?vid=68febf5f-4dc3-419e-b728-bc54b3194231","ios":"levelo://app?vid=68febf5f-4dc3-419e-b728-bc54b3194231"},"vehicle_type_id":"4","last_reported":1723475403,"current_range_meters":13600,"station_id":"ce4bh092rcd13ifvqd20","pricing_plan_id":"cebpf4jnsgd1na2vs0mg"},{"bike_id":"1a5e4529-bd67-49db-bf30-9862230524ad","system_id":"levelo_inurba_marseille","lat":43.30427,"lon":5.39748,"is_reserved":false,"is_disabled":false,"rental_uris":{"android":"levelo://app?vid=1a5e4529-bd67-49db-bf30-9862230524ad","ios":"levelo://app?vid=1a5e4529-bd67-49db-bf30-9862230524ad"},"vehicle_type_id":"4","last_reported":1723475403,"current_range_meters":13600,"station_id":"ce4bh092rcd13ifvqd20","pricing_plan_id":"cebpf4jnsgd1na2vs0mg"},{"bike_id":"3df55baa-b171-4cc8-9e40-739611ea2360","system_id":"levelo_inurba_marseille","lat":43.290103,"lon":5.356114,"is_reserved":false,"is_disabled":false,"rental_uris":{"android":"levelo://app?vid=3df55baa-b171-4cc8-9e40-739611ea2360","ios":"levelo://app?vid=3df55baa-b171-4cc8-9e40-739611ea2360"},"vehicle_type_id":"4","last_reported":1723475403,"current_range_meters":31200,"station_id":"ce4bhb92rcd13ifvqen0","pricing_plan_id":"cebpf4jnsgd1na2vs0mg"},{"bike_id":"5ff3c54f-9fef-484b-862d-0911c86527f5","system_id":"levelo_inurba_marseille","lat":43.290103,"lon":5.356114,"is_reserved":false,"is_disabled":false,"rental_uris":{"android":"levelo://app?vid=5ff3c54f-9fef-484b-862d-0911c86527f5","ios":"levelo://app?vid=5ff3c54f-9fef-484b-862d-0911c86527f5"},"vehicle_type_id":"4","last_reported":1723475403,"current_range_meters":22000,"station_id":"ce4bhb92rcd13ifvqen0","pricing_plan_id":"cebpf4jnsgd1na2vs0mg"},{"bike_id":"f4c749a2-9f9a-4966-b243-a0f0a98894c6","system_id":"levelo_inurba_marseille","lat":43.290103,"lon":5.356114,"is_reserved":false,"is_disabled":false,"rental_uris":{"android":"levelo://app?vid=f4c749a2-9f9a-4966-b243-a0f0a98894c6","ios":"levelo://app?vid=f4c749a2-9f9a-4966-b243-a0f0a98894c6"},"vehicle_type_id":"4","last_reported":1723475403,"current_range_meters":31200,"station_id":"ce4bhb92rcd13ifvqen0","pricing_plan_id":"cebpf4jnsgd1na2vs0mg"},{"bike_id":"b601bdfe-1456-4946-a10b-1742fbba1e8c","system_id":"levelo_inurba_marseille","lat":43.297815,"lon":5.393548,"is_reserved":false,"is_disabled":false,"rental_uris":{"android":"levelo://app?vid=b601bdfe-1456-4946-a10b-1742fbba1e8c","ios":"levelo://app?vid=b601bdfe-1456-4946-a10b-1742fbba1e8c"},"vehicle_type_id":"4","last_reported":1723475403,"current_range_meters":31200,"station_id":"chh1huq6cuj3fo74tm60","pricing_plan_id":"cebpf4jnsgd1na2vs0mg"},{"bike_id":"3d39f3b9-eced-454d-a727-2493f11dc708","system_id":"levelo_inurba_marseille","lat":43.330442,"lon":5.389148,"is_reserved":false,"is_disabled":false,"rental_uris":{"android":"levelo://app?vid=3d39f3b9-eced-454d-a727-2493f11dc708","ios":"levelo://app?vid=3d39f3b9-eced-454d-a727-2493f11dc708"},"vehicle_type_id":"4","last_reported":1723475403,"current_range_meters":20800,"station_id":"ce4bhr92rcd13ifvqhrg","pricing_plan_id":"cebpf4jnsgd1na2vs0mg"},{"bike_id":"c3604032-4a83-472d-a5b2-a68ad718d3c5","system_id":"levelo_inurba_marseille","lat":43.33027,"lon":5.39037,"is_reserved":false,"is_disabled":false,"rental_uris":{"android":"levelo://app?vid=c3604032-4a83-472d-a5b2-a68ad718d3c5","ios":"levelo://app?vid=c3604032-4a83-472d-a5b2-a68ad718d3c5"},"vehicle_type_id":"4","last_reported":1723475403,"current_range_meters":27200,"station_id":"ce4bhr92rcd13ifvqhrg","pricing_plan_id":"cebpf4jnsgd1na2vs0mg"},{"bike_id":"d4dd92ee-9e86-41b0-9d14-63a4e293206a","system_id":"levelo_inurba_marseille","lat":43.330442,"lon":5.389148,"is_reserved":false,"is_disabled":false,"rental_uris":{"android":"levelo://app?vid=d4dd92ee-9e86-41b0-9d14-63a4e293206a","ios":"levelo://app?vid=d4dd92ee-9e86-41b0-9d14-63a4e293206a"},"vehicle_type_id":"4","last_reported":1723475403,"current_range_meters":14000,"station_id":"ce4bhr92rcd13ifvqhrg","pricing_plan_id":"cebpf4jnsgd1na2vs0mg"},{"bike_id":"2cece599-a43f-4145-a052-b9350a74f9db","system_id":"levelo_inurba_marseille","lat":43.28856,"lon":5.358371,"is_reserved":false,"is_disabled":false,"rental_uris":{"android":"levelo://app?vid=2cece599-a43f-4145-a052-b9350a74f9db","ios":"levelo://app?vid=2cece599-a43f-4145-a052-b9350a74f9db"},"vehicle_type_id":"4","last_reported":1723475403,"current_range_meters":5600,"station_id":"ce4bhb12rcd13ifvqem0","pricing_plan_id":"cebpf4jnsgd1na2vs0mg"},{"bike_id":"c26bdbad-16d7-448f-b2cb-2d5175e4ae4d","system_id":"levelo_inurba_marseille","lat":43.28856,"lon":5.358371,"is_reserved":false,"is_disabled":false,"rental_uris":{"android":"levelo://app?vid=c26bdbad-16d7-448f-b2cb-2d5175e4ae4d","ios":"levelo://app?vid=c26bdbad-16d7-448f-b2cb-2d5175e4ae4d"},"vehicle_type_id":"4","last_reported":1723475403,"current_range_meters":12800,"station_id":"ce4bhb12rcd13ifvqem0","pricing_plan_id":"cebpf4jnsgd1na2vs0mg"},{"bike_id":"e6649214-285b-42fc-9a31-73e5f9351cd2","system_id":"levelo_inurba_marseille","lat":43.28854,"lon":5.35849,"is_reserved":false,"is_disabled":false,"rental_uris":{"android":"levelo://app?vid=e6649214-285b-42fc-9a31-73e5f9351cd2","ios":"levelo://app?vid=e6649214-285b-42fc-9a31-73e5f9351cd2"},"vehicle_type_id":"4","last_reported":1723475403,"current_range_meters":24400,"station_id":"ce4bhb12rcd13ifvqem0","pricing_plan_id":"cebpf4jnsgd1na2vs0mg"},{"bike_id":"1b464874-cf77-4dab-8dbf-94e9ad0feb32","system_id":"levelo_inurba_marseille","lat":43.312609,"lon":5.401662,"is_reserved":false,"is_disabled":false,"rental_uris":{"android":"levelo://app?vid=1b464874-cf77-4dab-8dbf-94e9ad0feb32","ios":"levelo://app?vid=1b464874-cf77-4dab-8dbf-94e9ad0feb32"},"vehicle_type_id":"4","last_reported":1723475403,"current_range_meters":0,"station_id":"ce4bh092rcd13ifvqd30","pricing_plan_id":"cebpf4jnsgd1na2vs0mg"},{"bike_id":"ac75d8e5-5139-4e43-a64e-51e7994c2517","system_id":"levelo_inurba_marseille","lat":43.337444,"lon":5.374475,"is_reserved":false,"is_disabled":false,"rental_uris":{"android":"levelo://app?vid=ac75d8e5-5139-4e43-a64e-51e7994c2517","ios":"levelo://app?vid=ac75d8e5-5139-4e43-a64e-51e7994c2517"},"vehicle_type_id":"3","last_reported":1723475403,"current_range_meters":24800,"station_id":"","pricing_plan_id":"cebpf4jnsgd1na2vs0mg"},{"bike_id":"43f21911-683d-4ba4-93d3-8a7e20e1c78c","system_id":"levelo_inurba_marseille","lat":43.337454,"lon":5.374559,"is_reserved":false,"is_disabled":false,"rental_uris":{"android":"levelo://app?vid=43f21911-683d-4ba4-93d3-8a7e20e1c78c","ios":"levelo://app?vid=43f21911-683d-4ba4-93d3-8a7e20e1c78c"},"vehicle_type_id":"4","last_reported":1723475403,"current_range_meters":24000,"station_id":"","pricing_plan_id":"cebpf4jnsgd1na2vs0mg"},{"bike_id":"138d586b-c404-43b0-9b0a-5e0abab3b7ad","system_id":"levelo_inurba_marseille","lat":43.31267,"lon":5.40177,"is_reserved":false,"is_disabled":false,"rental_uris":{"android":"levelo://app?vid=138d586b-c404-43b0-9b0a-5e0abab3b7ad","ios":"levelo://app?vid=138d586b-c404-43b0-9b0a-5e0abab3b7ad"},"vehicle_type_id":"4","last_reported":1723475403,"current_range_meters":0,"station_id":"ce4bh092rcd13ifvqd30","pricing_plan_id":"cebpf4jnsgd1na2vs0mg"},{"bike_id":"4d9f813f-e13d-4896-8df8-1474855336cb","system_id":"levelo_inurba_marseille","lat":43.309371,"lon":5.401449,"is_reserved":false,"is_disabled":false,"rental_uris":{"android":"levelo://app?vid=4d9f813f-e13d-4896-8df8-1474855336cb","ios":"levelo://app?vid=4d9f813f-e13d-4896-8df8-1474855336cb"},"vehicle_type_id":"4","last_reported":1723475403,"current_range_meters":9200,"station_id":"ce4bgvp2rcd13ifvqct0","pricing_plan_id":"cebpf4jnsgd1na2vs0mg"},{"bike_id":"6086599c-14e6-492d-8b53-d8808720b8a6","system_id":"levelo_inurba_marseille","lat":43.287839,"lon":5.373678,"is_reserved":false,"is_disabled":false,"rental_uris":{"android":"levelo://app?vid=6086599c-14e6-492d-8b53-d8808720b8a6","ios":"levelo://app?vid=6086599c-14e6-492d-8b53-d8808720b8a6"},"vehicle_type_id":"4","last_reported":1723475403,"current_range_meters":8800,"station_id":"","pricing_plan_id":"cebpf4jnsgd1na2vs0mg"},{"bike_id":"ee5616dd-ac52-4218-916d-ae4feb27eedb","system_id":"levelo_inurba_marseille","lat":43.309371,"lon":5.401449,"is_reserved":false,"is_disabled":false,"rental_uris":{"android":"levelo://app?vid=ee5616dd-ac52-4218-916d-ae4feb27eedb","ios":"levelo://app?vid=ee5616dd-ac52-4218-916d-ae4feb27eedb"},"vehicle_type_id":"4","last_reported":1723475403,"current_range_meters":26800,"station_id":"ce4bgvp2rcd13ifvqct0","pricing_plan_id":"cebpf4jnsgd1na2vs0mg"},{"bike_id":"50503b1c-23de-412c-8bb5-4f40012a64e8","system_id":"levelo_inurba_marseille","lat":43.33759,"lon":5.37458,"is_reserved":false,"is_disabled":false,"rental_uris":{"android":"levelo://app?vid=50503b1c-23de-412c-8bb5-4f40012a64e8","ios":"levelo://app?vid=50503b1c-23de-412c-8bb5-4f40012a64e8"},"vehicle_type_id":"4","last_reported":1723475403,"current_range_meters":26800,"station_id":"","pricing_plan_id":"cebpf4jnsgd1na2vs0mg"},{"bike_id":"1ece39e8-5ec5-465b-b0d5-bdea3554c74d","system_id":"levelo_inurba_marseille","lat":43.3376,"lon":5.374527,"is_reserved":false,"is_disabled":false,"rental_uris":{"android":"levelo://app?vid=1ece39e8-5ec5-465b-b0d5-bdea3554c74d","ios":"levelo://app?vid=1ece39e8-5ec5-465b-b0d5-bdea3554c74d"},"vehicle_type_id":"4","last_reported":1723475403,"current_range_meters":16400,"station_id":"","pricing_plan_id":"cebpf4jnsgd1na2vs0mg"},{"bike_id":"a0eeb4a3-6ae3-44c3-8527-155da571cd64","system_id":"levelo_inurba_marseille","lat":43.33762,"lon":5.37472,"is_reserved":false,"is_disabled":false,"rental_uris":{"android":"levelo://app?vid=a0eeb4a3-6ae3-44c3-8527-155da571cd64","ios":"levelo://app?vid=a0eeb4a3-6ae3-44c3-8527-155da571cd64"},"vehicle_type_id":"4","last_reported":1723475403,"current_range_meters":23600,"station_id":"","pricing_plan_id":"cebpf4jnsgd1na2vs0mg"},{"bike_id":"7b9e8744-1a62-4d79-83e6-366501021f18","system_id":"levelo_inurba_marseille","lat":43.33766,"lon":5.37448,"is_reserved":false,"is_disabled":false,"rental_uris":{"android":"levelo://app?vid=7b9e8744-1a62-4d79-83e6-366501021f18","ios":"levelo://app?vid=7b9e8744-1a62-4d79-83e6-366501021f18"},"vehicle_type_id":"4","last_reported":1723475403,"current_range_meters":31200,"station_id":"","pricing_plan_id":"cebpf4jnsgd1na2vs0mg"},{"bike_id":"ace12e57-f66f-4efa-96db-c6aa50a829e9","system_id":"levelo_inurba_marseille","lat":43.33765,"lon":5.37473,"is_reserved":false,"is_disabled":false,"rental_uris":{"android":"levelo://app?vid=ace12e57-f66f-4efa-96db-c6aa50a829e9","ios":"levelo://app?vid=ace12e57-f66f-4efa-96db-c6aa50a829e9"},"vehicle_type_id":"4","last_reported":1723475403,"current_range_meters":20000,"station_id":"","pricing_plan_id":"cebpf4jnsgd1na2vs0mg"},{"bike_id":"b2d6b700-be3e-4c27-ab3b-d1fbb5513dee","system_id":"levelo_inurba_marseille","lat":43.33769,"lon":5.37468,"is_reserved":false,"is_disabled":false,"rental_uris":{"android":"levelo://app?vid=b2d6b700-be3e-4c27-ab3b-d1fbb5513dee","ios":"levelo://app?vid=b2d6b700-be3e-4c27-ab3b-d1fbb5513dee"},"vehicle_type_id":"4","last_reported":1723475403,"current_range_meters":27200,"station_id":"","pricing_plan_id":"cebpf4jnsgd1na2vs0mg"},{"bike_id":"22d23e81-d601-4c76-9973-e595fa549c3b","system_id":"levelo_inurba_marseille","lat":43.33769,"lon":5.37477,"is_reserved":false,"is_disabled":false,"rental_uris":{"android":"levelo://app?vid=22d23e81-d601-4c76-9973-e595fa549c3b","ios":"levelo://app?vid=22d23e81-d601-4c76-9973-e595fa549c3b"},"vehicle_type_id":"4","last_reported":1723475403,"current_range_meters":2000,"station_id":"","pricing_plan_id":"cebpf4jnsgd1na2vs0mg"},{"bike_id":"8580717d-eb3f-4f14-b031-ffa8a147d520","system_id":"levelo_inurba_marseille","lat":43.337699,"lon":5.374724,"is_reserved":false,"is_disabled":false,"rental_uris":{"android":"levelo://app?vid=8580717d-eb3f-4f14-b031-ffa8a147d520","ios":"levelo://app?vid=8580717d-eb3f-4f14-b031-ffa8a147d520"},"vehicle_type_id":"4","last_reported":1723475403,"current_range_meters":16000,"station_id":"","pricing_plan_id":"cebpf4jnsgd1na2vs0mg"},{"bike_id":"b9114623-9cf0-4c5b-a25a-c82a2f5fbe44","system_id":"levelo_inurba_marseille","lat":43.33888,"lon":5.36605,"is_reserved":false,"is_disabled":false,"rental_uris":{"android":"levelo://app?vid=b9114623-9cf0-4c5b-a25a-c82a2f5fbe44","ios":"levelo://app?vid=b9114623-9cf0-4c5b-a25a-c82a2f5fbe44"},"vehicle_type_id":"4","last_reported":1723475403,"current_range_meters":4000,"station_id":"","pricing_plan_id":"cebpf4jnsgd1na2vs0mg"},{"bike_id":"b54d8e29-399d-4ad7-ae1a-4b0de5f90828","system_id":"levelo_inurba_marseille","lat":43.286961,"lon":5.373785,"is_reserved":false,"is_disabled":false,"rental_uris":{"android":"levelo://app?vid=b54d8e29-399d-4ad7-ae1a-4b0de5f90828","ios":"levelo://app?vid=b54d8e29-399d-4ad7-ae1a-4b0de5f90828"},"vehicle_type_id":"4","last_reported":1723475403,"current_range_meters":0,"station_id":"ce4bh3p2rcd13ifvqdq0","pricing_plan_id":"cebpf4jnsgd1na2vs0mg"},{"bike_id":"bdb139e1-8e93-4a39-9ad5-4a605eb93e22","system_id":"levelo_inurba_marseille","lat":43.2866,"lon":5.36349,"is_reserved":false,"is_disabled":false,"rental_uris":{"android":"levelo://app?vid=bdb139e1-8e93-4a39-9ad5-4a605eb93e22","ios":"levelo://app?vid=bdb139e1-8e93-4a39-9ad5-4a605eb93e22"},"vehicle_type_id":"4","last_reported":1723475403,"current_range_meters":13200,"station_id":"ce4bhah2rcd13ifvqej0","pricing_plan_id":"cebpf4jnsgd1na2vs0mg"},{"bike_id":"542b53bd-8ddc-4436-9b49-055dbf139862","system_id":"levelo_inurba_marseille","lat":43.28655,"lon":5.36352,"is_reserved":false,"is_disabled":false,"rental_uris":{"android":"levelo://app?vid=542b53bd-8ddc-4436-9b49-055dbf139862","ios":"levelo://app?vid=542b53bd-8ddc-4436-9b49-055dbf139862"},"vehicle_type_id":"4","last_reported":1723475403,"current_range_meters":0,"station_id":"ce4bhah2rcd13ifvqej0","pricing_plan_id":"cebpf4jnsgd1na2vs0mg"},{"bike_id":"6576b804-4017-4b1a-b923-148d2b4df738","system_id":"levelo_inurba_marseille","lat":43.286961,"lon":5.373785,"is_reserved":false,"is_disabled":false,"rental_uris":{"android":"levelo://app?vid=6576b804-4017-4b1a-b923-148d2b4df738","ios":"levelo://app?vid=6576b804-4017-4b1a-b923-148d2b4df738"},"vehicle_type_id":"4","last_reported":1723475403,"current_range_meters":20400,"station_id":"ce4bh3p2rcd13ifvqdq0","pricing_plan_id":"cebpf4jnsgd1na2vs0mg"},{"bike_id":"dbd3bad8-eab3-4128-8559-8331c524c0ec","system_id":"levelo_inurba_marseille","lat":43.28924,"lon":5.38399,"is_reserved":false,"is_disabled":false,"rental_uris":{"android":"levelo://app?vid=dbd3bad8-eab3-4128-8559-8331c524c0ec","ios":"levelo://app?vid=dbd3bad8-eab3-4128-8559-8331c524c0ec"},"vehicle_type_id":"4","last_reported":1723475403,"current_range_meters":0,"station_id":"ce4bh612rcd13ifvqe6g","pricing_plan_id":"cebpf4jnsgd1na2vs0mg"},{"bike_id":"47df83cc-c35f-4200-98ce-86848f67dd07","system_id":"levelo_inurba_marseille","lat":43.290336,"lon":5.386425,"is_reserved":false,"is_disabled":false,"rental_uris":{"android":"levelo://app?vid=47df83cc-c35f-4200-98ce-86848f67dd07","ios":"levelo://app?vid=47df83cc-c35f-4200-98ce-86848f67dd07"},"vehicle_type_id":"4","last_reported":1723475403,"current_range_meters":17200,"station_id":"ce4bh4p2rcd13ifvqe0g","pricing_plan_id":"cebpf4jnsgd1na2vs0mg"},{"bike_id":"cc21439e-c0d7-45ab-ac49-e29e8317edf6","system_id":"levelo_inurba_marseille","lat":43.286039,"lon":5.370679,"is_reserved":false,"is_disabled":false,"rental_uris":{"android":"levelo://app?vid=cc21439e-c0d7-45ab-ac49-e29e8317edf6","ios":"levelo://app?vid=cc21439e-c0d7-45ab-ac49-e29e8317edf6"},"vehicle_type_id":"4","last_reported":1723475403,"current_range_meters":28400,"station_id":"ce4bht12rcd13ifvqi60","pricing_plan_id":"cebpf4jnsgd1na2vs0mg"},{"bike_id":"7d787363-a318-46ff-9671-60cc0503cb9e","system_id":"levelo_inurba_marseille","lat":43.28727,"lon":5.36078,"is_reserved":false,"is_disabled":false,"rental_uris":{"android":"levelo://app?vid=7d787363-a318-46ff-9671-60cc0503cb9e","ios":"levelo://app?vid=7d787363-a318-46ff-9671-60cc0503cb9e"},"vehicle_type_id":"4","last_reported":1723475403,"current_range_meters":3200,"station_id":"cki0cbj6b192h4jlfktg","pricing_plan_id":"cebpf4jnsgd1na2vs0mg"},{"bike_id":"831bfb74-7ff6-4654-9e84-82cbffab39b7","system_id":"levelo_inurba_marseille","lat":43.287184,"lon":5.37937,"is_reserved":false,"is_disabled":false,"rental_uris":{"android":"levelo://app?vid=831bfb74-7ff6-4654-9e84-82cbffab39b7","ios":"levelo://app?vid=831bfb74-7ff6-4654-9e84-82cbffab39b7"},"vehicle_type_id":"4","last_reported":1723475403,"current_range_meters":12400,"station_id":"ce4bh9p2rcd13ifvqec0","pricing_plan_id":"cebpf4jnsgd1na2vs0mg"},{"bike_id":"3be7fb41-4689-44c6-acb7-f7efd174930c","system_id":"levelo_inurba_marseille","lat":43.316828,"lon":5.404723,"is_reserved":false,"is_disabled":false,"rental_uris":{"android":"levelo://app?vid=3be7fb41-4689-44c6-acb7-f7efd174930c","ios":"levelo://app?vid=3be7fb41-4689-44c6-acb7-f7efd174930c"},"vehicle_type_id":"4","last_reported":1723475403,"current_range_meters":16000,"station_id":"ce4bh012rcd13ifvqd00","pricing_plan_id":"cebpf4jnsgd1na2vs0mg"},{"bike_id":"a0e446c8-efb7-4392-8e93-01642ae1d47d","system_id":"levelo_inurba_marseille","lat":43.284538,"lon":5.358657,"is_reserved":false,"is_disabled":false,"rental_uris":{"android":"levelo://app?vid=a0e446c8-efb7-4392-8e93-01642ae1d47d","ios":"levelo://app?vid=a0e446c8-efb7-4392-8e93-01642ae1d47d"},"vehicle_type_id":"4","last_reported":1723475403,"current_range_meters":8000,"station_id":"ce4bhah2rcd13ifvqei0","pricing_plan_id":"cebpf4jnsgd1na2vs0mg"},{"bike_id":"b1b29396-fad5-483a-84eb-29b823349746","system_id":"levelo_inurba_marseille","lat":43.284538,"lon":5.358657,"is_reserved":false,"is_disabled":false,"rental_uris":{"android":"levelo://app?vid=b1b29396-fad5-483a-84eb-29b823349746","ios":"levelo://app?vid=b1b29396-fad5-483a-84eb-29b823349746"},"vehicle_type_id":"4","last_reported":1723475403,"current_range_meters":0,"station_id":"ce4bhah2rcd13ifvqei0","pricing_plan_id":"cebpf4jnsgd1na2vs0mg"},{"bike_id":"61559a95-812b-4494-bda0-ec47070f0e4e","system_id":"levelo_inurba_marseille","lat":43.284538,"lon":5.358657,"is_reserved":false,"is_disabled":false,"rental_uris":{"android":"levelo://app?vid=61559a95-812b-4494-bda0-ec47070f0e4e","ios":"levelo://app?vid=61559a95-812b-4494-bda0-ec47070f0e4e"},"vehicle_type_id":"4","last_reported":1723475403,"current_range_meters":10000,"station_id":"ce4bhah2rcd13ifvqei0","pricing_plan_id":"cebpf4jnsgd1na2vs0mg"},{"bike_id":"8e885a47-a933-4f6d-a6a3-e9802d1405d5","system_id":"levelo_inurba_marseille","lat":43.284534,"lon":5.358662,"is_reserved":false,"is_disabled":false,"rental_uris":{"android":"levelo://app?vid=8e885a47-a933-4f6d-a6a3-e9802d1405d5","ios":"levelo://app?vid=8e885a47-a933-4f6d-a6a3-e9802d1405d5"},"vehicle_type_id":"4","last_reported":1723475403,"current_range_meters":6400,"station_id":"ce4bhah2rcd13ifvqei0","pricing_plan_id":"cebpf4jnsgd1na2vs0mg"},{"bike_id":"e4ebcd6e-b50d-4997-ae31-33bbd8c16442","system_id":"levelo_inurba_marseille","lat":43.284534,"lon":5.358662,"is_reserved":false,"is_disabled":false,"rental_uris":{"android":"levelo://app?vid=e4ebcd6e-b50d-4997-ae31-33bbd8c16442","ios":"levelo://app?vid=e4ebcd6e-b50d-4997-ae31-33bbd8c16442"},"vehicle_type_id":"4","last_reported":1723475403,"current_range_meters":31200,"station_id":"ce4bhah2rcd13ifvqei0","pricing_plan_id":"cebpf4jnsgd1na2vs0mg"},{"bike_id":"3ba524a0-b243-4acd-905c-5218c0cce226","system_id":"levelo_inurba_marseille","lat":43.294445,"lon":5.397538,"is_reserved":false,"is_disabled":false,"rental_uris":{"android":"levelo://app?vid=3ba524a0-b243-4acd-905c-5218c0cce226","ios":"levelo://app?vid=3ba524a0-b243-4acd-905c-5218c0cce226"},"vehicle_type_id":"4","last_reported":1723475403,"current_range_meters":24000,"station_id":"","pricing_plan_id":"cebpf4jnsgd1na2vs0mg"},{"bike_id":"038a9026-fc39-4948-bf17-2429f86c8ab9","system_id":"levelo_inurba_marseille","lat":43.28624,"lon":5.35103,"is_reserved":false,"is_disabled":false,"rental_uris":{"android":"levelo://app?vid=038a9026-fc39-4948-bf17-2429f86c8ab9","ios":"levelo://app?vid=038a9026-fc39-4948-bf17-2429f86c8ab9"},"vehicle_type_id":"4","last_reported":1723475403,"current_range_meters":20400,"station_id":"ce4bhch2rcd13ifvqeug","pricing_plan_id":"cebpf4jnsgd1na2vs0mg"},{"bike_id":"f2646dc4-4541-4edc-914a-189c39ec0555","system_id":"levelo_inurba_marseille","lat":43.2862,"lon":5.35113,"is_reserved":false,"is_disabled":false,"rental_uris":{"android":"levelo://app?vid=f2646dc4-4541-4edc-914a-189c39ec0555","ios":"levelo://app?vid=f2646dc4-4541-4edc-914a-189c39ec0555"},"vehicle_type_id":"4","last_reported":1723475403,"current_range_meters":23600,"station_id":"ce4bhch2rcd13ifvqeug","pricing_plan_id":"cebpf4jnsgd1na2vs0mg"},{"bike_id":"96ad78fa-3b05-493a-a077-0c4c242e0cd6","system_id":"levelo_inurba_marseille","lat":43.28623,"lon":5.35101,"is_reserved":false,"is_disabled":false,"rental_uris":{"android":"levelo://app?vid=96ad78fa-3b05-493a-a077-0c4c242e0cd6","ios":"levelo://app?vid=96ad78fa-3b05-493a-a077-0c4c242e0cd6"},"vehicle_type_id":"4","last_reported":1723475403,"current_range_meters":19600,"station_id":"ce4bhch2rcd13ifvqeug","pricing_plan_id":"cebpf4jnsgd1na2vs0mg"},{"bike_id":"1d419bc3-4332-493c-8a10-c9c8c92019ca","system_id":"levelo_inurba_marseille","lat":43.28619,"lon":5.35111,"is_reserved":false,"is_disabled":false,"rental_uris":{"android":"levelo://app?vid=1d419bc3-4332-493c-8a10-c9c8c92019ca","ios":"levelo://app?vid=1d419bc3-4332-493c-8a10-c9c8c92019ca"},"vehicle_type_id":"4","last_reported":1723475403,"current_range_meters":18800,"station_id":"ce4bhch2rcd13ifvqeug","pricing_plan_id":"cebpf4jnsgd1na2vs0mg"},{"bike_id":"3cbe94fa-a000-4bc2-bd77-3c03079efb00","system_id":"levelo_inurba_marseille","lat":43.286184,"lon":5.351066,"is_reserved":false,"is_disabled":false,"rental_uris":{"android":"levelo://app?vid=3cbe94fa-a000-4bc2-bd77-3c03079efb00","ios":"levelo://app?vid=3cbe94fa-a000-4bc2-bd77-3c03079efb00"},"vehicle_type_id":"4","last_reported":1723475403,"current_range_meters":31200,"station_id":"ce4bhch2rcd13ifvqeug","pricing_plan_id":"cebpf4jnsgd1na2vs0mg"},{"bike_id":"6623c391-c22a-4895-ab0f-6c7dd0010572","system_id":"levelo_inurba_marseille","lat":43.28619,"lon":5.35104,"is_reserved":false,"is_disabled":false,"rental_uris":{"android":"levelo://app?vid=6623c391-c22a-4895-ab0f-6c7dd0010572","ios":"levelo://app?vid=6623c391-c22a-4895-ab0f-6c7dd0010572"},"vehicle_type_id":"4","last_reported":1723475403,"current_range_meters":31200,"station_id":"ce4bhch2rcd13ifvqeug","pricing_plan_id":"cebpf4jnsgd1na2vs0mg"},{"bike_id":"7ed707f9-515e-411d-83de-f70f7ad5a210","system_id":"levelo_inurba_marseille","lat":43.28618,"lon":5.35107,"is_reserved":false,"is_disabled":false,"rental_uris":{"android":"levelo://app?vid=7ed707f9-515e-411d-83de-f70f7ad5a210","ios":"levelo://app?vid=7ed707f9-515e-411d-83de-f70f7ad5a210"},"vehicle_type_id":"4","last_reported":1723475403,"current_range_meters":30000,"station_id":"ce4bhch2rcd13ifvqeug","pricing_plan_id":"cebpf4jnsgd1na2vs0mg"},{"bike_id":"a743556f-6fc4-4289-ba0e-47d166ab795f","system_id":"levelo_inurba_marseille","lat":43.28619,"lon":5.35103,"is_reserved":false,"is_disabled":false,"rental_uris":{"android":"levelo://app?vid=a743556f-6fc4-4289-ba0e-47d166ab795f","ios":"levelo://app?vid=a743556f-6fc4-4289-ba0e-47d166ab795f"},"vehicle_type_id":"4","last_reported":1723475403,"current_range_meters":10800,"station_id":"ce4bhch2rcd13ifvqeug","pricing_plan_id":"cebpf4jnsgd1na2vs0mg"},{"bike_id":"58650c6e-d921-4e4d-9836-93bba7c9c65f","system_id":"levelo_inurba_marseille","lat":43.28617,"lon":5.35109,"is_reserved":false,"is_disabled":false,"rental_uris":{"android":"levelo://app?vid=58650c6e-d921-4e4d-9836-93bba7c9c65f","ios":"levelo://app?vid=58650c6e-d921-4e4d-9836-93bba7c9c65f"},"vehicle_type_id":"4","last_reported":1723475403,"current_range_meters":26800,"station_id":"ce4bhch2rcd13ifvqeug","pricing_plan_id":"cebpf4jnsgd1na2vs0mg"},{"bike_id":"6bf1ffa5-9c19-419e-9d5f-adee9e78f396","system_id":"levelo_inurba_marseille","lat":43.28619,"lon":5.35102,"is_reserved":false,"is_disabled":false,"rental_uris":{"android":"levelo://app?vid=6bf1ffa5-9c19-419e-9d5f-adee9e78f396","ios":"levelo://app?vid=6bf1ffa5-9c19-419e-9d5f-adee9e78f396"},"vehicle_type_id":"4","last_reported":1723475403,"current_range_meters":30800,"station_id":"ce4bhch2rcd13ifvqeug","pricing_plan_id":"cebpf4jnsgd1na2vs0mg"},{"bike_id":"9156750d-a234-4731-a198-c46b378e6931","system_id":"levelo_inurba_marseille","lat":43.28618,"lon":5.35104,"is_reserved":false,"is_disabled":false,"rental_uris":{"android":"levelo://app?vid=9156750d-a234-4731-a198-c46b378e6931","ios":"levelo://app?vid=9156750d-a234-4731-a198-c46b378e6931"},"vehicle_type_id":"4","last_reported":1723475403,"current_range_meters":31200,"station_id":"ce4bhch2rcd13ifvqeug","pricing_plan_id":"cebpf4jnsgd1na2vs0mg"},{"bike_id":"ee7d3a11-5236-4a54-b1cb-a2b3eda58234","system_id":"levelo_inurba_marseille","lat":43.28617,"lon":5.35107,"is_reserved":false,"is_disabled":false,"rental_uris":{"android":"levelo://app?vid=ee7d3a11-5236-4a54-b1cb-a2b3eda58234","ios":"levelo://app?vid=ee7d3a11-5236-4a54-b1cb-a2b3eda58234"},"vehicle_type_id":"4","last_reported":1723475403,"current_range_meters":26800,"station_id":"ce4bhch2rcd13ifvqeug","pricing_plan_id":"cebpf4jnsgd1na2vs0mg"},{"bike_id":"66b81135-6896-44ab-ba0d-a7fd80aec148","system_id":"levelo_inurba_marseille","lat":43.28619,"lon":5.351,"is_reserved":false,"is_disabled":false,"rental_uris":{"android":"levelo://app?vid=66b81135-6896-44ab-ba0d-a7fd80aec148","ios":"levelo://app?vid=66b81135-6896-44ab-ba0d-a7fd80aec148"},"vehicle_type_id":"4","last_reported":1723475403,"current_range_meters":16800,"station_id":"ce4bhch2rcd13ifvqeug","pricing_plan_id":"cebpf4jnsgd1na2vs0mg"},{"bike_id":"02cb82cf-0443-4eb0-9ad1-dbeb9ae949e5","system_id":"levelo_inurba_marseille","lat":43.285856,"lon":5.350771,"is_reserved":false,"is_disabled":false,"rental_uris":{"android":"levelo://app?vid=02cb82cf-0443-4eb0-9ad1-dbeb9ae949e5","ios":"levelo://app?vid=02cb82cf-0443-4eb0-9ad1-dbeb9ae949e5"},"vehicle_type_id":"4","last_reported":1723475403,"current_range_meters":9600,"station_id":"ce4bhch2rcd13ifvqeug","pricing_plan_id":"cebpf4jnsgd1na2vs0mg"},{"bike_id":"6103ce3e-ec8a-4e53-9405-589976ddb172","system_id":"levelo_inurba_marseille","lat":43.28618,"lon":5.35101,"is_reserved":false,"is_disabled":false,"rental_uris":{"android":"levelo://app?vid=6103ce3e-ec8a-4e53-9405-589976ddb172","ios":"levelo://app?vid=6103ce3e-ec8a-4e53-9405-589976ddb172"},"vehicle_type_id":"4","last_reported":1723475403,"current_range_meters":31200,"station_id":"ce4bhch2rcd13ifvqeug","pricing_plan_id":"cebpf4jnsgd1na2vs0mg"},{"bike_id":"faddd763-e199-45cc-8bad-63d09831402e","system_id":"levelo_inurba_marseille","lat":43.28616,"lon":5.35106,"is_reserved":false,"is_disabled":false,"rental_uris":{"android":"levelo://app?vid=faddd763-e199-45cc-8bad-63d09831402e","ios":"levelo://app?vid=faddd763-e199-45cc-8bad-63d09831402e"},"vehicle_type_id":"4","last_reported":1723475403,"current_range_meters":23200,"station_id":"ce4bhch2rcd13ifvqeug","pricing_plan_id":"cebpf4jnsgd1na2vs0mg"},{"bike_id":"a02e1db3-cd2e-4ac0-a337-2e4ebf820b66","system_id":"levelo_inurba_marseille","lat":43.28616,"lon":5.35105,"is_reserved":false,"is_disabled":false,"rental_uris":{"android":"levelo://app?vid=a02e1db3-cd2e-4ac0-a337-2e4ebf820b66","ios":"levelo://app?vid=a02e1db3-cd2e-4ac0-a337-2e4ebf820b66"},"vehicle_type_id":"4","last_reported":1723475403,"current_range_meters":23200,"station_id":"ce4bhch2rcd13ifvqeug","pricing_plan_id":"cebpf4jnsgd1na2vs0mg"},{"bike_id":"b1a9d9f0-5211-46d3-aed8-373f884e7952","system_id":"levelo_inurba_marseille","lat":43.28615,"lon":5.35105,"is_reserved":false,"is_disabled":false,"rental_uris":{"android":"levelo://app?vid=b1a9d9f0-5211-46d3-aed8-373f884e7952","ios":"levelo://app?vid=b1a9d9f0-5211-46d3-aed8-373f884e7952"},"vehicle_type_id":"4","last_reported":1723475403,"current_range_meters":21200,"station_id":"ce4bhch2rcd13ifvqeug","pricing_plan_id":"cebpf4jnsgd1na2vs0mg"},{"bike_id":"d8d7479f-84db-49ad-a90d-b44a7029a415","system_id":"levelo_inurba_marseille","lat":43.28616,"lon":5.35101,"is_reserved":false,"is_disabled":false,"rental_uris":{"android":"levelo://app?vid=d8d7479f-84db-49ad-a90d-b44a7029a415","ios":"levelo://app?vid=d8d7479f-84db-49ad-a90d-b44a7029a415"},"vehicle_type_id":"4","last_reported":1723475403,"current_range_meters":20400,"station_id":"ce4bhch2rcd13ifvqeug","pricing_plan_id":"cebpf4jnsgd1na2vs0mg"},{"bike_id":"8f76d6ee-b1b7-4f45-8207-5143997effd7","system_id":"levelo_inurba_marseille","lat":43.28614,"lon":5.35107,"is_reserved":false,"is_disabled":false,"rental_uris":{"android":"levelo://app?vid=8f76d6ee-b1b7-4f45-8207-5143997effd7","ios":"levelo://app?vid=8f76d6ee-b1b7-4f45-8207-5143997effd7"},"vehicle_type_id":"4","last_reported":1723475403,"current_range_meters":18000,"station_id":"ce4bhch2rcd13ifvqeug","pricing_plan_id":"cebpf4jnsgd1na2vs0mg"},{"bike_id":"966fed92-eb25-4eba-b5fc-6055b66e65c1","system_id":"levelo_inurba_marseille","lat":43.28614,"lon":5.35107,"is_reserved":false,"is_disabled":false,"rental_uris":{"android":"levelo://app?vid=966fed92-eb25-4eba-b5fc-6055b66e65c1","ios":"levelo://app?vid=966fed92-eb25-4eba-b5fc-6055b66e65c1"},"vehicle_type_id":"4","last_reported":1723475403,"current_range_meters":14400,"station_id":"ce4bhch2rcd13ifvqeug","pricing_plan_id":"cebpf4jnsgd1na2vs0mg"},{"bike_id":"136c4fb7-b662-4db5-9a1a-e6008b458c6b","system_id":"levelo_inurba_marseille","lat":43.285856,"lon":5.350771,"is_reserved":false,"is_disabled":false,"rental_uris":{"android":"levelo://app?vid=136c4fb7-b662-4db5-9a1a-e6008b458c6b","ios":"levelo://app?vid=136c4fb7-b662-4db5-9a1a-e6008b458c6b"},"vehicle_type_id":"4","last_reported":1723475403,"current_range_meters":24800,"station_id":"ce4bhch2rcd13ifvqeug","pricing_plan_id":"cebpf4jnsgd1na2vs0mg"},{"bike_id":"c3946b36-88c2-4861-a1b5-22bec6bc68a6","system_id":"levelo_inurba_marseille","lat":43.28616,"lon":5.35099,"is_reserved":false,"is_disabled":false,"rental_uris":{"android":"levelo://app?vid=c3946b36-88c2-4861-a1b5-22bec6bc68a6","ios":"levelo://app?vid=c3946b36-88c2-4861-a1b5-22bec6bc68a6"},"vehicle_type_id":"4","last_reported":1723475403,"current_range_meters":8000,"station_id":"ce4bhch2rcd13ifvqeug","pricing_plan_id":"cebpf4jnsgd1na2vs0mg"},{"bike_id":"3e5bf2b9-1419-4193-939c-337f301b1c47","system_id":"levelo_inurba_marseille","lat":43.28616,"lon":5.35099,"is_reserved":false,"is_disabled":false,"rental_uris":{"android":"levelo://app?vid=3e5bf2b9-1419-4193-939c-337f301b1c47","ios":"levelo://app?vid=3e5bf2b9-1419-4193-939c-337f301b1c47"},"vehicle_type_id":"4","last_reported":1723475403,"current_range_meters":31200,"station_id":"ce4bhch2rcd13ifvqeug","pricing_plan_id":"cebpf4jnsgd1na2vs0mg"},{"bike_id":"071a669e-a981-41f4-8de1-bda98878d9e1","system_id":"levelo_inurba_marseille","lat":43.28614,"lon":5.35105,"is_reserved":false,"is_disabled":false,"rental_uris":{"android":"levelo://app?vid=071a669e-a981-41f4-8de1-bda98878d9e1","ios":"levelo://app?vid=071a669e-a981-41f4-8de1-bda98878d9e1"},"vehicle_type_id":"4","last_reported":1723475403,"current_range_meters":23200,"station_id":"ce4bhch2rcd13ifvqeug","pricing_plan_id":"cebpf4jnsgd1na2vs0mg"},{"bike_id":"4764ea7e-06f1-4e28-af47-1f1571b8a5ca","system_id":"levelo_inurba_marseille","lat":43.28616,"lon":5.35098,"is_reserved":false,"is_disabled":false,"rental_uris":{"android":"levelo://app?vid=4764ea7e-06f1-4e28-af47-1f1571b8a5ca","ios":"levelo://app?vid=4764ea7e-06f1-4e28-af47-1f1571b8a5ca"},"vehicle_type_id":"4","last_reported":1723475403,"current_range_meters":21600,"station_id":"ce4bhch2rcd13ifvqeug","pricing_plan_id":"cebpf4jnsgd1na2vs0mg"},{"bike_id":"d8e7cf79-fd60-4393-96ab-7c4603649e3c","system_id":"levelo_inurba_marseille","lat":43.28615,"lon":5.35101,"is_reserved":false,"is_disabled":false,"rental_uris":{"android":"levelo://app?vid=d8e7cf79-fd60-4393-96ab-7c4603649e3c","ios":"levelo://app?vid=d8e7cf79-fd60-4393-96ab-7c4603649e3c"},"vehicle_type_id":"4","last_reported":1723475403,"current_range_meters":29600,"station_id":"ce4bhch2rcd13ifvqeug","pricing_plan_id":"cebpf4jnsgd1na2vs0mg"},{"bike_id":"b1f22960-7f22-4092-b650-3f08dc7e7822","system_id":"levelo_inurba_marseille","lat":43.28615,"lon":5.351,"is_reserved":false,"is_disabled":false,"rental_uris":{"android":"levelo://app?vid=b1f22960-7f22-4092-b650-3f08dc7e7822","ios":"levelo://app?vid=b1f22960-7f22-4092-b650-3f08dc7e7822"},"vehicle_type_id":"4","last_reported":1723475403,"current_range_meters":23600,"station_id":"ce4bhch2rcd13ifvqeug","pricing_plan_id":"cebpf4jnsgd1na2vs0mg"},{"bike_id":"ef93ea74-b642-47f5-b7d6-ecb80f7c6493","system_id":"levelo_inurba_marseille","lat":43.28614,"lon":5.35101,"is_reserved":false,"is_disabled":false,"rental_uris":{"android":"levelo://app?vid=ef93ea74-b642-47f5-b7d6-ecb80f7c6493","ios":"levelo://app?vid=ef93ea74-b642-47f5-b7d6-ecb80f7c6493"},"vehicle_type_id":"4","last_reported":1723475403,"current_range_meters":8400,"station_id":"ce4bhch2rcd13ifvqeug","pricing_plan_id":"cebpf4jnsgd1na2vs0mg"},{"bike_id":"a43cfd1e-b922-48c9-9003-97ea397fee1c","system_id":"levelo_inurba_marseille","lat":43.28613,"lon":5.35103,"is_reserved":false,"is_disabled":false,"rental_uris":{"android":"levelo://app?vid=a43cfd1e-b922-48c9-9003-97ea397fee1c","ios":"levelo://app?vid=a43cfd1e-b922-48c9-9003-97ea397fee1c"},"vehicle_type_id":"4","last_reported":1723475403,"current_range_meters":27600,"station_id":"ce4bhch2rcd13ifvqeug","pricing_plan_id":"cebpf4jnsgd1na2vs0mg"},{"bike_id":"b014145f-634c-4341-9dfd-6bfa4828854f","system_id":"levelo_inurba_marseille","lat":43.28616,"lon":5.35092,"is_reserved":false,"is_disabled":false,"rental_uris":{"android":"levelo://app?vid=b014145f-634c-4341-9dfd-6bfa4828854f","ios":"levelo://app?vid=b014145f-634c-4341-9dfd-6bfa4828854f"},"vehicle_type_id":"4","last_reported":1723475403,"current_range_meters":10000,"station_id":"ce4bhch2rcd13ifvqeug","pricing_plan_id":"cebpf4jnsgd1na2vs0mg"},{"bike_id":"2a19eb56-4b05-41ed-82ac-bb6bfd1d5f24","system_id":"levelo_inurba_marseille","lat":43.28614,"lon":5.35098,"is_reserved":false,"is_disabled":false,"rental_uris":{"android":"levelo://app?vid=2a19eb56-4b05-41ed-82ac-bb6bfd1d5f24","ios":"levelo://app?vid=2a19eb56-4b05-41ed-82ac-bb6bfd1d5f24"},"vehicle_type_id":"4","last_reported":1723475403,"current_range_meters":20800,"station_id":"ce4bhch2rcd13ifvqeug","pricing_plan_id":"cebpf4jnsgd1na2vs0mg"},{"bike_id":"ed846375-54ae-4598-9dc3-e4af459c6935","system_id":"levelo_inurba_marseille","lat":43.295748,"lon":5.37522,"is_reserved":false,"is_disabled":false,"rental_uris":{"android":"levelo://app?vid=ed846375-54ae-4598-9dc3-e4af459c6935","ios":"levelo://app?vid=ed846375-54ae-4598-9dc3-e4af459c6935"},"vehicle_type_id":"4","last_reported":1723475403,"current_range_meters":31200,"station_id":"ce4bgh92rcd13ifvqb50","pricing_plan_id":"cebpf4jnsgd1na2vs0mg"},{"bike_id":"794681e8-d8a5-4fcf-becb-7f282a529f3d","system_id":"levelo_inurba_marseille","lat":43.28611,"lon":5.351,"is_reserved":false,"is_disabled":false,"rental_uris":{"android":"levelo://app?vid=794681e8-d8a5-4fcf-becb-7f282a529f3d","ios":"levelo://app?vid=794681e8-d8a5-4fcf-becb-7f282a529f3d"},"vehicle_type_id":"4","last_reported":1723475403,"current_range_meters":31200,"station_id":"ce4bhch2rcd13ifvqeug","pricing_plan_id":"cebpf4jnsgd1na2vs0mg"},{"bike_id":"fac8534d-24e0-4b4a-9dce-7f3272942998","system_id":"levelo_inurba_marseille","lat":43.28608,"lon":5.35104,"is_reserved":false,"is_disabled":false,"rental_uris":{"android":"levelo://app?vid=fac8534d-24e0-4b4a-9dce-7f3272942998","ios":"levelo://app?vid=fac8534d-24e0-4b4a-9dce-7f3272942998"},"vehicle_type_id":"4","last_reported":1723475403,"current_range_meters":11200,"station_id":"ce4bhch2rcd13ifvqeug","pricing_plan_id":"cebpf4jnsgd1na2vs0mg"},{"bike_id":"ea366e3f-db9e-489d-9e2f-2a98da5adeb8","system_id":"levelo_inurba_marseille","lat":43.28608,"lon":5.35103,"is_reserved":false,"is_disabled":false,"rental_uris":{"android":"levelo://app?vid=ea366e3f-db9e-489d-9e2f-2a98da5adeb8","ios":"levelo://app?vid=ea366e3f-db9e-489d-9e2f-2a98da5adeb8"},"vehicle_type_id":"4","last_reported":1723475403,"current_range_meters":17200,"station_id":"ce4bhch2rcd13ifvqeug","pricing_plan_id":"cebpf4jnsgd1na2vs0mg"},{"bike_id":"a403a6b5-fc19-470f-83bb-ee95ae20008b","system_id":"levelo_inurba_marseille","lat":43.283998,"lon":5.375062,"is_reserved":false,"is_disabled":false,"rental_uris":{"android":"levelo://app?vid=a403a6b5-fc19-470f-83bb-ee95ae20008b","ios":"levelo://app?vid=a403a6b5-fc19-470f-83bb-ee95ae20008b"},"vehicle_type_id":"4","last_reported":1723475403,"current_range_meters":6400,"station_id":"ce4bh412rcd13ifvqds0","pricing_plan_id":"cebpf4jnsgd1na2vs0mg"},{"bike_id":"824baea1-cef7-4d3b-9f61-fd140b825eb3","system_id":"levelo_inurba_marseille","lat":43.283998,"lon":5.375062,"is_reserved":false,"is_disabled":false,"rental_uris":{"android":"levelo://app?vid=824baea1-cef7-4d3b-9f61-fd140b825eb3","ios":"levelo://app?vid=824baea1-cef7-4d3b-9f61-fd140b825eb3"},"vehicle_type_id":"4","last_reported":1723475403,"current_range_meters":14400,"station_id":"ce4bh412rcd13ifvqds0","pricing_plan_id":"cebpf4jnsgd1na2vs0mg"},{"bike_id":"b1b4e682-25fa-4f59-8646-620078bcda2c","system_id":"levelo_inurba_marseille","lat":43.283998,"lon":5.375062,"is_reserved":false,"is_disabled":false,"rental_uris":{"android":"levelo://app?vid=b1b4e682-25fa-4f59-8646-620078bcda2c","ios":"levelo://app?vid=b1b4e682-25fa-4f59-8646-620078bcda2c"},"vehicle_type_id":"4","last_reported":1723475403,"current_range_meters":0,"station_id":"ce4bh412rcd13ifvqds0","pricing_plan_id":"cebpf4jnsgd1na2vs0mg"},{"bike_id":"34230fb2-2926-4387-872f-d7e4ab84b22e","system_id":"levelo_inurba_marseille","lat":43.316821,"lon":5.404737,"is_reserved":false,"is_disabled":false,"rental_uris":{"android":"levelo://app?vid=34230fb2-2926-4387-872f-d7e4ab84b22e","ios":"levelo://app?vid=34230fb2-2926-4387-872f-d7e4ab84b22e"},"vehicle_type_id":"4","last_reported":1723475403,"current_range_meters":12800,"station_id":"ce4bh012rcd13ifvqd00","pricing_plan_id":"cebpf4jnsgd1na2vs0mg"},{"bike_id":"36cfc73b-3e5f-4398-896a-948edde5a4f3","system_id":"levelo_inurba_marseille","lat":43.286595,"lon":5.386795,"is_reserved":false,"is_disabled":false,"rental_uris":{"android":"levelo://app?vid=36cfc73b-3e5f-4398-896a-948edde5a4f3","ios":"levelo://app?vid=36cfc73b-3e5f-4398-896a-948edde5a4f3"},"vehicle_type_id":"4","last_reported":1723475403,"current_range_meters":0,"station_id":"ce4bh492rcd13ifvqdug","pricing_plan_id":"cebpf4jnsgd1na2vs0mg"},{"bike_id":"e5185f7e-a1c1-4749-922f-4996e3bd72f4","system_id":"levelo_inurba_marseille","lat":43.28668,"lon":5.38666,"is_reserved":false,"is_disabled":false,"rental_uris":{"android":"levelo://app?vid=e5185f7e-a1c1-4749-922f-4996e3bd72f4","ios":"levelo://app?vid=e5185f7e-a1c1-4749-922f-4996e3bd72f4"},"vehicle_type_id":"4","last_reported":1723475403,"current_range_meters":0,"station_id":"ce4bh492rcd13ifvqdug","pricing_plan_id":"cebpf4jnsgd1na2vs0mg"},{"bike_id":"902bcfa8-8048-48fc-b710-077db637da92","system_id":"levelo_inurba_marseille","lat":43.319179,"lon":5.407725,"is_reserved":false,"is_disabled":false,"rental_uris":{"android":"levelo://app?vid=902bcfa8-8048-48fc-b710-077db637da92","ios":"levelo://app?vid=902bcfa8-8048-48fc-b710-077db637da92"},"vehicle_type_id":"4","last_reported":1723475403,"current_range_meters":23600,"station_id":"ce4bhq12rcd13ifvqhig","pricing_plan_id":"cebpf4jnsgd1na2vs0mg"},{"bike_id":"eb913f79-0e6e-4b3b-86b8-445a3d81d561","system_id":"levelo_inurba_marseille","lat":43.33717,"lon":5.391857,"is_reserved":false,"is_disabled":false,"rental_uris":{"android":"levelo://app?vid=eb913f79-0e6e-4b3b-86b8-445a3d81d561","ios":"levelo://app?vid=eb913f79-0e6e-4b3b-86b8-445a3d81d561"},"vehicle_type_id":"4","last_reported":1723475403,"current_range_meters":30800,"station_id":"ce4bhr92rcd13ifvqhsg","pricing_plan_id":"cebpf4jnsgd1na2vs0mg"},{"bike_id":"bc981738-b0c9-41b4-a78c-fc11af86d877","system_id":"levelo_inurba_marseille","lat":43.293825,"lon":5.400384,"is_reserved":false,"is_disabled":false,"rental_uris":{"android":"levelo://app?vid=bc981738-b0c9-41b4-a78c-fc11af86d877","ios":"levelo://app?vid=bc981738-b0c9-41b4-a78c-fc11af86d877"},"vehicle_type_id":"4","last_reported":1723475403,"current_range_meters":400,"station_id":"","pricing_plan_id":"cebpf4jnsgd1na2vs0mg"},{"bike_id":"9770ab9d-4be3-4745-8c71-dcc214d5220e","system_id":"levelo_inurba_marseille","lat":43.288463,"lon":5.393333,"is_reserved":false,"is_disabled":false,"rental_uris":{"android":"levelo://app?vid=9770ab9d-4be3-4745-8c71-dcc214d5220e","ios":"levelo://app?vid=9770ab9d-4be3-4745-8c71-dcc214d5220e"},"vehicle_type_id":"4","last_reported":1723475403,"current_range_meters":0,"station_id":"ce4bh2p2rcd13ifvqdi0","pricing_plan_id":"cebpf4jnsgd1na2vs0mg"},{"bike_id":"ca456f45-c301-40e1-a449-aaf24b7ad25b","system_id":"levelo_inurba_marseille","lat":43.28429,"lon":5.35003,"is_reserved":false,"is_disabled":false,"rental_uris":{"android":"levelo://app?vid=ca456f45-c301-40e1-a449-aaf24b7ad25b","ios":"levelo://app?vid=ca456f45-c301-40e1-a449-aaf24b7ad25b"},"vehicle_type_id":"4","last_reported":1723475403,"current_range_meters":26400,"station_id":"ce4bhbh2rcd13ifvqepg","pricing_plan_id":"cebpf4jnsgd1na2vs0mg"},{"bike_id":"0d6f9edb-ec13-45ac-82cb-808eb6839a3d","system_id":"levelo_inurba_marseille","lat":43.28426,"lon":5.34998,"is_reserved":false,"is_disabled":false,"rental_uris":{"android":"levelo://app?vid=0d6f9edb-ec13-45ac-82cb-808eb6839a3d","ios":"levelo://app?vid=0d6f9edb-ec13-45ac-82cb-808eb6839a3d"},"vehicle_type_id":"4","last_reported":1723475403,"current_range_meters":19600,"station_id":"ce4bhbh2rcd13ifvqepg","pricing_plan_id":"cebpf4jnsgd1na2vs0mg"},{"bike_id":"6b31ac96-16c3-4e0c-bd94-66a6d272a83e","system_id":"levelo_inurba_marseille","lat":43.28426,"lon":5.34995,"is_reserved":false,"is_disabled":false,"rental_uris":{"android":"levelo://app?vid=6b31ac96-16c3-4e0c-bd94-66a6d272a83e","ios":"levelo://app?vid=6b31ac96-16c3-4e0c-bd94-66a6d272a83e"},"vehicle_type_id":"4","last_reported":1723475403,"current_range_meters":14000,"station_id":"ce4bhbh2rcd13ifvqepg","pricing_plan_id":"cebpf4jnsgd1na2vs0mg"},{"bike_id":"6a439b6b-4f98-4c1f-8521-b3d39cb556f0","system_id":"levelo_inurba_marseille","lat":43.284253,"lon":5.349968,"is_reserved":false,"is_disabled":false,"rental_uris":{"android":"levelo://app?vid=6a439b6b-4f98-4c1f-8521-b3d39cb556f0","ios":"levelo://app?vid=6a439b6b-4f98-4c1f-8521-b3d39cb556f0"},"vehicle_type_id":"4","last_reported":1723475403,"current_range_meters":30800,"station_id":"ce4bhbh2rcd13ifvqepg","pricing_plan_id":"cebpf4jnsgd1na2vs0mg"},{"bike_id":"6b52638e-dd60-4dc9-a18a-5856202e733b","system_id":"levelo_inurba_marseille","lat":43.28426,"lon":5.34991,"is_reserved":false,"is_disabled":false,"rental_uris":{"android":"levelo://app?vid=6b52638e-dd60-4dc9-a18a-5856202e733b","ios":"levelo://app?vid=6b52638e-dd60-4dc9-a18a-5856202e733b"},"vehicle_type_id":"4","last_reported":1723475403,"current_range_meters":26400,"station_id":"ce4bhbh2rcd13ifvqepg","pricing_plan_id":"cebpf4jnsgd1na2vs0mg"},{"bike_id":"ee6ec948-2ac7-428d-b0f8-be6f6ce435b4","system_id":"levelo_inurba_marseille","lat":43.284248,"lon":5.34992,"is_reserved":false,"is_disabled":false,"rental_uris":{"android":"levelo://app?vid=ee6ec948-2ac7-428d-b0f8-be6f6ce435b4","ios":"levelo://app?vid=ee6ec948-2ac7-428d-b0f8-be6f6ce435b4"},"vehicle_type_id":"4","last_reported":1723475403,"current_range_meters":18400,"station_id":"ce4bhbh2rcd13ifvqepg","pricing_plan_id":"cebpf4jnsgd1na2vs0mg"},