{"last_updated":1731921116,"ttl":60,"version":"2.2","data":{"bikes":[{"bike_id":"d156847a-ba51-48d7-ae19-397cfb973d50","system_id":"levelo_inurba_marseille","lat":43.337444,"lon":5.374475,"is_reserved":false,"is_disabled":false,"rental_uris":{"android":"levelo://app?vid=d156847a-ba51-48d7-ae19-397cfb973d50","ios":"levelo://app?vid=d156847a-ba51-48d7-ae19-397cfb973d50"},"vehicle_type_id":"4","last_reported":1731921116,"current_range_meters":37600,"station_id":"","pricing_plan_id":"cebpf4jnsgd1na2vs0mg"},{"bike_id":"2de1c1a5-5fdc-4160-a1eb-49bb145f92e6","system_id":"levelo_inurba_marseille","lat":43.30147,"lon":5.39866,"is_reserved":false,"is_disabled":false,"rental_uris":{"android":"levelo://app?vid=2de1c1a5-5fdc-4160-a1eb-49bb145f92e6","ios":"levelo://app?vid=2de1c1a5-5fdc-4160-a1eb-49bb145f92e6"},"vehicle_type_id":"4","last_reported":1731921116,"current_range_meters":39200,"station_id":"ce4bh0h2rcd13ifvqd40","pricing_plan_id":"cebpf4jnsgd1na2vs0mg"},{"bike_id":"cb3da54d-d397-4c39-8190-9645464c13db","system_id":"levelo_inurba_marseille","lat":43.239772,"lon":5.366307,"is_reserved":false,"is_disabled":false,"rental_uris":{"android":"levelo://app?vid=cb3da54d-d397-4c39-8190-9645464c13db","ios":"levelo://app?vid=cb3da54d-d397-4c39-8190-9645464c13db"},"vehicle_type_id":"4","last_reported":1731921116,"current_range_meters":38800,"station_id":"ce4bhi12rcd13ifvqfp0","pricing_plan_id":"cebpf4jnsgd1na2vs0mg"},{"bike_id":"a176f94a-12e4-405f-b9d4-97ba5574439b","system_id":"levelo_inurba_marseille","lat":43.30956,"lon":5.39038,"is_reserved":false,"is_disabled":false,"rental_uris":{"android":"levelo://app?vid=a176f94a-12e4-405f-b9d4-97ba5574439b","ios":"levelo://app?vid=a176f94a-12e4-405f-b9d4-97ba5574439b"},"vehicle_type_id":"4","last_reported":1731921116,"current_range_meters":38800,"station_id":"ce4bgup2rcd13ifvqco0","pricing_plan_id":"cebpf4jnsgd1na2vs0mg"},{"bike_id":"4dcf46ca-97d3-4646-8193-7170ea46e339","system_id":"levelo_inurba_marseille","lat":43.24083,"lon":5.37757,"is_reserved":false,"is_disabled":false,"rental_uris":{"android":"levelo://app?vid=4dcf46ca-97d3-4646-8193-7170ea46e339","ios":"levelo://app?vid=4dcf46ca-97d3-4646-8193-7170ea46e339"},"vehicle_type_id":"4","last_reported":1731921116,"current_range_meters":6800,"station_id":"ce4bhnp2rcd13ifvqgvg","pricing_plan_id":"cebpf4jnsgd1na2vs0mg"},{"bike_id":"5a45c19d-0ff5-48fd-8f84-530428b009b3","system_id":"levelo_inurba_marseille","lat":43.30468,"lon":5.37899,"is_reserved":false,"is_disabled":false,"rental_uris":{"android":"levelo://app?vid=5a45c19d-0ff5-48fd-8f84-530428b009b3","ios":"levelo://app?vid=5a45c19d-0ff5-48fd-8f84-530428b009b3"},"vehicle_type_id":"4","last_reported":1731921116,"current_range_meters":16800,"station_id":"ce4bgup2rcd13ifvqcn0","pricing_plan_id":"cebpf4jnsgd1na2vs0mg"},{"bike_id":"9d3506a7-93b0-481a-a9f4-f87ba4b5a00d","system_id":"levelo_inurba_marseille","lat":43.24078,"lon":5.37756,"is_reserved":false,"is_disabled":false,"rental_uris":{"android":"levelo://app?vid=9d3506a7-93b0-481a-a9f4-f87ba4b5a00d","ios":"levelo://app?vid=9d3506a7-93b0-481a-a9f4-f87ba4b5a00d"},"vehicle_type_id":"4","last_reported":1731921116,"current_range_meters":14400,"station_id":"ce4bhnp2rcd13ifvqgvg","pricing_plan_id":"cebpf4jnsgd1na2vs0mg"},{"bike_id":"9525b366-31b8-460c-8c30-0fb2fb2e258a","system_id":"levelo_inurba_marseille","lat":43.28079,"lon":5.39658,"is_reserved":false,"is_disabled":false,"rental_uris":{"android":"levelo://app?vid=9525b366-31b8-460c-8c30-0fb2fb2e258a","ios":"levelo://app?vid=9525b366-31b8-460c-8c30-0fb2fb2e258a"},"vehicle_type_id":"4","last_reported":1731921116,"current_range_meters":22800,"station_id":"ce4bho12rcd13ifvqh2g","pricing_plan_id":"cebpf4jnsgd1na2vs0mg"},{"bike_id":"e4d4b6a3-efd8-4f6a-b18f-9e5609305c48","system_id":"levelo_inurba_marseille","lat":43.255947,"lon":5.382247,"is_reserved":false,"is_disabled":false,"rental_uris":{"android":"levelo://app?vid=e4d4b6a3-efd8-4f6a-b18f-9e5609305c48","ios":"levelo://app?vid=e4d4b6a3-efd8-4f6a-b18f-9e5609305c48"},"vehicle_type_id":"4","last_reported":1731921116,"current_range_meters":15200,"station_id":"ce4bhih2rcd13ifvqfs0","pricing_plan_id":"cebpf4jnsgd1na2vs0mg"},{"bike_id":"0672d165-d197-4474-bbec-2df95543fd2f","system_id":"levelo_inurba_marseille","lat":43.29903,"lon":5.43668,"is_reserved":false,"is_disabled":false,"rental_uris":{"android":"levelo://app?vid=0672d165-d197-4474-bbec-2df95543fd2f","ios":"levelo://app?vid=0672d165-d197-4474-bbec-2df95543fd2f"},"vehicle_type_id":"4","last_reported":1731921116,"current_range_meters":38000,"station_id":"ce4bhpp2rcd13ifvqhfg","pricing_plan_id":"cebpf4jnsgd1na2vs0mg"},{"bike_id":"0abafd50-d6f0-4ae1-8b2e-e1936ed5039b","system_id":"levelo_inurba_marseille","lat":43.29785,"lon":5.41342,"is_reserved":false,"is_disabled":false,"rental_uris":{"android":"levelo://app?vid=0abafd50-d6f0-4ae1-8b2e-e1936ed5039b","ios":"levelo://app?vid=0abafd50-d6f0-4ae1-8b2e-e1936ed5039b"},"vehicle_type_id":"4","last_reported":1731921116,"current_range_meters":4400,"station_id":"","pricing_plan_id":"cebpf4jnsgd1na2vs0mg"},{"bike_id":"8e1608f7-0c9d-4d5a-bdae-d5e906f9b475","system_id":"levelo_inurba_marseille","lat":43.23155,"lon":5.437083,"is_reserved":false,"is_disabled":false,"rental_uris":{"android":"levelo://app?vid=8e1608f7-0c9d-4d5a-bdae-d5e906f9b475","ios":"levelo://app?vid=8e1608f7-0c9d-4d5a-bdae-d5e906f9b475"},"vehicle_type_id":"4","last_reported":1731921116,"current_range_meters":14400,"station_id":"ce4bhmp2rcd13ifvqgog","pricing_plan_id":"cebpf4jnsgd1na2vs0mg"},{"bike_id":"0081f82a-ca63-4173-ac21-26248c2c867f","system_id":"levelo_inurba_marseille","lat":43.27497,"lon":5.42448,"is_reserved":false,"is_disabled":false,"rental_uris":{"android":"levelo://app?vid=0081f82a-ca63-4173-ac21-26248c2c867f","ios":"levelo://app?vid=0081f82a-ca63-4173-ac21-26248c2c867f"},"vehicle_type_id":"4","last_reported":1731921116,"current_range_meters":8400,"station_id":"ce4bhn92rcd13ifvqgrg","pricing_plan_id":"cebpf4jnsgd1na2vs0mg"},{"bike_id":"1a1fece6-24ee-48c7-97db-f2cc78ba1021","system_id":"levelo_inurba_marseille","lat":43.3015,"lon":5.38086,"is_reserved":false,"is_disabled":false,"rental_uris":{"android":"levelo://app?vid=1a1fece6-24ee-48c7-97db-f2cc78ba1021","ios":"levelo://app?vid=1a1fece6-24ee-48c7-97db-f2cc78ba1021"},"vehicle_type_id":"4","last_reported":1731921116,"current_range_meters":38800,"station_id":"ce4bgjp2rcd13ifvqbh0","pricing_plan_id":"cebpf4jnsgd1na2vs0mg"},{"bike_id":"32ddb4bf-25f5-411a-9192-0620a6076542","system_id":"levelo_inurba_marseille","lat":43.29106,"lon":5.38128,"is_reserved":false,"is_disabled":false,"rental_uris":{"android":"levelo://app?vid=32ddb4bf-25f5-411a-9192-0620a6076542","ios":"levelo://app?vid=32ddb4bf-25f5-411a-9192-0620a6076542"},"vehicle_type_id":"4","last_reported":1731921116,"current_range_meters":34000,"station_id":"ce4bh512rcd13ifvqe2g","pricing_plan_id":"cebpf4jnsgd1na2vs0mg"},{"bike_id":"572612f6-46e2-444e-81ae-97635107e19d","system_id":"levelo_inurba_marseille","lat":43.3095,"lon":5.39036,"is_reserved":false,"is_disabled":false,"rental_uris":{"android":"levelo://app?vid=572612f6-46e2-444e-81ae-97635107e19d","ios":"levelo://app?vid=572612f6-46e2-444e-81ae-97635107e19d"},"vehicle_type_id":"4","last_reported":1731921116,"current_range_meters":17200,"station_id":"ce4bgup2rcd13ifvqco0","pricing_plan_id":"cebpf4jnsgd1na2vs0mg"},{"bike_id":"4c167bc3-2964-4625-adc0-c92e539ad80f","system_id":"levelo_inurba_marseille","lat":43.28284,"lon":5.40797,"is_reserved":false,"is_disabled":false,"rental_uris":{"android":"levelo://app?vid=4c167bc3-2964-4625-adc0-c92e539ad80f","ios":"levelo://app?vid=4c167bc3-2964-4625-adc0-c92e539ad80f"},"vehicle_type_id":"4","last_reported":1731921116,"current_range_meters":30000,"station_id":"","pricing_plan_id":"cebpf4jnsgd1na2vs0mg"},{"bike_id":"4d3b4655-4b5b-47a3-9888-1cf2725c1ba6","system_id":"levelo_inurba_marseille","lat":43.3027,"lon":5.37712,"is_reserved":false,"is_disabled":false,"rental_uris":{"android":"levelo://app?vid=4d3b4655-4b5b-47a3-9888-1cf2725c1ba6","ios":"levelo://app?vid=4d3b4655-4b5b-47a3-9888-1cf2725c1ba6"},"vehicle_type_id":"4","last_reported":1731921116,"current_range_meters":25600,"station_id":"ce4bguh2rcd13ifvqcj0","pricing_plan_id":"cebpf4jnsgd1na2vs0mg"},{"bike_id":"dc24ccdd-f78a-4bfd-b60d-87b5aafd671c","system_id":"levelo_inurba_marseille","lat":43.3054,"lon":5.36526,"is_reserved":false,"is_disabled":false,"rental_uris":{"android":"levelo://app?vid=dc24ccdd-f78a-4bfd-b60d-87b5aafd671c","ios":"levelo://app?vid=dc24ccdd-f78a-4bfd-b60d-87b5aafd671c"},"vehicle_type_id":"4","last_reported":1731921116,"current_range_meters":34000,"station_id":"ce4bgs12rcd13ifvqcag","pricing_plan_id":"cebpf4jnsgd1na2vs0mg"},{"bike_id":"570458ba-8a98-49ec-a3e5-f9742cc1f85c","system_id":"levelo_inurba_marseille","lat":43.29908,"lon":5.38138,"is_reserved":false,"is_disabled":false,"rental_uris":{"android":"levelo://app?vid=570458ba-8a98-49ec-a3e5-f9742cc1f85c","ios":"levelo://app?vid=570458ba-8a98-49ec-a3e5-f9742cc1f85c"},"vehicle_type_id":"4","last_reported":1731921116,"current_range_meters":15200,"station_id":"ce4bgj12rcd13ifvqbc0","pricing_plan_id":"cebpf4jnsgd1na2vs0mg"},{"bike_id":"853a1166-61cc-42b2-9e7f-3b747ea4f57f","system_id":"levelo_inurba_marseille","lat":43.2954,"lon":5.42317,"is_reserved":false,"is_disabled":false,"rental_uris":{"android":"levelo://app?vid=853a1166-61cc-42b2-9e7f-3b747ea4f57f","ios":"levelo://app?vid=853a1166-61cc-42b2-9e7f-3b747ea4f57f"},"vehicle_type_id":"4","last_reported":1731921116,"current_range_meters":38800,"station_id":"ce4bhph2rcd13ifvqhdg","pricing_plan_id":"cebpf4jnsgd1na2vs0mg"},{"bike_id":"c3e4d78a-dd1f-4cf1-b44e-038eff147532","system_id":"levelo_inurba_marseille","lat":43.29581,"lon":5.36736,"is_reserved":false,"is_disabled":false,"rental_uris":{"android":"levelo://app?vid=c3e4d78a-dd1f-4cf1-b44e-038eff147532","ios":"levelo://app?vid=c3e4d78a-dd1f-4cf1-b44e-038eff147532"},"vehicle_type_id":"4","last_reported":1731921116,"current_range_meters":32400,"station_id":"ce4bgph2rcd13ifvqc2g","pricing_plan_id":"cebpf4jnsgd1na2vs0mg"},{"bike_id":"6b0ea79e-cb12-4a50-9845-e4686b3cacc8","system_id":"levelo_inurba_marseille","lat":43.295751,"lon":5.399791,"is_reserved":false,"is_disabled":false,"rental_uris":{"android":"levelo://app?vid=6b0ea79e-cb12-4a50-9845-e4686b3cacc8","ios":"levelo://app?vid=6b0ea79e-cb12-4a50-9845-e4686b3cacc8"},"vehicle_type_id":"4","last_reported":1731921116,"current_range_meters":6000,"station_id":"","pricing_plan_id":"cebpf4jnsgd1na2vs0mg"},{"bike_id":"3c9a365b-639d-4248-af0e-bf7d583c167e","system_id":"levelo_inurba_marseille","lat":43.30887,"lon":5.3965,"is_reserved":false,"is_disabled":false,"rental_uris":{"android":"levelo://app?vid=3c9a365b-639d-4248-af0e-bf7d583c167e","ios":"levelo://app?vid=3c9a365b-639d-4248-af0e-bf7d583c167e"},"vehicle_type_id":"4","last_reported":1731921116,"current_range_meters":33600,"station_id":"ce4bh012rcd13ifvqcv0","pricing_plan_id":"cebpf4jnsgd1na2vs0mg"},{"bike_id":"b5d2c11f-d779-4c6f-be50-b7df64331ab3","system_id":"levelo_inurba_marseille","lat":43.29912,"lon":5.37465,"is_reserved":false,"is_disabled":false,"rental_uris":{"android":"levelo://app?vid=b5d2c11f-d779-4c6f-be50-b7df64331ab3","ios":"levelo://app?vid=b5d2c11f-d779-4c6f-be50-b7df64331ab3"},"vehicle_type_id":"4","last_reported":1731921116,"current_range_meters":24400,"station_id":"ce4bgjh2rcd13ifvqbg0","pricing_plan_id":"cebpf4jnsgd1na2vs0mg"},{"bike_id":"e564c6bf-05ad-4d88-a069-e0fe90f490f7","system_id":"levelo_inurba_marseille","lat":43.29623,"lon":5.37168,"is_reserved":false,"is_disabled":false,"rental_uris":{"android":"levelo://app?vid=e564c6bf-05ad-4d88-a069-e0fe90f490f7","ios":"levelo://app?vid=e564c6bf-05ad-4d88-a069-e0fe90f490f7"},"vehicle_type_id":"4","last_reported":1731921116,"current_range_meters":8400,"station_id":"ce4bgnh2rcd13ifvqc0g","pricing_plan_id":"cebpf4jnsgd1na2vs0mg"},{"bike_id":"e0b967c0-b35f-4934-9248-f55c41b4f08b","system_id":"levelo_inurba_marseille","lat":43.28151,"lon":5.4422,"is_reserved":false,"is_disabled":false,"rental_uris":{"android":"levelo://app?vid=e0b967c0-b35f-4934-9248-f55c41b4f08b","ios":"levelo://app?vid=e0b967c0-b35f-4934-9248-f55c41b4f08b"},"vehicle_type_id":"4","last_reported":1731921116,"current_range_meters":4000,"station_id":"","pricing_plan_id":"cebpf4jnsgd1na2vs0mg"},{"bike_id":"57edd0e2-68de-4e93-a8c5-cbb7808c0b01","system_id":"levelo_inurba_marseille","lat":43.24815,"lon":5.37442,"is_reserved":false,"is_disabled":false,"rental_uris":{"android":"levelo://app?vid=57edd0e2-68de-4e93-a8c5-cbb7808c0b01","ios":"levelo://app?vid=57edd0e2-68de-4e93-a8c5-cbb7808c0b01"},"vehicle_type_id":"4","last_reported":1731921116,"current_range_meters":20000,"station_id":"ce4bhgh2rcd13ifvqfb0","pricing_plan_id":"cebpf4jnsgd1na2vs0mg"},{"bike_id":"0b38b36a-cb8f-48e5-a013-7abb6c4dcc0e","system_id":"levelo_inurba_marseille","lat":43.28005,"lon":5.40008,"is_reserved":false,"is_disabled":false,"rental_uris":{"android":"levelo://app?vid=0b38b36a-cb8f-48e5-a013-7abb6c4dcc0e","ios":"levelo://app?vid=0b38b36a-cb8f-48e5-a013-7abb6c4dcc0e"},"vehicle_type_id":"4","last_reported":1731921116,"current_range_meters":30000,"station_id":"ce4bho92rcd13ifvqh4g","pricing_plan_id":"cebpf4jnsgd1na2vs0mg"},{"bike_id":"d0b0ce12-16f6-4fe3-b743-c0018360672a","system_id":"levelo_inurba_marseille","lat":43.2916,"lon":5.37161,"is_reserved":false,"is_disabled":false,"rental_uris":{"android":"levelo://app?vid=d0b0ce12-16f6-4fe3-b743-c0018360672a","ios":"levelo://app?vid=d0b0ce12-16f6-4fe3-b743-c0018360672a"},"vehicle_type_id":"4","last_reported":1731921116,"current_range_meters":10000,"station_id":"ce4bha92rcd13ifvqeh0","pricing_plan_id":"cebpf4jnsgd1na2vs0mg"},{"bike_id":"4ce2bd69-819e-43e6-97a3-4dd30d8e5432","system_id":"levelo_inurba_marseille","lat":43.29725,"lon":5.37685,"is_reserved":false,"is_disabled":false,"rental_uris":{"android":"levelo://app?vid=4ce2bd69-819e-43e6-97a3-4dd30d8e5432","ios":"levelo://app?vid=4ce2bd69-819e-43e6-97a3-4dd30d8e5432"},"vehicle_type_id":"4","last_reported":1731921116,"current_range_meters":38400,"station_id":"ce4bgkh2rcd13ifvqbl0","pricing_plan_id":"cebpf4jnsgd1na2vs0mg"},{"bike_id":"ebc5ff2a-1934-4dc8-9d0f-bc104e73ada8","system_id":"levelo_inurba_marseille","lat":43.30139,"lon":5.37424,"is_reserved":false,"is_disabled":false,"rental_uris":{"android":"levelo://app?vid=ebc5ff2a-1934-4dc8-9d0f-bc104e73ada8","ios":"levelo://app?vid=ebc5ff2a-1934-4dc8-9d0f-bc104e73ada8"},"vehicle_type_id":"4","last_reported":1731921116,"current_range_meters":26000,"station_id":"ce4bgs92rcd13ifvqcc0","pricing_plan_id":"cebpf4jnsgd1na2vs0mg"},{"bike_id":"5be600ff-958a-4031-9ec8-d554b363a204","system_id":"levelo_inurba_marseille","lat":43.24076,"lon":5.37759,"is_reserved":false,"is_disabled":false,"rental_uris":{"android":"levelo://app?vid=5be600ff-958a-4031-9ec8-d554b363a204","ios":"levelo://app?vid=5be600ff-958a-4031-9ec8-d554b363a204"},"vehicle_type_id":"4","last_reported":1731921116,"current_range_meters":16400,"station_id":"ce4bhnp2rcd13ifvqgvg","pricing_plan_id":"cebpf4jnsgd1na2vs0mg"},{"bike_id":"4305c1d1-ca62-4e47-ac96-b9970d6e957d","system_id":"levelo_inurba_marseille","lat":43.23194,"lon":5.35551,"is_reserved":false,"is_disabled":false,"rental_uris":{"android":"levelo://app?vid=4305c1d1-ca62-4e47-ac96-b9970d6e957d","ios":"levelo://app?vid=4305c1d1-ca62-4e47-ac96-b9970d6e957d"},"vehicle_type_id":"4","last_reported":1731921116,"current_range_meters":38000,"station_id":"ce4bhu92rcd13ifvqi70","pricing_plan_id":"cebpf4jnsgd1na2vs0mg"},{"bike_id":"2bd3ae1c-22d2-4b0f-9fd7-42d6b84fc3a3","system_id":"levelo_inurba_marseille","lat":43.33603,"lon":5.41035,"is_reserved":false,"is_disabled":false,"rental_uris":{"android":"levelo://app?vid=2bd3ae1c-22d2-4b0f-9fd7-42d6b84fc3a3","ios":"levelo://app?vid=2bd3ae1c-22d2-4b0f-9fd7-42d6b84fc3a3"},"vehicle_type_id":"4","last_reported":1731921116,"current_range_meters":12000,"station_id":"ce4bhqh2rcd13ifvqhmg","pricing_plan_id":"cebpf4jnsgd1na2vs0mg"},{"bike_id":"79b76398-f4aa-422b-b325-2360d07a8784","system_id":"levelo_inurba_marseille","lat":43.3373,"lon":5.39183,"is_reserved":false,"is_disabled":false,"rental_uris":{"android":"levelo://app?vid=79b76398-f4aa-422b-b325-2360d07a8784","ios":"levelo://app?vid=79b76398-f4aa-422b-b325-2360d07a8784"},"vehicle_type_id":"4","last_reported":1731921116,"current_range_meters":38400,"station_id":"ce4bhr92rcd13ifvqhsg","pricing_plan_id":"cebpf4jnsgd1na2vs0mg"},{"bike_id":"7a50bb6d-7fad-4773-97a1-766337904a2d","system_id":"levelo_inurba_marseille","lat":43.28459,"lon":5.35883,"is_reserved":false,"is_disabled":false,"rental_uris":{"android":"levelo://app?vid=7a50bb6d-7fad-4773-97a1-766337904a2d","ios":"levelo://app?vid=7a50bb6d-7fad-4773-97a1-766337904a2d"},"vehicle_type_id":"4","last_reported":1731921116,"current_range_meters":38400,"station_id":"ce4bhah2rcd13ifvqei0","pricing_plan_id":"cebpf4jnsgd1na2vs0mg"},{"bike_id":"f547dc2a-7341-4371-8e50-941333da4743","system_id":"levelo_inurba_marseille","lat":43.2408,"lon":5.37744,"is_reserved":false,"is_disabled":false,"rental_uris":{"android":"levelo://app?vid=f547dc2a-7341-4371-8e50-941333da4743","ios":"levelo://app?vid=f547dc2a-7341-4371-8e50-941333da4743"},"vehicle_type_id":"4","last_reported":1731921116,"current_range_meters":28400,"station_id":"ce4bhnp2rcd13ifvqgvg","pricing_plan_id":"cebpf4jnsgd1na2vs0mg"},{"bike_id":"3ba2b2e1-3c95-4de7-915d-86cf8ebac199","system_id":"levelo_inurba_marseille","lat":43.23151,"lon":5.43723,"is_reserved":false,"is_disabled":false,"rental_uris":{"android":"levelo://app?vid=3ba2b2e1-3c95-4de7-915d-86cf8ebac199","ios":"levelo://app?vid=3ba2b2e1-3c95-4de7-915d-86cf8ebac199"},"vehicle_type_id":"4","last_reported":1731921116,"current_range_meters":27600,"station_id":"ce4bhmp2rcd13ifvqgog","pricing_plan_id":"cebpf4jnsgd1na2vs0mg"},{"bike_id":"d2f0f3fe-5594-42dd-8e69-8cdbebee7e7d","system_id":"levelo_inurba_marseille","lat":43.23152,"lon":5.43716,"is_reserved":false,"is_disabled":false,"rental_uris":{"android":"levelo://app?vid=d2f0f3fe-5594-42dd-8e69-8cdbebee7e7d","ios":"levelo://app?vid=d2f0f3fe-5594-42dd-8e69-8cdbebee7e7d"},"vehicle_type_id":"4","last_reported":1731921116,"current_range_meters":17200,"station_id":"ce4bhmp2rcd13ifvqgog","pricing_plan_id":"cebpf4jnsgd1na2vs0mg"},{"bike_id":"2c4874ef-9abd-4400-8cd7-bafe971a0da7","system_id":"levelo_inurba_marseille","lat":43.26682,"lon":5.38272,"is_reserved":false,"is_disabled":false,"rental_uris":{"android":"levelo://app?vid=2c4874ef-9abd-4400-8cd7-bafe971a0da7","ios":"levelo://app?vid=2c4874ef-9abd-4400-8cd7-bafe971a0da7"},"vehicle_type_id":"4","last_reported":1731921116,"current_range_meters":38800,"station_id":"ce4bhg92rcd13ifvqf90","pricing_plan_id":"cebpf4jnsgd1na2vs0mg"},{"bike_id":"e0c06d7f-6c9a-4d47-aebf-1f4d87b9a208","system_id":"levelo_inurba_marseille","lat":43.24076,"lon":5.37758,"is_reserved":false,"is_disabled":false,"rental_uris":{"android":"levelo://app?vid=e0c06d7f-6c9a-4d47-aebf-1f4d87b9a208","ios":"levelo://app?vid=e0c06d7f-6c9a-4d47-aebf-1f4d87b9a208"},"vehicle_type_id":"4","last_reported":1731921116,"current_range_meters":29600,"station_id":"ce4bhnp2rcd13ifvqgvg","pricing_plan_id":"cebpf4jnsgd1na2vs0mg"},{"bike_id":"20b8bb00-4fa4-49d3-b00f-f353e411e243","system_id":"levelo_inurba_marseille","lat":43.27069,"lon":5.42279,"is_reserved":false,"is_disabled":false,"rental_uris":{"android":"levelo://app?vid=20b8bb00-4fa4-49d3-b00f-f353e411e243","ios":"levelo://app?vid=20b8bb00-4fa4-49d3-b00f-f353e411e243"},"vehicle_type_id":"4","last_reported":1731921116,"current_range_meters":16800,"station_id":"ce4bhk92rcd13ifvqgb0","pricing_plan_id":"cebpf4jnsgd1na2vs0mg"},{"bike_id":"5f89f61e-343d-4cfe-8829-222555f36d01","system_id":"levelo_inurba_marseille","lat":43.31355,"lon":5.3671,"is_reserved":false,"is_disabled":false,"rental_uris":{"android":"levelo://app?vid=5f89f61e-343d-4cfe-8829-222555f36d01","ios":"levelo://app?vid=5f89f61e-343d-4cfe-8829-222555f36d01"},"vehicle_type_id":"4","last_reported":1731921116,"current_range_meters":30000,"station_id":"ce4bgr92rcd13ifvqc6g","pricing_plan_id":"cebpf4jnsgd1na2vs0mg"},{"bike_id":"843e9cf8-cb36-40cc-a9bb-d3ba7a303f37","system_id":"levelo_inurba_marseille","lat":43.27495,"lon":5.42452,"is_reserved":false,"is_disabled":false,"rental_uris":{"android":"levelo://app?vid=843e9cf8-cb36-40cc-a9bb-d3ba7a303f37","ios":"levelo://app?vid=843e9cf8-cb36-40cc-a9bb-d3ba7a303f37"},"vehicle_type_id":"4","last_reported":1731921116,"current_range_meters":20000,"station_id":"ce4bhn92rcd13ifvqgrg","pricing_plan_id":"cebpf4jnsgd1na2vs0mg"},{"bike_id":"10dc04fe-e3bf-435d-bf01-2e0d45200714","system_id":"levelo_inurba_marseille","lat":43.29619,"lon":5.37704,"is_reserved":false,"is_disabled":false,"rental_uris":{"android":"levelo://app?vid=10dc04fe-e3bf-435d-bf01-2e0d45200714","ios":"levelo://app?vid=10dc04fe-e3bf-435d-bf01-2e0d45200714"},"vehicle_type_id":"4","last_reported":1731921116,"current_range_meters":38800,"station_id":"ce4bgi92rcd13ifvqb90","pricing_plan_id":"cebpf4jnsgd1na2vs0mg"},{"bike_id":"4f475baa-25a7-46a4-bbb6-a03c9b045fca","system_id":"levelo_inurba_marseille","lat":43.26031,"lon":5.37546,"is_reserved":false,"is_disabled":false,"rental_uris":{"android":"levelo://app?vid=4f475baa-25a7-46a4-bbb6-a03c9b045fca","ios":"levelo://app?vid=4f475baa-25a7-46a4-bbb6-a03c9b045fca"},"vehicle_type_id":"4","last_reported":1731921116,"current_range_meters":24000,"station_id":"ce4bhgh2rcd13ifvqfa0","pricing_plan_id":"cebpf4jnsgd1na2vs0mg"},{"bike_id":"89e5e066-8e8b-4f46-b612-129fca9a9d8b","system_id":"levelo_inurba_marseille","lat":43.30944,"lon":5.3904,"is_reserved":false,"is_disabled":false,"rental_uris":{"android":"levelo://app?vid=89e5e066-8e8b-4f46-b612-129fca9a9d8b","ios":"levelo://app?vid=89e5e066-8e8b-4f46-b612-129fca9a9d8b"},"vehicle_type_id":"4","last_reported":1731921116,"current_range_meters":39200,"station_id":"ce4bgup2rcd13ifvqco0","pricing_plan_id":"cebpf4jnsgd1na2vs0mg"},{"bike_id":"0037c62e-50ee-41a8-945a-3f9a1405ce9d","system_id":"levelo_inurba_marseille","lat":43.31328,"lon":5.39689,"is_reserved":false,"is_disabled":false,"rental_uris":{"android":"levelo://app?vid=0037c62e-50ee-41a8-945a-3f9a1405ce9d","ios":"levelo://app?vid=0037c62e-50ee-41a8-945a-3f9a1405ce9d"},"vehicle_type_id":"4","last_reported":1731921116,"current_range_meters":36800,"station_id":"ce4bgvp2rcd13ifvqcu0","pricing_plan_id":"cebpf4jnsgd1na2vs0mg"},{"bike_id":"5cad086e-cb7b-4491-81b8-b4839c9d4e1f","system_id":"levelo_inurba_marseille","lat":43.3361,"lon":5.41027,"is_reserved":false,"is_disabled":false,"rental_uris":{"android":"levelo://app?vid=5cad086e-cb7b-4491-81b8-b4839c9d4e1f","ios":"levelo://app?vid=5cad086e-cb7b-4491-81b8-b4839c9d4e1f"},"vehicle_type_id":"4","last_reported":1731921116,"current_range_meters":36400,"station_id":"ce4bhqh2rcd13ifvqhmg","pricing_plan_id":"cebpf4jnsgd1na2vs0mg"},{"bike_id":"8c43ec51-a327-446e-8cf3-4b92e82d4a0c","system_id":"levelo_inurba_marseille","lat":43.31353,"lon":5.36701,"is_reserved":false,"is_disabled":false,"rental_uris":{"android":"levelo://app?vid=8c43ec51-a327-446e-8cf3-4b92e82d4a0c","ios":"levelo://app?vid=8c43ec51-a327-446e-8cf3-4b92e82d4a0c"},"vehicle_type_id":"4","last_reported":1731921116,"current_range_meters":34800,"station_id":"ce4bgr92rcd13ifvqc6g","pricing_plan_id":"cebpf4jnsgd1na2vs0mg"},{"bike_id":"27757d2e-94cc-46f1-b4e2-8780c773e562","system_id":"levelo_inurba_marseille","lat":43.34141,"lon":5.40898,"is_reserved":false,"is_disabled":false,"rental_uris":{"android":"levelo://app?vid=27757d2e-94cc-46f1-b4e2-8780c773e562","ios":"levelo://app?vid=27757d2e-94cc-46f1-b4e2-8780c773e562"},"vehicle_type_id":"4","last_reported":1731921116,"current_range_meters":29600,"station_id":"ce4bhqh2rcd13ifvqhlg","pricing_plan_id":"cebpf4jnsgd1na2vs0mg"},{"bike_id":"2c916808-1103-40df-bd9a-a6bf4818d9cd","system_id":"levelo_inurba_marseille","lat":43.31342,"lon":5.36703,"is_reserved":false,"is_disabled":false,"rental_uris":{"android":"levelo://app?vid=2c916808-1103-40df-bd9a-a6bf4818d9cd","ios":"levelo://app?vid=2c916808-1103-40df-bd9a-a6bf4818d9cd"},"vehicle_type_id":"4","last_reported":1731921116,"current_range_meters":39200,"station_id":"ce4bgr92rcd13ifvqc6g","pricing_plan_id":"cebpf4jnsgd1na2vs0mg"},{"bike_id":"9ec8bda9-b440-4dae-97c7-9c094b51aaa6","system_id":"levelo_inurba_marseille","lat":43.27667,"lon":5.38902,"is_reserved":false,"is_disabled":false,"rental_uris":{"android":"levelo://app?vid=9ec8bda9-b440-4dae-97c7-9c094b51aaa6","ios":"levelo://app?vid=9ec8bda9-b440-4dae-97c7-9c094b51aaa6"},"vehicle_type_id":"4","last_reported":1731921116,"current_range_meters":17200,"station_id":"ce4bhi12rcd13ifvqfo0","pricing_plan_id":"cebpf4jnsgd1na2vs0mg"},{"bike_id":"efc9a4d6-56fd-495a-b361-341470b7a489","system_id":"levelo_inurba_marseille","lat":43.3095,"lon":5.39035,"is_reserved":false,"is_disabled":false,"rental_uris":{"android":"levelo://app?vid=efc9a4d6-56fd-495a-b361-341470b7a489","ios":"levelo://app?vid=efc9a4d6-56fd-495a-b361-341470b7a489"},"vehicle_type_id":"4","last_reported":1731921116,"current_range_meters":24400,"station_id":"ce4bgup2rcd13ifvqco0","pricing_plan_id":"cebpf4jnsgd1na2vs0mg"},{"bike_id":"f493fbd1-a6d2-46e7-bd5f-a282c47329e6","system_id":"levelo_inurba_marseille","lat":43.29901,"lon":5.43662,"is_reserved":false,"is_disabled":false,"rental_uris":{"android":"levelo://app?vid=f493fbd1-a6d2-46e7-bd5f-a282c47329e6","ios":"levelo://app?vid=f493fbd1-a6d2-46e7-bd5f-a282c47329e6"},"vehicle_type_id":"4","last_reported":1731921116,"current_range_meters":39200,"station_id":"ce4bhpp2rcd13ifvqhfg","pricing_plan_id":"cebpf4jnsgd1na2vs0mg"},{"bike_id":"8700b163-9d6d-4ba4-8f67-8f73e2fafd13","system_id":"levelo_inurba_marseille","lat":43.24069,"lon":5.37763,"is_reserved":false,"is_disabled":false,"rental_uris":{"android":"levelo://app?vid=8700b163-9d6d-4ba4-8f67-8f73e2fafd13","ios":"levelo://app?vid=8700b163-9d6d-4ba4-8f67-8f73e2fafd13"},"vehicle_type_id":"4","last_reported":1731921116,"current_range_meters":38800,"station_id":"ce4bhnp2rcd13ifvqgvg","pricing_plan_id":"cebpf4jnsgd1na2vs0mg"},{"bike_id":"5f7af20b-8740-416c-a770-66f799e39f12","system_id":"levelo_inurba_marseille","lat":43.3054,"lon":5.36544,"is_reserved":false,"is_disabled":false,"rental_uris":{"android":"levelo://app?vid=5f7af20b-8740-416c-a770-66f799e39f12","ios":"levelo://app?vid=5f7af20b-8740-416c-a770-66f799e39f12"},"vehicle_type_id":"4","last_reported":1731921116,"current_range_meters":26000,"station_id":"ce4bgs12rcd13ifvqcag","pricing_plan_id":"cebpf4jnsgd1na2vs0mg"},{"bike_id":"47788c59-0a83-4275-91b5-342fbaf403a9","system_id":"levelo_inurba_marseille","lat":43.29205,"lon":5.39325,"is_reserved":false,"is_disabled":false,"rental_uris":{"android":"levelo://app?vid=47788c59-0a83-4275-91b5-342fbaf403a9","ios":"levelo://app?vid=47788c59-0a83-4275-91b5-342fbaf403a9"},"vehicle_type_id":"4","last_reported":1731921116,"current_range_meters":38800,"station_id":"ce4bh192rcd13ifvqdd0","pricing_plan_id":"cebpf4jnsgd1na2vs0mg"},{"bike_id":"c3b2f2e4-a56b-4032-90ec-36bdae251001","system_id":"levelo_inurba_marseille","lat":43.30542,"lon":5.36539,"is_reserved":false,"is_disabled":false,"rental_uris":{"android":"levelo://app?vid=c3b2f2e4-a56b-4032-90ec-36bdae251001","ios":"levelo://app?vid=c3b2f2e4-a56b-4032-90ec-36bdae251001"},"vehicle_type_id":"4","last_reported":1731921116,"current_range_meters":25200,"station_id":"ce4bgs12rcd13ifvqcag","pricing_plan_id":"cebpf4jnsgd1na2vs0mg"},{"bike_id":"f42152e8-082f-4097-9b84-b169e7a33b19","system_id":"levelo_inurba_marseille","lat":43.25824,"lon":5.39434,"is_reserved":false,"is_disabled":false,"rental_uris":{"android":"levelo://app?vid=f42152e8-082f-4097-9b84-b169e7a33b19","ios":"levelo://app?vid=f42152e8-082f-4097-9b84-b169e7a33b19"},"vehicle_type_id":"4","last_reported":1731921116,"current_range_meters":22400,"station_id":"ce4bhip2rcd13ifvqft0","pricing_plan_id":"cebpf4jnsgd1na2vs0mg"},{"bike_id":"01272bd5-a2c0-44b6-b76e-87cd305d9451","system_id":"levelo_inurba_marseille","lat":43.3302,"lon":5.39044,"is_reserved":false,"is_disabled":false,"rental_uris":{"android":"levelo://app?vid=01272bd5-a2c0-44b6-b76e-87cd305d9451","ios":"levelo://app?vid=01272bd5-a2c0-44b6-b76e-87cd305d9451"},"vehicle_type_id":"4","last_reported":1731921116,"current_range_meters":10000,"station_id":"ce4bhr92rcd13ifvqhrg","pricing_plan_id":"cebpf4jnsgd1na2vs0mg"},{"bike_id":"7694d120-882b-4df8-9318-0f76e5aee323","system_id":"levelo_inurba_marseille","lat":43.29811,"lon":5.37738,"is_reserved":false,"is_disabled":false,"rental_uris":{"android":"levelo://app?vid=7694d120-882b-4df8-9318-0f76e5aee323","ios":"levelo://app?vid=7694d120-882b-4df8-9318-0f76e5aee323"},"vehicle_type_id":"4","last_reported":1731921116,"current_range_meters":30800,"station_id":"","pricing_plan_id":"cebpf4jnsgd1na2vs0mg"},{"bike_id":"55e36ead-49b8-49e2-bf19-7333edb5ac3a","system_id":"levelo_inurba_marseille","lat":0,"lon":5.377211,"is_reserved":false,"is_disabled":false,"rental_uris":{"android":"levelo://app?vid=55e36ead-49b8-49e2-bf19-7333edb5ac3a","ios":"levelo://app?vid=55e36ead-49b8-49e2-bf19-7333edb5ac3a"},"vehicle_type_id":"4","last_reported":1731921116,"current_range_meters":25200,"station_id":"","pricing_plan_id":"cebpf4jnsgd1na2vs0mg"},{"bike_id":"891094ec-2367-48fe-988f-7aeca1d5a466","system_id":"levelo_inurba_marseille","lat":43.27999,"lon":5.40015,"is_reserved":false,"is_disabled":false,"rental_uris":{"android":"levelo://app?vid=891094ec-2367-48fe-988f-7aeca1d5a466","ios":"levelo://app?vid=891094ec-2367-48fe-988f-7aeca1d5a466"},"vehicle_type_id":"4","last_reported":1731921116,"current_range_meters":38400,"station_id":"ce4bho92rcd13ifvqh4g","pricing_plan_id":"cebpf4jnsgd1na2vs0mg"},{"bike_id":"893be487-5a33-4ac7-85ff-42dae1b2e3e4","system_id":"levelo_inurba_marseille","lat":43.31349,"lon":5.36725,"is_reserved":false,"is_disabled":false,"rental_uris":{"android":"levelo://app?vid=893be487-5a33-4ac7-85ff-42dae1b2e3e4","ios":"levelo://app?vid=893be487-5a33-4ac7-85ff-42dae1b2e3e4"},"vehicle_type_id":"4","last_reported":1731921116,"current_range_meters":35600,"station_id":"ce4bgr92rcd13ifvqc6g","pricing_plan_id":"cebpf4jnsgd1na2vs0mg"},{"bike_id":"91ade9a4-a826-46c2-80cb-12654846f984","system_id":"levelo_inurba_marseille","lat":43.32297,"lon":5.38259,"is_reserved":false,"is_disabled":false,"rental_uris":{"android":"levelo://app?vid=91ade9a4-a826-46c2-80cb-12654846f984","ios":"levelo://app?vid=91ade9a4-a826-46c2-80cb-12654846f984"},"vehicle_type_id":"4","last_reported":1731921116,"current_range_meters":38400,"station_id":"ce4bhr12rcd13ifvqhqg","pricing_plan_id":"cebpf4jnsgd1na2vs0mg"},{"bike_id":"cb3165b9-4890-480d-ae63-784fba188dfc","system_id":"levelo_inurba_marseille","lat":43.2707,"lon":5.42278,"is_reserved":false,"is_disabled":false,"rental_uris":{"android":"levelo://app?vid=cb3165b9-4890-480d-ae63-784fba188dfc","ios":"levelo://app?vid=cb3165b9-4890-480d-ae63-784fba188dfc"},"vehicle_type_id":"4","last_reported":1731921116,"current_range_meters":39200,"station_id":"ce4bhk92rcd13ifvqgb0","pricing_plan_id":"cebpf4jnsgd1na2vs0mg"},{"bike_id":"2dad41c9-1917-4242-9edb-0790ad103b2a","system_id":"levelo_inurba_marseille","lat":43.262,"lon":5.37929,"is_reserved":false,"is_disabled":false,"rental_uris":{"android":"levelo://app?vid=2dad41c9-1917-4242-9edb-0790ad103b2a","ios":"levelo://app?vid=2dad41c9-1917-4242-9edb-0790ad103b2a"},"vehicle_type_id":"4","last_reported":1731921116,"current_range_meters":32800,"station_id":"ce4bhjp2rcd13ifvqg90","pricing_plan_id":"cebpf4jnsgd1na2vs0mg"},{"bike_id":"5938f129-0be9-4612-acac-86791f6673ad","system_id":"levelo_inurba_marseille","lat":43.28199,"lon":5.4437,"is_reserved":false,"is_disabled":false,"rental_uris":{"android":"levelo://app?vid=5938f129-0be9-4612-acac-86791f6673ad","ios":"levelo://app?vid=5938f129-0be9-4612-acac-86791f6673ad"},"vehicle_type_id":"4","last_reported":1731921116,"current_range_meters":8800,"station_id":"","pricing_plan_id":"cebpf4jnsgd1na2vs0mg"},{"bike_id":"4ddda77b-3169-4448-8e06-10231f4b4780","system_id":"levelo_inurba_marseille","lat":43.2408,"lon":5.37752,"is_reserved":false,"is_disabled":false,"rental_uris":{"android":"levelo://app?vid=4ddda77b-3169-4448-8e06-10231f4b4780","ios":"levelo://app?vid=4ddda77b-3169-4448-8e06-10231f4b4780"},"vehicle_type_id":"4","last_reported":1731921116,"current_range_meters":26800,"station_id":"ce4bhnp2rcd13ifvqgvg","pricing_plan_id":"cebpf4jnsgd1na2vs0mg"},{"bike_id":"a5c6397b-4773-4673-8f19-a09873f0e2b0","system_id":"levelo_inurba_marseille","lat":43.30286,"lon":5.37699,"is_reserved":false,"is_disabled":false,"rental_uris":{"android":"levelo://app?vid=a5c6397b-4773-4673-8f19-a09873f0e2b0","ios":"levelo://app?vid=a5c6397b-4773-4673-8f19-a09873f0e2b0"},"vehicle_type_id":"4","last_reported":1731921116,"current_range_meters":38800,"station_id":"ce4bguh2rcd13ifvqcj0","pricing_plan_id":"cebpf4jnsgd1na2vs0mg"},{"bike_id":"5a19b76a-bc9e-4d10-a22e-a9a8b5ef4c47","system_id":"levelo_inurba_marseille","lat":43.24074,"lon":5.37761,"is_reserved":false,"is_disabled":false,"rental_uris":{"android":"levelo://app?vid=5a19b76a-bc9e-4d10-a22e-a9a8b5ef4c47","ios":"levelo://app?vid=5a19b76a-bc9e-4d10-a22e-a9a8b5ef4c47"},"vehicle_type_id":"4","last_reported":1731921116,"current_range_meters":28000,"station_id":"ce4bhnp2rcd13ifvqgvg","pricing_plan_id":"cebpf4jnsgd1na2vs0mg"},{"bike_id":"5ed22230-ed97-489b-a6af-ba06152c21b7","system_id":"levelo_inurba_marseille","lat":43.23153,"lon":5.43723,"is_reserved":false,"is_disabled":false,"rental_uris":{"android":"levelo://app?vid=5ed22230-ed97-489b-a6af-ba06152c21b7","ios":"levelo://app?vid=5ed22230-ed97-489b-a6af-ba06152c21b7"},"vehicle_type_id":"4","last_reported":1731921116,"current_range_meters":6400,"station_id":"ce4bhmp2rcd13ifvqgog","pricing_plan_id":"cebpf4jnsgd1na2vs0mg"},{"bike_id":"3d889148-005b-4d14-b3f5-0166b79de543","system_id":"levelo_inurba_marseille","lat":43.3053,"lon":5.36698,"is_reserved":false,"is_disabled":false,"rental_uris":{"android":"levelo://app?vid=3d889148-005b-4d14-b3f5-0166b79de543","ios":"levelo://app?vid=3d889148-005b-4d14-b3f5-0166b79de543"},"vehicle_type_id":"4","last_reported":1731921116,"current_range_meters":24800,"station_id":"ce4bgrp2rcd13ifvqc9g","pricing_plan_id":"cebpf4jnsgd1na2vs0mg"},{"bike_id":"12867844-fa2a-41b2-8d74-706d4ef15909","system_id":"levelo_inurba_marseille","lat":43.33761,"lon":5.37435,"is_reserved":false,"is_disabled":false,"rental_uris":{"android":"levelo://app?vid=12867844-fa2a-41b2-8d74-706d4ef15909","ios":"levelo://app?vid=12867844-fa2a-41b2-8d74-706d4ef15909"},"vehicle_type_id":"4","last_reported":1731921116,"current_range_meters":28800,"station_id":"","pricing_plan_id":"cebpf4jnsgd1na2vs0mg"},{"bike_id":"66437026-4f2a-468d-9950-e43bed8252e2","system_id":"levelo_inurba_marseille","lat":43.32216,"lon":5.41413,"is_reserved":false,"is_disabled":false,"rental_uris":{"android":"levelo://app?vid=66437026-4f2a-468d-9950-e43bed8252e2","ios":"levelo://app?vid=66437026-4f2a-468d-9950-e43bed8252e2"},"vehicle_type_id":"4","last_reported":1731921116,"current_range_meters":24400,"station_id":"ce4bhq92rcd13ifvqhkg","pricing_plan_id":"cebpf4jnsgd1na2vs0mg"},{"bike_id":"ee6a0457-635e-4d93-8b9b-ce71505ee70a","system_id":"levelo_inurba_marseille","lat":43.30955,"lon":5.39046,"is_reserved":false,"is_disabled":false,"rental_uris":{"android":"levelo://app?vid=ee6a0457-635e-4d93-8b9b-ce71505ee70a","ios":"levelo://app?vid=ee6a0457-635e-4d93-8b9b-ce71505ee70a"},"vehicle_type_id":"4","last_reported":1731921116,"current_range_meters":38000,"station_id":"ce4bgup2rcd13ifvqco0","pricing_plan_id":"cebpf4jnsgd1na2vs0mg"},{"bike_id":"7a771648-63f5-4c34-b7b5-423a1240d23d","system_id":"levelo_inurba_marseille","lat":43.29844,"lon":5.36267,"is_reserved":false,"is_disabled":false,"rental_uris":{"android":"levelo://app?vid=7a771648-63f5-4c34-b7b5-423a1240d23d","ios":"levelo://app?vid=7a771648-63f5-4c34-b7b5-423a1240d23d"},"vehicle_type_id":"4","last_reported":1731921116,"current_range_meters":28400,"station_id":"ce4bgpp2rcd13ifvqc3g","pricing_plan_id":"cebpf4jnsgd1na2vs0mg"},{"bike_id":"b9919d37-06fd-4ea3-9428-3e4d89482538","system_id":"levelo_inurba_marseille","lat":43.29624,"lon":5.37159,"is_reserved":false,"is_disabled":false,"rental_uris":{"android":"levelo://app?vid=b9919d37-06fd-4ea3-9428-3e4d89482538","ios":"levelo://app?vid=b9919d37-06fd-4ea3-9428-3e4d89482538"},"vehicle_type_id":"4","last_reported":1731921116,"current_range_meters":38400,"station_id":"ce4bgnh2rcd13ifvqc0g","pricing_plan_id":"cebpf4jnsgd1na2vs0mg"},{"bike_id":"afb64243-94ea-44d5-ad75-2051cd5a1a48","system_id":"levelo_inurba_marseille","lat":43.31487,"lon":5.37308,"is_reserved":false,"is_disabled":false,"rental_uris":{"android":"levelo://app?vid=afb64243-94ea-44d5-ad75-2051cd5a1a48","ios":"levelo://app?vid=afb64243-94ea-44d5-ad75-2051cd5a1a48"},"vehicle_type_id":"4","last_reported":1731921116,"current_range_meters":24400,"station_id":"ce4bgt12rcd13ifvqcd0","pricing_plan_id":"cebpf4jnsgd1na2vs0mg"},{"bike_id":"49f80b4f-2259-49ff-a68b-f63ea0f76a6c","system_id":"levelo_inurba_marseille","lat":43.303,"lon":5.39211,"is_reserved":false,"is_disabled":false,"rental_uris":{"android":"levelo://app?vid=49f80b4f-2259-49ff-a68b-f63ea0f76a6c","ios":"levelo://app?vid=49f80b4f-2259-49ff-a68b-f63ea0f76a6c"},"vehicle_type_id":"4","last_reported":1731921116,"current_range_meters":35600,"station_id":"ce4bgkh2rcd13ifvqbk0","pricing_plan_id":"cebpf4jnsgd1na2vs0mg"},{"bike_id":"f5a042e4-9244-45ca-a000-cfabc5edd18a","system_id":"levelo_inurba_marseille","lat":43.27071,"lon":5.42279,"is_reserved":false,"is_disabled":false,"rental_uris":{"android":"levelo://app?vid=f5a042e4-9244-45ca-a000-cfabc5edd18a","ios":"levelo://app?vid=f5a042e4-9244-45ca-a000-cfabc5edd18a"},"vehicle_type_id":"4","last_reported":1731921116,"current_range_meters":8800,"station_id":"ce4bhk92rcd13ifvqgb0","pricing_plan_id":"cebpf4jnsgd1na2vs0mg"},{"bike_id":"438c7460-0f2d-492b-8a11-5a4b3f82e315","system_id":"levelo_inurba_marseille","lat":43.27997,"lon":5.41655,"is_reserved":false,"is_disabled":false,"rental_uris":{"android":"levelo://app?vid=438c7460-0f2d-492b-8a11-5a4b3f82e315","ios":"levelo://app?vid=438c7460-0f2d-492b-8a11-5a4b3f82e315"},"vehicle_type_id":"4","last_reported":1731921116,"current_range_meters":28400,"station_id":"ce4bho12rcd13ifvqh1g","pricing_plan_id":"cebpf4jnsgd1na2vs0mg"},{"bike_id":"10808265-c82e-4663-ad34-00454e769817","system_id":"levelo_inurba_marseille","lat":43.23187,"lon":5.3999,"is_reserved":false,"is_disabled":false,"rental_uris":{"android":"levelo://app?vid=10808265-c82e-4663-ad34-00454e769817","ios":"levelo://app?vid=10808265-c82e-4663-ad34-00454e769817"},"vehicle_type_id":"4","last_reported":1731921116,"current_range_meters":27200,"station_id":"ce4bhn12rcd13ifvqgqg","pricing_plan_id":"cebpf4jnsgd1na2vs0mg"},{"bike_id":"6c9c6e89-0b12-47f2-baf9-8bfd4a1e7141","system_id":"levelo_inurba_marseille","lat":43.29844,"lon":5.36267,"is_reserved":false,"is_disabled":false,"rental_uris":{"android":"levelo://app?vid=6c9c6e89-0b12-47f2-baf9-8bfd4a1e7141","ios":"levelo://app?vid=6c9c6e89-0b12-47f2-baf9-8bfd4a1e7141"},"vehicle_type_id":"4","last_reported":1731921116,"current_range_meters":38000,"station_id":"ce4bgpp2rcd13ifvqc3g","pricing_plan_id":"cebpf4jnsgd1na2vs0mg"},{"bike_id":"cccc15e4-d2c8-45f7-abbe-e5b3cb8bc634","system_id":"levelo_inurba_marseille","lat":43.27072,"lon":5.4228,"is_reserved":false,"is_disabled":false,"rental_uris":{"android":"levelo://app?vid=cccc15e4-d2c8-45f7-abbe-e5b3cb8bc634","ios":"levelo://app?vid=cccc15e4-d2c8-45f7-abbe-e5b3cb8bc634"},"vehicle_type_id":"4","last_reported":1731921116,"current_range_meters":6400,"station_id":"ce4bhk92rcd13ifvqgb0","pricing_plan_id":"cebpf4jnsgd1na2vs0mg"},{"bike_id":"6bcc6a84-ce11-4a3f-b321-4ab21fe5ea37","system_id":"levelo_inurba_marseille","lat":43.28079,"lon":5.39654,"is_reserved":false,"is_disabled":false,"rental_uris":{"android":"levelo://app?vid=6bcc6a84-ce11-4a3f-b321-4ab21fe5ea37","ios":"levelo://app?vid=6bcc6a84-ce11-4a3f-b321-4ab21fe5ea37"},"vehicle_type_id":"4","last_reported":1731921116,"current_range_meters":14800,"station_id":"ce4bho12rcd13ifvqh2g","pricing_plan_id":"cebpf4jnsgd1na2vs0mg"},{"bike_id":"8f019a78-c493-4f9d-a72d-a75fc0e36210","system_id":"levelo_inurba_marseille","lat":43.2407,"lon":5.37759,"is_reserved":false,"is_disabled":false,"rental_uris":{"android":"levelo://app?vid=8f019a78-c493-4f9d-a72d-a75fc0e36210","ios":"levelo://app?vid=8f019a78-c493-4f9d-a72d-a75fc0e36210"},"vehicle_type_id":"4","last_reported":1731921116,"current_range_meters":27200,"station_id":"ce4bhnp2rcd13ifvqgvg","pricing_plan_id":"cebpf4jnsgd1na2vs0mg"},{"bike_id":"af5b6f30-c1ae-41a8-8658-805682fdccfa","system_id":"levelo_inurba_marseille","lat":43.27492,"lon":5.42457,"is_reserved":false,"is_disabled":false,"rental_uris":{"android":"levelo://app?vid=af5b6f30-c1ae-41a8-8658-805682fdccfa","ios":"levelo://app?vid=af5b6f30-c1ae-41a8-8658-805682fdccfa"},"vehicle_type_id":"4","last_reported":1731921116,"current_range_meters":27600,"station_id":"ce4bhn92rcd13ifvqgrg","pricing_plan_id":"cebpf4jnsgd1na2vs0mg"},{"bike_id":"e4d33ed1-742f-49f3-adbf-78ac4798197d","system_id":"levelo_inurba_marseille","lat":43.295969,"lon":5.381039,"is_reserved":false,"is_disabled":false,"rental_uris":{"android":"levelo://app?vid=e4d33ed1-742f-49f3-adbf-78ac4798197d","ios":"levelo://app?vid=e4d33ed1-742f-49f3-adbf-78ac4798197d"},"vehicle_type_id":"4","last_reported":1731921116,"current_range_meters":26800,"station_id":"ce4bhqp2rcd13ifvqhng","pricing_plan_id":"cebpf4jnsgd1na2vs0mg"},{"bike_id":"2ec448d8-ab1e-4b5b-9ab7-4092c37c8982","system_id":"levelo_inurba_marseille","lat":43.3123,"lon":5.36853,"is_reserved":false,"is_disabled":false,"rental_uris":{"android":"levelo://app?vid=2ec448d8-ab1e-4b5b-9ab7-4092c37c8982","ios":"levelo://app?vid=2ec448d8-ab1e-4b5b-9ab7-4092c37c8982"},"vehicle_type_id":"4","last_reported":1731921116,"current_range_meters":38800,"station_id":"ce4bgl92rcd13ifvqbq0","pricing_plan_id":"cebpf4jnsgd1na2vs0mg"},{"bike_id":"94b96e1a-875a-4fb2-8a15-489944c1a547","system_id":"levelo_inurba_marseille","lat":43.26689,"lon":5.3827,"is_reserved":false,"is_disabled":false,"rental_uris":{"android":"levelo://app?vid=94b96e1a-875a-4fb2-8a15-489944c1a547","ios":"levelo://app?vid=94b96e1a-875a-4fb2-8a15-489944c1a547"},"vehicle_type_id":"4","last_reported":1731921116,"current_range_meters":19200,"station_id":"ce4bhg92rcd13ifvqf90","pricing_plan_id":"cebpf4jnsgd1na2vs0mg"},{"bike_id":"f78e874f-2bcc-46c3-917b-baae845142a0","system_id":"levelo_inurba_marseille","lat":43.27487,"lon":5.42466,"is_reserved":false,"is_disabled":false,"rental_uris":{"android":"levelo://app?vid=f78e874f-2bcc-46c3-917b-baae845142a0","ios":"levelo://app?vid=f78e874f-2bcc-46c3-917b-baae845142a0"},"vehicle_type_id":"4","last_reported":1731921116,"current_range_meters":36800,"station_id":"ce4bhn92rcd13ifvqgrg","pricing_plan_id":"cebpf4jnsgd1na2vs0mg"},{"bike_id":"859f92bc-1ac4-46af-8d7c-8f6933ceb861","system_id":"levelo_inurba_marseille","lat":43.29259,"lon":5.36852,"is_reserved":false,"is_disabled":false,"rental_uris":{"android":"levelo://app?vid=859f92bc-1ac4-46af-8d7c-8f6933ceb861","ios":"levelo://app?vid=859f92bc-1ac4-46af-8d7c-8f6933ceb861"},"vehicle_type_id":"4","last_reported":1731921116,"current_range_meters":38800,"station_id":"ce4bhbp2rcd13ifvqesg","pricing_plan_id":"cebpf4jnsgd1na2vs0mg"},{"bike_id":"a285ba96-20ce-4dd9-87ae-ab52a435dc05","system_id":"levelo_inurba_marseille","lat":43.27918,"lon":5.3958,"is_reserved":false,"is_disabled":false,"rental_uris":{"android":"levelo://app?vid=a285ba96-20ce-4dd9-87ae-ab52a435dc05","ios":"levelo://app?vid=a285ba96-20ce-4dd9-87ae-ab52a435dc05"},"vehicle_type_id":"4","last_reported":1731921116,"current_range_meters":26000,"station_id":"ce4bhf92rcd13ifvqf40","pricing_plan_id":"cebpf4jnsgd1na2vs0mg"},{"bike_id":"afd5e78f-339a-41d4-9c5d-45b35f2e47fe","system_id":"levelo_inurba_marseille","lat":43.31348,"lon":5.36711,"is_reserved":false,"is_disabled":false,"rental_uris":{"android":"levelo://app?vid=afd5e78f-339a-41d4-9c5d-45b35f2e47fe","ios":"levelo://app?vid=afd5e78f-339a-41d4-9c5d-45b35f2e47fe"},"vehicle_type_id":"4","last_reported":1731921116,"current_range_meters":25600,"station_id":"ce4bgr92rcd13ifvqc6g","pricing_plan_id":"cebpf4jnsgd1na2vs0mg"},{"bike_id":"e2c203eb-0b7a-4ea6-aa88-dc828ed3d5c8","system_id":"levelo_inurba_marseille","lat":43.30454,"lon":5.3791,"is_reserved":false,"is_disabled":false,"rental_uris":{"android":"levelo://app?vid=e2c203eb-0b7a-4ea6-aa88-dc828ed3d5c8","ios":"levelo://app?vid=e2c203eb-0b7a-4ea6-aa88-dc828ed3d5c8"},"vehicle_type_id":"4","last_reported":1731921116,"current_range_meters":11600,"station_id":"ce4bgup2rcd13ifvqcn0","pricing_plan_id":"cebpf4jnsgd1na2vs0mg"},{"bike_id":"68dc1293-6b00-4f99-a127-ef3af99b81d4","system_id":"levelo_inurba_marseille","lat":43.27498,"lon":5.42448,"is_reserved":false,"is_disabled":false,"rental_uris":{"android":"levelo://app?vid=68dc1293-6b00-4f99-a127-ef3af99b81d4","ios":"levelo://app?vid=68dc1293-6b00-4f99-a127-ef3af99b81d4"},"vehicle_type_id":"4","last_reported":1731921116,"current_range_meters":12000,"station_id":"ce4bhn92rcd13ifvqgrg","pricing_plan_id":"cebpf4jnsgd1na2vs0mg"},{"bike_id":"b5fc36e8-47ef-4440-b781-3c296a1b65f8","system_id":"levelo_inurba_marseille","lat":43.29625,"lon":5.37171,"is_reserved":false,"is_disabled":false,"rental_uris":{"android":"levelo://app?vid=b5fc36e8-47ef-4440-b781-3c296a1b65f8","ios":"levelo://app?vid=b5fc36e8-47ef-4440-b781-3c296a1b65f8"},"vehicle_type_id":"4","last_reported":1731921116,"current_range_meters":38000,"station_id":"ce4bgnh2rcd13ifvqc0g","pricing_plan_id":"cebpf4jnsgd1na2vs0mg"},{"bike_id":"e73206b1-cfd7-4ecb-ba5a-91c351b433ae","system_id":"levelo_inurba_marseille","lat":43.33598,"lon":5.41024,"is_reserved":false,"is_disabled":false,"rental_uris":{"android":"levelo://app?vid=e73206b1-cfd7-4ecb-ba5a-91c351b433ae","ios":"levelo://app?vid=e73206b1-cfd7-4ecb-ba5a-91c351b433ae"},"vehicle_type_id":"4","last_reported":1731921116,"current_range_meters":36400,"station_id":"ce4bhqh2rcd13ifvqhmg","pricing_plan_id":"cebpf4jnsgd1na2vs0mg"},{"bike_id":"6bbc3f81-6763-4e77-9d95-b76acead9852","system_id":"levelo_inurba_marseille","lat":43.31709,"lon":5.377473,"is_reserved":false,"is_disabled":false,"rental_uris":{"android":"levelo://app?vid=6bbc3f81-6763-4e77-9d95-b76acead9852","ios":"levelo://app?vid=6bbc3f81-6763-4e77-9d95-b76acead9852"},"vehicle_type_id":"4","last_reported":1731921116,"current_range_meters":37600,"station_id":"ce4bgn92rcd13ifvqbvg","pricing_plan_id":"cebpf4jnsgd1na2vs0mg"},{"bike_id":"44141cc5-6704-481a-92a4-25c2aa934978","system_id":"levelo_inurba_marseille","lat":43.28414,"lon":5.37524,"is_reserved":false,"is_disabled":false,"rental_uris":{"android":"levelo://app?vid=44141cc5-6704-481a-92a4-25c2aa934978","ios":"levelo://app?vid=44141cc5-6704-481a-92a4-25c2aa934978"},"vehicle_type_id":"4","last_reported":1731921116,"current_range_meters":37600,"station_id":"ce4bh412rcd13ifvqds0","pricing_plan_id":"cebpf4jnsgd1na2vs0mg"},{"bike_id":"3ddc5232-b0c8-451e-a70a-5f73f2c3bec2","system_id":"levelo_inurba_marseille","lat":43.30916,"lon":5.36847,"is_reserved":false,"is_disabled":false,"rental_uris":{"android":"levelo://app?vid=3ddc5232-b0c8-451e-a70a-5f73f2c3bec2","ios":"levelo://app?vid=3ddc5232-b0c8-451e-a70a-5f73f2c3bec2"},"vehicle_type_id":"4","last_reported":1731921116,"current_range_meters":28000,"station_id":"ce4bgn92rcd13ifvqbvg","pricing_plan_id":"cebpf4jnsgd1na2vs0mg"},{"bike_id":"116fb3bf-3b5e-4f55-93fd-bb70e208904a","system_id":"levelo_inurba_marseille","lat":43.2827,"lon":5.35057,"is_reserved":false,"is_disabled":false,"rental_uris":{"android":"levelo://app?vid=116fb3bf-3b5e-4f55-93fd-bb70e208904a","ios":"levelo://app?vid=116fb3bf-3b5e-4f55-93fd-bb70e208904a"},"vehicle_type_id":"4","last_reported":1731921116,"current_range_meters":11200,"station_id":"ce4bhbp2rcd13ifvqerg","pricing_plan_id":"cebpf4jnsgd1na2vs0mg"},{"bike_id":"8cdbbb9d-e54c-4963-8b6c-ba5d001805cc","system_id":"levelo_inurba_marseille","lat":43.28157,"lon":5.44224,"is_reserved":false,"is_disabled":false,"rental_uris":{"android":"levelo://app?vid=8cdbbb9d-e54c-4963-8b6c-ba5d001805cc","ios":"levelo://app?vid=8cdbbb9d-e54c-4963-8b6c-ba5d001805cc"},"vehicle_type_id":"4","last_reported":1731921116,"current_range_meters":30800,"station_id":"","pricing_plan_id":"cebpf4jnsgd1na2vs0mg"},{"bike_id":"9a9419bd-024d-4fd8-be41-9498ce169cb8","system_id":"levelo_inurba_marseille","lat":43.27495,"lon":5.42456,"is_reserved":false,"is_disabled":false,"rental_uris":{"android":"levelo://app?vid=9a9419bd-024d-4fd8-be41-9498ce169cb8","ios":"levelo://app?vid=9a9419bd-024d-4fd8-be41-9498ce169cb8"},"vehicle_type_id":"4","last_reported":1731921116,"current_range_meters":27600,"station_id":"ce4bhn92rcd13ifvqgrg","pricing_plan_id":"cebpf4jnsgd1na2vs0mg"},{"bike_id":"627267c9-1348-4cb3-88c3-2f2514fc4c79","system_id":"levelo_inurba_marseille","lat":43.24178,"lon":5.39729,"is_reserved":false,"is_disabled":false,"rental_uris":{"android":"levelo://app?vid=627267c9-1348-4cb3-88c3-2f2514fc4c79","ios":"levelo://app?vid=627267c9-1348-4cb3-88c3-2f2514fc4c79"},"vehicle_type_id":"4","last_reported":1731921116,"current_range_meters":32800,"station_id":"ce4bhn12rcd13ifvqgpg","pricing_plan_id":"cebpf4jnsgd1na2vs0mg"},{"bike_id":"9d0ff97e-4153-45c9-bb5a-0bdd6df51804","system_id":"levelo_inurba_marseille","lat":43.32488,"lon":5.36577,"is_reserved":false,"is_disabled":false,"rental_uris":{"android":"levelo://app?vid=9d0ff97e-4153-45c9-bb5a-0bdd6df51804","ios":"levelo://app?vid=9d0ff97e-4153-45c9-bb5a-0bdd6df51804"},"vehicle_type_id":"4","last_reported":1731921116,"current_range_meters":11200,"station_id":"ce4bhs12rcd13ifvqhvg","pricing_plan_id":"cebpf4jnsgd1na2vs0mg"},{"bike_id":"d5f98b52-c97f-47ca-82cc-ff1dabf90eb0","system_id":"levelo_inurba_marseille","lat":43.29233,"lon":5.36634,"is_reserved":false,"is_disabled":false,"rental_uris":{"android":"levelo://app?vid=d5f98b52-c97f-47ca-82cc-ff1dabf90eb0","ios":"levelo://app?vid=d5f98b52-c97f-47ca-82cc-ff1dabf90eb0"},"vehicle_type_id":"4","last_reported":1731921116,"current_range_meters":2000,"station_id":"","pricing_plan_id":"cebpf4jnsgd1na2vs0mg"},{"bike_id":"99e250a3-df4c-4b34-9509-c05720c8abf5","system_id":"levelo_inurba_marseille","lat":43.30538,"lon":5.36528,"is_reserved":false,"is_disabled":false,"rental_uris":{"android":"levelo://app?vid=99e250a3-df4c-4b34-9509-c05720c8abf5","ios":"levelo://app?vid=99e250a3-df4c-4b34-9509-c05720c8abf5"},"vehicle_type_id":"4","last_reported":1731921116,"current_range_meters":18000,"station_id":"ce4bgs12rcd13ifvqcag","pricing_plan_id":"cebpf4jnsgd1na2vs0mg"},{"bike_id":"20c2a3ef-5802-4bf3-806a-29ad3c9e8e37","system_id":"levelo_inurba_marseille","lat":43.24083,"lon":5.3775,"is_reserved":false,"is_disabled":false,"rental_uris":{"android":"levelo://app?vid=20c2a3ef-5802-4bf3-806a-29ad3c9e8e37","ios":"levelo://app?vid=20c2a3ef-5802-4bf3-806a-29ad3c9e8e37"},"vehicle_type_id":"4","last_reported":1731921116,"current_range_meters":36400,"station_id":"ce4bhnp2rcd13ifvqgvg","pricing_plan_id":"cebpf4jnsgd1na2vs0mg"},{"bike_id":"e9fddd88-3041-4832-a1df-44e589b3fc6d","system_id":"levelo_inurba_marseille","lat":43.30913,"lon":5.3685,"is_reserved":false,"is_disabled":false,"rental_uris":{"android":"levelo://app?vid=e9fddd88-3041-4832-a1df-44e589b3fc6d","ios":"levelo://app?vid=e9fddd88-3041-4832-a1df-44e589b3fc6d"},"vehicle_type_id":"4","last_reported":1731921116,"current_range_meters":32800,"station_id":"ce4bgn92rcd13ifvqbvg","pricing_plan_id":"cebpf4jnsgd1na2vs0mg"},{"bike_id":"2089e05e-a424-4565-85cd-3916a0f1cecd","system_id":"levelo_inurba_marseille","lat":43.29621,"lon":5.37162,"is_reserved":false,"is_disabled":false,"rental_uris":{"android":"levelo://app?vid=2089e05e-a424-4565-85cd-3916a0f1cecd","ios":"levelo://app?vid=2089e05e-a424-4565-85cd-3916a0f1cecd"},"vehicle_type_id":"4","last_reported":1731921116,"current_range_meters":38800,"station_id":"ce4bgnh2rcd13ifvqc0g","pricing_plan_id":"cebpf4jnsgd1na2vs0mg"},{"bike_id":"ce249102-5132-45ee-9b83-fc2ea0c15102","system_id":"levelo_inurba_marseille","lat":43.23153,"lon":5.4371,"is_reserved":false,"is_disabled":false,"rental_uris":{"android":"levelo://app?vid=ce249102-5132-45ee-9b83-fc2ea0c15102","ios":"levelo://app?vid=ce249102-5132-45ee-9b83-fc2ea0c15102"},"vehicle_type_id":"4","last_reported":1731921116,"current_range_meters":38000,"station_id":"ce4bhmp2rcd13ifvqgog","pricing_plan_id":"cebpf4jnsgd1na2vs0mg"},{"bike_id":"4f01fa73-c9c0-4fc0-986b-b2a94d270e4a","system_id":"levelo_inurba_marseille","lat":43.302519,"lon":5.400883,"is_reserved":false,"is_disabled":false,"rental_uris":{"android":"levelo://app?vid=4f01fa73-c9c0-4fc0-986b-b2a94d270e4a","ios":"levelo://app?vid=4f01fa73-c9c0-4fc0-986b-b2a94d270e4a"},"vehicle_type_id":"4","last_reported":1731921116,"current_range_meters":6400,"station_id":"ce4bgvh2rcd13ifvqcs0","pricing_plan_id":"cebpf4jnsgd1na2vs0mg"},{"bike_id":"6d757fef-4f26-43f9-ac2c-ffab39bf7dae","system_id":"levelo_inurba_marseille","lat":43.32249,"lon":5.36901,"is_reserved":false,"is_disabled":false,"rental_uris":{"android":"levelo://app?vid=6d757fef-4f26-43f9-ac2c-ffab39bf7dae","ios":"levelo://app?vid=6d757fef-4f26-43f9-ac2c-ffab39bf7dae"},"vehicle_type_id":"4","last_reported":1731921116,"current_range_meters":11600,"station_id":"","pricing_plan_id":"cebpf4jnsgd1na2vs0mg"},{"bike_id":"00b10178-2dd6-4b25-bd2f-3948b65be282","system_id":"levelo_inurba_marseille","lat":43.26195,"lon":5.3793,"is_reserved":false,"is_disabled":false,"rental_uris":{"android":"levelo://app?vid=00b10178-2dd6-4b25-bd2f-3948b65be282","ios":"levelo://app?vid=00b10178-2dd6-4b25-bd2f-3948b65be282"},"vehicle_type_id":"4","last_reported":1731921116,"current_range_meters":27600,"station_id":"ce4bhjp2rcd13ifvqg90","pricing_plan_id":"cebpf4jnsgd1na2vs0mg"},{"bike_id":"64db109c-dd7d-48fa-8530-8d60317c0b1c","system_id":"levelo_inurba_marseille","lat":43.27969,"lon":5.38719,"is_reserved":false,"is_disabled":false,"rental_uris":{"android":"levelo://app?vid=64db109c-dd7d-48fa-8530-8d60317c0b1c","ios":"levelo://app?vid=64db109c-dd7d-48fa-8530-8d60317c0b1c"},"vehicle_type_id":"4","last_reported":1731921116,"current_range_meters":11600,"station_id":"ce4bhg12rcd13ifvqf80","pricing_plan_id":"cebpf4jnsgd1na2vs0mg"},{"bike_id":"d21d17e7-2f48-45e6-a424-c15abbaa2ab7","system_id":"levelo_inurba_marseille","lat":43.24544,"lon":5.39525,"is_reserved":false,"is_disabled":false,"rental_uris":{"android":"levelo://app?vid=d21d17e7-2f48-45e6-a424-c15abbaa2ab7","ios":"levelo://app?vid=d21d17e7-2f48-45e6-a424-c15abbaa2ab7"},"vehicle_type_id":"4","last_reported":1731921116,"current_range_meters":22000,"station_id":"ce4bhlp2rcd13ifvqgjg","pricing_plan_id":"cebpf4jnsgd1na2vs0mg"},{"bike_id":"622276d4-65ce-432f-bbc3-abbf05c6b34b","system_id":"levelo_inurba_marseille","lat":43.279572,"lon":5.390821,"is_reserved":false,"is_disabled":false,"rental_uris":{"android":"levelo://app?vid=622276d4-65ce-432f-bbc3-abbf05c6b34b","ios":"levelo://app?vid=622276d4-65ce-432f-bbc3-abbf05c6b34b"},"vehicle_type_id":"4","last_reported":1731921116,"current_range_meters":28000,"station_id":"ce4bhjp2rcd13ifvqga0","pricing_plan_id":"cebpf4jnsgd1na2vs0mg"},{"bike_id":"3f4cfda2-06d7-42d5-a506-6b6eb38b77c3","system_id":"levelo_inurba_marseille","lat":43.29567,"lon":5.37506,"is_reserved":false,"is_disabled":false,"rental_uris":{"android":"levelo://app?vid=3f4cfda2-06d7-42d5-a506-6b6eb38b77c3","ios":"levelo://app?vid=3f4cfda2-06d7-42d5-a506-6b6eb38b77c3"},"vehicle_type_id":"4","last_reported":1731921116,"current_range_meters":38800,"station_id":"ce4bgh92rcd13ifvqb50","pricing_plan_id":"cebpf4jnsgd1na2vs0mg"},{"bike_id":"1ede608c-8dec-484d-9315-76e0e8eb111a","system_id":"levelo_inurba_marseille","lat":43.24082,"lon":5.37747,"is_reserved":false,"is_disabled":false,"rental_uris":{"android":"levelo://app?vid=1ede608c-8dec-484d-9315-76e0e8eb111a","ios":"levelo://app?vid=1ede608c-8dec-484d-9315-76e0e8eb111a"},"vehicle_type_id":"4","last_reported":1731921116,"current_range_meters":38000,"station_id":"ce4bhnp2rcd13ifvqgvg","pricing_plan_id":"cebpf4jnsgd1na2vs0mg"},{"bike_id":"ac3bebcc-f30d-4c18-8003-a4fa3ffa7f71","system_id":"levelo_inurba_marseille","lat":43.27368,"lon":5.36268,"is_reserved":false,"is_disabled":false,"rental_uris":{"android":"levelo://app?vid=ac3bebcc-f30d-4c18-8003-a4fa3ffa7f71","ios":"levelo://app?vid=ac3bebcc-f30d-4c18-8003-a4fa3ffa7f71"},"vehicle_type_id":"4","last_reported":1731921116,"current_range_meters":17600,"station_id":"ce4bhbh2rcd13ifvqeo0","pricing_plan_id":"cebpf4jnsgd1na2vs0mg"},{"bike_id":"6b8c4514-cb85-4a2a-9925-6fb4153b9632","system_id":"levelo_inurba_marseille","lat":43.29551,"lon":5.42288,"is_reserved":false,"is_disabled":false,"rental_uris":{"android":"levelo://app?vid=6b8c4514-cb85-4a2a-9925-6fb4153b9632","ios":"levelo://app?vid=6b8c4514-cb85-4a2a-9925-6fb4153b9632"},"vehicle_type_id":"4","last_reported":1731921116,"current_range_meters":32000,"station_id":"ce4bhph2rcd13ifvqhdg","pricing_plan_id":"cebpf4jnsgd1na2vs0mg"},{"bike_id":"6d77b5f5-39fc-4978-b291-938e334619d6","system_id":"levelo_inurba_marseille","lat":43.29624,"lon":5.37731,"is_reserved":false,"is_disabled":false,"rental_uris":{"android":"levelo://app?vid=6d77b5f5-39fc-4978-b291-938e334619d6","ios":"levelo://app?vid=6d77b5f5-39fc-4978-b291-938e334619d6"},"vehicle_type_id":"4","last_reported":1731921116,"current_range_meters":4800,"station_id":"ce4bgi92rcd13ifvqb90","pricing_plan_id":"cebpf4jnsgd1na2vs0mg"},{"bike_id":"e26ce045-d3b1-4c35-864f-60080b0c118f","system_id":"levelo_inurba_marseille","lat":43.29619,"lon":5.37171,"is_reserved":false,"is_disabled":false,"rental_uris":{"android":"levelo://app?vid=e26ce045-d3b1-4c35-864f-60080b0c118f","ios":"levelo://app?vid=e26ce045-d3b1-4c35-864f-60080b0c118f"},"vehicle_type_id":"4","last_reported":1731921116,"current_range_meters":38400,"station_id":"ce4bgnh2rcd13ifvqc0g","pricing_plan_id":"cebpf4jnsgd1na2vs0mg"},{"bike_id":"139a9c37-6b2f-43a0-9a41-400224b43309","system_id":"levelo_inurba_marseille","lat":43.24078,"lon":5.37758,"is_reserved":false,"is_disabled":false,"rental_uris":{"android":"levelo://app?vid=139a9c37-6b2f-43a0-9a41-400224b43309","ios":"levelo://app?vid=139a9c37-6b2f-43a0-9a41-400224b43309"},"vehicle_type_id":"4","last_reported":1731921116,"current_range_meters":27200,"station_id":"ce4bhnp2rcd13ifvqgvg","pricing_plan_id":"cebpf4jnsgd1na2vs0mg"},{"bike_id":"65ad3404-ca16-4ff6-a3da-345d3f802f80","system_id":"levelo_inurba_marseille","lat":43.24181,"lon":5.39733,"is_reserved":false,"is_disabled":false,"rental_uris":{"android":"levelo://app?vid=65ad3404-ca16-4ff6-a3da-345d3f802f80","ios":"levelo://app?vid=65ad3404-ca16-4ff6-a3da-345d3f802f80"},"vehicle_type_id":"4","last_reported":1731921116,"current_range_meters":28000,"station_id":"ce4bhn12rcd13ifvqgpg","pricing_plan_id":"cebpf4jnsgd1na2vs0mg"},{"bike_id":"30a7f999-986c-48a3-8ede-577b666edfcd","system_id":"levelo_inurba_marseille","lat":43.30917,"lon":5.36848,"is_reserved":false,"is_disabled":false,"rental_uris":{"android":"levelo://app?vid=30a7f999-986c-48a3-8ede-577b666edfcd","ios":"levelo://app?vid=30a7f999-986c-48a3-8ede-577b666edfcd"},"vehicle_type_id":"4","last_reported":1731921116,"current_range_meters":38800,"station_id":"ce4bgn92rcd13ifvqbvg","pricing_plan_id":"cebpf4jnsgd1na2vs0mg"},{"bike_id":"2b238d72-8129-40b8-a647-76de4a951ae7","system_id":"levelo_inurba_marseille","lat":43.24081,"lon":5.37744,"is_reserved":false,"is_disabled":false,"rental_uris":{"android":"levelo://app?vid=2b238d72-8129-40b8-a647-76de4a951ae7","ios":"levelo://app?vid=2b238d72-8129-40b8-a647-76de4a951ae7"},"vehicle_type_id":"4","last_reported":1731921116,"current_range_meters":38800,"station_id":"ce4bhnp2rcd13ifvqgvg","pricing_plan_id":"cebpf4jnsgd1na2vs0mg"},{"bike_id":"3769341f-c1d1-488d-917e-6a64e125fd91","system_id":"levelo_inurba_marseille","lat":43.25585,"lon":5.38229,"is_reserved":false,"is_disabled":false,"rental_uris":{"android":"levelo://app?vid=3769341f-c1d1-488d-917e-6a64e125fd91","ios":"levelo://app?vid=3769341f-c1d1-488d-917e-6a64e125fd91"},"vehicle_type_id":"4","last_reported":1731921116,"current_range_meters":31200,"station_id":"ce4bhih2rcd13ifvqfs0","pricing_plan_id":"cebpf4jnsgd1na2vs0mg"},{"bike_id":"aec0b06e-56ab-4d1e-a93d-b7e50b0667ba","system_id":"levelo_inurba_marseille","lat":43.30326,"lon":5.4044,"is_reserved":false,"is_disabled":false,"rental_uris":{"android":"levelo://app?vid=aec0b06e-56ab-4d1e-a93d-b7e50b0667ba","ios":"levelo://app?vid=aec0b06e-56ab-4d1e-a93d-b7e50b0667ba"},"vehicle_type_id":"4","last_reported":1731921116,"current_range_meters":22400,"station_id":"ce4bh012rcd13ifvqd10","pricing_plan_id":"cebpf4jnsgd1na2vs0mg"},{"bike_id":"6fadf99c-83cc-447e-90ed-daf038a752e5","system_id":"levelo_inurba_marseille","lat":43.29311,"lon":5.37177,"is_reserved":false,"is_disabled":false,"rental_uris":{"android":"levelo://app?vid=6fadf99c-83cc-447e-90ed-daf038a752e5","ios":"levelo://app?vid=6fadf99c-83cc-447e-90ed-daf038a752e5"},"vehicle_type_id":"4","last_reported":1731921116,"current_range_meters":13600,"station_id":"ce4bgh92rcd13ifvqb40","pricing_plan_id":"cebpf4jnsgd1na2vs0mg"},{"bike_id":"29e55333-bdb1-428d-bc57-5cae3f35ce27","system_id":"levelo_inurba_marseille","lat":43.29612,"lon":5.37714,"is_reserved":false,"is_disabled":false,"rental_uris":{"android":"levelo://app?vid=29e55333-bdb1-428d-bc57-5cae3f35ce27","ios":"levelo://app?vid=29e55333-bdb1-428d-bc57-5cae3f35ce27"},"vehicle_type_id":"4","last_reported":1731921116,"current_range_meters":23200,"station_id":"ce4bgi92rcd13ifvqb90","pricing_plan_id":"cebpf4jnsgd1na2vs0mg"},{"bike_id":"50df239a-daf7-409d-8e22-056be0028315","system_id":"levelo_inurba_marseille","lat":43.23152,"lon":5.43718,"is_reserved":false,"is_disabled":false,"rental_uris":{"android":"levelo://app?vid=50df239a-daf7-409d-8e22-056be0028315","ios":"levelo://app?vid=50df239a-daf7-409d-8e22-056be0028315"},"vehicle_type_id":"4","last_reported":1731921116,"current_range_meters":12400,"station_id":"ce4bhmp2rcd13ifvqgog","pricing_plan_id":"cebpf4jnsgd1na2vs0mg"},{"bike_id":"25cdb0fd-9acc-49ed-9993-6f3669b433f8","system_id":"levelo_inurba_marseille","lat":43.29921,"lon":5.37468,"is_reserved":false,"is_disabled":false,"rental_uris":{"android":"levelo://app?vid=25cdb0fd-9acc-49ed-9993-6f3669b433f8","ios":"levelo://app?vid=25cdb0fd-9acc-49ed-9993-6f3669b433f8"},"vehicle_type_id":"4","last_reported":1731921116,"current_range_meters":22000,"station_id":"ce4bgjh2rcd13ifvqbg0","pricing_plan_id":"cebpf4jnsgd1na2vs0mg"},{"bike_id":"38eaa893-4df3-47c8-8955-40a4a50dd910","system_id":"levelo_inurba_marseille","lat":43.25932,"lon":5.4091,"is_reserved":false,"is_disabled":false,"rental_uris":{"android":"levelo://app?vid=38eaa893-4df3-47c8-8955-40a4a50dd910","ios":"levelo://app?vid=38eaa893-4df3-47c8-8955-40a4a50dd910"},"vehicle_type_id":"4","last_reported":1731921116,"current_range_meters":25600,"station_id":"ce4bhm92rcd13ifvqglg","pricing_plan_id":"cebpf4jnsgd1na2vs0mg"},{"bike_id":"175cfb40-b309-4733-aeed-cf570c668760","system_id":"levelo_inurba_marseille","lat":43.30589,"lon":5.39345,"is_reserved":false,"is_disabled":false,"rental_uris":{"android":"levelo://app?vid=175cfb40-b309-4733-aeed-cf570c668760","ios":"levelo://app?vid=175cfb40-b309-4733-aeed-cf570c668760"},"vehicle_type_id":"4","last_reported":1731921116,"current_range_meters":34800,"station_id":"ce4bh0p2rcd13ifvqd80","pricing_plan_id":"cebpf4jnsgd1na2vs0mg"},{"bike_id":"ae4b2d56-ce70-4260-aa4a-74f42a8752ff","system_id":"levelo_inurba_marseille","lat":43.34141,"lon":5.40907,"is_reserved":false,"is_disabled":false,"rental_uris":{"android":"levelo://app?vid=ae4b2d56-ce70-4260-aa4a-74f42a8752ff","ios":"levelo://app?vid=ae4b2d56-ce70-4260-aa4a-74f42a8752ff"},"vehicle_type_id":"4","last_reported":1731921116,"current_range_meters":32800,"station_id":"ce4bhqh2rcd13ifvqhlg","pricing_plan_id":"cebpf4jnsgd1na2vs0mg"},{"bike_id":"f35eeb31-b5f0-4966-b0a6-ee7546729af8","system_id":"levelo_inurba_marseille","lat":43.30535,"lon":5.36556,"is_reserved":false,"is_disabled":false,"rental_uris":{"android":"levelo://app?vid=f35eeb31-b5f0-4966-b0a6-ee7546729af8","ios":"levelo://app?vid=f35eeb31-b5f0-4966-b0a6-ee7546729af8"},"vehicle_type_id":"4","last_reported":1731921116,"current_range_meters":38800,"station_id":"ce4bgs12rcd13ifvqcag","pricing_plan_id":"cebpf4jnsgd1na2vs0mg"},{"bike_id":"72364b8a-04ac-45d7-b3c8-fdbe73025294","system_id":"levelo_inurba_marseille","lat":43.30917,"lon":5.3685,"is_reserved":false,"is_disabled":false,"rental_uris":{"android":"levelo://app?vid=72364b8a-04ac-45d7-b3c8-fdbe73025294","ios":"levelo://app?vid=72364b8a-04ac-45d7-b3c8-fdbe73025294"},"vehicle_type_id":"4","last_reported":1731921116,"current_range_meters":24800,"station_id":"ce4bgn92rcd13ifvqbvg","pricing_plan_id":"cebpf4jnsgd1na2vs0mg"},{"bike_id":"1b441a5d-fcf3-4cb1-9707-fd87ad14e96d","system_id":"levelo_inurba_marseille","lat":43.24068,"lon":5.37762,"is_reserved":false,"is_disabled":false,"rental_uris":{"android":"levelo://app?vid=1b441a5d-fcf3-4cb1-9707-fd87ad14e96d","ios":"levelo://app?vid=1b441a5d-fcf3-4cb1-9707-fd87ad14e96d"},"vehicle_type_id":"4","last_reported":1731921116,"current_range_meters":16800,"station_id":"ce4bhnp2rcd13ifvqgvg","pricing_plan_id":"cebpf4jnsgd1na2vs0mg"},{"bike_id":"c433c96b-3fb5-4871-a453-71e9cc51fff0","system_id":"levelo_inurba_marseille","lat":43.30805,"lon":5.38179,"is_reserved":false,"is_disabled":false,"rental_uris":{"android":"levelo://app?vid=c433c96b-3fb5-4871-a453-71e9cc51fff0","ios":"levelo://app?vid=c433c96b-3fb5-4871-a453-71e9cc51fff0"},"vehicle_type_id":"4","last_reported":1731921116,"current_range_meters":22000,"station_id":"ce4bgt12rcd13ifvqce0","pricing_plan_id":"cebpf4jnsgd1na2vs0mg"},{"bike_id":"dc552ba3-76bf-4584-b9e0-cdc82c369ebd","system_id":"levelo_inurba_marseille","lat":43.337444,"lon":5.374475,"is_reserved":false,"is_disabled":false,"rental_uris":{"android":"levelo://app?vid=dc552ba3-76bf-4584-b9e0-cdc82c369ebd","ios":"levelo://app?vid=dc552ba3-76bf-4584-b9e0-cdc82c369ebd"},"vehicle_type_id":"4","last_reported":1731921116,"current_range_meters":35600,"station_id":"","pricing_plan_id":"cebpf4jnsgd1na2vs0mg"},{"bike_id":"22ea48db-755d-43c3-a7d2-0beff01815d8","system_id":"levelo_inurba_marseille","lat":43.30965,"lon":5.3907,"is_reserved":false,"is_disabled":false,"rental_uris":{"android":"levelo://app?vid=22ea48db-755d-43c3-a7d2-0beff01815d8","ios":"levelo://app?vid=22ea48db-755d-43c3-a7d2-0beff01815d8"},"vehicle_type_id":"4","last_reported":1731921116,"current_range_meters":4800,"station_id":"","pricing_plan_id":"cebpf4jnsgd1na2vs0mg"},{"bike_id":"10d64864-cb06-4542-9a64-4a9e76c76caa","system_id":"levelo_inurba_marseille","lat":43.26683,"lon":5.38263,"is_reserved":false,"is_disabled":false,"rental_uris":{"android":"levelo://app?vid=10d64864-cb06-4542-9a64-4a9e76c76caa","ios":"levelo://app?vid=10d64864-cb06-4542-9a64-4a9e76c76caa"},"vehicle_type_id":"4","last_reported":1731921116,"current_range_meters":26800,"station_id":"ce4bhg92rcd13ifvqf90","pricing_plan_id":"cebpf4jnsgd1na2vs0mg"},{"bike_id":"475290c4-27aa-445d-baab-c53c24b225ac","system_id":"levelo_inurba_marseille","lat":43.24548,"lon":5.39524,"is_reserved":false,"is_disabled":false,"rental_uris":{"android":"levelo://app?vid=475290c4-27aa-445d-baab-c53c24b225ac","ios":"levelo://app?vid=475290c4-27aa-445d-baab-c53c24b225ac"},"vehicle_type_id":"4","last_reported":1731921116,"current_range_meters":38800,"station_id":"ce4bhlp2rcd13ifvqgjg","pricing_plan_id":"cebpf4jnsgd1na2vs0mg"},{"bike_id":"9b4706ff-32ee-46e3-955f-2c6ac4edaaf6","system_id":"levelo_inurba_marseille","lat":43.31885,"lon":5.40738,"is_reserved":false,"is_disabled":false,"rental_uris":{"android":"levelo://app?vid=9b4706ff-32ee-46e3-955f-2c6ac4edaaf6","ios":"levelo://app?vid=9b4706ff-32ee-46e3-955f-2c6ac4edaaf6"},"vehicle_type_id":"4","last_reported":1731921116,"current_range_meters":22000,"station_id":"ce4bhq12rcd13ifvqhig","pricing_plan_id":"cebpf4jnsgd1na2vs0mg"},{"bike_id":"0c7483d4-e223-4c26-a83a-a4b9e7e6633e","system_id":"levelo_inurba_marseille","lat":43.26199,"lon":5.3793,"is_reserved":false,"is_disabled":false,"rental_uris":{"android":"levelo://app?vid=0c7483d4-e223-4c26-a83a-a4b9e7e6633e","ios":"levelo://app?vid=0c7483d4-e223-4c26-a83a-a4b9e7e6633e"},"vehicle_type_id":"4","last_reported":1731921116,"current_range_meters":33600,"station_id":"ce4bhjp2rcd13ifvqg90","pricing_plan_id":"cebpf4jnsgd1na2vs0mg"},{"bike_id":"7d8b8f62-ff43-4452-ac90-04f8aad69242","system_id":"levelo_inurba_marseille","lat":43.2957,"lon":5.37527,"is_reserved":false,"is_disabled":false,"rental_uris":{"android":"levelo://app?vid=7d8b8f62-ff43-4452-ac90-04f8aad69242","ios":"levelo://app?vid=7d8b8f62-ff43-4452-ac90-04f8aad69242"},"vehicle_type_id":"4","last_reported":1731921116,"current_range_meters":32800,"station_id":"ce4bgh92rcd13ifvqb50","pricing_plan_id":"cebpf4jnsgd1na2vs0mg"},{"bike_id":"e3d15ac3-7798-40b1-9b0a-7f1b6f5aba1e","system_id":"levelo_inurba_marseille","lat":43.28354,"lon":5.381,"is_reserved":false,"is_disabled":false,"rental_uris":{"android":"levelo://app?vid=e3d15ac3-7798-40b1-9b0a-7f1b6f5aba1e","ios":"levelo://app?vid=e3d15ac3-7798-40b1-9b0a-7f1b6f5aba1e"},"vehicle_type_id":"4","last_reported":1731921116,"current_range_meters":16000,"station_id":"ce4bh412rcd13ifvqdr0","pricing_plan_id":"cebpf4jnsgd1na2vs0mg"},{"bike_id":"ca655f3b-8380-4045-b3f8-8acaa0e83ede","system_id":"levelo_inurba_marseille","lat":43.33739,"lon":5.37423,"is_reserved":false,"is_disabled":false,"rental_uris":{"android":"levelo://app?vid=ca655f3b-8380-4045-b3f8-8acaa0e83ede","ios":"levelo://app?vid=ca655f3b-8380-4045-b3f8-8acaa0e83ede"},"vehicle_type_id":"4","last_reported":1731921116,"current_range_meters":28800,"station_id":"","pricing_plan_id":"cebpf4jnsgd1na2vs0mg"},{"bike_id":"7b27c454-a208-4b73-8bd0-ee8f6350f25e","system_id":"levelo_inurba_marseille","lat":43.29624,"lon":5.37168,"is_reserved":false,"is_disabled":false,"rental_uris":{"android":"levelo://app?vid=7b27c454-a208-4b73-8bd0-ee8f6350f25e","ios":"levelo://app?vid=7b27c454-a208-4b73-8bd0-ee8f6350f25e"},"vehicle_type_id":"4","last_reported":1731921116,"current_range_meters":38800,"station_id":"ce4bgnh2rcd13ifvqc0g","pricing_plan_id":"cebpf4jnsgd1na2vs0mg"},{"bike_id":"a6b8c285-acc9-4039-9531-1aae39136a33","system_id":"levelo_inurba_marseille","lat":43.312042,"lon":5.367348,"is_reserved":false,"is_disabled":false,"rental_uris":{"android":"levelo://app?vid=a6b8c285-acc9-4039-9531-1aae39136a33","ios":"levelo://app?vid=a6b8c285-acc9-4039-9531-1aae39136a33"},"vehicle_type_id":"4","last_reported":1731921116,"current_range_meters":6400,"station_id":"","pricing_plan_id":"cebpf4jnsgd1na2vs0mg"},{"bike_id":"34b9f970-27e7-43cb-bb06-ac9397ebf150","system_id":"levelo_inurba_marseille","lat":43.24086,"lon":5.37753,"is_reserved":false,"is_disabled":false,"rental_uris":{"android":"levelo://app?vid=34b9f970-27e7-43cb-bb06-ac9397ebf150","ios":"levelo://app?vid=34b9f970-27e7-43cb-bb06-ac9397ebf150"},"vehicle_type_id":"4","last_reported":1731921116,"current_range_meters":18800,"station_id":"ce4bhnp2rcd13ifvqgvg","pricing_plan_id":"cebpf4jnsgd1na2vs0mg"},{"bike_id":"248fb31d-3ca0-46c9-8be0-aa52f5f9174a","system_id":"levelo_inurba_marseille","lat":43.25941,"lon":5.40904,"is_reserved":false,"is_disabled":false,"rental_uris":{"android":"levelo://app?vid=248fb31d-3ca0-46c9-8be0-aa52f5f9174a","ios":"levelo://app?vid=248fb31d-3ca0-46c9-8be0-aa52f5f9174a"},"vehicle_type_id":"4","last_reported":1731921116,"current_range_meters":19200,"station_id":"ce4bhm92rcd13ifvqglg","pricing_plan_id":"cebpf4jnsgd1na2vs0mg"},{"bike_id":"d1fbc991-a48b-41ed-a778-bb3daa3dd802","system_id":"levelo_inurba_marseille","lat":43.26207,"lon":5.37921,"is_reserved":false,"is_disabled":false,"rental_uris":{"android":"levelo://app?vid=d1fbc991-a48b-41ed-a778-bb3daa3dd802","ios":"levelo://app?vid=d1fbc991-a48b-41ed-a778-bb3daa3dd802"},"vehicle_type_id":"4","last_reported":1731921116,"current_range_meters":36000,"station_id":"ce4bhjp2rcd13ifvqg90","pricing_plan_id":"cebpf4jnsgd1na2vs0mg"},{"bike_id":"9af3cdec-4f63-4439-b320-1cf5e6351989","system_id":"levelo_inurba_marseille","lat":43.26304,"lon":5.37391,"is_reserved":false,"is_disabled":false,"rental_uris":{"android":"levelo://app?vid=9af3cdec-4f63-4439-b320-1cf5e6351989","ios":"levelo://app?vid=9af3cdec-4f63-4439-b320-1cf5e6351989"},"vehicle_type_id":"4","last_reported":1731921116,"current_range_meters":27200,"station_id":"","pricing_plan_id":"cebpf4jnsgd1na2vs0mg"},{"bike_id":"30623e0d-666e-459c-8ee2-dd2be51ba16a","system_id":"levelo_inurba_marseille","lat":43.27991,"lon":5.40019,"is_reserved":false,"is_disabled":false,"rental_uris":{"android":"levelo://app?vid=30623e0d-666e-459c-8ee2-dd2be51ba16a","ios":"levelo://app?vid=30623e0d-666e-459c-8ee2-dd2be51ba16a"},"vehicle_type_id":"4","last_reported":1731921116,"current_range_meters":6800,"station_id":"ce4bho92rcd13ifvqh4g","pricing_plan_id":"cebpf4jnsgd1na2vs0mg"},{"bike_id":"e1a28b36-0717-4e37-be43-98104648c62b","system_id":"levelo_inurba_marseille","lat":43.24394,"lon":5.37065,"is_reserved":false,"is_disabled":false,"rental_uris":{"android":"levelo://app?vid=e1a28b36-0717-4e37-be43-98104648c62b","ios":"levelo://app?vid=e1a28b36-0717-4e37-be43-98104648c62b"},"vehicle_type_id":"4","last_reported":1731921116,"current_range_meters":6800,"station_id":"ce4bhhh2rcd13ifvqfk0","pricing_plan_id":"cebpf4jnsgd1na2vs0mg"},{"bike_id":"7f76cb89-fb75-4866-819c-b40569c58e7e","system_id":"levelo_inurba_marseille","lat":43.23154,"lon":5.4371,"is_reserved":false,"is_disabled":false,"rental_uris":{"android":"levelo://app?vid=7f76cb89-fb75-4866-819c-b40569c58e7e","ios":"levelo://app?vid=7f76cb89-fb75-4866-819c-b40569c58e7e"},"vehicle_type_id":"4","last_reported":1731921116,"current_range_meters":22000,"station_id":"ce4bhmp2rcd13ifvqgog","pricing_plan_id":"cebpf4jnsgd1na2vs0mg"},{"bike_id":"baa6cefb-fc3d-4571-b79c-5b644e6e44ab","system_id":"levelo_inurba_marseille","lat":43.2315,"lon":5.43722,"is_reserved":false,"is_disabled":false,"rental_uris":{"android":"levelo://app?vid=baa6cefb-fc3d-4571-b79c-5b644e6e44ab","ios":"levelo://app?vid=baa6cefb-fc3d-4571-b79c-5b644e6e44ab"},"vehicle_type_id":"4","last_reported":1731921116,"current_range_meters":3200,"station_id":"ce4bhmp2rcd13ifvqgog","pricing_plan_id":"cebpf4jnsgd1na2vs0mg"},{"bike_id":"c51f4d7b-b912-4619-a0f6-68e640c96bcd","system_id":"levelo_inurba_marseille","lat":43.31357,"lon":5.36702,"is_reserved":false,"is_disabled":false,"rental_uris":{"android":"levelo://app?vid=c51f4d7b-b912-4619-a0f6-68e640c96bcd","ios":"levelo://app?vid=c51f4d7b-b912-4619-a0f6-68e640c96bcd"},"vehicle_type_id":"4","last_reported":1731921116,"current_range_meters":38000,"station_id":"ce4bgr92rcd13ifvqc6g","pricing_plan_id":"cebpf4jnsgd1na2vs0mg"},{"bike_id":"92ac4858-87d6-4ceb-8f6e-004635a816a8","system_id":"levelo_inurba_marseille","lat":43.27789,"lon":5.40729,"is_reserved":false,"is_disabled":false,"rental_uris":{"android":"levelo://app?vid=92ac4858-87d6-4ceb-8f6e-004635a816a8","ios":"levelo://app?vid=92ac4858-87d6-4ceb-8f6e-004635a816a8"},"vehicle_type_id":"4","last_reported":1731921116,"current_range_meters":23200,"station_id":"ce4bhnh2rcd13ifvqgtg","pricing_plan_id":"cebpf4jnsgd1na2vs0mg"},{"bike_id":"572a529d-17df-428a-8559-25c61be47740","system_id":"levelo_inurba_marseille","lat":43.29261,"lon":5.38441,"is_reserved":false,"is_disabled":false,"rental_uris":{"android":"levelo://app?vid=572a529d-17df-428a-8559-25c61be47740","ios":"levelo://app?vid=572a529d-17df-428a-8559-25c61be47740"},"vehicle_type_id":"4","last_reported":1731921116,"current_range_meters":22800,"station_id":"ce4bh692rcd13ifvqea0","pricing_plan_id":"cebpf4jnsgd1na2vs0mg"},{"bike_id":"bf5881fa-4d9d-4dc8-b253-41223199274e","system_id":"levelo_inurba_marseille","lat":43.24177,"lon":5.39724,"is_reserved":false,"is_disabled":false,"rental_uris":{"android":"levelo://app?vid=bf5881fa-4d9d-4dc8-b253-41223199274e","ios":"levelo://app?vid=bf5881fa-4d9d-4dc8-b253-41223199274e"},"vehicle_type_id":"4","last_reported":1731921116,"current_range_meters":38800,"station_id":"ce4bhn12rcd13ifvqgpg","pricing_plan_id":"cebpf4jnsgd1na2vs0mg"},{"bike_id":"337f1eb0-61d8-417a-bf46-02de0019fcfa","system_id":"levelo_inurba_marseille","lat":43.29227,"lon":5.36074,"is_reserved":false,"is_disabled":false,"rental_uris":{"android":"levelo://app?vid=337f1eb0-61d8-417a-bf46-02de0019fcfa","ios":"levelo://app?vid=337f1eb0-61d8-417a-bf46-02de0019fcfa"},"vehicle_type_id":"4","last_reported":1731921116,"current_range_meters":37600,"station_id":"ce4bhbh2rcd13ifvqeqg","pricing_plan_id":"cebpf4jnsgd1na2vs0mg"},{"bike_id":"ec2351d1-10f8-43e0-aebc-df5382abbad8","system_id":"levelo_inurba_marseille","lat":43.23143,"lon":5.43711,"is_reserved":false,"is_disabled":false,"rental_uris":{"android":"levelo://app?vid=ec2351d1-10f8-43e0-aebc-df5382abbad8","ios":"levelo://app?vid=ec2351d1-10f8-43e0-aebc-df5382abbad8"},"vehicle_type_id":"4","last_reported":1731921116,"current_range_meters":22800,"station_id":"ce4bhmp2rcd13ifvqgog","pricing_plan_id":"cebpf4jnsgd1na2vs0mg"},{"bike_id":"3689e074-8187-427f-8154-582ef4d7e503","system_id":"levelo_inurba_marseille","lat":43.27569,"lon":5.38441,"is_reserved":false,"is_disabled":false,"rental_uris":{"android":"levelo://app?vid=3689e074-8187-427f-8154-582ef4d7e503","ios":"levelo://app?vid=3689e074-8187-427f-8154-582ef4d7e503"},"vehicle_type_id":"4","last_reported":1731921116,"current_range_meters":32800,"station_id":"ce4bhh92rcd13ifvqfi0","pricing_plan_id":"cebpf4jnsgd1na2vs0mg"},{"bike_id":"bd7a5998-a113-43e0-be50-e202f61f06f9","system_id":"levelo_inurba_marseille","lat":43.28422,"lon":5.34998,"is_reserved":false,"is_disabled":false,"rental_uris":{"android":"levelo://app?vid=bd7a5998-a113-43e0-be50-e202f61f06f9","ios":"levelo://app?vid=bd7a5998-a113-43e0-be50-e202f61f06f9"},"vehicle_type_id":"4","last_reported":1731921116,"current_range_meters":12000,"station_id":"ce4bhbh2rcd13ifvqepg","pricing_plan_id":"cebpf4jnsgd1na2vs0mg"},{"bike_id":"7465bc4b-7341-47ef-959d-45c0a1d37e4c","system_id":"levelo_inurba_marseille","lat":43.24079,"lon":5.37732,"is_reserved":false,"is_disabled":false,"rental_uris":{"android":"levelo://app?vid=7465bc4b-7341-47ef-959d-45c0a1d37e4c","ios":"levelo://app?vid=7465bc4b-7341-47ef-959d-45c0a1d37e4c"},"vehicle_type_id":"4","last_reported":1731921116,"current_range_meters":25200,"station_id":"ce4bhnp2rcd13ifvqgvg","pricing_plan_id":"cebpf4jnsgd1na2vs0mg"},{"bike_id":"827526a7-1cd2-4cdc-9740-44acb0c0d667","system_id":"levelo_inurba_marseille","lat":43.28158,"lon":5.42643,"is_reserved":false,"is_disabled":false,"rental_uris":{"android":"levelo://app?vid=827526a7-1cd2-4cdc-9740-44acb0c0d667","ios":"levelo://app?vid=827526a7-1cd2-4cdc-9740-44acb0c0d667"},"vehicle_type_id":"4","last_reported":1731921116,"current_range_meters":35600,"station_id":"ce4bhnh2rcd13ifvqgug","pricing_plan_id":"cebpf4jnsgd1na2vs0mg"},{"bike_id":"8f426890-14c3-4f84-af0e-ede85f28b7aa","system_id":"levelo_inurba_marseille","lat":43.23148,"lon":5.4372,"is_reserved":false,"is_disabled":false,"rental_uris":{"android":"levelo://app?vid=8f426890-14c3-4f84-af0e-ede85f28b7aa","ios":"levelo://app?vid=8f426890-14c3-4f84-af0e-ede85f28b7aa"},"vehicle_type_id":"4","last_reported":1731921116,"current_range_meters":19600,"station_id":"ce4bhmp2rcd13ifvqgog","pricing_plan_id":"cebpf4jnsgd1na2vs0mg"},{"bike_id":"e642cba8-47b5-402d-beac-a365c34fa126","system_id":"levelo_inurba_marseille","lat":43.30282,"lon":5.37705,"is_reserved":false,"is_disabled":false,"rental_uris":{"android":"levelo://app?vid=e642cba8-47b5-402d-beac-a365c34fa126","ios":"levelo://app?vid=e642cba8-47b5-402d-beac-a365c34fa126"},"vehicle_type_id":"4","last_reported":1731921116,"current_range_meters":35600,"station_id":"ce4bguh2rcd13ifvqcj0","pricing_plan_id":"cebpf4jnsgd1na2vs0mg"},{"bike_id":"25e9b8f0-4e43-46b3-a670-6cc0b06ff3f8","system_id":"levelo_inurba_marseille","lat":43.33599,"lon":5.41033,"is_reserved":false,"is_disabled":false,"rental_uris":{"android":"levelo://app?vid=25e9b8f0-4e43-46b3-a670-6cc0b06ff3f8","ios":"levelo://app?vid=25e9b8f0-4e43-46b3-a670-6cc0b06ff3f8"},"vehicle_type_id":"4","last_reported":1731921116,"current_range_meters":6400,"station_id":"ce4bhqh2rcd13ifvqhmg","pricing_plan_id":"cebpf4jnsgd1na2vs0mg"},{"bike_id":"264fdb9c-80e3-44be-8463-62f7b0470c33","system_id":"levelo_inurba_marseille","lat":43.2904,"lon":5.37568,"is_reserved":false,"is_disabled":false,"rental_uris":{"android":"levelo://app?vid=264fdb9c-80e3-44be-8463-62f7b0470c33","ios":"levelo://app?vid=264fdb9c-80e3-44be-8463-62f7b0470c33"},"vehicle_type_id":"4","last_reported":1731921116,"current_range_meters":28400,"station_id":"ce4bh692rcd13ifvqe90","pricing_plan_id":"cebpf4jnsgd1na2vs0mg"},{"bike_id":"fcc3bb46-7516-43b0-811a-0a0d7e3d2379","system_id":"levelo_inurba_marseille","lat":43.31231,"lon":5.36858,"is_reserved":false,"is_disabled":false,"rental_uris":{"android":"levelo://app?vid=fcc3bb46-7516-43b0-811a-0a0d7e3d2379","ios":"levelo://app?vid=fcc3bb46-7516-43b0-811a-0a0d7e3d2379"},"vehicle_type_id":"4","last_reported":1731921116,"current_range_meters":27600,"station_id":"ce4bgl92rcd13ifvqbq0","pricing_plan_id":"cebpf4jnsgd1na2vs0mg"},{"bike_id":"a52bbc5d-d184-467e-ab4f-33c0d102b9d1","system_id":"levelo_inurba_marseille","lat":43.29609,"lon":5.38105,"is_reserved":false,"is_disabled":false,"rental_uris":{"android":"levelo://app?vid=a52bbc5d-d184-467e-ab4f-33c0d102b9d1","ios":"levelo://app?vid=a52bbc5d-d184-467e-ab4f-33c0d102b9d1"},"vehicle_type_id":"4","last_reported":1731921116,"current_range_meters":26000,"station_id":"ce4bgl12rcd13ifvqbo0","pricing_plan_id":"cebpf4jnsgd1na2vs0mg"},{"bike_id":"d6204a94-8517-4454-be65-f1c360ad1702","system_id":"levelo_inurba_marseille","lat":43.24079,"lon":5.37754,"is_reserved":false,"is_disabled":false,"rental_uris":{"android":"levelo://app?vid=d6204a94-8517-4454-be65-f1c360ad1702","ios":"levelo://app?vid=d6204a94-8517-4454-be65-f1c360ad1702"},"vehicle_type_id":"4","last_reported":1731921116,"current_range_meters":38800,"station_id":"ce4bhnp2rcd13ifvqgvg","pricing_plan_id":"cebpf4jnsgd1na2vs0mg"},{"bike_id":"d8e8b981-42e2-475f-b097-cf09e75e8523","system_id":"levelo_inurba_marseille","lat":43.28607,"lon":5.37064,"is_reserved":false,"is_disabled":false,"rental_uris":{"android":"levelo://app?vid=d8e8b981-42e2-475f-b097-cf09e75e8523","ios":"levelo://app?vid=d8e8b981-42e2-475f-b097-cf09e75e8523"},"vehicle_type_id":"4","last_reported":1731921116,"current_range_meters":22400,"station_id":"ce4bht12rcd13ifvqi60","pricing_plan_id":"cebpf4jnsgd1na2vs0mg"},{"bike_id":"ab1a86e9-035a-4e03-aeff-cf4adae551f2","system_id":"levelo_inurba_marseille","lat":43.30279,"lon":5.37725,"is_reserved":false,"is_disabled":false,"rental_uris":{"android":"levelo://app?vid=ab1a86e9-035a-4e03-aeff-cf4adae551f2","ios":"levelo://app?vid=ab1a86e9-035a-4e03-aeff-cf4adae551f2"},"vehicle_type_id":"4","last_reported":1731921116,"current_range_meters":9200,"station_id":"ce4bguh2rcd13ifvqcj0","pricing_plan_id":"cebpf4jnsgd1na2vs0mg"},{"bike_id":"2ad42d3c-6132-4b7f-813e-b871c0709eff","system_id":"levelo_inurba_marseille","lat":43.269551,"lon":5.393115,"is_reserved":false,"is_disabled":false,"rental_uris":{"android":"levelo://app?vid=2ad42d3c-6132-4b7f-813e-b871c0709eff","ios":"levelo://app?vid=2ad42d3c-6132-4b7f-813e-b871c0709eff"},"vehicle_type_id":"4","last_reported":1731921116,"current_range_meters":34800,"station_id":"ce4bhh92rcd13ifvqfj0","pricing_plan_id":"cebpf4jnsgd1na2vs0mg"},{"bike_id":"5d24bcdf-bdef-45b8-b14b-84394ef73b09","system_id":"levelo_inurba_marseille","lat":43.30515,"lon":5.3808,"is_reserved":false,"is_disabled":false,"rental_uris":{"android":"levelo://app?vid=5d24bcdf-bdef-45b8-b14b-84394ef73b09","ios":"levelo://app?vid=5d24bcdf-bdef-45b8-b14b-84394ef73b09"},"vehicle_type_id":"4","last_reported":1731921116,"current_range_meters":38800,"station_id":"","pricing_plan_id":"cebpf4jnsgd1na2vs0mg"},{"bike_id":"3dec45fa-fd38-4d32-b0cf-c2f042923fdb","system_id":"levelo_inurba_marseille","lat":43.30464,"lon":5.37901,"is_reserved":false,"is_disabled":false,"rental_uris":{"android":"levelo://app?vid=3dec45fa-fd38-4d32-b0cf-c2f042923fdb","ios":"levelo://app?vid=3dec45fa-fd38-4d32-b0cf-c2f042923fdb"},"vehicle_type_id":"4","last_reported":1731921116,"current_range_meters":28000,"station_id":"ce4bgup2rcd13ifvqcn0","pricing_plan_id":"cebpf4jnsgd1na2vs0mg"},{"bike_id":"8f191948-4a07-47c7-9f04-5e1f6813a104","system_id":"levelo_inurba_marseille","lat":43.29649,"lon":5.37648,"is_reserved":false,"is_disabled":false,"rental_uris":{"android":"levelo://app?vid=8f191948-4a07-47c7-9f04-5e1f6813a104","ios":"levelo://app?vid=8f191948-4a07-47c7-9f04-5e1f6813a104"},"vehicle_type_id":"4","last_reported":1731921116,"current_range_meters":4000,"station_id":"","pricing_plan_id":"cebpf4jnsgd1na2vs0mg"},{"bike_id":"87f58e9f-e18d-409c-8168-78f2c4bfa6a2","system_id":"levelo_inurba_marseille","lat":43.33753,"lon":5.37473,"is_reserved":false,"is_disabled":false,"rental_uris":{"android":"levelo://app?vid=87f58e9f-e18d-409c-8168-78f2c4bfa6a2","ios":"levelo://app?vid=87f58e9f-e18d-409c-8168-78f2c4bfa6a2"},"vehicle_type_id":"4","last_reported":1731921116,"current_range_meters":38000,"station_id":"","pricing_plan_id":"cebpf4jnsgd1na2vs0mg"},{"bike_id":"58d83d33-4be5-4c97-9849-087bf9e4a010","system_id":"levelo_inurba_marseille","lat":43.27419,"lon":5.39405,"is_reserved":false,"is_disabled":false,"rental_uris":{"android":"levelo://app?vid=58d83d33-4be5-4c97-9849-087bf9e4a010","ios":"levelo://app?vid=58d83d33-4be5-4c97-9849-087bf9e4a010"},"vehicle_type_id":"4","last_reported":1731921116,"current_range_meters":30800,"station_id":"ce4bhdp2rcd13ifvqf20","pricing_plan_id":"cebpf4jnsgd1na2vs0mg"},{"bike_id":"9c76086f-2b7c-4c05-a2a1-dd39b01560e6","system_id":"levelo_inurba_marseille","lat":43.310699,"lon":5.383547,"is_reserved":false,"is_disabled":false,"rental_uris":{"android":"levelo://app?vid=9c76086f-2b7c-4c05-a2a1-dd39b01560e6","ios":"levelo://app?vid=9c76086f-2b7c-4c05-a2a1-dd39b01560e6"},"vehicle_type_id":"4","last_reported":1731921116,"current_range_meters":16400,"station_id":"ce4bgv92rcd13ifvqcr0","pricing_plan_id":"cebpf4jnsgd1na2vs0mg"},{"bike_id":"a9cd42f2-97ab-47bc-95b5-e9ed64ecb7da","system_id":"levelo_inurba_marseille","lat":43.30952,"lon":5.39054,"is_reserved":false,"is_disabled":false,"rental_uris":{"android":"levelo://app?vid=a9cd42f2-97ab-47bc-95b5-e9ed64ecb7da","ios":"levelo://app?vid=a9cd42f2-97ab-47bc-95b5-e9ed64ecb7da"},"vehicle_type_id":"4","last_reported":1731921116,"current_range_meters":32000,"station_id":"ce4bgup2rcd13ifvqco0","pricing_plan_id":"cebpf4jnsgd1na2vs0mg"},{"bike_id":"9e0fe9ed-dad6-4dfe-8841-c783d6cac338","system_id":"levelo_inurba_marseille","lat":43.24085,"lon":5.37749,"is_reserved":false,"is_disabled":false,"rental_uris":{"android":"levelo://app?vid=9e0fe9ed-dad6-4dfe-8841-c783d6cac338","ios":"levelo://app?vid=9e0fe9ed-dad6-4dfe-8841-c783d6cac338"},"vehicle_type_id":"4","last_reported":1731921116,"current_range_meters":19600,"station_id":"ce4bhnp2rcd13ifvqgvg","pricing_plan_id":"cebpf4jnsgd1na2vs0mg"},{"bike_id":"779847a0-87ba-4ae8-a887-7cbf3818a3e9","system_id":"levelo_inurba_marseille","lat":43.28653,"lon":5.36354,"is_reserved":false,"is_disabled":false,"rental_uris":{"android":"levelo://app?vid=779847a0-87ba-4ae8-a887-7cbf3818a3e9","ios":"levelo://app?vid=779847a0-87ba-4ae8-a887-7cbf3818a3e9"},"vehicle_type_id":"4","last_reported":1731921116,"current_range_meters":29600,"station_id":"ce4bhah2rcd13ifvqej0","pricing_plan_id":"cebpf4jnsgd1na2vs0mg"},{"bike_id":"80021477-a82e-4788-93f9-a1be5b876083","system_id":"levelo_inurba_marseille","lat":43.27494,"lon":5.42461,"is_reserved":false,"is_disabled":false,"rental_uris":{"android":"levelo://app?vid=80021477-a82e-4788-93f9-a1be5b876083","ios":"levelo://app?vid=80021477-a82e-4788-93f9-a1be5b876083"},"vehicle_type_id":"4","last_reported":1731921116,"current_range_meters":24400,"station_id":"ce4bhn92rcd13ifvqgrg","pricing_plan_id":"cebpf4jnsgd1na2vs0mg"},{"bike_id":"022f478e-da93-4eda-9d1b-2d0e36905c07","system_id":"levelo_inurba_marseille","lat":43.30913,"lon":5.39001,"is_reserved":false,"is_disabled":false,"rental_uris":{"android":"levelo://app?vid=022f478e-da93-4eda-9d1b-2d0e36905c07","ios":"levelo://app?vid=022f478e-da93-4eda-9d1b-2d0e36905c07"},"vehicle_type_id":"4","last_reported":1731921116,"current_range_meters":8000,"station_id":"","pricing_plan_id":"cebpf4jnsgd1na2vs0mg"},{"bike_id":"3c7108fb-85fe-43b6-95ce-e6a5e6d34b1a","system_id":"levelo_inurba_marseille","lat":43.33719,"lon":5.39174,"is_reserved":false,"is_disabled":false,"rental_uris":{"android":"levelo://app?vid=3c7108fb-85fe-43b6-95ce-e6a5e6d34b1a","ios":"levelo://app?vid=3c7108fb-85fe-43b6-95ce-e6a5e6d34b1a"},"vehicle_type_id":"4","last_reported":1731921116,"current_range_meters":25200,"station_id":"ce4bhr92rcd13ifvqhsg","pricing_plan_id":"cebpf4jnsgd1na2vs0mg"},{"bike_id":"355c0a0b-84bd-4fdf-b751-29022c418da1","system_id":"levelo_inurba_marseille","lat":43.28978,"lon":5.37825,"is_reserved":false,"is_disabled":false,"rental_uris":{"android":"levelo://app?vid=355c0a0b-84bd-4fdf-b751-29022c418da1","ios":"levelo://app?vid=355c0a0b-84bd-4fdf-b751-29022c418da1"},"vehicle_type_id":"4","last_reported":1731921116,"current_range_meters":38800,"station_id":"ce4bh9p2rcd13ifvqed0","pricing_plan_id":"cebpf4jnsgd1na2vs0mg"},{"bike_id":"43155b5a-94b8-41f8-b3fe-ed8339ffbcce","system_id":"levelo_inurba_marseille","lat":43.27493,"lon":5.42453,"is_reserved":false,"is_disabled":false,"rental_uris":{"android":"levelo://app?vid=43155b5a-94b8-41f8-b3fe-ed8339ffbcce","ios":"levelo://app?vid=43155b5a-94b8-41f8-b3fe-ed8339ffbcce"},"vehicle_type_id":"4","last_reported":1731921116,"current_range_meters":38000,"station_id":"ce4bhn92rcd13ifvqgrg","pricing_plan_id":"cebpf4jnsgd1na2vs0mg"},{"bike_id":"59401be2-5718-4be8-82ee-8365723c5b07","system_id":"levelo_inurba_marseille","lat":43.30135,"lon":5.37424,"is_reserved":false,"is_disabled":false,"rental_uris":{"android":"levelo://app?vid=59401be2-5718-4be8-82ee-8365723c5b07","ios":"levelo://app?vid=59401be2-5718-4be8-82ee-8365723c5b07"},"vehicle_type_id":"4","last_reported":1731921116,"current_range_meters":9600,"station_id":"ce4bgs92rcd13ifvqcc0","pricing_plan_id":"cebpf4jnsgd1na2vs0mg"},{"bike_id":"bbdcf459-90e2-40fb-a849-ef118cb30e13","system_id":"levelo_inurba_marseille","lat":43.28483,"lon":5.38539,"is_reserved":false,"is_disabled":false,"rental_uris":{"android":"levelo://app?vid=bbdcf459-90e2-40fb-a849-ef118cb30e13","ios":"levelo://app?vid=bbdcf459-90e2-40fb-a849-ef118cb30e13"},"vehicle_type_id":"4","last_reported":1731921116,"current_range_meters":24400,"station_id":"ce4bh8p2rcd13ifvqeb0","pricing_plan_id":"cebpf4jnsgd1na2vs0mg"},{"bike_id":"cfc417db-eb20-46fa-87f4-fca85d0c4d1d","system_id":"levelo_inurba_marseille","lat":43.27487,"lon":5.42463,"is_reserved":false,"is_disabled":false,"rental_uris":{"android":"levelo://app?vid=cfc417db-eb20-46fa-87f4-fca85d0c4d1d","ios":"levelo://app?vid=cfc417db-eb20-46fa-87f4-fca85d0c4d1d"},"vehicle_type_id":"4","last_reported":1731921116,"current_range_meters":15200,"station_id":"ce4bhn92rcd13ifvqgrg","pricing_plan_id":"cebpf4jnsgd1na2vs0mg"},{"bike_id":"f49513e7-30c7-4252-8b86-3e9942468020","system_id":"levelo_inurba_marseille","lat":43.30603,"lon":5.37236,"is_reserved":false,"is_disabled":false,"rental_uris":{"android":"levelo://app?vid=f49513e7-30c7-4252-8b86-3e9942468020","ios":"levelo://app?vid=f49513e7-30c7-4252-8b86-3e9942468020"},"vehicle_type_id":"4","last_reported":1731921116,"current_range_meters":19200,"station_id":"ce4bgqh2rcd13ifvqc4g","pricing_plan_id":"cebpf4jnsgd1na2vs0mg"},{"bike_id":"f5c7633a-037d-462c-ab25-cfd4428bffaa","system_id":"levelo_inurba_marseille","lat":43.30964,"lon":5.39042,"is_reserved":false,"is_disabled":false,"rental_uris":{"android":"levelo://app?vid=f5c7633a-037d-462c-ab25-cfd4428bffaa","ios":"levelo://app?vid=f5c7633a-037d-462c-ab25-cfd4428bffaa"},"vehicle_type_id":"4","last_reported":1731921116,"current_range_meters":20800,"station_id":"ce4bgup2rcd13ifvqco0","pricing_plan_id":"cebpf4jnsgd1na2vs0mg"},{"bike_id":"a3d98d77-92cc-4a58-b469-0632bebf6c0a","system_id":"levelo_inurba_marseille","lat":43.24411,"lon":5.40331,"is_reserved":false,"is_disabled":false,"rental_uris":{"android":"levelo://app?vid=a3d98d77-92cc-4a58-b469-0632bebf6c0a","ios":"levelo://app?vid=a3d98d77-92cc-4a58-b469-0632bebf6c0a"},"vehicle_type_id":"4","last_reported":1731921116,"current_range_meters":3200,"station_id":"","pricing_plan_id":"cebpf4jnsgd1na2vs0mg"},{"bike_id":"ddf3c492-94d5-4348-9e99-fe5014601706","system_id":"levelo_inurba_marseille","lat":43.31363,"lon":5.3672,"is_reserved":false,"is_disabled":false,"rental_uris":{"android":"levelo://app?vid=ddf3c492-94d5-4348-9e99-fe5014601706","ios":"levelo://app?vid=ddf3c492-94d5-4348-9e99-fe5014601706"},"vehicle_type_id":"4","last_reported":1731921116,"current_range_meters":11200,"station_id":"ce4bgr92rcd13ifvqc6g","pricing_plan_id":"cebpf4jnsgd1na2vs0mg"},{"bike_id":"3bd95869-13c4-4f5d-a1bd-0d40cdc02ae6","system_id":"levelo_inurba_marseille","lat":43.30142,"lon":5.37417,"is_reserved":false,"is_disabled":false,"rental_uris":{"android":"levelo://app?vid=3bd95869-13c4-4f5d-a1bd-0d40cdc02ae6","ios":"levelo://app?vid=3bd95869-13c4-4f5d-a1bd-0d40cdc02ae6"},"vehicle_type_id":"4","last_reported":1731921116,"current_range_meters":38000,"station_id":"ce4bgs92rcd13ifvqcc0","pricing_plan_id":"cebpf4jnsgd1na2vs0mg"},{"bike_id":"69d7719d-6825-423a-a3f9-766b86458100","system_id":"levelo_inurba_marseille","lat":43.29918,"lon":5.37462,"is_reserved":false,"is_disabled":false,"rental_uris":{"android":"levelo://app?vid=69d7719d-6825-423a-a3f9-766b86458100","ios":"levelo://app?vid=69d7719d-6825-423a-a3f9-766b86458100"},"vehicle_type_id":"4","last_reported":1731921116,"current_range_meters":30800,"station_id":"ce4bgjh2rcd13ifvqbg0","pricing_plan_id":"cebpf4jnsgd1na2vs0mg"},{"bike_id":"c64e65cc-3e9a-4fcd-94a0-09dddc961a9c","system_id":"levelo_inurba_marseille","lat":43.28982,"lon":5.3783,"is_reserved":false,"is_disabled":false,"rental_uris":{"android":"levelo://app?vid=c64e65cc-3e9a-4fcd-94a0-09dddc961a9c","ios":"levelo://app?vid=c64e65cc-3e9a-4fcd-94a0-09dddc961a9c"},"vehicle_type_id":"4","last_reported":1731921116,"current_range_meters":34800,"station_id":"ce4bh9p2rcd13ifvqed0","pricing_plan_id":"cebpf4jnsgd1na2vs0mg"},{"bike_id":"1f4aed10-450b-4e6a-8e41-3d49c5cc71f5","system_id":"levelo_inurba_marseille","lat":43.31718,"lon":5.42401,"is_reserved":false,"is_disabled":false,"rental_uris":{"android":"levelo://app?vid=1f4aed10-450b-4e6a-8e41-3d49c5cc71f5","ios":"levelo://app?vid=1f4aed10-450b-4e6a-8e41-3d49c5cc71f5"},"vehicle_type_id":"4","last_reported":1731921116,"current_range_meters":28800,"station_id":"ce4bhp92rcd13ifvqhbg","pricing_plan_id":"cebpf4jnsgd1na2vs0mg"},{"bike_id":"4b5c855f-7cb4-409a-be77-bd9b7803bab0","system_id":"levelo_inurba_marseille","lat":43.27996,"lon":5.41655,"is_reserved":false,"is_disabled":false,"rental_uris":{"android":"levelo://app?vid=4b5c855f-7cb4-409a-be77-bd9b7803bab0","ios":"levelo://app?vid=4b5c855f-7cb4-409a-be77-bd9b7803bab0"},"vehicle_type_id":"4","last_reported":1731921116,"current_range_meters":30400,"station_id":"ce4bho12rcd13ifvqh1g","pricing_plan_id":"cebpf4jnsgd1na2vs0mg"},{"bike_id":"a4e286ce-b0c9-4867-a3ad-7fb8f3e50416","system_id":"levelo_inurba_marseille","lat":43.23149,"lon":5.43711,"is_reserved":false,"is_disabled":false,"rental_uris":{"android":"levelo://app?vid=a4e286ce-b0c9-4867-a3ad-7fb8f3e50416","ios":"levelo://app?vid=a4e286ce-b0c9-4867-a3ad-7fb8f3e50416"},"vehicle_type_id":"4","last_reported":1731921116,"current_range_meters":8000,"station_id":"ce4bhmp2rcd13ifvqgog","pricing_plan_id":"cebpf4jnsgd1na2vs0mg"},{"bike_id":"abdcdef1-5d4c-4ce8-8241-134be5e81e98","system_id":"levelo_inurba_marseille","lat":43.28154,"lon":5.42646,"is_reserved":false,"is_disabled":false,"rental_uris":{"android":"levelo://app?vid=abdcdef1-5d4c-4ce8-8241-134be5e81e98","ios":"levelo://app?vid=abdcdef1-5d4c-4ce8-8241-134be5e81e98"},"vehicle_type_id":"4","last_reported":1731921116,"current_range_meters":21600,"station_id":"ce4bhnh2rcd13ifvqgug","pricing_plan_id":"cebpf4jnsgd1na2vs0mg"},{"bike_id":"d8d0bb1f-7702-4932-be79-af1a2a1b70f3","system_id":"levelo_inurba_marseille","lat":43.28151,"lon":5.42633,"is_reserved":false,"is_disabled":false,"rental_uris":{"android":"levelo://app?vid=d8d0bb1f-7702-4932-be79-af1a2a1b70f3","ios":"levelo://app?vid=d8d0bb1f-7702-4932-be79-af1a2a1b70f3"},"vehicle_type_id":"4","last_reported":1731921116,"current_range_meters":38000,"station_id":"ce4bhnh2rcd13ifvqgug","pricing_plan_id":"cebpf4jnsgd1na2vs0mg"},{"bike_id":"6fd8ebdb-4876-42ba-8667-738c350f7422","system_id":"levelo_inurba_marseille","lat":43.34141,"lon":5.40902,"is_reserved":false,"is_disabled":false,"rental_uris":{"android":"levelo://app?vid=6fd8ebdb-4876-42ba-8667-738c350f7422","ios":"levelo://app?vid=6fd8ebdb-4876-42ba-8667-738c350f7422"},"vehicle_type_id":"4","last_reported":1731921116,"current_range_meters":22800,"station_id":"ce4bhqh2rcd13ifvqhlg","pricing_plan_id":"cebpf4jnsgd1na2vs0mg"},{"bike_id":"e9e9f546-a583-41ca-b04b-5917e19f8974","system_id":"levelo_inurba_marseille","lat":43.28148,"lon":5.4422,"is_reserved":false,"is_disabled":false,"rental_uris":{"android":"levelo://app?vid=e9e9f546-a583-41ca-b04b-5917e19f8974","ios":"levelo://app?vid=e9e9f546-a583-41ca-b04b-5917e19f8974"},"vehicle_type_id":"4","last_reported":1731921116,"current_range_meters":24000,"station_id":"","pricing_plan_id":"cebpf4jnsgd1na2vs0mg"},{"bike_id":"57e49920-7f3b-493e-ac52-eee7b581dc43","system_id":"levelo_inurba_marseille","lat":43.2956,"lon":5.42299,"is_reserved":false,"is_disabled":false,"rental_uris":{"android":"levelo://app?vid=57e49920-7f3b-493e-ac52-eee7b581dc43","ios":"levelo://app?vid=57e49920-7f3b-493e-ac52-eee7b581dc43"},"vehicle_type_id":"4","last_reported":1731921116,"current_range_meters":36800,"station_id":"ce4bhph2rcd13ifvqhdg","pricing_plan_id":"cebpf4jnsgd1na2vs0mg"},{"bike_id":"8acdcaf5-50cd-4aa5-89a5-44af7aa8cedb","system_id":"levelo_inurba_marseille","lat":43.299356,"lon":5.373292,"is_reserved":false,"is_disabled":false,"rental_uris":{"android":"levelo://app?vid=8acdcaf5-50cd-4aa5-89a5-44af7aa8cedb","ios":"levelo://app?vid=8acdcaf5-50cd-4aa5-89a5-44af7aa8cedb"},"vehicle_type_id":"4","last_reported":1731921116,"current_range_meters":24800,"station_id":"ce4bgr92rcd13ifvqc7g","pricing_plan_id":"cebpf4jnsgd1na2vs0mg"},{"bike_id":"d376a957-14da-4369-bead-a7dd29b94ff2","system_id":"levelo_inurba_marseille","lat":43.30914,"lon":5.3684,"is_reserved":false,"is_disabled":false,"rental_uris":{"android":"levelo://app?vid=d376a957-14da-4369-bead-a7dd29b94ff2","ios":"levelo://app?vid=d376a957-14da-4369-bead-a7dd29b94ff2"},"vehicle_type_id":"4","last_reported":1731921116,"current_range_meters":19200,"station_id":"ce4bgn92rcd13ifvqbvg","pricing_plan_id":"cebpf4jnsgd1na2vs0mg"},{"bike_id":"a9d5327e-f739-4ae3-a0c7-498693998e4e","system_id":"levelo_inurba_marseille","lat":43.23148,"lon":5.43715,"is_reserved":false,"is_disabled":false,"rental_uris":{"android":"levelo://app?vid=a9d5327e-f739-4ae3-a0c7-498693998e4e","ios":"levelo://app?vid=a9d5327e-f739-4ae3-a0c7-498693998e4e"},"vehicle_type_id":"4","last_reported":1731921116,"current_range_meters":17600,"station_id":"ce4bhmp2rcd13ifvqgog","pricing_plan_id":"cebpf4jnsgd1na2vs0mg"},{"bike_id":"4cc0ed8a-6d99-497d-8e91-1c9892fbdc47","system_id":"levelo_inurba_marseille","lat":43.29171,"lon":5.37156,"is_reserved":false,"is_disabled":false,"rental_uris":{"android":"levelo://app?vid=4cc0ed8a-6d99-497d-8e91-1c9892fbdc47","ios":"levelo://app?vid=4cc0ed8a-6d99-497d-8e91-1c9892fbdc47"},"vehicle_type_id":"4","last_reported":1731921116,"current_range_meters":38800,"station_id":"ce4bha92rcd13ifvqeh0","pricing_plan_id":"cebpf4jnsgd1na2vs0mg"},{"bike_id":"fcac7835-12f1-47ac-ae4f-704942932004","system_id":"levelo_inurba_marseille","lat":43.24075,"lon":5.37755,"is_reserved":false,"is_disabled":false,"rental_uris":{"android":"levelo://app?vid=fcac7835-12f1-47ac-ae4f-704942932004","ios":"levelo://app?vid=fcac7835-12f1-47ac-ae4f-704942932004"},