{"last_updated":1768212949,"ttl":60,"version":"2.2","data":{"bikes":[{"bike_id":"3548cd23-1028-4789-a60a-6afc151695cc","system_id":"levelo_inurba_marseille","lat":43.312718,"lon":5.401694,"is_reserved":false,"is_disabled":false,"rental_uris":{"android":"levelo://app?vid=3548cd23-1028-4789-a60a-6afc151695cc","ios":"levelo://app?vid=3548cd23-1028-4789-a60a-6afc151695cc"},"vehicle_type_id":"4","last_reported":1768212949,"current_range_meters":2800,"station_id":"ce4bgg92rcd13ifvqb30","pricing_plan_id":"cebpf4jnsgd1na2vs0mg"},{"bike_id":"ca35d045-2c1b-44bb-b957-8f4166968359","system_id":"levelo_inurba_marseille","lat":43.260569,"lon":5.394006,"is_reserved":false,"is_disabled":false,"rental_uris":{"android":"levelo://app?vid=ca35d045-2c1b-44bb-b957-8f4166968359","ios":"levelo://app?vid=ca35d045-2c1b-44bb-b957-8f4166968359"},"vehicle_type_id":"4","last_reported":1768212949,"current_range_meters":2800,"station_id":"ce4bhh92rcd13ifvqfj0","pricing_plan_id":"cebpf4jnsgd1na2vs0mg"},{"bike_id":"12620edd-8603-4579-b6c8-1feb7856aea2","system_id":"levelo_inurba_marseille","lat":43.255154,"lon":5.376533,"is_reserved":false,"is_disabled":false,"rental_uris":{"android":"levelo://app?vid=12620edd-8603-4579-b6c8-1feb7856aea2","ios":"levelo://app?vid=12620edd-8603-4579-b6c8-1feb7856aea2"},"vehicle_type_id":"4","last_reported":1768212949,"current_range_meters":2800,"station_id":"ce4bhh12rcd13ifvqff0","pricing_plan_id":"cebpf4jnsgd1na2vs0mg"},{"bike_id":"8d3f99e8-e0d3-4ac2-bf02-cbd27ce4a64f","system_id":"levelo_inurba_marseille","lat":43.28614,"lon":5.35103,"is_reserved":false,"is_disabled":false,"rental_uris":{"android":"levelo://app?vid=8d3f99e8-e0d3-4ac2-bf02-cbd27ce4a64f","ios":"levelo://app?vid=8d3f99e8-e0d3-4ac2-bf02-cbd27ce4a64f"},"vehicle_type_id":"4","last_reported":1768212949,"current_range_meters":2800,"station_id":"ce4bhch2rcd13ifvqeug","pricing_plan_id":"cebpf4jnsgd1na2vs0mg"},{"bike_id":"077c8981-bea2-4e23-9f90-a06cf25901d0","system_id":"levelo_inurba_marseille","lat":43.29585,"lon":5.38041,"is_reserved":false,"is_disabled":false,"rental_uris":{"android":"levelo://app?vid=077c8981-bea2-4e23-9f90-a06cf25901d0","ios":"levelo://app?vid=077c8981-bea2-4e23-9f90-a06cf25901d0"},"vehicle_type_id":"4","last_reported":1768212949,"current_range_meters":2800,"station_id":"","pricing_plan_id":"cebpf4jnsgd1na2vs0mg"},{"bike_id":"da4de65d-e152-41bb-aa5a-c6044f7bbd5b","system_id":"levelo_inurba_marseille","lat":43.250032,"lon":5.389186,"is_reserved":false,"is_disabled":true,"rental_uris":{"android":"levelo://app?vid=da4de65d-e152-41bb-aa5a-c6044f7bbd5b","ios":"levelo://app?vid=da4de65d-e152-41bb-aa5a-c6044f7bbd5b"},"vehicle_type_id":"4","last_reported":1768212949,"current_range_meters":2800,"station_id":"","pricing_plan_id":"cebpf4jnsgd1na2vs0mg"},{"bike_id":"6f4243d7-a899-45df-9f36-5a28e263a49a","system_id":"levelo_inurba_marseille","lat":43.24466,"lon":5.42539,"is_reserved":false,"is_disabled":false,"rental_uris":{"android":"levelo://app?vid=6f4243d7-a899-45df-9f36-5a28e263a49a","ios":"levelo://app?vid=6f4243d7-a899-45df-9f36-5a28e263a49a"},"vehicle_type_id":"4","last_reported":1768212949,"current_range_meters":2800,"station_id":"st_d4a3vfp97mjs738cd8kg","pricing_plan_id":"cebpf4jnsgd1na2vs0mg"},{"bike_id":"4c7b2ffd-ccb0-48ab-a409-0108095ad067","system_id":"levelo_inurba_marseille","lat":43.23194,"lon":5.39989,"is_reserved":false,"is_disabled":true,"rental_uris":{"android":"levelo://app?vid=4c7b2ffd-ccb0-48ab-a409-0108095ad067","ios":"levelo://app?vid=4c7b2ffd-ccb0-48ab-a409-0108095ad067"},"vehicle_type_id":"4","last_reported":1768212949,"current_range_meters":2800,"station_id":"ce4bhn12rcd13ifvqgqg","pricing_plan_id":"cebpf4jnsgd1na2vs0mg"},{"bike_id":"5c19822a-c497-4f67-8777-6169bef66dc3","system_id":"levelo_inurba_marseille","lat":43.225332,"lon":5.348298,"is_reserved":false,"is_disabled":false,"rental_uris":{"android":"levelo://app?vid=5c19822a-c497-4f67-8777-6169bef66dc3","ios":"levelo://app?vid=5c19822a-c497-4f67-8777-6169bef66dc3"},"vehicle_type_id":"4","last_reported":1768212949,"current_range_meters":2800,"station_id":"","pricing_plan_id":"cebpf4jnsgd1na2vs0mg"},{"bike_id":"4ff69c90-c40b-414b-8afc-f6091f8338ad","system_id":"levelo_inurba_marseille","lat":43.28713,"lon":5.37996,"is_reserved":false,"is_disabled":false,"rental_uris":{"android":"levelo://app?vid=4ff69c90-c40b-414b-8afc-f6091f8338ad","ios":"levelo://app?vid=4ff69c90-c40b-414b-8afc-f6091f8338ad"},"vehicle_type_id":"4","last_reported":1768212949,"current_range_meters":2800,"station_id":"ce4bh9p2rcd13ifvqec0","pricing_plan_id":"cebpf4jnsgd1na2vs0mg"},{"bike_id":"46ce80c6-02b6-4946-8296-10ef6ca257d2","system_id":"levelo_inurba_marseille","lat":43.27378,"lon":5.36268,"is_reserved":false,"is_disabled":false,"rental_uris":{"android":"levelo://app?vid=46ce80c6-02b6-4946-8296-10ef6ca257d2","ios":"levelo://app?vid=46ce80c6-02b6-4946-8296-10ef6ca257d2"},"vehicle_type_id":"4","last_reported":1768212949,"current_range_meters":2800,"station_id":"ce4bhbh2rcd13ifvqeo0","pricing_plan_id":"cebpf4jnsgd1na2vs0mg"},{"bike_id":"b555239d-2168-4ba9-bdf4-8b711ca32acb","system_id":"levelo_inurba_marseille","lat":43.28489,"lon":5.48408,"is_reserved":false,"is_disabled":false,"rental_uris":{"android":"levelo://app?vid=b555239d-2168-4ba9-bdf4-8b711ca32acb","ios":"levelo://app?vid=b555239d-2168-4ba9-bdf4-8b711ca32acb"},"vehicle_type_id":"4","last_reported":1768212949,"current_range_meters":2800,"station_id":"","pricing_plan_id":"cebpf4jnsgd1na2vs0mg"},{"bike_id":"be8576a8-995a-45d7-bc62-cb26c280bb04","system_id":"levelo_inurba_marseille","lat":43.23217,"lon":5.35556,"is_reserved":false,"is_disabled":false,"rental_uris":{"android":"levelo://app?vid=be8576a8-995a-45d7-bc62-cb26c280bb04","ios":"levelo://app?vid=be8576a8-995a-45d7-bc62-cb26c280bb04"},"vehicle_type_id":"4","last_reported":1768212949,"current_range_meters":2800,"station_id":"ce4bhu92rcd13ifvqi70","pricing_plan_id":"cebpf4jnsgd1na2vs0mg"},{"bike_id":"7a2b1e2b-1f85-429f-9e31-eaf2f3b7d4a5","system_id":"levelo_inurba_marseille","lat":43.262074,"lon":5.37927,"is_reserved":false,"is_disabled":true,"rental_uris":{"android":"levelo://app?vid=7a2b1e2b-1f85-429f-9e31-eaf2f3b7d4a5","ios":"levelo://app?vid=7a2b1e2b-1f85-429f-9e31-eaf2f3b7d4a5"},"vehicle_type_id":"4","last_reported":1768212949,"current_range_meters":3200,"station_id":"","pricing_plan_id":"cebpf4jnsgd1na2vs0mg"},{"bike_id":"01755f55-961f-40b3-9e23-e95349abd649","system_id":"levelo_inurba_marseille","lat":43.26058,"lon":5.394,"is_reserved":false,"is_disabled":false,"rental_uris":{"android":"levelo://app?vid=01755f55-961f-40b3-9e23-e95349abd649","ios":"levelo://app?vid=01755f55-961f-40b3-9e23-e95349abd649"},"vehicle_type_id":"4","last_reported":1768212949,"current_range_meters":3200,"station_id":"ce4bhh92rcd13ifvqfj0","pricing_plan_id":"cebpf4jnsgd1na2vs0mg"},{"bike_id":"3d9ca8f9-ac9d-41f8-ad50-df6291e7a4c4","system_id":"levelo_inurba_marseille","lat":43.231881,"lon":5.355516,"is_reserved":false,"is_disabled":false,"rental_uris":{"android":"levelo://app?vid=3d9ca8f9-ac9d-41f8-ad50-df6291e7a4c4","ios":"levelo://app?vid=3d9ca8f9-ac9d-41f8-ad50-df6291e7a4c4"},"vehicle_type_id":"4","last_reported":1768212949,"current_range_meters":3200,"station_id":"ce4bhu92rcd13ifvqi70","pricing_plan_id":"cebpf4jnsgd1na2vs0mg"},{"bike_id":"f0ebc8c2-e687-4bde-b3f8-6d500df6884a","system_id":"levelo_inurba_marseille","lat":43.298902,"lon":5.436743,"is_reserved":false,"is_disabled":false,"rental_uris":{"android":"levelo://app?vid=f0ebc8c2-e687-4bde-b3f8-6d500df6884a","ios":"levelo://app?vid=f0ebc8c2-e687-4bde-b3f8-6d500df6884a"},"vehicle_type_id":"4","last_reported":1768212949,"current_range_meters":3200,"station_id":"ce4bhpp2rcd13ifvqhfg","pricing_plan_id":"cebpf4jnsgd1na2vs0mg"},{"bike_id":"99b2f31a-2369-48a8-9140-818135cc867b","system_id":"levelo_inurba_marseille","lat":43.24396,"lon":5.37045,"is_reserved":false,"is_disabled":false,"rental_uris":{"android":"levelo://app?vid=99b2f31a-2369-48a8-9140-818135cc867b","ios":"levelo://app?vid=99b2f31a-2369-48a8-9140-818135cc867b"},"vehicle_type_id":"4","last_reported":1768212949,"current_range_meters":3200,"station_id":"ce4bhhh2rcd13ifvqfk0","pricing_plan_id":"cebpf4jnsgd1na2vs0mg"},{"bike_id":"930483c6-b0db-481d-b8ef-96c4bce4f1cf","system_id":"levelo_inurba_marseille","lat":43.2396,"lon":5.36638,"is_reserved":false,"is_disabled":false,"rental_uris":{"android":"levelo://app?vid=930483c6-b0db-481d-b8ef-96c4bce4f1cf","ios":"levelo://app?vid=930483c6-b0db-481d-b8ef-96c4bce4f1cf"},"vehicle_type_id":"4","last_reported":1768212949,"current_range_meters":3200,"station_id":"ce4bhi12rcd13ifvqfp0","pricing_plan_id":"cebpf4jnsgd1na2vs0mg"},{"bike_id":"7d074f39-2033-499f-a4a7-f3d06f4ebb92","system_id":"levelo_inurba_marseille","lat":43.313736,"lon":5.367802,"is_reserved":false,"is_disabled":false,"rental_uris":{"android":"levelo://app?vid=7d074f39-2033-499f-a4a7-f3d06f4ebb92","ios":"levelo://app?vid=7d074f39-2033-499f-a4a7-f3d06f4ebb92"},"vehicle_type_id":"4","last_reported":1768212949,"current_range_meters":3200,"station_id":"ce4bgr92rcd13ifvqc6g","pricing_plan_id":"cebpf4jnsgd1na2vs0mg"},{"bike_id":"4c3558f2-faf6-43e6-a593-3aae3d520ba3","system_id":"levelo_inurba_marseille","lat":43.30319,"lon":5.36908,"is_reserved":false,"is_disabled":false,"rental_uris":{"android":"levelo://app?vid=4c3558f2-faf6-43e6-a593-3aae3d520ba3","ios":"levelo://app?vid=4c3558f2-faf6-43e6-a593-3aae3d520ba3"},"vehicle_type_id":"4","last_reported":1768212949,"current_range_meters":3200,"station_id":"ce4bgqh2rcd13ifvqc5g","pricing_plan_id":"cebpf4jnsgd1na2vs0mg"},{"bike_id":"b564eb71-4c1f-429d-bf9f-1c34ba94509d","system_id":"levelo_inurba_marseille","lat":43.30235,"lon":5.37757,"is_reserved":false,"is_disabled":false,"rental_uris":{"android":"levelo://app?vid=b564eb71-4c1f-429d-bf9f-1c34ba94509d","ios":"levelo://app?vid=b564eb71-4c1f-429d-bf9f-1c34ba94509d"},"vehicle_type_id":"4","last_reported":1768212949,"current_range_meters":3200,"station_id":"","pricing_plan_id":"cebpf4jnsgd1na2vs0mg"},{"bike_id":"d9c321c1-bd42-4a0f-bd8a-d741d0e507f0","system_id":"levelo_inurba_marseille","lat":43.24166,"lon":5.36403,"is_reserved":false,"is_disabled":false,"rental_uris":{"android":"levelo://app?vid=d9c321c1-bd42-4a0f-bd8a-d741d0e507f0","ios":"levelo://app?vid=d9c321c1-bd42-4a0f-bd8a-d741d0e507f0"},"vehicle_type_id":"4","last_reported":1768212949,"current_range_meters":3200,"station_id":"cpo36qri1sfpv3e86is0","pricing_plan_id":"cebpf4jnsgd1na2vs0mg"},{"bike_id":"4e0e1bc1-ad12-43cd-8316-c2a0bc8cd6b3","system_id":"levelo_inurba_marseille","lat":43.241829,"lon":5.397292,"is_reserved":false,"is_disabled":false,"rental_uris":{"android":"levelo://app?vid=4e0e1bc1-ad12-43cd-8316-c2a0bc8cd6b3","ios":"levelo://app?vid=4e0e1bc1-ad12-43cd-8316-c2a0bc8cd6b3"},"vehicle_type_id":"4","last_reported":1768212949,"current_range_meters":3200,"station_id":"ce4bhn12rcd13ifvqgpg","pricing_plan_id":"cebpf4jnsgd1na2vs0mg"},{"bike_id":"016decb5-a4fe-4d88-a583-364244f3b740","system_id":"levelo_inurba_marseille","lat":43.286134,"lon":5.351091,"is_reserved":false,"is_disabled":false,"rental_uris":{"android":"levelo://app?vid=016decb5-a4fe-4d88-a583-364244f3b740","ios":"levelo://app?vid=016decb5-a4fe-4d88-a583-364244f3b740"},"vehicle_type_id":"4","last_reported":1768212949,"current_range_meters":3200,"station_id":"ce4bhch2rcd13ifvqeug","pricing_plan_id":"cebpf4jnsgd1na2vs0mg"},{"bike_id":"20de3ddf-3cfd-42ef-81e0-029c9589c76b","system_id":"levelo_inurba_marseille","lat":43.31556,"lon":5.38749,"is_reserved":false,"is_disabled":false,"rental_uris":{"android":"levelo://app?vid=20de3ddf-3cfd-42ef-81e0-029c9589c76b","ios":"levelo://app?vid=20de3ddf-3cfd-42ef-81e0-029c9589c76b"},"vehicle_type_id":"4","last_reported":1768212949,"current_range_meters":3600,"station_id":"","pricing_plan_id":"cebpf4jnsgd1na2vs0mg"},{"bike_id":"000bc33d-14bb-4ee3-8c98-01bdb8f48321","system_id":"levelo_inurba_marseille","lat":43.22558,"lon":5.41632,"is_reserved":false,"is_disabled":false,"rental_uris":{"android":"levelo://app?vid=000bc33d-14bb-4ee3-8c98-01bdb8f48321","ios":"levelo://app?vid=000bc33d-14bb-4ee3-8c98-01bdb8f48321"},"vehicle_type_id":"4","last_reported":1768212949,"current_range_meters":3600,"station_id":"st_d2o4gvlbi1j2169b742g","pricing_plan_id":"cebpf4jnsgd1na2vs0mg"},{"bike_id":"f85f9255-522d-4a36-ad85-075f3b06fa55","system_id":"levelo_inurba_marseille","lat":43.272098,"lon":5.391809,"is_reserved":false,"is_disabled":false,"rental_uris":{"android":"levelo://app?vid=f85f9255-522d-4a36-ad85-075f3b06fa55","ios":"levelo://app?vid=f85f9255-522d-4a36-ad85-075f3b06fa55"},"vehicle_type_id":"4","last_reported":1768212949,"current_range_meters":3600,"station_id":"ce4bhhp2rcd13ifvqfm0","pricing_plan_id":"cebpf4jnsgd1na2vs0mg"},{"bike_id":"c72dfa06-f246-4eb4-a47f-cc812e4e69c1","system_id":"levelo_inurba_marseille","lat":43.23965,"lon":5.3663,"is_reserved":false,"is_disabled":false,"rental_uris":{"android":"levelo://app?vid=c72dfa06-f246-4eb4-a47f-cc812e4e69c1","ios":"levelo://app?vid=c72dfa06-f246-4eb4-a47f-cc812e4e69c1"},"vehicle_type_id":"4","last_reported":1768212949,"current_range_meters":3600,"station_id":"ce4bhi12rcd13ifvqfp0","pricing_plan_id":"cebpf4jnsgd1na2vs0mg"},{"bike_id":"2b502982-b4ce-404e-ba25-50f38bdd9cf5","system_id":"levelo_inurba_marseille","lat":43.28867,"lon":5.42513,"is_reserved":false,"is_disabled":false,"rental_uris":{"android":"levelo://app?vid=2b502982-b4ce-404e-ba25-50f38bdd9cf5","ios":"levelo://app?vid=2b502982-b4ce-404e-ba25-50f38bdd9cf5"},"vehicle_type_id":"4","last_reported":1768212949,"current_range_meters":3600,"station_id":"st_d3b462108ojc7389ooeg","pricing_plan_id":"cebpf4jnsgd1na2vs0mg"},{"bike_id":"63f67da2-fe3a-4466-93b5-af9e2628e09f","system_id":"levelo_inurba_marseille","lat":43.25332,"lon":5.42183,"is_reserved":false,"is_disabled":false,"rental_uris":{"android":"levelo://app?vid=63f67da2-fe3a-4466-93b5-af9e2628e09f","ios":"levelo://app?vid=63f67da2-fe3a-4466-93b5-af9e2628e09f"},"vehicle_type_id":"4","last_reported":1768212949,"current_range_meters":3600,"station_id":"st_d2m65c5bi1j21697t3ng","pricing_plan_id":"cebpf4jnsgd1na2vs0mg"},{"bike_id":"ce168850-ad18-4118-b8c3-4df4ab978171","system_id":"levelo_inurba_marseille","lat":43.2954,"lon":5.3854,"is_reserved":false,"is_disabled":false,"rental_uris":{"android":"levelo://app?vid=ce168850-ad18-4118-b8c3-4df4ab978171","ios":"levelo://app?vid=ce168850-ad18-4118-b8c3-4df4ab978171"},"vehicle_type_id":"4","last_reported":1768212949,"current_range_meters":4000,"station_id":"ce4bgih2rcd13ifvqba0","pricing_plan_id":"cebpf4jnsgd1na2vs0mg"},{"bike_id":"7628e7a5-7b21-4849-a067-eb70db95c2b6","system_id":"levelo_inurba_marseille","lat":43.29895,"lon":5.43669,"is_reserved":false,"is_disabled":false,"rental_uris":{"android":"levelo://app?vid=7628e7a5-7b21-4849-a067-eb70db95c2b6","ios":"levelo://app?vid=7628e7a5-7b21-4849-a067-eb70db95c2b6"},"vehicle_type_id":"4","last_reported":1768212949,"current_range_meters":4000,"station_id":"ce4bhpp2rcd13ifvqhfg","pricing_plan_id":"cebpf4jnsgd1na2vs0mg"},{"bike_id":"947ce4af-bec6-4b27-9e63-ce65682eb248","system_id":"levelo_inurba_marseille","lat":43.323592,"lon":5.3675,"is_reserved":false,"is_disabled":false,"rental_uris":{"android":"levelo://app?vid=947ce4af-bec6-4b27-9e63-ce65682eb248","ios":"levelo://app?vid=947ce4af-bec6-4b27-9e63-ce65682eb248"},"vehicle_type_id":"4","last_reported":1768212949,"current_range_meters":4000,"station_id":"ce4bhsh2rcd13ifvqi2g","pricing_plan_id":"cebpf4jnsgd1na2vs0mg"},{"bike_id":"344318d5-d37d-415c-a19d-49a3cc55b651","system_id":"levelo_inurba_marseille","lat":43.23186,"lon":5.39978,"is_reserved":false,"is_disabled":false,"rental_uris":{"android":"levelo://app?vid=344318d5-d37d-415c-a19d-49a3cc55b651","ios":"levelo://app?vid=344318d5-d37d-415c-a19d-49a3cc55b651"},"vehicle_type_id":"4","last_reported":1768212949,"current_range_meters":4000,"station_id":"ce4bhn12rcd13ifvqgqg","pricing_plan_id":"cebpf4jnsgd1na2vs0mg"},{"bike_id":"f1738cae-b37c-436c-93e9-f046d263b6fa","system_id":"levelo_inurba_marseille","lat":43.225301,"lon":5.348359,"is_reserved":false,"is_disabled":false,"rental_uris":{"android":"levelo://app?vid=f1738cae-b37c-436c-93e9-f046d263b6fa","ios":"levelo://app?vid=f1738cae-b37c-436c-93e9-f046d263b6fa"},"vehicle_type_id":"4","last_reported":1768212949,"current_range_meters":4000,"station_id":"","pricing_plan_id":"cebpf4jnsgd1na2vs0mg"},{"bike_id":"4def94b0-006e-4572-8010-aef7efc8bf2d","system_id":"levelo_inurba_marseille","lat":43.28923,"lon":5.38421,"is_reserved":false,"is_disabled":false,"rental_uris":{"android":"levelo://app?vid=4def94b0-006e-4572-8010-aef7efc8bf2d","ios":"levelo://app?vid=4def94b0-006e-4572-8010-aef7efc8bf2d"},"vehicle_type_id":"4","last_reported":1768212949,"current_range_meters":4000,"station_id":"ce4bh612rcd13ifvqe6g","pricing_plan_id":"cebpf4jnsgd1na2vs0mg"},{"bike_id":"2ab98ffd-9337-4976-9b8c-00b288e144ae","system_id":"levelo_inurba_marseille","lat":43.2368,"lon":5.36075,"is_reserved":false,"is_disabled":false,"rental_uris":{"android":"levelo://app?vid=2ab98ffd-9337-4976-9b8c-00b288e144ae","ios":"levelo://app?vid=2ab98ffd-9337-4976-9b8c-00b288e144ae"},"vehicle_type_id":"4","last_reported":1768212949,"current_range_meters":4000,"station_id":"","pricing_plan_id":"cebpf4jnsgd1na2vs0mg"},{"bike_id":"eb94da2c-2b9f-48dd-a6b4-1185c0b7aa8a","system_id":"levelo_inurba_marseille","lat":43.324764,"lon":5.365656,"is_reserved":false,"is_disabled":false,"rental_uris":{"android":"levelo://app?vid=eb94da2c-2b9f-48dd-a6b4-1185c0b7aa8a","ios":"levelo://app?vid=eb94da2c-2b9f-48dd-a6b4-1185c0b7aa8a"},"vehicle_type_id":"4","last_reported":1768212949,"current_range_meters":4000,"station_id":"ce4bhs12rcd13ifvqhvg","pricing_plan_id":"cebpf4jnsgd1na2vs0mg"},{"bike_id":"8d40eed2-4314-45ed-b37c-5ef1fa21e2d8","system_id":"levelo_inurba_marseille","lat":43.27941,"lon":5.41054,"is_reserved":false,"is_disabled":false,"rental_uris":{"android":"levelo://app?vid=8d40eed2-4314-45ed-b37c-5ef1fa21e2d8","ios":"levelo://app?vid=8d40eed2-4314-45ed-b37c-5ef1fa21e2d8"},"vehicle_type_id":"4","last_reported":1768212949,"current_range_meters":4000,"station_id":"ce4bhnp2rcd13ifvqh0g","pricing_plan_id":"cebpf4jnsgd1na2vs0mg"},{"bike_id":"6869894f-67a0-4b58-8bae-911192c83f2f","system_id":"levelo_inurba_marseille","lat":43.318732,"lon":5.400029,"is_reserved":false,"is_disabled":false,"rental_uris":{"android":"levelo://app?vid=6869894f-67a0-4b58-8bae-911192c83f2f","ios":"levelo://app?vid=6869894f-67a0-4b58-8bae-911192c83f2f"},"vehicle_type_id":"4","last_reported":1768212949,"current_range_meters":4000,"station_id":"","pricing_plan_id":"cebpf4jnsgd1na2vs0mg"},{"bike_id":"252022da-26ee-4d7f-abc8-1b488b81c896","system_id":"levelo_inurba_marseille","lat":43.30203,"lon":5.37133,"is_reserved":false,"is_disabled":false,"rental_uris":{"android":"levelo://app?vid=252022da-26ee-4d7f-abc8-1b488b81c896","ios":"levelo://app?vid=252022da-26ee-4d7f-abc8-1b488b81c896"},"vehicle_type_id":"4","last_reported":1768212949,"current_range_meters":4400,"station_id":"","pricing_plan_id":"cebpf4jnsgd1na2vs0mg"},{"bike_id":"784bade9-de85-4c9f-99c1-e1f7d025a70e","system_id":"levelo_inurba_marseille","lat":43.22555,"lon":5.41637,"is_reserved":false,"is_disabled":false,"rental_uris":{"android":"levelo://app?vid=784bade9-de85-4c9f-99c1-e1f7d025a70e","ios":"levelo://app?vid=784bade9-de85-4c9f-99c1-e1f7d025a70e"},"vehicle_type_id":"4","last_reported":1768212949,"current_range_meters":4400,"station_id":"st_d2o4gvlbi1j2169b742g","pricing_plan_id":"cebpf4jnsgd1na2vs0mg"},{"bike_id":"53285794-c62b-442b-9e6a-233ce6590272","system_id":"levelo_inurba_marseille","lat":43.245826,"lon":5.374825,"is_reserved":false,"is_disabled":false,"rental_uris":{"android":"levelo://app?vid=53285794-c62b-442b-9e6a-233ce6590272","ios":"levelo://app?vid=53285794-c62b-442b-9e6a-233ce6590272"},"vehicle_type_id":"4","last_reported":1768212949,"current_range_meters":4400,"station_id":"","pricing_plan_id":"cebpf4jnsgd1na2vs0mg"},{"bike_id":"d1d2b5b8-08c4-4846-a980-a1694a91c4bc","system_id":"levelo_inurba_marseille","lat":43.21178,"lon":5.35075,"is_reserved":false,"is_disabled":false,"rental_uris":{"android":"levelo://app?vid=d1d2b5b8-08c4-4846-a980-a1694a91c4bc","ios":"levelo://app?vid=d1d2b5b8-08c4-4846-a980-a1694a91c4bc"},"vehicle_type_id":"4","last_reported":1768212949,"current_range_meters":4400,"station_id":"st_cvj6sg6p6f1abm77japg","pricing_plan_id":"cebpf4jnsgd1na2vs0mg"},{"bike_id":"affd63c6-b8a1-443d-bb79-e5ac663010fa","system_id":"levelo_inurba_marseille","lat":43.315509,"lon":5.398377,"is_reserved":false,"is_disabled":false,"rental_uris":{"android":"levelo://app?vid=affd63c6-b8a1-443d-bb79-e5ac663010fa","ios":"levelo://app?vid=affd63c6-b8a1-443d-bb79-e5ac663010fa"},"vehicle_type_id":"4","last_reported":1768212949,"current_range_meters":4400,"station_id":"","pricing_plan_id":"cebpf4jnsgd1na2vs0mg"},{"bike_id":"c59f5a79-013e-434e-937e-1cdde0b23ac2","system_id":"levelo_inurba_marseille","lat":43.2534,"lon":5.42184,"is_reserved":false,"is_disabled":false,"rental_uris":{"android":"levelo://app?vid=c59f5a79-013e-434e-937e-1cdde0b23ac2","ios":"levelo://app?vid=c59f5a79-013e-434e-937e-1cdde0b23ac2"},"vehicle_type_id":"4","last_reported":1768212949,"current_range_meters":4400,"station_id":"st_d2m65c5bi1j21697t3ng","pricing_plan_id":"cebpf4jnsgd1na2vs0mg"},{"bike_id":"1a3667ee-ff94-4097-aadc-aa9e63112c29","system_id":"levelo_inurba_marseille","lat":43.231894,"lon":5.436467,"is_reserved":false,"is_disabled":false,"rental_uris":{"android":"levelo://app?vid=1a3667ee-ff94-4097-aadc-aa9e63112c29","ios":"levelo://app?vid=1a3667ee-ff94-4097-aadc-aa9e63112c29"},"vehicle_type_id":"4","last_reported":1768212949,"current_range_meters":4400,"station_id":"ce4bhmp2rcd13ifvqgog","pricing_plan_id":"cebpf4jnsgd1na2vs0mg"},{"bike_id":"7391bea9-cf28-4483-bef1-ec64b236fa58","system_id":"levelo_inurba_marseille","lat":43.22934,"lon":5.35377,"is_reserved":false,"is_disabled":false,"rental_uris":{"android":"levelo://app?vid=7391bea9-cf28-4483-bef1-ec64b236fa58","ios":"levelo://app?vid=7391bea9-cf28-4483-bef1-ec64b236fa58"},"vehicle_type_id":"4","last_reported":1768212949,"current_range_meters":4800,"station_id":"cpo3532slgdg3j2ikp40","pricing_plan_id":"cebpf4jnsgd1na2vs0mg"},{"bike_id":"2e17ea1e-1ee6-4b02-964a-826e174a77e9","system_id":"levelo_inurba_marseille","lat":43.27797,"lon":5.40762,"is_reserved":false,"is_disabled":false,"rental_uris":{"android":"levelo://app?vid=2e17ea1e-1ee6-4b02-964a-826e174a77e9","ios":"levelo://app?vid=2e17ea1e-1ee6-4b02-964a-826e174a77e9"},"vehicle_type_id":"4","last_reported":1768212949,"current_range_meters":4800,"station_id":"ce4bhnh2rcd13ifvqgtg","pricing_plan_id":"cebpf4jnsgd1na2vs0mg"},{"bike_id":"b020149a-3818-4346-a3fa-bd4434c28a15","system_id":"levelo_inurba_marseille","lat":43.30302,"lon":5.3686,"is_reserved":false,"is_disabled":false,"rental_uris":{"android":"levelo://app?vid=b020149a-3818-4346-a3fa-bd4434c28a15","ios":"levelo://app?vid=b020149a-3818-4346-a3fa-bd4434c28a15"},"vehicle_type_id":"4","last_reported":1768212949,"current_range_meters":4800,"station_id":"ce4bgqh2rcd13ifvqc5g","pricing_plan_id":"cebpf4jnsgd1na2vs0mg"},{"bike_id":"739b9c75-e4e2-4afd-940a-adf7aa79d965","system_id":"levelo_inurba_marseille","lat":43.265675,"lon":5.390224,"is_reserved":false,"is_disabled":false,"rental_uris":{"android":"levelo://app?vid=739b9c75-e4e2-4afd-940a-adf7aa79d965","ios":"levelo://app?vid=739b9c75-e4e2-4afd-940a-adf7aa79d965"},"vehicle_type_id":"4","last_reported":1768212949,"current_range_meters":4800,"station_id":"ce4bhe12rcd13ifvqf30","pricing_plan_id":"cebpf4jnsgd1na2vs0mg"},{"bike_id":"439a61d5-d051-40af-9b0f-2926884e52eb","system_id":"levelo_inurba_marseille","lat":43.30722,"lon":5.40985,"is_reserved":false,"is_disabled":false,"rental_uris":{"android":"levelo://app?vid=439a61d5-d051-40af-9b0f-2926884e52eb","ios":"levelo://app?vid=439a61d5-d051-40af-9b0f-2926884e52eb"},"vehicle_type_id":"4","last_reported":1768212949,"current_range_meters":4800,"station_id":"","pricing_plan_id":"cebpf4jnsgd1na2vs0mg"},{"bike_id":"83e16bc7-29d6-4595-af9d-c81a8cdf3e20","system_id":"levelo_inurba_marseille","lat":43.30152,"lon":5.38095,"is_reserved":false,"is_disabled":false,"rental_uris":{"android":"levelo://app?vid=83e16bc7-29d6-4595-af9d-c81a8cdf3e20","ios":"levelo://app?vid=83e16bc7-29d6-4595-af9d-c81a8cdf3e20"},"vehicle_type_id":"4","last_reported":1768212949,"current_range_meters":4800,"station_id":"ce4bgjp2rcd13ifvqbh0","pricing_plan_id":"cebpf4jnsgd1na2vs0mg"},{"bike_id":"d62f9e36-0176-47ea-b04e-e25d60615654","system_id":"levelo_inurba_marseille","lat":43.264812,"lon":5.395456,"is_reserved":false,"is_disabled":false,"rental_uris":{"android":"levelo://app?vid=d62f9e36-0176-47ea-b04e-e25d60615654","ios":"levelo://app?vid=d62f9e36-0176-47ea-b04e-e25d60615654"},"vehicle_type_id":"4","last_reported":1768212949,"current_range_meters":4800,"station_id":"ce4bhi12rcd13ifvqfq0","pricing_plan_id":"cebpf4jnsgd1na2vs0mg"},{"bike_id":"cfa9d431-0c3a-47b2-bafd-95922015c415","system_id":"levelo_inurba_marseille","lat":43.31884,"lon":5.37687,"is_reserved":false,"is_disabled":false,"rental_uris":{"android":"levelo://app?vid=cfa9d431-0c3a-47b2-bafd-95922015c415","ios":"levelo://app?vid=cfa9d431-0c3a-47b2-bafd-95922015c415"},"vehicle_type_id":"4","last_reported":1768212949,"current_range_meters":4800,"station_id":"","pricing_plan_id":"cebpf4jnsgd1na2vs0mg"},{"bike_id":"cbdddb1d-51eb-4704-9311-2cc797b2a12c","system_id":"levelo_inurba_marseille","lat":43.23193,"lon":5.43714,"is_reserved":false,"is_disabled":false,"rental_uris":{"android":"levelo://app?vid=cbdddb1d-51eb-4704-9311-2cc797b2a12c","ios":"levelo://app?vid=cbdddb1d-51eb-4704-9311-2cc797b2a12c"},"vehicle_type_id":"4","last_reported":1768212949,"current_range_meters":4800,"station_id":"ce4bhmp2rcd13ifvqgog","pricing_plan_id":"cebpf4jnsgd1na2vs0mg"},{"bike_id":"cfc31cb0-49ca-4b30-8c65-0b6d74754b4a","system_id":"levelo_inurba_marseille","lat":43.28628,"lon":5.42646,"is_reserved":false,"is_disabled":false,"rental_uris":{"android":"levelo://app?vid=cfc31cb0-49ca-4b30-8c65-0b6d74754b4a","ios":"levelo://app?vid=cfc31cb0-49ca-4b30-8c65-0b6d74754b4a"},"vehicle_type_id":"4","last_reported":1768212949,"current_range_meters":4800,"station_id":"","pricing_plan_id":"cebpf4jnsgd1na2vs0mg"},{"bike_id":"e04ae9cb-327b-403d-aff3-424f7930b979","system_id":"levelo_inurba_marseille","lat":43.29779,"lon":5.39333,"is_reserved":false,"is_disabled":false,"rental_uris":{"android":"levelo://app?vid=e04ae9cb-327b-403d-aff3-424f7930b979","ios":"levelo://app?vid=e04ae9cb-327b-403d-aff3-424f7930b979"},"vehicle_type_id":"4","last_reported":1768212949,"current_range_meters":4800,"station_id":"chh1huq6cuj3fo74tm60","pricing_plan_id":"cebpf4jnsgd1na2vs0mg"},{"bike_id":"cbc05215-eae3-482c-8a83-406d798cd6ab","system_id":"levelo_inurba_marseille","lat":43.24154,"lon":5.36443,"is_reserved":false,"is_disabled":false,"rental_uris":{"android":"levelo://app?vid=cbc05215-eae3-482c-8a83-406d798cd6ab","ios":"levelo://app?vid=cbc05215-eae3-482c-8a83-406d798cd6ab"},"vehicle_type_id":"4","last_reported":1768212949,"current_range_meters":4800,"station_id":"cpo36qri1sfpv3e86is0","pricing_plan_id":"cebpf4jnsgd1na2vs0mg"},{"bike_id":"7c1fb5de-291f-48cb-b85a-8e587daa61d5","system_id":"levelo_inurba_marseille","lat":43.30949,"lon":5.39061,"is_reserved":false,"is_disabled":false,"rental_uris":{"android":"levelo://app?vid=7c1fb5de-291f-48cb-b85a-8e587daa61d5","ios":"levelo://app?vid=7c1fb5de-291f-48cb-b85a-8e587daa61d5"},"vehicle_type_id":"4","last_reported":1768212949,"current_range_meters":4800,"station_id":"ce4bgup2rcd13ifvqco0","pricing_plan_id":"cebpf4jnsgd1na2vs0mg"},{"bike_id":"291233ac-030c-423c-9705-7e735781d5b7","system_id":"levelo_inurba_marseille","lat":43.29776,"lon":5.38112,"is_reserved":false,"is_disabled":false,"rental_uris":{"android":"levelo://app?vid=291233ac-030c-423c-9705-7e735781d5b7","ios":"levelo://app?vid=291233ac-030c-423c-9705-7e735781d5b7"},"vehicle_type_id":"4","last_reported":1768212949,"current_range_meters":4800,"station_id":"ce4bgip2rcd13ifvqbb0","pricing_plan_id":"cebpf4jnsgd1na2vs0mg"},{"bike_id":"885d5bfe-e892-4bfa-b6a3-74245eba4eca","system_id":"levelo_inurba_marseille","lat":43.30927,"lon":5.40165,"is_reserved":false,"is_disabled":false,"rental_uris":{"android":"levelo://app?vid=885d5bfe-e892-4bfa-b6a3-74245eba4eca","ios":"levelo://app?vid=885d5bfe-e892-4bfa-b6a3-74245eba4eca"},"vehicle_type_id":"4","last_reported":1768212949,"current_range_meters":4800,"station_id":"ce4bgvp2rcd13ifvqct0","pricing_plan_id":"cebpf4jnsgd1na2vs0mg"},{"bike_id":"42f33adc-fe65-4ac4-9016-fac52b6274ac","system_id":"levelo_inurba_marseille","lat":43.253413,"lon":5.42176,"is_reserved":false,"is_disabled":false,"rental_uris":{"android":"levelo://app?vid=42f33adc-fe65-4ac4-9016-fac52b6274ac","ios":"levelo://app?vid=42f33adc-fe65-4ac4-9016-fac52b6274ac"},"vehicle_type_id":"4","last_reported":1768212949,"current_range_meters":5600,"station_id":"st_d2m65c5bi1j21697t3ng","pricing_plan_id":"cebpf4jnsgd1na2vs0mg"},{"bike_id":"748968f8-327c-4969-9ba7-2d3fe0ea40f7","system_id":"levelo_inurba_marseille","lat":43.29508,"lon":5.39633,"is_reserved":false,"is_disabled":false,"rental_uris":{"android":"levelo://app?vid=748968f8-327c-4969-9ba7-2d3fe0ea40f7","ios":"levelo://app?vid=748968f8-327c-4969-9ba7-2d3fe0ea40f7"},"vehicle_type_id":"4","last_reported":1768212949,"current_range_meters":5600,"station_id":"","pricing_plan_id":"cebpf4jnsgd1na2vs0mg"},{"bike_id":"020d5e24-4e24-4b1f-a37a-c867a8122ba4","system_id":"levelo_inurba_marseille","lat":43.309343,"lon":5.401499,"is_reserved":false,"is_disabled":false,"rental_uris":{"android":"levelo://app?vid=020d5e24-4e24-4b1f-a37a-c867a8122ba4","ios":"levelo://app?vid=020d5e24-4e24-4b1f-a37a-c867a8122ba4"},"vehicle_type_id":"4","last_reported":1768212949,"current_range_meters":5600,"station_id":"","pricing_plan_id":"cebpf4jnsgd1na2vs0mg"},{"bike_id":"e48607cd-b2f5-4b5a-9c6c-86ffe0a63554","system_id":"levelo_inurba_marseille","lat":43.24397,"lon":5.37071,"is_reserved":false,"is_disabled":false,"rental_uris":{"android":"levelo://app?vid=e48607cd-b2f5-4b5a-9c6c-86ffe0a63554","ios":"levelo://app?vid=e48607cd-b2f5-4b5a-9c6c-86ffe0a63554"},"vehicle_type_id":"4","last_reported":1768212949,"current_range_meters":5600,"station_id":"ce4bhhh2rcd13ifvqfk0","pricing_plan_id":"cebpf4jnsgd1na2vs0mg"},{"bike_id":"ed2cd03a-66bb-4e81-9432-86bceab963be","system_id":"levelo_inurba_marseille","lat":43.22566,"lon":5.41624,"is_reserved":false,"is_disabled":false,"rental_uris":{"android":"levelo://app?vid=ed2cd03a-66bb-4e81-9432-86bceab963be","ios":"levelo://app?vid=ed2cd03a-66bb-4e81-9432-86bceab963be"},"vehicle_type_id":"4","last_reported":1768212949,"current_range_meters":5600,"station_id":"st_d2o4gvlbi1j2169b742g","pricing_plan_id":"cebpf4jnsgd1na2vs0mg"},{"bike_id":"9448ddb5-824f-4b63-b848-d274add35dbe","system_id":"levelo_inurba_marseille","lat":43.3015,"lon":5.38082,"is_reserved":false,"is_disabled":false,"rental_uris":{"android":"levelo://app?vid=9448ddb5-824f-4b63-b848-d274add35dbe","ios":"levelo://app?vid=9448ddb5-824f-4b63-b848-d274add35dbe"},"vehicle_type_id":"4","last_reported":1768212949,"current_range_meters":5600,"station_id":"ce4bgjp2rcd13ifvqbh0","pricing_plan_id":"cebpf4jnsgd1na2vs0mg"},{"bike_id":"1f38f0a0-9d5e-4cb4-93c5-d4ef43fbf00e","system_id":"levelo_inurba_marseille","lat":43.306093,"lon":5.371389,"is_reserved":false,"is_disabled":false,"rental_uris":{"android":"levelo://app?vid=1f38f0a0-9d5e-4cb4-93c5-d4ef43fbf00e","ios":"levelo://app?vid=1f38f0a0-9d5e-4cb4-93c5-d4ef43fbf00e"},"vehicle_type_id":"4","last_reported":1768212949,"current_range_meters":5600,"station_id":"","pricing_plan_id":"cebpf4jnsgd1na2vs0mg"},{"bike_id":"c2ad736a-0f34-4b3e-820d-2640a768895d","system_id":"levelo_inurba_marseille","lat":43.22927,"lon":5.35373,"is_reserved":false,"is_disabled":false,"rental_uris":{"android":"levelo://app?vid=c2ad736a-0f34-4b3e-820d-2640a768895d","ios":"levelo://app?vid=c2ad736a-0f34-4b3e-820d-2640a768895d"},"vehicle_type_id":"4","last_reported":1768212949,"current_range_meters":5600,"station_id":"cpo3532slgdg3j2ikp40","pricing_plan_id":"cebpf4jnsgd1na2vs0mg"},{"bike_id":"d7b09854-5558-4af9-825a-f6872adb34fd","system_id":"levelo_inurba_marseille","lat":43.23195,"lon":5.35555,"is_reserved":false,"is_disabled":false,"rental_uris":{"android":"levelo://app?vid=d7b09854-5558-4af9-825a-f6872adb34fd","ios":"levelo://app?vid=d7b09854-5558-4af9-825a-f6872adb34fd"},"vehicle_type_id":"4","last_reported":1768212949,"current_range_meters":5600,"station_id":"ce4bhu92rcd13ifvqi70","pricing_plan_id":"cebpf4jnsgd1na2vs0mg"},{"bike_id":"5a90353d-e2b8-418f-9ff8-85ad67fab3cb","system_id":"levelo_inurba_marseille","lat":43.2791,"lon":5.39579,"is_reserved":false,"is_disabled":false,"rental_uris":{"android":"levelo://app?vid=5a90353d-e2b8-418f-9ff8-85ad67fab3cb","ios":"levelo://app?vid=5a90353d-e2b8-418f-9ff8-85ad67fab3cb"},"vehicle_type_id":"4","last_reported":1768212949,"current_range_meters":5600,"station_id":"ce4bhf92rcd13ifvqf40","pricing_plan_id":"cebpf4jnsgd1na2vs0mg"},{"bike_id":"e69a6ed5-b514-48b2-8369-f158471012bc","system_id":"levelo_inurba_marseille","lat":43.225339,"lon":5.348392,"is_reserved":false,"is_disabled":false,"rental_uris":{"android":"levelo://app?vid=e69a6ed5-b514-48b2-8369-f158471012bc","ios":"levelo://app?vid=e69a6ed5-b514-48b2-8369-f158471012bc"},"vehicle_type_id":"4","last_reported":1768212949,"current_range_meters":5600,"station_id":"","pricing_plan_id":"cebpf4jnsgd1na2vs0mg"},{"bike_id":"f7c2e365-3405-4288-8419-9bbd8f25eece","system_id":"levelo_inurba_marseille","lat":43.22929,"lon":5.3537,"is_reserved":false,"is_disabled":false,"rental_uris":{"android":"levelo://app?vid=f7c2e365-3405-4288-8419-9bbd8f25eece","ios":"levelo://app?vid=f7c2e365-3405-4288-8419-9bbd8f25eece"},"vehicle_type_id":"4","last_reported":1768212949,"current_range_meters":5600,"station_id":"cpo3532slgdg3j2ikp40","pricing_plan_id":"cebpf4jnsgd1na2vs0mg"},{"bike_id":"0fee359e-fd0a-419a-8bad-68dfffe61373","system_id":"levelo_inurba_marseille","lat":43.32523,"lon":5.4068,"is_reserved":false,"is_disabled":false,"rental_uris":{"android":"levelo://app?vid=0fee359e-fd0a-419a-8bad-68dfffe61373","ios":"levelo://app?vid=0fee359e-fd0a-419a-8bad-68dfffe61373"},"vehicle_type_id":"4","last_reported":1768212949,"current_range_meters":5600,"station_id":"","pricing_plan_id":"cebpf4jnsgd1na2vs0mg"},{"bike_id":"0ee05af5-25e8-44b9-9b8c-5cd2d5665069","system_id":"levelo_inurba_marseille","lat":43.23207,"lon":5.35549,"is_reserved":false,"is_disabled":false,"rental_uris":{"android":"levelo://app?vid=0ee05af5-25e8-44b9-9b8c-5cd2d5665069","ios":"levelo://app?vid=0ee05af5-25e8-44b9-9b8c-5cd2d5665069"},"vehicle_type_id":"4","last_reported":1768212949,"current_range_meters":5600,"station_id":"ce4bhu92rcd13ifvqi70","pricing_plan_id":"cebpf4jnsgd1na2vs0mg"},{"bike_id":"21c109ac-e8ef-4037-9186-0bc96f2921c1","system_id":"levelo_inurba_marseille","lat":43.23204,"lon":5.35563,"is_reserved":false,"is_disabled":false,"rental_uris":{"android":"levelo://app?vid=21c109ac-e8ef-4037-9186-0bc96f2921c1","ios":"levelo://app?vid=21c109ac-e8ef-4037-9186-0bc96f2921c1"},"vehicle_type_id":"4","last_reported":1768212949,"current_range_meters":5600,"station_id":"ce4bhu92rcd13ifvqi70","pricing_plan_id":"cebpf4jnsgd1na2vs0mg"},{"bike_id":"9eca2961-2c23-4aca-b3c7-bf4fc3359b46","system_id":"levelo_inurba_marseille","lat":43.24164,"lon":5.36409,"is_reserved":false,"is_disabled":false,"rental_uris":{"android":"levelo://app?vid=9eca2961-2c23-4aca-b3c7-bf4fc3359b46","ios":"levelo://app?vid=9eca2961-2c23-4aca-b3c7-bf4fc3359b46"},"vehicle_type_id":"4","last_reported":1768212949,"current_range_meters":6000,"station_id":"cpo36qri1sfpv3e86is0","pricing_plan_id":"cebpf4jnsgd1na2vs0mg"},{"bike_id":"4aeb7be4-6540-4819-a2a5-714be90ccdb8","system_id":"levelo_inurba_marseille","lat":43.314849,"lon":5.373079,"is_reserved":false,"is_disabled":false,"rental_uris":{"android":"levelo://app?vid=4aeb7be4-6540-4819-a2a5-714be90ccdb8","ios":"levelo://app?vid=4aeb7be4-6540-4819-a2a5-714be90ccdb8"},"vehicle_type_id":"4","last_reported":1768212949,"current_range_meters":6000,"station_id":"ce4bgt12rcd13ifvqcd0","pricing_plan_id":"cebpf4jnsgd1na2vs0mg"},{"bike_id":"5407d723-4a9f-44fb-96cd-4d21d8607664","system_id":"levelo_inurba_marseille","lat":43.29203,"lon":5.35784,"is_reserved":false,"is_disabled":false,"rental_uris":{"android":"levelo://app?vid=5407d723-4a9f-44fb-96cd-4d21d8607664","ios":"levelo://app?vid=5407d723-4a9f-44fb-96cd-4d21d8607664"},"vehicle_type_id":"4","last_reported":1768212949,"current_range_meters":6000,"station_id":"ce4bhb12rcd13ifvqel0","pricing_plan_id":"cebpf4jnsgd1na2vs0mg"},{"bike_id":"c7aa20f8-983d-45fa-8f15-bc3b76c15f97","system_id":"levelo_inurba_marseille","lat":43.32318,"lon":5.37077,"is_reserved":false,"is_disabled":false,"rental_uris":{"android":"levelo://app?vid=c7aa20f8-983d-45fa-8f15-bc3b76c15f97","ios":"levelo://app?vid=c7aa20f8-983d-45fa-8f15-bc3b76c15f97"},"vehicle_type_id":"4","last_reported":1768212949,"current_range_meters":6000,"station_id":"","pricing_plan_id":"cebpf4jnsgd1na2vs0mg"},{"bike_id":"c0e1b22c-9e67-43eb-b8e9-683099f38799","system_id":"levelo_inurba_marseille","lat":43.28702,"lon":5.3796,"is_reserved":false,"is_disabled":false,"rental_uris":{"android":"levelo://app?vid=c0e1b22c-9e67-43eb-b8e9-683099f38799","ios":"levelo://app?vid=c0e1b22c-9e67-43eb-b8e9-683099f38799"},"vehicle_type_id":"4","last_reported":1768212949,"current_range_meters":6000,"station_id":"ce4bh9p2rcd13ifvqec0","pricing_plan_id":"cebpf4jnsgd1na2vs0mg"},{"bike_id":"8c2fa2bb-62c3-4e34-9fe1-d67d65e692b3","system_id":"levelo_inurba_marseille","lat":43.231848,"lon":5.400054,"is_reserved":false,"is_disabled":true,"rental_uris":{"android":"levelo://app?vid=8c2fa2bb-62c3-4e34-9fe1-d67d65e692b3","ios":"levelo://app?vid=8c2fa2bb-62c3-4e34-9fe1-d67d65e692b3"},"vehicle_type_id":"4","last_reported":1768212949,"current_range_meters":6000,"station_id":"ce4bhn12rcd13ifvqgqg","pricing_plan_id":"cebpf4jnsgd1na2vs0mg"},{"bike_id":"b3d9f58a-7b40-4af9-9d80-9d6fb2f356d9","system_id":"levelo_inurba_marseille","lat":43.28481,"lon":5.38216,"is_reserved":false,"is_disabled":false,"rental_uris":{"android":"levelo://app?vid=b3d9f58a-7b40-4af9-9d80-9d6fb2f356d9","ios":"levelo://app?vid=b3d9f58a-7b40-4af9-9d80-9d6fb2f356d9"},"vehicle_type_id":"4","last_reported":1768212949,"current_range_meters":6000,"station_id":"","pricing_plan_id":"cebpf4jnsgd1na2vs0mg"},{"bike_id":"c28651f8-c7f3-47c0-a854-7c444378edc7","system_id":"levelo_inurba_marseille","lat":43.240773,"lon":5.377639,"is_reserved":false,"is_disabled":false,"rental_uris":{"android":"levelo://app?vid=c28651f8-c7f3-47c0-a854-7c444378edc7","ios":"levelo://app?vid=c28651f8-c7f3-47c0-a854-7c444378edc7"},"vehicle_type_id":"4","last_reported":1768212949,"current_range_meters":6000,"station_id":"ce4bhnp2rcd13ifvqgvg","pricing_plan_id":"cebpf4jnsgd1na2vs0mg"},{"bike_id":"b9a0deb0-6fe6-4051-9ed1-304381243667","system_id":"levelo_inurba_marseille","lat":43.29585,"lon":5.37512,"is_reserved":false,"is_disabled":true,"rental_uris":{"android":"levelo://app?vid=b9a0deb0-6fe6-4051-9ed1-304381243667","ios":"levelo://app?vid=b9a0deb0-6fe6-4051-9ed1-304381243667"},"vehicle_type_id":"4","last_reported":1768212949,"current_range_meters":6000,"station_id":"ce4bgh92rcd13ifvqb50","pricing_plan_id":"cebpf4jnsgd1na2vs0mg"},{"bike_id":"4c324f28-3fc8-49aa-b16d-f3785a697b6c","system_id":"levelo_inurba_marseille","lat":43.23788,"lon":5.36628,"is_reserved":false,"is_disabled":false,"rental_uris":{"android":"levelo://app?vid=4c324f28-3fc8-49aa-b16d-f3785a697b6c","ios":"levelo://app?vid=4c324f28-3fc8-49aa-b16d-f3785a697b6c"},"vehicle_type_id":"4","last_reported":1768212949,"current_range_meters":6000,"station_id":"st_d3nk18o9ro0c73en2l3g","pricing_plan_id":"cebpf4jnsgd1na2vs0mg"},{"bike_id":"70ef69d0-7c65-4bbd-89a4-3cc9c231d502","system_id":"levelo_inurba_marseille","lat":43.30927,"lon":5.4015,"is_reserved":false,"is_disabled":false,"rental_uris":{"android":"levelo://app?vid=70ef69d0-7c65-4bbd-89a4-3cc9c231d502","ios":"levelo://app?vid=70ef69d0-7c65-4bbd-89a4-3cc9c231d502"},"vehicle_type_id":"4","last_reported":1768212949,"current_range_meters":6000,"station_id":"ce4bgvp2rcd13ifvqct0","pricing_plan_id":"cebpf4jnsgd1na2vs0mg"},{"bike_id":"d9ce34fe-fe90-4e47-b6ba-341532773938","system_id":"levelo_inurba_marseille","lat":43.24041,"lon":5.37774,"is_reserved":false,"is_disabled":false,"rental_uris":{"android":"levelo://app?vid=d9ce34fe-fe90-4e47-b6ba-341532773938","ios":"levelo://app?vid=d9ce34fe-fe90-4e47-b6ba-341532773938"},"vehicle_type_id":"4","last_reported":1768212949,"current_range_meters":6000,"station_id":"ce4bhnp2rcd13ifvqgvg","pricing_plan_id":"cebpf4jnsgd1na2vs0mg"},{"bike_id":"6522ac43-c756-4e37-93af-edc798cc6e23","system_id":"levelo_inurba_marseille","lat":43.229274,"lon":5.353663,"is_reserved":false,"is_disabled":false,"rental_uris":{"android":"levelo://app?vid=6522ac43-c756-4e37-93af-edc798cc6e23","ios":"levelo://app?vid=6522ac43-c756-4e37-93af-edc798cc6e23"},"vehicle_type_id":"4","last_reported":1768212949,"current_range_meters":6000,"station_id":"cpo3532slgdg3j2ikp40","pricing_plan_id":"cebpf4jnsgd1na2vs0mg"},{"bike_id":"551e9f37-b525-4909-9e6e-0277dfd85b6b","system_id":"levelo_inurba_marseille","lat":43.22554,"lon":5.41629,"is_reserved":false,"is_disabled":false,"rental_uris":{"android":"levelo://app?vid=551e9f37-b525-4909-9e6e-0277dfd85b6b","ios":"levelo://app?vid=551e9f37-b525-4909-9e6e-0277dfd85b6b"},"vehicle_type_id":"4","last_reported":1768212949,"current_range_meters":6000,"station_id":"st_d2o4gvlbi1j2169b742g","pricing_plan_id":"cebpf4jnsgd1na2vs0mg"},{"bike_id":"c09077fd-b45e-4923-87ed-8f3d3b3f4e4e","system_id":"levelo_inurba_marseille","lat":43.28481,"lon":5.48402,"is_reserved":false,"is_disabled":false,"rental_uris":{"android":"levelo://app?vid=c09077fd-b45e-4923-87ed-8f3d3b3f4e4e","ios":"levelo://app?vid=c09077fd-b45e-4923-87ed-8f3d3b3f4e4e"},"vehicle_type_id":"4","last_reported":1768212949,"current_range_meters":6000,"station_id":"","pricing_plan_id":"cebpf4jnsgd1na2vs0mg"},{"bike_id":"4437dd31-8a75-43c0-a1c3-19f6bd7a371a","system_id":"levelo_inurba_marseille","lat":43.332717,"lon":5.411878,"is_reserved":false,"is_disabled":false,"rental_uris":{"android":"levelo://app?vid=4437dd31-8a75-43c0-a1c3-19f6bd7a371a","ios":"levelo://app?vid=4437dd31-8a75-43c0-a1c3-19f6bd7a371a"},"vehicle_type_id":"4","last_reported":1768212949,"current_range_meters":6000,"station_id":"","pricing_plan_id":"cebpf4jnsgd1na2vs0mg"},{"bike_id":"8c3592ce-81e6-42d0-ba76-e6a535161275","system_id":"levelo_inurba_marseille","lat":43.29546,"lon":5.3755,"is_reserved":false,"is_disabled":false,"rental_uris":{"android":"levelo://app?vid=8c3592ce-81e6-42d0-ba76-e6a535161275","ios":"levelo://app?vid=8c3592ce-81e6-42d0-ba76-e6a535161275"},"vehicle_type_id":"4","last_reported":1768212949,"current_range_meters":6400,"station_id":"ce4bgh92rcd13ifvqb50","pricing_plan_id":"cebpf4jnsgd1na2vs0mg"},{"bike_id":"9a3bcfa8-754c-46dc-9e23-cede3ccc5a9b","system_id":"levelo_inurba_marseille","lat":43.25613,"lon":5.38239,"is_reserved":false,"is_disabled":false,"rental_uris":{"android":"levelo://app?vid=9a3bcfa8-754c-46dc-9e23-cede3ccc5a9b","ios":"levelo://app?vid=9a3bcfa8-754c-46dc-9e23-cede3ccc5a9b"},"vehicle_type_id":"4","last_reported":1768212949,"current_range_meters":6400,"station_id":"ce4bhih2rcd13ifvqfs0","pricing_plan_id":"cebpf4jnsgd1na2vs0mg"},{"bike_id":"c35c78ca-ead6-4a82-9d35-6f75cabffe5a","system_id":"levelo_inurba_marseille","lat":43.3073,"lon":5.42433,"is_reserved":false,"is_disabled":false,"rental_uris":{"android":"levelo://app?vid=c35c78ca-ead6-4a82-9d35-6f75cabffe5a","ios":"levelo://app?vid=c35c78ca-ead6-4a82-9d35-6f75cabffe5a"},"vehicle_type_id":"4","last_reported":1768212949,"current_range_meters":6400,"station_id":"st_cvj6ca6bvosntc0bfgr0","pricing_plan_id":"cebpf4jnsgd1na2vs0mg"},{"bike_id":"3b05d4eb-8bd1-4878-bb96-9f98dad333b9","system_id":"levelo_inurba_marseille","lat":43.30367,"lon":5.37326,"is_reserved":false,"is_disabled":false,"rental_uris":{"android":"levelo://app?vid=3b05d4eb-8bd1-4878-bb96-9f98dad333b9","ios":"levelo://app?vid=3b05d4eb-8bd1-4878-bb96-9f98dad333b9"},"vehicle_type_id":"4","last_reported":1768212949,"current_range_meters":6400,"station_id":"","pricing_plan_id":"cebpf4jnsgd1na2vs0mg"},{"bike_id":"d162d197-a0fd-462d-a34b-b55f6754275b","system_id":"levelo_inurba_marseille","lat":43.26064,"lon":5.39389,"is_reserved":false,"is_disabled":false,"rental_uris":{"android":"levelo://app?vid=d162d197-a0fd-462d-a34b-b55f6754275b","ios":"levelo://app?vid=d162d197-a0fd-462d-a34b-b55f6754275b"},"vehicle_type_id":"4","last_reported":1768212949,"current_range_meters":6400,"station_id":"ce4bhh92rcd13ifvqfj0","pricing_plan_id":"cebpf4jnsgd1na2vs0mg"},{"bike_id":"f07640cf-8e43-4273-be84-d914ed81f857","system_id":"levelo_inurba_marseille","lat":43.29555,"lon":5.37511,"is_reserved":false,"is_disabled":false,"rental_uris":{"android":"levelo://app?vid=f07640cf-8e43-4273-be84-d914ed81f857","ios":"levelo://app?vid=f07640cf-8e43-4273-be84-d914ed81f857"},"vehicle_type_id":"4","last_reported":1768212949,"current_range_meters":6400,"station_id":"ce4bgh92rcd13ifvqb50","pricing_plan_id":"cebpf4jnsgd1na2vs0mg"},{"bike_id":"e9bbdab2-70a8-48e6-9e43-2ee9964bdeb1","system_id":"levelo_inurba_marseille","lat":43.303167,"lon":5.404399,"is_reserved":false,"is_disabled":false,"rental_uris":{"android":"levelo://app?vid=e9bbdab2-70a8-48e6-9e43-2ee9964bdeb1","ios":"levelo://app?vid=e9bbdab2-70a8-48e6-9e43-2ee9964bdeb1"},"vehicle_type_id":"4","last_reported":1768212949,"current_range_meters":6400,"station_id":"ce4bh012rcd13ifvqd10","pricing_plan_id":"cebpf4jnsgd1na2vs0mg"},{"bike_id":"a0b9fac4-99be-449f-a28b-5c85c327a2dc","system_id":"levelo_inurba_marseille","lat":43.28852,"lon":5.39322,"is_reserved":false,"is_disabled":true,"rental_uris":{"android":"levelo://app?vid=a0b9fac4-99be-449f-a28b-5c85c327a2dc","ios":"levelo://app?vid=a0b9fac4-99be-449f-a28b-5c85c327a2dc"},"vehicle_type_id":"4","last_reported":1768212949,"current_range_meters":6400,"station_id":"ce4bh2p2rcd13ifvqdi0","pricing_plan_id":"cebpf4jnsgd1na2vs0mg"},{"bike_id":"32911317-1487-4d15-817a-1ada45dd566d","system_id":"levelo_inurba_marseille","lat":43.31724,"lon":5.37753,"is_reserved":false,"is_disabled":false,"rental_uris":{"android":"levelo://app?vid=32911317-1487-4d15-817a-1ada45dd566d","ios":"levelo://app?vid=32911317-1487-4d15-817a-1ada45dd566d"},"vehicle_type_id":"4","last_reported":1768212949,"current_range_meters":6400,"station_id":"ce4bgth2rcd13ifvqch0","pricing_plan_id":"cebpf4jnsgd1na2vs0mg"},{"bike_id":"097b1db9-7cfb-4c5a-94d5-72ec3ba5c8b3","system_id":"levelo_inurba_marseille","lat":43.28,"lon":5.408952,"is_reserved":false,"is_disabled":false,"rental_uris":{"android":"levelo://app?vid=097b1db9-7cfb-4c5a-94d5-72ec3ba5c8b3","ios":"levelo://app?vid=097b1db9-7cfb-4c5a-94d5-72ec3ba5c8b3"},"vehicle_type_id":"4","last_reported":1768212949,"current_range_meters":6400,"station_id":"","pricing_plan_id":"cebpf4jnsgd1na2vs0mg"},{"bike_id":"cf06d53f-475e-4e5c-9491-4200af15ccd9","system_id":"levelo_inurba_marseille","lat":43.27375,"lon":5.36262,"is_reserved":false,"is_disabled":false,"rental_uris":{"android":"levelo://app?vid=cf06d53f-475e-4e5c-9491-4200af15ccd9","ios":"levelo://app?vid=cf06d53f-475e-4e5c-9491-4200af15ccd9"},"vehicle_type_id":"4","last_reported":1768212949,"current_range_meters":6400,"station_id":"ce4bhbh2rcd13ifvqeo0","pricing_plan_id":"cebpf4jnsgd1na2vs0mg"},{"bike_id":"94a2c469-f97b-41fb-9158-608de3f137b1","system_id":"levelo_inurba_marseille","lat":43.232,"lon":5.35549,"is_reserved":false,"is_disabled":false,"rental_uris":{"android":"levelo://app?vid=94a2c469-f97b-41fb-9158-608de3f137b1","ios":"levelo://app?vid=94a2c469-f97b-41fb-9158-608de3f137b1"},"vehicle_type_id":"4","last_reported":1768212949,"current_range_meters":6400,"station_id":"ce4bhu92rcd13ifvqi70","pricing_plan_id":"cebpf4jnsgd1na2vs0mg"},{"bike_id":"d664325d-c2cb-42f2-895c-394f61e26f2a","system_id":"levelo_inurba_marseille","lat":43.27988,"lon":5.4166,"is_reserved":false,"is_disabled":false,"rental_uris":{"android":"levelo://app?vid=d664325d-c2cb-42f2-895c-394f61e26f2a","ios":"levelo://app?vid=d664325d-c2cb-42f2-895c-394f61e26f2a"},"vehicle_type_id":"4","last_reported":1768212949,"current_range_meters":6400,"station_id":"ce4bho12rcd13ifvqh1g","pricing_plan_id":"cebpf4jnsgd1na2vs0mg"},{"bike_id":"1ea802fd-f66e-4c41-8354-41e1828b1dc4","system_id":"levelo_inurba_marseille","lat":43.286098,"lon":5.35096,"is_reserved":false,"is_disabled":false,"rental_uris":{"android":"levelo://app?vid=1ea802fd-f66e-4c41-8354-41e1828b1dc4","ios":"levelo://app?vid=1ea802fd-f66e-4c41-8354-41e1828b1dc4"},"vehicle_type_id":"4","last_reported":1768212949,"current_range_meters":6400,"station_id":"ce4bhch2rcd13ifvqeug","pricing_plan_id":"cebpf4jnsgd1na2vs0mg"},{"bike_id":"99fe5b1b-414f-4991-bd96-50c5447c2892","system_id":"levelo_inurba_marseille","lat":43.27508,"lon":5.4246,"is_reserved":false,"is_disabled":false,"rental_uris":{"android":"levelo://app?vid=99fe5b1b-414f-4991-bd96-50c5447c2892","ios":"levelo://app?vid=99fe5b1b-414f-4991-bd96-50c5447c2892"},"vehicle_type_id":"4","last_reported":1768212949,"current_range_meters":6400,"station_id":"ce4bhn92rcd13ifvqgrg","pricing_plan_id":"cebpf4jnsgd1na2vs0mg"},{"bike_id":"858e8a6e-ece2-491f-b2a2-0e10d2fd226b","system_id":"levelo_inurba_marseille","lat":43.2901,"lon":5.35632,"is_reserved":false,"is_disabled":false,"rental_uris":{"android":"levelo://app?vid=858e8a6e-ece2-491f-b2a2-0e10d2fd226b","ios":"levelo://app?vid=858e8a6e-ece2-491f-b2a2-0e10d2fd226b"},"vehicle_type_id":"4","last_reported":1768212949,"current_range_meters":6400,"station_id":"ce4bhb92rcd13ifvqen0","pricing_plan_id":"cebpf4jnsgd1na2vs0mg"},{"bike_id":"b835307e-0757-4153-8e31-ce3378be4d4e","system_id":"levelo_inurba_marseille","lat":43.25011,"lon":5.38926,"is_reserved":false,"is_disabled":true,"rental_uris":{"android":"levelo://app?vid=b835307e-0757-4153-8e31-ce3378be4d4e","ios":"levelo://app?vid=b835307e-0757-4153-8e31-ce3378be4d4e"},"vehicle_type_id":"4","last_reported":1768212949,"current_range_meters":6400,"station_id":"ce4bhgp2rcd13ifvqfd0","pricing_plan_id":"cebpf4jnsgd1na2vs0mg"},{"bike_id":"c7c7fbe4-26ef-4dcf-8f81-a3674c0e5989","system_id":"levelo_inurba_marseille","lat":43.24648,"lon":5.38185,"is_reserved":false,"is_disabled":false,"rental_uris":{"android":"levelo://app?vid=c7c7fbe4-26ef-4dcf-8f81-a3674c0e5989","ios":"levelo://app?vid=c7c7fbe4-26ef-4dcf-8f81-a3674c0e5989"},"vehicle_type_id":"4","last_reported":1768212949,"current_range_meters":6400,"station_id":"ce4bhih2rcd13ifvqfr0","pricing_plan_id":"cebpf4jnsgd1na2vs0mg"},{"bike_id":"fd8e03eb-8c8c-494a-8e80-d7664d053d91","system_id":"levelo_inurba_marseille","lat":43.22935,"lon":5.35378,"is_reserved":false,"is_disabled":false,"rental_uris":{"android":"levelo://app?vid=fd8e03eb-8c8c-494a-8e80-d7664d053d91","ios":"levelo://app?vid=fd8e03eb-8c8c-494a-8e80-d7664d053d91"},"vehicle_type_id":"4","last_reported":1768212949,"current_range_meters":6400,"station_id":"cpo3532slgdg3j2ikp40","pricing_plan_id":"cebpf4jnsgd1na2vs0mg"},{"bike_id":"4ddffc0c-a073-4800-9872-80f96d7a4252","system_id":"levelo_inurba_marseille","lat":43.25338,"lon":5.42164,"is_reserved":false,"is_disabled":false,"rental_uris":{"android":"levelo://app?vid=4ddffc0c-a073-4800-9872-80f96d7a4252","ios":"levelo://app?vid=4ddffc0c-a073-4800-9872-80f96d7a4252"},"vehicle_type_id":"4","last_reported":1768212949,"current_range_meters":6400,"station_id":"st_d2m65c5bi1j21697t3ng","pricing_plan_id":"cebpf4jnsgd1na2vs0mg"},{"bike_id":"e56d3240-3ab5-4c61-b1de-0419e7a61ce3","system_id":"levelo_inurba_marseille","lat":43.26678,"lon":5.38272,"is_reserved":false,"is_disabled":false,"rental_uris":{"android":"levelo://app?vid=e56d3240-3ab5-4c61-b1de-0419e7a61ce3","ios":"levelo://app?vid=e56d3240-3ab5-4c61-b1de-0419e7a61ce3"},"vehicle_type_id":"4","last_reported":1768212949,"current_range_meters":6400,"station_id":"ce4bhg92rcd13ifvqf90","pricing_plan_id":"cebpf4jnsgd1na2vs0mg"},{"bike_id":"87f80583-e77b-4973-be71-bea918dfb192","system_id":"levelo_inurba_marseille","lat":43.225584,"lon":5.416434,"is_reserved":false,"is_disabled":false,"rental_uris":{"android":"levelo://app?vid=87f80583-e77b-4973-be71-bea918dfb192","ios":"levelo://app?vid=87f80583-e77b-4973-be71-bea918dfb192"},"vehicle_type_id":"4","last_reported":1768212949,"current_range_meters":6400,"station_id":"st_d2o4gvlbi1j2169b742g","pricing_plan_id":"cebpf4jnsgd1na2vs0mg"},{"bike_id":"92b744b3-6a0a-49ec-88fc-4262a1c52a6c","system_id":"levelo_inurba_marseille","lat":43.30182,"lon":5.38079,"is_reserved":false,"is_disabled":false,"rental_uris":{"android":"levelo://app?vid=92b744b3-6a0a-49ec-88fc-4262a1c52a6c","ios":"levelo://app?vid=92b744b3-6a0a-49ec-88fc-4262a1c52a6c"},"vehicle_type_id":"4","last_reported":1768212949,"current_range_meters":6800,"station_id":"ce4bgjp2rcd13ifvqbh0","pricing_plan_id":"cebpf4jnsgd1na2vs0mg"},{"bike_id":"f7ef314d-b730-4375-b2ea-6a90d6018fc0","system_id":"levelo_inurba_marseille","lat":43.30955,"lon":5.39048,"is_reserved":false,"is_disabled":false,"rental_uris":{"android":"levelo://app?vid=f7ef314d-b730-4375-b2ea-6a90d6018fc0","ios":"levelo://app?vid=f7ef314d-b730-4375-b2ea-6a90d6018fc0"},"vehicle_type_id":"4","last_reported":1768212949,"current_range_meters":6800,"station_id":"ce4bgup2rcd13ifvqco0","pricing_plan_id":"cebpf4jnsgd1na2vs0mg"},{"bike_id":"6cba13f8-48b7-44d1-bd30-5390e53b15ef","system_id":"levelo_inurba_marseille","lat":43.24071,"lon":5.37753,"is_reserved":false,"is_disabled":false,"rental_uris":{"android":"levelo://app?vid=6cba13f8-48b7-44d1-bd30-5390e53b15ef","ios":"levelo://app?vid=6cba13f8-48b7-44d1-bd30-5390e53b15ef"},"vehicle_type_id":"4","last_reported":1768212949,"current_range_meters":6800,"station_id":"ce4bhnp2rcd13ifvqgvg","pricing_plan_id":"cebpf4jnsgd1na2vs0mg"},{"bike_id":"e620865f-0572-493f-abe2-0a52b7c78a7e","system_id":"levelo_inurba_marseille","lat":43.285159,"lon":5.429874,"is_reserved":false,"is_disabled":false,"rental_uris":{"android":"levelo://app?vid=e620865f-0572-493f-abe2-0a52b7c78a7e","ios":"levelo://app?vid=e620865f-0572-493f-abe2-0a52b7c78a7e"},"vehicle_type_id":"4","last_reported":1768212949,"current_range_meters":6800,"station_id":"","pricing_plan_id":"cebpf4jnsgd1na2vs0mg"},{"bike_id":"5093f106-ab12-42f2-8732-ab294723fbd3","system_id":"levelo_inurba_marseille","lat":43.253334,"lon":5.421728,"is_reserved":false,"is_disabled":false,"rental_uris":{"android":"levelo://app?vid=5093f106-ab12-42f2-8732-ab294723fbd3","ios":"levelo://app?vid=5093f106-ab12-42f2-8732-ab294723fbd3"},"vehicle_type_id":"4","last_reported":1768212949,"current_range_meters":6800,"station_id":"st_d2m65c5bi1j21697t3ng","pricing_plan_id":"cebpf4jnsgd1na2vs0mg"},{"bike_id":"82868e60-7d2c-472d-ab36-3dd7691da624","system_id":"levelo_inurba_marseille","lat":43.25931,"lon":5.40912,"is_reserved":false,"is_disabled":false,"rental_uris":{"android":"levelo://app?vid=82868e60-7d2c-472d-ab36-3dd7691da624","ios":"levelo://app?vid=82868e60-7d2c-472d-ab36-3dd7691da624"},"vehicle_type_id":"4","last_reported":1768212949,"current_range_meters":6800,"station_id":"ce4bhm92rcd13ifvqglg","pricing_plan_id":"cebpf4jnsgd1na2vs0mg"},{"bike_id":"d879bc40-4a71-40d8-9b85-61c842d0243c","system_id":"levelo_inurba_marseille","lat":43.270654,"lon":5.42282,"is_reserved":false,"is_disabled":false,"rental_uris":{"android":"levelo://app?vid=d879bc40-4a71-40d8-9b85-61c842d0243c","ios":"levelo://app?vid=d879bc40-4a71-40d8-9b85-61c842d0243c"},"vehicle_type_id":"4","last_reported":1768212949,"current_range_meters":6800,"station_id":"ce4bhk92rcd13ifvqgb0","pricing_plan_id":"cebpf4jnsgd1na2vs0mg"},{"bike_id":"7d51bc4d-7014-4249-a12d-38c77858bb48","system_id":"levelo_inurba_marseille","lat":43.26065,"lon":5.39396,"is_reserved":false,"is_disabled":false,"rental_uris":{"android":"levelo://app?vid=7d51bc4d-7014-4249-a12d-38c77858bb48","ios":"levelo://app?vid=7d51bc4d-7014-4249-a12d-38c77858bb48"},"vehicle_type_id":"4","last_reported":1768212949,"current_range_meters":6800,"station_id":"ce4bhh92rcd13ifvqfj0","pricing_plan_id":"cebpf4jnsgd1na2vs0mg"},{"bike_id":"d2715ac3-6a96-4eb8-bac7-bacc5c2604da","system_id":"levelo_inurba_marseille","lat":43.30014,"lon":5.37637,"is_reserved":false,"is_disabled":false,"rental_uris":{"android":"levelo://app?vid=d2715ac3-6a96-4eb8-bac7-bacc5c2604da","ios":"levelo://app?vid=d2715ac3-6a96-4eb8-bac7-bacc5c2604da"},"vehicle_type_id":"4","last_reported":1768212949,"current_range_meters":6800,"station_id":"","pricing_plan_id":"cebpf4jnsgd1na2vs0mg"},{"bike_id":"94b0c62f-f2bc-46d9-aee2-8bf9c7678cd6","system_id":"levelo_inurba_marseille","lat":43.261972,"lon":5.379306,"is_reserved":false,"is_disabled":false,"rental_uris":{"android":"levelo://app?vid=94b0c62f-f2bc-46d9-aee2-8bf9c7678cd6","ios":"levelo://app?vid=94b0c62f-f2bc-46d9-aee2-8bf9c7678cd6"},"vehicle_type_id":"4","last_reported":1768212949,"current_range_meters":6800,"station_id":"ce4bhjp2rcd13ifvqg90","pricing_plan_id":"cebpf4jnsgd1na2vs0mg"},{"bike_id":"c14a64c5-f56b-41d4-a260-43cfcbb6a825","system_id":"levelo_inurba_marseille","lat":43.29145,"lon":5.37679,"is_reserved":false,"is_disabled":false,"rental_uris":{"android":"levelo://app?vid=c14a64c5-f56b-41d4-a260-43cfcbb6a825","ios":"levelo://app?vid=c14a64c5-f56b-41d4-a260-43cfcbb6a825"},"vehicle_type_id":"4","last_reported":1768212949,"current_range_meters":6800,"station_id":"","pricing_plan_id":"cebpf4jnsgd1na2vs0mg"},{"bike_id":"1591f82a-aad7-466d-84d5-af4d94402b1a","system_id":"levelo_inurba_marseille","lat":43.29551,"lon":5.3999,"is_reserved":false,"is_disabled":true,"rental_uris":{"android":"levelo://app?vid=1591f82a-aad7-466d-84d5-af4d94402b1a","ios":"levelo://app?vid=1591f82a-aad7-466d-84d5-af4d94402b1a"},"vehicle_type_id":"4","last_reported":1768212949,"current_range_meters":6800,"station_id":"ce4bh312rcd13ifvqdj0","pricing_plan_id":"cebpf4jnsgd1na2vs0mg"},{"bike_id":"74b83f57-b043-4644-9196-624a4213acec","system_id":"levelo_inurba_marseille","lat":43.22921,"lon":5.3539,"is_reserved":false,"is_disabled":false,"rental_uris":{"android":"levelo://app?vid=74b83f57-b043-4644-9196-624a4213acec","ios":"levelo://app?vid=74b83f57-b043-4644-9196-624a4213acec"},"vehicle_type_id":"4","last_reported":1768212949,"current_range_meters":6800,"station_id":"cpo3532slgdg3j2ikp40","pricing_plan_id":"cebpf4jnsgd1na2vs0mg"},{"bike_id":"c0a737ab-81b4-481c-8c35-615a5f06c74c","system_id":"levelo_inurba_marseille","lat":43.2256,"lon":5.41631,"is_reserved":false,"is_disabled":false,"rental_uris":{"android":"levelo://app?vid=c0a737ab-81b4-481c-8c35-615a5f06c74c","ios":"levelo://app?vid=c0a737ab-81b4-481c-8c35-615a5f06c74c"},"vehicle_type_id":"4","last_reported":1768212949,"current_range_meters":6800,"station_id":"st_d2o4gvlbi1j2169b742g","pricing_plan_id":"cebpf4jnsgd1na2vs0mg"},{"bike_id":"a79d7ba1-8fc0-4b3f-bad3-bcec2c0e9b69","system_id":"levelo_inurba_marseille","lat":43.29882,"lon":5.37673,"is_reserved":false,"is_disabled":false,"rental_uris":{"android":"levelo://app?vid=a79d7ba1-8fc0-4b3f-bad3-bcec2c0e9b69","ios":"levelo://app?vid=a79d7ba1-8fc0-4b3f-bad3-bcec2c0e9b69"},"vehicle_type_id":"4","last_reported":1768212949,"current_range_meters":6800,"station_id":"","pricing_plan_id":"cebpf4jnsgd1na2vs0mg"},{"bike_id":"995743f7-60fb-47ab-97ef-9854c73191b2","system_id":"levelo_inurba_marseille","lat":43.27994,"lon":5.41646,"is_reserved":false,"is_disabled":false,"rental_uris":{"android":"levelo://app?vid=995743f7-60fb-47ab-97ef-9854c73191b2","ios":"levelo://app?vid=995743f7-60fb-47ab-97ef-9854c73191b2"},"vehicle_type_id":"4","last_reported":1768212949,"current_range_meters":7200,"station_id":"ce4bho12rcd13ifvqh1g","pricing_plan_id":"cebpf4jnsgd1na2vs0mg"},{"bike_id":"340c2cbe-243c-40b4-8bc5-dea9b0e962c7","system_id":"levelo_inurba_marseille","lat":43.231903,"lon":5.355515,"is_reserved":false,"is_disabled":false,"rental_uris":{"android":"levelo://app?vid=340c2cbe-243c-40b4-8bc5-dea9b0e962c7","ios":"levelo://app?vid=340c2cbe-243c-40b4-8bc5-dea9b0e962c7"},"vehicle_type_id":"4","last_reported":1768212949,"current_range_meters":7200,"station_id":"ce4bhu92rcd13ifvqi70","pricing_plan_id":"cebpf4jnsgd1na2vs0mg"},{"bike_id":"b027f744-7494-4df5-8a07-08b78b4158dd","system_id":"levelo_inurba_marseille","lat":43.25568,"lon":5.38241,"is_reserved":false,"is_disabled":true,"rental_uris":{"android":"levelo://app?vid=b027f744-7494-4df5-8a07-08b78b4158dd","ios":"levelo://app?vid=b027f744-7494-4df5-8a07-08b78b4158dd"},"vehicle_type_id":"4","last_reported":1768212949,"current_range_meters":7200,"station_id":"ce4bhih2rcd13ifvqfs0","pricing_plan_id":"cebpf4jnsgd1na2vs0mg"},{"bike_id":"5eb236d0-c732-47a3-b4ae-bebb81ae84fb","system_id":"levelo_inurba_marseille","lat":43.30845,"lon":5.40592,"is_reserved":false,"is_disabled":false,"rental_uris":{"android":"levelo://app?vid=5eb236d0-c732-47a3-b4ae-bebb81ae84fb","ios":"levelo://app?vid=5eb236d0-c732-47a3-b4ae-bebb81ae84fb"},"vehicle_type_id":"4","last_reported":1768212949,"current_range_meters":7200,"station_id":"","pricing_plan_id":"cebpf4jnsgd1na2vs0mg"},{"bike_id":"f5405686-2c5f-4048-b898-5f7ecc36adee","system_id":"levelo_inurba_marseille","lat":43.30153,"lon":5.38104,"is_reserved":false,"is_disabled":true,"rental_uris":{"android":"levelo://app?vid=f5405686-2c5f-4048-b898-5f7ecc36adee","ios":"levelo://app?vid=f5405686-2c5f-4048-b898-5f7ecc36adee"},"vehicle_type_id":"4","last_reported":1768212949,"current_range_meters":7200,"station_id":"ce4bgjp2rcd13ifvqbh0","pricing_plan_id":"cebpf4jnsgd1na2vs0mg"},{"bike_id":"33fbd9ad-1a47-4552-be76-41f62e6395e3","system_id":"levelo_inurba_marseille","lat":43.293,"lon":5.37153,"is_reserved":false,"is_disabled":false,"rental_uris":{"android":"levelo://app?vid=33fbd9ad-1a47-4552-be76-41f62e6395e3","ios":"levelo://app?vid=33fbd9ad-1a47-4552-be76-41f62e6395e3"},"vehicle_type_id":"4","last_reported":1768212949,"current_range_meters":7200,"station_id":"ce4bgh92rcd13ifvqb40","pricing_plan_id":"cebpf4jnsgd1na2vs0mg"},{"bike_id":"bf66e930-90c3-478a-9926-95b8de8a6d74","system_id":"levelo_inurba_marseille","lat":43.22559,"lon":5.41638,"is_reserved":false,"is_disabled":false,"rental_uris":{"android":"levelo://app?vid=bf66e930-90c3-478a-9926-95b8de8a6d74","ios":"levelo://app?vid=bf66e930-90c3-478a-9926-95b8de8a6d74"},"vehicle_type_id":"4","last_reported":1768212949,"current_range_meters":7200,"station_id":"st_d2o4gvlbi1j2169b742g","pricing_plan_id":"cebpf4jnsgd1na2vs0mg"},{"bike_id":"71f6a12e-0176-43f2-88a4-80c6e5aa7f62","system_id":"levelo_inurba_marseille","lat":43.262028,"lon":5.374528,"is_reserved":false,"is_disabled":true,"rental_uris":{"android":"levelo://app?vid=71f6a12e-0176-43f2-88a4-80c6e5aa7f62","ios":"levelo://app?vid=71f6a12e-0176-43f2-88a4-80c6e5aa7f62"},"vehicle_type_id":"4","last_reported":1768212949,"current_range_meters":7200,"station_id":"ce4bhgp2rcd13ifvqfc0","pricing_plan_id":"cebpf4jnsgd1na2vs0mg"},{"bike_id":"68fe2179-279d-4c54-966c-586d35e55bc0","system_id":"levelo_inurba_marseille","lat":43.23781,"lon":5.36631,"is_reserved":false,"is_disabled":false,"rental_uris":{"android":"levelo://app?vid=68fe2179-279d-4c54-966c-586d35e55bc0","ios":"levelo://app?vid=68fe2179-279d-4c54-966c-586d35e55bc0"},"vehicle_type_id":"4","last_reported":1768212949,"current_range_meters":7200,"station_id":"st_d3nk18o9ro0c73en2l3g","pricing_plan_id":"cebpf4jnsgd1na2vs0mg"},{"bike_id":"0dc33624-aad9-4738-ab08-dfd76af85df6","system_id":"levelo_inurba_marseille","lat":43.24071,"lon":5.37768,"is_reserved":false,"is_disabled":false,"rental_uris":{"android":"levelo://app?vid=0dc33624-aad9-4738-ab08-dfd76af85df6","ios":"levelo://app?vid=0dc33624-aad9-4738-ab08-dfd76af85df6"},"vehicle_type_id":"4","last_reported":1768212949,"current_range_meters":7200,"station_id":"ce4bhnp2rcd13ifvqgvg","pricing_plan_id":"cebpf4jnsgd1na2vs0mg"},{"bike_id":"e8cc55ed-6dbf-42a1-9d30-a86610322615","system_id":"levelo_inurba_marseille","lat":43.28943,"lon":5.3637,"is_reserved":false,"is_disabled":false,"rental_uris":{"android":"levelo://app?vid=e8cc55ed-6dbf-42a1-9d30-a86610322615","ios":"levelo://app?vid=e8cc55ed-6dbf-42a1-9d30-a86610322615"},"vehicle_type_id":"4","last_reported":1768212949,"current_range_meters":7200,"station_id":"ce4bhc92rcd13ifvqetg","pricing_plan_id":"cebpf4jnsgd1na2vs0mg"},{"bike_id":"c741c788-82f0-4732-bb43-3e7a7518580d","system_id":"levelo_inurba_marseille","lat":43.331537,"lon":5.376942,"is_reserved":false,"is_disabled":false,"rental_uris":{"android":"levelo://app?vid=c741c788-82f0-4732-bb43-3e7a7518580d","ios":"levelo://app?vid=c741c788-82f0-4732-bb43-3e7a7518580d"},"vehicle_type_id":"4","last_reported":1768212949,"current_range_meters":7200,"station_id":"st_d46cu089ee8s73dldbu0","pricing_plan_id":"cebpf4jnsgd1na2vs0mg"},{"bike_id":"360cd3e6-e5e1-447a-b1c4-a37d19e4f9fa","system_id":"levelo_inurba_marseille","lat":43.323489,"lon":5.367461,"is_reserved":false,"is_disabled":false,"rental_uris":{"android":"levelo://app?vid=360cd3e6-e5e1-447a-b1c4-a37d19e4f9fa","ios":"levelo://app?vid=360cd3e6-e5e1-447a-b1c4-a37d19e4f9fa"},"vehicle_type_id":"4","last_reported":1768212949,"current_range_meters":7200,"station_id":"ce4bhsh2rcd13ifvqi2g","pricing_plan_id":"cebpf4jnsgd1na2vs0mg"},{"bike_id":"23b46792-919d-43d8-b3a4-b80d3934a7d8","system_id":"levelo_inurba_marseille","lat":43.27773,"lon":5.39944,"is_reserved":false,"is_disabled":false,"rental_uris":{"android":"levelo://app?vid=23b46792-919d-43d8-b3a4-b80d3934a7d8","ios":"levelo://app?vid=23b46792-919d-43d8-b3a4-b80d3934a7d8"},"vehicle_type_id":"4","last_reported":1768212949,"current_range_meters":7200,"station_id":"","pricing_plan_id":"cebpf4jnsgd1na2vs0mg"},{"bike_id":"e80c59e8-0fcc-4b6e-ac91-951ea874abea","system_id":"levelo_inurba_marseille","lat":43.23193,"lon":5.35554,"is_reserved":false,"is_disabled":false,"rental_uris":{"android":"levelo://app?vid=e80c59e8-0fcc-4b6e-ac91-951ea874abea","ios":"levelo://app?vid=e80c59e8-0fcc-4b6e-ac91-951ea874abea"},"vehicle_type_id":"4","last_reported":1768212949,"current_range_meters":7200,"station_id":"ce4bhu92rcd13ifvqi70","pricing_plan_id":"cebpf4jnsgd1na2vs0mg"},{"bike_id":"10c0b1c4-7d2b-417e-87d0-9f8889d09f30","system_id":"levelo_inurba_marseille","lat":43.22561,"lon":5.41621,"is_reserved":false,"is_disabled":false,"rental_uris":{"android":"levelo://app?vid=10c0b1c4-7d2b-417e-87d0-9f8889d09f30","ios":"levelo://app?vid=10c0b1c4-7d2b-417e-87d0-9f8889d09f30"},"vehicle_type_id":"4","last_reported":1768212949,"current_range_meters":7200,"station_id":"st_d2o4gvlbi1j2169b742g","pricing_plan_id":"cebpf4jnsgd1na2vs0mg"},{"bike_id":"e6110b19-a38b-4113-9ab2-e5c7136863ba","system_id":"levelo_inurba_marseille","lat":43.24602,"lon":5.4312,"is_reserved":false,"is_disabled":false,"rental_uris":{"android":"levelo://app?vid=e6110b19-a38b-4113-9ab2-e5c7136863ba","ios":"levelo://app?vid=e6110b19-a38b-4113-9ab2-e5c7136863ba"},"vehicle_type_id":"4","last_reported":1768212949,"current_range_meters":7200,"station_id":"st_d2m6c4gdas8pm72e190g","pricing_plan_id":"cebpf4jnsgd1na2vs0mg"},{"bike_id":"e5a3d6a3-5a0b-4c05-b321-ca477bf7394c","system_id":"levelo_inurba_marseille","lat":43.28155,"lon":5.42621,"is_reserved":false,"is_disabled":false,"rental_uris":{"android":"levelo://app?vid=e5a3d6a3-5a0b-4c05-b321-ca477bf7394c","ios":"levelo://app?vid=e5a3d6a3-5a0b-4c05-b321-ca477bf7394c"},"vehicle_type_id":"4","last_reported":1768212949,"current_range_meters":7200,"station_id":"ce4bhnh2rcd13ifvqgug","pricing_plan_id":"cebpf4jnsgd1na2vs0mg"},{"bike_id":"a48c03bd-0092-420a-b48d-51f9d47c3435","system_id":"levelo_inurba_marseille","lat":43.24076,"lon":5.37768,"is_reserved":false,"is_disabled":false,"rental_uris":{"android":"levelo://app?vid=a48c03bd-0092-420a-b48d-51f9d47c3435","ios":"levelo://app?vid=a48c03bd-0092-420a-b48d-51f9d47c3435"},"vehicle_type_id":"4","last_reported":1768212949,"current_range_meters":7200,"station_id":"ce4bhnp2rcd13ifvqgvg","pricing_plan_id":"cebpf4jnsgd1na2vs0mg"},{"bike_id":"1d05c0f5-d103-44c5-9ac5-b777a385274b","system_id":"levelo_inurba_marseille","lat":43.28928,"lon":5.36659,"is_reserved":false,"is_disabled":false,"rental_uris":{"android":"levelo://app?vid=1d05c0f5-d103-44c5-9ac5-b777a385274b","ios":"levelo://app?vid=1d05c0f5-d103-44c5-9ac5-b777a385274b"},"vehicle_type_id":"4","last_reported":1768212949,"current_range_meters":7200,"station_id":"ce4bhap2rcd13ifvqek0","pricing_plan_id":"cebpf4jnsgd1na2vs0mg"},{"bike_id":"873a8bdd-9b14-4418-97cd-bba46944572e","system_id":"levelo_inurba_marseille","lat":43.24807,"lon":5.37455,"is_reserved":false,"is_disabled":false,"rental_uris":{"android":"levelo://app?vid=873a8bdd-9b14-4418-97cd-bba46944572e","ios":"levelo://app?vid=873a8bdd-9b14-4418-97cd-bba46944572e"},"vehicle_type_id":"4","last_reported":1768212949,"current_range_meters":7200,"station_id":"ce4bhgh2rcd13ifvqfb0","pricing_plan_id":"cebpf4jnsgd1na2vs0mg"},{"bike_id":"a4763004-b655-480e-8ab9-203e2d556459","system_id":"levelo_inurba_marseille","lat":43.26941,"lon":5.40257,"is_reserved":false,"is_disabled":false,"rental_uris":{"android":"levelo://app?vid=a4763004-b655-480e-8ab9-203e2d556459","ios":"levelo://app?vid=a4763004-b655-480e-8ab9-203e2d556459"},"vehicle_type_id":"4","last_reported":1768212949,"current_range_meters":7200,"station_id":"cjm6bp8fraef2m0cb0m0","pricing_plan_id":"cebpf4jnsgd1na2vs0mg"},{"bike_id":"dd38b488-39cc-41a7-bd66-cef3a34060de","system_id":"levelo_inurba_marseille","lat":43.28483,"lon":5.48394,"is_reserved":false,"is_disabled":false,"rental_uris":{"android":"levelo://app?vid=dd38b488-39cc-41a7-bd66-cef3a34060de","ios":"levelo://app?vid=dd38b488-39cc-41a7-bd66-cef3a34060de"},"vehicle_type_id":"4","last_reported":1768212949,"current_range_meters":7200,"station_id":"st_d3svhcjqgbts73a3dn0g","pricing_plan_id":"cebpf4jnsgd1na2vs0mg"},{"bike_id":"8a7ee903-e4c0-4637-b8c6-905f7f6393e5","system_id":"levelo_inurba_marseille","lat":43.24165,"lon":5.364,"is_reserved":false,"is_disabled":false,"rental_uris":{"android":"levelo://app?vid=8a7ee903-e4c0-4637-b8c6-905f7f6393e5","ios":"levelo://app?vid=8a7ee903-e4c0-4637-b8c6-905f7f6393e5"},"vehicle_type_id":"4","last_reported":1768212949,"current_range_meters":7200,"station_id":"cpo36qri1sfpv3e86is0","pricing_plan_id":"cebpf4jnsgd1na2vs0mg"},{"bike_id":"7a0dc5a2-2fcf-4d97-a695-0d309e62ee0c","system_id":"levelo_inurba_marseille","lat":43.23194,"lon":5.35558,"is_reserved":false,"is_disabled":false,"rental_uris":{"android":"levelo://app?vid=7a0dc5a2-2fcf-4d97-a695-0d309e62ee0c","ios":"levelo://app?vid=7a0dc5a2-2fcf-4d97-a695-0d309e62ee0c"},"vehicle_type_id":"4","last_reported":1768212949,"current_range_meters":7200,"station_id":"ce4bhu92rcd13ifvqi70","pricing_plan_id":"cebpf4jnsgd1na2vs0mg"},{"bike_id":"39b144a3-3528-4134-9a2a-b8fcf18762fe","system_id":"levelo_inurba_marseille","lat":43.24068,"lon":5.37755,"is_reserved":false,"is_disabled":false,"rental_uris":{"android":"levelo://app?vid=39b144a3-3528-4134-9a2a-b8fcf18762fe","ios":"levelo://app?vid=39b144a3-3528-4134-9a2a-b8fcf18762fe"},"vehicle_type_id":"4","last_reported":1768212949,"current_range_meters":7200,"station_id":"ce4bhnp2rcd13ifvqgvg","pricing_plan_id":"cebpf4jnsgd1na2vs0mg"},{"bike_id":"08d32b54-49dd-402b-a9b8-fabbfb48259f","system_id":"levelo_inurba_marseille","lat":43.22552,"lon":5.41624,"is_reserved":false,"is_disabled":true,"rental_uris":{"android":"levelo://app?vid=08d32b54-49dd-402b-a9b8-fabbfb48259f","ios":"levelo://app?vid=08d32b54-49dd-402b-a9b8-fabbfb48259f"},"vehicle_type_id":"4","last_reported":1768212949,"current_range_meters":7200,"station_id":"st_d2o4gvlbi1j2169b742g","pricing_plan_id":"cebpf4jnsgd1na2vs0mg"},{"bike_id":"2f71cfff-5cc5-4e9e-b38d-a9d99fd6e1e7","system_id":"levelo_inurba_marseille","lat":43.24661,"lon":5.38153,"is_reserved":false,"is_disabled":false,"rental_uris":{"android":"levelo://app?vid=2f71cfff-5cc5-4e9e-b38d-a9d99fd6e1e7","ios":"levelo://app?vid=2f71cfff-5cc5-4e9e-b38d-a9d99fd6e1e7"},"vehicle_type_id":"4","last_reported":1768212949,"current_range_meters":7200,"station_id":"ce4bhih2rcd13ifvqfr0","pricing_plan_id":"cebpf4jnsgd1na2vs0mg"},{"bike_id":"724edc4d-cfab-45dd-a76c-b746a0ce7c2a","system_id":"levelo_inurba_marseille","lat":43.3014,"lon":5.37423,"is_reserved":false,"is_disabled":false,"rental_uris":{"android":"levelo://app?vid=724edc4d-cfab-45dd-a76c-b746a0ce7c2a","ios":"levelo://app?vid=724edc4d-cfab-45dd-a76c-b746a0ce7c2a"},"vehicle_type_id":"4","last_reported":1768212949,"current_range_meters":8000,"station_id":"ce4bgs92rcd13ifvqcc0","pricing_plan_id":"cebpf4jnsgd1na2vs0mg"},{"bike_id":"52fa530c-71c0-477a-9d82-12d8a6095467","system_id":"levelo_inurba_marseille","lat":43.29574,"lon":5.37518,"is_reserved":false,"is_disabled":true,"rental_uris":{"android":"levelo://app?vid=52fa530c-71c0-477a-9d82-12d8a6095467","ios":"levelo://app?vid=52fa530c-71c0-477a-9d82-12d8a6095467"},"vehicle_type_id":"4","last_reported":1768212949,"current_range_meters":8000,"station_id":"","pricing_plan_id":"cebpf4jnsgd1na2vs0mg"},{"bike_id":"762020d9-8a0a-4255-a7c2-e512dba0013d","system_id":"levelo_inurba_marseille","lat":43.297182,"lon":5.378544,"is_reserved":false,"is_disabled":false,"rental_uris":{"android":"levelo://app?vid=762020d9-8a0a-4255-a7c2-e512dba0013d","ios":"levelo://app?vid=762020d9-8a0a-4255-a7c2-e512dba0013d"},"vehicle_type_id":"4","last_reported":1768212949,"current_range_meters":8000,"station_id":"","pricing_plan_id":"cebpf4jnsgd1na2vs0mg"},{"bike_id":"caca6502-7fba-4a36-89eb-b7fe25f857cd","system_id":"levelo_inurba_marseille","lat":43.3138,"lon":5.36807,"is_reserved":false,"is_disabled":false,"rental_uris":{"android":"levelo://app?vid=caca6502-7fba-4a36-89eb-b7fe25f857cd","ios":"levelo://app?vid=caca6502-7fba-4a36-89eb-b7fe25f857cd"},"vehicle_type_id":"4","last_reported":1768212949,"current_range_meters":8000,"station_id":"","pricing_plan_id":"cebpf4jnsgd1na2vs0mg"},{"bike_id":"d8fd8f8a-38f2-4992-9be5-cec5fec90127","system_id":"levelo_inurba_marseille","lat":43.29603,"lon":5.37714,"is_reserved":false,"is_disabled":true,"rental_uris":{"android":"levelo://app?vid=d8fd8f8a-38f2-4992-9be5-cec5fec90127","ios":"levelo://app?vid=d8fd8f8a-38f2-4992-9be5-cec5fec90127"},"vehicle_type_id":"4","last_reported":1768212949,"current_range_meters":8000,"station_id":"ce4bgi92rcd13ifvqb90","pricing_plan_id":"cebpf4jnsgd1na2vs0mg"},{"bike_id":"b41a2875-da15-43f3-b115-97366df37d38","system_id":"levelo_inurba_marseille","lat":43.33153,"lon":5.37657,"is_reserved":false,"is_disabled":false,"rental_uris":{"android":"levelo://app?vid=b41a2875-da15-43f3-b115-97366df37d38","ios":"levelo://app?vid=b41a2875-da15-43f3-b115-97366df37d38"},"vehicle_type_id":"4","last_reported":1768212949,"current_range_meters":8000,"station_id":"st_d46cu089ee8s73dldbu0","pricing_plan_id":"cebpf4jnsgd1na2vs0mg"},{"bike_id":"71d57536-9c93-4c74-ba64-c1df1d211369","system_id":"levelo_inurba_marseille","lat":43.27494,"lon":5.4246,"is_reserved":false,"is_disabled":false,"rental_uris":{"android":"levelo://app?vid=71d57536-9c93-4c74-ba64-c1df1d211369","ios":"levelo://app?vid=71d57536-9c93-4c74-ba64-c1df1d211369"},"vehicle_type_id":"4","last_reported":1768212949,"current_range_meters":8000,"station_id":"ce4bhn92rcd13ifvqgrg","pricing_plan_id":"cebpf4jnsgd1na2vs0mg"},{"bike_id":"86709562-da3f-411c-b77c-1c581c5bc47a","system_id":"levelo_inurba_marseille","lat":43.22549,"lon":5.41638,"is_reserved":false,"is_disabled":false,"rental_uris":{"android":"levelo://app?vid=86709562-da3f-411c-b77c-1c581c5bc47a","ios":"levelo://app?vid=86709562-da3f-411c-b77c-1c581c5bc47a"},"vehicle_type_id":"4","last_reported":1768212949,"current_range_meters":8000,"station_id":"st_d2o4gvlbi1j2169b742g","pricing_plan_id":"cebpf4jnsgd1na2vs0mg"},{"bike_id":"2f0d5ebb-41df-4dfd-96e0-c139f222cfbb","system_id":"levelo_inurba_marseille","lat":43.25719,"lon":5.41117,"is_reserved":false,"is_disabled":false,"rental_uris":{"android":"levelo://app?vid=2f0d5ebb-41df-4dfd-96e0-c139f222cfbb","ios":"levelo://app?vid=2f0d5ebb-41df-4dfd-96e0-c139f222cfbb"},"vehicle_type_id":"4","last_reported":1768212949,"current_range_meters":8000,"station_id":"ce4bhkp2rcd13ifvqgd0","pricing_plan_id":"cebpf4jnsgd1na2vs0mg"},{"bike_id":"53e81292-caae-4f8b-a557-bc615d8d7425","system_id":"levelo_inurba_marseille","lat":43.246595,"lon":5.431481,"is_reserved":false,"is_disabled":false,"rental_uris":{"android":"levelo://app?vid=53e81292-caae-4f8b-a557-bc615d8d7425","ios":"levelo://app?vid=53e81292-caae-4f8b-a557-bc615d8d7425"},"vehicle_type_id":"4","last_reported":1768212949,"current_range_meters":8000,"station_id":"st_d2m6c4gdas8pm72e190g","pricing_plan_id":"cebpf4jnsgd1na2vs0mg"},{"bike_id":"e5b35282-eb3b-414a-95e1-30cd938f47e1","system_id":"levelo_inurba_marseille","lat":43.29029,"lon":5.36342,"is_reserved":false,"is_disabled":true,"rental_uris":{"android":"levelo://app?vid=e5b35282-eb3b-414a-95e1-30cd938f47e1","ios":"levelo://app?vid=e5b35282-eb3b-414a-95e1-30cd938f47e1"},"vehicle_type_id":"4","last_reported":1768212949,"current_range_meters":8000,"station_id":"","pricing_plan_id":"cebpf4jnsgd1na2vs0mg"},{"bike_id":"f80bd508-f401-4f88-8e7c-95a860f31d52","system_id":"levelo_inurba_marseille","lat":43.27206,"lon":5.39186,"is_reserved":false,"is_disabled":false,"rental_uris":{"android":"levelo://app?vid=f80bd508-f401-4f88-8e7c-95a860f31d52","ios":"levelo://app?vid=f80bd508-f401-4f88-8e7c-95a860f31d52"},"vehicle_type_id":"4","last_reported":1768212949,"current_range_meters":8000,"station_id":"ce4bhhp2rcd13ifvqfm0","pricing_plan_id":"cebpf4jnsgd1na2vs0mg"},{"bike_id":"d7446144-eeb6-4bd9-974d-db9bfacf93a5","system_id":"levelo_inurba_marseille","lat":43.24651,"lon":5.38885,"is_reserved":false,"is_disabled":false,"rental_uris":{"android":"levelo://app?vid=d7446144-eeb6-4bd9-974d-db9bfacf93a5","ios":"levelo://app?vid=d7446144-eeb6-4bd9-974d-db9bfacf93a5"},"vehicle_type_id":"4","last_reported":1768212949,"current_range_meters":8000,"station_id":"ce4bhg12rcd13ifvqf60","pricing_plan_id":"cebpf4jnsgd1na2vs0mg"},{"bike_id":"66963ec7-6410-41aa-ab8b-428b71198e50","system_id":"levelo_inurba_marseille","lat":43.3237,"lon":5.36776,"is_reserved":false,"is_disabled":false,"rental_uris":{"android":"levelo://app?vid=66963ec7-6410-41aa-ab8b-428b71198e50","ios":"levelo://app?vid=66963ec7-6410-41aa-ab8b-428b71198e50"},"vehicle_type_id":"4","last_reported":1768212949,"current_range_meters":8000,"station_id":"ce4bhsh2rcd13ifvqi2g","pricing_plan_id":"cebpf4jnsgd1na2vs0mg"},{"bike_id":"2d5ccc13-d1ca-441a-856d-0d77751ce04b","system_id":"levelo_inurba_marseille","lat":43.231894,"lon":5.355575,"is_reserved":false,"is_disabled":false,"rental_uris":{"android":"levelo://app?vid=2d5ccc13-d1ca-441a-856d-0d77751ce04b","ios":"levelo://app?vid=2d5ccc13-d1ca-441a-856d-0d77751ce04b"},"vehicle_type_id":"4","last_reported":1768212949,"current_range_meters":8000,"station_id":"ce4bhu92rcd13ifvqi70","pricing_plan_id":"cebpf4jnsgd1na2vs0mg"},{"bike_id":"e5c501eb-347a-4c17-b53f-cb623858726d","system_id":"levelo_inurba_marseille","lat":43.29536,"lon":5.37502,"is_reserved":false,"is_disabled":false,"rental_uris":{"android":"levelo://app?vid=e5c501eb-347a-4c17-b53f-cb623858726d","ios":"levelo://app?vid=e5c501eb-347a-4c17-b53f-cb623858726d"},"vehicle_type_id":"4","last_reported":1768212949,"current_range_meters":8000,"station_id":"ce4bgkp2rcd13ifvqbmg","pricing_plan_id":"cebpf4jnsgd1na2vs0mg"},{"bike_id":"351b372f-d32b-444a-b5dc-0dbc90c2b0d2","system_id":"levelo_inurba_marseille","lat":43.26555,"lon":5.37286,"is_reserved":false,"is_disabled":false,"rental_uris":{"android":"levelo://app?vid=351b372f-d32b-444a-b5dc-0dbc90c2b0d2","ios":"levelo://app?vid=351b372f-d32b-444a-b5dc-0dbc90c2b0d2"},"vehicle_type_id":"4","last_reported":1768212949,"current_range_meters":8400,"station_id":"ce4bhg12rcd13ifvqf70","pricing_plan_id":"cebpf4jnsgd1na2vs0mg"},{"bike_id":"412c4daa-00b5-42ee-bae7-89b10fb3374d","system_id":"levelo_inurba_marseille","lat":43.32359,"lon":5.36737,"is_reserved":false,"is_disabled":false,"rental_uris":{"android":"levelo://app?vid=412c4daa-00b5-42ee-bae7-89b10fb3374d","ios":"levelo://app?vid=412c4daa-00b5-42ee-bae7-89b10fb3374d"},"vehicle_type_id":"4","last_reported":1768212949,"current_range_meters":8400,"station_id":"ce4bhsh2rcd13ifvqi2g","pricing_plan_id":"cebpf4jnsgd1na2vs0mg"},{"bike_id":"965e1384-2415-4efe-b762-5f2310dffbb9","system_id":"levelo_inurba_marseille","lat":43.30963,"lon":5.39042,"is_reserved":false,"is_disabled":false,"rental_uris":{"android":"levelo://app?vid=965e1384-2415-4efe-b762-5f2310dffbb9","ios":"levelo://app?vid=965e1384-2415-4efe-b762-5f2310dffbb9"},"vehicle_type_id":"4","last_reported":1768212949,"current_range_meters":8400,"station_id":"ce4bgup2rcd13ifvqco0","pricing_plan_id":"cebpf4jnsgd1na2vs0mg"},{"bike_id":"816bdee6-40be-42e1-9efd-c27b41592de9","system_id":"levelo_inurba_marseille","lat":43.28875,"lon":5.42526,"is_reserved":false,"is_disabled":false,"rental_uris":{"android":"levelo://app?vid=816bdee6-40be-42e1-9efd-c27b41592de9","ios":"levelo://app?vid=816bdee6-40be-42e1-9efd-c27b41592de9"},"vehicle_type_id":"4","last_reported":1768212949,"current_range_meters":8400,"station_id":"st_d3b462108ojc7389ooeg","pricing_plan_id":"cebpf4jnsgd1na2vs0mg"},{"bike_id":"76c0649d-b98d-4083-a1ba-177f8b045115","system_id":"levelo_inurba_marseille","lat":43.258619,"lon":5.399086,"is_reserved":false,"is_disabled":true,"rental_uris":{"android":"levelo://app?vid=76c0649d-b98d-4083-a1ba-177f8b045115","ios":"levelo://app?vid=76c0649d-b98d-4083-a1ba-177f8b045115"},"vehicle_type_id":"4","last_reported":1768212949,"current_range_meters":8400,"station_id":"ce4bhl92rcd13ifvqghg","pricing_plan_id":"cebpf4jnsgd1na2vs0mg"},{"bike_id":"dbe6c546-a66e-49d4-b871-72c216b4de29","system_id":"levelo_inurba_marseille","lat":43.25081,"lon":5.39525,"is_reserved":false,"is_disabled":false,"rental_uris":{"android":"levelo://app?vid=dbe6c546-a66e-49d4-b871-72c216b4de29","ios":"levelo://app?vid=dbe6c546-a66e-49d4-b871-72c216b4de29"},"vehicle_type_id":"4","last_reported":1768212949,"current_range_meters":8400,"station_id":"ce4bhm12rcd13ifvqgkg","pricing_plan_id":"cebpf4jnsgd1na2vs0mg"},{"bike_id":"8a7fda0d-7225-44ed-8682-912e8ba6ea55","system_id":"levelo_inurba_marseille","lat":43.24476,"lon":5.42556,"is_reserved":false,"is_disabled":false,"rental_uris":{"android":"levelo://app?vid=8a7fda0d-7225-44ed-8682-912e8ba6ea55","ios":"levelo://app?vid=8a7fda0d-7225-44ed-8682-912e8ba6ea55"},"vehicle_type_id":"4","last_reported":1768212949,"current_range_meters":8400,"station_id":"st_d4a3vfp97mjs738cd8kg","pricing_plan_id":"cebpf4jnsgd1na2vs0mg"},{"bike_id":"cf526842-1b4a-4c84-b1c3-b6cf7f433420","system_id":"levelo_inurba_marseille","lat":43.260588,"lon":5.393972,"is_reserved":false,"is_disabled":false,"rental_uris":{"android":"levelo://app?vid=cf526842-1b4a-4c84-b1c3-b6cf7f433420","ios":"levelo://app?vid=cf526842-1b4a-4c84-b1c3-b6cf7f433420"},"vehicle_type_id":"4","last_reported":1768212949,"current_range_meters":8400,"station_id":"ce4bhh92rcd13ifvqfj0","pricing_plan_id":"cebpf4jnsgd1na2vs0mg"},{"bike_id":"0aca56a0-7e23-4ac7-9142-fcb273665a2e","system_id":"levelo_inurba_marseille","lat":43.26932,"lon":5.40254,"is_reserved":false,"is_disabled":false,"rental_uris":{"android":"levelo://app?vid=0aca56a0-7e23-4ac7-9142-fcb273665a2e","ios":"levelo://app?vid=0aca56a0-7e23-4ac7-9142-fcb273665a2e"},"vehicle_type_id":"4","last_reported":1768212949,"current_range_meters":8400,"station_id":"cjm6bp8fraef2m0cb0m0","pricing_plan_id":"cebpf4jnsgd1na2vs0mg"},{"bike_id":"a087d310-b719-45c7-bc1e-8494368138a0","system_id":"levelo_inurba_marseille","lat":43.31749,"lon":5.39017,"is_reserved":false,"is_disabled":false,"rental_uris":{"android":"levelo://app?vid=a087d310-b719-45c7-bc1e-8494368138a0","ios":"levelo://app?vid=a087d310-b719-45c7-bc1e-8494368138a0"},"vehicle_type_id":"4","last_reported":1768212949,"current_range_meters":8400,"station_id":"ce4bhqp2rcd13ifvqhng","pricing_plan_id":"cebpf4jnsgd1na2vs0mg"},{"bike_id":"b6f592cc-7b8d-42e7-9ad7-3226d127ce34","system_id":"levelo_inurba_marseille","lat":43.26537,"lon":5.37295,"is_reserved":false,"is_disabled":false,"rental_uris":{"android":"levelo://app?vid=b6f592cc-7b8d-42e7-9ad7-3226d127ce34","ios":"levelo://app?vid=b6f592cc-7b8d-42e7-9ad7-3226d127ce34"},"vehicle_type_id":"4","last_reported":1768212949,"current_range_meters":8400,"station_id":"ce4bhg12rcd13ifvqf70","pricing_plan_id":"cebpf4jnsgd1na2vs0mg"},{"bike_id":"f24b62e4-bcfd-4a79-a53f-bc5ae83d031d","system_id":"levelo_inurba_marseille","lat":43.28181,"lon":5.40408,"is_reserved":false,"is_disabled":false,"rental_uris":{"android":"levelo://app?vid=f24b62e4-bcfd-4a79-a53f-bc5ae83d031d","ios":"levelo://app?vid=f24b62e4-bcfd-4a79-a53f-bc5ae83d031d"},"vehicle_type_id":"4","last_reported":1768212949,"current_range_meters":8400,"station_id":"","pricing_plan_id":"cebpf4jnsgd1na2vs0mg"},{"bike_id":"5f2748af-7a79-4322-a1b2-29853cbba1ed","system_id":"levelo_inurba_marseille","lat":43.286177,"lon":5.350998,"is_reserved":false,"is_disabled":false,"rental_uris":{"android":"levelo://app?vid=5f2748af-7a79-4322-a1b2-29853cbba1ed","ios":"levelo://app?vid=5f2748af-7a79-4322-a1b2-29853cbba1ed"},"vehicle_type_id":"4","last_reported":1768212949,"current_range_meters":8400,"station_id":"ce4bhch2rcd13ifvqeug","pricing_plan_id":"cebpf4jnsgd1na2vs0mg"},{"bike_id":"dc7c5fed-b969-4774-ad45-d778bb5cddad","system_id":"levelo_inurba_marseille","lat":43.23959,"lon":5.36614,"is_reserved":false,"is_disabled":false,"rental_uris":{"android":"levelo://app?vid=dc7c5fed-b969-4774-ad45-d778bb5cddad","ios":"levelo://app?vid=dc7c5fed-b969-4774-ad45-d778bb5cddad"},"vehicle_type_id":"4","last_reported":1768212949,"current_range_meters":8400,"station_id":"ce4bhi12rcd13ifvqfp0","pricing_plan_id":"cebpf4jnsgd1na2vs0mg"},{"bike_id":"df93eae1-9a8e-44a7-a49c-a273a5b8de4d","system_id":"levelo_inurba_marseille","lat":43.31216,"lon":5.3685,"is_reserved":false,"is_disabled":false,"rental_uris":{"android":"levelo://app?vid=df93eae1-9a8e-44a7-a49c-a273a5b8de4d","ios":"levelo://app?vid=df93eae1-9a8e-44a7-a49c-a273a5b8de4d"},"vehicle_type_id":"4","last_reported":1768212949,"current_range_meters":8400,"station_id":"ce4bgl92rcd13ifvqbq0","pricing_plan_id":"cebpf4jnsgd1na2vs0mg"},{"bike_id":"53c84c67-127f-4425-8f51-452648c02688","system_id":"levelo_inurba_marseille","lat":43.26378,"lon":5.41063,"is_reserved":false,"is_disabled":false,"rental_uris":{"android":"levelo://app?vid=53c84c67-127f-4425-8f51-452648c02688","ios":"levelo://app?vid=53c84c67-127f-4425-8f51-452648c02688"},"vehicle_type_id":"4","last_reported":1768212949,"current_range_meters":8400,"station_id":"st_d4e5ca6na9uc73bfl5fg","pricing_plan_id":"cebpf4jnsgd1na2vs0mg"},{"bike_id":"67bd682a-a6b6-4199-91e3-8aef5a467fc3","system_id":"levelo_inurba_marseille","lat":43.26063,"lon":5.39397,"is_reserved":false,"is_disabled":false,"rental_uris":{"android":"levelo://app?vid=67bd682a-a6b6-4199-91e3-8aef5a467fc3","ios":"levelo://app?vid=67bd682a-a6b6-4199-91e3-8aef5a467fc3"},"vehicle_type_id":"4","last_reported":1768212949,"current_range_meters":8400,"station_id":"ce4bhh92rcd13ifvqfj0","pricing_plan_id":"cebpf4jnsgd1na2vs0mg"},{"bike_id":"58a5363f-a273-4b98-911e-a848be19837b","system_id":"levelo_inurba_marseille","lat":43.312188,"lon":5.368485,"is_reserved":false,"is_disabled":false,"rental_uris":{"android":"levelo://app?vid=58a5363f-a273-4b98-911e-a848be19837b","ios":"levelo://app?vid=58a5363f-a273-4b98-911e-a848be19837b"},"vehicle_type_id":"4","last_reported":1768212949,"current_range_meters":8400,"station_id":"ce4bgl92rcd13ifvqbq0","pricing_plan_id":"cebpf4jnsgd1na2vs0mg"},{"bike_id":"2e0eaca7-8f7e-44ff-8fc6-2003c18a52c4","system_id":"levelo_inurba_marseille","lat":43.29095,"lon":5.38156,"is_reserved":false,"is_disabled":false,"rental_uris":{"android":"levelo://app?vid=2e0eaca7-8f7e-44ff-8fc6-2003c18a52c4","ios":"levelo://app?vid=2e0eaca7-8f7e-44ff-8fc6-2003c18a52c4"},"vehicle_type_id":"4","last_reported":1768212949,"current_range_meters":8400,"station_id":"ce4bh512rcd13ifvqe2g","pricing_plan_id":"cebpf4jnsgd1na2vs0mg"},{"bike_id":"a1be841d-9deb-43ed-a664-f4b6ebd02292","system_id":"levelo_inurba_marseille","lat":43.23843,"lon":5.36653,"is_reserved":false,"is_disabled":false,"rental_uris":{"android":"levelo://app?vid=a1be841d-9deb-43ed-a664-f4b6ebd02292","ios":"levelo://app?vid=a1be841d-9deb-43ed-a664-f4b6ebd02292"},"vehicle_type_id":"4","last_reported":1768212949,"current_range_meters":8400,"station_id":"","pricing_plan_id":"cebpf4jnsgd1na2vs0mg"},{"bike_id":"95d64d3c-7b4c-4db5-b5f1-781d786e1901","system_id":"levelo_inurba_marseille","lat":43.24805,"lon":5.37463,"is_reserved":false,"is_disabled":false,"rental_uris":{"android":"levelo://app?vid=95d64d3c-7b4c-4db5-b5f1-781d786e1901","ios":"levelo://app?vid=95d64d3c-7b4c-4db5-b5f1-781d786e1901"},"vehicle_type_id":"4","last_reported":1768212949,"current_range_meters":8400,"station_id":"ce4bhgh2rcd13ifvqfb0","pricing_plan_id":"cebpf4jnsgd1na2vs0mg"},{"bike_id":"e6b72d51-9ebb-4ae8-bda9-bcfd23593d37","system_id":"levelo_inurba_marseille","lat":43.300079,"lon":5.373452,"is_reserved":false,"is_disabled":false,"rental_uris":{"android":"levelo://app?vid=e6b72d51-9ebb-4ae8-bda9-bcfd23593d37","ios":"levelo://app?vid=e6b72d51-9ebb-4ae8-bda9-bcfd23593d37"},"vehicle_type_id":"4","last_reported":1768212949,"current_range_meters":8400,"station_id":"","pricing_plan_id":"cebpf4jnsgd1na2vs0mg"},{"bike_id":"c613abca-3ffb-4b68-9d10-c38d18728f87","system_id":"levelo_inurba_marseille","lat":43.30653,"lon":5.40514,"is_reserved":false,"is_disabled":false,"rental_uris":{"android":"levelo://app?vid=c613abca-3ffb-4b68-9d10-c38d18728f87","ios":"levelo://app?vid=c613abca-3ffb-4b68-9d10-c38d18728f87"},"vehicle_type_id":"4","last_reported":1768212949,"current_range_meters":8400,"station_id":"ce4bh112rcd13ifvqda0","pricing_plan_id":"cebpf4jnsgd1na2vs0mg"},{"bike_id":"039718c4-b9e8-414a-b473-bba4d10b938b","system_id":"levelo_inurba_marseille","lat":43.23785,"lon":5.3664,"is_reserved":false,"is_disabled":false,"rental_uris":{"android":"levelo://app?vid=039718c4-b9e8-414a-b473-bba4d10b938b","ios":"levelo://app?vid=039718c4-b9e8-414a-b473-bba4d10b938b"},"vehicle_type_id":"4","last_reported":1768212949,"current_range_meters":8400,"station_id":"st_d3nk18o9ro0c73en2l3g","pricing_plan_id":"cebpf4jnsgd1na2vs0mg"},{"bike_id":"0d29c7c8-cd19-4c23-8151-3b542b4ecd53","system_id":"levelo_inurba_marseille","lat":43.30465,"lon":5.37905,"is_reserved":false,"is_disabled":false,"rental_uris":{"android":"levelo://app?vid=0d29c7c8-cd19-4c23-8151-3b542b4ecd53","ios":"levelo://app?vid=0d29c7c8-cd19-4c23-8151-3b542b4ecd53"},"vehicle_type_id":"4","last_reported":1768212949,"current_range_meters":8800,"station_id":"ce4bgup2rcd13ifvqcn0","pricing_plan_id":"cebpf4jnsgd1na2vs0mg"},{"bike_id":"90980194-cc03-4769-a7e1-09c8a4c0e089","system_id":"levelo_inurba_marseille","lat":43.24068,"lon":5.37753,"is_reserved":false,"is_disabled":false,"rental_uris":{"android":"levelo://app?vid=90980194-cc03-4769-a7e1-09c8a4c0e089","ios":"levelo://app?vid=90980194-cc03-4769-a7e1-09c8a4c0e089"},"vehicle_type_id":"4","last_reported":1768212949,"current_range_meters":8800,"station_id":"ce4bhnp2rcd13ifvqgvg","pricing_plan_id":"cebpf4jnsgd1na2vs0mg"},{"bike_id":"3298400b-a581-435c-aa7d-6c0aebe8e78f","system_id":"levelo_inurba_marseille","lat":43.32525,"lon":5.3643,"is_reserved":false,"is_disabled":false,"rental_uris":{"android":"levelo://app?vid=3298400b-a581-435c-aa7d-6c0aebe8e78f","ios":"levelo://app?vid=3298400b-a581-435c-aa7d-6c0aebe8e78f"},"vehicle_type_id":"4","last_reported":1768212949,"current_range_meters":8800,"station_id":"","pricing_plan_id":"cebpf4jnsgd1na2vs0mg"},{"bike_id":"59372466-c048-4738-b35c-232eb6870ec4","system_id":"levelo_inurba_marseille","lat":43.29106,"lon":5.38147,"is_reserved":false,"is_disabled":false,"rental_uris":{"android":"levelo://app?vid=59372466-c048-4738-b35c-232eb6870ec4","ios":"levelo://app?vid=59372466-c048-4738-b35c-232eb6870ec4"},"vehicle_type_id":"4","last_reported":1768212949,"current_range_meters":8800,"station_id":"","pricing_plan_id":"cebpf4jnsgd1na2vs0mg"},{"bike_id":"3f15d0a4-d5ca-4657-b5c3-9a1b082ac8bd","system_id":"levelo_inurba_marseille","lat":43.28258,"lon":5.35086,"is_reserved":false,"is_disabled":false,"rental_uris":{"android":"levelo://app?vid=3f15d0a4-d5ca-4657-b5c3-9a1b082ac8bd","ios":"levelo://app?vid=3f15d0a4-d5ca-4657-b5c3-9a1b082ac8bd"},"vehicle_type_id":"4","last_reported":1768212949,"current_range_meters":8800,"station_id":"ce4bhbp2rcd13ifvqerg","pricing_plan_id":"cebpf4jnsgd1na2vs0mg"},{"bike_id":"db3503c5-46a1-4d9a-8495-7f2f9fe849b9","system_id":"levelo_inurba_marseille","lat":43.23523,"lon":5.35944,"is_reserved":false,"is_disabled":false,"rental_uris":{"android":"levelo://app?vid=db3503c5-46a1-4d9a-8495-7f2f9fe849b9","ios":"levelo://app?vid=db3503c5-46a1-4d9a-8495-7f2f9fe849b9"},"vehicle_type_id":"4","last_reported":1768212949,"current_range_meters":8800,"station_id":"","pricing_plan_id":"cebpf4jnsgd1na2vs0mg"},{"bike_id":"83c04dce-a924-4037-886a-3247370d73af","system_id":"levelo_inurba_marseille","lat":43.24071,"lon":5.37758,"is_reserved":false,"is_disabled":false,"rental_uris":{"android":"levelo://app?vid=83c04dce-a924-4037-886a-3247370d73af","ios":"levelo://app?vid=83c04dce-a924-4037-886a-3247370d73af"},"vehicle_type_id":"4","last_reported":1768212949,"current_range_meters":8800,"station_id":"ce4bhnp2rcd13ifvqgvg","pricing_plan_id":"cebpf4jnsgd1na2vs0mg"},{"bike_id":"b149c117-98ef-4c38-aceb-298ce1f4a106","system_id":"levelo_inurba_marseille","lat":43.328946,"lon":5.389415,"is_reserved":false,"is_disabled":false,"rental_uris":{"android":"levelo://app?vid=b149c117-98ef-4c38-aceb-298ce1f4a106","ios":"levelo://app?vid=b149c117-98ef-4c38-aceb-298ce1f4a106"},"vehicle_type_id":"4","last_reported":1768212949,"current_range_meters":8800,"station_id":"","pricing_plan_id":"cebpf4jnsgd1na2vs0mg"},{"bike_id":"25c044fc-6c83-472a-a64a-2c535758c286","system_id":"levelo_inurba_marseille","lat":43.31254,"lon":5.3684,"is_reserved":false,"is_disabled":false,"rental_uris":{"android":"levelo://app?vid=25c044fc-6c83-472a-a64a-2c535758c286","ios":"levelo://app?vid=25c044fc-6c83-472a-a64a-2c535758c286"},"vehicle_type_id":"4","last_reported":1768212949,"current_range_meters":8800,"station_id":"ce4bgl92rcd13ifvqbq0","pricing_plan_id":"cebpf4jnsgd1na2vs0mg"},{"bike_id":"b7914b4a-6315-43d5-9189-16d5e05c8662","system_id":"levelo_inurba_marseille","lat":43.283504,"lon":5.381075,"is_reserved":false,"is_disabled":false,"rental_uris":{"android":"levelo://app?vid=b7914b4a-6315-43d5-9189-16d5e05c8662","ios":"levelo://app?vid=b7914b4a-6315-43d5-9189-16d5e05c8662"},"vehicle_type_id":"4","last_reported":1768212949,"current_range_meters":8800,"station_id":"ce4bh412rcd13ifvqdr0","pricing_plan_id":"cebpf4jnsgd1na2vs0mg"},{"bike_id":"c4f31096-c27c-443f-b18c-787eb4ca0a13","system_id":"levelo_inurba_marseille","lat":43.27688,"lon":5.38884,"is_reserved":false,"is_disabled":false,"rental_uris":{"android":"levelo://app?vid=c4f31096-c27c-443f-b18c-787eb4ca0a13","ios":"levelo://app?vid=c4f31096-c27c-443f-b18c-787eb4ca0a13"},"vehicle_type_id":"4","last_reported":1768212949,"current_range_meters":8800,"station_id":"ce4bhi12rcd13ifvqfo0","pricing_plan_id":"cebpf4jnsgd1na2vs0mg"},{"bike_id":"835d6ef9-4b63-4e4f-96cf-f9902a7d3e00","system_id":"levelo_inurba_marseille","lat":43.29961,"lon":5.37354,"is_reserved":false,"is_disabled":false,"rental_uris":{"android":"levelo://app?vid=835d6ef9-4b63-4e4f-96cf-f9902a7d3e00","ios":"levelo://app?vid=835d6ef9-4b63-4e4f-96cf-f9902a7d3e00"},"vehicle_type_id":"4","last_reported":1768212949,"current_range_meters":8800,"station_id":"","pricing_plan_id":"cebpf4jnsgd1na2vs0mg"},{"bike_id":"dde300c6-eee6-4ffe-940a-f574bd4721de","system_id":"levelo_inurba_marseille","lat":43.30818,"lon":5.38143,"is_reserved":false,"is_disabled":false,"rental_uris":{"android":"levelo://app?vid=dde300c6-eee6-4ffe-940a-f574bd4721de","ios":"levelo://app?vid=dde300c6-eee6-4ffe-940a-f574bd4721de"},"vehicle_type_id":"4","last_reported":1768212949,"current_range_meters":8800,"station_id":"ce4bgt12rcd13ifvqce0","pricing_plan_id":"cebpf4jnsgd1na2vs0mg"},{"bike_id":"2b31c108-6930-42ba-946f-e6a6373ca695","system_id":"levelo_inurba_marseille","lat":43.30445,"lon":5.38901,"is_reserved":false,"is_disabled":true,"rental_uris":{"android":"levelo://app?vid=2b31c108-6930-42ba-946f-e6a6373ca695","ios":"levelo://app?vid=2b31c108-6930-42ba-946f-e6a6373ca695"},"vehicle_type_id":"4","last_reported":1768212949,"current_range_meters":8800,"station_id":"ce4bgk12rcd13ifvqbi0","pricing_plan_id":"cebpf4jnsgd1na2vs0mg"},{"bike_id":"03e165cf-504b-4d40-b500-de969fecfbff","system_id":"levelo_inurba_marseille","lat":43.33159,"lon":5.37689,"is_reserved":false,"is_disabled":false,"rental_uris":{"android":"levelo://app?vid=03e165cf-504b-4d40-b500-de969fecfbff","ios":"levelo://app?vid=03e165cf-504b-4d40-b500-de969fecfbff"},"vehicle_type_id":"4","last_reported":1768212949,"current_range_meters":8800,"station_id":"st_d46cu089ee8s73dldbu0","pricing_plan_id":"cebpf4jnsgd1na2vs0mg"},{"bike_id":"62ec7ff2-a1d5-430e-bce0-3f99a680cdf8","system_id":"levelo_inurba_marseille","lat":43.30146,"lon":5.38093,"is_reserved":false,"is_disabled":false,"rental_uris":{"android":"levelo://app?vid=62ec7ff2-a1d5-430e-bce0-3f99a680cdf8","ios":"levelo://app?vid=62ec7ff2-a1d5-430e-bce0-3f99a680cdf8"},"vehicle_type_id":"4","last_reported":1768212949,"current_range_meters":8800,"station_id":"ce4bgjp2rcd13ifvqbh0","pricing_plan_id":"cebpf4jnsgd1na2vs0mg"},{"bike_id":"791142df-1ff7-4dc2-9d06-b89d2bc7a909","system_id":"levelo_inurba_marseille","lat":43.24483,"lon":5.42548,"is_reserved":false,"is_disabled":false,"rental_uris":{"android":"levelo://app?vid=791142df-1ff7-4dc2-9d06-b89d2bc7a909","ios":"levelo://app?vid=791142df-1ff7-4dc2-9d06-b89d2bc7a909"},"vehicle_type_id":"4","last_reported":1768212949,"current_range_meters":8800,"station_id":"st_d4a3vfp97mjs738cd8kg","pricing_plan_id":"cebpf4jnsgd1na2vs0mg"},{"bike_id":"645fb6d6-2bba-4bcb-8f2c-17ff3a215f0a","system_id":"levelo_inurba_marseille","lat":43.23212,"lon":5.35548,"is_reserved":false,"is_disabled":false,"rental_uris":{"android":"levelo://app?vid=645fb6d6-2bba-4bcb-8f2c-17ff3a215f0a","ios":"levelo://app?vid=645fb6d6-2bba-4bcb-8f2c-17ff3a215f0a"},"vehicle_type_id":"4","last_reported":1768212949,"current_range_meters":8800,"station_id":"ce4bhu92rcd13ifvqi70","pricing_plan_id":"cebpf4jnsgd1na2vs0mg"},{"bike_id":"d85bee70-4aa1-48df-a35c-3239cb75ed4e","system_id":"levelo_inurba_marseille","lat":43.292686,"lon":5.37366,"is_reserved":false,"is_disabled":false,"rental_uris":{"android":"levelo://app?vid=d85bee70-4aa1-48df-a35c-3239cb75ed4e","ios":"levelo://app?vid=d85bee70-4aa1-48df-a35c-3239cb75ed4e"},"vehicle_type_id":"4","last_reported":1768212949,"current_range_meters":8800,"station_id":"","pricing_plan_id":"cebpf4jnsgd1na2vs0mg"},{"bike_id":"86a99e45-b80c-4434-8636-ecc1fa89da20","system_id":"levelo_inurba_marseille","lat":43.28931,"lon":5.39626,"is_reserved":false,"is_disabled":false,"rental_uris":{"android":"levelo://app?vid=86a99e45-b80c-4434-8636-ecc1fa89da20","ios":"levelo://app?vid=86a99e45-b80c-4434-8636-ecc1fa89da20"},"vehicle_type_id":"4","last_reported":1768212949,"current_range_meters":8800,"station_id":"ce4bh3h2rcd13ifvqdn0","pricing_plan_id":"cebpf4jnsgd1na2vs0mg"},{"bike_id":"cf75fb80-c01b-47a2-b88b-418a912427ac","system_id":"levelo_inurba_marseille","lat":43.31324,"lon":5.39696,"is_reserved":false,"is_disabled":false,"rental_uris":{"android":"levelo://app?vid=cf75fb80-c01b-47a2-b88b-418a912427ac","ios":"levelo://app?vid=cf75fb80-c01b-47a2-b88b-418a912427ac"},"vehicle_type_id":"4","last_reported":1768212949,"current_range_meters":8800,"station_id":"ce4bgvp2rcd13ifvqcu0","pricing_plan_id":"cebpf4jnsgd1na2vs0mg"},{"bike_id":"87b4591c-b387-486a-8df1-c186d6851f68","system_id":"levelo_inurba_marseille","lat":43.27183,"lon":5.39227,"is_reserved":false,"is_disabled":false,"rental_uris":{"android":"levelo://app?vid=87b4591c-b387-486a-8df1-c186d6851f68","ios":"levelo://app?vid=87b4591c-b387-486a-8df1-c186d6851f68"},