{"last_updated":1706396852,"ttl":30,"version":"2.2","data":{"bikes":[{"bike_id":"b08dc5fa-7a57-4826-93c7-1626f1bc0fbb","system_id":"levelo_inurba_marseille","lat":43.312239,"lon":5.368562,"is_reserved":false,"is_disabled":false,"rental_uris":{"android":"levelo://app?vid=b08dc5fa-7a57-4826-93c7-1626f1bc0fbb","ios":"levelo://app?vid=b08dc5fa-7a57-4826-93c7-1626f1bc0fbb"},"vehicle_type_id":"4","last_reported":1706396852,"current_range_meters":31200,"station_id":"ce4bgl92rcd13ifvqbq0","pricing_plan_id":"free"},{"bike_id":"32cb232d-b02e-4bcf-8a58-eea6b54adf5a","system_id":"levelo_inurba_marseille","lat":43.312239,"lon":5.368562,"is_reserved":false,"is_disabled":false,"rental_uris":{"android":"levelo://app?vid=32cb232d-b02e-4bcf-8a58-eea6b54adf5a","ios":"levelo://app?vid=32cb232d-b02e-4bcf-8a58-eea6b54adf5a"},"vehicle_type_id":"4","last_reported":1706396852,"current_range_meters":13600,"station_id":"ce4bgl92rcd13ifvqbq0","pricing_plan_id":"free"},{"bike_id":"17d150a5-1b4d-4b99-8f94-2bf8576b514b","system_id":"levelo_inurba_marseille","lat":43.312239,"lon":5.368562,"is_reserved":false,"is_disabled":false,"rental_uris":{"android":"levelo://app?vid=17d150a5-1b4d-4b99-8f94-2bf8576b514b","ios":"levelo://app?vid=17d150a5-1b4d-4b99-8f94-2bf8576b514b"},"vehicle_type_id":"4","last_reported":1706396852,"current_range_meters":14400,"station_id":"ce4bgl92rcd13ifvqbq0","pricing_plan_id":"free"},{"bike_id":"5173cc27-31d8-4b4f-8e42-515b8a11ff00","system_id":"levelo_inurba_marseille","lat":43.31225,"lon":5.36866,"is_reserved":false,"is_disabled":false,"rental_uris":{"android":"levelo://app?vid=5173cc27-31d8-4b4f-8e42-515b8a11ff00","ios":"levelo://app?vid=5173cc27-31d8-4b4f-8e42-515b8a11ff00"},"vehicle_type_id":"4","last_reported":1706396852,"current_range_meters":18000,"station_id":"ce4bgl92rcd13ifvqbq0","pricing_plan_id":"free"},{"bike_id":"e65be747-1eaf-4552-9fdc-318c68af6a16","system_id":"levelo_inurba_marseille","lat":43.309076,"lon":5.368465,"is_reserved":false,"is_disabled":false,"rental_uris":{"android":"levelo://app?vid=e65be747-1eaf-4552-9fdc-318c68af6a16","ios":"levelo://app?vid=e65be747-1eaf-4552-9fdc-318c68af6a16"},"vehicle_type_id":"4","last_reported":1706396852,"current_range_meters":15600,"station_id":"ce4bgn92rcd13ifvqbvg","pricing_plan_id":"free"},{"bike_id":"75472d2f-c33b-4291-9ef3-06d76d15d270","system_id":"levelo_inurba_marseille","lat":43.309039,"lon":5.371797,"is_reserved":false,"is_disabled":false,"rental_uris":{"android":"levelo://app?vid=75472d2f-c33b-4291-9ef3-06d76d15d270","ios":"levelo://app?vid=75472d2f-c33b-4291-9ef3-06d76d15d270"},"vehicle_type_id":"4","last_reported":1706396852,"current_range_meters":18000,"station_id":"ce4bguh2rcd13ifvqckg","pricing_plan_id":"free"},{"bike_id":"467c4c75-dd0f-473d-9525-656680071d83","system_id":"levelo_inurba_marseille","lat":43.309039,"lon":5.371797,"is_reserved":false,"is_disabled":false,"rental_uris":{"android":"levelo://app?vid=467c4c75-dd0f-473d-9525-656680071d83","ios":"levelo://app?vid=467c4c75-dd0f-473d-9525-656680071d83"},"vehicle_type_id":"4","last_reported":1706396852,"current_range_meters":11200,"station_id":"ce4bguh2rcd13ifvqckg","pricing_plan_id":"free"},{"bike_id":"ff6c1c25-8287-4f32-9d54-133fa7cb156b","system_id":"levelo_inurba_marseille","lat":43.309039,"lon":5.371797,"is_reserved":false,"is_disabled":false,"rental_uris":{"android":"levelo://app?vid=ff6c1c25-8287-4f32-9d54-133fa7cb156b","ios":"levelo://app?vid=ff6c1c25-8287-4f32-9d54-133fa7cb156b"},"vehicle_type_id":"4","last_reported":1706396852,"current_range_meters":24800,"station_id":"ce4bguh2rcd13ifvqckg","pricing_plan_id":"free"},{"bike_id":"cf666fee-9862-40f0-8271-74852148745c","system_id":"levelo_inurba_marseille","lat":43.309039,"lon":5.371797,"is_reserved":false,"is_disabled":false,"rental_uris":{"android":"levelo://app?vid=cf666fee-9862-40f0-8271-74852148745c","ios":"levelo://app?vid=cf666fee-9862-40f0-8271-74852148745c"},"vehicle_type_id":"4","last_reported":1706396852,"current_range_meters":31200,"station_id":"ce4bguh2rcd13ifvqckg","pricing_plan_id":"free"},{"bike_id":"5b3269a7-bf2d-45e3-80cd-1b2263e59dd7","system_id":"levelo_inurba_marseille","lat":43.305706,"lon":5.365654,"is_reserved":false,"is_disabled":false,"rental_uris":{"android":"levelo://app?vid=5b3269a7-bf2d-45e3-80cd-1b2263e59dd7","ios":"levelo://app?vid=5b3269a7-bf2d-45e3-80cd-1b2263e59dd7"},"vehicle_type_id":"4","last_reported":1706396852,"current_range_meters":12800,"station_id":"ce4bgs12rcd13ifvqcag","pricing_plan_id":"free"},{"bike_id":"c0aca7fd-4281-4ec5-937e-70d16daadeeb","system_id":"levelo_inurba_marseille","lat":43.311131,"lon":5.377651,"is_reserved":false,"is_disabled":false,"rental_uris":{"android":"levelo://app?vid=c0aca7fd-4281-4ec5-937e-70d16daadeeb","ios":"levelo://app?vid=c0aca7fd-4281-4ec5-937e-70d16daadeeb"},"vehicle_type_id":"4","last_reported":1706396852,"current_range_meters":0,"station_id":"ce4bgt92rcd13ifvqcg0","pricing_plan_id":"free"},{"bike_id":"7d034e6f-21a5-4e2f-bf5e-3f1ebc8c0d4a","system_id":"levelo_inurba_marseille","lat":43.311125,"lon":5.377624,"is_reserved":false,"is_disabled":false,"rental_uris":{"android":"levelo://app?vid=7d034e6f-21a5-4e2f-bf5e-3f1ebc8c0d4a","ios":"levelo://app?vid=7d034e6f-21a5-4e2f-bf5e-3f1ebc8c0d4a"},"vehicle_type_id":"4","last_reported":1706396852,"current_range_meters":13200,"station_id":"ce4bgt92rcd13ifvqcg0","pricing_plan_id":"free"},{"bike_id":"d5050ba6-1b87-4b6c-b5ed-d471ca555730","system_id":"levelo_inurba_marseille","lat":43.31118,"lon":5.3777,"is_reserved":false,"is_disabled":false,"rental_uris":{"android":"levelo://app?vid=d5050ba6-1b87-4b6c-b5ed-d471ca555730","ios":"levelo://app?vid=d5050ba6-1b87-4b6c-b5ed-d471ca555730"},"vehicle_type_id":"4","last_reported":1706396852,"current_range_meters":18800,"station_id":"ce4bgt92rcd13ifvqcg0","pricing_plan_id":"free"},{"bike_id":"5cce99f2-6b9e-480f-8678-8a7538106dfd","system_id":"levelo_inurba_marseille","lat":43.307945,"lon":5.376487,"is_reserved":false,"is_disabled":false,"rental_uris":{"android":"levelo://app?vid=5cce99f2-6b9e-480f-8678-8a7538106dfd","ios":"levelo://app?vid=5cce99f2-6b9e-480f-8678-8a7538106dfd"},"vehicle_type_id":"4","last_reported":1706396852,"current_range_meters":10000,"station_id":"ce4bgv92rcd13ifvqcq0","pricing_plan_id":"free"},{"bike_id":"bff2f768-032b-40b3-bc87-f4d05864a143","system_id":"levelo_inurba_marseille","lat":43.307945,"lon":5.376487,"is_reserved":false,"is_disabled":false,"rental_uris":{"android":"levelo://app?vid=bff2f768-032b-40b3-bc87-f4d05864a143","ios":"levelo://app?vid=bff2f768-032b-40b3-bc87-f4d05864a143"},"vehicle_type_id":"4","last_reported":1706396852,"current_range_meters":24000,"station_id":"ce4bgv92rcd13ifvqcq0","pricing_plan_id":"free"},{"bike_id":"f0c31732-301a-4d0f-9fd3-25ad0ecb4b3c","system_id":"levelo_inurba_marseille","lat":43.317075,"lon":5.377367,"is_reserved":false,"is_disabled":false,"rental_uris":{"android":"levelo://app?vid=f0c31732-301a-4d0f-9fd3-25ad0ecb4b3c","ios":"levelo://app?vid=f0c31732-301a-4d0f-9fd3-25ad0ecb4b3c"},"vehicle_type_id":"4","last_reported":1706396852,"current_range_meters":12000,"station_id":"ce4bgth2rcd13ifvqch0","pricing_plan_id":"free"},{"bike_id":"e6c874a7-4c53-46c7-b3b9-101410bd4b5b","system_id":"levelo_inurba_marseille","lat":43.317075,"lon":5.377367,"is_reserved":false,"is_disabled":false,"rental_uris":{"android":"levelo://app?vid=e6c874a7-4c53-46c7-b3b9-101410bd4b5b","ios":"levelo://app?vid=e6c874a7-4c53-46c7-b3b9-101410bd4b5b"},"vehicle_type_id":"4","last_reported":1706396852,"current_range_meters":16800,"station_id":"ce4bgth2rcd13ifvqch0","pricing_plan_id":"free"},{"bike_id":"6fff0b7d-2514-4e0c-a138-b6e9cb85be95","system_id":"levelo_inurba_marseille","lat":43.317075,"lon":5.377367,"is_reserved":false,"is_disabled":false,"rental_uris":{"android":"levelo://app?vid=6fff0b7d-2514-4e0c-a138-b6e9cb85be95","ios":"levelo://app?vid=6fff0b7d-2514-4e0c-a138-b6e9cb85be95"},"vehicle_type_id":"4","last_reported":1706396852,"current_range_meters":30800,"station_id":"ce4bgth2rcd13ifvqch0","pricing_plan_id":"free"},{"bike_id":"bf70306f-e475-47ca-8724-a7e42b25d923","system_id":"levelo_inurba_marseille","lat":43.317075,"lon":5.377367,"is_reserved":false,"is_disabled":false,"rental_uris":{"android":"levelo://app?vid=bf70306f-e475-47ca-8724-a7e42b25d923","ios":"levelo://app?vid=bf70306f-e475-47ca-8724-a7e42b25d923"},"vehicle_type_id":"4","last_reported":1706396852,"current_range_meters":26000,"station_id":"ce4bgth2rcd13ifvqch0","pricing_plan_id":"free"},{"bike_id":"ec894be0-5b47-4f8d-90b2-46550607de1d","system_id":"levelo_inurba_marseille","lat":43.303046,"lon":5.368981,"is_reserved":false,"is_disabled":false,"rental_uris":{"android":"levelo://app?vid=ec894be0-5b47-4f8d-90b2-46550607de1d","ios":"levelo://app?vid=ec894be0-5b47-4f8d-90b2-46550607de1d"},"vehicle_type_id":"4","last_reported":1706396852,"current_range_meters":16400,"station_id":"ce4bgqh2rcd13ifvqc5g","pricing_plan_id":"free"},{"bike_id":"760e8431-4505-4e25-89a2-d05baf70ef01","system_id":"levelo_inurba_marseille","lat":43.303093,"lon":5.368969,"is_reserved":false,"is_disabled":false,"rental_uris":{"android":"levelo://app?vid=760e8431-4505-4e25-89a2-d05baf70ef01","ios":"levelo://app?vid=760e8431-4505-4e25-89a2-d05baf70ef01"},"vehicle_type_id":"4","last_reported":1706396852,"current_range_meters":0,"station_id":"ce4bgqh2rcd13ifvqc5g","pricing_plan_id":"free"},{"bike_id":"b83daeb9-a39c-4884-86e2-16a37c651f7f","system_id":"levelo_inurba_marseille","lat":43.320005,"lon":5.376249,"is_reserved":false,"is_disabled":false,"rental_uris":{"android":"levelo://app?vid=b83daeb9-a39c-4884-86e2-16a37c651f7f","ios":"levelo://app?vid=b83daeb9-a39c-4884-86e2-16a37c651f7f"},"vehicle_type_id":"4","last_reported":1706396852,"current_range_meters":8800,"station_id":"","pricing_plan_id":"free"},{"bike_id":"2b9973b9-e21f-458a-9e13-6cc909633bbf","system_id":"levelo_inurba_marseille","lat":43.315396,"lon":5.380246,"is_reserved":false,"is_disabled":false,"rental_uris":{"android":"levelo://app?vid=2b9973b9-e21f-458a-9e13-6cc909633bbf","ios":"levelo://app?vid=2b9973b9-e21f-458a-9e13-6cc909633bbf"},"vehicle_type_id":"4","last_reported":1706396852,"current_range_meters":0,"station_id":"ce4bhsp2rcd13ifvqi50","pricing_plan_id":"free"},{"bike_id":"2ea6af58-b0fa-4f80-b8c5-b8c974caa461","system_id":"levelo_inurba_marseille","lat":43.301939,"lon":5.366286,"is_reserved":false,"is_disabled":false,"rental_uris":{"android":"levelo://app?vid=2ea6af58-b0fa-4f80-b8c5-b8c974caa461","ios":"levelo://app?vid=2ea6af58-b0fa-4f80-b8c5-b8c974caa461"},"vehicle_type_id":"4","last_reported":1706396852,"current_range_meters":14800,"station_id":"ce4bgrh2rcd13ifvqc8g","pricing_plan_id":"free"},{"bike_id":"2d94eabf-1a22-4878-a69c-04ccb6311083","system_id":"levelo_inurba_marseille","lat":43.301939,"lon":5.366286,"is_reserved":false,"is_disabled":false,"rental_uris":{"android":"levelo://app?vid=2d94eabf-1a22-4878-a69c-04ccb6311083","ios":"levelo://app?vid=2d94eabf-1a22-4878-a69c-04ccb6311083"},"vehicle_type_id":"4","last_reported":1706396852,"current_range_meters":6400,"station_id":"ce4bgrh2rcd13ifvqc8g","pricing_plan_id":"free"},{"bike_id":"e44bd02c-d6bb-4f3f-ab11-d56ce90a801e","system_id":"levelo_inurba_marseille","lat":43.301939,"lon":5.366286,"is_reserved":false,"is_disabled":false,"rental_uris":{"android":"levelo://app?vid=e44bd02c-d6bb-4f3f-ab11-d56ce90a801e","ios":"levelo://app?vid=e44bd02c-d6bb-4f3f-ab11-d56ce90a801e"},"vehicle_type_id":"4","last_reported":1706396852,"current_range_meters":26400,"station_id":"ce4bgrh2rcd13ifvqc8g","pricing_plan_id":"free"},{"bike_id":"af9bc63b-1f68-4b3e-82b8-e3a6830dc114","system_id":"levelo_inurba_marseille","lat":43.301939,"lon":5.366286,"is_reserved":false,"is_disabled":false,"rental_uris":{"android":"levelo://app?vid=af9bc63b-1f68-4b3e-82b8-e3a6830dc114","ios":"levelo://app?vid=af9bc63b-1f68-4b3e-82b8-e3a6830dc114"},"vehicle_type_id":"4","last_reported":1706396852,"current_range_meters":2800,"station_id":"ce4bgrh2rcd13ifvqc8g","pricing_plan_id":"free"},{"bike_id":"9b4eaffd-276c-41c1-9393-b04b93fadaa5","system_id":"levelo_inurba_marseille","lat":43.308012,"lon":5.381511,"is_reserved":false,"is_disabled":false,"rental_uris":{"android":"levelo://app?vid=9b4eaffd-276c-41c1-9393-b04b93fadaa5","ios":"levelo://app?vid=9b4eaffd-276c-41c1-9393-b04b93fadaa5"},"vehicle_type_id":"4","last_reported":1706396852,"current_range_meters":3200,"station_id":"ce4bgt12rcd13ifvqce0","pricing_plan_id":"free"},{"bike_id":"53894421-8230-437d-82e8-eb9dddc3473f","system_id":"levelo_inurba_marseille","lat":43.308012,"lon":5.381511,"is_reserved":false,"is_disabled":false,"rental_uris":{"android":"levelo://app?vid=53894421-8230-437d-82e8-eb9dddc3473f","ios":"levelo://app?vid=53894421-8230-437d-82e8-eb9dddc3473f"},"vehicle_type_id":"4","last_reported":1706396852,"current_range_meters":20000,"station_id":"ce4bgt12rcd13ifvqce0","pricing_plan_id":"free"},{"bike_id":"90a1b256-0701-41a2-a86d-7f6213e6984b","system_id":"levelo_inurba_marseille","lat":43.308012,"lon":5.381511,"is_reserved":false,"is_disabled":false,"rental_uris":{"android":"levelo://app?vid=90a1b256-0701-41a2-a86d-7f6213e6984b","ios":"levelo://app?vid=90a1b256-0701-41a2-a86d-7f6213e6984b"},"vehicle_type_id":"4","last_reported":1706396852,"current_range_meters":10000,"station_id":"ce4bgt12rcd13ifvqce0","pricing_plan_id":"free"},{"bike_id":"dc00bdf8-dc57-4b02-8d44-8ea4906debe3","system_id":"levelo_inurba_marseille","lat":43.324771,"lon":5.36557,"is_reserved":false,"is_disabled":false,"rental_uris":{"android":"levelo://app?vid=dc00bdf8-dc57-4b02-8d44-8ea4906debe3","ios":"levelo://app?vid=dc00bdf8-dc57-4b02-8d44-8ea4906debe3"},"vehicle_type_id":"4","last_reported":1706396852,"current_range_meters":8000,"station_id":"ce4bhs12rcd13ifvqhvg","pricing_plan_id":"free"},{"bike_id":"1aa02228-2f1b-463e-8efd-48a87ba76624","system_id":"levelo_inurba_marseille","lat":43.324771,"lon":5.36557,"is_reserved":false,"is_disabled":false,"rental_uris":{"android":"levelo://app?vid=1aa02228-2f1b-463e-8efd-48a87ba76624","ios":"levelo://app?vid=1aa02228-2f1b-463e-8efd-48a87ba76624"},"vehicle_type_id":"4","last_reported":1706396852,"current_range_meters":5600,"station_id":"ce4bhs12rcd13ifvqhvg","pricing_plan_id":"free"},{"bike_id":"686d1336-6154-44a2-a815-74da2771d8d3","system_id":"levelo_inurba_marseille","lat":43.302904,"lon":5.376924,"is_reserved":false,"is_disabled":false,"rental_uris":{"android":"levelo://app?vid=686d1336-6154-44a2-a815-74da2771d8d3","ios":"levelo://app?vid=686d1336-6154-44a2-a815-74da2771d8d3"},"vehicle_type_id":"4","last_reported":1706396852,"current_range_meters":0,"station_id":"ce4bguh2rcd13ifvqcj0","pricing_plan_id":"free"},{"bike_id":"0a7e6cb7-a296-4427-9321-e25fb7e34e86","system_id":"levelo_inurba_marseille","lat":43.30272,"lon":5.37707,"is_reserved":false,"is_disabled":false,"rental_uris":{"android":"levelo://app?vid=0a7e6cb7-a296-4427-9321-e25fb7e34e86","ios":"levelo://app?vid=0a7e6cb7-a296-4427-9321-e25fb7e34e86"},"vehicle_type_id":"4","last_reported":1706396852,"current_range_meters":4800,"station_id":"ce4bguh2rcd13ifvqcj0","pricing_plan_id":"free"},{"bike_id":"37d3a855-8276-4138-ad94-343b71232c89","system_id":"levelo_inurba_marseille","lat":43.30143,"lon":5.37413,"is_reserved":false,"is_disabled":false,"rental_uris":{"android":"levelo://app?vid=37d3a855-8276-4138-ad94-343b71232c89","ios":"levelo://app?vid=37d3a855-8276-4138-ad94-343b71232c89"},"vehicle_type_id":"4","last_reported":1706396852,"current_range_meters":22000,"station_id":"ce4bgs92rcd13ifvqcc0","pricing_plan_id":"free"},{"bike_id":"ae7ab608-8fac-4c0d-9f43-8ffacb07a49d","system_id":"levelo_inurba_marseille","lat":43.319935,"lon":5.381699,"is_reserved":false,"is_disabled":false,"rental_uris":{"android":"levelo://app?vid=ae7ab608-8fac-4c0d-9f43-8ffacb07a49d","ios":"levelo://app?vid=ae7ab608-8fac-4c0d-9f43-8ffacb07a49d"},"vehicle_type_id":"4","last_reported":1706396852,"current_range_meters":0,"station_id":"ce4bhr12rcd13ifvqhpg","pricing_plan_id":"free"},{"bike_id":"6c121b79-46d9-4eb0-b3b6-ae9fe8e5830e","system_id":"levelo_inurba_marseille","lat":43.319935,"lon":5.381699,"is_reserved":false,"is_disabled":false,"rental_uris":{"android":"levelo://app?vid=6c121b79-46d9-4eb0-b3b6-ae9fe8e5830e","ios":"levelo://app?vid=6c121b79-46d9-4eb0-b3b6-ae9fe8e5830e"},"vehicle_type_id":"4","last_reported":1706396852,"current_range_meters":7200,"station_id":"ce4bhr12rcd13ifvqhpg","pricing_plan_id":"free"},{"bike_id":"a7f469c3-6d74-4848-bc37-17e95acb2eb3","system_id":"levelo_inurba_marseille","lat":43.313609,"lon":5.38491,"is_reserved":false,"is_disabled":false,"rental_uris":{"android":"levelo://app?vid=a7f469c3-6d74-4848-bc37-17e95acb2eb3","ios":"levelo://app?vid=a7f469c3-6d74-4848-bc37-17e95acb2eb3"},"vehicle_type_id":"4","last_reported":1706396852,"current_range_meters":0,"station_id":"ce4bgt92rcd13ifvqcf0","pricing_plan_id":"free"},{"bike_id":"dbd66841-66ce-4894-81be-8c2eb1a70973","system_id":"levelo_inurba_marseille","lat":43.3136,"lon":5.38493,"is_reserved":false,"is_disabled":false,"rental_uris":{"android":"levelo://app?vid=dbd66841-66ce-4894-81be-8c2eb1a70973","ios":"levelo://app?vid=dbd66841-66ce-4894-81be-8c2eb1a70973"},"vehicle_type_id":"4","last_reported":1706396852,"current_range_meters":7600,"station_id":"ce4bgt92rcd13ifvqcf0","pricing_plan_id":"free"},{"bike_id":"e26121f7-b5a4-47b4-af14-02dac69a1dda","system_id":"levelo_inurba_marseille","lat":43.299222,"lon":5.365554,"is_reserved":false,"is_disabled":false,"rental_uris":{"android":"levelo://app?vid=e26121f7-b5a4-47b4-af14-02dac69a1dda","ios":"levelo://app?vid=e26121f7-b5a4-47b4-af14-02dac69a1dda"},"vehicle_type_id":"4","last_reported":1706396852,"current_range_meters":3200,"station_id":"ce4bgm92rcd13ifvqbr0","pricing_plan_id":"free"},{"bike_id":"a70121d8-cdc4-43f0-99ee-c39d28a5f4bc","system_id":"levelo_inurba_marseille","lat":43.299222,"lon":5.365554,"is_reserved":false,"is_disabled":false,"rental_uris":{"android":"levelo://app?vid=a70121d8-cdc4-43f0-99ee-c39d28a5f4bc","ios":"levelo://app?vid=a70121d8-cdc4-43f0-99ee-c39d28a5f4bc"},"vehicle_type_id":"4","last_reported":1706396852,"current_range_meters":7200,"station_id":"ce4bgm92rcd13ifvqbr0","pricing_plan_id":"free"},{"bike_id":"c8895e19-e92f-4ac7-b55b-0bb49de70ab0","system_id":"levelo_inurba_marseille","lat":43.298433,"lon":5.362774,"is_reserved":false,"is_disabled":false,"rental_uris":{"android":"levelo://app?vid=c8895e19-e92f-4ac7-b55b-0bb49de70ab0","ios":"levelo://app?vid=c8895e19-e92f-4ac7-b55b-0bb49de70ab0"},"vehicle_type_id":"4","last_reported":1706396852,"current_range_meters":6000,"station_id":"ce4bgpp2rcd13ifvqc3g","pricing_plan_id":"free"},{"bike_id":"60ea6a32-1d51-4ced-bc2a-23f19147b3cb","system_id":"levelo_inurba_marseille","lat":43.311722,"lon":5.387247,"is_reserved":false,"is_disabled":false,"rental_uris":{"android":"levelo://app?vid=60ea6a32-1d51-4ced-bc2a-23f19147b3cb","ios":"levelo://app?vid=60ea6a32-1d51-4ced-bc2a-23f19147b3cb"},"vehicle_type_id":"4","last_reported":1706396852,"current_range_meters":18400,"station_id":"ce4bgv12rcd13ifvqcp0","pricing_plan_id":"free"},{"bike_id":"9dbedc0e-de93-49f0-9e8a-f31552902195","system_id":"levelo_inurba_marseille","lat":43.31171,"lon":5.3872,"is_reserved":false,"is_disabled":false,"rental_uris":{"android":"levelo://app?vid=9dbedc0e-de93-49f0-9e8a-f31552902195","ios":"levelo://app?vid=9dbedc0e-de93-49f0-9e8a-f31552902195"},"vehicle_type_id":"4","last_reported":1706396852,"current_range_meters":0,"station_id":"ce4bgv12rcd13ifvqcp0","pricing_plan_id":"free"},{"bike_id":"965a5dab-e227-4efc-b518-9780186a9de9","system_id":"levelo_inurba_marseille","lat":43.322872,"lon":5.382756,"is_reserved":false,"is_disabled":false,"rental_uris":{"android":"levelo://app?vid=965a5dab-e227-4efc-b518-9780186a9de9","ios":"levelo://app?vid=965a5dab-e227-4efc-b518-9780186a9de9"},"vehicle_type_id":"4","last_reported":1706396852,"current_range_meters":27600,"station_id":"ce4bhr12rcd13ifvqhqg","pricing_plan_id":"free"},{"bike_id":"a3b74381-0d58-448f-9a1c-2f1261e3769d","system_id":"levelo_inurba_marseille","lat":43.322872,"lon":5.382756,"is_reserved":false,"is_disabled":false,"rental_uris":{"android":"levelo://app?vid=a3b74381-0d58-448f-9a1c-2f1261e3769d","ios":"levelo://app?vid=a3b74381-0d58-448f-9a1c-2f1261e3769d"},"vehicle_type_id":"4","last_reported":1706396852,"current_range_meters":31200,"station_id":"ce4bhr12rcd13ifvqhqg","pricing_plan_id":"free"},{"bike_id":"f333593b-a055-4773-b1bc-9da5ee05312e","system_id":"levelo_inurba_marseille","lat":43.322872,"lon":5.382756,"is_reserved":false,"is_disabled":false,"rental_uris":{"android":"levelo://app?vid=f333593b-a055-4773-b1bc-9da5ee05312e","ios":"levelo://app?vid=f333593b-a055-4773-b1bc-9da5ee05312e"},"vehicle_type_id":"4","last_reported":1706396852,"current_range_meters":30400,"station_id":"ce4bhr12rcd13ifvqhqg","pricing_plan_id":"free"},{"bike_id":"ab98e573-92e3-4c87-b938-e8306447ae15","system_id":"levelo_inurba_marseille","lat":43.322872,"lon":5.382756,"is_reserved":false,"is_disabled":false,"rental_uris":{"android":"levelo://app?vid=ab98e573-92e3-4c87-b938-e8306447ae15","ios":"levelo://app?vid=ab98e573-92e3-4c87-b938-e8306447ae15"},"vehicle_type_id":"4","last_reported":1706396852,"current_range_meters":26000,"station_id":"ce4bhr12rcd13ifvqhqg","pricing_plan_id":"free"},{"bike_id":"5e98879a-df25-42d7-a72e-59c9369b5f46","system_id":"levelo_inurba_marseille","lat":43.32291,"lon":5.382662,"is_reserved":false,"is_disabled":false,"rental_uris":{"android":"levelo://app?vid=5e98879a-df25-42d7-a72e-59c9369b5f46","ios":"levelo://app?vid=5e98879a-df25-42d7-a72e-59c9369b5f46"},"vehicle_type_id":"4","last_reported":1706396852,"current_range_meters":30000,"station_id":"ce4bhr12rcd13ifvqhqg","pricing_plan_id":"free"},{"bike_id":"ddc75907-a8b7-4a92-bf6f-2caf45250eb0","system_id":"levelo_inurba_marseille","lat":43.297794,"lon":5.370888,"is_reserved":false,"is_disabled":false,"rental_uris":{"android":"levelo://app?vid=ddc75907-a8b7-4a92-bf6f-2caf45250eb0","ios":"levelo://app?vid=ddc75907-a8b7-4a92-bf6f-2caf45250eb0"},"vehicle_type_id":"4","last_reported":1706396852,"current_range_meters":21200,"station_id":"ce4bgop2rcd13ifvqc1g","pricing_plan_id":"free"},{"bike_id":"12edd8fe-ac42-424b-86a0-ddbc64b4f114","system_id":"levelo_inurba_marseille","lat":43.328331,"lon":5.366903,"is_reserved":false,"is_disabled":false,"rental_uris":{"android":"levelo://app?vid=12edd8fe-ac42-424b-86a0-ddbc64b4f114","ios":"levelo://app?vid=12edd8fe-ac42-424b-86a0-ddbc64b4f114"},"vehicle_type_id":"4","last_reported":1706396852,"current_range_meters":16400,"station_id":"ce4bhs92rcd13ifvqi0g","pricing_plan_id":"free"},{"bike_id":"7f19f856-2700-4d91-a489-893bd8d2e212","system_id":"levelo_inurba_marseille","lat":43.309589,"lon":5.390258,"is_reserved":false,"is_disabled":false,"rental_uris":{"android":"levelo://app?vid=7f19f856-2700-4d91-a489-893bd8d2e212","ios":"levelo://app?vid=7f19f856-2700-4d91-a489-893bd8d2e212"},"vehicle_type_id":"4","last_reported":1706396852,"current_range_meters":18800,"station_id":"ce4bgup2rcd13ifvqco0","pricing_plan_id":"free"},{"bike_id":"4e4bb43a-c371-4339-bdae-e3082802e5bf","system_id":"levelo_inurba_marseille","lat":43.309589,"lon":5.390258,"is_reserved":false,"is_disabled":false,"rental_uris":{"android":"levelo://app?vid=4e4bb43a-c371-4339-bdae-e3082802e5bf","ios":"levelo://app?vid=4e4bb43a-c371-4339-bdae-e3082802e5bf"},"vehicle_type_id":"4","last_reported":1706396852,"current_range_meters":20400,"station_id":"ce4bgup2rcd13ifvqco0","pricing_plan_id":"free"},{"bike_id":"50481ac1-6e1b-4276-9156-0694fb510b33","system_id":"levelo_inurba_marseille","lat":43.309589,"lon":5.390258,"is_reserved":false,"is_disabled":false,"rental_uris":{"android":"levelo://app?vid=50481ac1-6e1b-4276-9156-0694fb510b33","ios":"levelo://app?vid=50481ac1-6e1b-4276-9156-0694fb510b33"},"vehicle_type_id":"4","last_reported":1706396852,"current_range_meters":19600,"station_id":"ce4bgup2rcd13ifvqco0","pricing_plan_id":"free"},{"bike_id":"73ec78ed-1ff0-42a6-b551-6da5ed3e98dc","system_id":"levelo_inurba_marseille","lat":43.309589,"lon":5.390258,"is_reserved":false,"is_disabled":false,"rental_uris":{"android":"levelo://app?vid=73ec78ed-1ff0-42a6-b551-6da5ed3e98dc","ios":"levelo://app?vid=73ec78ed-1ff0-42a6-b551-6da5ed3e98dc"},"vehicle_type_id":"4","last_reported":1706396852,"current_range_meters":16400,"station_id":"ce4bgup2rcd13ifvqco0","pricing_plan_id":"free"},{"bike_id":"5849c8f1-de07-480c-ab10-c023b55280ba","system_id":"levelo_inurba_marseille","lat":43.322571,"lon":5.386858,"is_reserved":false,"is_disabled":false,"rental_uris":{"android":"levelo://app?vid=5849c8f1-de07-480c-ab10-c023b55280ba","ios":"levelo://app?vid=5849c8f1-de07-480c-ab10-c023b55280ba"},"vehicle_type_id":"4","last_reported":1706396852,"current_range_meters":400,"station_id":"","pricing_plan_id":"free"},{"bike_id":"003be8bb-e19b-4ce3-bebc-b9877864fa6b","system_id":"levelo_inurba_marseille","lat":43.317557,"lon":5.390173,"is_reserved":false,"is_disabled":false,"rental_uris":{"android":"levelo://app?vid=003be8bb-e19b-4ce3-bebc-b9877864fa6b","ios":"levelo://app?vid=003be8bb-e19b-4ce3-bebc-b9877864fa6b"},"vehicle_type_id":"4","last_reported":1706396852,"current_range_meters":23200,"station_id":"ce4bhqp2rcd13ifvqhng","pricing_plan_id":"free"},{"bike_id":"3e3367c6-53d3-4ae9-9fe5-a7cd08a3427c","system_id":"levelo_inurba_marseille","lat":43.298037,"lon":5.381066,"is_reserved":false,"is_disabled":false,"rental_uris":{"android":"levelo://app?vid=3e3367c6-53d3-4ae9-9fe5-a7cd08a3427c","ios":"levelo://app?vid=3e3367c6-53d3-4ae9-9fe5-a7cd08a3427c"},"vehicle_type_id":"4","last_reported":1706396852,"current_range_meters":22400,"station_id":"ce4bgip2rcd13ifvqbb0","pricing_plan_id":"free"},{"bike_id":"586de143-d418-4313-864d-8e36d8e26d68","system_id":"levelo_inurba_marseille","lat":43.298037,"lon":5.381066,"is_reserved":false,"is_disabled":false,"rental_uris":{"android":"levelo://app?vid=586de143-d418-4313-864d-8e36d8e26d68","ios":"levelo://app?vid=586de143-d418-4313-864d-8e36d8e26d68"},"vehicle_type_id":"4","last_reported":1706396852,"current_range_meters":18400,"station_id":"ce4bgip2rcd13ifvqbb0","pricing_plan_id":"free"},{"bike_id":"70605af0-3b87-42a5-a951-4a63dddf52ee","system_id":"levelo_inurba_marseille","lat":43.29974,"lon":5.38485,"is_reserved":false,"is_disabled":false,"rental_uris":{"android":"levelo://app?vid=70605af0-3b87-42a5-a951-4a63dddf52ee","ios":"levelo://app?vid=70605af0-3b87-42a5-a951-4a63dddf52ee"},"vehicle_type_id":"4","last_reported":1706396852,"current_range_meters":0,"station_id":"ce4bgj92rcd13ifvqbd0","pricing_plan_id":"free"},{"bike_id":"fd6dce2a-eb99-485b-a839-9d829db41d88","system_id":"levelo_inurba_marseille","lat":43.299707,"lon":5.384859,"is_reserved":false,"is_disabled":false,"rental_uris":{"android":"levelo://app?vid=fd6dce2a-eb99-485b-a839-9d829db41d88","ios":"levelo://app?vid=fd6dce2a-eb99-485b-a839-9d829db41d88"},"vehicle_type_id":"4","last_reported":1706396852,"current_range_meters":0,"station_id":"ce4bgj92rcd13ifvqbd0","pricing_plan_id":"free"},{"bike_id":"e98c1561-21a0-441d-9954-5e91311044ba","system_id":"levelo_inurba_marseille","lat":43.32367,"lon":5.388836,"is_reserved":false,"is_disabled":false,"rental_uris":{"android":"levelo://app?vid=e98c1561-21a0-441d-9954-5e91311044ba","ios":"levelo://app?vid=e98c1561-21a0-441d-9954-5e91311044ba"},"vehicle_type_id":"4","last_reported":1706396852,"current_range_meters":0,"station_id":"ce4bhqp2rcd13ifvqhog","pricing_plan_id":"free"},{"bike_id":"311f2bb5-da85-44fc-915b-153e21fa0c75","system_id":"levelo_inurba_marseille","lat":43.32367,"lon":5.388836,"is_reserved":false,"is_disabled":false,"rental_uris":{"android":"levelo://app?vid=311f2bb5-da85-44fc-915b-153e21fa0c75","ios":"levelo://app?vid=311f2bb5-da85-44fc-915b-153e21fa0c75"},"vehicle_type_id":"4","last_reported":1706396852,"current_range_meters":2800,"station_id":"ce4bhqp2rcd13ifvqhog","pricing_plan_id":"free"},{"bike_id":"74a6517a-2a3e-482c-abd3-6c87ed3b053b","system_id":"levelo_inurba_marseille","lat":43.32367,"lon":5.388836,"is_reserved":false,"is_disabled":false,"rental_uris":{"android":"levelo://app?vid=74a6517a-2a3e-482c-abd3-6c87ed3b053b","ios":"levelo://app?vid=74a6517a-2a3e-482c-abd3-6c87ed3b053b"},"vehicle_type_id":"4","last_reported":1706396852,"current_range_meters":0,"station_id":"ce4bhqp2rcd13ifvqhog","pricing_plan_id":"free"},{"bike_id":"621b2eaf-5b1b-4a8a-bdab-8203d983b142","system_id":"levelo_inurba_marseille","lat":43.32367,"lon":5.388836,"is_reserved":false,"is_disabled":false,"rental_uris":{"android":"levelo://app?vid=621b2eaf-5b1b-4a8a-bdab-8203d983b142","ios":"levelo://app?vid=621b2eaf-5b1b-4a8a-bdab-8203d983b142"},"vehicle_type_id":"4","last_reported":1706396852,"current_range_meters":16800,"station_id":"ce4bhqp2rcd13ifvqhog","pricing_plan_id":"free"},{"bike_id":"36fdf3a9-6637-4abe-9106-b80fdb7b6025","system_id":"levelo_inurba_marseille","lat":43.32367,"lon":5.388836,"is_reserved":false,"is_disabled":false,"rental_uris":{"android":"levelo://app?vid=36fdf3a9-6637-4abe-9106-b80fdb7b6025","ios":"levelo://app?vid=36fdf3a9-6637-4abe-9106-b80fdb7b6025"},"vehicle_type_id":"4","last_reported":1706396852,"current_range_meters":16000,"station_id":"ce4bhqp2rcd13ifvqhog","pricing_plan_id":"free"},{"bike_id":"3654ffe5-d330-4f22-b55f-81d4ad923fcf","system_id":"levelo_inurba_marseille","lat":43.29592,"lon":5.38101,"is_reserved":false,"is_disabled":false,"rental_uris":{"android":"levelo://app?vid=3654ffe5-d330-4f22-b55f-81d4ad923fcf","ios":"levelo://app?vid=3654ffe5-d330-4f22-b55f-81d4ad923fcf"},"vehicle_type_id":"4","last_reported":1706396852,"current_range_meters":0,"station_id":"ce4bgl12rcd13ifvqbo0","pricing_plan_id":"free"},{"bike_id":"d9841363-7731-442d-981f-f43031fb4197","system_id":"levelo_inurba_marseille","lat":43.293249,"lon":5.371578,"is_reserved":false,"is_disabled":false,"rental_uris":{"android":"levelo://app?vid=d9841363-7731-442d-981f-f43031fb4197","ios":"levelo://app?vid=d9841363-7731-442d-981f-f43031fb4197"},"vehicle_type_id":"4","last_reported":1706396852,"current_range_meters":1600,"station_id":"ce4bgh92rcd13ifvqb40","pricing_plan_id":"free"},{"bike_id":"18a51545-c32e-4a40-bcff-065c6bd42c0f","system_id":"levelo_inurba_marseille","lat":43.29308,"lon":5.37176,"is_reserved":false,"is_disabled":false,"rental_uris":{"android":"levelo://app?vid=18a51545-c32e-4a40-bcff-065c6bd42c0f","ios":"levelo://app?vid=18a51545-c32e-4a40-bcff-065c6bd42c0f"},"vehicle_type_id":"4","last_reported":1706396852,"current_range_meters":0,"station_id":"ce4bgh92rcd13ifvqb40","pricing_plan_id":"free"},{"bike_id":"ae6aa349-8492-41d9-ab85-f47dc0855de0","system_id":"levelo_inurba_marseille","lat":43.29276,"lon":5.36845,"is_reserved":false,"is_disabled":false,"rental_uris":{"android":"levelo://app?vid=ae6aa349-8492-41d9-ab85-f47dc0855de0","ios":"levelo://app?vid=ae6aa349-8492-41d9-ab85-f47dc0855de0"},"vehicle_type_id":"4","last_reported":1706396852,"current_range_meters":0,"station_id":"ce4bhbp2rcd13ifvqesg","pricing_plan_id":"free"},{"bike_id":"9f1d5f02-5e69-4afb-9572-a4ac22ad15c3","system_id":"levelo_inurba_marseille","lat":43.293019,"lon":5.374523,"is_reserved":false,"is_disabled":false,"rental_uris":{"android":"levelo://app?vid=9f1d5f02-5e69-4afb-9572-a4ac22ad15c3","ios":"levelo://app?vid=9f1d5f02-5e69-4afb-9572-a4ac22ad15c3"},"vehicle_type_id":"4","last_reported":1706396852,"current_range_meters":0,"station_id":"ce4bgi12rcd13ifvqb70","pricing_plan_id":"free"},{"bike_id":"8e6557db-8e3e-4cd9-87c3-0a7e161cab7b","system_id":"levelo_inurba_marseille","lat":43.306008,"lon":5.393568,"is_reserved":false,"is_disabled":false,"rental_uris":{"android":"levelo://app?vid=8e6557db-8e3e-4cd9-87c3-0a7e161cab7b","ios":"levelo://app?vid=8e6557db-8e3e-4cd9-87c3-0a7e161cab7b"},"vehicle_type_id":"4","last_reported":1706396852,"current_range_meters":0,"station_id":"ce4bh0p2rcd13ifvqd80","pricing_plan_id":"free"},{"bike_id":"dd4babb9-d9f7-49d4-8717-5981e4cd9be0","system_id":"levelo_inurba_marseille","lat":43.305994,"lon":5.393687,"is_reserved":false,"is_disabled":false,"rental_uris":{"android":"levelo://app?vid=dd4babb9-d9f7-49d4-8717-5981e4cd9be0","ios":"levelo://app?vid=dd4babb9-d9f7-49d4-8717-5981e4cd9be0"},"vehicle_type_id":"4","last_reported":1706396852,"current_range_meters":25600,"station_id":"ce4bh0p2rcd13ifvqd80","pricing_plan_id":"free"},{"bike_id":"25aa3a54-632b-4587-bc7d-41c24cb3374b","system_id":"levelo_inurba_marseille","lat":43.292923,"lon":5.37441,"is_reserved":false,"is_disabled":false,"rental_uris":{"android":"levelo://app?vid=25aa3a54-632b-4587-bc7d-41c24cb3374b","ios":"levelo://app?vid=25aa3a54-632b-4587-bc7d-41c24cb3374b"},"vehicle_type_id":"4","last_reported":1706396852,"current_range_meters":0,"station_id":"ce4bgi12rcd13ifvqb70","pricing_plan_id":"free"},{"bike_id":"cfb50727-3ed7-47ec-ab61-adf08fa1281a","system_id":"levelo_inurba_marseille","lat":43.29293,"lon":5.37452,"is_reserved":false,"is_disabled":false,"rental_uris":{"android":"levelo://app?vid=cfb50727-3ed7-47ec-ab61-adf08fa1281a","ios":"levelo://app?vid=cfb50727-3ed7-47ec-ab61-adf08fa1281a"},"vehicle_type_id":"4","last_reported":1706396852,"current_range_meters":0,"station_id":"ce4bgi12rcd13ifvqb70","pricing_plan_id":"free"},{"bike_id":"3b96de25-d643-404b-ad89-85c3b8794b93","system_id":"levelo_inurba_marseille","lat":43.30085,"lon":5.390856,"is_reserved":false,"is_disabled":false,"rental_uris":{"android":"levelo://app?vid=3b96de25-d643-404b-ad89-85c3b8794b93","ios":"levelo://app?vid=3b96de25-d643-404b-ad89-85c3b8794b93"},"vehicle_type_id":"4","last_reported":1706396852,"current_range_meters":2000,"station_id":"ce4bh192rcd13ifvqdb0","pricing_plan_id":"free"},{"bike_id":"c9594df0-fc56-46d4-9dfb-c665fdb1a505","system_id":"levelo_inurba_marseille","lat":43.291675,"lon":5.371583,"is_reserved":false,"is_disabled":false,"rental_uris":{"android":"levelo://app?vid=c9594df0-fc56-46d4-9dfb-c665fdb1a505","ios":"levelo://app?vid=c9594df0-fc56-46d4-9dfb-c665fdb1a505"},"vehicle_type_id":"4","last_reported":1706396852,"current_range_meters":400,"station_id":"ce4bha92rcd13ifvqeh0","pricing_plan_id":"free"},{"bike_id":"9533ac50-bb67-4d33-96e4-1b8fe9745f5c","system_id":"levelo_inurba_marseille","lat":43.309047,"lon":5.396551,"is_reserved":false,"is_disabled":false,"rental_uris":{"android":"levelo://app?vid=9533ac50-bb67-4d33-96e4-1b8fe9745f5c","ios":"levelo://app?vid=9533ac50-bb67-4d33-96e4-1b8fe9745f5c"},"vehicle_type_id":"4","last_reported":1706396852,"current_range_meters":27600,"station_id":"ce4bh012rcd13ifvqcv0","pricing_plan_id":"free"},{"bike_id":"91b6ce03-8d50-4ff9-ab43-eb203913956f","system_id":"levelo_inurba_marseille","lat":43.309038,"lon":5.396546,"is_reserved":false,"is_disabled":false,"rental_uris":{"android":"levelo://app?vid=91b6ce03-8d50-4ff9-ab43-eb203913956f","ios":"levelo://app?vid=91b6ce03-8d50-4ff9-ab43-eb203913956f"},"vehicle_type_id":"4","last_reported":1706396852,"current_range_meters":19600,"station_id":"ce4bh012rcd13ifvqcv0","pricing_plan_id":"free"},{"bike_id":"828299ac-5738-4eec-bbfd-ec2d6ee95c32","system_id":"levelo_inurba_marseille","lat":43.309047,"lon":5.396551,"is_reserved":false,"is_disabled":false,"rental_uris":{"android":"levelo://app?vid=828299ac-5738-4eec-bbfd-ec2d6ee95c32","ios":"levelo://app?vid=828299ac-5738-4eec-bbfd-ec2d6ee95c32"},"vehicle_type_id":"4","last_reported":1706396852,"current_range_meters":5600,"station_id":"ce4bh012rcd13ifvqcv0","pricing_plan_id":"free"},{"bike_id":"a1e3a243-4a07-4a27-a261-3cb3518fb4cf","system_id":"levelo_inurba_marseille","lat":43.309047,"lon":5.396551,"is_reserved":false,"is_disabled":false,"rental_uris":{"android":"levelo://app?vid=a1e3a243-4a07-4a27-a261-3cb3518fb4cf","ios":"levelo://app?vid=a1e3a243-4a07-4a27-a261-3cb3518fb4cf"},"vehicle_type_id":"4","last_reported":1706396852,"current_range_meters":13600,"station_id":"ce4bh012rcd13ifvqcv0","pricing_plan_id":"free"},{"bike_id":"57d9ffe9-5aec-4ad5-be48-ed619f75db89","system_id":"levelo_inurba_marseille","lat":43.309047,"lon":5.396551,"is_reserved":false,"is_disabled":false,"rental_uris":{"android":"levelo://app?vid=57d9ffe9-5aec-4ad5-be48-ed619f75db89","ios":"levelo://app?vid=57d9ffe9-5aec-4ad5-be48-ed619f75db89"},"vehicle_type_id":"4","last_reported":1706396852,"current_range_meters":29200,"station_id":"ce4bh012rcd13ifvqcv0","pricing_plan_id":"free"},{"bike_id":"577db9f0-a4d2-4b47-8ec3-5eb9ed4d7322","system_id":"levelo_inurba_marseille","lat":43.29529,"lon":5.385581,"is_reserved":false,"is_disabled":false,"rental_uris":{"android":"levelo://app?vid=577db9f0-a4d2-4b47-8ec3-5eb9ed4d7322","ios":"levelo://app?vid=577db9f0-a4d2-4b47-8ec3-5eb9ed4d7322"},"vehicle_type_id":"4","last_reported":1706396852,"current_range_meters":8400,"station_id":"ce4bgih2rcd13ifvqba0","pricing_plan_id":"free"},{"bike_id":"e2c543ed-eb05-45d4-bf82-ff7fc63a629c","system_id":"levelo_inurba_marseille","lat":43.29529,"lon":5.385581,"is_reserved":false,"is_disabled":false,"rental_uris":{"android":"levelo://app?vid=e2c543ed-eb05-45d4-bf82-ff7fc63a629c","ios":"levelo://app?vid=e2c543ed-eb05-45d4-bf82-ff7fc63a629c"},"vehicle_type_id":"4","last_reported":1706396852,"current_range_meters":0,"station_id":"ce4bgih2rcd13ifvqba0","pricing_plan_id":"free"},{"bike_id":"35a5a8f9-cff3-4876-955f-37d30e34a46e","system_id":"levelo_inurba_marseille","lat":43.295339,"lon":5.385441,"is_reserved":false,"is_disabled":false,"rental_uris":{"android":"levelo://app?vid=35a5a8f9-cff3-4876-955f-37d30e34a46e","ios":"levelo://app?vid=35a5a8f9-cff3-4876-955f-37d30e34a46e"},"vehicle_type_id":"4","last_reported":1706396852,"current_range_meters":0,"station_id":"ce4bgih2rcd13ifvqba0","pricing_plan_id":"free"},{"bike_id":"3fcb8fb3-48b7-4a54-8e09-a246e38a0dc8","system_id":"levelo_inurba_marseille","lat":43.290779,"lon":5.371482,"is_reserved":false,"is_disabled":false,"rental_uris":{"android":"levelo://app?vid=3fcb8fb3-48b7-4a54-8e09-a246e38a0dc8","ios":"levelo://app?vid=3fcb8fb3-48b7-4a54-8e09-a246e38a0dc8"},"vehicle_type_id":"4","last_reported":1706396852,"current_range_meters":24800,"station_id":"ce4bh5p2rcd13ifvqe4g","pricing_plan_id":"free"},{"bike_id":"7a88baef-7765-4d21-b7a4-d18b783baf9d","system_id":"levelo_inurba_marseille","lat":43.302008,"lon":5.394694,"is_reserved":false,"is_disabled":false,"rental_uris":{"android":"levelo://app?vid=7a88baef-7765-4d21-b7a4-d18b783baf9d","ios":"levelo://app?vid=7a88baef-7765-4d21-b7a4-d18b783baf9d"},"vehicle_type_id":"4","last_reported":1706396852,"current_range_meters":0,"station_id":"ce4bh0p2rcd13ifvqd70","pricing_plan_id":"free"},{"bike_id":"a7d85f0f-61ee-4761-a65e-c26e4b7cb4e7","system_id":"levelo_inurba_marseille","lat":43.290441,"lon":5.359123,"is_reserved":false,"is_disabled":false,"rental_uris":{"android":"levelo://app?vid=a7d85f0f-61ee-4761-a65e-c26e4b7cb4e7","ios":"levelo://app?vid=a7d85f0f-61ee-4761-a65e-c26e4b7cb4e7"},"vehicle_type_id":"4","last_reported":1706396852,"current_range_meters":28000,"station_id":"","pricing_plan_id":"free"},{"bike_id":"3661d287-6810-42a6-937e-fa80876a9493","system_id":"levelo_inurba_marseille","lat":43.28992,"lon":5.37169,"is_reserved":false,"is_disabled":false,"rental_uris":{"android":"levelo://app?vid=3661d287-6810-42a6-937e-fa80876a9493","ios":"levelo://app?vid=3661d287-6810-42a6-937e-fa80876a9493"},"vehicle_type_id":"4","last_reported":1706396852,"current_range_meters":0,"station_id":"","pricing_plan_id":"free"},{"bike_id":"34352741-92b6-46cb-a96b-05c6fbd86707","system_id":"levelo_inurba_marseille","lat":43.29423,"lon":5.38618,"is_reserved":false,"is_disabled":false,"rental_uris":{"android":"levelo://app?vid=34352741-92b6-46cb-a96b-05c6fbd86707","ios":"levelo://app?vid=34352741-92b6-46cb-a96b-05c6fbd86707"},"vehicle_type_id":"4","last_reported":1706396852,"current_range_meters":0,"station_id":"ce4bh2h2rcd13ifvqdh0","pricing_plan_id":"free"},{"bike_id":"15278425-671d-4968-bcea-a1273b35aefd","system_id":"levelo_inurba_marseille","lat":43.28942,"lon":5.36642,"is_reserved":false,"is_disabled":false,"rental_uris":{"android":"levelo://app?vid=15278425-671d-4968-bcea-a1273b35aefd","ios":"levelo://app?vid=15278425-671d-4968-bcea-a1273b35aefd"},"vehicle_type_id":"4","last_reported":1706396852,"current_range_meters":11200,"station_id":"ce4bhap2rcd13ifvqek0","pricing_plan_id":"free"},{"bike_id":"49246ed3-194f-4ed6-b9fc-8910bf344677","system_id":"levelo_inurba_marseille","lat":43.289184,"lon":5.366408,"is_reserved":false,"is_disabled":false,"rental_uris":{"android":"levelo://app?vid=49246ed3-194f-4ed6-b9fc-8910bf344677","ios":"levelo://app?vid=49246ed3-194f-4ed6-b9fc-8910bf344677"},"vehicle_type_id":"4","last_reported":1706396852,"current_range_meters":18800,"station_id":"ce4bhap2rcd13ifvqek0","pricing_plan_id":"free"},{"bike_id":"e7ba543e-0d82-4701-8c4d-1839029539ce","system_id":"levelo_inurba_marseille","lat":43.289184,"lon":5.366408,"is_reserved":false,"is_disabled":false,"rental_uris":{"android":"levelo://app?vid=e7ba543e-0d82-4701-8c4d-1839029539ce","ios":"levelo://app?vid=e7ba543e-0d82-4701-8c4d-1839029539ce"},"vehicle_type_id":"4","last_reported":1706396852,"current_range_meters":6800,"station_id":"ce4bhap2rcd13ifvqek0","pricing_plan_id":"free"},{"bike_id":"6789a0fa-9b54-42af-bbfc-0289449f6e06","system_id":"levelo_inurba_marseille","lat":43.289468,"lon":5.363719,"is_reserved":false,"is_disabled":false,"rental_uris":{"android":"levelo://app?vid=6789a0fa-9b54-42af-bbfc-0289449f6e06","ios":"levelo://app?vid=6789a0fa-9b54-42af-bbfc-0289449f6e06"},"vehicle_type_id":"4","last_reported":1706396852,"current_range_meters":4800,"station_id":"ce4bhc92rcd13ifvqetg","pricing_plan_id":"free"},{"bike_id":"41772e7a-9baa-42cd-8354-92c1640fe8b8","system_id":"levelo_inurba_marseille","lat":43.292721,"lon":5.384411,"is_reserved":false,"is_disabled":false,"rental_uris":{"android":"levelo://app?vid=41772e7a-9baa-42cd-8354-92c1640fe8b8","ios":"levelo://app?vid=41772e7a-9baa-42cd-8354-92c1640fe8b8"},"vehicle_type_id":"4","last_reported":1706396852,"current_range_meters":0,"station_id":"ce4bh692rcd13ifvqea0","pricing_plan_id":"free"},{"bike_id":"86492615-0db5-479d-81ac-d780469acf0d","system_id":"levelo_inurba_marseille","lat":43.290104,"lon":5.356111,"is_reserved":false,"is_disabled":false,"rental_uris":{"android":"levelo://app?vid=86492615-0db5-479d-81ac-d780469acf0d","ios":"levelo://app?vid=86492615-0db5-479d-81ac-d780469acf0d"},"vehicle_type_id":"4","last_reported":1706396852,"current_range_meters":21600,"station_id":"ce4bhb92rcd13ifvqen0","pricing_plan_id":"free"},{"bike_id":"eaba0230-97b4-4bf4-a22f-856e0c9c0e8c","system_id":"levelo_inurba_marseille","lat":43.295169,"lon":5.390426,"is_reserved":false,"is_disabled":false,"rental_uris":{"android":"levelo://app?vid=eaba0230-97b4-4bf4-a22f-856e0c9c0e8c","ios":"levelo://app?vid=eaba0230-97b4-4bf4-a22f-856e0c9c0e8c"},"vehicle_type_id":"4","last_reported":1706396852,"current_range_meters":0,"station_id":"ce4bh3p2rcd13ifvqdp0","pricing_plan_id":"free"},{"bike_id":"342af207-fe36-4b30-8624-da2d5a2d0679","system_id":"levelo_inurba_marseille","lat":43.289849,"lon":5.378259,"is_reserved":false,"is_disabled":false,"rental_uris":{"android":"levelo://app?vid=342af207-fe36-4b30-8624-da2d5a2d0679","ios":"levelo://app?vid=342af207-fe36-4b30-8624-da2d5a2d0679"},"vehicle_type_id":"4","last_reported":1706396852,"current_range_meters":0,"station_id":"ce4bh9p2rcd13ifvqed0","pricing_plan_id":"free"},{"bike_id":"173ff28b-de14-4e0a-b30b-cdf5cf18fec7","system_id":"levelo_inurba_marseille","lat":43.295169,"lon":5.390426,"is_reserved":false,"is_disabled":false,"rental_uris":{"android":"levelo://app?vid=173ff28b-de14-4e0a-b30b-cdf5cf18fec7","ios":"levelo://app?vid=173ff28b-de14-4e0a-b30b-cdf5cf18fec7"},"vehicle_type_id":"4","last_reported":1706396852,"current_range_meters":8000,"station_id":"ce4bh3p2rcd13ifvqdp0","pricing_plan_id":"free"},{"bike_id":"1e1c7898-d4fe-4b55-a2ed-059a9ce5ada8","system_id":"levelo_inurba_marseille","lat":43.28856,"lon":5.358371,"is_reserved":false,"is_disabled":false,"rental_uris":{"android":"levelo://app?vid=1e1c7898-d4fe-4b55-a2ed-059a9ce5ada8","ios":"levelo://app?vid=1e1c7898-d4fe-4b55-a2ed-059a9ce5ada8"},"vehicle_type_id":"4","last_reported":1706396852,"current_range_meters":17600,"station_id":"ce4bhb12rcd13ifvqem0","pricing_plan_id":"free"},{"bike_id":"a563cdbf-78b8-441c-8dce-8da1c3325b92","system_id":"levelo_inurba_marseille","lat":43.3375,"lon":5.37454,"is_reserved":false,"is_disabled":false,"rental_uris":{"android":"levelo://app?vid=a563cdbf-78b8-441c-8dce-8da1c3325b92","ios":"levelo://app?vid=a563cdbf-78b8-441c-8dce-8da1c3325b92"},"vehicle_type_id":"4","last_reported":1706396852,"current_range_meters":16400,"station_id":"","pricing_plan_id":"free"},{"bike_id":"6a4cda04-8a10-4b2c-89d8-c6fab204537e","system_id":"levelo_inurba_marseille","lat":43.300592,"lon":5.397726,"is_reserved":false,"is_disabled":false,"rental_uris":{"android":"levelo://app?vid=6a4cda04-8a10-4b2c-89d8-c6fab204537e","ios":"levelo://app?vid=6a4cda04-8a10-4b2c-89d8-c6fab204537e"},"vehicle_type_id":"4","last_reported":1706396852,"current_range_meters":16800,"station_id":"","pricing_plan_id":"free"},{"bike_id":"02cc1ce4-717f-4b60-a8ae-e32a4e8fb56c","system_id":"levelo_inurba_marseille","lat":43.33759,"lon":5.37486,"is_reserved":false,"is_disabled":false,"rental_uris":{"android":"levelo://app?vid=02cc1ce4-717f-4b60-a8ae-e32a4e8fb56c","ios":"levelo://app?vid=02cc1ce4-717f-4b60-a8ae-e32a4e8fb56c"},"vehicle_type_id":"4","last_reported":1706396852,"current_range_meters":10400,"station_id":"","pricing_plan_id":"free"},{"bike_id":"a9554a78-0f9d-4cdd-9ecd-598bb2d54931","system_id":"levelo_inurba_marseille","lat":43.337602,"lon":5.374839,"is_reserved":false,"is_disabled":false,"rental_uris":{"android":"levelo://app?vid=a9554a78-0f9d-4cdd-9ecd-598bb2d54931","ios":"levelo://app?vid=a9554a78-0f9d-4cdd-9ecd-598bb2d54931"},"vehicle_type_id":"4","last_reported":1706396852,"current_range_meters":30400,"station_id":"","pricing_plan_id":"free"},{"bike_id":"3a9411fb-0493-4cd2-977c-26270d7d2361","system_id":"levelo_inurba_marseille","lat":43.30642,"lon":5.401031,"is_reserved":false,"is_disabled":false,"rental_uris":{"android":"levelo://app?vid=3a9411fb-0493-4cd2-977c-26270d7d2361","ios":"levelo://app?vid=3a9411fb-0493-4cd2-977c-26270d7d2361"},"vehicle_type_id":"4","last_reported":1706396852,"current_range_meters":0,"station_id":"ce4bh112rcd13ifvqda0","pricing_plan_id":"free"},{"bike_id":"b7f12eab-e0a6-499e-87ec-2b4381c4602a","system_id":"levelo_inurba_marseille","lat":43.337613,"lon":5.374841,"is_reserved":false,"is_disabled":false,"rental_uris":{"android":"levelo://app?vid=b7f12eab-e0a6-499e-87ec-2b4381c4602a","ios":"levelo://app?vid=b7f12eab-e0a6-499e-87ec-2b4381c4602a"},"vehicle_type_id":"4","last_reported":1706396852,"current_range_meters":22400,"station_id":"","pricing_plan_id":"free"},{"bike_id":"b7d3b81d-d85a-44b5-a0c7-8f9c9f74639e","system_id":"levelo_inurba_marseille","lat":43.33765,"lon":5.374672,"is_reserved":false,"is_disabled":false,"rental_uris":{"android":"levelo://app?vid=b7d3b81d-d85a-44b5-a0c7-8f9c9f74639e","ios":"levelo://app?vid=b7d3b81d-d85a-44b5-a0c7-8f9c9f74639e"},"vehicle_type_id":"4","last_reported":1706396852,"current_range_meters":29200,"station_id":"","pricing_plan_id":"free"},{"bike_id":"1facbbf3-baac-42f8-85eb-cb1e36f3e4b9","system_id":"levelo_inurba_marseille","lat":43.33763,"lon":5.37486,"is_reserved":false,"is_disabled":false,"rental_uris":{"android":"levelo://app?vid=1facbbf3-baac-42f8-85eb-cb1e36f3e4b9","ios":"levelo://app?vid=1facbbf3-baac-42f8-85eb-cb1e36f3e4b9"},"vehicle_type_id":"4","last_reported":1706396852,"current_range_meters":17200,"station_id":"","pricing_plan_id":"free"},{"bike_id":"bd7c49e0-243f-4049-bc25-2de8f060bb29","system_id":"levelo_inurba_marseille","lat":43.33764,"lon":5.37489,"is_reserved":false,"is_disabled":false,"rental_uris":{"android":"levelo://app?vid=bd7c49e0-243f-4049-bc25-2de8f060bb29","ios":"levelo://app?vid=bd7c49e0-243f-4049-bc25-2de8f060bb29"},"vehicle_type_id":"4","last_reported":1706396852,"current_range_meters":22800,"station_id":"","pricing_plan_id":"free"},{"bike_id":"eaeff2f9-be33-4cbc-b315-c230be10dd9b","system_id":"levelo_inurba_marseille","lat":43.33766,"lon":5.37495,"is_reserved":false,"is_disabled":false,"rental_uris":{"android":"levelo://app?vid=eaeff2f9-be33-4cbc-b315-c230be10dd9b","ios":"levelo://app?vid=eaeff2f9-be33-4cbc-b315-c230be10dd9b"},"vehicle_type_id":"4","last_reported":1706396852,"current_range_meters":8000,"station_id":"","pricing_plan_id":"free"},{"bike_id":"e6c621d2-c67a-477d-a62d-eafba36d052e","system_id":"levelo_inurba_marseille","lat":43.301117,"lon":5.398795,"is_reserved":false,"is_disabled":false,"rental_uris":{"android":"levelo://app?vid=e6c621d2-c67a-477d-a62d-eafba36d052e","ios":"levelo://app?vid=e6c621d2-c67a-477d-a62d-eafba36d052e"},"vehicle_type_id":"4","last_reported":1706396852,"current_range_meters":6000,"station_id":"ce4bh0h2rcd13ifvqd40","pricing_plan_id":"free"},{"bike_id":"08e018e6-f212-4f99-9d7b-119b1ecb9bfc","system_id":"levelo_inurba_marseille","lat":43.301117,"lon":5.398795,"is_reserved":false,"is_disabled":false,"rental_uris":{"android":"levelo://app?vid=08e018e6-f212-4f99-9d7b-119b1ecb9bfc","ios":"levelo://app?vid=08e018e6-f212-4f99-9d7b-119b1ecb9bfc"},"vehicle_type_id":"4","last_reported":1706396852,"current_range_meters":18000,"station_id":"ce4bh0h2rcd13ifvqd40","pricing_plan_id":"free"},{"bike_id":"e232c785-9041-469d-9748-490043837390","system_id":"levelo_inurba_marseille","lat":43.28727,"lon":5.36078,"is_reserved":false,"is_disabled":false,"rental_uris":{"android":"levelo://app?vid=e232c785-9041-469d-9748-490043837390","ios":"levelo://app?vid=e232c785-9041-469d-9748-490043837390"},"vehicle_type_id":"4","last_reported":1706396852,"current_range_meters":7600,"station_id":"cki0cbj6b192h4jlfktg","pricing_plan_id":"free"},{"bike_id":"e13e6417-3550-444d-aa38-b2777ea57441","system_id":"levelo_inurba_marseille","lat":43.28727,"lon":5.36078,"is_reserved":false,"is_disabled":false,"rental_uris":{"android":"levelo://app?vid=e13e6417-3550-444d-aa38-b2777ea57441","ios":"levelo://app?vid=e13e6417-3550-444d-aa38-b2777ea57441"},"vehicle_type_id":"4","last_reported":1706396852,"current_range_meters":2400,"station_id":"cki0cbj6b192h4jlfktg","pricing_plan_id":"free"},{"bike_id":"dec671df-e950-41f7-a73a-66da30a82a50","system_id":"levelo_inurba_marseille","lat":43.298681,"lon":5.397225,"is_reserved":false,"is_disabled":false,"rental_uris":{"android":"levelo://app?vid=dec671df-e950-41f7-a73a-66da30a82a50","ios":"levelo://app?vid=dec671df-e950-41f7-a73a-66da30a82a50"},"vehicle_type_id":"4","last_reported":1706396852,"current_range_meters":9200,"station_id":"ce4bh0h2rcd13ifvqd50","pricing_plan_id":"free"},{"bike_id":"2fe24097-b1c2-4583-ba1f-cf8501171a4c","system_id":"levelo_inurba_marseille","lat":43.33767,"lon":5.377706,"is_reserved":false,"is_disabled":false,"rental_uris":{"android":"levelo://app?vid=2fe24097-b1c2-4583-ba1f-cf8501171a4c","ios":"levelo://app?vid=2fe24097-b1c2-4583-ba1f-cf8501171a4c"},"vehicle_type_id":"4","last_reported":1706396852,"current_range_meters":14400,"station_id":"","pricing_plan_id":"free"},{"bike_id":"31a59fe4-e4fb-4720-81c2-42f236664377","system_id":"levelo_inurba_marseille","lat":43.286961,"lon":5.373785,"is_reserved":false,"is_disabled":false,"rental_uris":{"android":"levelo://app?vid=31a59fe4-e4fb-4720-81c2-42f236664377","ios":"levelo://app?vid=31a59fe4-e4fb-4720-81c2-42f236664377"},"vehicle_type_id":"4","last_reported":1706396852,"current_range_meters":23200,"station_id":"ce4bh3p2rcd13ifvqdq0","pricing_plan_id":"free"},{"bike_id":"3be1b73a-7f9c-4f6f-807d-9cfc8fde5644","system_id":"levelo_inurba_marseille","lat":43.286961,"lon":5.373785,"is_reserved":false,"is_disabled":false,"rental_uris":{"android":"levelo://app?vid=3be1b73a-7f9c-4f6f-807d-9cfc8fde5644","ios":"levelo://app?vid=3be1b73a-7f9c-4f6f-807d-9cfc8fde5644"},"vehicle_type_id":"4","last_reported":1706396852,"current_range_meters":15600,"station_id":"ce4bh3p2rcd13ifvqdq0","pricing_plan_id":"free"},{"bike_id":"3c4699e7-ee32-488d-8a54-739dbde16687","system_id":"levelo_inurba_marseille","lat":43.286961,"lon":5.373785,"is_reserved":false,"is_disabled":false,"rental_uris":{"android":"levelo://app?vid=3c4699e7-ee32-488d-8a54-739dbde16687","ios":"levelo://app?vid=3c4699e7-ee32-488d-8a54-739dbde16687"},"vehicle_type_id":"4","last_reported":1706396852,"current_range_meters":22800,"station_id":"ce4bh3p2rcd13ifvqdq0","pricing_plan_id":"free"},{"bike_id":"94c6a676-7e65-483e-a7f7-226900c88941","system_id":"levelo_inurba_marseille","lat":43.298681,"lon":5.397225,"is_reserved":false,"is_disabled":false,"rental_uris":{"android":"levelo://app?vid=94c6a676-7e65-483e-a7f7-226900c88941","ios":"levelo://app?vid=94c6a676-7e65-483e-a7f7-226900c88941"},"vehicle_type_id":"4","last_reported":1706396852,"current_range_meters":25200,"station_id":"ce4bh0h2rcd13ifvqd50","pricing_plan_id":"free"},{"bike_id":"49b6f9b1-cc62-4a6d-bcc2-8400e8b214bd","system_id":"levelo_inurba_marseille","lat":43.295194,"lon":5.39397,"is_reserved":false,"is_disabled":false,"rental_uris":{"android":"levelo://app?vid=49b6f9b1-cc62-4a6d-bcc2-8400e8b214bd","ios":"levelo://app?vid=49b6f9b1-cc62-4a6d-bcc2-8400e8b214bd"},"vehicle_type_id":"4","last_reported":1706396852,"current_range_meters":1200,"station_id":"ce4bh292rcd13ifvqdf0","pricing_plan_id":"free"},{"bike_id":"e0487fd6-e11a-4061-a0e5-5aee0ac4e672","system_id":"levelo_inurba_marseille","lat":43.302759,"lon":5.400793,"is_reserved":false,"is_disabled":false,"rental_uris":{"android":"levelo://app?vid=e0487fd6-e11a-4061-a0e5-5aee0ac4e672","ios":"levelo://app?vid=e0487fd6-e11a-4061-a0e5-5aee0ac4e672"},"vehicle_type_id":"4","last_reported":1706396852,"current_range_meters":3600,"station_id":"ce4bgvh2rcd13ifvqcs0","pricing_plan_id":"free"},{"bike_id":"6db6381f-d1d3-43bf-8f2b-bcf48fafbb6f","system_id":"levelo_inurba_marseille","lat":43.302759,"lon":5.400793,"is_reserved":false,"is_disabled":false,"rental_uris":{"android":"levelo://app?vid=6db6381f-d1d3-43bf-8f2b-bcf48fafbb6f","ios":"levelo://app?vid=6db6381f-d1d3-43bf-8f2b-bcf48fafbb6f"},"vehicle_type_id":"4","last_reported":1706396852,"current_range_meters":4000,"station_id":"ce4bgvh2rcd13ifvqcs0","pricing_plan_id":"free"},{"bike_id":"183bb1c1-398f-466c-b05d-327ac4efc436","system_id":"levelo_inurba_marseille","lat":43.302511,"lon":5.400653,"is_reserved":false,"is_disabled":false,"rental_uris":{"android":"levelo://app?vid=183bb1c1-398f-466c-b05d-327ac4efc436","ios":"levelo://app?vid=183bb1c1-398f-466c-b05d-327ac4efc436"},"vehicle_type_id":"4","last_reported":1706396852,"current_range_meters":13200,"station_id":"ce4bgth2rcd13ifvqch0","pricing_plan_id":"free"},{"bike_id":"285c6f92-9402-4605-b497-fc24d4b1f364","system_id":"levelo_inurba_marseille","lat":43.28921,"lon":5.383947,"is_reserved":false,"is_disabled":false,"rental_uris":{"android":"levelo://app?vid=285c6f92-9402-4605-b497-fc24d4b1f364","ios":"levelo://app?vid=285c6f92-9402-4605-b497-fc24d4b1f364"},"vehicle_type_id":"4","last_reported":1706396852,"current_range_meters":0,"station_id":"ce4bh612rcd13ifvqe6g","pricing_plan_id":"free"},{"bike_id":"d945d87d-b3ac-4df7-b1f2-0a21b3da304e","system_id":"levelo_inurba_marseille","lat":43.302759,"lon":5.400793,"is_reserved":false,"is_disabled":false,"rental_uris":{"android":"levelo://app?vid=d945d87d-b3ac-4df7-b1f2-0a21b3da304e","ios":"levelo://app?vid=d945d87d-b3ac-4df7-b1f2-0a21b3da304e"},"vehicle_type_id":"4","last_reported":1706396852,"current_range_meters":12000,"station_id":"ce4bgvh2rcd13ifvqcs0","pricing_plan_id":"free"},{"bike_id":"1b1f88f4-df68-4def-ac35-d4f7f6c8c955","system_id":"levelo_inurba_marseille","lat":43.29023,"lon":5.38657,"is_reserved":false,"is_disabled":false,"rental_uris":{"android":"levelo://app?vid=1b1f88f4-df68-4def-ac35-d4f7f6c8c955","ios":"levelo://app?vid=1b1f88f4-df68-4def-ac35-d4f7f6c8c955"},"vehicle_type_id":"4","last_reported":1706396852,"current_range_meters":0,"station_id":"ce4bh4p2rcd13ifvqe0g","pricing_plan_id":"free"},{"bike_id":"03447749-0c25-43f9-b101-2dd420e40b4a","system_id":"levelo_inurba_marseille","lat":43.286039,"lon":5.370681,"is_reserved":false,"is_disabled":false,"rental_uris":{"android":"levelo://app?vid=03447749-0c25-43f9-b101-2dd420e40b4a","ios":"levelo://app?vid=03447749-0c25-43f9-b101-2dd420e40b4a"},"vehicle_type_id":"4","last_reported":1706396852,"current_range_meters":9200,"station_id":"ce4bht12rcd13ifvqi60","pricing_plan_id":"free"},{"bike_id":"acc7f834-1c01-47bd-ba2c-01435aaf3a3d","system_id":"levelo_inurba_marseille","lat":43.291994,"lon":5.392907,"is_reserved":false,"is_disabled":false,"rental_uris":{"android":"levelo://app?vid=acc7f834-1c01-47bd-ba2c-01435aaf3a3d","ios":"levelo://app?vid=acc7f834-1c01-47bd-ba2c-01435aaf3a3d"},"vehicle_type_id":"4","last_reported":1706396852,"current_range_meters":22800,"station_id":"ce4bh192rcd13ifvqdd0","pricing_plan_id":"free"},{"bike_id":"cd871e94-f0ea-48f2-8b80-137c1909fc40","system_id":"levelo_inurba_marseille","lat":43.284538,"lon":5.358657,"is_reserved":false,"is_disabled":false,"rental_uris":{"android":"levelo://app?vid=cd871e94-f0ea-48f2-8b80-137c1909fc40","ios":"levelo://app?vid=cd871e94-f0ea-48f2-8b80-137c1909fc40"},"vehicle_type_id":"4","last_reported":1706396852,"current_range_meters":4400,"station_id":"ce4bhah2rcd13ifvqei0","pricing_plan_id":"free"},{"bike_id":"d5ad36f4-1365-4cda-9660-2f04755d1815","system_id":"levelo_inurba_marseille","lat":43.294314,"lon":5.397498,"is_reserved":false,"is_disabled":false,"rental_uris":{"android":"levelo://app?vid=d5ad36f4-1365-4cda-9660-2f04755d1815","ios":"levelo://app?vid=d5ad36f4-1365-4cda-9660-2f04755d1815"},"vehicle_type_id":"4","last_reported":1706396852,"current_range_meters":30000,"station_id":"ce4bh3h2rcd13ifvqdo0","pricing_plan_id":"free"},{"bike_id":"627d0d6d-5ebb-4711-9faf-8f53ee903ceb","system_id":"levelo_inurba_marseille","lat":43.294314,"lon":5.397498,"is_reserved":false,"is_disabled":false,"rental_uris":{"android":"levelo://app?vid=627d0d6d-5ebb-4711-9faf-8f53ee903ceb","ios":"levelo://app?vid=627d0d6d-5ebb-4711-9faf-8f53ee903ceb"},"vehicle_type_id":"4","last_reported":1706396852,"current_range_meters":29600,"station_id":"ce4bh3h2rcd13ifvqdo0","pricing_plan_id":"free"},{"bike_id":"d464a807-7e7f-4991-bd28-630bfbfd1e92","system_id":"levelo_inurba_marseille","lat":43.295713,"lon":5.399639,"is_reserved":false,"is_disabled":false,"rental_uris":{"android":"levelo://app?vid=d464a807-7e7f-4991-bd28-630bfbfd1e92","ios":"levelo://app?vid=d464a807-7e7f-4991-bd28-630bfbfd1e92"},"vehicle_type_id":"4","last_reported":1706396852,"current_range_meters":0,"station_id":"ce4bh312rcd13ifvqdj0","pricing_plan_id":"free"},{"bike_id":"3c33c078-2fd0-4577-8d96-f7ae34f42cc4","system_id":"levelo_inurba_marseille","lat":43.295713,"lon":5.399639,"is_reserved":false,"is_disabled":false,"rental_uris":{"android":"levelo://app?vid=3c33c078-2fd0-4577-8d96-f7ae34f42cc4","ios":"levelo://app?vid=3c33c078-2fd0-4577-8d96-f7ae34f42cc4"},"vehicle_type_id":"4","last_reported":1706396852,"current_range_meters":400,"station_id":"ce4bh312rcd13ifvqdj0","pricing_plan_id":"free"},{"bike_id":"75d408b5-ebc9-4d7f-b41a-f3ad6d4a81f1","system_id":"levelo_inurba_marseille","lat":43.295713,"lon":5.399639,"is_reserved":false,"is_disabled":false,"rental_uris":{"android":"levelo://app?vid=75d408b5-ebc9-4d7f-b41a-f3ad6d4a81f1","ios":"levelo://app?vid=75d408b5-ebc9-4d7f-b41a-f3ad6d4a81f1"},"vehicle_type_id":"4","last_reported":1706396852,"current_range_meters":24800,"station_id":"ce4bh312rcd13ifvqdj0","pricing_plan_id":"free"},{"bike_id":"b29b4b3a-7a43-4939-bb05-5f4f2fe881f9","system_id":"levelo_inurba_marseille","lat":43.319179,"lon":5.407725,"is_reserved":false,"is_disabled":false,"rental_uris":{"android":"levelo://app?vid=b29b4b3a-7a43-4939-bb05-5f4f2fe881f9","ios":"levelo://app?vid=b29b4b3a-7a43-4939-bb05-5f4f2fe881f9"},"vehicle_type_id":"4","last_reported":1706396852,"current_range_meters":14000,"station_id":"ce4bhq12rcd13ifvqhig","pricing_plan_id":"free"},{"bike_id":"2b5f4982-548b-4158-a72b-a9e801ba15e5","system_id":"levelo_inurba_marseille","lat":43.323464,"lon":5.406297,"is_reserved":false,"is_disabled":false,"rental_uris":{"android":"levelo://app?vid=2b5f4982-548b-4158-a72b-a9e801ba15e5","ios":"levelo://app?vid=2b5f4982-548b-4158-a72b-a9e801ba15e5"},"vehicle_type_id":"4","last_reported":1706396852,"current_range_meters":29600,"station_id":"ce4bhq92rcd13ifvqhjg","pricing_plan_id":"free"},{"bike_id":"2bb38835-1a5e-4d01-8935-6396d43e5266","system_id":"levelo_inurba_marseille","lat":43.337168,"lon":5.391825,"is_reserved":false,"is_disabled":false,"rental_uris":{"android":"levelo://app?vid=2bb38835-1a5e-4d01-8935-6396d43e5266","ios":"levelo://app?vid=2bb38835-1a5e-4d01-8935-6396d43e5266"},"vehicle_type_id":"4","last_reported":1706396852,"current_range_meters":23200,"station_id":"ce4bhr92rcd13ifvqhsg","pricing_plan_id":"free"},{"bike_id":"a3f30509-feaf-4375-af71-8a441027e5bd","system_id":"levelo_inurba_marseille","lat":43.33717,"lon":5.391857,"is_reserved":false,"is_disabled":false,"rental_uris":{"android":"levelo://app?vid=a3f30509-feaf-4375-af71-8a441027e5bd","ios":"levelo://app?vid=a3f30509-feaf-4375-af71-8a441027e5bd"},"vehicle_type_id":"4","last_reported":1706396852,"current_range_meters":26800,"station_id":"ce4bhr92rcd13ifvqhsg","pricing_plan_id":"free"},{"bike_id":"3c982f92-c162-4958-96ed-bd3ab8ee1412","system_id":"levelo_inurba_marseille","lat":43.323464,"lon":5.406297,"is_reserved":false,"is_disabled":false,"rental_uris":{"android":"levelo://app?vid=3c982f92-c162-4958-96ed-bd3ab8ee1412","ios":"levelo://app?vid=3c982f92-c162-4958-96ed-bd3ab8ee1412"},"vehicle_type_id":"4","last_reported":1706396852,"current_range_meters":22400,"station_id":"ce4bhq92rcd13ifvqhjg","pricing_plan_id":"free"},{"bike_id":"a6abaa71-df36-4957-bb71-934bd768d4ad","system_id":"levelo_inurba_marseille","lat":43.284793,"lon":5.384113,"is_reserved":false,"is_disabled":false,"rental_uris":{"android":"levelo://app?vid=a6abaa71-df36-4957-bb71-934bd768d4ad","ios":"levelo://app?vid=a6abaa71-df36-4957-bb71-934bd768d4ad"},"vehicle_type_id":"4","last_reported":1706396852,"current_range_meters":0,"station_id":"ce4bh512rcd13ifvqe3g","pricing_plan_id":"free"},{"bike_id":"3a330916-ddbf-4c1b-aa02-f263d7e67157","system_id":"levelo_inurba_marseille","lat":43.288465,"lon":5.393083,"is_reserved":false,"is_disabled":false,"rental_uris":{"android":"levelo://app?vid=3a330916-ddbf-4c1b-aa02-f263d7e67157","ios":"levelo://app?vid=3a330916-ddbf-4c1b-aa02-f263d7e67157"},"vehicle_type_id":"4","last_reported":1706396852,"current_range_meters":0,"station_id":"ce4bh2p2rcd13ifvqdi0","pricing_plan_id":"free"},{"bike_id":"4dd590d3-8e89-487b-8433-07b6914709b4","system_id":"levelo_inurba_marseille","lat":43.288501,"lon":5.393087,"is_reserved":false,"is_disabled":false,"rental_uris":{"android":"levelo://app?vid=4dd590d3-8e89-487b-8433-07b6914709b4","ios":"levelo://app?vid=4dd590d3-8e89-487b-8433-07b6914709b4"},"vehicle_type_id":"4","last_reported":1706396852,"current_range_meters":7200,"station_id":"ce4bh2p2rcd13ifvqdi0","pricing_plan_id":"free"},{"bike_id":"49927298-0456-42e8-8955-c51541c9e6dc","system_id":"levelo_inurba_marseille","lat":43.323464,"lon":5.406297,"is_reserved":false,"is_disabled":false,"rental_uris":{"android":"levelo://app?vid=49927298-0456-42e8-8955-c51541c9e6dc","ios":"levelo://app?vid=49927298-0456-42e8-8955-c51541c9e6dc"},"vehicle_type_id":"4","last_reported":1706396852,"current_range_meters":25200,"station_id":"ce4bhq92rcd13ifvqhjg","pricing_plan_id":"free"},{"bike_id":"5cf69671-d377-42f6-adb5-906bf85d5ba9","system_id":"levelo_inurba_marseille","lat":43.284219,"lon":5.3497,"is_reserved":false,"is_disabled":false,"rental_uris":{"android":"levelo://app?vid=5cf69671-d377-42f6-adb5-906bf85d5ba9","ios":"levelo://app?vid=5cf69671-d377-42f6-adb5-906bf85d5ba9"},"vehicle_type_id":"4","last_reported":1706396852,"current_range_meters":6000,"station_id":"ce4bhbh2rcd13ifvqepg","pricing_plan_id":"free"},{"bike_id":"9124b8b0-8a03-4c41-ba2e-16827c78a660","system_id":"levelo_inurba_marseille","lat":43.284219,"lon":5.3497,"is_reserved":false,"is_disabled":false,"rental_uris":{"android":"levelo://app?vid=9124b8b0-8a03-4c41-ba2e-16827c78a660","ios":"levelo://app?vid=9124b8b0-8a03-4c41-ba2e-16827c78a660"},"vehicle_type_id":"4","last_reported":1706396852,"current_range_meters":0,"station_id":"ce4bhbh2rcd13ifvqepg","pricing_plan_id":"free"},{"bike_id":"b41bcd76-cb12-4b33-95cd-9444d1e23578","system_id":"levelo_inurba_marseille","lat":43.293556,"lon":5.401561,"is_reserved":false,"is_disabled":false,"rental_uris":{"android":"levelo://app?vid=b41bcd76-cb12-4b33-95cd-9444d1e23578","ios":"levelo://app?vid=b41bcd76-cb12-4b33-95cd-9444d1e23578"},"vehicle_type_id":"4","last_reported":1706396852,"current_range_meters":8400,"station_id":"","pricing_plan_id":"free"},{"bike_id":"9c44152c-7d5d-45bd-a809-4c5dec73d8e8","system_id":"levelo_inurba_marseille","lat":43.289363,"lon":5.396322,"is_reserved":false,"is_disabled":false,"rental_uris":{"android":"levelo://app?vid=9c44152c-7d5d-45bd-a809-4c5dec73d8e8","ios":"levelo://app?vid=9c44152c-7d5d-45bd-a809-4c5dec73d8e8"},"vehicle_type_id":"4","last_reported":1706396852,"current_range_meters":0,"station_id":"ce4bh3h2rcd13ifvqdn0","pricing_plan_id":"free"},{"bike_id":"beedc7d7-e600-45a9-8254-c8f84f496b2e","system_id":"levelo_inurba_marseille","lat":43.292724,"lon":5.401131,"is_reserved":false,"is_disabled":false,"rental_uris":{"android":"levelo://app?vid=beedc7d7-e600-45a9-8254-c8f84f496b2e","ios":"levelo://app?vid=beedc7d7-e600-45a9-8254-c8f84f496b2e"},"vehicle_type_id":"4","last_reported":1706396852,"current_range_meters":3600,"station_id":"ce4bh312rcd13ifvqdk0","pricing_plan_id":"free"},{"bike_id":"3d8e3c89-77ff-4cde-8251-cac05c18153d","system_id":"levelo_inurba_marseille","lat":43.292724,"lon":5.401131,"is_reserved":false,"is_disabled":false,"rental_uris":{"android":"levelo://app?vid=3d8e3c89-77ff-4cde-8251-cac05c18153d","ios":"levelo://app?vid=3d8e3c89-77ff-4cde-8251-cac05c18153d"},"vehicle_type_id":"4","last_reported":1706396852,"current_range_meters":20000,"station_id":"ce4bh312rcd13ifvqdk0","pricing_plan_id":"free"},{"bike_id":"f7d4e601-ef44-48be-98d9-621364370410","system_id":"levelo_inurba_marseille","lat":43.29269,"lon":5.40122,"is_reserved":false,"is_disabled":false,"rental_uris":{"android":"levelo://app?vid=f7d4e601-ef44-48be-98d9-621364370410","ios":"levelo://app?vid=f7d4e601-ef44-48be-98d9-621364370410"},"vehicle_type_id":"4","last_reported":1706396852,"current_range_meters":20400,"station_id":"ce4bh312rcd13ifvqdk0","pricing_plan_id":"free"},{"bike_id":"fbc5f180-1763-48e2-8aea-f994f464e960","system_id":"levelo_inurba_marseille","lat":43.292724,"lon":5.401131,"is_reserved":false,"is_disabled":false,"rental_uris":{"android":"levelo://app?vid=fbc5f180-1763-48e2-8aea-f994f464e960","ios":"levelo://app?vid=fbc5f180-1763-48e2-8aea-f994f464e960"},"vehicle_type_id":"4","last_reported":1706396852,"current_range_meters":22400,"station_id":"ce4bh312rcd13ifvqdk0","pricing_plan_id":"free"},{"bike_id":"c07669b8-7477-4de7-b9ed-51c2ee95c1a6","system_id":"levelo_inurba_marseille","lat":43.292724,"lon":5.401131,"is_reserved":false,"is_disabled":false,"rental_uris":{"android":"levelo://app?vid=c07669b8-7477-4de7-b9ed-51c2ee95c1a6","ios":"levelo://app?vid=c07669b8-7477-4de7-b9ed-51c2ee95c1a6"},"vehicle_type_id":"4","last_reported":1706396852,"current_range_meters":14800,"station_id":"ce4bh312rcd13ifvqdk0","pricing_plan_id":"free"},{"bike_id":"006c0313-2bc5-49fc-a152-18087a7b4038","system_id":"levelo_inurba_marseille","lat":43.292724,"lon":5.401131,"is_reserved":false,"is_disabled":false,"rental_uris":{"android":"levelo://app?vid=006c0313-2bc5-49fc-a152-18087a7b4038","ios":"levelo://app?vid=006c0313-2bc5-49fc-a152-18087a7b4038"},"vehicle_type_id":"4","last_reported":1706396852,"current_range_meters":6400,"station_id":"ce4bh312rcd13ifvqdk0","pricing_plan_id":"free"},{"bike_id":"c54b91ed-ca1b-4df6-8d82-98f47f110d21","system_id":"levelo_inurba_marseille","lat":43.282754,"lon":5.350519,"is_reserved":false,"is_disabled":false,"rental_uris":{"android":"levelo://app?vid=c54b91ed-ca1b-4df6-8d82-98f47f110d21","ios":"levelo://app?vid=c54b91ed-ca1b-4df6-8d82-98f47f110d21"},"vehicle_type_id":"4","last_reported":1706396852,"current_range_meters":25600,"station_id":"ce4bhbp2rcd13ifvqerg","pricing_plan_id":"free"},{"bike_id":"2690f74c-e629-4e76-a2d1-baa6f9494cb0","system_id":"levelo_inurba_marseille","lat":43.28267,"lon":5.35063,"is_reserved":false,"is_disabled":false,"rental_uris":{"android":"levelo://app?vid=2690f74c-e629-4e76-a2d1-baa6f9494cb0","ios":"levelo://app?vid=2690f74c-e629-4e76-a2d1-baa6f9494cb0"},"vehicle_type_id":"4","last_reported":1706396852,"current_range_meters":28800,"station_id":"ce4bhbp2rcd13ifvqerg","pricing_plan_id":"free"},{"bike_id":"ac634084-a097-420f-9a33-db6c31ff8657","system_id":"levelo_inurba_marseille","lat":43.282744,"lon":5.350533,"is_reserved":false,"is_disabled":false,"rental_uris":{"android":"levelo://app?vid=ac634084-a097-420f-9a33-db6c31ff8657","ios":"levelo://app?vid=ac634084-a097-420f-9a33-db6c31ff8657"},"vehicle_type_id":"4","last_reported":1706396852,"current_range_meters":2000,"station_id":"ce4bhbp2rcd13ifvqerg","pricing_plan_id":"free"},{"bike_id":"c7cad446-f486-46f0-bb50-d2e6b8f68593","system_id":"levelo_inurba_marseille","lat":43.282754,"lon":5.350519,"is_reserved":false,"is_disabled":false,"rental_uris":{"android":"levelo://app?vid=c7cad446-f486-46f0-bb50-d2e6b8f68593","ios":"levelo://app?vid=c7cad446-f486-46f0-bb50-d2e6b8f68593"},"vehicle_type_id":"4","last_reported":1706396852,"current_range_meters":18800,"station_id":"ce4bhbp2rcd13ifvqerg","pricing_plan_id":"free"},{"bike_id":"20327c85-a765-40c3-8e2c-2f88a70bcf31","system_id":"levelo_inurba_marseille","lat":43.28261,"lon":5.35062,"is_reserved":false,"is_disabled":false,"rental_uris":{"android":"levelo://app?vid=20327c85-a765-40c3-8e2c-2f88a70bcf31","ios":"levelo://app?vid=20327c85-a765-40c3-8e2c-2f88a70bcf31"},"vehicle_type_id":"4","last_reported":1706396852,"current_range_meters":10800,"station_id":"ce4bhbp2rcd13ifvqerg","pricing_plan_id":"free"},{"bike_id":"6244c858-3b3c-44c2-ac05-b27d4965fabc","system_id":"levelo_inurba_marseille","lat":43.29041,"lon":5.399634,"is_reserved":false,"is_disabled":false,"rental_uris":{"android":"levelo://app?vid=6244c858-3b3c-44c2-ac05-b27d4965fabc","ios":"levelo://app?vid=6244c858-3b3c-44c2-ac05-b27d4965fabc"},"vehicle_type_id":"4","last_reported":1706396852,"current_range_meters":800,"station_id":"ce4bh392rcd13ifvqdm0","pricing_plan_id":"free"},{"bike_id":"590b8887-7831-4911-a810-4653b143896c","system_id":"levelo_inurba_marseille","lat":43.290412,"lon":5.399633,"is_reserved":false,"is_disabled":false,"rental_uris":{"android":"levelo://app?vid=590b8887-7831-4911-a810-4653b143896c","ios":"levelo://app?vid=590b8887-7831-4911-a810-4653b143896c"},"vehicle_type_id":"4","last_reported":1706396852,"current_range_meters":7600,"station_id":"ce4bh392rcd13ifvqdm0","pricing_plan_id":"free"},{"bike_id":"fff72006-0147-4681-bdbd-0f728318f72a","system_id":"levelo_inurba_marseille","lat":43.28111,"lon":5.37851,"is_reserved":false,"is_disabled":false,"rental_uris":{"android":"levelo://app?vid=fff72006-0147-4681-bdbd-0f728318f72a","ios":"levelo://app?vid=fff72006-0147-4681-bdbd-0f728318f72a"},"vehicle_type_id":"4","last_reported":1706396852,"current_range_meters":2800,"station_id":"ce4bha12rcd13ifvqee0","pricing_plan_id":"free"},{"bike_id":"95e2ab0a-742f-43c5-8d25-5914acc5c082","system_id":"levelo_inurba_marseille","lat":43.281044,"lon":5.378308,"is_reserved":false,"is_disabled":false,"rental_uris":{"android":"levelo://app?vid=95e2ab0a-742f-43c5-8d25-5914acc5c082","ios":"levelo://app?vid=95e2ab0a-742f-43c5-8d25-5914acc5c082"},"vehicle_type_id":"4","last_reported":1706396852,"current_range_meters":19600,"station_id":"ce4bha12rcd13ifvqee0","pricing_plan_id":"free"},{"bike_id":"046406e2-3124-4f65-a46c-e831ec439c33","system_id":"levelo_inurba_marseille","lat":43.326605,"lon":5.409903,"is_reserved":false,"is_disabled":false,"rental_uris":{"android":"levelo://app?vid=046406e2-3124-4f65-a46c-e831ec439c33","ios":"levelo://app?vid=046406e2-3124-4f65-a46c-e831ec439c33"},"vehicle_type_id":"4","last_reported":1706396852,"current_range_meters":30400,"station_id":"ce4bhpp2rcd13ifvqhgg","pricing_plan_id":"free"},{"bike_id":"7b2e6cc4-d84f-4dd1-98b9-fc9f8c3a9992","system_id":"levelo_inurba_marseille","lat":43.282907,"lon":5.39096,"is_reserved":false,"is_disabled":false,"rental_uris":{"android":"levelo://app?vid=7b2e6cc4-d84f-4dd1-98b9-fc9f8c3a9992","ios":"levelo://app?vid=7b2e6cc4-d84f-4dd1-98b9-fc9f8c3a9992"},"vehicle_type_id":"4","last_reported":1706396852,"current_range_meters":0,"station_id":"","pricing_plan_id":"free"},{"bike_id":"9114dfde-63c5-490b-8080-cb1c7a31fe39","system_id":"levelo_inurba_marseille","lat":43.279087,"lon":5.380114,"is_reserved":false,"is_disabled":false,"rental_uris":{"android":"levelo://app?vid=9114dfde-63c5-490b-8080-cb1c7a31fe39","ios":"levelo://app?vid=9114dfde-63c5-490b-8080-cb1c7a31fe39"},"vehicle_type_id":"4","last_reported":1706396852,"current_range_meters":30800,"station_id":"ce4bhf92rcd13ifvqf50","pricing_plan_id":"free"},{"bike_id":"2874f5d1-ac3d-4a91-9847-7428bba7ec21","system_id":"levelo_inurba_marseille","lat":43.279087,"lon":5.380114,"is_reserved":false,"is_disabled":false,"rental_uris":{"android":"levelo://app?vid=2874f5d1-ac3d-4a91-9847-7428bba7ec21","ios":"levelo://app?vid=2874f5d1-ac3d-4a91-9847-7428bba7ec21"},"vehicle_type_id":"4","last_reported":1706396852,"current_range_meters":8400,"station_id":"ce4bhf92rcd13ifvqf50","pricing_plan_id":"free"},{"bike_id":"80e3761a-28ef-4eee-9c74-7cc3fe4ed17a","system_id":"levelo_inurba_marseille","lat":43.279087,"lon":5.380114,"is_reserved":false,"is_disabled":false,"rental_uris":{"android":"levelo://app?vid=80e3761a-28ef-4eee-9c74-7cc3fe4ed17a","ios":"levelo://app?vid=80e3761a-28ef-4eee-9c74-7cc3fe4ed17a"},"vehicle_type_id":"4","last_reported":1706396852,"current_range_meters":17600,"station_id":"ce4bhf92rcd13ifvqf50","pricing_plan_id":"free"},{"bike_id":"3bb97bac-72f4-4034-b5c6-039901b30c29","system_id":"levelo_inurba_marseille","lat":43.287154,"lon":5.399979,"is_reserved":false,"is_disabled":false,"rental_uris":{"android":"levelo://app?vid=3bb97bac-72f4-4034-b5c6-039901b30c29","ios":"levelo://app?vid=3bb97bac-72f4-4034-b5c6-039901b30c29"},"vehicle_type_id":"4","last_reported":1706396852,"current_range_meters":20800,"station_id":"ce4bho92rcd13ifvqh3g","pricing_plan_id":"free"},{"bike_id":"1cd71c56-1839-4159-bd15-1192739c01d9","system_id":"levelo_inurba_marseille","lat":43.28702,"lon":5.39986,"is_reserved":false,"is_disabled":false,"rental_uris":{"android":"levelo://app?vid=1cd71c56-1839-4159-bd15-1192739c01d9","ios":"levelo://app?vid=1cd71c56-1839-4159-bd15-1192739c01d9"},"vehicle_type_id":"4","last_reported":1706396852,"current_range_meters":0,"station_id":"ce4bho92rcd13ifvqh3g","pricing_plan_id":"free"},{"bike_id":"382d2a2b-81ed-4939-a01d-0f07187b699f","system_id":"levelo_inurba_marseille","lat":43.287154,"lon":5.399979,"is_reserved":false,"is_disabled":false,"rental_uris":{"android":"levelo://app?vid=382d2a2b-81ed-4939-a01d-0f07187b699f","ios":"levelo://app?vid=382d2a2b-81ed-4939-a01d-0f07187b699f"},"vehicle_type_id":"4","last_reported":1706396852,"current_range_meters":22800,"station_id":"ce4bho92rcd13ifvqh3g","pricing_plan_id":"free"},{"bike_id":"a11a790b-415e-4ca7-a04c-30522329e588","system_id":"levelo_inurba_marseille","lat":43.287154,"lon":5.399979,"is_reserved":false,"is_disabled":false,"rental_uris":{"android":"levelo://app?vid=a11a790b-415e-4ca7-a04c-30522329e588","ios":"levelo://app?vid=a11a790b-415e-4ca7-a04c-30522329e588"},"vehicle_type_id":"4","last_reported":1706396852,"current_range_meters":22800,"station_id":"ce4bho92rcd13ifvqh3g","pricing_plan_id":"free"},{"bike_id":"ba417818-779f-4ae9-adc2-b27411aff995","system_id":"levelo_inurba_marseille","lat":43.287154,"lon":5.399979,"is_reserved":false,"is_disabled":false,"rental_uris":{"android":"levelo://app?vid=ba417818-779f-4ae9-adc2-b27411aff995","ios":"levelo://app?vid=ba417818-779f-4ae9-adc2-b27411aff995"},"vehicle_type_id":"4","last_reported":1706396852,"current_range_meters":26000,"station_id":"ce4bho92rcd13ifvqh3g","pricing_plan_id":"free"},{"bike_id":"101b552e-c922-4b5f-b13c-975be618c33c","system_id":"levelo_inurba_marseille","lat":43.279742,"lon":5.38744,"is_reserved":false,"is_disabled":false,"rental_uris":{"android":"levelo://app?vid=101b552e-c922-4b5f-b13c-975be618c33c","ios":"levelo://app?vid=101b552e-c922-4b5f-b13c-975be618c33c"},"vehicle_type_id":"4","last_reported":1706396852,"current_range_meters":20800,"station_id":"ce4bhg12rcd13ifvqf80","pricing_plan_id":"free"},{"bike_id":"9a166965-7d09-49fa-aa30-4a8c7b7d6f91","system_id":"levelo_inurba_marseille","lat":43.292571,"lon":5.409107,"is_reserved":false,"is_disabled":false,"rental_uris":{"android":"levelo://app?vid=9a166965-7d09-49fa-aa30-4a8c7b7d6f91","ios":"levelo://app?vid=9a166965-7d09-49fa-aa30-4a8c7b7d6f91"},"vehicle_type_id":"4","last_reported":1706396852,"current_range_meters":8400,"station_id":"ce4bh192rcd13ifvqdc0","pricing_plan_id":"free"},{"bike_id":"1b456cd4-399e-4a68-9799-30eda539205f","system_id":"levelo_inurba_marseille","lat":43.292571,"lon":5.409107,"is_reserved":false,"is_disabled":false,"rental_uris":{"android":"levelo://app?vid=1b456cd4-399e-4a68-9799-30eda539205f","ios":"levelo://app?vid=1b456cd4-399e-4a68-9799-30eda539205f"},"vehicle_type_id":"4","last_reported":1706396852,"current_range_meters":8400,"station_id":"ce4bh192rcd13ifvqdc0","pricing_plan_id":"free"},{"bike_id":"d996d290-e6fd-4548-bb86-aa3c38ac8963","system_id":"levelo_inurba_marseille","lat":43.292571,"lon":5.409107,"is_reserved":false,"is_disabled":false,"rental_uris":{"android":"levelo://app?vid=d996d290-e6fd-4548-bb86-aa3c38ac8963","ios":"levelo://app?vid=d996d290-e6fd-4548-bb86-aa3c38ac8963"},"vehicle_type_id":"4","last_reported":1706396852,"current_range_meters":14400,"station_id":"ce4bh192rcd13ifvqdc0","pricing_plan_id":"free"},{"bike_id":"88d2c9b0-3248-4ccc-a383-1e24083a1f43","system_id":"levelo_inurba_marseille","lat":43.30355,"lon":5.41876,"is_reserved":false,"is_disabled":false,"rental_uris":{"android":"levelo://app?vid=88d2c9b0-3248-4ccc-a383-1e24083a1f43","ios":"levelo://app?vid=88d2c9b0-3248-4ccc-a383-1e24083a1f43"},"vehicle_type_id":"4","last_reported":1706396852,"current_range_meters":3600,"station_id":"ce4bhop2rcd13ifvqh7g","pricing_plan_id":"free"},{"bike_id":"219e447c-b35e-46a8-81b5-85429626dfb5","system_id":"levelo_inurba_marseille","lat":43.27831,"lon":5.39206,"is_reserved":false,"is_disabled":false,"rental_uris":{"android":"levelo://app?vid=219e447c-b35e-46a8-81b5-85429626dfb5","ios":"levelo://app?vid=219e447c-b35e-46a8-81b5-85429626dfb5"},"vehicle_type_id":"4","last_reported":1706396852,"current_range_meters":0,"station_id":"ce4bhjp2rcd13ifvqga0","pricing_plan_id":"free"},{"bike_id":"18953077-e224-4ae4-a8e5-8135c4065720","system_id":"levelo_inurba_marseille","lat":43.273613,"lon":5.362705,"is_reserved":false,"is_disabled":false,"rental_uris":{"android":"levelo://app?vid=18953077-e224-4ae4-a8e5-8135c4065720","ios":"levelo://app?vid=18953077-e224-4ae4-a8e5-8135c4065720"},"vehicle_type_id":"4","last_reported":1706396852,"current_range_meters":0,"station_id":"ce4bhbh2rcd13ifvqeo0","pricing_plan_id":"free"},{"bike_id":"e405ec28-3991-4d6e-be28-ded1ab199d77","system_id":"levelo_inurba_marseille","lat":43.278207,"lon":5.392093,"is_reserved":false,"is_disabled":false,"rental_uris":{"android":"levelo://app?vid=e405ec28-3991-4d6e-be28-ded1ab199d77","ios":"levelo://app?vid=e405ec28-3991-4d6e-be28-ded1ab199d77"},"vehicle_type_id":"4","last_reported":1706396852,"current_range_meters":0,"station_id":"ce4bhjp2rcd13ifvqga0","pricing_plan_id":"free"},{"bike_id":"710a6d3b-7695-45f4-926e-1e8a9793c4ad","system_id":"levelo_inurba_marseille","lat":43.336134,"lon":5.410341,"is_reserved":false,"is_disabled":false,"rental_uris":{"android":"levelo://app?vid=710a6d3b-7695-45f4-926e-1e8a9793c4ad","ios":"levelo://app?vid=710a6d3b-7695-45f4-926e-1e8a9793c4ad"},"vehicle_type_id":"4","last_reported":1706396852,"current_range_meters":16000,"station_id":"ce4bhqh2rcd13ifvqhmg","pricing_plan_id":"free"},{"bike_id":"e5c90429-6479-42a5-8251-79e94794ed0e","system_id":"levelo_inurba_marseille","lat":43.336134,"lon":5.410341,"is_reserved":false,"is_disabled":false,"rental_uris":{"android":"levelo://app?vid=e5c90429-6479-42a5-8251-79e94794ed0e","ios":"levelo://app?vid=e5c90429-6479-42a5-8251-79e94794ed0e"},"vehicle_type_id":"4","last_reported":1706396852,"current_range_meters":0,"station_id":"ce4bhqh2rcd13ifvqhmg","pricing_plan_id":"free"},{"bike_id":"44999208-a454-4a0b-9867-130853f10f43","system_id":"levelo_inurba_marseille","lat":43.336134,"lon":5.410341,"is_reserved":false,"is_disabled":false,"rental_uris":{"android":"levelo://app?vid=44999208-a454-4a0b-9867-130853f10f43","ios":"levelo://app?vid=44999208-a454-4a0b-9867-130853f10f43"},"vehicle_type_id":"4","last_reported":1706396852,"current_range_meters":12800,"station_id":"ce4bhqh2rcd13ifvqhmg","pricing_plan_id":"free"},{"bike_id":"ed20b58d-ea3b-42d2-8388-0bc616a6cd4a","system_id":"levelo_inurba_marseille","lat":43.336134,"lon":5.410341,"is_reserved":false,"is_disabled":false,"rental_uris":{"android":"levelo://app?vid=ed20b58d-ea3b-42d2-8388-0bc616a6cd4a","ios":"levelo://app?vid=ed20b58d-ea3b-42d2-8388-0bc616a6cd4a"},"vehicle_type_id":"4","last_reported":1706396852,"current_range_meters":400,"station_id":"ce4bhqh2rcd13ifvqhmg","pricing_plan_id":"free"},{"bike_id":"0bd470c3-afd0-46ed-b569-4279e2016a2d","system_id":"levelo_inurba_marseille","lat":43.336134,"lon":5.410341,"is_reserved":false,"is_disabled":false,"rental_uris":{"android":"levelo://app?vid=0bd470c3-afd0-46ed-b569-4279e2016a2d","ios":"levelo://app?vid=0bd470c3-afd0-46ed-b569-4279e2016a2d"},"vehicle_type_id":"4","last_reported":1706396852,"current_range_meters":6400,"station_id":"ce4bhqh2rcd13ifvqhmg","pricing_plan_id":"free"},{"bike_id":"9f6f24ea-1749-4e2a-8811-657325fbc10a","system_id":"levelo_inurba_marseille","lat":43.336134,"lon":5.410341,"is_reserved":false,"is_disabled":false,"rental_uris":{"android":"levelo://app?vid=9f6f24ea-1749-4e2a-8811-657325fbc10a","ios":"levelo://app?vid=9f6f24ea-1749-4e2a-8811-657325fbc10a"},"vehicle_type_id":"4","last_reported":1706396852,"current_range_meters":28800,"station_id":"ce4bhqh2rcd13ifvqhmg","pricing_plan_id":"free"},{"bike_id":"78cc0567-5135-4c08-bbf8-b9984e9c17fd","system_id":"levelo_inurba_marseille","lat":43.3361,"lon":5.4103,"is_reserved":false,"is_disabled":false,"rental_uris":{"android":"levelo://app?vid=78cc0567-5135-4c08-bbf8-b9984e9c17fd","ios":"levelo://app?vid=78cc0567-5135-4c08-bbf8-b9984e9c17fd"},"vehicle_type_id":"4","last_reported":1706396852,"current_range_meters":1200,"station_id":"ce4bhqh2rcd13ifvqhmg","pricing_plan_id":"free"},{"bike_id":"959fff51-1b41-4ee2-9da2-86579e5a7590","system_id":"levelo_inurba_marseille","lat":43.336134,"lon":5.410341,"is_reserved":false,"is_disabled":false,"rental_uris":{"android":"levelo://app?vid=959fff51-1b41-4ee2-9da2-86579e5a7590","ios":"levelo://app?vid=959fff51-1b41-4ee2-9da2-86579e5a7590"},"vehicle_type_id":"4","last_reported":1706396852,"current_range_meters":25600,"station_id":"ce4bhqh2rcd13ifvqhmg","pricing_plan_id":"free"},{"bike_id":"8f5a4b00-5747-43af-8fb9-6bf63647eb7f","system_id":"levelo_inurba_marseille","lat":43.336134,"lon":5.410341,"is_reserved":false,"is_disabled":false,"rental_uris":{"android":"levelo://app?vid=8f5a4b00-5747-43af-8fb9-6bf63647eb7f","ios":"levelo://app?vid=8f5a4b00-5747-43af-8fb9-6bf63647eb7f"},"vehicle_type_id":"4","last_reported":1706396852,"current_range_meters":12000,"station_id":"ce4bhqh2rcd13ifvqhmg","pricing_plan_id":"free"},{"bike_id":"7c340cc5-8aa7-449a-bbcf-bbd63e0d35df","system_id":"levelo_inurba_marseille","lat":43.336134,"lon":5.410341,"is_reserved":false,"is_disabled":false,"rental_uris":{"android":"levelo://app?vid=7c340cc5-8aa7-449a-bbcf-bbd63e0d35df","ios":"levelo://app?vid=7c340cc5-8aa7-449a-bbcf-bbd63e0d35df"},"vehicle_type_id":"4","last_reported":1706396852,"current_range_meters":21600,"station_id":"ce4bhqh2rcd13ifvqhmg","pricing_plan_id":"free"},{"bike_id":"662dc768-8d66-452a-9022-759985e18a90","system_id":"levelo_inurba_marseille","lat":43.336134,"lon":5.410341,"is_reserved":false,"is_disabled":false,"rental_uris":{"android":"levelo://app?vid=662dc768-8d66-452a-9022-759985e18a90","ios":"levelo://app?vid=662dc768-8d66-452a-9022-759985e18a90"},"vehicle_type_id":"4","last_reported":1706396852,"current_range_meters":3600,"station_id":"ce4bhqh2rcd13ifvqhmg","pricing_plan_id":"free"},{"bike_id":"6f46a34b-d5d1-4592-8607-98eec5146735","system_id":"levelo_inurba_marseille","lat":43.2837,"lon":5.407095,"is_reserved":false,"is_disabled":false,"rental_uris":{"android":"levelo://app?vid=6f46a34b-d5d1-4592-8607-98eec5146735","ios":"levelo://app?vid=6f46a34b-d5d1-4592-8607-98eec5146735"},"vehicle_type_id":"4","last_reported":1706396852,"current_range_meters":5200,"station_id":"","pricing_plan_id":"free"},{"bike_id":"71d90591-5f7c-490f-af55-6817cf4e60cc","system_id":"levelo_inurba_marseille","lat":43.274884,"lon":5.38971,"is_reserved":false,"is_disabled":false,"rental_uris":{"android":"levelo://app?vid=71d90591-5f7c-490f-af55-6817cf4e60cc","ios":"levelo://app?vid=71d90591-5f7c-490f-af55-6817cf4e60cc"},"vehicle_type_id":"4","last_reported":1706396852,"current_range_meters":0,"station_id":"","pricing_plan_id":"free"},{"bike_id":"1133d432-7ab0-45bd-9080-b8027a14ae5e","system_id":"levelo_inurba_marseille","lat":43.317121,"lon":5.423936,"is_reserved":false,"is_disabled":false,"rental_uris":{"android":"levelo://app?vid=1133d432-7ab0-45bd-9080-b8027a14ae5e","ios":"levelo://app?vid=1133d432-7ab0-45bd-9080-b8027a14ae5e"},"vehicle_type_id":"4","last_reported":1706396852,"current_range_meters":23200,"station_id":"ce4bhp92rcd13ifvqhbg","pricing_plan_id":"free"},{"bike_id":"2f12b2cc-ff75-4df3-bc65-1f65f6db24ec","system_id":"levelo_inurba_marseille","lat":43.317121,"lon":5.423936,"is_reserved":false,"is_disabled":false,"rental_uris":{"android":"levelo://app?vid=2f12b2cc-ff75-4df3-bc65-1f65f6db24ec","ios":"levelo://app?vid=2f12b2cc-ff75-4df3-bc65-1f65f6db24ec"},"vehicle_type_id":"4","last_reported":1706396852,"current_range_meters":4800,"station_id":"ce4bhp92rcd13ifvqhbg","pricing_plan_id":"free"},{"bike_id":"1dc6aee1-185a-4c87-8b91-93bb335cd229","system_id":"levelo_inurba_marseille","lat":43.310785,"lon":5.424305,"is_reserved":false,"is_disabled":false,"rental_uris":{"android":"levelo://app?vid=1dc6aee1-185a-4c87-8b91-93bb335cd229","ios":"levelo://app?vid=1dc6aee1-185a-4c87-8b91-93bb335cd229"},"vehicle_type_id":"4","last_reported":1706396852,"current_range_meters":26000,"station_id":"ce4bhp92rcd13ifvqhag","pricing_plan_id":"free"},{"bike_id":"ee875769-e8b7-4caa-b3b8-2dad519b3fb1","system_id":"levelo_inurba_marseille","lat":43.31088,"lon":5.42429,"is_reserved":false,"is_disabled":false,"rental_uris":{"android":"levelo://app?vid=ee875769-e8b7-4caa-b3b8-2dad519b3fb1","ios":"levelo://app?vid=ee875769-e8b7-4caa-b3b8-2dad519b3fb1"},"vehicle_type_id":"4","last_reported":1706396852,"current_range_meters":17200,"station_id":"ce4bhp92rcd13ifvqhag","pricing_plan_id":"free"},{"bike_id":"76a1444e-7429-4c72-9ae5-313749a04157","system_id":"levelo_inurba_marseille","lat":43.3108,"lon":5.42435,"is_reserved":false,"is_disabled":false,"rental_uris":{"android":"levelo://app?vid=76a1444e-7429-4c72-9ae5-313749a04157","ios":"levelo://app?vid=76a1444e-7429-4c72-9ae5-313749a04157"},"vehicle_type_id":"4","last_reported":1706396852,"current_range_meters":16400,"station_id":"ce4bhp92rcd13ifvqhag","pricing_plan_id":"free"},{"bike_id":"a7f8a6ab-52ad-4377-85b6-101c1eb0b9ed","system_id":"levelo_inurba_marseille","lat":43.340804,"lon":5.410219,"is_reserved":false,"is_disabled":false,"rental_uris":{"android":"levelo://app?vid=a7f8a6ab-52ad-4377-85b6-101c1eb0b9ed","ios":"levelo://app?vid=a7f8a6ab-52ad-4377-85b6-101c1eb0b9ed"},"vehicle_type_id":"4","last_reported":1706396852,"current_range_meters":17200,"station_id":"ce4bhqh2rcd13ifvqhlg","pricing_plan_id":"free"},{"bike_id":"a98e2a5e-bdd6-494e-9351-adac87bae90b","system_id":"levelo_inurba_marseille","lat":43.2765,"lon":5.39764,"is_reserved":false,"is_disabled":false,"rental_uris":{"android":"levelo://app?vid=a98e2a5e-bdd6-494e-9351-adac87bae90b","ios":"levelo://app?vid=a98e2a5e-bdd6-494e-9351-adac87bae90b"},"vehicle_type_id":"4","last_reported":1706396852,"current_range_meters":0,"station_id":"","pricing_plan_id":"free"},{"bike_id":"b05aa716-e993-4c70-99c4-dbe272cbcc26","system_id":"levelo_inurba_marseille","lat":43.27319,"lon":5.39088,"is_reserved":false,"is_disabled":false,"rental_uris":{"android":"levelo://app?vid=b05aa716-e993-4c70-99c4-dbe272cbcc26","ios":"levelo://app?vid=b05aa716-e993-4c70-99c4-dbe272cbcc26"},"vehicle_type_id":"4","last_reported":1706396852,"current_range_meters":0,"station_id":"ce4bhgp2rcd13ifvqfe0","pricing_plan_id":"free"},{"bike_id":"79aba3fd-e7b6-41fe-974b-a11d6cc1ed17","system_id":"levelo_inurba_marseille","lat":43.295201,"lon":5.422596,"is_reserved":false,"is_disabled":false,"rental_uris":{"android":"levelo://app?vid=79aba3fd-e7b6-41fe-974b-a11d6cc1ed17","ios":"levelo://app?vid=79aba3fd-e7b6-41fe-974b-a11d6cc1ed17"},"vehicle_type_id":"4","last_reported":1706396852,"current_range_meters":20400,"station_id":"ce4bhph2rcd13ifvqhdg","pricing_plan_id":"free"},{"bike_id":"9c2bfd98-ce3f-4cbb-88c0-5c879c4a4c89","system_id":"levelo_inurba_marseille","lat":43.295511,"lon":5.422926,"is_reserved":false,"is_disabled":false,"rental_uris":{"android":"levelo://app?vid=9c2bfd98-ce3f-4cbb-88c0-5c879c4a4c89","ios":"levelo://app?vid=9c2bfd98-ce3f-4cbb-88c0-5c879c4a4c89"},"vehicle_type_id":"4","last_reported":1706396852,"current_range_meters":5200,"station_id":"ce4bhph2rcd13ifvqhdg","pricing_plan_id":"free"},{"bike_id":"0f11d406-7590-44e0-bd8d-cb92808bfe07","system_id":"levelo_inurba_marseille","lat":43.279465,"lon":5.410561,"is_reserved":false,"is_disabled":false,"rental_uris":{"android":"levelo://app?vid=0f11d406-7590-44e0-bd8d-cb92808bfe07","ios":"levelo://app?vid=0f11d406-7590-44e0-bd8d-cb92808bfe07"},"vehicle_type_id":"4","last_reported":1706396852,"current_range_meters":13600,"station_id":"ce4bhnp2rcd13ifvqh0g","pricing_plan_id":"free"},{"bike_id":"c6584083-8842-41d0-ae2e-2930473b10e6","system_id":"levelo_inurba_marseille","lat":43.279465,"lon":5.410561,"is_reserved":false,"is_disabled":false,"rental_uris":{"android":"levelo://app?vid=c6584083-8842-41d0-ae2e-2930473b10e6","ios":"levelo://app?vid=c6584083-8842-41d0-ae2e-2930473b10e6"},"vehicle_type_id":"4","last_reported":1706396852,"current_range_meters":0,"station_id":"ce4bhnp2rcd13ifvqh0g","pricing_plan_id":"free"},{"bike_id":"30a27a06-0774-4cb9-9899-b8ab3790ab52","system_id":"levelo_inurba_marseille","lat":43.279465,"lon":5.410561,"is_reserved":false,"is_disabled":false,"rental_uris":{"android":"levelo://app?vid=30a27a06-0774-4cb9-9899-b8ab3790ab52","ios":"levelo://app?vid=30a27a06-0774-4cb9-9899-b8ab3790ab52"},"vehicle_type_id":"4","last_reported":1706396852,"current_range_meters":17200,"station_id":"ce4bhnp2rcd13ifvqh0g","pricing_plan_id":"free"},{"bike_id":"32b64e15-81eb-4ca1-83e9-19d1902cdf45","system_id":"levelo_inurba_marseille","lat":43.279465,"lon":5.410561,"is_reserved":false,"is_disabled":false,"rental_uris":{"android":"levelo://app?vid=32b64e15-81eb-4ca1-83e9-19d1902cdf45","ios":"levelo://app?vid=32b64e15-81eb-4ca1-83e9-19d1902cdf45"},"vehicle_type_id":"4","last_reported":1706396852,"current_range_meters":5200,"station_id":"ce4bhnp2rcd13ifvqh0g","pricing_plan_id":"free"},{"bike_id":"b0782314-3536-4e91-bad0-41ed9d871198","system_id":"levelo_inurba_marseille","lat":43.279465,"lon":5.410561,"is_reserved":false,"is_disabled":false,"rental_uris":{"android":"levelo://app?vid=b0782314-3536-4e91-bad0-41ed9d871198","ios":"levelo://app?vid=b0782314-3536-4e91-bad0-41ed9d871198"},"vehicle_type_id":"4","last_reported":1706396852,"current_range_meters":20800,"station_id":"ce4bhnp2rcd13ifvqh0g","pricing_plan_id":"free"},{"bike_id":"421433fc-0d49-403a-98be-3695bb4eb499","system_id":"levelo_inurba_marseille","lat":43.279465,"lon":5.410561,"is_reserved":false,"is_disabled":false,"rental_uris":{"android":"levelo://app?vid=421433fc-0d49-403a-98be-3695bb4eb499","ios":"levelo://app?vid=421433fc-0d49-403a-98be-3695bb4eb499"},"vehicle_type_id":"4","last_reported":1706396852,"current_range_meters":22800,"station_id":"ce4bhnp2rcd13ifvqh0g","pricing_plan_id":"free"},{"bike_id":"47ede330-8f69-4f14-b8a1-acc9ec76270c","system_id":"levelo_inurba_marseille","lat":43.26931,"lon":5.38928,"is_reserved":false,"is_disabled":false,"rental_uris":{"android":"levelo://app?vid=47ede330-8f69-4f14-b8a1-acc9ec76270c","ios":"levelo://app?vid=47ede330-8f69-4f14-b8a1-acc9ec76270c"},"vehicle_type_id":"4","last_reported":1706396852,"current_range_meters":0,"station_id":"ce4bhhh2rcd13ifvqfl0","pricing_plan_id":"free"},{"bike_id":"e515107f-d284-4a36-a195-f165f6207fc2","system_id":"levelo_inurba_marseille","lat":43.308051,"lon":5.43527,"is_reserved":false,"is_disabled":false,"rental_uris":{"android":"levelo://app?vid=e515107f-d284-4a36-a195-f165f6207fc2","ios":"levelo://app?vid=e515107f-d284-4a36-a195-f165f6207fc2"},"vehicle_type_id":"4","last_reported":1706396852,"current_range_meters":24400,"station_id":"ce4bhph2rcd13ifvqheg","pricing_plan_id":"free"},{"bike_id":"32624d75-812d-4303-bd5a-1af1369fa77a","system_id":"levelo_inurba_marseille","lat":43.308051,"lon":5.43527,"is_reserved":false,"is_disabled":false,"rental_uris":{"android":"levelo://app?vid=32624d75-812d-4303-bd5a-1af1369fa77a","ios":"levelo://app?vid=32624d75-812d-4303-bd5a-1af1369fa77a"},"vehicle_type_id":"4","last_reported":1706396852,"current_range_meters":18800,"station_id":"ce4bhph2rcd13ifvqheg","pricing_plan_id":"free"},{"bike_id":"4b886019-2978-489f-a5d3-e4bf99781d6c","system_id":"levelo_inurba_marseille","lat":43.265569,"lon":5.390047,"is_reserved":false,"is_disabled":false,"rental_uris":{"android":"levelo://app?vid=4b886019-2978-489f-a5d3-e4bf99781d6c","ios":"levelo://app?vid=4b886019-2978-489f-a5d3-e4bf99781d6c"},"vehicle_type_id":"4","last_reported":1706396852,"current_range_meters":0,"station_id":"ce4bhe12rcd13ifvqf30","pricing_plan_id":"free"},{"bike_id":"9bb35fd0-0f7e-4dea-9118-ab663becc53d","system_id":"levelo_inurba_marseille","lat":43.265536,"lon":5.390342,"is_reserved":false,"is_disabled":false,"rental_uris":{"android":"levelo://app?vid=9bb35fd0-0f7e-4dea-9118-ab663becc53d","ios":"levelo://app?vid=9bb35fd0-0f7e-4dea-9118-ab663becc53d"},"vehicle_type_id":"4","last_reported":1706396852,"current_range_meters":10400,"station_id":"ce4bhe12rcd13ifvqf30","pricing_plan_id":"free"},{"bike_id":"e785f392-95cb-45c8-90d3-3180af282616","system_id":"levelo_inurba_marseille","lat":43.26941,"lon":5.40246,"is_reserved":false,"is_disabled":false,"rental_uris":{"android":"levelo://app?vid=e785f392-95cb-45c8-90d3-3180af282616","ios":"levelo://app?vid=e785f392-95cb-45c8-90d3-3180af282616"},"vehicle_type_id":"4","last_reported":1706396852,"current_range_meters":0,"station_id":"cjm6bp8fraef2m0cb0m0","pricing_plan_id":"free"},{"bike_id":"52b546b1-99d3-4926-89f7-c7d4500af751","system_id":"levelo_inurba_marseille","lat":43.26941,"lon":5.40247,"is_reserved":false,"is_disabled":false,"rental_uris":{"android":"levelo://app?vid=52b546b1-99d3-4926-89f7-c7d4500af751","ios":"levelo://app?vid=52b546b1-99d3-4926-89f7-c7d4500af751"},"vehicle_type_id":"4","last_reported":1706396852,"current_range_meters":0,"station_id":"cjm6bp8fraef2m0cb0m0","pricing_plan_id":"free"},{"bike_id":"73db5b08-3358-4c37-ae4c-657492566bd6","system_id":"levelo_inurba_marseille","lat":43.26949,"lon":5.40262,"is_reserved":false,"is_disabled":false,"rental_uris":{"android":"levelo://app?vid=73db5b08-3358-4c37-ae4c-657492566bd6","ios":"levelo://app?vid=73db5b08-3358-4c37-ae4c-657492566bd6"},"vehicle_type_id":"4","last_reported":1706396852,"current_range_meters":23200,"station_id":"cjm6bp8fraef2m0cb0m0","pricing_plan_id":"free"},{"bike_id":"f5a1a060-dcf3-4705-90f5-ba5a460fe4b2","system_id":"levelo_inurba_marseille","lat":43.317104,"lon":5.436818,"is_reserved":false,"is_disabled":false,"rental_uris":{"android":"levelo://app?vid=f5a1a060-dcf3-4705-90f5-ba5a460fe4b2","ios":"levelo://app?vid=f5a1a060-dcf3-4705-90f5-ba5a460fe4b2"},"vehicle_type_id":"4","last_reported":1706396852,"current_range_meters":6400,"station_id":"ce4bhp92rcd13ifvqhcg","pricing_plan_id":"free"},{"bike_id":"9de41215-a039-4826-a048-ee11e641ebbc","system_id":"levelo_inurba_marseille","lat":43.262012,"lon":5.379307,"is_reserved":false,"is_disabled":false,"rental_uris":{"android":"levelo://app?vid=9de41215-a039-4826-a048-ee11e641ebbc","ios":"levelo://app?vid=9de41215-a039-4826-a048-ee11e641ebbc"},"vehicle_type_id":"4","last_reported":1706396852,"current_range_meters":15200,"station_id":"ce4bhjp2rcd13ifvqg90","pricing_plan_id":"free"},{"bike_id":"f0857d27-386a-4f84-ae51-ad57b855729d","system_id":"levelo_inurba_marseille","lat":43.26202,"lon":5.379299,"is_reserved":false,"is_disabled":false,"rental_uris":{"android":"levelo://app?vid=f0857d27-386a-4f84-ae51-ad57b855729d","ios":"levelo://app?vid=f0857d27-386a-4f84-ae51-ad57b855729d"},"vehicle_type_id":"4","last_reported":1706396852,"current_range_meters":22000,"station_id":"ce4bhjp2rcd13ifvqg90","pricing_plan_id":"free"},{"bike_id":"4eafeb52-74c6-4c27-8dbe-3c0f2e44c036","system_id":"levelo_inurba_marseille","lat":43.26202,"lon":5.379299,"is_reserved":false,"is_disabled":false,"rental_uris":{"android":"levelo://app?vid=4eafeb52-74c6-4c27-8dbe-3c0f2e44c036","ios":"levelo://app?vid=4eafeb52-74c6-4c27-8dbe-3c0f2e44c036"},"vehicle_type_id":"4","last_reported":1706396852,"current_range_meters":6800,"station_id":"ce4bhjp2rcd13ifvqg90","pricing_plan_id":"free"},{"bike_id":"693ae20f-0f53-437a-9cd6-f17c70ab41d5","system_id":"levelo_inurba_marseille","lat":43.267959,"lon":5.402687,"is_reserved":false,"is_disabled":false,"rental_uris":{"android":"levelo://app?vid=693ae20f-0f53-437a-9cd6-f17c70ab41d5","ios":"levelo://app?vid=693ae20f-0f53-437a-9cd6-f17c70ab41d5"},"vehicle_type_id":"4","last_reported":1706396852,"current_range_meters":20400,"station_id":"ce501612rcd8frsf0b60","pricing_plan_id":"free"},{"bike_id":"b86a8288-96d0-49b3-8213-15f7b37b1e2c","system_id":"levelo_inurba_marseille","lat":43.298981,"lon":5.436632,"is_reserved":false,"is_disabled":false,"rental_uris":{"android":"levelo://app?vid=b86a8288-96d0-49b3-8213-15f7b37b1e2c","ios":"levelo://app?vid=b86a8288-96d0-49b3-8213-15f7b37b1e2c"},"vehicle_type_id":"4","last_reported":1706396852,"current_range_meters":31200,"station_id":"ce4bhpp2rcd13ifvqhfg","pricing_plan_id":"free"},{"bike_id":"753d6921-1f8f-42a9-a695-776f5a15aa39","system_id":"levelo_inurba_marseille","lat":43.298953,"lon":5.436631,"is_reserved":false,"is_disabled":false,"rental_uris":{"android":"levelo://app?vid=753d6921-1f8f-42a9-a695-776f5a15aa39","ios":"levelo://app?vid=753d6921-1f8f-42a9-a695-776f5a15aa39"},"vehicle_type_id":"4","last_reported":1706396852,"current_range_meters":30000,"station_id":"ce4bhpp2rcd13ifvqhfg","pricing_plan_id":"free"},{"bike_id":"6b61ab2c-ab67-440f-8712-0e7d44411e15","system_id":"levelo_inurba_marseille","lat":43.29898,"lon":5.43667,"is_reserved":false,"is_disabled":false,"rental_uris":{"android":"levelo://app?vid=6b61ab2c-ab67-440f-8712-0e7d44411e15","ios":"levelo://app?vid=6b61ab2c-ab67-440f-8712-0e7d44411e15"},"vehicle_type_id":"4","last_reported":1706396852,"current_range_meters":8400,"station_id":"","pricing_plan_id":"free"},{"bike_id":"bc92b168-9def-4028-9c96-b8922d8d2862","system_id":"levelo_inurba_marseille","lat":43.29901,"lon":5.43669,"is_reserved":false,"is_disabled":false,"rental_uris":{"android":"levelo://app?vid=bc92b168-9def-4028-9c96-b8922d8d2862","ios":"levelo://app?vid=bc92b168-9def-4028-9c96-b8922d8d2862"},"vehicle_type_id":"4","last_reported":1706396852,"current_range_meters":24800,"station_id":"ce4bhpp2rcd13ifvqhfg","pricing_plan_id":"free"},