{"last_updated":1729275117,"ttl":60,"version":"2.2","data":{"bikes":[{"bike_id":"7c215bb1-a727-4569-986d-c8f6cf1e676e","system_id":"levelo_inurba_marseille","lat":43.31711,"lon":5.43712,"is_reserved":false,"is_disabled":false,"rental_uris":{"android":"levelo://app?vid=7c215bb1-a727-4569-986d-c8f6cf1e676e","ios":"levelo://app?vid=7c215bb1-a727-4569-986d-c8f6cf1e676e"},"vehicle_type_id":"4","last_reported":1729275118,"current_range_meters":38800,"station_id":"ce4bhp92rcd13ifvqhcg","pricing_plan_id":"cebpf4jnsgd1na2vs0mg"},{"bike_id":"9415f9f7-8dd5-4c39-b636-672f22cf6422","system_id":"levelo_inurba_marseille","lat":43.32113,"lon":5.36774,"is_reserved":false,"is_disabled":false,"rental_uris":{"android":"levelo://app?vid=9415f9f7-8dd5-4c39-b636-672f22cf6422","ios":"levelo://app?vid=9415f9f7-8dd5-4c39-b636-672f22cf6422"},"vehicle_type_id":"4","last_reported":1729275118,"current_range_meters":38800,"station_id":"ce4bhrh2rcd13ifvqhug","pricing_plan_id":"cebpf4jnsgd1na2vs0mg"},{"bike_id":"0bd29515-40d3-4b3d-a1be-6c5884ab24e6","system_id":"levelo_inurba_marseille","lat":43.32611,"lon":5.37506,"is_reserved":false,"is_disabled":false,"rental_uris":{"android":"levelo://app?vid=0bd29515-40d3-4b3d-a1be-6c5884ab24e6","ios":"levelo://app?vid=0bd29515-40d3-4b3d-a1be-6c5884ab24e6"},"vehicle_type_id":"4","last_reported":1729275118,"current_range_meters":22400,"station_id":"","pricing_plan_id":"cebpf4jnsgd1na2vs0mg"},{"bike_id":"676ec6c4-6b42-43e0-81fe-327782965da5","system_id":"levelo_inurba_marseille","lat":43.33765,"lon":5.37484,"is_reserved":false,"is_disabled":false,"rental_uris":{"android":"levelo://app?vid=676ec6c4-6b42-43e0-81fe-327782965da5","ios":"levelo://app?vid=676ec6c4-6b42-43e0-81fe-327782965da5"},"vehicle_type_id":"4","last_reported":1729275118,"current_range_meters":17200,"station_id":"","pricing_plan_id":"cebpf4jnsgd1na2vs0mg"},{"bike_id":"4719b68b-b9b1-4baf-94a5-f87991327b25","system_id":"levelo_inurba_marseille","lat":43.28938,"lon":5.36392,"is_reserved":false,"is_disabled":false,"rental_uris":{"android":"levelo://app?vid=4719b68b-b9b1-4baf-94a5-f87991327b25","ios":"levelo://app?vid=4719b68b-b9b1-4baf-94a5-f87991327b25"},"vehicle_type_id":"4","last_reported":1729275118,"current_range_meters":39200,"station_id":"ce4bhc92rcd13ifvqetg","pricing_plan_id":"cebpf4jnsgd1na2vs0mg"},{"bike_id":"966f251d-4412-4e77-82b7-c125675614ef","system_id":"levelo_inurba_marseille","lat":43.337444,"lon":5.374475,"is_reserved":false,"is_disabled":false,"rental_uris":{"android":"levelo://app?vid=966f251d-4412-4e77-82b7-c125675614ef","ios":"levelo://app?vid=966f251d-4412-4e77-82b7-c125675614ef"},"vehicle_type_id":"4","last_reported":1729275118,"current_range_meters":6800,"station_id":"","pricing_plan_id":"cebpf4jnsgd1na2vs0mg"},{"bike_id":"53893ee7-7d5e-4c2b-a931-da13ada2e74f","system_id":"levelo_inurba_marseille","lat":43.31714,"lon":5.43706,"is_reserved":false,"is_disabled":false,"rental_uris":{"android":"levelo://app?vid=53893ee7-7d5e-4c2b-a931-da13ada2e74f","ios":"levelo://app?vid=53893ee7-7d5e-4c2b-a931-da13ada2e74f"},"vehicle_type_id":"4","last_reported":1729275118,"current_range_meters":2800,"station_id":"ce4bhp92rcd13ifvqhcg","pricing_plan_id":"cebpf4jnsgd1na2vs0mg"},{"bike_id":"a2b49fb0-0a99-4ff3-8383-b403d3058899","system_id":"levelo_inurba_marseille","lat":43.30802,"lon":5.43536,"is_reserved":false,"is_disabled":false,"rental_uris":{"android":"levelo://app?vid=a2b49fb0-0a99-4ff3-8383-b403d3058899","ios":"levelo://app?vid=a2b49fb0-0a99-4ff3-8383-b403d3058899"},"vehicle_type_id":"4","last_reported":1729275118,"current_range_meters":2800,"station_id":"ce4bhph2rcd13ifvqheg","pricing_plan_id":"cebpf4jnsgd1na2vs0mg"},{"bike_id":"1f037bec-0916-4bbc-adf2-9a35173e7657","system_id":"levelo_inurba_marseille","lat":43.33028,"lon":5.39054,"is_reserved":false,"is_disabled":false,"rental_uris":{"android":"levelo://app?vid=1f037bec-0916-4bbc-adf2-9a35173e7657","ios":"levelo://app?vid=1f037bec-0916-4bbc-adf2-9a35173e7657"},"vehicle_type_id":"4","last_reported":1729275118,"current_range_meters":25600,"station_id":"ce4bhr92rcd13ifvqhrg","pricing_plan_id":"cebpf4jnsgd1na2vs0mg"},{"bike_id":"9e23534c-3873-44a5-b32e-f42e453f7851","system_id":"levelo_inurba_marseille","lat":43.31081,"lon":5.4243,"is_reserved":false,"is_disabled":false,"rental_uris":{"android":"levelo://app?vid=9e23534c-3873-44a5-b32e-f42e453f7851","ios":"levelo://app?vid=9e23534c-3873-44a5-b32e-f42e453f7851"},"vehicle_type_id":"4","last_reported":1729275118,"current_range_meters":14400,"station_id":"ce4bhp92rcd13ifvqhag","pricing_plan_id":"cebpf4jnsgd1na2vs0mg"},{"bike_id":"bdac7045-6822-4f98-8d23-075c35d4893f","system_id":"levelo_inurba_marseille","lat":43.29354,"lon":5.42833,"is_reserved":false,"is_disabled":false,"rental_uris":{"android":"levelo://app?vid=bdac7045-6822-4f98-8d23-075c35d4893f","ios":"levelo://app?vid=bdac7045-6822-4f98-8d23-075c35d4893f"},"vehicle_type_id":"4","last_reported":1729275118,"current_range_meters":8800,"station_id":"","pricing_plan_id":"cebpf4jnsgd1na2vs0mg"},{"bike_id":"e91a1331-d3e2-4c78-812c-d3e2019d277b","system_id":"levelo_inurba_marseille","lat":43.32,"lon":5.3817,"is_reserved":false,"is_disabled":false,"rental_uris":{"android":"levelo://app?vid=e91a1331-d3e2-4c78-812c-d3e2019d277b","ios":"levelo://app?vid=e91a1331-d3e2-4c78-812c-d3e2019d277b"},"vehicle_type_id":"4","last_reported":1729275118,"current_range_meters":22800,"station_id":"ce4bhr12rcd13ifvqhpg","pricing_plan_id":"cebpf4jnsgd1na2vs0mg"},{"bike_id":"89a243e3-05e0-49cb-aa19-b041859adbc2","system_id":"levelo_inurba_marseille","lat":43.28868,"lon":5.35865,"is_reserved":false,"is_disabled":false,"rental_uris":{"android":"levelo://app?vid=89a243e3-05e0-49cb-aa19-b041859adbc2","ios":"levelo://app?vid=89a243e3-05e0-49cb-aa19-b041859adbc2"},"vehicle_type_id":"4","last_reported":1729275118,"current_range_meters":36800,"station_id":"ce4bhb12rcd13ifvqem0","pricing_plan_id":"cebpf4jnsgd1na2vs0mg"},{"bike_id":"3d963b84-a917-48d5-826f-ef7595e94686","system_id":"levelo_inurba_marseille","lat":43.27981,"lon":5.38749,"is_reserved":false,"is_disabled":false,"rental_uris":{"android":"levelo://app?vid=3d963b84-a917-48d5-826f-ef7595e94686","ios":"levelo://app?vid=3d963b84-a917-48d5-826f-ef7595e94686"},"vehicle_type_id":"4","last_reported":1729275118,"current_range_meters":3200,"station_id":"ce4bhg12rcd13ifvqf80","pricing_plan_id":"cebpf4jnsgd1na2vs0mg"},{"bike_id":"eefe4586-166d-446e-b218-432cc63f7646","system_id":"levelo_inurba_marseille","lat":43.29073,"lon":5.37173,"is_reserved":false,"is_disabled":false,"rental_uris":{"android":"levelo://app?vid=eefe4586-166d-446e-b218-432cc63f7646","ios":"levelo://app?vid=eefe4586-166d-446e-b218-432cc63f7646"},"vehicle_type_id":"4","last_reported":1729275118,"current_range_meters":39200,"station_id":"ce4bh5p2rcd13ifvqe4g","pricing_plan_id":"cebpf4jnsgd1na2vs0mg"},{"bike_id":"23378796-dcf6-4be0-b6ce-a55ba9edc13e","system_id":"levelo_inurba_marseille","lat":43.2549,"lon":5.3765,"is_reserved":false,"is_disabled":false,"rental_uris":{"android":"levelo://app?vid=23378796-dcf6-4be0-b6ce-a55ba9edc13e","ios":"levelo://app?vid=23378796-dcf6-4be0-b6ce-a55ba9edc13e"},"vehicle_type_id":"4","last_reported":1729275118,"current_range_meters":36400,"station_id":"ce4bhh12rcd13ifvqff0","pricing_plan_id":"cebpf4jnsgd1na2vs0mg"},{"bike_id":"3e170a50-5e0e-4d6b-908a-630a29148eda","system_id":"levelo_inurba_marseille","lat":43.286141,"lon":5.370606,"is_reserved":false,"is_disabled":false,"rental_uris":{"android":"levelo://app?vid=3e170a50-5e0e-4d6b-908a-630a29148eda","ios":"levelo://app?vid=3e170a50-5e0e-4d6b-908a-630a29148eda"},"vehicle_type_id":"4","last_reported":1729275118,"current_range_meters":11600,"station_id":"ce4bht12rcd13ifvqi60","pricing_plan_id":"cebpf4jnsgd1na2vs0mg"},{"bike_id":"b5584416-84f8-4369-bdc7-8f37b30d057b","system_id":"levelo_inurba_marseille","lat":43.290761,"lon":5.372,"is_reserved":false,"is_disabled":false,"rental_uris":{"android":"levelo://app?vid=b5584416-84f8-4369-bdc7-8f37b30d057b","ios":"levelo://app?vid=b5584416-84f8-4369-bdc7-8f37b30d057b"},"vehicle_type_id":"4","last_reported":1729275118,"current_range_meters":28400,"station_id":"ce4bh5p2rcd13ifvqe4g","pricing_plan_id":"cebpf4jnsgd1na2vs0mg"},{"bike_id":"595344e4-7d1f-4681-ad29-d255c0118c97","system_id":"levelo_inurba_marseille","lat":43.28013,"lon":5.39995,"is_reserved":false,"is_disabled":false,"rental_uris":{"android":"levelo://app?vid=595344e4-7d1f-4681-ad29-d255c0118c97","ios":"levelo://app?vid=595344e4-7d1f-4681-ad29-d255c0118c97"},"vehicle_type_id":"4","last_reported":1729275118,"current_range_meters":26800,"station_id":"ce4bho92rcd13ifvqh4g","pricing_plan_id":"cebpf4jnsgd1na2vs0mg"},{"bike_id":"0c877968-fb93-4f10-8309-bac0858df6ca","system_id":"levelo_inurba_marseille","lat":43.264965,"lon":5.395385,"is_reserved":false,"is_disabled":false,"rental_uris":{"android":"levelo://app?vid=0c877968-fb93-4f10-8309-bac0858df6ca","ios":"levelo://app?vid=0c877968-fb93-4f10-8309-bac0858df6ca"},"vehicle_type_id":"4","last_reported":1729275118,"current_range_meters":8800,"station_id":"ce4bh492rcd13ifvqdvg","pricing_plan_id":"cebpf4jnsgd1na2vs0mg"},{"bike_id":"8cca9f27-44b0-40dc-b30a-ee2b09845aa8","system_id":"levelo_inurba_marseille","lat":43.29895,"lon":5.38154,"is_reserved":false,"is_disabled":false,"rental_uris":{"android":"levelo://app?vid=8cca9f27-44b0-40dc-b30a-ee2b09845aa8","ios":"levelo://app?vid=8cca9f27-44b0-40dc-b30a-ee2b09845aa8"},"vehicle_type_id":"4","last_reported":1729275118,"current_range_meters":38000,"station_id":"ce4bgj12rcd13ifvqbc0","pricing_plan_id":"cebpf4jnsgd1na2vs0mg"},{"bike_id":"84a71244-fc5a-453f-b683-69ed4c14244f","system_id":"levelo_inurba_marseille","lat":43.28007,"lon":5.41655,"is_reserved":false,"is_disabled":false,"rental_uris":{"android":"levelo://app?vid=84a71244-fc5a-453f-b683-69ed4c14244f","ios":"levelo://app?vid=84a71244-fc5a-453f-b683-69ed4c14244f"},"vehicle_type_id":"4","last_reported":1729275118,"current_range_meters":15200,"station_id":"ce4bho12rcd13ifvqh1g","pricing_plan_id":"cebpf4jnsgd1na2vs0mg"},{"bike_id":"2aa30074-a798-4517-9910-408fe840d5c0","system_id":"levelo_inurba_marseille","lat":43.23192,"lon":5.35555,"is_reserved":false,"is_disabled":false,"rental_uris":{"android":"levelo://app?vid=2aa30074-a798-4517-9910-408fe840d5c0","ios":"levelo://app?vid=2aa30074-a798-4517-9910-408fe840d5c0"},"vehicle_type_id":"4","last_reported":1729275118,"current_range_meters":27600,"station_id":"ce4bhu92rcd13ifvqi70","pricing_plan_id":"cebpf4jnsgd1na2vs0mg"},{"bike_id":"6f19fdae-6636-4222-a288-d20929d58874","system_id":"levelo_inurba_marseille","lat":43.27371,"lon":5.36263,"is_reserved":false,"is_disabled":false,"rental_uris":{"android":"levelo://app?vid=6f19fdae-6636-4222-a288-d20929d58874","ios":"levelo://app?vid=6f19fdae-6636-4222-a288-d20929d58874"},"vehicle_type_id":"4","last_reported":1729275118,"current_range_meters":30800,"station_id":"ce4bhbh2rcd13ifvqeo0","pricing_plan_id":"cebpf4jnsgd1na2vs0mg"},{"bike_id":"4f26a845-6de4-4b6c-be9b-96ced565c206","system_id":"levelo_inurba_marseille","lat":43.29901,"lon":5.43667,"is_reserved":false,"is_disabled":false,"rental_uris":{"android":"levelo://app?vid=4f26a845-6de4-4b6c-be9b-96ced565c206","ios":"levelo://app?vid=4f26a845-6de4-4b6c-be9b-96ced565c206"},"vehicle_type_id":"4","last_reported":1729275118,"current_range_meters":8400,"station_id":"ce4bhpp2rcd13ifvqhfg","pricing_plan_id":"cebpf4jnsgd1na2vs0mg"},{"bike_id":"9e59c8e4-7b9b-411e-868d-c384edcb29e8","system_id":"levelo_inurba_marseille","lat":43.29266,"lon":5.40908,"is_reserved":false,"is_disabled":false,"rental_uris":{"android":"levelo://app?vid=9e59c8e4-7b9b-411e-868d-c384edcb29e8","ios":"levelo://app?vid=9e59c8e4-7b9b-411e-868d-c384edcb29e8"},"vehicle_type_id":"4","last_reported":1729275118,"current_range_meters":38000,"station_id":"ce4bh192rcd13ifvqdc0","pricing_plan_id":"cebpf4jnsgd1na2vs0mg"},{"bike_id":"1930e1c0-af47-4eff-a722-6526cb7fb110","system_id":"levelo_inurba_marseille","lat":43.282745,"lon":5.378147,"is_reserved":false,"is_disabled":false,"rental_uris":{"android":"levelo://app?vid=1930e1c0-af47-4eff-a722-6526cb7fb110","ios":"levelo://app?vid=1930e1c0-af47-4eff-a722-6526cb7fb110"},"vehicle_type_id":"4","last_reported":1729275118,"current_range_meters":36800,"station_id":"ce4bhf92rcd13ifvqf50","pricing_plan_id":"cebpf4jnsgd1na2vs0mg"},{"bike_id":"9224c72e-b6cd-4b3b-807f-ae00f24ef2aa","system_id":"levelo_inurba_marseille","lat":43.29502,"lon":5.38742,"is_reserved":false,"is_disabled":false,"rental_uris":{"android":"levelo://app?vid=9224c72e-b6cd-4b3b-807f-ae00f24ef2aa","ios":"levelo://app?vid=9224c72e-b6cd-4b3b-807f-ae00f24ef2aa"},"vehicle_type_id":"4","last_reported":1729275118,"current_range_meters":28800,"station_id":"","pricing_plan_id":"cebpf4jnsgd1na2vs0mg"},{"bike_id":"bc4dfd71-cdf3-45e3-8aa3-c5528379f96a","system_id":"levelo_inurba_marseille","lat":43.27609,"lon":5.36119,"is_reserved":false,"is_disabled":false,"rental_uris":{"android":"levelo://app?vid=bc4dfd71-cdf3-45e3-8aa3-c5528379f96a","ios":"levelo://app?vid=bc4dfd71-cdf3-45e3-8aa3-c5528379f96a"},"vehicle_type_id":"4","last_reported":1729275118,"current_range_meters":24800,"station_id":"ce4bgj92rcd13ifvqbe0","pricing_plan_id":"cebpf4jnsgd1na2vs0mg"},{"bike_id":"c746da30-0175-4c63-8cc4-f4d0284e8127","system_id":"levelo_inurba_marseille","lat":43.23963,"lon":5.36643,"is_reserved":false,"is_disabled":false,"rental_uris":{"android":"levelo://app?vid=c746da30-0175-4c63-8cc4-f4d0284e8127","ios":"levelo://app?vid=c746da30-0175-4c63-8cc4-f4d0284e8127"},"vehicle_type_id":"4","last_reported":1729275118,"current_range_meters":20400,"station_id":"ce4bhi12rcd13ifvqfp0","pricing_plan_id":"cebpf4jnsgd1na2vs0mg"},{"bike_id":"93720a64-6ad0-406d-844d-3c40742c884c","system_id":"levelo_inurba_marseille","lat":43.30787,"lon":5.37646,"is_reserved":false,"is_disabled":false,"rental_uris":{"android":"levelo://app?vid=93720a64-6ad0-406d-844d-3c40742c884c","ios":"levelo://app?vid=93720a64-6ad0-406d-844d-3c40742c884c"},"vehicle_type_id":"4","last_reported":1729275118,"current_range_meters":39200,"station_id":"ce4bgv92rcd13ifvqcq0","pricing_plan_id":"cebpf4jnsgd1na2vs0mg"},{"bike_id":"d92866e7-2197-4237-852c-dbd4ba06590f","system_id":"levelo_inurba_marseille","lat":43.2942,"lon":5.38627,"is_reserved":false,"is_disabled":false,"rental_uris":{"android":"levelo://app?vid=d92866e7-2197-4237-852c-dbd4ba06590f","ios":"levelo://app?vid=d92866e7-2197-4237-852c-dbd4ba06590f"},"vehicle_type_id":"4","last_reported":1729275118,"current_range_meters":35200,"station_id":"ce4bh2h2rcd13ifvqdh0","pricing_plan_id":"cebpf4jnsgd1na2vs0mg"},{"bike_id":"6f034070-ee6f-4e30-853e-ccd43834685f","system_id":"levelo_inurba_marseille","lat":43.27989,"lon":5.41657,"is_reserved":false,"is_disabled":false,"rental_uris":{"android":"levelo://app?vid=6f034070-ee6f-4e30-853e-ccd43834685f","ios":"levelo://app?vid=6f034070-ee6f-4e30-853e-ccd43834685f"},"vehicle_type_id":"4","last_reported":1729275118,"current_range_meters":16000,"station_id":"ce4bho12rcd13ifvqh1g","pricing_plan_id":"cebpf4jnsgd1na2vs0mg"},{"bike_id":"eca218d1-7119-492a-ba62-cb52d239834b","system_id":"levelo_inurba_marseille","lat":43.278144,"lon":5.407256,"is_reserved":false,"is_disabled":false,"rental_uris":{"android":"levelo://app?vid=eca218d1-7119-492a-ba62-cb52d239834b","ios":"levelo://app?vid=eca218d1-7119-492a-ba62-cb52d239834b"},"vehicle_type_id":"4","last_reported":1729275118,"current_range_meters":36800,"station_id":"ce4bhnh2rcd13ifvqgtg","pricing_plan_id":"cebpf4jnsgd1na2vs0mg"},{"bike_id":"fbe7fd35-d970-4695-b1fb-33da508bcad4","system_id":"levelo_inurba_marseille","lat":43.23188,"lon":5.39993,"is_reserved":false,"is_disabled":false,"rental_uris":{"android":"levelo://app?vid=fbe7fd35-d970-4695-b1fb-33da508bcad4","ios":"levelo://app?vid=fbe7fd35-d970-4695-b1fb-33da508bcad4"},"vehicle_type_id":"4","last_reported":1729275118,"current_range_meters":24400,"station_id":"ce4bhn12rcd13ifvqgqg","pricing_plan_id":"cebpf4jnsgd1na2vs0mg"},{"bike_id":"fc6e513b-da81-4d34-a427-493e42edd768","system_id":"levelo_inurba_marseille","lat":43.30342,"lon":5.39187,"is_reserved":false,"is_disabled":false,"rental_uris":{"android":"levelo://app?vid=fc6e513b-da81-4d34-a427-493e42edd768","ios":"levelo://app?vid=fc6e513b-da81-4d34-a427-493e42edd768"},"vehicle_type_id":"4","last_reported":1729275118,"current_range_meters":27600,"station_id":"","pricing_plan_id":"cebpf4jnsgd1na2vs0mg"},{"bike_id":"0092393c-5fa7-4d7e-96ae-1d3cba232a3c","system_id":"levelo_inurba_marseille","lat":43.23174,"lon":5.39984,"is_reserved":false,"is_disabled":false,"rental_uris":{"android":"levelo://app?vid=0092393c-5fa7-4d7e-96ae-1d3cba232a3c","ios":"levelo://app?vid=0092393c-5fa7-4d7e-96ae-1d3cba232a3c"},"vehicle_type_id":"4","last_reported":1729275118,"current_range_meters":38800,"station_id":"ce4bhn12rcd13ifvqgqg","pricing_plan_id":"cebpf4jnsgd1na2vs0mg"},{"bike_id":"38a423be-79a4-457f-8ca0-72b05482e23e","system_id":"levelo_inurba_marseille","lat":43.27813,"lon":5.40715,"is_reserved":false,"is_disabled":false,"rental_uris":{"android":"levelo://app?vid=38a423be-79a4-457f-8ca0-72b05482e23e","ios":"levelo://app?vid=38a423be-79a4-457f-8ca0-72b05482e23e"},"vehicle_type_id":"4","last_reported":1729275118,"current_range_meters":12800,"station_id":"ce4bhnh2rcd13ifvqgtg","pricing_plan_id":"cebpf4jnsgd1na2vs0mg"},{"bike_id":"3cc9ca15-d23c-4891-9216-c134fa816eb8","system_id":"levelo_inurba_marseille","lat":43.24183,"lon":5.39725,"is_reserved":false,"is_disabled":false,"rental_uris":{"android":"levelo://app?vid=3cc9ca15-d23c-4891-9216-c134fa816eb8","ios":"levelo://app?vid=3cc9ca15-d23c-4891-9216-c134fa816eb8"},"vehicle_type_id":"4","last_reported":1729275118,"current_range_meters":27200,"station_id":"ce4bhn12rcd13ifvqgpg","pricing_plan_id":"cebpf4jnsgd1na2vs0mg"},{"bike_id":"299dfc52-ccaa-46a8-85e5-ed1f38c31e59","system_id":"levelo_inurba_marseille","lat":43.2418,"lon":5.39728,"is_reserved":false,"is_disabled":false,"rental_uris":{"android":"levelo://app?vid=299dfc52-ccaa-46a8-85e5-ed1f38c31e59","ios":"levelo://app?vid=299dfc52-ccaa-46a8-85e5-ed1f38c31e59"},"vehicle_type_id":"4","last_reported":1729275118,"current_range_meters":17200,"station_id":"ce4bhn12rcd13ifvqgpg","pricing_plan_id":"cebpf4jnsgd1na2vs0mg"},{"bike_id":"20c03e9b-4828-4d59-b3a2-789d584a8595","system_id":"levelo_inurba_marseille","lat":43.27815,"lon":5.40706,"is_reserved":false,"is_disabled":false,"rental_uris":{"android":"levelo://app?vid=20c03e9b-4828-4d59-b3a2-789d584a8595","ios":"levelo://app?vid=20c03e9b-4828-4d59-b3a2-789d584a8595"},"vehicle_type_id":"4","last_reported":1729275118,"current_range_meters":24000,"station_id":"ce4bhnh2rcd13ifvqgtg","pricing_plan_id":"cebpf4jnsgd1na2vs0mg"},{"bike_id":"5b06aea5-9224-4120-8bb7-dd21e88a0396","system_id":"levelo_inurba_marseille","lat":43.29611,"lon":5.37718,"is_reserved":false,"is_disabled":false,"rental_uris":{"android":"levelo://app?vid=5b06aea5-9224-4120-8bb7-dd21e88a0396","ios":"levelo://app?vid=5b06aea5-9224-4120-8bb7-dd21e88a0396"},"vehicle_type_id":"4","last_reported":1729275118,"current_range_meters":38000,"station_id":"ce4bgi92rcd13ifvqb90","pricing_plan_id":"cebpf4jnsgd1na2vs0mg"},{"bike_id":"3d7546d0-4dba-4212-88c9-dfe9a2032237","system_id":"levelo_inurba_marseille","lat":43.24164,"lon":5.36402,"is_reserved":false,"is_disabled":false,"rental_uris":{"android":"levelo://app?vid=3d7546d0-4dba-4212-88c9-dfe9a2032237","ios":"levelo://app?vid=3d7546d0-4dba-4212-88c9-dfe9a2032237"},"vehicle_type_id":"4","last_reported":1729275118,"current_range_meters":36800,"station_id":"cpo36qri1sfpv3e86is0","pricing_plan_id":"cebpf4jnsgd1na2vs0mg"},{"bike_id":"7a118553-7b1c-45d9-8593-317fbacf336f","system_id":"levelo_inurba_marseille","lat":43.30135,"lon":5.39876,"is_reserved":false,"is_disabled":false,"rental_uris":{"android":"levelo://app?vid=7a118553-7b1c-45d9-8593-317fbacf336f","ios":"levelo://app?vid=7a118553-7b1c-45d9-8593-317fbacf336f"},"vehicle_type_id":"4","last_reported":1729275118,"current_range_meters":33200,"station_id":"ce4bh0h2rcd13ifvqd40","pricing_plan_id":"cebpf4jnsgd1na2vs0mg"},{"bike_id":"90b7df2b-2805-4913-a745-07d80216980c","system_id":"levelo_inurba_marseille","lat":43.30806,"lon":5.4353,"is_reserved":false,"is_disabled":false,"rental_uris":{"android":"levelo://app?vid=90b7df2b-2805-4913-a745-07d80216980c","ios":"levelo://app?vid=90b7df2b-2805-4913-a745-07d80216980c"},"vehicle_type_id":"4","last_reported":1729275118,"current_range_meters":10000,"station_id":"ce4bhph2rcd13ifvqheg","pricing_plan_id":"cebpf4jnsgd1na2vs0mg"},{"bike_id":"32ce68a3-3fc7-4257-974f-ab657619c295","system_id":"levelo_inurba_marseille","lat":43.33738,"lon":5.37453,"is_reserved":false,"is_disabled":false,"rental_uris":{"android":"levelo://app?vid=32ce68a3-3fc7-4257-974f-ab657619c295","ios":"levelo://app?vid=32ce68a3-3fc7-4257-974f-ab657619c295"},"vehicle_type_id":"4","last_reported":1729275118,"current_range_meters":9200,"station_id":"","pricing_plan_id":"cebpf4jnsgd1na2vs0mg"},{"bike_id":"310dc4d8-21a4-4d74-926f-4ffe3f0ed12b","system_id":"levelo_inurba_marseille","lat":43.27377,"lon":5.36275,"is_reserved":false,"is_disabled":false,"rental_uris":{"android":"levelo://app?vid=310dc4d8-21a4-4d74-926f-4ffe3f0ed12b","ios":"levelo://app?vid=310dc4d8-21a4-4d74-926f-4ffe3f0ed12b"},"vehicle_type_id":"4","last_reported":1729275118,"current_range_meters":30800,"station_id":"ce4bhbh2rcd13ifvqeo0","pricing_plan_id":"cebpf4jnsgd1na2vs0mg"},{"bike_id":"04cb7446-ee98-4560-8432-b144922aafe7","system_id":"levelo_inurba_marseille","lat":43.30662,"lon":5.3819,"is_reserved":false,"is_disabled":false,"rental_uris":{"android":"levelo://app?vid=04cb7446-ee98-4560-8432-b144922aafe7","ios":"levelo://app?vid=04cb7446-ee98-4560-8432-b144922aafe7"},"vehicle_type_id":"4","last_reported":1729275118,"current_range_meters":9200,"station_id":"","pricing_plan_id":"cebpf4jnsgd1na2vs0mg"},{"bike_id":"555ff3cf-777b-4ff4-b149-9575fc002950","system_id":"levelo_inurba_marseille","lat":43.24172,"lon":5.39745,"is_reserved":false,"is_disabled":false,"rental_uris":{"android":"levelo://app?vid=555ff3cf-777b-4ff4-b149-9575fc002950","ios":"levelo://app?vid=555ff3cf-777b-4ff4-b149-9575fc002950"},"vehicle_type_id":"4","last_reported":1729275118,"current_range_meters":30800,"station_id":"ce4bhn12rcd13ifvqgpg","pricing_plan_id":"cebpf4jnsgd1na2vs0mg"},{"bike_id":"b64362e2-b043-4f67-8e42-f68524e828ed","system_id":"levelo_inurba_marseille","lat":43.241845,"lon":5.39719,"is_reserved":false,"is_disabled":false,"rental_uris":{"android":"levelo://app?vid=b64362e2-b043-4f67-8e42-f68524e828ed","ios":"levelo://app?vid=b64362e2-b043-4f67-8e42-f68524e828ed"},"vehicle_type_id":"4","last_reported":1729275118,"current_range_meters":24000,"station_id":"ce4bhn12rcd13ifvqgpg","pricing_plan_id":"cebpf4jnsgd1na2vs0mg"},{"bike_id":"fa7bbdc9-afbe-404d-8676-647037cc76a9","system_id":"levelo_inurba_marseille","lat":43.23199,"lon":5.35557,"is_reserved":false,"is_disabled":false,"rental_uris":{"android":"levelo://app?vid=fa7bbdc9-afbe-404d-8676-647037cc76a9","ios":"levelo://app?vid=fa7bbdc9-afbe-404d-8676-647037cc76a9"},"vehicle_type_id":"4","last_reported":1729275118,"current_range_meters":28400,"station_id":"ce4bhu92rcd13ifvqi70","pricing_plan_id":"cebpf4jnsgd1na2vs0mg"},{"bike_id":"73345e4c-688c-445a-9b26-121674cea705","system_id":"levelo_inurba_marseille","lat":43.29074,"lon":5.37157,"is_reserved":false,"is_disabled":false,"rental_uris":{"android":"levelo://app?vid=73345e4c-688c-445a-9b26-121674cea705","ios":"levelo://app?vid=73345e4c-688c-445a-9b26-121674cea705"},"vehicle_type_id":"4","last_reported":1729275118,"current_range_meters":35200,"station_id":"ce4bh5p2rcd13ifvqe4g","pricing_plan_id":"cebpf4jnsgd1na2vs0mg"},{"bike_id":"8c1ec6cb-2291-4814-837b-be8625c706f3","system_id":"levelo_inurba_marseille","lat":43.23201,"lon":5.35553,"is_reserved":false,"is_disabled":false,"rental_uris":{"android":"levelo://app?vid=8c1ec6cb-2291-4814-837b-be8625c706f3","ios":"levelo://app?vid=8c1ec6cb-2291-4814-837b-be8625c706f3"},"vehicle_type_id":"4","last_reported":1729275118,"current_range_meters":31200,"station_id":"ce4bhu92rcd13ifvqi70","pricing_plan_id":"cebpf4jnsgd1na2vs0mg"},{"bike_id":"8429a31c-77f3-41b6-b710-38d8ca6d27dc","system_id":"levelo_inurba_marseille","lat":43.25086,"lon":5.39527,"is_reserved":false,"is_disabled":false,"rental_uris":{"android":"levelo://app?vid=8429a31c-77f3-41b6-b710-38d8ca6d27dc","ios":"levelo://app?vid=8429a31c-77f3-41b6-b710-38d8ca6d27dc"},"vehicle_type_id":"4","last_reported":1729275118,"current_range_meters":20800,"station_id":"ce4bhm12rcd13ifvqgkg","pricing_plan_id":"cebpf4jnsgd1na2vs0mg"},{"bike_id":"237d7f97-c455-4e9c-921e-eac7b8d93fcf","system_id":"levelo_inurba_marseille","lat":43.24809,"lon":5.37461,"is_reserved":false,"is_disabled":false,"rental_uris":{"android":"levelo://app?vid=237d7f97-c455-4e9c-921e-eac7b8d93fcf","ios":"levelo://app?vid=237d7f97-c455-4e9c-921e-eac7b8d93fcf"},"vehicle_type_id":"4","last_reported":1729275118,"current_range_meters":37600,"station_id":"ce4bhgh2rcd13ifvqfb0","pricing_plan_id":"cebpf4jnsgd1na2vs0mg"},{"bike_id":"1124dde1-22d3-4beb-b27c-fa21e8a1d270","system_id":"levelo_inurba_marseille","lat":43.31502,"lon":5.37306,"is_reserved":false,"is_disabled":false,"rental_uris":{"android":"levelo://app?vid=1124dde1-22d3-4beb-b27c-fa21e8a1d270","ios":"levelo://app?vid=1124dde1-22d3-4beb-b27c-fa21e8a1d270"},"vehicle_type_id":"4","last_reported":1729275118,"current_range_meters":39200,"station_id":"ce4bgt12rcd13ifvqcd0","pricing_plan_id":"cebpf4jnsgd1na2vs0mg"},{"bike_id":"174c515d-7b80-4eff-a91b-d331d9bfa6d2","system_id":"levelo_inurba_marseille","lat":43.30433,"lon":5.38888,"is_reserved":false,"is_disabled":false,"rental_uris":{"android":"levelo://app?vid=174c515d-7b80-4eff-a91b-d331d9bfa6d2","ios":"levelo://app?vid=174c515d-7b80-4eff-a91b-d331d9bfa6d2"},"vehicle_type_id":"4","last_reported":1729275118,"current_range_meters":27200,"station_id":"ce4bgk12rcd13ifvqbi0","pricing_plan_id":"cebpf4jnsgd1na2vs0mg"},{"bike_id":"8e9c6055-8067-43c8-b7e5-0ce9b2b9299f","system_id":"levelo_inurba_marseille","lat":43.28074,"lon":5.39661,"is_reserved":false,"is_disabled":false,"rental_uris":{"android":"levelo://app?vid=8e9c6055-8067-43c8-b7e5-0ce9b2b9299f","ios":"levelo://app?vid=8e9c6055-8067-43c8-b7e5-0ce9b2b9299f"},"vehicle_type_id":"4","last_reported":1729275118,"current_range_meters":19200,"station_id":"ce4bho12rcd13ifvqh2g","pricing_plan_id":"cebpf4jnsgd1na2vs0mg"},{"bike_id":"324b2c86-a009-4a0c-8be2-35fefbe2b4d5","system_id":"levelo_inurba_marseille","lat":43.29657,"lon":5.38144,"is_reserved":false,"is_disabled":false,"rental_uris":{"android":"levelo://app?vid=324b2c86-a009-4a0c-8be2-35fefbe2b4d5","ios":"levelo://app?vid=324b2c86-a009-4a0c-8be2-35fefbe2b4d5"},"vehicle_type_id":"4","last_reported":1729275118,"current_range_meters":24400,"station_id":"","pricing_plan_id":"cebpf4jnsgd1na2vs0mg"},{"bike_id":"dd2b4f0c-6344-4a16-bdd5-9a39e0be809c","system_id":"levelo_inurba_marseille","lat":43.27994,"lon":5.4166,"is_reserved":false,"is_disabled":false,"rental_uris":{"android":"levelo://app?vid=dd2b4f0c-6344-4a16-bdd5-9a39e0be809c","ios":"levelo://app?vid=dd2b4f0c-6344-4a16-bdd5-9a39e0be809c"},"vehicle_type_id":"4","last_reported":1729275118,"current_range_meters":37600,"station_id":"ce4bho12rcd13ifvqh1g","pricing_plan_id":"cebpf4jnsgd1na2vs0mg"},{"bike_id":"c28dcc41-e290-4ac5-920f-78c8b4b9a18e","system_id":"levelo_inurba_marseille","lat":43.27614,"lon":5.36121,"is_reserved":false,"is_disabled":false,"rental_uris":{"android":"levelo://app?vid=c28dcc41-e290-4ac5-920f-78c8b4b9a18e","ios":"levelo://app?vid=c28dcc41-e290-4ac5-920f-78c8b4b9a18e"},"vehicle_type_id":"4","last_reported":1729275118,"current_range_meters":36400,"station_id":"ce4bgj92rcd13ifvqbe0","pricing_plan_id":"cebpf4jnsgd1na2vs0mg"},{"bike_id":"18e5b45a-8881-45e9-9987-bb3cec1b623f","system_id":"levelo_inurba_marseille","lat":43.31498,"lon":5.3731,"is_reserved":false,"is_disabled":false,"rental_uris":{"android":"levelo://app?vid=18e5b45a-8881-45e9-9987-bb3cec1b623f","ios":"levelo://app?vid=18e5b45a-8881-45e9-9987-bb3cec1b623f"},"vehicle_type_id":"4","last_reported":1729275118,"current_range_meters":36000,"station_id":"ce4bgt12rcd13ifvqcd0","pricing_plan_id":"cebpf4jnsgd1na2vs0mg"},{"bike_id":"afbdfb60-b454-4b81-b018-ae7f330abdf2","system_id":"levelo_inurba_marseille","lat":43.299,"lon":5.43663,"is_reserved":false,"is_disabled":false,"rental_uris":{"android":"levelo://app?vid=afbdfb60-b454-4b81-b018-ae7f330abdf2","ios":"levelo://app?vid=afbdfb60-b454-4b81-b018-ae7f330abdf2"},"vehicle_type_id":"4","last_reported":1729275118,"current_range_meters":26000,"station_id":"ce4bhpp2rcd13ifvqhfg","pricing_plan_id":"cebpf4jnsgd1na2vs0mg"},{"bike_id":"c4af9644-f5c1-4318-a4bb-7dd74b620d12","system_id":"levelo_inurba_marseille","lat":43.25122,"lon":5.40321,"is_reserved":false,"is_disabled":false,"rental_uris":{"android":"levelo://app?vid=c4af9644-f5c1-4318-a4bb-7dd74b620d12","ios":"levelo://app?vid=c4af9644-f5c1-4318-a4bb-7dd74b620d12"},"vehicle_type_id":"4","last_reported":1729275118,"current_range_meters":14000,"station_id":"ce4bhlh2rcd13ifvqgig","pricing_plan_id":"cebpf4jnsgd1na2vs0mg"},{"bike_id":"c3915a3c-ae92-4a41-9878-cd95870b8e2b","system_id":"levelo_inurba_marseille","lat":43.24808,"lon":5.37465,"is_reserved":false,"is_disabled":false,"rental_uris":{"android":"levelo://app?vid=c3915a3c-ae92-4a41-9878-cd95870b8e2b","ios":"levelo://app?vid=c3915a3c-ae92-4a41-9878-cd95870b8e2b"},"vehicle_type_id":"4","last_reported":1729275118,"current_range_meters":8400,"station_id":"ce4bhgh2rcd13ifvqfb0","pricing_plan_id":"cebpf4jnsgd1na2vs0mg"},{"bike_id":"8b33911e-5d42-46bd-b00d-c1d5ce72f577","system_id":"levelo_inurba_marseille","lat":43.23179,"lon":5.39994,"is_reserved":false,"is_disabled":false,"rental_uris":{"android":"levelo://app?vid=8b33911e-5d42-46bd-b00d-c1d5ce72f577","ios":"levelo://app?vid=8b33911e-5d42-46bd-b00d-c1d5ce72f577"},"vehicle_type_id":"4","last_reported":1729275118,"current_range_meters":40000,"station_id":"ce4bhn12rcd13ifvqgqg","pricing_plan_id":"cebpf4jnsgd1na2vs0mg"},{"bike_id":"e39e970a-697b-4d80-bd45-ac807933cb7d","system_id":"levelo_inurba_marseille","lat":43.29321,"lon":5.38603,"is_reserved":false,"is_disabled":false,"rental_uris":{"android":"levelo://app?vid=e39e970a-697b-4d80-bd45-ac807933cb7d","ios":"levelo://app?vid=e39e970a-697b-4d80-bd45-ac807933cb7d"},"vehicle_type_id":"4","last_reported":1729275118,"current_range_meters":6400,"station_id":"ce4bh392rcd13ifvqdm0","pricing_plan_id":"cebpf4jnsgd1na2vs0mg"},{"bike_id":"a8bebfd9-4735-4de6-a49d-9bdc4ff748d1","system_id":"levelo_inurba_marseille","lat":43.30804,"lon":5.43526,"is_reserved":false,"is_disabled":false,"rental_uris":{"android":"levelo://app?vid=a8bebfd9-4735-4de6-a49d-9bdc4ff748d1","ios":"levelo://app?vid=a8bebfd9-4735-4de6-a49d-9bdc4ff748d1"},"vehicle_type_id":"4","last_reported":1729275118,"current_range_meters":16000,"station_id":"ce4bhph2rcd13ifvqheg","pricing_plan_id":"cebpf4jnsgd1na2vs0mg"},{"bike_id":"0994d7f0-fa2e-480f-b967-2b1e1b476b78","system_id":"levelo_inurba_marseille","lat":43.23186,"lon":5.35561,"is_reserved":false,"is_disabled":false,"rental_uris":{"android":"levelo://app?vid=0994d7f0-fa2e-480f-b967-2b1e1b476b78","ios":"levelo://app?vid=0994d7f0-fa2e-480f-b967-2b1e1b476b78"},"vehicle_type_id":"4","last_reported":1729275118,"current_range_meters":8000,"station_id":"ce4bhu92rcd13ifvqi70","pricing_plan_id":"cebpf4jnsgd1na2vs0mg"},{"bike_id":"66ccc46d-618e-4760-b09c-27382152bdab","system_id":"levelo_inurba_marseille","lat":43.23196,"lon":5.35554,"is_reserved":false,"is_disabled":false,"rental_uris":{"android":"levelo://app?vid=66ccc46d-618e-4760-b09c-27382152bdab","ios":"levelo://app?vid=66ccc46d-618e-4760-b09c-27382152bdab"},"vehicle_type_id":"4","last_reported":1729275118,"current_range_meters":27600,"station_id":"ce4bhu92rcd13ifvqi70","pricing_plan_id":"cebpf4jnsgd1na2vs0mg"},{"bike_id":"9fb4d281-8d1c-48b7-89ba-e5d13d3b1b47","system_id":"levelo_inurba_marseille","lat":43.25722,"lon":5.41102,"is_reserved":false,"is_disabled":false,"rental_uris":{"android":"levelo://app?vid=9fb4d281-8d1c-48b7-89ba-e5d13d3b1b47","ios":"levelo://app?vid=9fb4d281-8d1c-48b7-89ba-e5d13d3b1b47"},"vehicle_type_id":"4","last_reported":1729275118,"current_range_meters":36400,"station_id":"ce4bhkp2rcd13ifvqgd0","pricing_plan_id":"cebpf4jnsgd1na2vs0mg"},{"bike_id":"419a9d7d-2a1b-40b7-a37f-e4605d93d1f7","system_id":"levelo_inurba_marseille","lat":43.23186,"lon":5.39995,"is_reserved":false,"is_disabled":false,"rental_uris":{"android":"levelo://app?vid=419a9d7d-2a1b-40b7-a37f-e4605d93d1f7","ios":"levelo://app?vid=419a9d7d-2a1b-40b7-a37f-e4605d93d1f7"},"vehicle_type_id":"4","last_reported":1729275118,"current_range_meters":39200,"station_id":"ce4bhn12rcd13ifvqgqg","pricing_plan_id":"cebpf4jnsgd1na2vs0mg"},{"bike_id":"e9e06989-753d-4795-b8db-5902cb11facd","system_id":"levelo_inurba_marseille","lat":43.29163,"lon":5.37146,"is_reserved":false,"is_disabled":false,"rental_uris":{"android":"levelo://app?vid=e9e06989-753d-4795-b8db-5902cb11facd","ios":"levelo://app?vid=e9e06989-753d-4795-b8db-5902cb11facd"},"vehicle_type_id":"4","last_reported":1729275118,"current_range_meters":2800,"station_id":"ce4bha92rcd13ifvqeh0","pricing_plan_id":"cebpf4jnsgd1na2vs0mg"},{"bike_id":"fc262b45-2b88-4d3d-8020-e7c946d1fec3","system_id":"levelo_inurba_marseille","lat":43.32111,"lon":5.36778,"is_reserved":false,"is_disabled":false,"rental_uris":{"android":"levelo://app?vid=fc262b45-2b88-4d3d-8020-e7c946d1fec3","ios":"levelo://app?vid=fc262b45-2b88-4d3d-8020-e7c946d1fec3"},"vehicle_type_id":"4","last_reported":1729275118,"current_range_meters":37600,"station_id":"ce4bhrh2rcd13ifvqhug","pricing_plan_id":"cebpf4jnsgd1na2vs0mg"},{"bike_id":"89bd8dd0-1c72-4323-8f55-ceaca615486f","system_id":"levelo_inurba_marseille","lat":43.23961,"lon":5.36637,"is_reserved":false,"is_disabled":false,"rental_uris":{"android":"levelo://app?vid=89bd8dd0-1c72-4323-8f55-ceaca615486f","ios":"levelo://app?vid=89bd8dd0-1c72-4323-8f55-ceaca615486f"},"vehicle_type_id":"4","last_reported":1729275118,"current_range_meters":26000,"station_id":"ce4bhi12rcd13ifvqfp0","pricing_plan_id":"cebpf4jnsgd1na2vs0mg"},{"bike_id":"e008ffd6-dc0e-4f09-9225-11ac9eb48496","system_id":"levelo_inurba_marseille","lat":43.31711,"lon":5.37754,"is_reserved":false,"is_disabled":false,"rental_uris":{"android":"levelo://app?vid=e008ffd6-dc0e-4f09-9225-11ac9eb48496","ios":"levelo://app?vid=e008ffd6-dc0e-4f09-9225-11ac9eb48496"},"vehicle_type_id":"4","last_reported":1729275118,"current_range_meters":6400,"station_id":"ce4bgth2rcd13ifvqch0","pricing_plan_id":"cebpf4jnsgd1na2vs0mg"},{"bike_id":"907d90e2-7e08-4846-bbc2-01977b54a9bd","system_id":"levelo_inurba_marseille","lat":43.24163,"lon":5.36403,"is_reserved":false,"is_disabled":false,"rental_uris":{"android":"levelo://app?vid=907d90e2-7e08-4846-bbc2-01977b54a9bd","ios":"levelo://app?vid=907d90e2-7e08-4846-bbc2-01977b54a9bd"},"vehicle_type_id":"4","last_reported":1729275118,"current_range_meters":16400,"station_id":"cpo36qri1sfpv3e86is0","pricing_plan_id":"cebpf4jnsgd1na2vs0mg"},{"bike_id":"88c65736-0136-431a-8398-8bb0a53bb0a1","system_id":"levelo_inurba_marseille","lat":43.27906,"lon":5.38014,"is_reserved":false,"is_disabled":false,"rental_uris":{"android":"levelo://app?vid=88c65736-0136-431a-8398-8bb0a53bb0a1","ios":"levelo://app?vid=88c65736-0136-431a-8398-8bb0a53bb0a1"},"vehicle_type_id":"4","last_reported":1729275118,"current_range_meters":32000,"station_id":"ce4bhf92rcd13ifvqf50","pricing_plan_id":"cebpf4jnsgd1na2vs0mg"},{"bike_id":"e80c2480-efdf-4085-a85b-9bee1818bb33","system_id":"levelo_inurba_marseille","lat":43.29578,"lon":5.37521,"is_reserved":false,"is_disabled":false,"rental_uris":{"android":"levelo://app?vid=e80c2480-efdf-4085-a85b-9bee1818bb33","ios":"levelo://app?vid=e80c2480-efdf-4085-a85b-9bee1818bb33"},"vehicle_type_id":"4","last_reported":1729275118,"current_range_meters":38000,"station_id":"ce4bgh92rcd13ifvqb50","pricing_plan_id":"cebpf4jnsgd1na2vs0mg"},{"bike_id":"5b8c5926-c10a-4187-86d4-099802991aa9","system_id":"levelo_inurba_marseille","lat":43.29201,"lon":5.39326,"is_reserved":false,"is_disabled":false,"rental_uris":{"android":"levelo://app?vid=5b8c5926-c10a-4187-86d4-099802991aa9","ios":"levelo://app?vid=5b8c5926-c10a-4187-86d4-099802991aa9"},"vehicle_type_id":"4","last_reported":1729275118,"current_range_meters":16800,"station_id":"ce4bh192rcd13ifvqdd0","pricing_plan_id":"cebpf4jnsgd1na2vs0mg"},{"bike_id":"94dad7f8-6585-4b37-b691-74420d23ef13","system_id":"levelo_inurba_marseille","lat":43.30804,"lon":5.43528,"is_reserved":false,"is_disabled":false,"rental_uris":{"android":"levelo://app?vid=94dad7f8-6585-4b37-b691-74420d23ef13","ios":"levelo://app?vid=94dad7f8-6585-4b37-b691-74420d23ef13"},"vehicle_type_id":"4","last_reported":1729275118,"current_range_meters":35600,"station_id":"ce4bhph2rcd13ifvqheg","pricing_plan_id":"cebpf4jnsgd1na2vs0mg"},{"bike_id":"4562e9bb-7c1e-4e0e-95e1-858d0f8d86d1","system_id":"levelo_inurba_marseille","lat":43.2319,"lon":5.35563,"is_reserved":false,"is_disabled":false,"rental_uris":{"android":"levelo://app?vid=4562e9bb-7c1e-4e0e-95e1-858d0f8d86d1","ios":"levelo://app?vid=4562e9bb-7c1e-4e0e-95e1-858d0f8d86d1"},"vehicle_type_id":"4","last_reported":1729275118,"current_range_meters":32000,"station_id":"ce4bhu92rcd13ifvqi70","pricing_plan_id":"cebpf4jnsgd1na2vs0mg"},{"bike_id":"dc5c03cf-c78f-4e3b-be01-75e9276be491","system_id":"levelo_inurba_marseille","lat":43.29274,"lon":5.36849,"is_reserved":false,"is_disabled":false,"rental_uris":{"android":"levelo://app?vid=dc5c03cf-c78f-4e3b-be01-75e9276be491","ios":"levelo://app?vid=dc5c03cf-c78f-4e3b-be01-75e9276be491"},"vehicle_type_id":"4","last_reported":1729275118,"current_range_meters":38800,"station_id":"ce4bhbp2rcd13ifvqesg","pricing_plan_id":"cebpf4jnsgd1na2vs0mg"},{"bike_id":"6837ac97-30a8-4145-8047-b6d6df61ac48","system_id":"levelo_inurba_marseille","lat":43.23185,"lon":5.39993,"is_reserved":false,"is_disabled":false,"rental_uris":{"android":"levelo://app?vid=6837ac97-30a8-4145-8047-b6d6df61ac48","ios":"levelo://app?vid=6837ac97-30a8-4145-8047-b6d6df61ac48"},"vehicle_type_id":"4","last_reported":1729275118,"current_range_meters":38800,"station_id":"ce4bhn12rcd13ifvqgqg","pricing_plan_id":"cebpf4jnsgd1na2vs0mg"},{"bike_id":"2140b6a3-5118-4150-823e-9225aeb56201","system_id":"levelo_inurba_marseille","lat":43.23193,"lon":5.35552,"is_reserved":false,"is_disabled":false,"rental_uris":{"android":"levelo://app?vid=2140b6a3-5118-4150-823e-9225aeb56201","ios":"levelo://app?vid=2140b6a3-5118-4150-823e-9225aeb56201"},"vehicle_type_id":"4","last_reported":1729275118,"current_range_meters":30800,"station_id":"ce4bhu92rcd13ifvqi70","pricing_plan_id":"cebpf4jnsgd1na2vs0mg"},{"bike_id":"c39f6517-4c78-47b8-ad26-803d664ab942","system_id":"levelo_inurba_marseille","lat":43.23179,"lon":5.39997,"is_reserved":false,"is_disabled":false,"rental_uris":{"android":"levelo://app?vid=c39f6517-4c78-47b8-ad26-803d664ab942","ios":"levelo://app?vid=c39f6517-4c78-47b8-ad26-803d664ab942"},"vehicle_type_id":"4","last_reported":1729275118,"current_range_meters":28400,"station_id":"ce4bhn12rcd13ifvqgqg","pricing_plan_id":"cebpf4jnsgd1na2vs0mg"},{"bike_id":"6bc78f6e-25cd-4fbd-ae40-739e6e0a67f3","system_id":"levelo_inurba_marseille","lat":43.28076,"lon":5.39664,"is_reserved":false,"is_disabled":false,"rental_uris":{"android":"levelo://app?vid=6bc78f6e-25cd-4fbd-ae40-739e6e0a67f3","ios":"levelo://app?vid=6bc78f6e-25cd-4fbd-ae40-739e6e0a67f3"},"vehicle_type_id":"4","last_reported":1729275118,"current_range_meters":25200,"station_id":"ce4bho12rcd13ifvqh2g","pricing_plan_id":"cebpf4jnsgd1na2vs0mg"},{"bike_id":"ad94fc49-555e-4104-b898-e00f556992d9","system_id":"levelo_inurba_marseille","lat":43.29295,"lon":5.37458,"is_reserved":false,"is_disabled":false,"rental_uris":{"android":"levelo://app?vid=ad94fc49-555e-4104-b898-e00f556992d9","ios":"levelo://app?vid=ad94fc49-555e-4104-b898-e00f556992d9"},"vehicle_type_id":"4","last_reported":1729275118,"current_range_meters":38800,"station_id":"ce4bgi12rcd13ifvqb70","pricing_plan_id":"cebpf4jnsgd1na2vs0mg"},{"bike_id":"5fcafa2e-9de4-4b9a-bba5-451af068b69e","system_id":"levelo_inurba_marseille","lat":43.27994,"lon":5.41662,"is_reserved":false,"is_disabled":false,"rental_uris":{"android":"levelo://app?vid=5fcafa2e-9de4-4b9a-bba5-451af068b69e","ios":"levelo://app?vid=5fcafa2e-9de4-4b9a-bba5-451af068b69e"},"vehicle_type_id":"4","last_reported":1729275118,"current_range_meters":30800,"station_id":"ce4bho12rcd13ifvqh1g","pricing_plan_id":"cebpf4jnsgd1na2vs0mg"},{"bike_id":"ecbc571f-a773-440e-80c8-7fb9bb8e6e0d","system_id":"levelo_inurba_marseille","lat":43.26923,"lon":5.38911,"is_reserved":false,"is_disabled":false,"rental_uris":{"android":"levelo://app?vid=ecbc571f-a773-440e-80c8-7fb9bb8e6e0d","ios":"levelo://app?vid=ecbc571f-a773-440e-80c8-7fb9bb8e6e0d"},"vehicle_type_id":"4","last_reported":1729275118,"current_range_meters":38800,"station_id":"ce4bhhh2rcd13ifvqfl0","pricing_plan_id":"cebpf4jnsgd1na2vs0mg"},{"bike_id":"2eb32400-10e1-47fc-b398-774a1ef1ea2a","system_id":"levelo_inurba_marseille","lat":43.29923,"lon":5.37486,"is_reserved":false,"is_disabled":false,"rental_uris":{"android":"levelo://app?vid=2eb32400-10e1-47fc-b398-774a1ef1ea2a","ios":"levelo://app?vid=2eb32400-10e1-47fc-b398-774a1ef1ea2a"},"vehicle_type_id":"4","last_reported":1729275118,"current_range_meters":14400,"station_id":"ce4bgjh2rcd13ifvqbg0","pricing_plan_id":"cebpf4jnsgd1na2vs0mg"},{"bike_id":"4f2b09bc-fde9-477e-8718-61efd3365850","system_id":"levelo_inurba_marseille","lat":43.29612,"lon":5.37722,"is_reserved":false,"is_disabled":false,"rental_uris":{"android":"levelo://app?vid=4f2b09bc-fde9-477e-8718-61efd3365850","ios":"levelo://app?vid=4f2b09bc-fde9-477e-8718-61efd3365850"},"vehicle_type_id":"4","last_reported":1729275118,"current_range_meters":8400,"station_id":"ce4bgi92rcd13ifvqb90","pricing_plan_id":"cebpf4jnsgd1na2vs0mg"},{"bike_id":"fb95d13e-c0ff-4708-8b9f-728c4e91a409","system_id":"levelo_inurba_marseille","lat":43.29031,"lon":5.38656,"is_reserved":false,"is_disabled":false,"rental_uris":{"android":"levelo://app?vid=fb95d13e-c0ff-4708-8b9f-728c4e91a409","ios":"levelo://app?vid=fb95d13e-c0ff-4708-8b9f-728c4e91a409"},"vehicle_type_id":"4","last_reported":1729275118,"current_range_meters":19200,"station_id":"ce4bh4p2rcd13ifvqe0g","pricing_plan_id":"cebpf4jnsgd1na2vs0mg"},{"bike_id":"1278308c-7f59-416f-9e39-02d8d7fd31a9","system_id":"levelo_inurba_marseille","lat":43.3303,"lon":5.39053,"is_reserved":false,"is_disabled":false,"rental_uris":{"android":"levelo://app?vid=1278308c-7f59-416f-9e39-02d8d7fd31a9","ios":"levelo://app?vid=1278308c-7f59-416f-9e39-02d8d7fd31a9"},"vehicle_type_id":"4","last_reported":1729275118,"current_range_meters":12800,"station_id":"ce4bhr92rcd13ifvqhrg","pricing_plan_id":"cebpf4jnsgd1na2vs0mg"},{"bike_id":"7772d39f-5e28-445c-af91-069b0cf63793","system_id":"levelo_inurba_marseille","lat":43.33765,"lon":5.37438,"is_reserved":false,"is_disabled":false,"rental_uris":{"android":"levelo://app?vid=7772d39f-5e28-445c-af91-069b0cf63793","ios":"levelo://app?vid=7772d39f-5e28-445c-af91-069b0cf63793"},"vehicle_type_id":"4","last_reported":1729275118,"current_range_meters":12400,"station_id":"","pricing_plan_id":"cebpf4jnsgd1na2vs0mg"},{"bike_id":"e0ab6bb6-c6b9-4385-b41c-27bea5d9c0cb","system_id":"levelo_inurba_marseille","lat":43.33041,"lon":5.39034,"is_reserved":false,"is_disabled":false,"rental_uris":{"android":"levelo://app?vid=e0ab6bb6-c6b9-4385-b41c-27bea5d9c0cb","ios":"levelo://app?vid=e0ab6bb6-c6b9-4385-b41c-27bea5d9c0cb"},"vehicle_type_id":"4","last_reported":1729275118,"current_range_meters":21600,"station_id":"ce4bhr92rcd13ifvqhrg","pricing_plan_id":"cebpf4jnsgd1na2vs0mg"},{"bike_id":"058ec527-60b8-4877-8817-19590c3cd4f5","system_id":"levelo_inurba_marseille","lat":43.32293,"lon":5.38274,"is_reserved":false,"is_disabled":false,"rental_uris":{"android":"levelo://app?vid=058ec527-60b8-4877-8817-19590c3cd4f5","ios":"levelo://app?vid=058ec527-60b8-4877-8817-19590c3cd4f5"},"vehicle_type_id":"4","last_reported":1729275118,"current_range_meters":40000,"station_id":"ce4bhr12rcd13ifvqhqg","pricing_plan_id":"cebpf4jnsgd1na2vs0mg"},{"bike_id":"3213665e-989c-4d22-9f5a-31c8522597dd","system_id":"levelo_inurba_marseille","lat":43.296,"lon":5.36142,"is_reserved":false,"is_disabled":false,"rental_uris":{"android":"levelo://app?vid=3213665e-989c-4d22-9f5a-31c8522597dd","ios":"levelo://app?vid=3213665e-989c-4d22-9f5a-31c8522597dd"},"vehicle_type_id":"4","last_reported":1729275118,"current_range_meters":22800,"station_id":"","pricing_plan_id":"cebpf4jnsgd1na2vs0mg"},{"bike_id":"cddb2538-acdb-46a5-bc95-6e0a8d74ef0c","system_id":"levelo_inurba_marseille","lat":43.30802,"lon":5.43537,"is_reserved":false,"is_disabled":false,"rental_uris":{"android":"levelo://app?vid=cddb2538-acdb-46a5-bc95-6e0a8d74ef0c","ios":"levelo://app?vid=cddb2538-acdb-46a5-bc95-6e0a8d74ef0c"},"vehicle_type_id":"4","last_reported":1729275118,"current_range_meters":30400,"station_id":"ce4bhph2rcd13ifvqheg","pricing_plan_id":"cebpf4jnsgd1na2vs0mg"},{"bike_id":"ad331c19-fcbc-4810-830a-2f0c1922e45f","system_id":"levelo_inurba_marseille","lat":43.286937,"lon":5.387278,"is_reserved":false,"is_disabled":false,"rental_uris":{"android":"levelo://app?vid=ad331c19-fcbc-4810-830a-2f0c1922e45f","ios":"levelo://app?vid=ad331c19-fcbc-4810-830a-2f0c1922e45f"},"vehicle_type_id":"4","last_reported":1729275118,"current_range_meters":3200,"station_id":"ce4bh612rcd13ifvqe6g","pricing_plan_id":"cebpf4jnsgd1na2vs0mg"},{"bike_id":"01a82a9c-ef7b-4b98-be58-98b6aafc78a0","system_id":"levelo_inurba_marseille","lat":43.24554,"lon":5.39525,"is_reserved":false,"is_disabled":false,"rental_uris":{"android":"levelo://app?vid=01a82a9c-ef7b-4b98-be58-98b6aafc78a0","ios":"levelo://app?vid=01a82a9c-ef7b-4b98-be58-98b6aafc78a0"},"vehicle_type_id":"4","last_reported":1729275118,"current_range_meters":20800,"station_id":"ce4bhlp2rcd13ifvqgjg","pricing_plan_id":"cebpf4jnsgd1na2vs0mg"},{"bike_id":"56b4d726-c731-4f83-9bdc-410095cf0b75","system_id":"levelo_inurba_marseille","lat":43.23175,"lon":5.3999,"is_reserved":false,"is_disabled":false,"rental_uris":{"android":"levelo://app?vid=56b4d726-c731-4f83-9bdc-410095cf0b75","ios":"levelo://app?vid=56b4d726-c731-4f83-9bdc-410095cf0b75"},"vehicle_type_id":"4","last_reported":1729275118,"current_range_meters":9600,"station_id":"ce4bhn12rcd13ifvqgqg","pricing_plan_id":"cebpf4jnsgd1na2vs0mg"},{"bike_id":"1641b826-604a-4181-8231-dca386f637a6","system_id":"levelo_inurba_marseille","lat":43.23194,"lon":5.35553,"is_reserved":false,"is_disabled":false,"rental_uris":{"android":"levelo://app?vid=1641b826-604a-4181-8231-dca386f637a6","ios":"levelo://app?vid=1641b826-604a-4181-8231-dca386f637a6"},"vehicle_type_id":"4","last_reported":1729275118,"current_range_meters":28400,"station_id":"ce4bhu92rcd13ifvqi70","pricing_plan_id":"cebpf4jnsgd1na2vs0mg"},{"bike_id":"89211ee2-076f-4df3-92bd-cd8885f2e76d","system_id":"levelo_inurba_marseille","lat":43.23194,"lon":5.35556,"is_reserved":false,"is_disabled":false,"rental_uris":{"android":"levelo://app?vid=89211ee2-076f-4df3-92bd-cd8885f2e76d","ios":"levelo://app?vid=89211ee2-076f-4df3-92bd-cd8885f2e76d"},"vehicle_type_id":"4","last_reported":1729275118,"current_range_meters":27600,"station_id":"ce4bhu92rcd13ifvqi70","pricing_plan_id":"cebpf4jnsgd1na2vs0mg"},{"bike_id":"48f2469d-4594-4ecb-a7ea-698cf7713650","system_id":"levelo_inurba_marseille","lat":43.3303,"lon":5.39041,"is_reserved":false,"is_disabled":false,"rental_uris":{"android":"levelo://app?vid=48f2469d-4594-4ecb-a7ea-698cf7713650","ios":"levelo://app?vid=48f2469d-4594-4ecb-a7ea-698cf7713650"},"vehicle_type_id":"4","last_reported":1729275118,"current_range_meters":28000,"station_id":"ce4bhr92rcd13ifvqhrg","pricing_plan_id":"cebpf4jnsgd1na2vs0mg"},{"bike_id":"46144ea2-712b-406e-9142-3e6a7aa4c8fc","system_id":"levelo_inurba_marseille","lat":43.31219,"lon":5.36843,"is_reserved":false,"is_disabled":false,"rental_uris":{"android":"levelo://app?vid=46144ea2-712b-406e-9142-3e6a7aa4c8fc","ios":"levelo://app?vid=46144ea2-712b-406e-9142-3e6a7aa4c8fc"},"vehicle_type_id":"4","last_reported":1729275118,"current_range_meters":17200,"station_id":"ce4bgl92rcd13ifvqbq0","pricing_plan_id":"cebpf4jnsgd1na2vs0mg"},{"bike_id":"5d252330-4462-4d74-981d-917b3bc83e24","system_id":"levelo_inurba_marseille","lat":43.28408,"lon":5.37522,"is_reserved":false,"is_disabled":false,"rental_uris":{"android":"levelo://app?vid=5d252330-4462-4d74-981d-917b3bc83e24","ios":"levelo://app?vid=5d252330-4462-4d74-981d-917b3bc83e24"},"vehicle_type_id":"4","last_reported":1729275118,"current_range_meters":17200,"station_id":"ce4bh412rcd13ifvqds0","pricing_plan_id":"cebpf4jnsgd1na2vs0mg"},{"bike_id":"6e348a97-d7ba-42c6-8661-a1a667010637","system_id":"levelo_inurba_marseille","lat":43.30433,"lon":5.38881,"is_reserved":false,"is_disabled":false,"rental_uris":{"android":"levelo://app?vid=6e348a97-d7ba-42c6-8661-a1a667010637","ios":"levelo://app?vid=6e348a97-d7ba-42c6-8661-a1a667010637"},"vehicle_type_id":"4","last_reported":1729275118,"current_range_meters":20000,"station_id":"ce4bgk12rcd13ifvqbi0","pricing_plan_id":"cebpf4jnsgd1na2vs0mg"},{"bike_id":"87440bd7-4730-412f-b52f-03b263c3d6ba","system_id":"levelo_inurba_marseille","lat":43.23191,"lon":5.35557,"is_reserved":false,"is_disabled":false,"rental_uris":{"android":"levelo://app?vid=87440bd7-4730-412f-b52f-03b263c3d6ba","ios":"levelo://app?vid=87440bd7-4730-412f-b52f-03b263c3d6ba"},"vehicle_type_id":"4","last_reported":1729275118,"current_range_meters":11200,"station_id":"ce4bhu92rcd13ifvqi70","pricing_plan_id":"cebpf4jnsgd1na2vs0mg"},{"bike_id":"166ff55e-0b6e-42f9-b963-16e0635d6760","system_id":"levelo_inurba_marseille","lat":43.29601,"lon":5.38115,"is_reserved":false,"is_disabled":false,"rental_uris":{"android":"levelo://app?vid=166ff55e-0b6e-42f9-b963-16e0635d6760","ios":"levelo://app?vid=166ff55e-0b6e-42f9-b963-16e0635d6760"},"vehicle_type_id":"4","last_reported":1729275118,"current_range_meters":15200,"station_id":"ce4bgl12rcd13ifvqbo0","pricing_plan_id":"cebpf4jnsgd1na2vs0mg"},{"bike_id":"df50999f-2c36-4645-8915-f1b914616dfc","system_id":"levelo_inurba_marseille","lat":43.32108,"lon":5.36774,"is_reserved":false,"is_disabled":false,"rental_uris":{"android":"levelo://app?vid=df50999f-2c36-4645-8915-f1b914616dfc","ios":"levelo://app?vid=df50999f-2c36-4645-8915-f1b914616dfc"},"vehicle_type_id":"4","last_reported":1729275118,"current_range_meters":27600,"station_id":"ce4bhrh2rcd13ifvqhug","pricing_plan_id":"cebpf4jnsgd1na2vs0mg"},{"bike_id":"2c1760a7-9801-44c7-ac01-ec5984736506","system_id":"levelo_inurba_marseille","lat":43.28937,"lon":5.36627,"is_reserved":false,"is_disabled":false,"rental_uris":{"android":"levelo://app?vid=2c1760a7-9801-44c7-ac01-ec5984736506","ios":"levelo://app?vid=2c1760a7-9801-44c7-ac01-ec5984736506"},"vehicle_type_id":"4","last_reported":1729275118,"current_range_meters":38800,"station_id":"ce4bhap2rcd13ifvqek0","pricing_plan_id":"cebpf4jnsgd1na2vs0mg"},{"bike_id":"886a790a-3711-4501-bbd1-6ec1d5c6a80d","system_id":"levelo_inurba_marseille","lat":43.29535,"lon":5.39051,"is_reserved":false,"is_disabled":false,"rental_uris":{"android":"levelo://app?vid=886a790a-3711-4501-bbd1-6ec1d5c6a80d","ios":"levelo://app?vid=886a790a-3711-4501-bbd1-6ec1d5c6a80d"},"vehicle_type_id":"4","last_reported":1729275118,"current_range_meters":6400,"station_id":"ce4bh3p2rcd13ifvqdp0","pricing_plan_id":"cebpf4jnsgd1na2vs0mg"},{"bike_id":"13a62a4e-c6c9-4a27-a95c-9e809f740b69","system_id":"levelo_inurba_marseille","lat":43.33025,"lon":5.39046,"is_reserved":false,"is_disabled":false,"rental_uris":{"android":"levelo://app?vid=13a62a4e-c6c9-4a27-a95c-9e809f740b69","ios":"levelo://app?vid=13a62a4e-c6c9-4a27-a95c-9e809f740b69"},"vehicle_type_id":"4","last_reported":1729275118,"current_range_meters":11600,"station_id":"ce4bhr92rcd13ifvqhrg","pricing_plan_id":"cebpf4jnsgd1na2vs0mg"},{"bike_id":"56419529-6dc4-4464-ae36-9de2e03def40","system_id":"levelo_inurba_marseille","lat":43.2797,"lon":5.38736,"is_reserved":false,"is_disabled":false,"rental_uris":{"android":"levelo://app?vid=56419529-6dc4-4464-ae36-9de2e03def40","ios":"levelo://app?vid=56419529-6dc4-4464-ae36-9de2e03def40"},"vehicle_type_id":"4","last_reported":1729275118,"current_range_meters":28800,"station_id":"ce4bhg12rcd13ifvqf80","pricing_plan_id":"cebpf4jnsgd1na2vs0mg"},{"bike_id":"e8da62c6-bbec-48e4-86d2-9e1bf2d17e6b","system_id":"levelo_inurba_marseille","lat":43.32481,"lon":5.36568,"is_reserved":false,"is_disabled":false,"rental_uris":{"android":"levelo://app?vid=e8da62c6-bbec-48e4-86d2-9e1bf2d17e6b","ios":"levelo://app?vid=e8da62c6-bbec-48e4-86d2-9e1bf2d17e6b"},"vehicle_type_id":"4","last_reported":1729275118,"current_range_meters":22000,"station_id":"ce4bhs12rcd13ifvqhvg","pricing_plan_id":"cebpf4jnsgd1na2vs0mg"},{"bike_id":"c92c83ca-5649-482c-94db-74e585c302ac","system_id":"levelo_inurba_marseille","lat":43.23181,"lon":5.39988,"is_reserved":false,"is_disabled":false,"rental_uris":{"android":"levelo://app?vid=c92c83ca-5649-482c-94db-74e585c302ac","ios":"levelo://app?vid=c92c83ca-5649-482c-94db-74e585c302ac"},"vehicle_type_id":"4","last_reported":1729275118,"current_range_meters":38800,"station_id":"ce4bhn12rcd13ifvqgqg","pricing_plan_id":"cebpf4jnsgd1na2vs0mg"},{"bike_id":"e0c0e8c6-afd4-4d6e-b16e-263563b339d9","system_id":"levelo_inurba_marseille","lat":43.29622,"lon":5.37715,"is_reserved":false,"is_disabled":false,"rental_uris":{"android":"levelo://app?vid=e0c0e8c6-afd4-4d6e-b16e-263563b339d9","ios":"levelo://app?vid=e0c0e8c6-afd4-4d6e-b16e-263563b339d9"},"vehicle_type_id":"4","last_reported":1729275118,"current_range_meters":5600,"station_id":"ce4bgi92rcd13ifvqb90","pricing_plan_id":"cebpf4jnsgd1na2vs0mg"},{"bike_id":"80dff6fe-042f-474e-99ca-1901d75ba951","system_id":"levelo_inurba_marseille","lat":43.29178,"lon":5.37166,"is_reserved":false,"is_disabled":false,"rental_uris":{"android":"levelo://app?vid=80dff6fe-042f-474e-99ca-1901d75ba951","ios":"levelo://app?vid=80dff6fe-042f-474e-99ca-1901d75ba951"},"vehicle_type_id":"4","last_reported":1729275118,"current_range_meters":38000,"station_id":"ce4bha92rcd13ifvqeh0","pricing_plan_id":"cebpf4jnsgd1na2vs0mg"},{"bike_id":"a37d3bce-ccaf-4a28-a37b-e64348d967db","system_id":"levelo_inurba_marseille","lat":43.29208,"lon":5.39317,"is_reserved":false,"is_disabled":false,"rental_uris":{"android":"levelo://app?vid=a37d3bce-ccaf-4a28-a37b-e64348d967db","ios":"levelo://app?vid=a37d3bce-ccaf-4a28-a37b-e64348d967db"},"vehicle_type_id":"4","last_reported":1729275118,"current_range_meters":24800,"station_id":"ce4bh292rcd13ifvqdg0","pricing_plan_id":"cebpf4jnsgd1na2vs0mg"},{"bike_id":"7c29dd0d-9099-429e-83ae-31275a857563","system_id":"levelo_inurba_marseille","lat":43.24178,"lon":5.3974,"is_reserved":false,"is_disabled":false,"rental_uris":{"android":"levelo://app?vid=7c29dd0d-9099-429e-83ae-31275a857563","ios":"levelo://app?vid=7c29dd0d-9099-429e-83ae-31275a857563"},"vehicle_type_id":"4","last_reported":1729275118,"current_range_meters":28000,"station_id":"ce4bhn12rcd13ifvqgpg","pricing_plan_id":"cebpf4jnsgd1na2vs0mg"},{"bike_id":"6e670e7e-f2cf-4f58-83f5-9181c7868c5f","system_id":"levelo_inurba_marseille","lat":43.29266,"lon":5.36848,"is_reserved":false,"is_disabled":false,"rental_uris":{"android":"levelo://app?vid=6e670e7e-f2cf-4f58-83f5-9181c7868c5f","ios":"levelo://app?vid=6e670e7e-f2cf-4f58-83f5-9181c7868c5f"},"vehicle_type_id":"4","last_reported":1729275118,"current_range_meters":38800,"station_id":"ce4bhbp2rcd13ifvqesg","pricing_plan_id":"cebpf4jnsgd1na2vs0mg"},{"bike_id":"2631beb6-4cd3-4ca6-9641-b4845b780089","system_id":"levelo_inurba_marseille","lat":43.293,"lon":5.37465,"is_reserved":false,"is_disabled":false,"rental_uris":{"android":"levelo://app?vid=2631beb6-4cd3-4ca6-9641-b4845b780089","ios":"levelo://app?vid=2631beb6-4cd3-4ca6-9641-b4845b780089"},"vehicle_type_id":"4","last_reported":1729275118,"current_range_meters":25200,"station_id":"ce4bgi12rcd13ifvqb70","pricing_plan_id":"cebpf4jnsgd1na2vs0mg"},{"bike_id":"b8975eb7-e5f3-4149-b3ca-d7ab03a2abb4","system_id":"levelo_inurba_marseille","lat":43.3013,"lon":5.39883,"is_reserved":false,"is_disabled":false,"rental_uris":{"android":"levelo://app?vid=b8975eb7-e5f3-4149-b3ca-d7ab03a2abb4","ios":"levelo://app?vid=b8975eb7-e5f3-4149-b3ca-d7ab03a2abb4"},"vehicle_type_id":"4","last_reported":1729275118,"current_range_meters":27200,"station_id":"ce4bh0h2rcd13ifvqd40","pricing_plan_id":"cebpf4jnsgd1na2vs0mg"},{"bike_id":"8e8dbec5-b7df-4d72-a907-8cd73d3fa158","system_id":"levelo_inurba_marseille","lat":43.29162,"lon":5.37151,"is_reserved":false,"is_disabled":false,"rental_uris":{"android":"levelo://app?vid=8e8dbec5-b7df-4d72-a907-8cd73d3fa158","ios":"levelo://app?vid=8e8dbec5-b7df-4d72-a907-8cd73d3fa158"},"vehicle_type_id":"4","last_reported":1729275118,"current_range_meters":28800,"station_id":"ce4bha92rcd13ifvqeh0","pricing_plan_id":"cebpf4jnsgd1na2vs0mg"},{"bike_id":"97f43d59-1197-40fc-9a43-0785fba6ec06","system_id":"levelo_inurba_marseille","lat":43.301453,"lon":5.380826,"is_reserved":false,"is_disabled":false,"rental_uris":{"android":"levelo://app?vid=97f43d59-1197-40fc-9a43-0785fba6ec06","ios":"levelo://app?vid=97f43d59-1197-40fc-9a43-0785fba6ec06"},"vehicle_type_id":"4","last_reported":1729275118,"current_range_meters":28800,"station_id":"ce4bgjp2rcd13ifvqbh0","pricing_plan_id":"cebpf4jnsgd1na2vs0mg"},{"bike_id":"cef7c122-477b-4e07-a2ef-d357a7a71459","system_id":"levelo_inurba_marseille","lat":43.29222,"lon":5.36056,"is_reserved":false,"is_disabled":false,"rental_uris":{"android":"levelo://app?vid=cef7c122-477b-4e07-a2ef-d357a7a71459","ios":"levelo://app?vid=cef7c122-477b-4e07-a2ef-d357a7a71459"},"vehicle_type_id":"4","last_reported":1729275118,"current_range_meters":38400,"station_id":"ce4bhbh2rcd13ifvqeqg","pricing_plan_id":"cebpf4jnsgd1na2vs0mg"},{"bike_id":"c8983b77-308b-45c7-811f-27b0ddcf6a14","system_id":"levelo_inurba_marseille","lat":43.30591,"lon":5.39353,"is_reserved":false,"is_disabled":false,"rental_uris":{"android":"levelo://app?vid=c8983b77-308b-45c7-811f-27b0ddcf6a14","ios":"levelo://app?vid=c8983b77-308b-45c7-811f-27b0ddcf6a14"},"vehicle_type_id":"4","last_reported":1729275118,"current_range_meters":17600,"station_id":"ce4bh0p2rcd13ifvqd80","pricing_plan_id":"cebpf4jnsgd1na2vs0mg"},{"bike_id":"1657b264-5998-4392-a501-bcb461de595a","system_id":"levelo_inurba_marseille","lat":43.29296,"lon":5.37455,"is_reserved":false,"is_disabled":false,"rental_uris":{"android":"levelo://app?vid=1657b264-5998-4392-a501-bcb461de595a","ios":"levelo://app?vid=1657b264-5998-4392-a501-bcb461de595a"},"vehicle_type_id":"4","last_reported":1729275118,"current_range_meters":38000,"station_id":"ce4bgi12rcd13ifvqb70","pricing_plan_id":"cebpf4jnsgd1na2vs0mg"},{"bike_id":"05e903a6-25eb-4fdc-92d6-70bb63a59283","system_id":"levelo_inurba_marseille","lat":43.25088,"lon":5.39531,"is_reserved":false,"is_disabled":false,"rental_uris":{"android":"levelo://app?vid=05e903a6-25eb-4fdc-92d6-70bb63a59283","ios":"levelo://app?vid=05e903a6-25eb-4fdc-92d6-70bb63a59283"},"vehicle_type_id":"4","last_reported":1729275118,"current_range_meters":4800,"station_id":"ce4bhm12rcd13ifvqgkg","pricing_plan_id":"cebpf4jnsgd1na2vs0mg"},{"bike_id":"7b5da3ca-fd98-403e-a53a-738b87fa1eff","system_id":"levelo_inurba_marseille","lat":43.25127,"lon":5.40314,"is_reserved":false,"is_disabled":false,"rental_uris":{"android":"levelo://app?vid=7b5da3ca-fd98-403e-a53a-738b87fa1eff","ios":"levelo://app?vid=7b5da3ca-fd98-403e-a53a-738b87fa1eff"},"vehicle_type_id":"4","last_reported":1729275118,"current_range_meters":8400,"station_id":"ce4bhlh2rcd13ifvqgig","pricing_plan_id":"cebpf4jnsgd1na2vs0mg"},{"bike_id":"3664398f-378f-46f2-bd12-30042ad8db9d","system_id":"levelo_inurba_marseille","lat":43.23177,"lon":5.39983,"is_reserved":false,"is_disabled":false,"rental_uris":{"android":"levelo://app?vid=3664398f-378f-46f2-bd12-30042ad8db9d","ios":"levelo://app?vid=3664398f-378f-46f2-bd12-30042ad8db9d"},"vehicle_type_id":"4","last_reported":1729275118,"current_range_meters":28400,"station_id":"ce4bhn12rcd13ifvqgqg","pricing_plan_id":"cebpf4jnsgd1na2vs0mg"},{"bike_id":"a9d80141-cb04-4f88-bcc5-9763572e3517","system_id":"levelo_inurba_marseille","lat":43.23194,"lon":5.35546,"is_reserved":false,"is_disabled":false,"rental_uris":{"android":"levelo://app?vid=a9d80141-cb04-4f88-bcc5-9763572e3517","ios":"levelo://app?vid=a9d80141-cb04-4f88-bcc5-9763572e3517"},"vehicle_type_id":"4","last_reported":1729275118,"current_range_meters":28000,"station_id":"ce4bhu92rcd13ifvqi70","pricing_plan_id":"cebpf4jnsgd1na2vs0mg"},{"bike_id":"fa03625f-2378-422c-a557-4f68ad67e813","system_id":"levelo_inurba_marseille","lat":43.30354,"lon":5.41872,"is_reserved":false,"is_disabled":false,"rental_uris":{"android":"levelo://app?vid=fa03625f-2378-422c-a557-4f68ad67e813","ios":"levelo://app?vid=fa03625f-2378-422c-a557-4f68ad67e813"},"vehicle_type_id":"4","last_reported":1729275118,"current_range_meters":8400,"station_id":"ce4bhop2rcd13ifvqh7g","pricing_plan_id":"cebpf4jnsgd1na2vs0mg"},{"bike_id":"6b18bb5c-91bc-4d8f-9483-e5fbe74de097","system_id":"levelo_inurba_marseille","lat":43.29794,"lon":5.38117,"is_reserved":false,"is_disabled":false,"rental_uris":{"android":"levelo://app?vid=6b18bb5c-91bc-4d8f-9483-e5fbe74de097","ios":"levelo://app?vid=6b18bb5c-91bc-4d8f-9483-e5fbe74de097"},"vehicle_type_id":"4","last_reported":1729275118,"current_range_meters":36800,"station_id":"ce4bgip2rcd13ifvqbb0","pricing_plan_id":"cebpf4jnsgd1na2vs0mg"},{"bike_id":"eb6c81f4-8535-4155-b5cc-632faa665a12","system_id":"levelo_inurba_marseille","lat":43.27615,"lon":5.3612,"is_reserved":false,"is_disabled":false,"rental_uris":{"android":"levelo://app?vid=eb6c81f4-8535-4155-b5cc-632faa665a12","ios":"levelo://app?vid=eb6c81f4-8535-4155-b5cc-632faa665a12"},"vehicle_type_id":"4","last_reported":1729275118,"current_range_meters":8000,"station_id":"ce4bgj92rcd13ifvqbe0","pricing_plan_id":"cebpf4jnsgd1na2vs0mg"},{"bike_id":"4494673c-ebac-42b3-884d-4d7420fce07c","system_id":"levelo_inurba_marseille","lat":43.23958,"lon":5.36635,"is_reserved":false,"is_disabled":false,"rental_uris":{"android":"levelo://app?vid=4494673c-ebac-42b3-884d-4d7420fce07c","ios":"levelo://app?vid=4494673c-ebac-42b3-884d-4d7420fce07c"},"vehicle_type_id":"4","last_reported":1729275118,"current_range_meters":4400,"station_id":"ce4bhi12rcd13ifvqfp0","pricing_plan_id":"cebpf4jnsgd1na2vs0mg"},{"bike_id":"fb72b6fc-3438-4a8d-845c-721776e3614d","system_id":"levelo_inurba_marseille","lat":43.24646,"lon":5.38893,"is_reserved":false,"is_disabled":false,"rental_uris":{"android":"levelo://app?vid=fb72b6fc-3438-4a8d-845c-721776e3614d","ios":"levelo://app?vid=fb72b6fc-3438-4a8d-845c-721776e3614d"},"vehicle_type_id":"4","last_reported":1729275118,"current_range_meters":9200,"station_id":"ce4bhg12rcd13ifvqf60","pricing_plan_id":"cebpf4jnsgd1na2vs0mg"},{"bike_id":"4a9c5136-102b-41cb-94fc-f5175f170593","system_id":"levelo_inurba_marseille","lat":43.28511,"lon":5.38417,"is_reserved":false,"is_disabled":false,"rental_uris":{"android":"levelo://app?vid=4a9c5136-102b-41cb-94fc-f5175f170593","ios":"levelo://app?vid=4a9c5136-102b-41cb-94fc-f5175f170593"},"vehicle_type_id":"4","last_reported":1729275118,"current_range_meters":18800,"station_id":"ce4bh512rcd13ifvqe3g","pricing_plan_id":"cebpf4jnsgd1na2vs0mg"},{"bike_id":"1185016f-df9b-4e61-b964-54bd7386f7c9","system_id":"levelo_inurba_marseille","lat":43.33022,"lon":5.39048,"is_reserved":false,"is_disabled":false,"rental_uris":{"android":"levelo://app?vid=1185016f-df9b-4e61-b964-54bd7386f7c9","ios":"levelo://app?vid=1185016f-df9b-4e61-b964-54bd7386f7c9"},"vehicle_type_id":"4","last_reported":1729275118,"current_range_meters":39200,"station_id":"ce4bhr92rcd13ifvqhrg","pricing_plan_id":"cebpf4jnsgd1na2vs0mg"},{"bike_id":"d41309ab-1a1f-4395-acaa-455483c3f8e1","system_id":"levelo_inurba_marseille","lat":43.2319,"lon":5.35561,"is_reserved":false,"is_disabled":false,"rental_uris":{"android":"levelo://app?vid=d41309ab-1a1f-4395-acaa-455483c3f8e1","ios":"levelo://app?vid=d41309ab-1a1f-4395-acaa-455483c3f8e1"},"vehicle_type_id":"4","last_reported":1729275118,"current_range_meters":30000,"station_id":"ce4bhu92rcd13ifvqi70","pricing_plan_id":"cebpf4jnsgd1na2vs0mg"},{"bike_id":"f530cf14-8834-436a-8d12-cb025cf4d094","system_id":"levelo_inurba_marseille","lat":43.24807,"lon":5.37459,"is_reserved":false,"is_disabled":false,"rental_uris":{"android":"levelo://app?vid=f530cf14-8834-436a-8d12-cb025cf4d094","ios":"levelo://app?vid=f530cf14-8834-436a-8d12-cb025cf4d094"},"vehicle_type_id":"4","last_reported":1729275118,"current_range_meters":38800,"station_id":"ce4bhgh2rcd13ifvqfb0","pricing_plan_id":"cebpf4jnsgd1na2vs0mg"},{"bike_id":"ce04ac14-91dc-435b-94f7-41bd0bf71530","system_id":"levelo_inurba_marseille","lat":43.3229,"lon":5.38278,"is_reserved":false,"is_disabled":false,"rental_uris":{"android":"levelo://app?vid=ce04ac14-91dc-435b-94f7-41bd0bf71530","ios":"levelo://app?vid=ce04ac14-91dc-435b-94f7-41bd0bf71530"},"vehicle_type_id":"4","last_reported":1729275118,"current_range_meters":21600,"station_id":"ce4bhr12rcd13ifvqhqg","pricing_plan_id":"cebpf4jnsgd1na2vs0mg"},{"bike_id":"9aeedc89-0c40-4987-b960-5d33ffb47506","system_id":"levelo_inurba_marseille","lat":43.27909,"lon":5.38026,"is_reserved":false,"is_disabled":false,"rental_uris":{"android":"levelo://app?vid=9aeedc89-0c40-4987-b960-5d33ffb47506","ios":"levelo://app?vid=9aeedc89-0c40-4987-b960-5d33ffb47506"},"vehicle_type_id":"4","last_reported":1729275118,"current_range_meters":8400,"station_id":"ce4bhf92rcd13ifvqf50","pricing_plan_id":"cebpf4jnsgd1na2vs0mg"},{"bike_id":"42089fd0-1e71-4f89-9f4d-71906d405a17","system_id":"levelo_inurba_marseille","lat":43.23203,"lon":5.35552,"is_reserved":false,"is_disabled":false,"rental_uris":{"android":"levelo://app?vid=42089fd0-1e71-4f89-9f4d-71906d405a17","ios":"levelo://app?vid=42089fd0-1e71-4f89-9f4d-71906d405a17"},"vehicle_type_id":"4","last_reported":1729275118,"current_range_meters":39200,"station_id":"ce4bhu92rcd13ifvqi70","pricing_plan_id":"cebpf4jnsgd1na2vs0mg"},{"bike_id":"b458b557-ee44-4a5b-a61d-cc76a2f9c754","system_id":"levelo_inurba_marseille","lat":43.24808,"lon":5.37462,"is_reserved":false,"is_disabled":false,"rental_uris":{"android":"levelo://app?vid=b458b557-ee44-4a5b-a61d-cc76a2f9c754","ios":"levelo://app?vid=b458b557-ee44-4a5b-a61d-cc76a2f9c754"},"vehicle_type_id":"4","last_reported":1729275118,"current_range_meters":5600,"station_id":"ce4bhgh2rcd13ifvqfb0","pricing_plan_id":"cebpf4jnsgd1na2vs0mg"},{"bike_id":"2d12c475-1606-45db-9b57-bde660f7b2ba","system_id":"levelo_inurba_marseille","lat":43.29537,"lon":5.3862,"is_reserved":false,"is_disabled":false,"rental_uris":{"android":"levelo://app?vid=2d12c475-1606-45db-9b57-bde660f7b2ba","ios":"levelo://app?vid=2d12c475-1606-45db-9b57-bde660f7b2ba"},"vehicle_type_id":"4","last_reported":1729275118,"current_range_meters":36000,"station_id":"ce4bgih2rcd13ifvqba0","pricing_plan_id":"cebpf4jnsgd1na2vs0mg"},{"bike_id":"3d66d5f8-00cc-4230-aae4-30747a320f72","system_id":"levelo_inurba_marseille","lat":43.28944,"lon":5.36404,"is_reserved":false,"is_disabled":false,"rental_uris":{"android":"levelo://app?vid=3d66d5f8-00cc-4230-aae4-30747a320f72","ios":"levelo://app?vid=3d66d5f8-00cc-4230-aae4-30747a320f72"},"vehicle_type_id":"4","last_reported":1729275118,"current_range_meters":39200,"station_id":"ce4bhc92rcd13ifvqetg","pricing_plan_id":"cebpf4jnsgd1na2vs0mg"},{"bike_id":"432d169a-5113-470a-8db6-6b1625f5e1fd","system_id":"levelo_inurba_marseille","lat":43.29789,"lon":5.38116,"is_reserved":false,"is_disabled":false,"rental_uris":{"android":"levelo://app?vid=432d169a-5113-470a-8db6-6b1625f5e1fd","ios":"levelo://app?vid=432d169a-5113-470a-8db6-6b1625f5e1fd"},"vehicle_type_id":"4","last_reported":1729275118,"current_range_meters":4400,"station_id":"ce4bgip2rcd13ifvqbb0","pricing_plan_id":"cebpf4jnsgd1na2vs0mg"},{"bike_id":"a417ea90-2677-4128-ad80-9d6526661d0d","system_id":"levelo_inurba_marseille","lat":43.23956,"lon":5.36631,"is_reserved":false,"is_disabled":false,"rental_uris":{"android":"levelo://app?vid=a417ea90-2677-4128-ad80-9d6526661d0d","ios":"levelo://app?vid=a417ea90-2677-4128-ad80-9d6526661d0d"},"vehicle_type_id":"4","last_reported":1729275118,"current_range_meters":20800,"station_id":"ce4bhi12rcd13ifvqfp0","pricing_plan_id":"cebpf4jnsgd1na2vs0mg"},{"bike_id":"793349c0-e4d7-4f3c-aec9-b7a4ec3e96cc","system_id":"levelo_inurba_marseille","lat":43.2942,"lon":5.38623,"is_reserved":false,"is_disabled":false,"rental_uris":{"android":"levelo://app?vid=793349c0-e4d7-4f3c-aec9-b7a4ec3e96cc","ios":"levelo://app?vid=793349c0-e4d7-4f3c-aec9-b7a4ec3e96cc"},"vehicle_type_id":"4","last_reported":1729275118,"current_range_meters":3200,"station_id":"ce4bh2h2rcd13ifvqdh0","pricing_plan_id":"cebpf4jnsgd1na2vs0mg"},{"bike_id":"f93454e1-a669-4c63-a4ca-b572042c7971","system_id":"levelo_inurba_marseille","lat":43.23194,"lon":5.35554,"is_reserved":false,"is_disabled":false,"rental_uris":{"android":"levelo://app?vid=f93454e1-a669-4c63-a4ca-b572042c7971","ios":"levelo://app?vid=f93454e1-a669-4c63-a4ca-b572042c7971"},"vehicle_type_id":"4","last_reported":1729275118,"current_range_meters":8000,"station_id":"ce4bhu92rcd13ifvqi70","pricing_plan_id":"cebpf4jnsgd1na2vs0mg"},{"bike_id":"9feebf6a-cf06-4283-9475-cface9a88761","system_id":"levelo_inurba_marseille","lat":43.30801,"lon":5.43526,"is_reserved":false,"is_disabled":false,"rental_uris":{"android":"levelo://app?vid=9feebf6a-cf06-4283-9475-cface9a88761","ios":"levelo://app?vid=9feebf6a-cf06-4283-9475-cface9a88761"},"vehicle_type_id":"4","last_reported":1729275118,"current_range_meters":32400,"station_id":"ce4bhph2rcd13ifvqheg","pricing_plan_id":"cebpf4jnsgd1na2vs0mg"},{"bike_id":"23b1f07a-49e5-49d5-9162-d3085a4f5412","system_id":"levelo_inurba_marseille","lat":43.28399,"lon":5.37512,"is_reserved":false,"is_disabled":false,"rental_uris":{"android":"levelo://app?vid=23b1f07a-49e5-49d5-9162-d3085a4f5412","ios":"levelo://app?vid=23b1f07a-49e5-49d5-9162-d3085a4f5412"},"vehicle_type_id":"4","last_reported":1729275118,"current_range_meters":32400,"station_id":"ce4bh412rcd13ifvqds0","pricing_plan_id":"cebpf4jnsgd1na2vs0mg"},{"bike_id":"22b37876-70ac-4ba0-9001-79de88a5c4f9","system_id":"levelo_inurba_marseille","lat":43.33772,"lon":5.37432,"is_reserved":false,"is_disabled":false,"rental_uris":{"android":"levelo://app?vid=22b37876-70ac-4ba0-9001-79de88a5c4f9","ios":"levelo://app?vid=22b37876-70ac-4ba0-9001-79de88a5c4f9"},"vehicle_type_id":"4","last_reported":1729275118,"current_range_meters":30800,"station_id":"","pricing_plan_id":"cebpf4jnsgd1na2vs0mg"},{"bike_id":"83893556-7c00-42a3-a08d-3dc2a54beb25","system_id":"levelo_inurba_marseille","lat":43.279983,"lon":5.400109,"is_reserved":false,"is_disabled":false,"rental_uris":{"android":"levelo://app?vid=83893556-7c00-42a3-a08d-3dc2a54beb25","ios":"levelo://app?vid=83893556-7c00-42a3-a08d-3dc2a54beb25"},"vehicle_type_id":"4","last_reported":1729275118,"current_range_meters":25600,"station_id":"ce4bho92rcd13ifvqh4g","pricing_plan_id":"cebpf4jnsgd1na2vs0mg"},{"bike_id":"9b78167b-ae5a-47c9-9d1b-58b45505fd1c","system_id":"levelo_inurba_marseille","lat":43.24166,"lon":5.36405,"is_reserved":false,"is_disabled":false,"rental_uris":{"android":"levelo://app?vid=9b78167b-ae5a-47c9-9d1b-58b45505fd1c","ios":"levelo://app?vid=9b78167b-ae5a-47c9-9d1b-58b45505fd1c"},"vehicle_type_id":"4","last_reported":1729275118,"current_range_meters":38400,"station_id":"cpo36qri1sfpv3e86is0","pricing_plan_id":"cebpf4jnsgd1na2vs0mg"},{"bike_id":"6cbdafe9-19a4-4d62-8c1b-5c831ed25fd6","system_id":"levelo_inurba_marseille","lat":43.29379,"lon":5.37845,"is_reserved":false,"is_disabled":false,"rental_uris":{"android":"levelo://app?vid=6cbdafe9-19a4-4d62-8c1b-5c831ed25fd6","ios":"levelo://app?vid=6cbdafe9-19a4-4d62-8c1b-5c831ed25fd6"},"vehicle_type_id":"4","last_reported":1729275118,"current_range_meters":39200,"station_id":"ce4bgjh2rcd13ifvqbf0","pricing_plan_id":"cebpf4jnsgd1na2vs0mg"},{"bike_id":"a5111c40-207c-4c14-bc13-ff44db6c4280","system_id":"levelo_inurba_marseille","lat":43.2558,"lon":5.38235,"is_reserved":false,"is_disabled":false,"rental_uris":{"android":"levelo://app?vid=a5111c40-207c-4c14-bc13-ff44db6c4280","ios":"levelo://app?vid=a5111c40-207c-4c14-bc13-ff44db6c4280"},"vehicle_type_id":"4","last_reported":1729275118,"current_range_meters":6000,"station_id":"ce4bhih2rcd13ifvqfs0","pricing_plan_id":"cebpf4jnsgd1na2vs0mg"},{"bike_id":"b53a3f00-41d6-4adf-94ad-ef9945bb3886","system_id":"levelo_inurba_marseille","lat":43.25721,"lon":5.41115,"is_reserved":false,"is_disabled":false,"rental_uris":{"android":"levelo://app?vid=b53a3f00-41d6-4adf-94ad-ef9945bb3886","ios":"levelo://app?vid=b53a3f00-41d6-4adf-94ad-ef9945bb3886"},"vehicle_type_id":"4","last_reported":1729275118,"current_range_meters":8000,"station_id":"cjm6bp8fraef2m0cb0m0","pricing_plan_id":"cebpf4jnsgd1na2vs0mg"},{"bike_id":"8f970612-ffe8-4b89-9cd4-0f35b5a83cee","system_id":"levelo_inurba_marseille","lat":43.31998,"lon":5.38167,"is_reserved":false,"is_disabled":false,"rental_uris":{"android":"levelo://app?vid=8f970612-ffe8-4b89-9cd4-0f35b5a83cee","ios":"levelo://app?vid=8f970612-ffe8-4b89-9cd4-0f35b5a83cee"},"vehicle_type_id":"4","last_reported":1729275118,"current_range_meters":20000,"station_id":"ce4bhr12rcd13ifvqhpg","pricing_plan_id":"cebpf4jnsgd1na2vs0mg"},{"bike_id":"f015e5e7-0ad6-44d3-ae6e-ecc0743a638a","system_id":"levelo_inurba_marseille","lat":43.28996,"lon":5.37838,"is_reserved":false,"is_disabled":false,"rental_uris":{"android":"levelo://app?vid=f015e5e7-0ad6-44d3-ae6e-ecc0743a638a","ios":"levelo://app?vid=f015e5e7-0ad6-44d3-ae6e-ecc0743a638a"},"vehicle_type_id":"4","last_reported":1729275118,"current_range_meters":25600,"station_id":"ce4bh9p2rcd13ifvqed0","pricing_plan_id":"cebpf4jnsgd1na2vs0mg"},{"bike_id":"73545b16-95f1-45a5-8334-811005da26d0","system_id":"levelo_inurba_marseille","lat":43.28272,"lon":5.35068,"is_reserved":false,"is_disabled":false,"rental_uris":{"android":"levelo://app?vid=73545b16-95f1-45a5-8334-811005da26d0","ios":"levelo://app?vid=73545b16-95f1-45a5-8334-811005da26d0"},"vehicle_type_id":"4","last_reported":1729275118,"current_range_meters":3600,"station_id":"ce4bhbp2rcd13ifvqerg","pricing_plan_id":"cebpf4jnsgd1na2vs0mg"},{"bike_id":"3ac58501-1234-4544-ae5e-37c1fc251df3","system_id":"levelo_inurba_marseille","lat":43.24643,"lon":5.38899,"is_reserved":false,"is_disabled":false,"rental_uris":{"android":"levelo://app?vid=3ac58501-1234-4544-ae5e-37c1fc251df3","ios":"levelo://app?vid=3ac58501-1234-4544-ae5e-37c1fc251df3"},"vehicle_type_id":"4","last_reported":1729275118,"current_range_meters":38800,"station_id":"ce4bhg12rcd13ifvqf60","pricing_plan_id":"cebpf4jnsgd1na2vs0mg"},{"bike_id":"c8fa6f39-e07d-463d-8d01-7ccf9e86f944","system_id":"levelo_inurba_marseille","lat":43.23203,"lon":5.35556,"is_reserved":false,"is_disabled":false,"rental_uris":{"android":"levelo://app?vid=c8fa6f39-e07d-463d-8d01-7ccf9e86f944","ios":"levelo://app?vid=c8fa6f39-e07d-463d-8d01-7ccf9e86f944"},"vehicle_type_id":"4","last_reported":1729275118,"current_range_meters":23200,"station_id":"ce4bhu92rcd13ifvqi70","pricing_plan_id":"cebpf4jnsgd1na2vs0mg"},{"bike_id":"c7e56364-ed6c-4f12-b176-97280271f596","system_id":"levelo_inurba_marseille","lat":43.29592,"lon":5.37744,"is_reserved":false,"is_disabled":false,"rental_uris":{"android":"levelo://app?vid=c7e56364-ed6c-4f12-b176-97280271f596","ios":"levelo://app?vid=c7e56364-ed6c-4f12-b176-97280271f596"},"vehicle_type_id":"4","last_reported":1729275118,"current_range_meters":24400,"station_id":"ce4bgi92rcd13ifvqb90","pricing_plan_id":"cebpf4jnsgd1na2vs0mg"},{"bike_id":"7083d6dd-62a3-40cd-bc95-f4d44769330f","system_id":"levelo_inurba_marseille","lat":43.32275,"lon":5.38248,"is_reserved":false,"is_disabled":false,"rental_uris":{"android":"levelo://app?vid=7083d6dd-62a3-40cd-bc95-f4d44769330f","ios":"levelo://app?vid=7083d6dd-62a3-40cd-bc95-f4d44769330f"},"vehicle_type_id":"4","last_reported":1729275118,"current_range_meters":7200,"station_id":"ce4bhr12rcd13ifvqhqg","pricing_plan_id":"cebpf4jnsgd1na2vs0mg"},{"bike_id":"70356b67-d1e8-4bf6-a51d-890e62b9e09b","system_id":"levelo_inurba_marseille","lat":43.26991,"lon":5.39969,"is_reserved":false,"is_disabled":false,"rental_uris":{"android":"levelo://app?vid=70356b67-d1e8-4bf6-a51d-890e62b9e09b","ios":"levelo://app?vid=70356b67-d1e8-4bf6-a51d-890e62b9e09b"},"vehicle_type_id":"4","last_reported":1729275118,"current_range_meters":26800,"station_id":"","pricing_plan_id":"cebpf4jnsgd1na2vs0mg"},{"bike_id":"e23fcc06-93cc-4b30-91b9-ae992c54a640","system_id":"levelo_inurba_marseille","lat":43.290369,"lon":5.359164,"is_reserved":false,"is_disabled":false,"rental_uris":{"android":"levelo://app?vid=e23fcc06-93cc-4b30-91b9-ae992c54a640","ios":"levelo://app?vid=e23fcc06-93cc-4b30-91b9-ae992c54a640"},"vehicle_type_id":"4","last_reported":1729275118,"current_range_meters":9600,"station_id":"","pricing_plan_id":"cebpf4jnsgd1na2vs0mg"},{"bike_id":"8b8731a4-3611-4d43-b2f2-130b368e35f5","system_id":"levelo_inurba_marseille","lat":43.29535,"lon":5.39414,"is_reserved":false,"is_disabled":false,"rental_uris":{"android":"levelo://app?vid=8b8731a4-3611-4d43-b2f2-130b368e35f5","ios":"levelo://app?vid=8b8731a4-3611-4d43-b2f2-130b368e35f5"},"vehicle_type_id":"4","last_reported":1729275118,"current_range_meters":39200,"station_id":"ce4bh292rcd13ifvqdf0","pricing_plan_id":"cebpf4jnsgd1na2vs0mg"},{"bike_id":"480ee312-85ef-4fbe-be5c-5278a7d6f4dc","system_id":"levelo_inurba_marseille","lat":43.31708,"lon":5.37769,"is_reserved":false,"is_disabled":false,"rental_uris":{"android":"levelo://app?vid=480ee312-85ef-4fbe-be5c-5278a7d6f4dc","ios":"levelo://app?vid=480ee312-85ef-4fbe-be5c-5278a7d6f4dc"},"vehicle_type_id":"4","last_reported":1729275118,"current_range_meters":39200,"station_id":"ce4bgth2rcd13ifvqch0","pricing_plan_id":"cebpf4jnsgd1na2vs0mg"},{"bike_id":"83f5a396-9321-4e25-9270-1fc14263f293","system_id":"levelo_inurba_marseille","lat":43.31539,"lon":5.38034,"is_reserved":false,"is_disabled":false,"rental_uris":{"android":"levelo://app?vid=83f5a396-9321-4e25-9270-1fc14263f293","ios":"levelo://app?vid=83f5a396-9321-4e25-9270-1fc14263f293"},"vehicle_type_id":"4","last_reported":1729275118,"current_range_meters":8000,"station_id":"ce4bhsp2rcd13ifvqi50","pricing_plan_id":"cebpf4jnsgd1na2vs0mg"},{"bike_id":"0cc3167e-f41d-4321-aa62-4a273d7ed4a1","system_id":"levelo_inurba_marseille","lat":43.29418,"lon":5.3863,"is_reserved":false,"is_disabled":false,"rental_uris":{"android":"levelo://app?vid=0cc3167e-f41d-4321-aa62-4a273d7ed4a1","ios":"levelo://app?vid=0cc3167e-f41d-4321-aa62-4a273d7ed4a1"},"vehicle_type_id":"4","last_reported":1729275118,"current_range_meters":10800,"station_id":"ce4bh2h2rcd13ifvqdh0","pricing_plan_id":"cebpf4jnsgd1na2vs0mg"},{"bike_id":"53576058-c158-4cb9-929d-c9e4928a8f1f","system_id":"levelo_inurba_marseille","lat":43.29728,"lon":5.37689,"is_reserved":false,"is_disabled":false,"rental_uris":{"android":"levelo://app?vid=53576058-c158-4cb9-929d-c9e4928a8f1f","ios":"levelo://app?vid=53576058-c158-4cb9-929d-c9e4928a8f1f"},"vehicle_type_id":"4","last_reported":1729275118,"current_range_meters":32400,"station_id":"ce4bgkh2rcd13ifvqbl0","pricing_plan_id":"cebpf4jnsgd1na2vs0mg"},{"bike_id":"a56dd8aa-f6fd-42c7-b0c2-23a347d557fc","system_id":"levelo_inurba_marseille","lat":43.32408,"lon":5.38887,"is_reserved":false,"is_disabled":false,"rental_uris":{"android":"levelo://app?vid=a56dd8aa-f6fd-42c7-b0c2-23a347d557fc","ios":"levelo://app?vid=a56dd8aa-f6fd-42c7-b0c2-23a347d557fc"},"vehicle_type_id":"4","last_reported":1729275118,"current_range_meters":27200,"station_id":"ce4bhqp2rcd13ifvqhog","pricing_plan_id":"cebpf4jnsgd1na2vs0mg"},{"bike_id":"79f490f4-c64b-4b33-9d1a-0fa33b8c839f","system_id":"levelo_inurba_marseille","lat":43.30645,"lon":5.39319,"is_reserved":false,"is_disabled":false,"rental_uris":{"android":"levelo://app?vid=79f490f4-c64b-4b33-9d1a-0fa33b8c839f","ios":"levelo://app?vid=79f490f4-c64b-4b33-9d1a-0fa33b8c839f"},"vehicle_type_id":"4","last_reported":1729275118,"current_range_meters":11200,"station_id":"ce4bgup2rcd13ifvqco0","pricing_plan_id":"cebpf4jnsgd1na2vs0mg"},{"bike_id":"6133532d-02f3-4a6e-a90d-1e6651c789dd","system_id":"levelo_inurba_marseille","lat":43.25092,"lon":5.39518,"is_reserved":false,"is_disabled":false,"rental_uris":{"android":"levelo://app?vid=6133532d-02f3-4a6e-a90d-1e6651c789dd","ios":"levelo://app?vid=6133532d-02f3-4a6e-a90d-1e6651c789dd"},"vehicle_type_id":"4","last_reported":1729275118,"current_range_meters":3600,"station_id":"ce4bhm12rcd13ifvqgkg","pricing_plan_id":"cebpf4jnsgd1na2vs0mg"},{"bike_id":"c3fe07dc-ac18-46f5-bcab-19eb83c77839","system_id":"levelo_inurba_marseille","lat":43.23181,"lon":5.39991,"is_reserved":false,"is_disabled":false,"rental_uris":{"android":"levelo://app?vid=c3fe07dc-ac18-46f5-bcab-19eb83c77839","ios":"levelo://app?vid=c3fe07dc-ac18-46f5-bcab-19eb83c77839"},"vehicle_type_id":"4","last_reported":1729275118,"current_range_meters":9200,"station_id":"ce4bhn12rcd13ifvqgqg","pricing_plan_id":"cebpf4jnsgd1na2vs0mg"},{"bike_id":"8a0326e0-65df-477e-aaf2-192038ca74b3","system_id":"levelo_inurba_marseille","lat":43.27208,"lon":5.39184,"is_reserved":false,"is_disabled":false,"rental_uris":{"android":"levelo://app?vid=8a0326e0-65df-477e-aaf2-192038ca74b3","ios":"levelo://app?vid=8a0326e0-65df-477e-aaf2-192038ca74b3"},"vehicle_type_id":"4","last_reported":1729275118,"current_range_meters":2000,"station_id":"ce4bhhp2rcd13ifvqfm0","pricing_plan_id":"cebpf4jnsgd1na2vs0mg"},{"bike_id":"7b849855-4450-42bb-83f5-a29127641dd2","system_id":"levelo_inurba_marseille","lat":43.29606,"lon":5.38115,"is_reserved":false,"is_disabled":false,"rental_uris":{"android":"levelo://app?vid=7b849855-4450-42bb-83f5-a29127641dd2","ios":"levelo://app?vid=7b849855-4450-42bb-83f5-a29127641dd2"},"vehicle_type_id":"4","last_reported":1729275118,"current_range_meters":4000,"station_id":"ce4bgl12rcd13ifvqbo0","pricing_plan_id":"cebpf4jnsgd1na2vs0mg"},{"bike_id":"62456305-30b5-4346-a3ad-cc724b76b250","system_id":"levelo_inurba_marseille","lat":43.23183,"lon":5.39995,"is_reserved":false,"is_disabled":false,"rental_uris":{"android":"levelo://app?vid=62456305-30b5-4346-a3ad-cc724b76b250","ios":"levelo://app?vid=62456305-30b5-4346-a3ad-cc724b76b250"},"vehicle_type_id":"4","last_reported":1729275118,"current_range_meters":38800,"station_id":"ce4bhn12rcd13ifvqgqg","pricing_plan_id":"cebpf4jnsgd1na2vs0mg"},{"bike_id":"4809ed4d-2f61-4fd4-8c40-2666e92e11b5","system_id":"levelo_inurba_marseille","lat":43.285828,"lon":5.395182,"is_reserved":false,"is_disabled":false,"rental_uris":{"android":"levelo://app?vid=4809ed4d-2f61-4fd4-8c40-2666e92e11b5","ios":"levelo://app?vid=4809ed4d-2f61-4fd4-8c40-2666e92e11b5"},"vehicle_type_id":"4","last_reported":1729275118,"current_range_meters":38800,"station_id":"ce4bh292rcd13ifvqdg0","pricing_plan_id":"cebpf4jnsgd1na2vs0mg"},{"bike_id":"846c9210-1206-4331-8427-09777d06ce15","system_id":"levelo_inurba_marseille","lat":43.278259,"lon":5.391834,"is_reserved":false,"is_disabled":false,"rental_uris":{"android":"levelo://app?vid=846c9210-1206-4331-8427-09777d06ce15","ios":"levelo://app?vid=846c9210-1206-4331-8427-09777d06ce15"},"vehicle_type_id":"4","last_reported":1729275118,"current_range_meters":35200,"station_id":"ce4bhjp2rcd13ifvqga0","pricing_plan_id":"cebpf4jnsgd1na2vs0mg"},{"bike_id":"f269126c-1b0b-4a1a-a1d6-f8c3716f5336","system_id":"levelo_inurba_marseille","lat":43.23192,"lon":5.35551,"is_reserved":false,"is_disabled":false,"rental_uris":{"android":"levelo://app?vid=f269126c-1b0b-4a1a-a1d6-f8c3716f5336","ios":"levelo://app?vid=f269126c-1b0b-4a1a-a1d6-f8c3716f5336"},"vehicle_type_id":"4","last_reported":1729275118,"current_range_meters":16000,"station_id":"ce4bhu92rcd13ifvqi70","pricing_plan_id":"cebpf4jnsgd1na2vs0mg"},{"bike_id":"093a64f9-7717-4c5a-b232-aea383903448","system_id":"levelo_inurba_marseille","lat":43.26035,"lon":5.37551,"is_reserved":false,"is_disabled":false,"rental_uris":{"android":"levelo://app?vid=093a64f9-7717-4c5a-b232-aea383903448","ios":"levelo://app?vid=093a64f9-7717-4c5a-b232-aea383903448"},"vehicle_type_id":"4","last_reported":1729275118,"current_range_meters":13600,"station_id":"ce4bhgh2rcd13ifvqfa0","pricing_plan_id":"cebpf4jnsgd1na2vs0mg"},{"bike_id":"9d750dcf-388c-45eb-af4c-5da280f7cd1d","system_id":"levelo_inurba_marseille","lat":43.27617,"lon":5.36111,"is_reserved":false,"is_disabled":false,"rental_uris":{"android":"levelo://app?vid=9d750dcf-388c-45eb-af4c-5da280f7cd1d","ios":"levelo://app?vid=9d750dcf-388c-45eb-af4c-5da280f7cd1d"},"vehicle_type_id":"4","last_reported":1729275118,"current_range_meters":17200,"station_id":"ce4bgj92rcd13ifvqbe0","pricing_plan_id":"cebpf4jnsgd1na2vs0mg"},{"bike_id":"66b215a1-3c50-4a60-b3f4-ed6ba971a2ae","system_id":"levelo_inurba_marseille","lat":43.29578,"lon":5.36745,"is_reserved":false,"is_disabled":false,"rental_uris":{"android":"levelo://app?vid=66b215a1-3c50-4a60-b3f4-ed6ba971a2ae","ios":"levelo://app?vid=66b215a1-3c50-4a60-b3f4-ed6ba971a2ae"},"vehicle_type_id":"4","last_reported":1729275118,"current_range_meters":6400,"station_id":"ce4bgph2rcd13ifvqc2g","pricing_plan_id":"cebpf4jnsgd1na2vs0mg"},{"bike_id":"bfd457f9-5ae5-42ec-95dc-482e668e3385","system_id":"levelo_inurba_marseille","lat":43.32289,"lon":5.3828,"is_reserved":false,"is_disabled":false,"rental_uris":{"android":"levelo://app?vid=bfd457f9-5ae5-42ec-95dc-482e668e3385","ios":"levelo://app?vid=bfd457f9-5ae5-42ec-95dc-482e668e3385"},"vehicle_type_id":"4","last_reported":1729275118,"current_range_meters":37600,"station_id":"ce4bhr12rcd13ifvqhqg","pricing_plan_id":"cebpf4jnsgd1na2vs0mg"},{"bike_id":"be6829e4-0c15-4307-9615-22a486ed0ef0","system_id":"levelo_inurba_marseille","lat":43.33024,"lon":5.39041,"is_reserved":false,"is_disabled":false,"rental_uris":{"android":"levelo://app?vid=be6829e4-0c15-4307-9615-22a486ed0ef0","ios":"levelo://app?vid=be6829e4-0c15-4307-9615-22a486ed0ef0"},"vehicle_type_id":"4","last_reported":1729275118,"current_range_meters":40000,"station_id":"ce4bhr92rcd13ifvqhrg","pricing_plan_id":"cebpf4jnsgd1na2vs0mg"},{"bike_id":"7daa77f2-184b-46d5-9862-c263a570ce39","system_id":"levelo_inurba_marseille","lat":43.26205,"lon":5.37933,"is_reserved":false,"is_disabled":false,"rental_uris":{"android":"levelo://app?vid=7daa77f2-184b-46d5-9862-c263a570ce39","ios":"levelo://app?vid=7daa77f2-184b-46d5-9862-c263a570ce39"},"vehicle_type_id":"4","last_reported":1729275118,"current_range_meters":8400,"station_id":"ce4bhjp2rcd13ifvqg90","pricing_plan_id":"cebpf4jnsgd1na2vs0mg"},{"bike_id":"ebd02eac-6cc5-4413-b022-ab085dda9557","system_id":"levelo_inurba_marseille","lat":43.27373,"lon":5.36261,"is_reserved":false,"is_disabled":false,"rental_uris":{"android":"levelo://app?vid=ebd02eac-6cc5-4413-b022-ab085dda9557","ios":"levelo://app?vid=ebd02eac-6cc5-4413-b022-ab085dda9557"},"vehicle_type_id":"4","last_reported":1729275118,"current_range_meters":18000,"station_id":"ce4bhbh2rcd13ifvqeo0","pricing_plan_id":"cebpf4jnsgd1na2vs0mg"},{"bike_id":"aca6bb82-8e29-4a93-ab4e-f225d51af7c1","system_id":"levelo_inurba_marseille","lat":43.28154,"lon":5.42652,"is_reserved":false,"is_disabled":false,"rental_uris":{"android":"levelo://app?vid=aca6bb82-8e29-4a93-ab4e-f225d51af7c1","ios":"levelo://app?vid=aca6bb82-8e29-4a93-ab4e-f225d51af7c1"},"vehicle_type_id":"4","last_reported":1729275118,"current_range_meters":7200,"station_id":"ce4bhnh2rcd13ifvqgug","pricing_plan_id":"cebpf4jnsgd1na2vs0mg"},{"bike_id":"6fe6dd7a-9aaf-4c62-a2ca-6d51db79ecd4","system_id":"levelo_inurba_marseille","lat":43.28484,"lon":5.38237,"is_reserved":false,"is_disabled":false,"rental_uris":{"android":"levelo://app?vid=6fe6dd7a-9aaf-4c62-a2ca-6d51db79ecd4","ios":"levelo://app?vid=6fe6dd7a-9aaf-4c62-a2ca-6d51db79ecd4"},"vehicle_type_id":"4","last_reported":1729275118,"current_range_meters":16400,"station_id":"ce4bha12rcd13ifvqee0","pricing_plan_id":"cebpf4jnsgd1na2vs0mg"},{"bike_id":"182cbc89-9d26-48e2-983a-eff40ba37806","system_id":"levelo_inurba_marseille","lat":43.29264,"lon":5.4091,"is_reserved":false,"is_disabled":false,"rental_uris":{"android":"levelo://app?vid=182cbc89-9d26-48e2-983a-eff40ba37806","ios":"levelo://app?vid=182cbc89-9d26-48e2-983a-eff40ba37806"},"vehicle_type_id":"4","last_reported":1729275118,"current_range_meters":38000,"station_id":"ce4bh192rcd13ifvqdc0","pricing_plan_id":"cebpf4jnsgd1na2vs0mg"},{"bike_id":"78d0434c-80d3-4433-9f40-01df98c406bf","system_id":"levelo_inurba_marseille","lat":43.24388,"lon":5.37061,"is_reserved":false,"is_disabled":false,"rental_uris":{"android":"levelo://app?vid=78d0434c-80d3-4433-9f40-01df98c406bf","ios":"levelo://app?vid=78d0434c-80d3-4433-9f40-01df98c406bf"},"vehicle_type_id":"4","last_reported":1729275118,"current_range_meters":14800,"station_id":"ce4bhhh2rcd13ifvqfk0","pricing_plan_id":"cebpf4jnsgd1na2vs0mg"},{"bike_id":"d20262c8-4239-4244-8d3e-c29521b401a0","system_id":"levelo_inurba_marseille","lat":43.23964,"lon":5.36644,"is_reserved":false,"is_disabled":false,"rental_uris":{"android":"levelo://app?vid=d20262c8-4239-4244-8d3e-c29521b401a0","ios":"levelo://app?vid=d20262c8-4239-4244-8d3e-c29521b401a0"},"vehicle_type_id":"4","last_reported":1729275118,"current_range_meters":9200,"station_id":"ce4bhi12rcd13ifvqfp0","pricing_plan_id":"cebpf4jnsgd1na2vs0mg"},{"bike_id":"84c7bb65-38e9-460a-9fb2-49eb040efb4e","system_id":"levelo_inurba_marseille","lat":43.29171,"lon":5.37161,"is_reserved":false,"is_disabled":false,"rental_uris":{"android":"levelo://app?vid=84c7bb65-38e9-460a-9fb2-49eb040efb4e","ios":"levelo://app?vid=84c7bb65-38e9-460a-9fb2-49eb040efb4e"},"vehicle_type_id":"4","last_reported":1729275118,"current_range_meters":25200,"station_id":"ce4bha92rcd13ifvqeh0","pricing_plan_id":"cebpf4jnsgd1na2vs0mg"},{"bike_id":"3554387c-0445-44dc-9a24-d6d991d85529","system_id":"levelo_inurba_marseille","lat":43.29802,"lon":5.38116,"is_reserved":false,"is_disabled":false,"rental_uris":{"android":"levelo://app?vid=3554387c-0445-44dc-9a24-d6d991d85529","ios":"levelo://app?vid=3554387c-0445-44dc-9a24-d6d991d85529"},"vehicle_type_id":"4","last_reported":1729275118,"current_range_meters":38800,"station_id":"ce4bgip2rcd13ifvqbb0","pricing_plan_id":"cebpf4jnsgd1na2vs0mg"},{"bike_id":"05604fc7-f0c7-4c27-8e2f-65c3c42ddcc6","system_id":"levelo_inurba_marseille","lat":43.2888,"lon":5.35878,"is_reserved":false,"is_disabled":false,"rental_uris":{"android":"levelo://app?vid=05604fc7-f0c7-4c27-8e2f-65c3c42ddcc6","ios":"levelo://app?vid=05604fc7-f0c7-4c27-8e2f-65c3c42ddcc6"},"vehicle_type_id":"4","last_reported":1729275118,"current_range_meters":23200,"station_id":"ce4bhb12rcd13ifvqem0","pricing_plan_id":"cebpf4jnsgd1na2vs0mg"},{"bike_id":"521095d3-1ac9-4137-a4ab-75ab29905895","system_id":"levelo_inurba_marseille","lat":43.28621,"lon":5.35106,"is_reserved":false,"is_disabled":false,"rental_uris":{"android":"levelo://app?vid=521095d3-1ac9-4137-a4ab-75ab29905895","ios":"levelo://app?vid=521095d3-1ac9-4137-a4ab-75ab29905895"},"vehicle_type_id":"4","last_reported":1729275118,"current_range_meters":38800,"station_id":"ce4bhch2rcd13ifvqeug","pricing_plan_id":"cebpf4jnsgd1na2vs0mg"},{"bike_id":"5232bb66-1c2b-456b-b951-12193a8fa758","system_id":"levelo_inurba_marseille","lat":43.29535,"lon":5.38546,"is_reserved":false,"is_disabled":false,"rental_uris":{"android":"levelo://app?vid=5232bb66-1c2b-456b-b951-12193a8fa758","ios":"levelo://app?vid=5232bb66-1c2b-456b-b951-12193a8fa758"},"vehicle_type_id":"4","last_reported":1729275118,"current_range_meters":27600,"station_id":"ce4bgih2rcd13ifvqba0","pricing_plan_id":"cebpf4jnsgd1na2vs0mg"},{"bike_id":"3b670335-9a30-44de-820b-dde308e94d32","system_id":"levelo_inurba_marseille","lat":43.30805,"lon":5.38165,"is_reserved":false,"is_disabled":false,"rental_uris":{"android":"levelo://app?vid=3b670335-9a30-44de-820b-dde308e94d32","ios":"levelo://app?vid=3b670335-9a30-44de-820b-dde308e94d32"},"vehicle_type_id":"4","last_reported":1729275118,"current_range_meters":6800,"station_id":"ce4bgt12rcd13ifvqce0","pricing_plan_id":"cebpf4jnsgd1na2vs0mg"},{"bike_id":"c68102ae-d6a1-4316-a721-f052524ab24c","system_id":"levelo_inurba_marseille","lat":43.32336,"lon":5.4062,"is_reserved":false,"is_disabled":false,"rental_uris":{"android":"levelo://app?vid=c68102ae-d6a1-4316-a721-f052524ab24c","ios":"levelo://app?vid=c68102ae-d6a1-4316-a721-f052524ab24c"},"vehicle_type_id":"4","last_reported":1729275118,"current_range_meters":8400,"station_id":"ce4bhq92rcd13ifvqhjg","pricing_plan_id":"cebpf4jnsgd1na2vs0mg"},{"bike_id":"b373ef75-ce29-4e64-bb86-d34ca944212f","system_id":"levelo_inurba_marseille","lat":43.28489,"lon":5.38556,"is_reserved":false,"is_disabled":false,"rental_uris":{"android":"levelo://app?vid=b373ef75-ce29-4e64-bb86-d34ca944212f","ios":"levelo://app?vid=b373ef75-ce29-4e64-bb86-d34ca944212f"},"vehicle_type_id":"4","last_reported":1729275118,"current_range_meters":8000,"station_id":"ce4bh8p2rcd13ifvqeb0","pricing_plan_id":"cebpf4jnsgd1na2vs0mg"},{"bike_id":"8d88c93f-5a0f-4b3b-99b3-28abe9b1ee7e","system_id":"levelo_inurba_marseille","lat":43.25489,"lon":5.37647,"is_reserved":false,"is_disabled":false,"rental_uris":{"android":"levelo://app?vid=8d88c93f-5a0f-4b3b-99b3-28abe9b1ee7e","ios":"levelo://app?vid=8d88c93f-5a0f-4b3b-99b3-28abe9b1ee7e"},"vehicle_type_id":"4","last_reported":1729275118,"current_range_meters":5600,"station_id":"ce4bhh12rcd13ifvqff0","pricing_plan_id":"cebpf4jnsgd1na2vs0mg"},{"bike_id":"69c78ed1-854b-47d7-aaa8-26a907aa52ef","system_id":"levelo_inurba_marseille","lat":43.27817,"lon":5.40715,"is_reserved":false,"is_disabled":false,"rental_uris":{"android":"levelo://app?vid=69c78ed1-854b-47d7-aaa8-26a907aa52ef","ios":"levelo://app?vid=69c78ed1-854b-47d7-aaa8-26a907aa52ef"},"vehicle_type_id":"4","last_reported":1729275118,"current_range_meters":27600,"station_id":"ce4bhnh2rcd13ifvqgtg","pricing_plan_id":"cebpf4jnsgd1na2vs0mg"},{"bike_id":"10f0ba71-723f-4ba3-9325-ab05e88bf0f3","system_id":"levelo_inurba_marseille","lat":43.25005,"lon":5.38934,"is_reserved":false,"is_disabled":false,"rental_uris":{"android":"levelo://app?vid=10f0ba71-723f-4ba3-9325-ab05e88bf0f3","ios":"levelo://app?vid=10f0ba71-723f-4ba3-9325-ab05e88bf0f3"},"vehicle_type_id":"4","last_reported":1729275118,"current_range_meters":38000,"station_id":"ce4bhgp2rcd13ifvqfd0","pricing_plan_id":"cebpf4jnsgd1na2vs0mg"},{"bike_id":"2b36feca-355f-4928-9f6c-f90c80d109ff","system_id":"levelo_inurba_marseille","lat":43.28936,"lon":5.36416,"is_reserved":false,"is_disabled":false,"rental_uris":{"android":"levelo://app?vid=2b36feca-355f-4928-9f6c-f90c80d109ff","ios":"levelo://app?vid=2b36feca-355f-4928-9f6c-f90c80d109ff"},"vehicle_type_id":"4","last_reported":1729275118,"current_range_meters":35600,"station_id":"ce4bhc92rcd13ifvqetg","pricing_plan_id":"cebpf4jnsgd1na2vs0mg"},{"bike_id":"1cea25e3-c03d-40c2-9b82-cac6c297a0f9","system_id":"levelo_inurba_marseille","lat":43.23062,"lon":5.35495,"is_reserved":false,"is_disabled":false,"rental_uris":{"android":"levelo://app?vid=1cea25e3-c03d-40c2-9b82-cac6c297a0f9","ios":"levelo://app?vid=1cea25e3-c03d-40c2-9b82-cac6c297a0f9"},"vehicle_type_id":"4","last_reported":1729275118,"current_range_meters":38800,"station_id":"cpo3342slgdg3j2ifvpg","pricing_plan_id":"cebpf4jnsgd1na2vs0mg"},{"bike_id":"dabc28c6-6f91-40ff-89f8-0c532055db1b","system_id":"levelo_inurba_marseille","lat":43.31711,"lon":5.43709,"is_reserved":false,"is_disabled":false,"rental_uris":{"android":"levelo://app?vid=dabc28c6-6f91-40ff-89f8-0c532055db1b","ios":"levelo://app?vid=dabc28c6-6f91-40ff-89f8-0c532055db1b"},"vehicle_type_id":"4","last_reported":1729275118,"current_range_meters":16000,"station_id":"ce4bhp92rcd13ifvqhcg","pricing_plan_id":"cebpf4jnsgd1na2vs0mg"},{"bike_id":"3a044c48-b45f-4602-9d58-22f43f8733c6","system_id":"levelo_inurba_marseille","lat":43.28701,"lon":5.37388,"is_reserved":false,"is_disabled":false,"rental_uris":{"android":"levelo://app?vid=3a044c48-b45f-4602-9d58-22f43f8733c6","ios":"levelo://app?vid=3a044c48-b45f-4602-9d58-22f43f8733c6"},"vehicle_type_id":"4","last_reported":1729275118,"current_range_meters":37600,"station_id":"ce4bh3p2rcd13ifvqdq0","pricing_plan_id":"cebpf4jnsgd1na2vs0mg"},{"bike_id":"d2c91c43-1f46-4794-a62d-c135b6c41210","system_id":"levelo_inurba_marseille","lat":43.3237,"lon":5.38883,"is_reserved":false,"is_disabled":false,"rental_uris":{"android":"levelo://app?vid=d2c91c43-1f46-4794-a62d-c135b6c41210","ios":"levelo://app?vid=d2c91c43-1f46-4794-a62d-c135b6c41210"},"vehicle_type_id":"4","last_reported":1729275118,"current_range_meters":5600,"station_id":"ce4bhqp2rcd13ifvqhog","pricing_plan_id":"cebpf4jnsgd1na2vs0mg"},{"bike_id":"61898816-74b3-472a-953f-9106df2aaa4a","system_id":"levelo_inurba_marseille","lat":43.2926,"lon":5.4091,"is_reserved":false,"is_disabled":false,"rental_uris":{"android":"levelo://app?vid=61898816-74b3-472a-953f-9106df2aaa4a","ios":"levelo://app?vid=61898816-74b3-472a-953f-9106df2aaa4a"},"vehicle_type_id":"4","last_reported":1729275118,"current_range_meters":9600,"station_id":"ce4bh192rcd13ifvqdc0","pricing_plan_id":"cebpf4jnsgd1na2vs0mg"},{"bike_id":"d8de94a5-e751-4afa-96a7-ba4acf870ca6","system_id":"levelo_inurba_marseille","lat":43.33022,"lon":5.39036,"is_reserved":false,"is_disabled":false,"rental_uris":{"android":"levelo://app?vid=d8de94a5-e751-4afa-96a7-ba4acf870ca6","ios":"levelo://app?vid=d8de94a5-e751-4afa-96a7-ba4acf870ca6"},"vehicle_type_id":"4","last_reported":1729275118,"current_range_meters":14800,"station_id":"ce4bhr92rcd13ifvqhrg","pricing_plan_id":"cebpf4jnsgd1na2vs0mg"},{"bike_id":"7cf52ff0-478c-46e2-940e-6842be0d4e38","system_id":"levelo_inurba_marseille","lat":43.24165,"lon":5.364,"is_reserved":false,"is_disabled":false,"rental_uris":{"android":"levelo://app?vid=7cf52ff0-478c-46e2-940e-6842be0d4e38","ios":"levelo://app?vid=7cf52ff0-478c-46e2-940e-6842be0d4e38"},"vehicle_type_id":"4","last_reported":1729275118,"current_range_meters":8000,"station_id":"cpo36qri1sfpv3e86is0","pricing_plan_id":"cebpf4jnsgd1na2vs0mg"},{"bike_id":"81905699-4eba-4e10-bac7-985d4d74f5cb","system_id":"levelo_inurba_marseille","lat":43.29908,"lon":5.3814,"is_reserved":false,"is_disabled":false,"rental_uris":{"android":"levelo://app?vid=81905699-4eba-4e10-bac7-985d4d74f5cb","ios":"levelo://app?vid=81905699-4eba-4e10-bac7-985d4d74f5cb"},"vehicle_type_id":"4","last_reported":1729275118,"current_range_meters":12400,"station_id":"ce4bgj12rcd13ifvqbc0","pricing_plan_id":"cebpf4jnsgd1na2vs0mg"},{"bike_id":"f1fc8ce3-2814-42ad-98de-73e953d24019","system_id":"levelo_inurba_marseille","lat":43.313688,"lon":5.384809,"is_reserved":false,"is_disabled":false,"rental_uris":{"android":"levelo://app?vid=f1fc8ce3-2814-42ad-98de-73e953d24019","ios":"levelo://app?vid=f1fc8ce3-2814-42ad-98de-73e953d24019"},"vehicle_type_id":"4","last_reported":1729275118,"current_range_meters":37600,"station_id":"ce4bgt92rcd13ifvqcf0","pricing_plan_id":"cebpf4jnsgd1na2vs0mg"},{"bike_id":"a1e0278e-920e-4eea-a381-891331e8e403","system_id":"levelo_inurba_marseille","lat":43.23198,"lon":5.35547,"is_reserved":false,"is_disabled":false,"rental_uris":{"android":"levelo://app?vid=a1e0278e-920e-4eea-a381-891331e8e403","ios":"levelo://app?vid=a1e0278e-920e-4eea-a381-891331e8e403"},"vehicle_type_id":"4","last_reported":1729275118,"current_range_meters":26000,"station_id":"ce4bhu92rcd13ifvqi70","pricing_plan_id":"cebpf4jnsgd1na2vs0mg"},{"bike_id":"710f4ed7-6f54-41b7-a575-0edd7bf270fe","system_id":"levelo_inurba_marseille","lat":43.29886,"lon":5.38913,"is_reserved":false,"is_disabled":false,"rental_uris":{"android":"levelo://app?vid=710f4ed7-6f54-41b7-a575-0edd7bf270fe","ios":"levelo://app?vid=710f4ed7-6f54-41b7-a575-0edd7bf270fe"},"vehicle_type_id":"4","last_reported":1729275118,"current_range_meters":16400,"station_id":"ce4bh392rcd13ifvqdl0","pricing_plan_id":"cebpf4jnsgd1na2vs0mg"},