{"last_updated":1733224121,"ttl":60,"version":"2.2","data":{"bikes":[{"bike_id":"c6fcab72-3b24-4c75-b975-ad816d9a147b","system_id":"levelo_inurba_marseille","lat":43.24072,"lon":5.37751,"is_reserved":false,"is_disabled":true,"rental_uris":{"android":"levelo://app?vid=c6fcab72-3b24-4c75-b975-ad816d9a147b","ios":"levelo://app?vid=c6fcab72-3b24-4c75-b975-ad816d9a147b"},"vehicle_type_id":"4","last_reported":1733224121,"current_range_meters":0,"station_id":"ce4bhnp2rcd13ifvqgvg","pricing_plan_id":"cebpf4jnsgd1na2vs0mg"},{"bike_id":"df479c2c-35ac-44ad-b9d6-81c89ed769ce","system_id":"levelo_inurba_marseille","lat":43.2971,"lon":5.37072,"is_reserved":false,"is_disabled":true,"rental_uris":{"android":"levelo://app?vid=df479c2c-35ac-44ad-b9d6-81c89ed769ce","ios":"levelo://app?vid=df479c2c-35ac-44ad-b9d6-81c89ed769ce"},"vehicle_type_id":"4","last_reported":1733224121,"current_range_meters":0,"station_id":"","pricing_plan_id":"cebpf4jnsgd1na2vs0mg"},{"bike_id":"8e029eaf-e104-4c5d-858d-6cd39de73d09","system_id":"levelo_inurba_marseille","lat":43.24161,"lon":5.36395,"is_reserved":false,"is_disabled":false,"rental_uris":{"android":"levelo://app?vid=8e029eaf-e104-4c5d-858d-6cd39de73d09","ios":"levelo://app?vid=8e029eaf-e104-4c5d-858d-6cd39de73d09"},"vehicle_type_id":"4","last_reported":1733224121,"current_range_meters":15200,"station_id":"cpo36qri1sfpv3e86is0","pricing_plan_id":"cebpf4jnsgd1na2vs0mg"},{"bike_id":"bd8cd1c7-abef-42cd-bb74-c23362a9f370","system_id":"levelo_inurba_marseille","lat":43.29416,"lon":5.38616,"is_reserved":false,"is_disabled":true,"rental_uris":{"android":"levelo://app?vid=bd8cd1c7-abef-42cd-bb74-c23362a9f370","ios":"levelo://app?vid=bd8cd1c7-abef-42cd-bb74-c23362a9f370"},"vehicle_type_id":"4","last_reported":1733224121,"current_range_meters":17200,"station_id":"ce4bh2h2rcd13ifvqdh0","pricing_plan_id":"cebpf4jnsgd1na2vs0mg"},{"bike_id":"fd85f247-bc9f-4512-8957-89e7641ccdee","system_id":"levelo_inurba_marseille","lat":43.32478,"lon":5.36561,"is_reserved":false,"is_disabled":false,"rental_uris":{"android":"levelo://app?vid=fd85f247-bc9f-4512-8957-89e7641ccdee","ios":"levelo://app?vid=fd85f247-bc9f-4512-8957-89e7641ccdee"},"vehicle_type_id":"4","last_reported":1733224121,"current_range_meters":38800,"station_id":"ce4bhs12rcd13ifvqhvg","pricing_plan_id":"cebpf4jnsgd1na2vs0mg"},{"bike_id":"3d4f3e6d-e673-4ae5-9630-cf4eb59955a3","system_id":"levelo_inurba_marseille","lat":43.26947,"lon":5.38637,"is_reserved":false,"is_disabled":false,"rental_uris":{"android":"levelo://app?vid=3d4f3e6d-e673-4ae5-9630-cf4eb59955a3","ios":"levelo://app?vid=3d4f3e6d-e673-4ae5-9630-cf4eb59955a3"},"vehicle_type_id":"4","last_reported":1733224121,"current_range_meters":32000,"station_id":"ce4bhh92rcd13ifvqfh0","pricing_plan_id":"cebpf4jnsgd1na2vs0mg"},{"bike_id":"12652c73-7b25-4805-92ca-4c9bb1159096","system_id":"levelo_inurba_marseille","lat":43.27607,"lon":5.36108,"is_reserved":false,"is_disabled":true,"rental_uris":{"android":"levelo://app?vid=12652c73-7b25-4805-92ca-4c9bb1159096","ios":"levelo://app?vid=12652c73-7b25-4805-92ca-4c9bb1159096"},"vehicle_type_id":"4","last_reported":1733224121,"current_range_meters":38400,"station_id":"ce4bgj92rcd13ifvqbe0","pricing_plan_id":"cebpf4jnsgd1na2vs0mg"},{"bike_id":"4c49a6ec-87f1-469b-b46c-51fa3d37c9d3","system_id":"levelo_inurba_marseille","lat":43.31592,"lon":5.38132,"is_reserved":false,"is_disabled":false,"rental_uris":{"android":"levelo://app?vid=4c49a6ec-87f1-469b-b46c-51fa3d37c9d3","ios":"levelo://app?vid=4c49a6ec-87f1-469b-b46c-51fa3d37c9d3"},"vehicle_type_id":"4","last_reported":1733224121,"current_range_meters":38800,"station_id":"","pricing_plan_id":"cebpf4jnsgd1na2vs0mg"},{"bike_id":"95100176-7ead-4230-932c-4b0bbddddb86","system_id":"levelo_inurba_marseille","lat":43.32474,"lon":5.36568,"is_reserved":false,"is_disabled":false,"rental_uris":{"android":"levelo://app?vid=95100176-7ead-4230-932c-4b0bbddddb86","ios":"levelo://app?vid=95100176-7ead-4230-932c-4b0bbddddb86"},"vehicle_type_id":"4","last_reported":1733224121,"current_range_meters":38800,"station_id":"ce4bhs12rcd13ifvqhvg","pricing_plan_id":"cebpf4jnsgd1na2vs0mg"},{"bike_id":"02f5618e-66bf-4911-a327-d72d361f58c9","system_id":"levelo_inurba_marseille","lat":43.30177,"lon":5.36595,"is_reserved":false,"is_disabled":false,"rental_uris":{"android":"levelo://app?vid=02f5618e-66bf-4911-a327-d72d361f58c9","ios":"levelo://app?vid=02f5618e-66bf-4911-a327-d72d361f58c9"},"vehicle_type_id":"4","last_reported":1733224121,"current_range_meters":38800,"station_id":"ce4bgrh2rcd13ifvqc8g","pricing_plan_id":"cebpf4jnsgd1na2vs0mg"},{"bike_id":"4275e397-7806-4286-b041-ffffdf5e8e33","system_id":"levelo_inurba_marseille","lat":43.26762,"lon":5.39438,"is_reserved":false,"is_disabled":false,"rental_uris":{"android":"levelo://app?vid=4275e397-7806-4286-b041-ffffdf5e8e33","ios":"levelo://app?vid=4275e397-7806-4286-b041-ffffdf5e8e33"},"vehicle_type_id":"4","last_reported":1733224121,"current_range_meters":14800,"station_id":"ce4bhh12rcd13ifvqfg0","pricing_plan_id":"cebpf4jnsgd1na2vs0mg"},{"bike_id":"72d82672-27ab-4a69-bad2-ccfdac5748ff","system_id":"levelo_inurba_marseille","lat":43.3014,"lon":5.39844,"is_reserved":false,"is_disabled":false,"rental_uris":{"android":"levelo://app?vid=72d82672-27ab-4a69-bad2-ccfdac5748ff","ios":"levelo://app?vid=72d82672-27ab-4a69-bad2-ccfdac5748ff"},"vehicle_type_id":"4","last_reported":1733224121,"current_range_meters":24400,"station_id":"ce4bh0h2rcd13ifvqd40","pricing_plan_id":"cebpf4jnsgd1na2vs0mg"},{"bike_id":"8bd642b2-0279-44c7-9ee2-fc3b57332c83","system_id":"levelo_inurba_marseille","lat":43.27455,"lon":5.40073,"is_reserved":false,"is_disabled":true,"rental_uris":{"android":"levelo://app?vid=8bd642b2-0279-44c7-9ee2-fc3b57332c83","ios":"levelo://app?vid=8bd642b2-0279-44c7-9ee2-fc3b57332c83"},"vehicle_type_id":"4","last_reported":1733224121,"current_range_meters":0,"station_id":"","pricing_plan_id":"cebpf4jnsgd1na2vs0mg"},{"bike_id":"064c8e73-5ef5-4b74-842e-0780666962fc","system_id":"levelo_inurba_marseille","lat":43.33599,"lon":5.41031,"is_reserved":false,"is_disabled":false,"rental_uris":{"android":"levelo://app?vid=064c8e73-5ef5-4b74-842e-0780666962fc","ios":"levelo://app?vid=064c8e73-5ef5-4b74-842e-0780666962fc"},"vehicle_type_id":"4","last_reported":1733224121,"current_range_meters":24000,"station_id":"ce4bhqh2rcd13ifvqhmg","pricing_plan_id":"cebpf4jnsgd1na2vs0mg"},{"bike_id":"f4cc507a-ccac-409f-bfee-46a316df316f","system_id":"levelo_inurba_marseille","lat":43.29267,"lon":5.36843,"is_reserved":false,"is_disabled":false,"rental_uris":{"android":"levelo://app?vid=f4cc507a-ccac-409f-bfee-46a316df316f","ios":"levelo://app?vid=f4cc507a-ccac-409f-bfee-46a316df316f"},"vehicle_type_id":"4","last_reported":1733224121,"current_range_meters":21600,"station_id":"ce4bhbp2rcd13ifvqesg","pricing_plan_id":"cebpf4jnsgd1na2vs0mg"},{"bike_id":"6fbc2816-a0f9-48a3-bb75-5053a9cf04da","system_id":"levelo_inurba_marseille","lat":43.29268,"lon":5.36847,"is_reserved":false,"is_disabled":false,"rental_uris":{"android":"levelo://app?vid=6fbc2816-a0f9-48a3-bb75-5053a9cf04da","ios":"levelo://app?vid=6fbc2816-a0f9-48a3-bb75-5053a9cf04da"},"vehicle_type_id":"4","last_reported":1733224121,"current_range_meters":9200,"station_id":"ce4bhbp2rcd13ifvqesg","pricing_plan_id":"cebpf4jnsgd1na2vs0mg"},{"bike_id":"c0bec7ea-31af-49de-8a97-a7d6bf5d8bb8","system_id":"levelo_inurba_marseille","lat":43.29053,"lon":5.35906,"is_reserved":false,"is_disabled":true,"rental_uris":{"android":"levelo://app?vid=c0bec7ea-31af-49de-8a97-a7d6bf5d8bb8","ios":"levelo://app?vid=c0bec7ea-31af-49de-8a97-a7d6bf5d8bb8"},"vehicle_type_id":"4","last_reported":1733224121,"current_range_meters":38800,"station_id":"ce4bha92rcd13ifvqeg0","pricing_plan_id":"cebpf4jnsgd1na2vs0mg"},{"bike_id":"5945b40e-6cb4-4d47-a5ed-db0cdcd2a556","system_id":"levelo_inurba_marseille","lat":43.25934,"lon":5.40905,"is_reserved":false,"is_disabled":false,"rental_uris":{"android":"levelo://app?vid=5945b40e-6cb4-4d47-a5ed-db0cdcd2a556","ios":"levelo://app?vid=5945b40e-6cb4-4d47-a5ed-db0cdcd2a556"},"vehicle_type_id":"4","last_reported":1733224121,"current_range_meters":26000,"station_id":"ce4bhm92rcd13ifvqglg","pricing_plan_id":"cebpf4jnsgd1na2vs0mg"},{"bike_id":"b3f478ac-3b05-4edf-bdbf-76399090f8e9","system_id":"levelo_inurba_marseille","lat":43.29994,"lon":5.37639,"is_reserved":false,"is_disabled":true,"rental_uris":{"android":"levelo://app?vid=b3f478ac-3b05-4edf-bdbf-76399090f8e9","ios":"levelo://app?vid=b3f478ac-3b05-4edf-bdbf-76399090f8e9"},"vehicle_type_id":"4","last_reported":1733224121,"current_range_meters":0,"station_id":"","pricing_plan_id":"cebpf4jnsgd1na2vs0mg"},{"bike_id":"c3587c28-5435-41c6-a9b7-aa468e6b19aa","system_id":"levelo_inurba_marseille","lat":43.29746,"lon":5.37916,"is_reserved":false,"is_disabled":true,"rental_uris":{"android":"levelo://app?vid=c3587c28-5435-41c6-a9b7-aa468e6b19aa","ios":"levelo://app?vid=c3587c28-5435-41c6-a9b7-aa468e6b19aa"},"vehicle_type_id":"4","last_reported":1733224121,"current_range_meters":0,"station_id":"","pricing_plan_id":"cebpf4jnsgd1na2vs0mg"},{"bike_id":"48f332bb-6754-4de3-9cd5-dcaed7e2ed45","system_id":"levelo_inurba_marseille","lat":43.32106,"lon":5.36764,"is_reserved":false,"is_disabled":false,"rental_uris":{"android":"levelo://app?vid=48f332bb-6754-4de3-9cd5-dcaed7e2ed45","ios":"levelo://app?vid=48f332bb-6754-4de3-9cd5-dcaed7e2ed45"},"vehicle_type_id":"4","last_reported":1733224121,"current_range_meters":30400,"station_id":"ce4bhrh2rcd13ifvqhug","pricing_plan_id":"cebpf4jnsgd1na2vs0mg"},{"bike_id":"e8d9fcd3-6c4c-4c2e-a87e-41c5e4dfa6d0","system_id":"levelo_inurba_marseille","lat":43.25438,"lon":5.38158,"is_reserved":false,"is_disabled":true,"rental_uris":{"android":"levelo://app?vid=e8d9fcd3-6c4c-4c2e-a87e-41c5e4dfa6d0","ios":"levelo://app?vid=e8d9fcd3-6c4c-4c2e-a87e-41c5e4dfa6d0"},"vehicle_type_id":"4","last_reported":1733224121,"current_range_meters":0,"station_id":"","pricing_plan_id":"cebpf4jnsgd1na2vs0mg"},{"bike_id":"e7c2b082-ef91-42b1-9ef0-9e4329cee9cb","system_id":"levelo_inurba_marseille","lat":43.29871,"lon":5.40365,"is_reserved":false,"is_disabled":true,"rental_uris":{"android":"levelo://app?vid=e7c2b082-ef91-42b1-9ef0-9e4329cee9cb","ios":"levelo://app?vid=e7c2b082-ef91-42b1-9ef0-9e4329cee9cb"},"vehicle_type_id":"4","last_reported":1733224121,"current_range_meters":0,"station_id":"","pricing_plan_id":"cebpf4jnsgd1na2vs0mg"},{"bike_id":"4673f8d8-8295-437d-8f1d-a884bed9d1e4","system_id":"levelo_inurba_marseille","lat":43.23145,"lon":5.43721,"is_reserved":false,"is_disabled":false,"rental_uris":{"android":"levelo://app?vid=4673f8d8-8295-437d-8f1d-a884bed9d1e4","ios":"levelo://app?vid=4673f8d8-8295-437d-8f1d-a884bed9d1e4"},"vehicle_type_id":"4","last_reported":1733224121,"current_range_meters":38800,"station_id":"ce4bhmp2rcd13ifvqgog","pricing_plan_id":"cebpf4jnsgd1na2vs0mg"},{"bike_id":"525e387d-f53d-4c13-8e33-a48ec09c1aef","system_id":"levelo_inurba_marseille","lat":43.30548,"lon":5.36529,"is_reserved":false,"is_disabled":true,"rental_uris":{"android":"levelo://app?vid=525e387d-f53d-4c13-8e33-a48ec09c1aef","ios":"levelo://app?vid=525e387d-f53d-4c13-8e33-a48ec09c1aef"},"vehicle_type_id":"4","last_reported":1733224121,"current_range_meters":28000,"station_id":"ce4bgs12rcd13ifvqcag","pricing_plan_id":"cebpf4jnsgd1na2vs0mg"},{"bike_id":"c8434105-f78e-4aab-af16-9f7de171fa08","system_id":"levelo_inurba_marseille","lat":43.32476,"lon":5.36568,"is_reserved":false,"is_disabled":false,"rental_uris":{"android":"levelo://app?vid=c8434105-f78e-4aab-af16-9f7de171fa08","ios":"levelo://app?vid=c8434105-f78e-4aab-af16-9f7de171fa08"},"vehicle_type_id":"4","last_reported":1733224121,"current_range_meters":35200,"station_id":"ce4bhs12rcd13ifvqhvg","pricing_plan_id":"cebpf4jnsgd1na2vs0mg"},{"bike_id":"96693db7-b597-448a-8bfe-613a90735916","system_id":"levelo_inurba_marseille","lat":43.27992,"lon":5.40023,"is_reserved":false,"is_disabled":false,"rental_uris":{"android":"levelo://app?vid=96693db7-b597-448a-8bfe-613a90735916","ios":"levelo://app?vid=96693db7-b597-448a-8bfe-613a90735916"},"vehicle_type_id":"4","last_reported":1733224121,"current_range_meters":38800,"station_id":"ce4bho92rcd13ifvqh4g","pricing_plan_id":"cebpf4jnsgd1na2vs0mg"},{"bike_id":"914d6fc8-50a4-4706-8f5e-cae1eb5da90f","system_id":"levelo_inurba_marseille","lat":43.26499,"lon":5.39539,"is_reserved":false,"is_disabled":false,"rental_uris":{"android":"levelo://app?vid=914d6fc8-50a4-4706-8f5e-cae1eb5da90f","ios":"levelo://app?vid=914d6fc8-50a4-4706-8f5e-cae1eb5da90f"},"vehicle_type_id":"4","last_reported":1733224121,"current_range_meters":35600,"station_id":"ce4bhi12rcd13ifvqfq0","pricing_plan_id":"cebpf4jnsgd1na2vs0mg"},{"bike_id":"7f9f3d2e-2c33-4e9f-af7d-e28e797af1e6","system_id":"levelo_inurba_marseille","lat":43.28154,"lon":5.42643,"is_reserved":false,"is_disabled":false,"rental_uris":{"android":"levelo://app?vid=7f9f3d2e-2c33-4e9f-af7d-e28e797af1e6","ios":"levelo://app?vid=7f9f3d2e-2c33-4e9f-af7d-e28e797af1e6"},"vehicle_type_id":"4","last_reported":1733224121,"current_range_meters":38800,"station_id":"ce4bhnh2rcd13ifvqgug","pricing_plan_id":"cebpf4jnsgd1na2vs0mg"},{"bike_id":"efe5d764-0d05-41d9-8f6d-3a36a7b591e2","system_id":"levelo_inurba_marseille","lat":43.27992,"lon":5.41665,"is_reserved":false,"is_disabled":false,"rental_uris":{"android":"levelo://app?vid=efe5d764-0d05-41d9-8f6d-3a36a7b591e2","ios":"levelo://app?vid=efe5d764-0d05-41d9-8f6d-3a36a7b591e2"},"vehicle_type_id":"4","last_reported":1733224121,"current_range_meters":9600,"station_id":"ce4bho12rcd13ifvqh1g","pricing_plan_id":"cebpf4jnsgd1na2vs0mg"},{"bike_id":"460edbbc-7a55-43f3-bf55-b9fec7ea3a39","system_id":"levelo_inurba_marseille","lat":43.31322,"lon":5.36647,"is_reserved":false,"is_disabled":false,"rental_uris":{"android":"levelo://app?vid=460edbbc-7a55-43f3-bf55-b9fec7ea3a39","ios":"levelo://app?vid=460edbbc-7a55-43f3-bf55-b9fec7ea3a39"},"vehicle_type_id":"4","last_reported":1733224121,"current_range_meters":8000,"station_id":"","pricing_plan_id":"cebpf4jnsgd1na2vs0mg"},{"bike_id":"16bea42d-3248-41fd-8b51-39fb3d7ec2c4","system_id":"levelo_inurba_marseille","lat":43.264708,"lon":5.38519,"is_reserved":false,"is_disabled":true,"rental_uris":{"android":"levelo://app?vid=16bea42d-3248-41fd-8b51-39fb3d7ec2c4","ios":"levelo://app?vid=16bea42d-3248-41fd-8b51-39fb3d7ec2c4"},"vehicle_type_id":"4","last_reported":1733224121,"current_range_meters":0,"station_id":"","pricing_plan_id":"cebpf4jnsgd1na2vs0mg"},{"bike_id":"2b54ddc5-0583-4fc9-accb-0a4c7f0b096a","system_id":"levelo_inurba_marseille","lat":43.26678,"lon":5.38265,"is_reserved":false,"is_disabled":false,"rental_uris":{"android":"levelo://app?vid=2b54ddc5-0583-4fc9-accb-0a4c7f0b096a","ios":"levelo://app?vid=2b54ddc5-0583-4fc9-accb-0a4c7f0b096a"},"vehicle_type_id":"4","last_reported":1733224121,"current_range_meters":26000,"station_id":"ce4bhg92rcd13ifvqf90","pricing_plan_id":"cebpf4jnsgd1na2vs0mg"},{"bike_id":"eaa73896-04a8-4ef6-a4c7-4d4e56920b82","system_id":"levelo_inurba_marseille","lat":43.29297,"lon":5.37434,"is_reserved":false,"is_disabled":true,"rental_uris":{"android":"levelo://app?vid=eaa73896-04a8-4ef6-a4c7-4d4e56920b82","ios":"levelo://app?vid=eaa73896-04a8-4ef6-a4c7-4d4e56920b82"},"vehicle_type_id":"4","last_reported":1733224121,"current_range_meters":0,"station_id":"ce4bgi12rcd13ifvqb70","pricing_plan_id":"cebpf4jnsgd1na2vs0mg"},{"bike_id":"cf86f935-67f3-4a8a-b39a-6aa31b7507fb","system_id":"levelo_inurba_marseille","lat":43.28361,"lon":5.3864,"is_reserved":false,"is_disabled":true,"rental_uris":{"android":"levelo://app?vid=cf86f935-67f3-4a8a-b39a-6aa31b7507fb","ios":"levelo://app?vid=cf86f935-67f3-4a8a-b39a-6aa31b7507fb"},"vehicle_type_id":"4","last_reported":1733224121,"current_range_meters":0,"station_id":"ce4bh492rcd13ifvqdvg","pricing_plan_id":"cebpf4jnsgd1na2vs0mg"},{"bike_id":"f343a832-b6b0-4a03-b073-92a5c4223d7e","system_id":"levelo_inurba_marseille","lat":43.31359,"lon":5.36718,"is_reserved":false,"is_disabled":false,"rental_uris":{"android":"levelo://app?vid=f343a832-b6b0-4a03-b073-92a5c4223d7e","ios":"levelo://app?vid=f343a832-b6b0-4a03-b073-92a5c4223d7e"},"vehicle_type_id":"4","last_reported":1733224121,"current_range_meters":32400,"station_id":"ce4bgr92rcd13ifvqc6g","pricing_plan_id":"cebpf4jnsgd1na2vs0mg"},{"bike_id":"f6cc9804-8427-412d-b1e6-763226da6ed7","system_id":"levelo_inurba_marseille","lat":43.31272,"lon":5.40166,"is_reserved":false,"is_disabled":false,"rental_uris":{"android":"levelo://app?vid=f6cc9804-8427-412d-b1e6-763226da6ed7","ios":"levelo://app?vid=f6cc9804-8427-412d-b1e6-763226da6ed7"},"vehicle_type_id":"4","last_reported":1733224121,"current_range_meters":9200,"station_id":"ce4bh092rcd13ifvqd30","pricing_plan_id":"cebpf4jnsgd1na2vs0mg"},{"bike_id":"5a6f4c46-bc48-45c1-b254-8ffa8cdcb701","system_id":"levelo_inurba_marseille","lat":43.28466,"lon":5.35885,"is_reserved":false,"is_disabled":true,"rental_uris":{"android":"levelo://app?vid=5a6f4c46-bc48-45c1-b254-8ffa8cdcb701","ios":"levelo://app?vid=5a6f4c46-bc48-45c1-b254-8ffa8cdcb701"},"vehicle_type_id":"4","last_reported":1733224121,"current_range_meters":0,"station_id":"ce4bhah2rcd13ifvqei0","pricing_plan_id":"cebpf4jnsgd1na2vs0mg"},{"bike_id":"0b8c7482-32d6-497d-ab60-f5feca8bfdb9","system_id":"levelo_inurba_marseille","lat":43.24647,"lon":5.3889,"is_reserved":false,"is_disabled":false,"rental_uris":{"android":"levelo://app?vid=0b8c7482-32d6-497d-ab60-f5feca8bfdb9","ios":"levelo://app?vid=0b8c7482-32d6-497d-ab60-f5feca8bfdb9"},"vehicle_type_id":"4","last_reported":1733224121,"current_range_meters":38400,"station_id":"ce4bhg12rcd13ifvqf60","pricing_plan_id":"cebpf4jnsgd1na2vs0mg"},{"bike_id":"ae2af24a-7f9d-4de2-8b24-928afa220c1b","system_id":"levelo_inurba_marseille","lat":43.2988,"lon":5.39736,"is_reserved":false,"is_disabled":false,"rental_uris":{"android":"levelo://app?vid=ae2af24a-7f9d-4de2-8b24-928afa220c1b","ios":"levelo://app?vid=ae2af24a-7f9d-4de2-8b24-928afa220c1b"},"vehicle_type_id":"4","last_reported":1733224121,"current_range_meters":28800,"station_id":"ce4bh0h2rcd13ifvqd50","pricing_plan_id":"cebpf4jnsgd1na2vs0mg"},{"bike_id":"54ff9978-0b66-401d-973f-864022d4eec0","system_id":"levelo_inurba_marseille","lat":43.33025,"lon":5.39035,"is_reserved":false,"is_disabled":false,"rental_uris":{"android":"levelo://app?vid=54ff9978-0b66-401d-973f-864022d4eec0","ios":"levelo://app?vid=54ff9978-0b66-401d-973f-864022d4eec0"},"vehicle_type_id":"4","last_reported":1733224121,"current_range_meters":38800,"station_id":"ce4bhr92rcd13ifvqhrg","pricing_plan_id":"cebpf4jnsgd1na2vs0mg"},{"bike_id":"6f16abf2-2806-4c82-b31e-c4cb4fa13cf0","system_id":"levelo_inurba_marseille","lat":43.28042,"lon":5.36945,"is_reserved":false,"is_disabled":false,"rental_uris":{"android":"levelo://app?vid=6f16abf2-2806-4c82-b31e-c4cb4fa13cf0","ios":"levelo://app?vid=6f16abf2-2806-4c82-b31e-c4cb4fa13cf0"},"vehicle_type_id":"4","last_reported":1733224121,"current_range_meters":15200,"station_id":"ce4bha12rcd13ifvqef0","pricing_plan_id":"cebpf4jnsgd1na2vs0mg"},{"bike_id":"8a44faba-a7bd-47f9-a430-f9c718142c22","system_id":"levelo_inurba_marseille","lat":43.30535,"lon":5.36692,"is_reserved":false,"is_disabled":false,"rental_uris":{"android":"levelo://app?vid=8a44faba-a7bd-47f9-a430-f9c718142c22","ios":"levelo://app?vid=8a44faba-a7bd-47f9-a430-f9c718142c22"},"vehicle_type_id":"4","last_reported":1733224121,"current_range_meters":38800,"station_id":"ce4bgrp2rcd13ifvqc9g","pricing_plan_id":"cebpf4jnsgd1na2vs0mg"},{"bike_id":"7932e894-60e4-4259-ad2b-e25a6bbb7ae7","system_id":"levelo_inurba_marseille","lat":43.28415,"lon":5.37522,"is_reserved":false,"is_disabled":true,"rental_uris":{"android":"levelo://app?vid=7932e894-60e4-4259-ad2b-e25a6bbb7ae7","ios":"levelo://app?vid=7932e894-60e4-4259-ad2b-e25a6bbb7ae7"},"vehicle_type_id":"4","last_reported":1733224121,"current_range_meters":24400,"station_id":"ce4bh412rcd13ifvqds0","pricing_plan_id":"cebpf4jnsgd1na2vs0mg"},{"bike_id":"f4ffb03a-ccc8-44c2-8e42-9eea35a61a49","system_id":"levelo_inurba_marseille","lat":43.29521,"lon":5.39039,"is_reserved":false,"is_disabled":true,"rental_uris":{"android":"levelo://app?vid=f4ffb03a-ccc8-44c2-8e42-9eea35a61a49","ios":"levelo://app?vid=f4ffb03a-ccc8-44c2-8e42-9eea35a61a49"},"vehicle_type_id":"4","last_reported":1733224121,"current_range_meters":35200,"station_id":"ce4bh3p2rcd13ifvqdp0","pricing_plan_id":"cebpf4jnsgd1na2vs0mg"},{"bike_id":"763a15e5-5c0c-4db3-84a6-87cc9fff8ea4","system_id":"levelo_inurba_marseille","lat":43.27979,"lon":5.442207,"is_reserved":false,"is_disabled":false,"rental_uris":{"android":"levelo://app?vid=763a15e5-5c0c-4db3-84a6-87cc9fff8ea4","ios":"levelo://app?vid=763a15e5-5c0c-4db3-84a6-87cc9fff8ea4"},"vehicle_type_id":"4","last_reported":1733224121,"current_range_meters":18000,"station_id":"","pricing_plan_id":"cebpf4jnsgd1na2vs0mg"},{"bike_id":"20597529-c5b4-4b06-8e49-bd0c0851632d","system_id":"levelo_inurba_marseille","lat":43.30959,"lon":5.39027,"is_reserved":false,"is_disabled":true,"rental_uris":{"android":"levelo://app?vid=20597529-c5b4-4b06-8e49-bd0c0851632d","ios":"levelo://app?vid=20597529-c5b4-4b06-8e49-bd0c0851632d"},"vehicle_type_id":"4","last_reported":1733224121,"current_range_meters":0,"station_id":"ce4bgup2rcd13ifvqco0","pricing_plan_id":"cebpf4jnsgd1na2vs0mg"},{"bike_id":"7ee85e63-b358-4c35-8a92-744a4598bf0e","system_id":"levelo_inurba_marseille","lat":43.24995,"lon":5.38929,"is_reserved":false,"is_disabled":false,"rental_uris":{"android":"levelo://app?vid=7ee85e63-b358-4c35-8a92-744a4598bf0e","ios":"levelo://app?vid=7ee85e63-b358-4c35-8a92-744a4598bf0e"},"vehicle_type_id":"4","last_reported":1733224121,"current_range_meters":28400,"station_id":"ce4bhgp2rcd13ifvqfd0","pricing_plan_id":"cebpf4jnsgd1na2vs0mg"},{"bike_id":"90c1965f-3375-4b66-9a38-3f2b5e631bb2","system_id":"levelo_inurba_marseille","lat":43.26944,"lon":5.40254,"is_reserved":false,"is_disabled":false,"rental_uris":{"android":"levelo://app?vid=90c1965f-3375-4b66-9a38-3f2b5e631bb2","ios":"levelo://app?vid=90c1965f-3375-4b66-9a38-3f2b5e631bb2"},"vehicle_type_id":"4","last_reported":1733224121,"current_range_meters":38800,"station_id":"cjm6bp8fraef2m0cb0m0","pricing_plan_id":"cebpf4jnsgd1na2vs0mg"},{"bike_id":"45ff3798-a743-4ffc-962c-fbce8ce4e073","system_id":"levelo_inurba_marseille","lat":43.23152,"lon":5.43713,"is_reserved":false,"is_disabled":false,"rental_uris":{"android":"levelo://app?vid=45ff3798-a743-4ffc-962c-fbce8ce4e073","ios":"levelo://app?vid=45ff3798-a743-4ffc-962c-fbce8ce4e073"},"vehicle_type_id":"4","last_reported":1733224121,"current_range_meters":12400,"station_id":"ce4bhmp2rcd13ifvqgog","pricing_plan_id":"cebpf4jnsgd1na2vs0mg"},{"bike_id":"b6bf0fc6-e8dd-4244-b189-4fd4fe6327fb","system_id":"levelo_inurba_marseille","lat":43.30547,"lon":5.36519,"is_reserved":false,"is_disabled":false,"rental_uris":{"android":"levelo://app?vid=b6bf0fc6-e8dd-4244-b189-4fd4fe6327fb","ios":"levelo://app?vid=b6bf0fc6-e8dd-4244-b189-4fd4fe6327fb"},"vehicle_type_id":"4","last_reported":1733224121,"current_range_meters":38800,"station_id":"ce4bgs12rcd13ifvqcag","pricing_plan_id":"cebpf4jnsgd1na2vs0mg"},{"bike_id":"41e94082-9363-460b-8923-b4c8fd5b2a80","system_id":"levelo_inurba_marseille","lat":43.29965,"lon":5.385016,"is_reserved":false,"is_disabled":false,"rental_uris":{"android":"levelo://app?vid=41e94082-9363-460b-8923-b4c8fd5b2a80","ios":"levelo://app?vid=41e94082-9363-460b-8923-b4c8fd5b2a80"},"vehicle_type_id":"4","last_reported":1733224121,"current_range_meters":32800,"station_id":"ce4bgj92rcd13ifvqbd0","pricing_plan_id":"cebpf4jnsgd1na2vs0mg"},{"bike_id":"95f60bf8-91e0-4861-ba40-220672d1a64a","system_id":"levelo_inurba_marseille","lat":43.31282,"lon":5.37553,"is_reserved":false,"is_disabled":false,"rental_uris":{"android":"levelo://app?vid=95f60bf8-91e0-4861-ba40-220672d1a64a","ios":"levelo://app?vid=95f60bf8-91e0-4861-ba40-220672d1a64a"},"vehicle_type_id":"4","last_reported":1733224121,"current_range_meters":9200,"station_id":"","pricing_plan_id":"cebpf4jnsgd1na2vs0mg"},{"bike_id":"cdfe6590-4984-4014-86c8-6dd70747c27a","system_id":"levelo_inurba_marseille","lat":43.29737,"lon":5.37434,"is_reserved":false,"is_disabled":true,"rental_uris":{"android":"levelo://app?vid=cdfe6590-4984-4014-86c8-6dd70747c27a","ios":"levelo://app?vid=cdfe6590-4984-4014-86c8-6dd70747c27a"},"vehicle_type_id":"4","last_reported":1733224121,"current_range_meters":0,"station_id":"","pricing_plan_id":"cebpf4jnsgd1na2vs0mg"},{"bike_id":"4a18aa97-1e02-4da6-b03b-8682f7cb8362","system_id":"levelo_inurba_marseille","lat":43.30536,"lon":5.38419,"is_reserved":false,"is_disabled":true,"rental_uris":{"android":"levelo://app?vid=4a18aa97-1e02-4da6-b03b-8682f7cb8362","ios":"levelo://app?vid=4a18aa97-1e02-4da6-b03b-8682f7cb8362"},"vehicle_type_id":"4","last_reported":1733224121,"current_range_meters":400,"station_id":"ce4bgg92rcd13ifvqb30","pricing_plan_id":"cebpf4jnsgd1na2vs0mg"},{"bike_id":"36142e23-8ff6-4096-ad19-b039c8156b69","system_id":"levelo_inurba_marseille","lat":43.28659,"lon":5.36346,"is_reserved":false,"is_disabled":true,"rental_uris":{"android":"levelo://app?vid=36142e23-8ff6-4096-ad19-b039c8156b69","ios":"levelo://app?vid=36142e23-8ff6-4096-ad19-b039c8156b69"},"vehicle_type_id":"4","last_reported":1733224121,"current_range_meters":31200,"station_id":"ce4bhah2rcd13ifvqej0","pricing_plan_id":"cebpf4jnsgd1na2vs0mg"},{"bike_id":"12a0a8b7-4353-4d84-97dc-7736fa1a1d4f","system_id":"levelo_inurba_marseille","lat":43.25925,"lon":5.40891,"is_reserved":false,"is_disabled":false,"rental_uris":{"android":"levelo://app?vid=12a0a8b7-4353-4d84-97dc-7736fa1a1d4f","ios":"levelo://app?vid=12a0a8b7-4353-4d84-97dc-7736fa1a1d4f"},"vehicle_type_id":"4","last_reported":1733224121,"current_range_meters":5600,"station_id":"ce4bhm92rcd13ifvqglg","pricing_plan_id":"cebpf4jnsgd1na2vs0mg"},{"bike_id":"b9206c6a-6573-4c96-8047-f380a4395cc7","system_id":"levelo_inurba_marseille","lat":43.29025,"lon":5.38129,"is_reserved":false,"is_disabled":true,"rental_uris":{"android":"levelo://app?vid=b9206c6a-6573-4c96-8047-f380a4395cc7","ios":"levelo://app?vid=b9206c6a-6573-4c96-8047-f380a4395cc7"},"vehicle_type_id":"4","last_reported":1733224121,"current_range_meters":0,"station_id":"ce4bh4p2rcd13ifvqe1g","pricing_plan_id":"cebpf4jnsgd1na2vs0mg"},{"bike_id":"4c3fb316-febe-4764-b0a1-d58fd67e3e9a","system_id":"levelo_inurba_marseille","lat":43.28194,"lon":5.38285,"is_reserved":false,"is_disabled":true,"rental_uris":{"android":"levelo://app?vid=4c3fb316-febe-4764-b0a1-d58fd67e3e9a","ios":"levelo://app?vid=4c3fb316-febe-4764-b0a1-d58fd67e3e9a"},"vehicle_type_id":"4","last_reported":1733224121,"current_range_meters":27200,"station_id":"","pricing_plan_id":"cebpf4jnsgd1na2vs0mg"},{"bike_id":"987a5ab4-d60c-480c-94b6-7cab38975402","system_id":"levelo_inurba_marseille","lat":43.29748,"lon":5.37971,"is_reserved":false,"is_disabled":true,"rental_uris":{"android":"levelo://app?vid=987a5ab4-d60c-480c-94b6-7cab38975402","ios":"levelo://app?vid=987a5ab4-d60c-480c-94b6-7cab38975402"},"vehicle_type_id":"4","last_reported":1733224121,"current_range_meters":0,"station_id":"","pricing_plan_id":"cebpf4jnsgd1na2vs0mg"},{"bike_id":"6877f033-d09d-44d8-8868-c02f5054dd5f","system_id":"levelo_inurba_marseille","lat":43.31485,"lon":5.37256,"is_reserved":false,"is_disabled":false,"rental_uris":{"android":"levelo://app?vid=6877f033-d09d-44d8-8868-c02f5054dd5f","ios":"levelo://app?vid=6877f033-d09d-44d8-8868-c02f5054dd5f"},"vehicle_type_id":"4","last_reported":1733224121,"current_range_meters":12000,"station_id":"ce4bgt12rcd13ifvqcd0","pricing_plan_id":"cebpf4jnsgd1na2vs0mg"},{"bike_id":"2c4596ad-0ad9-4016-b92b-0093349de2b4","system_id":"levelo_inurba_marseille","lat":43.30726,"lon":5.38243,"is_reserved":false,"is_disabled":true,"rental_uris":{"android":"levelo://app?vid=2c4596ad-0ad9-4016-b92b-0093349de2b4","ios":"levelo://app?vid=2c4596ad-0ad9-4016-b92b-0093349de2b4"},"vehicle_type_id":"4","last_reported":1733224121,"current_range_meters":0,"station_id":"","pricing_plan_id":"cebpf4jnsgd1na2vs0mg"},{"bike_id":"7d983c55-9658-4810-b4fd-d68e94d0e0d8","system_id":"levelo_inurba_marseille","lat":43.30528,"lon":5.36524,"is_reserved":false,"is_disabled":false,"rental_uris":{"android":"levelo://app?vid=7d983c55-9658-4810-b4fd-d68e94d0e0d8","ios":"levelo://app?vid=7d983c55-9658-4810-b4fd-d68e94d0e0d8"},"vehicle_type_id":"4","last_reported":1733224121,"current_range_meters":38800,"station_id":"ce4bgs12rcd13ifvqcag","pricing_plan_id":"cebpf4jnsgd1na2vs0mg"},{"bike_id":"1f28300c-d8be-4d08-b5ea-d3aadf1e301d","system_id":"levelo_inurba_marseille","lat":43.26244,"lon":5.42102,"is_reserved":false,"is_disabled":false,"rental_uris":{"android":"levelo://app?vid=1f28300c-d8be-4d08-b5ea-d3aadf1e301d","ios":"levelo://app?vid=1f28300c-d8be-4d08-b5ea-d3aadf1e301d"},"vehicle_type_id":"4","last_reported":1733224121,"current_range_meters":18800,"station_id":"","pricing_plan_id":"cebpf4jnsgd1na2vs0mg"},{"bike_id":"b7ab8c01-033f-4395-8276-23c850ad3d02","system_id":"levelo_inurba_marseille","lat":43.30324,"lon":5.36582,"is_reserved":false,"is_disabled":true,"rental_uris":{"android":"levelo://app?vid=b7ab8c01-033f-4395-8276-23c850ad3d02","ios":"levelo://app?vid=b7ab8c01-033f-4395-8276-23c850ad3d02"},"vehicle_type_id":"4","last_reported":1733224121,"current_range_meters":0,"station_id":"","pricing_plan_id":"cebpf4jnsgd1na2vs0mg"},{"bike_id":"cb7c513c-98a4-4380-870e-9d18e1b5e027","system_id":"levelo_inurba_marseille","lat":43.2558,"lon":5.38225,"is_reserved":false,"is_disabled":false,"rental_uris":{"android":"levelo://app?vid=cb7c513c-98a4-4380-870e-9d18e1b5e027","ios":"levelo://app?vid=cb7c513c-98a4-4380-870e-9d18e1b5e027"},"vehicle_type_id":"4","last_reported":1733224121,"current_range_meters":9600,"station_id":"ce4bhih2rcd13ifvqfs0","pricing_plan_id":"cebpf4jnsgd1na2vs0mg"},{"bike_id":"db1a663d-3172-49ef-9c38-1a0fbf4d8f69","system_id":"levelo_inurba_marseille","lat":43.26562,"lon":5.39001,"is_reserved":false,"is_disabled":false,"rental_uris":{"android":"levelo://app?vid=db1a663d-3172-49ef-9c38-1a0fbf4d8f69","ios":"levelo://app?vid=db1a663d-3172-49ef-9c38-1a0fbf4d8f69"},"vehicle_type_id":"4","last_reported":1733224121,"current_range_meters":33200,"station_id":"ce4bhe12rcd13ifvqf30","pricing_plan_id":"cebpf4jnsgd1na2vs0mg"},{"bike_id":"c397b122-d293-4842-9cec-c0e890d00771","system_id":"levelo_inurba_marseille","lat":43.32049,"lon":5.41534,"is_reserved":false,"is_disabled":false,"rental_uris":{"android":"levelo://app?vid=c397b122-d293-4842-9cec-c0e890d00771","ios":"levelo://app?vid=c397b122-d293-4842-9cec-c0e890d00771"},"vehicle_type_id":"4","last_reported":1733224121,"current_range_meters":16400,"station_id":"ce4bhq92rcd13ifvqhkg","pricing_plan_id":"cebpf4jnsgd1na2vs0mg"},{"bike_id":"7a8ee5d9-4808-4769-a02b-2b45186e80b5","system_id":"levelo_inurba_marseille","lat":43.337444,"lon":5.374475,"is_reserved":false,"is_disabled":true,"rental_uris":{"android":"levelo://app?vid=7a8ee5d9-4808-4769-a02b-2b45186e80b5","ios":"levelo://app?vid=7a8ee5d9-4808-4769-a02b-2b45186e80b5"},"vehicle_type_id":"4","last_reported":1733224121,"current_range_meters":0,"station_id":"","pricing_plan_id":"cebpf4jnsgd1na2vs0mg"},{"bike_id":"f5a25e49-b133-4342-9652-b2276c0f5396","system_id":"levelo_inurba_marseille","lat":43.27842,"lon":5.39205,"is_reserved":false,"is_disabled":false,"rental_uris":{"android":"levelo://app?vid=f5a25e49-b133-4342-9652-b2276c0f5396","ios":"levelo://app?vid=f5a25e49-b133-4342-9652-b2276c0f5396"},"vehicle_type_id":"4","last_reported":1733224121,"current_range_meters":29600,"station_id":"ce4bhjp2rcd13ifvqga0","pricing_plan_id":"cebpf4jnsgd1na2vs0mg"},{"bike_id":"6cc6805f-c0ca-4585-bdf1-b5a0339762b0","system_id":"levelo_inurba_marseille","lat":43.29011,"lon":5.42799,"is_reserved":false,"is_disabled":false,"rental_uris":{"android":"levelo://app?vid=6cc6805f-c0ca-4585-bdf1-b5a0339762b0","ios":"levelo://app?vid=6cc6805f-c0ca-4585-bdf1-b5a0339762b0"},"vehicle_type_id":"4","last_reported":1733224121,"current_range_meters":4400,"station_id":"","pricing_plan_id":"cebpf4jnsgd1na2vs0mg"},{"bike_id":"bf2dddfd-fcac-4ab9-9900-0783b7dfc160","system_id":"levelo_inurba_marseille","lat":43.28615,"lon":5.35104,"is_reserved":false,"is_disabled":false,"rental_uris":{"android":"levelo://app?vid=bf2dddfd-fcac-4ab9-9900-0783b7dfc160","ios":"levelo://app?vid=bf2dddfd-fcac-4ab9-9900-0783b7dfc160"},"vehicle_type_id":"4","last_reported":1733224121,"current_range_meters":14000,"station_id":"ce4bhch2rcd13ifvqeug","pricing_plan_id":"cebpf4jnsgd1na2vs0mg"},{"bike_id":"8d1c8b92-79bb-4181-b0d2-5e94db1a14d0","system_id":"levelo_inurba_marseille","lat":43.30003,"lon":5.38264,"is_reserved":false,"is_disabled":true,"rental_uris":{"android":"levelo://app?vid=8d1c8b92-79bb-4181-b0d2-5e94db1a14d0","ios":"levelo://app?vid=8d1c8b92-79bb-4181-b0d2-5e94db1a14d0"},"vehicle_type_id":"4","last_reported":1733224121,"current_range_meters":0,"station_id":"","pricing_plan_id":"cebpf4jnsgd1na2vs0mg"},{"bike_id":"b393e343-ccc2-4e09-a3d5-b33fb6d87dbf","system_id":"levelo_inurba_marseille","lat":43.30137,"lon":5.3879,"is_reserved":false,"is_disabled":true,"rental_uris":{"android":"levelo://app?vid=b393e343-ccc2-4e09-a3d5-b33fb6d87dbf","ios":"levelo://app?vid=b393e343-ccc2-4e09-a3d5-b33fb6d87dbf"},"vehicle_type_id":"4","last_reported":1733224121,"current_range_meters":28800,"station_id":"ce4bghh2rcd13ifvqb60","pricing_plan_id":"cebpf4jnsgd1na2vs0mg"},{"bike_id":"6654a908-8a1b-4975-827e-f93122caceb7","system_id":"levelo_inurba_marseille","lat":43.29881,"lon":5.38902,"is_reserved":false,"is_disabled":false,"rental_uris":{"android":"levelo://app?vid=6654a908-8a1b-4975-827e-f93122caceb7","ios":"levelo://app?vid=6654a908-8a1b-4975-827e-f93122caceb7"},"vehicle_type_id":"4","last_reported":1733224121,"current_range_meters":30400,"station_id":"ce4bh392rcd13ifvqdl0","pricing_plan_id":"cebpf4jnsgd1na2vs0mg"},{"bike_id":"805c01bc-d4d3-404c-8cbd-20255ab25f6b","system_id":"levelo_inurba_marseille","lat":43.31709,"lon":5.43711,"is_reserved":false,"is_disabled":false,"rental_uris":{"android":"levelo://app?vid=805c01bc-d4d3-404c-8cbd-20255ab25f6b","ios":"levelo://app?vid=805c01bc-d4d3-404c-8cbd-20255ab25f6b"},"vehicle_type_id":"4","last_reported":1733224121,"current_range_meters":36400,"station_id":"ce4bhp92rcd13ifvqhcg","pricing_plan_id":"cebpf4jnsgd1na2vs0mg"},{"bike_id":"d692109b-ad98-49bc-9d0b-2573b84dfc5e","system_id":"levelo_inurba_marseille","lat":43.23147,"lon":5.43722,"is_reserved":false,"is_disabled":false,"rental_uris":{"android":"levelo://app?vid=d692109b-ad98-49bc-9d0b-2573b84dfc5e","ios":"levelo://app?vid=d692109b-ad98-49bc-9d0b-2573b84dfc5e"},"vehicle_type_id":"4","last_reported":1733224121,"current_range_meters":8800,"station_id":"ce4bhmp2rcd13ifvqgog","pricing_plan_id":"cebpf4jnsgd1na2vs0mg"},{"bike_id":"d12e07bc-303e-4665-a4bc-2ae6e909e195","system_id":"levelo_inurba_marseille","lat":43.3078,"lon":5.40166,"is_reserved":false,"is_disabled":false,"rental_uris":{"android":"levelo://app?vid=d12e07bc-303e-4665-a4bc-2ae6e909e195","ios":"levelo://app?vid=d12e07bc-303e-4665-a4bc-2ae6e909e195"},"vehicle_type_id":"4","last_reported":1733224121,"current_range_meters":38400,"station_id":"","pricing_plan_id":"cebpf4jnsgd1na2vs0mg"},{"bike_id":"3ef40d5d-ae60-4919-a60f-c93a84da1612","system_id":"levelo_inurba_marseille","lat":43.3018,"lon":5.36598,"is_reserved":false,"is_disabled":false,"rental_uris":{"android":"levelo://app?vid=3ef40d5d-ae60-4919-a60f-c93a84da1612","ios":"levelo://app?vid=3ef40d5d-ae60-4919-a60f-c93a84da1612"},"vehicle_type_id":"4","last_reported":1733224121,"current_range_meters":38400,"station_id":"ce4bgrh2rcd13ifvqc8g","pricing_plan_id":"cebpf4jnsgd1na2vs0mg"},{"bike_id":"8c6ae27f-3733-439a-943c-f088570574ea","system_id":"levelo_inurba_marseille","lat":43.24803,"lon":5.37454,"is_reserved":false,"is_disabled":false,"rental_uris":{"android":"levelo://app?vid=8c6ae27f-3733-439a-943c-f088570574ea","ios":"levelo://app?vid=8c6ae27f-3733-439a-943c-f088570574ea"},"vehicle_type_id":"4","last_reported":1733224121,"current_range_meters":32000,"station_id":"ce4bhgh2rcd13ifvqfb0","pricing_plan_id":"cebpf4jnsgd1na2vs0mg"},{"bike_id":"8933ae40-7d11-4f85-bbf4-6a6429e9e816","system_id":"levelo_inurba_marseille","lat":43.31759,"lon":5.38764,"is_reserved":false,"is_disabled":false,"rental_uris":{"android":"levelo://app?vid=8933ae40-7d11-4f85-bbf4-6a6429e9e816","ios":"levelo://app?vid=8933ae40-7d11-4f85-bbf4-6a6429e9e816"},"vehicle_type_id":"4","last_reported":1733224121,"current_range_meters":6400,"station_id":"","pricing_plan_id":"cebpf4jnsgd1na2vs0mg"},{"bike_id":"01ac64e6-1f1f-4196-a4f5-2ab0b372a75f","system_id":"levelo_inurba_marseille","lat":43.28711,"lon":5.37933,"is_reserved":false,"is_disabled":true,"rental_uris":{"android":"levelo://app?vid=01ac64e6-1f1f-4196-a4f5-2ab0b372a75f","ios":"levelo://app?vid=01ac64e6-1f1f-4196-a4f5-2ab0b372a75f"},"vehicle_type_id":"4","last_reported":1733224121,"current_range_meters":38800,"station_id":"ce4bh9p2rcd13ifvqec0","pricing_plan_id":"cebpf4jnsgd1na2vs0mg"},{"bike_id":"64b321cb-c55c-40ab-9985-479d45091f3f","system_id":"levelo_inurba_marseille","lat":43.3169,"lon":5.40461,"is_reserved":false,"is_disabled":false,"rental_uris":{"android":"levelo://app?vid=64b321cb-c55c-40ab-9985-479d45091f3f","ios":"levelo://app?vid=64b321cb-c55c-40ab-9985-479d45091f3f"},"vehicle_type_id":"4","last_reported":1733224121,"current_range_meters":37600,"station_id":"ce4bh012rcd13ifvqd00","pricing_plan_id":"cebpf4jnsgd1na2vs0mg"},{"bike_id":"4f8c6457-7b21-40cc-8da9-83dbe00b2111","system_id":"levelo_inurba_marseille","lat":43.279484,"lon":5.41033,"is_reserved":false,"is_disabled":true,"rental_uris":{"android":"levelo://app?vid=4f8c6457-7b21-40cc-8da9-83dbe00b2111","ios":"levelo://app?vid=4f8c6457-7b21-40cc-8da9-83dbe00b2111"},"vehicle_type_id":"4","last_reported":1733224121,"current_range_meters":37600,"station_id":"ce4bhnp2rcd13ifvqh0g","pricing_plan_id":"cebpf4jnsgd1na2vs0mg"},{"bike_id":"b5f08ea6-a9db-4397-8d9a-552a63e4f0b7","system_id":"levelo_inurba_marseille","lat":43.31275,"lon":5.40162,"is_reserved":false,"is_disabled":false,"rental_uris":{"android":"levelo://app?vid=b5f08ea6-a9db-4397-8d9a-552a63e4f0b7","ios":"levelo://app?vid=b5f08ea6-a9db-4397-8d9a-552a63e4f0b7"},"vehicle_type_id":"4","last_reported":1733224121,"current_range_meters":17200,"station_id":"ce4bh092rcd13ifvqd30","pricing_plan_id":"cebpf4jnsgd1na2vs0mg"},{"bike_id":"8b941c00-4e3f-4c03-93d3-15390d39d3a5","system_id":"levelo_inurba_marseille","lat":43.28676,"lon":5.38658,"is_reserved":false,"is_disabled":true,"rental_uris":{"android":"levelo://app?vid=8b941c00-4e3f-4c03-93d3-15390d39d3a5","ios":"levelo://app?vid=8b941c00-4e3f-4c03-93d3-15390d39d3a5"},"vehicle_type_id":"4","last_reported":1733224121,"current_range_meters":36800,"station_id":"ce4bh492rcd13ifvqdug","pricing_plan_id":"cebpf4jnsgd1na2vs0mg"},{"bike_id":"a68d7a81-b093-4b83-abc2-a4f1054dabc5","system_id":"levelo_inurba_marseille","lat":43.27475,"lon":5.42468,"is_reserved":false,"is_disabled":false,"rental_uris":{"android":"levelo://app?vid=a68d7a81-b093-4b83-abc2-a4f1054dabc5","ios":"levelo://app?vid=a68d7a81-b093-4b83-abc2-a4f1054dabc5"},"vehicle_type_id":"4","last_reported":1733224121,"current_range_meters":32400,"station_id":"ce4bhn92rcd13ifvqgrg","pricing_plan_id":"cebpf4jnsgd1na2vs0mg"},{"bike_id":"9f4deee7-7f31-4c2e-82c6-46a38d5aa3cf","system_id":"levelo_inurba_marseille","lat":43.29835,"lon":5.36259,"is_reserved":false,"is_disabled":false,"rental_uris":{"android":"levelo://app?vid=9f4deee7-7f31-4c2e-82c6-46a38d5aa3cf","ios":"levelo://app?vid=9f4deee7-7f31-4c2e-82c6-46a38d5aa3cf"},"vehicle_type_id":"4","last_reported":1733224121,"current_range_meters":36000,"station_id":"ce4bgpp2rcd13ifvqc3g","pricing_plan_id":"cebpf4jnsgd1na2vs0mg"},{"bike_id":"9c77a68d-2e99-44e9-b903-950fb6644d35","system_id":"levelo_inurba_marseille","lat":43.25268,"lon":5.39464,"is_reserved":false,"is_disabled":true,"rental_uris":{"android":"levelo://app?vid=9c77a68d-2e99-44e9-b903-950fb6644d35","ios":"levelo://app?vid=9c77a68d-2e99-44e9-b903-950fb6644d35"},"vehicle_type_id":"4","last_reported":1733224121,"current_range_meters":0,"station_id":"","pricing_plan_id":"cebpf4jnsgd1na2vs0mg"},{"bike_id":"56246a82-e047-413e-a9f1-a7f32d2452bc","system_id":"levelo_inurba_marseille","lat":43.24168,"lon":5.36395,"is_reserved":false,"is_disabled":false,"rental_uris":{"android":"levelo://app?vid=56246a82-e047-413e-a9f1-a7f32d2452bc","ios":"levelo://app?vid=56246a82-e047-413e-a9f1-a7f32d2452bc"},"vehicle_type_id":"4","last_reported":1733224121,"current_range_meters":29600,"station_id":"cpo36qri1sfpv3e86is0","pricing_plan_id":"cebpf4jnsgd1na2vs0mg"},{"bike_id":"d343be82-d45b-4580-9267-ab2a574eac02","system_id":"levelo_inurba_marseille","lat":43.30794,"lon":5.4352,"is_reserved":false,"is_disabled":true,"rental_uris":{"android":"levelo://app?vid=d343be82-d45b-4580-9267-ab2a574eac02","ios":"levelo://app?vid=d343be82-d45b-4580-9267-ab2a574eac02"},"vehicle_type_id":"4","last_reported":1733224121,"current_range_meters":0,"station_id":"ce4bhph2rcd13ifvqheg","pricing_plan_id":"cebpf4jnsgd1na2vs0mg"},{"bike_id":"4b47aded-a434-4508-83c2-b26766ab8c40","system_id":"levelo_inurba_marseille","lat":43.32655,"lon":5.40989,"is_reserved":false,"is_disabled":false,"rental_uris":{"android":"levelo://app?vid=4b47aded-a434-4508-83c2-b26766ab8c40","ios":"levelo://app?vid=4b47aded-a434-4508-83c2-b26766ab8c40"},"vehicle_type_id":"4","last_reported":1733224121,"current_range_meters":26800,"station_id":"ce4bhpp2rcd13ifvqhgg","pricing_plan_id":"cebpf4jnsgd1na2vs0mg"},{"bike_id":"c17531e3-2798-489b-8b1b-7c5687fee335","system_id":"levelo_inurba_marseille","lat":43.31489,"lon":5.37299,"is_reserved":false,"is_disabled":false,"rental_uris":{"android":"levelo://app?vid=c17531e3-2798-489b-8b1b-7c5687fee335","ios":"levelo://app?vid=c17531e3-2798-489b-8b1b-7c5687fee335"},"vehicle_type_id":"4","last_reported":1733224121,"current_range_meters":38400,"station_id":"ce4bgt12rcd13ifvqcd0","pricing_plan_id":"cebpf4jnsgd1na2vs0mg"},{"bike_id":"4ea402f6-45b0-4846-84f5-29270e62c818","system_id":"levelo_inurba_marseille","lat":43.30829,"lon":5.37398,"is_reserved":false,"is_disabled":true,"rental_uris":{"android":"levelo://app?vid=4ea402f6-45b0-4846-84f5-29270e62c818","ios":"levelo://app?vid=4ea402f6-45b0-4846-84f5-29270e62c818"},"vehicle_type_id":"4","last_reported":1733224121,"current_range_meters":0,"station_id":"","pricing_plan_id":"cebpf4jnsgd1na2vs0mg"},{"bike_id":"83985555-c848-4b28-808f-8a7e7cf8519e","system_id":"levelo_inurba_marseille","lat":43.28115,"lon":5.44168,"is_reserved":false,"is_disabled":true,"rental_uris":{"android":"levelo://app?vid=83985555-c848-4b28-808f-8a7e7cf8519e","ios":"levelo://app?vid=83985555-c848-4b28-808f-8a7e7cf8519e"},"vehicle_type_id":"4","last_reported":1733224121,"current_range_meters":0,"station_id":"","pricing_plan_id":"cebpf4jnsgd1na2vs0mg"},{"bike_id":"2efae194-dc94-42b9-a7db-f31b2881d0ed","system_id":"levelo_inurba_marseille","lat":43.29516,"lon":5.37506,"is_reserved":false,"is_disabled":false,"rental_uris":{"android":"levelo://app?vid=2efae194-dc94-42b9-a7db-f31b2881d0ed","ios":"levelo://app?vid=2efae194-dc94-42b9-a7db-f31b2881d0ed"},"vehicle_type_id":"4","last_reported":1733224121,"current_range_meters":27200,"station_id":"ce4bgkp2rcd13ifvqbmg","pricing_plan_id":"cebpf4jnsgd1na2vs0mg"},{"bike_id":"d73f4737-8473-4244-8028-d68233f17087","system_id":"levelo_inurba_marseille","lat":43.30559,"lon":5.36534,"is_reserved":false,"is_disabled":false,"rental_uris":{"android":"levelo://app?vid=d73f4737-8473-4244-8028-d68233f17087","ios":"levelo://app?vid=d73f4737-8473-4244-8028-d68233f17087"},"vehicle_type_id":"4","last_reported":1733224121,"current_range_meters":36400,"station_id":"ce4bgs12rcd13ifvqcag","pricing_plan_id":"cebpf4jnsgd1na2vs0mg"},{"bike_id":"24680a53-4438-4273-b1ba-6bdb48ce463f","system_id":"levelo_inurba_marseille","lat":43.24542,"lon":5.3952,"is_reserved":false,"is_disabled":false,"rental_uris":{"android":"levelo://app?vid=24680a53-4438-4273-b1ba-6bdb48ce463f","ios":"levelo://app?vid=24680a53-4438-4273-b1ba-6bdb48ce463f"},"vehicle_type_id":"4","last_reported":1733224121,"current_range_meters":37600,"station_id":"ce4bhlp2rcd13ifvqgjg","pricing_plan_id":"cebpf4jnsgd1na2vs0mg"},{"bike_id":"941eeae1-8936-4a86-b31a-ea87d84b2048","system_id":"levelo_inurba_marseille","lat":43.280626,"lon":5.356328,"is_reserved":false,"is_disabled":false,"rental_uris":{"android":"levelo://app?vid=941eeae1-8936-4a86-b31a-ea87d84b2048","ios":"levelo://app?vid=941eeae1-8936-4a86-b31a-ea87d84b2048"},"vehicle_type_id":"4","last_reported":1733224121,"current_range_meters":7200,"station_id":"","pricing_plan_id":"cebpf4jnsgd1na2vs0mg"},{"bike_id":"38f794f5-5184-4298-803a-3748656c4422","system_id":"levelo_inurba_marseille","lat":43.29416,"lon":5.38619,"is_reserved":false,"is_disabled":true,"rental_uris":{"android":"levelo://app?vid=38f794f5-5184-4298-803a-3748656c4422","ios":"levelo://app?vid=38f794f5-5184-4298-803a-3748656c4422"},"vehicle_type_id":"4","last_reported":1733224121,"current_range_meters":0,"station_id":"ce4bh2h2rcd13ifvqdh0","pricing_plan_id":"cebpf4jnsgd1na2vs0mg"},{"bike_id":"355f9b9d-f767-4c7c-b2c2-99f45fb7404f","system_id":"levelo_inurba_marseille","lat":43.30785,"lon":5.37663,"is_reserved":false,"is_disabled":true,"rental_uris":{"android":"levelo://app?vid=355f9b9d-f767-4c7c-b2c2-99f45fb7404f","ios":"levelo://app?vid=355f9b9d-f767-4c7c-b2c2-99f45fb7404f"},"vehicle_type_id":"4","last_reported":1733224121,"current_range_meters":32000,"station_id":"ce4bgv92rcd13ifvqcq0","pricing_plan_id":"cebpf4jnsgd1na2vs0mg"},{"bike_id":"d1a8240c-6717-4129-b791-865274eca2a9","system_id":"levelo_inurba_marseille","lat":43.30539,"lon":5.36512,"is_reserved":false,"is_disabled":false,"rental_uris":{"android":"levelo://app?vid=d1a8240c-6717-4129-b791-865274eca2a9","ios":"levelo://app?vid=d1a8240c-6717-4129-b791-865274eca2a9"},"vehicle_type_id":"4","last_reported":1733224121,"current_range_meters":36000,"station_id":"ce4bgs12rcd13ifvqcag","pricing_plan_id":"cebpf4jnsgd1na2vs0mg"},{"bike_id":"d5dc8b48-0564-4629-a65c-97bbfeb5bca1","system_id":"levelo_inurba_marseille","lat":43.26198,"lon":5.37488,"is_reserved":false,"is_disabled":false,"rental_uris":{"android":"levelo://app?vid=d5dc8b48-0564-4629-a65c-97bbfeb5bca1","ios":"levelo://app?vid=d5dc8b48-0564-4629-a65c-97bbfeb5bca1"},"vehicle_type_id":"4","last_reported":1733224121,"current_range_meters":35600,"station_id":"ce4bhgp2rcd13ifvqfc0","pricing_plan_id":"cebpf4jnsgd1na2vs0mg"},{"bike_id":"daa05a65-c05a-4068-9833-3010d61dc489","system_id":"levelo_inurba_marseille","lat":43.28479,"lon":5.38403,"is_reserved":false,"is_disabled":true,"rental_uris":{"android":"levelo://app?vid=daa05a65-c05a-4068-9833-3010d61dc489","ios":"levelo://app?vid=daa05a65-c05a-4068-9833-3010d61dc489"},"vehicle_type_id":"4","last_reported":1733224121,"current_range_meters":31200,"station_id":"ce4bh512rcd13ifvqe3g","pricing_plan_id":"cebpf4jnsgd1na2vs0mg"},{"bike_id":"d968385f-de2b-44eb-96a8-54efc707caa9","system_id":"levelo_inurba_marseille","lat":43.231951,"lon":5.355438,"is_reserved":false,"is_disabled":false,"rental_uris":{"android":"levelo://app?vid=d968385f-de2b-44eb-96a8-54efc707caa9","ios":"levelo://app?vid=d968385f-de2b-44eb-96a8-54efc707caa9"},"vehicle_type_id":"4","last_reported":1733224121,"current_range_meters":38800,"station_id":"ce4bhu92rcd13ifvqi70","pricing_plan_id":"cebpf4jnsgd1na2vs0mg"},{"bike_id":"8d5f2a28-aa28-497f-ad5d-1e8306b711dc","system_id":"levelo_inurba_marseille","lat":43.29802,"lon":5.40408,"is_reserved":false,"is_disabled":true,"rental_uris":{"android":"levelo://app?vid=8d5f2a28-aa28-497f-ad5d-1e8306b711dc","ios":"levelo://app?vid=8d5f2a28-aa28-497f-ad5d-1e8306b711dc"},"vehicle_type_id":"4","last_reported":1733224121,"current_range_meters":0,"station_id":"ce4bh112rcd13ifvqd90","pricing_plan_id":"cebpf4jnsgd1na2vs0mg"},{"bike_id":"e218f52a-3c8a-490a-99d9-5af7196625b0","system_id":"levelo_inurba_marseille","lat":43.23196,"lon":5.35547,"is_reserved":false,"is_disabled":false,"rental_uris":{"android":"levelo://app?vid=e218f52a-3c8a-490a-99d9-5af7196625b0","ios":"levelo://app?vid=e218f52a-3c8a-490a-99d9-5af7196625b0"},"vehicle_type_id":"4","last_reported":1733224121,"current_range_meters":38800,"station_id":"ce4bhu92rcd13ifvqi70","pricing_plan_id":"cebpf4jnsgd1na2vs0mg"},{"bike_id":"307ca336-3f57-4d5b-849b-5b9df48faeaf","system_id":"levelo_inurba_marseille","lat":43.30026,"lon":5.38884,"is_reserved":false,"is_disabled":true,"rental_uris":{"android":"levelo://app?vid=307ca336-3f57-4d5b-849b-5b9df48faeaf","ios":"levelo://app?vid=307ca336-3f57-4d5b-849b-5b9df48faeaf"},"vehicle_type_id":"4","last_reported":1733224121,"current_range_meters":0,"station_id":"","pricing_plan_id":"cebpf4jnsgd1na2vs0mg"},{"bike_id":"506c09f4-6c9b-4fb3-996c-4c7f86dd75a8","system_id":"levelo_inurba_marseille","lat":43.24557,"lon":5.37351,"is_reserved":false,"is_disabled":true,"rental_uris":{"android":"levelo://app?vid=506c09f4-6c9b-4fb3-996c-4c7f86dd75a8","ios":"levelo://app?vid=506c09f4-6c9b-4fb3-996c-4c7f86dd75a8"},"vehicle_type_id":"4","last_reported":1733224121,"current_range_meters":0,"station_id":"","pricing_plan_id":"cebpf4jnsgd1na2vs0mg"},{"bike_id":"0648d7f3-0115-4674-a631-4af963b6bc53","system_id":"levelo_inurba_marseille","lat":43.29414,"lon":5.38609,"is_reserved":false,"is_disabled":true,"rental_uris":{"android":"levelo://app?vid=0648d7f3-0115-4674-a631-4af963b6bc53","ios":"levelo://app?vid=0648d7f3-0115-4674-a631-4af963b6bc53"},"vehicle_type_id":"4","last_reported":1733224121,"current_range_meters":28400,"station_id":"ce4bh2h2rcd13ifvqdh0","pricing_plan_id":"cebpf4jnsgd1na2vs0mg"},{"bike_id":"9202c63e-372c-4469-a5c1-8e35757d1940","system_id":"levelo_inurba_marseille","lat":43.30053,"lon":5.38832,"is_reserved":false,"is_disabled":true,"rental_uris":{"android":"levelo://app?vid=9202c63e-372c-4469-a5c1-8e35757d1940","ios":"levelo://app?vid=9202c63e-372c-4469-a5c1-8e35757d1940"},"vehicle_type_id":"4","last_reported":1733224121,"current_range_meters":0,"station_id":"","pricing_plan_id":"cebpf4jnsgd1na2vs0mg"},{"bike_id":"16e13872-2a5d-4ac5-a68a-0147e9b4c0f2","system_id":"levelo_inurba_marseille","lat":43.33612,"lon":5.41005,"is_reserved":false,"is_disabled":false,"rental_uris":{"android":"levelo://app?vid=16e13872-2a5d-4ac5-a68a-0147e9b4c0f2","ios":"levelo://app?vid=16e13872-2a5d-4ac5-a68a-0147e9b4c0f2"},"vehicle_type_id":"4","last_reported":1733224121,"current_range_meters":35600,"station_id":"ce4bhqh2rcd13ifvqhmg","pricing_plan_id":"cebpf4jnsgd1na2vs0mg"},{"bike_id":"72401246-0d93-497b-82fa-c0de71a5c822","system_id":"levelo_inurba_marseille","lat":43.30595,"lon":5.37211,"is_reserved":false,"is_disabled":false,"rental_uris":{"android":"levelo://app?vid=72401246-0d93-497b-82fa-c0de71a5c822","ios":"levelo://app?vid=72401246-0d93-497b-82fa-c0de71a5c822"},"vehicle_type_id":"4","last_reported":1733224121,"current_range_meters":38400,"station_id":"ce4bgqh2rcd13ifvqc4g","pricing_plan_id":"cebpf4jnsgd1na2vs0mg"},{"bike_id":"bbec85fe-1503-4332-acb6-3acef147170e","system_id":"levelo_inurba_marseille","lat":43.29578,"lon":5.36738,"is_reserved":false,"is_disabled":false,"rental_uris":{"android":"levelo://app?vid=bbec85fe-1503-4332-acb6-3acef147170e","ios":"levelo://app?vid=bbec85fe-1503-4332-acb6-3acef147170e"},"vehicle_type_id":"4","last_reported":1733224121,"current_range_meters":24400,"station_id":"ce4bgph2rcd13ifvqc2g","pricing_plan_id":"cebpf4jnsgd1na2vs0mg"},{"bike_id":"8cbb1876-809e-4922-953b-40d493b437d4","system_id":"levelo_inurba_marseille","lat":43.32339,"lon":5.4062,"is_reserved":false,"is_disabled":false,"rental_uris":{"android":"levelo://app?vid=8cbb1876-809e-4922-953b-40d493b437d4","ios":"levelo://app?vid=8cbb1876-809e-4922-953b-40d493b437d4"},"vehicle_type_id":"4","last_reported":1733224121,"current_range_meters":24000,"station_id":"ce4bhq92rcd13ifvqhjg","pricing_plan_id":"cebpf4jnsgd1na2vs0mg"},{"bike_id":"29e5a72a-1f12-4815-9cbd-7b8f7c59d95d","system_id":"levelo_inurba_marseille","lat":43.23148,"lon":5.43721,"is_reserved":false,"is_disabled":false,"rental_uris":{"android":"levelo://app?vid=29e5a72a-1f12-4815-9cbd-7b8f7c59d95d","ios":"levelo://app?vid=29e5a72a-1f12-4815-9cbd-7b8f7c59d95d"},"vehicle_type_id":"4","last_reported":1733224121,"current_range_meters":28400,"station_id":"ce4bhmp2rcd13ifvqgog","pricing_plan_id":"cebpf4jnsgd1na2vs0mg"},{"bike_id":"9bd8af31-ba0d-4e9c-9470-867a25cfc67b","system_id":"levelo_inurba_marseille","lat":43.29138,"lon":5.38072,"is_reserved":false,"is_disabled":false,"rental_uris":{"android":"levelo://app?vid=9bd8af31-ba0d-4e9c-9470-867a25cfc67b","ios":"levelo://app?vid=9bd8af31-ba0d-4e9c-9470-867a25cfc67b"},"vehicle_type_id":"4","last_reported":1733224121,"current_range_meters":36000,"station_id":"","pricing_plan_id":"cebpf4jnsgd1na2vs0mg"},{"bike_id":"719e509a-25e4-4b1b-9830-f708d85d7593","system_id":"levelo_inurba_marseille","lat":43.29569,"lon":5.37512,"is_reserved":false,"is_disabled":true,"rental_uris":{"android":"levelo://app?vid=719e509a-25e4-4b1b-9830-f708d85d7593","ios":"levelo://app?vid=719e509a-25e4-4b1b-9830-f708d85d7593"},"vehicle_type_id":"4","last_reported":1733224121,"current_range_meters":0,"station_id":"ce4bgh92rcd13ifvqb50","pricing_plan_id":"cebpf4jnsgd1na2vs0mg"},{"bike_id":"34990873-3196-4058-b006-4ffbc0216fdf","system_id":"levelo_inurba_marseille","lat":43.23195,"lon":5.35545,"is_reserved":false,"is_disabled":false,"rental_uris":{"android":"levelo://app?vid=34990873-3196-4058-b006-4ffbc0216fdf","ios":"levelo://app?vid=34990873-3196-4058-b006-4ffbc0216fdf"},"vehicle_type_id":"4","last_reported":1733224121,"current_range_meters":37600,"station_id":"ce4bhu92rcd13ifvqi70","pricing_plan_id":"cebpf4jnsgd1na2vs0mg"},{"bike_id":"0bf26240-ea4a-4fb0-a3eb-5657a82a1aac","system_id":"levelo_inurba_marseille","lat":43.30534,"lon":5.36706,"is_reserved":false,"is_disabled":false,"rental_uris":{"android":"levelo://app?vid=0bf26240-ea4a-4fb0-a3eb-5657a82a1aac","ios":"levelo://app?vid=0bf26240-ea4a-4fb0-a3eb-5657a82a1aac"},"vehicle_type_id":"4","last_reported":1733224121,"current_range_meters":6400,"station_id":"ce4bgrp2rcd13ifvqc9g","pricing_plan_id":"cebpf4jnsgd1na2vs0mg"},{"bike_id":"b8c4c32e-75d5-42c2-ae07-2a3da3c2053b","system_id":"levelo_inurba_marseille","lat":43.2682,"lon":5.39402,"is_reserved":false,"is_disabled":true,"rental_uris":{"android":"levelo://app?vid=b8c4c32e-75d5-42c2-ae07-2a3da3c2053b","ios":"levelo://app?vid=b8c4c32e-75d5-42c2-ae07-2a3da3c2053b"},"vehicle_type_id":"4","last_reported":1733224121,"current_range_meters":29600,"station_id":"ce4bhh12rcd13ifvqfg0","pricing_plan_id":"cebpf4jnsgd1na2vs0mg"},{"bike_id":"2cf65095-36e5-4949-abae-c54c2895d97b","system_id":"levelo_inurba_marseille","lat":43.32594,"lon":5.41369,"is_reserved":false,"is_disabled":true,"rental_uris":{"android":"levelo://app?vid=2cf65095-36e5-4949-abae-c54c2895d97b","ios":"levelo://app?vid=2cf65095-36e5-4949-abae-c54c2895d97b"},"vehicle_type_id":"4","last_reported":1733224121,"current_range_meters":0,"station_id":"","pricing_plan_id":"cebpf4jnsgd1na2vs0mg"},{"bike_id":"4e3855bb-d8fb-4736-926f-4a2e6331827d","system_id":"levelo_inurba_marseille","lat":43.3054,"lon":5.36525,"is_reserved":false,"is_disabled":false,"rental_uris":{"android":"levelo://app?vid=4e3855bb-d8fb-4736-926f-4a2e6331827d","ios":"levelo://app?vid=4e3855bb-d8fb-4736-926f-4a2e6331827d"},"vehicle_type_id":"4","last_reported":1733224121,"current_range_meters":36400,"station_id":"ce4bgs12rcd13ifvqcag","pricing_plan_id":"cebpf4jnsgd1na2vs0mg"},{"bike_id":"7eeb5ac6-a3ab-4724-a0d1-17bed7e385e6","system_id":"levelo_inurba_marseille","lat":43.27993,"lon":5.41659,"is_reserved":false,"is_disabled":true,"rental_uris":{"android":"levelo://app?vid=7eeb5ac6-a3ab-4724-a0d1-17bed7e385e6","ios":"levelo://app?vid=7eeb5ac6-a3ab-4724-a0d1-17bed7e385e6"},"vehicle_type_id":"4","last_reported":1733224121,"current_range_meters":31200,"station_id":"ce4bho12rcd13ifvqh1g","pricing_plan_id":"cebpf4jnsgd1na2vs0mg"},{"bike_id":"48f7fad5-9736-4854-ad66-3ac0235f4d2f","system_id":"levelo_inurba_marseille","lat":43.27047,"lon":5.4026,"is_reserved":false,"is_disabled":false,"rental_uris":{"android":"levelo://app?vid=48f7fad5-9736-4854-ad66-3ac0235f4d2f","ios":"levelo://app?vid=48f7fad5-9736-4854-ad66-3ac0235f4d2f"},"vehicle_type_id":"4","last_reported":1733224121,"current_range_meters":25600,"station_id":"ce4bhk92rcd13ifvqgc0","pricing_plan_id":"cebpf4jnsgd1na2vs0mg"},{"bike_id":"e7a16e2d-4d76-4047-97e2-25d55827c655","system_id":"levelo_inurba_marseille","lat":43.29612,"lon":5.37728,"is_reserved":false,"is_disabled":false,"rental_uris":{"android":"levelo://app?vid=e7a16e2d-4d76-4047-97e2-25d55827c655","ios":"levelo://app?vid=e7a16e2d-4d76-4047-97e2-25d55827c655"},"vehicle_type_id":"4","last_reported":1733224121,"current_range_meters":9600,"station_id":"ce4bgi92rcd13ifvqb90","pricing_plan_id":"cebpf4jnsgd1na2vs0mg"},{"bike_id":"1765576d-ad21-4bb0-85a8-4c7cde4f5294","system_id":"levelo_inurba_marseille","lat":43.2962,"lon":5.37146,"is_reserved":false,"is_disabled":true,"rental_uris":{"android":"levelo://app?vid=1765576d-ad21-4bb0-85a8-4c7cde4f5294","ios":"levelo://app?vid=1765576d-ad21-4bb0-85a8-4c7cde4f5294"},"vehicle_type_id":"4","last_reported":1733224121,"current_range_meters":6800,"station_id":"ce4bgnh2rcd13ifvqc0g","pricing_plan_id":"cebpf4jnsgd1na2vs0mg"},{"bike_id":"8dbc495a-3278-4e61-8c53-9289dd18982d","system_id":"levelo_inurba_marseille","lat":43.2511,"lon":5.40326,"is_reserved":false,"is_disabled":false,"rental_uris":{"android":"levelo://app?vid=8dbc495a-3278-4e61-8c53-9289dd18982d","ios":"levelo://app?vid=8dbc495a-3278-4e61-8c53-9289dd18982d"},"vehicle_type_id":"4","last_reported":1733224121,"current_range_meters":6400,"station_id":"ce4bhlh2rcd13ifvqgig","pricing_plan_id":"cebpf4jnsgd1na2vs0mg"},{"bike_id":"d295c728-7f23-4f02-adbd-d7afb218c0a3","system_id":"levelo_inurba_marseille","lat":43.30099,"lon":5.39088,"is_reserved":false,"is_disabled":false,"rental_uris":{"android":"levelo://app?vid=d295c728-7f23-4f02-adbd-d7afb218c0a3","ios":"levelo://app?vid=d295c728-7f23-4f02-adbd-d7afb218c0a3"},"vehicle_type_id":"4","last_reported":1733224121,"current_range_meters":38800,"station_id":"ce4bh192rcd13ifvqdb0","pricing_plan_id":"cebpf4jnsgd1na2vs0mg"},{"bike_id":"922c5544-e3bd-4d10-a747-bfef96b5581b","system_id":"levelo_inurba_marseille","lat":43.295288,"lon":5.390379,"is_reserved":false,"is_disabled":true,"rental_uris":{"android":"levelo://app?vid=922c5544-e3bd-4d10-a747-bfef96b5581b","ios":"levelo://app?vid=922c5544-e3bd-4d10-a747-bfef96b5581b"},"vehicle_type_id":"4","last_reported":1733224121,"current_range_meters":25200,"station_id":"ce4bh3p2rcd13ifvqdp0","pricing_plan_id":"cebpf4jnsgd1na2vs0mg"},{"bike_id":"7698aeae-9269-41f7-824a-276aec206ec6","system_id":"levelo_inurba_marseille","lat":43.33719,"lon":5.39174,"is_reserved":false,"is_disabled":false,"rental_uris":{"android":"levelo://app?vid=7698aeae-9269-41f7-824a-276aec206ec6","ios":"levelo://app?vid=7698aeae-9269-41f7-824a-276aec206ec6"},"vehicle_type_id":"4","last_reported":1733224121,"current_range_meters":24000,"station_id":"ce4bhr92rcd13ifvqhsg","pricing_plan_id":"cebpf4jnsgd1na2vs0mg"},{"bike_id":"1dc70cdf-4f74-41af-9e95-77502d50e11a","system_id":"levelo_inurba_marseille","lat":43.30412,"lon":5.41287,"is_reserved":false,"is_disabled":true,"rental_uris":{"android":"levelo://app?vid=1dc70cdf-4f74-41af-9e95-77502d50e11a","ios":"levelo://app?vid=1dc70cdf-4f74-41af-9e95-77502d50e11a"},"vehicle_type_id":"4","last_reported":1733224121,"current_range_meters":18800,"station_id":"ce4bhop2rcd13ifvqh8g","pricing_plan_id":"cebpf4jnsgd1na2vs0mg"},{"bike_id":"493af9ec-780a-44a3-be54-8ea9bc9b1958","system_id":"levelo_inurba_marseille","lat":43.30139,"lon":5.37416,"is_reserved":false,"is_disabled":false,"rental_uris":{"android":"levelo://app?vid=493af9ec-780a-44a3-be54-8ea9bc9b1958","ios":"levelo://app?vid=493af9ec-780a-44a3-be54-8ea9bc9b1958"},"vehicle_type_id":"4","last_reported":1733224121,"current_range_meters":32800,"station_id":"ce4bgs92rcd13ifvqcc0","pricing_plan_id":"cebpf4jnsgd1na2vs0mg"},{"bike_id":"97b933ba-b0e2-4ae8-b8c3-3ad7ed202771","system_id":"levelo_inurba_marseille","lat":43.24651,"lon":5.38892,"is_reserved":false,"is_disabled":false,"rental_uris":{"android":"levelo://app?vid=97b933ba-b0e2-4ae8-b8c3-3ad7ed202771","ios":"levelo://app?vid=97b933ba-b0e2-4ae8-b8c3-3ad7ed202771"},"vehicle_type_id":"4","last_reported":1733224121,"current_range_meters":27600,"station_id":"ce4bhg12rcd13ifvqf60","pricing_plan_id":"cebpf4jnsgd1na2vs0mg"},{"bike_id":"a8470222-8fc2-465c-8f1d-616d899efbab","system_id":"levelo_inurba_marseille","lat":43.25931,"lon":5.40906,"is_reserved":false,"is_disabled":false,"rental_uris":{"android":"levelo://app?vid=a8470222-8fc2-465c-8f1d-616d899efbab","ios":"levelo://app?vid=a8470222-8fc2-465c-8f1d-616d899efbab"},"vehicle_type_id":"4","last_reported":1733224121,"current_range_meters":28400,"station_id":"ce4bhm92rcd13ifvqglg","pricing_plan_id":"cebpf4jnsgd1na2vs0mg"},{"bike_id":"c6709d53-56bd-4b74-8cad-8b0050c4618a","system_id":"levelo_inurba_marseille","lat":43.32533,"lon":5.414217,"is_reserved":false,"is_disabled":false,"rental_uris":{"android":"levelo://app?vid=c6709d53-56bd-4b74-8cad-8b0050c4618a","ios":"levelo://app?vid=c6709d53-56bd-4b74-8cad-8b0050c4618a"},"vehicle_type_id":"4","last_reported":1733224121,"current_range_meters":8400,"station_id":"ce4bhq12rcd13ifvqhhg","pricing_plan_id":"cebpf4jnsgd1na2vs0mg"},{"bike_id":"79c8ea6d-5102-4a1e-b941-afdabc095945","system_id":"levelo_inurba_marseille","lat":43.29064,"lon":5.38335,"is_reserved":false,"is_disabled":true,"rental_uris":{"android":"levelo://app?vid=79c8ea6d-5102-4a1e-b941-afdabc095945","ios":"levelo://app?vid=79c8ea6d-5102-4a1e-b941-afdabc095945"},"vehicle_type_id":"4","last_reported":1733224121,"current_range_meters":25600,"station_id":"","pricing_plan_id":"cebpf4jnsgd1na2vs0mg"},{"bike_id":"d85fe9b9-a328-4c45-85c9-2ca7bf4076d8","system_id":"levelo_inurba_marseille","lat":43.32483,"lon":5.36549,"is_reserved":false,"is_disabled":false,"rental_uris":{"android":"levelo://app?vid=d85fe9b9-a328-4c45-85c9-2ca7bf4076d8","ios":"levelo://app?vid=d85fe9b9-a328-4c45-85c9-2ca7bf4076d8"},"vehicle_type_id":"4","last_reported":1733224121,"current_range_meters":32400,"station_id":"ce4bhs12rcd13ifvqhvg","pricing_plan_id":"cebpf4jnsgd1na2vs0mg"},{"bike_id":"b107272f-c42e-49e8-90dc-465fffb7a287","system_id":"levelo_inurba_marseille","lat":43.25107,"lon":5.40317,"is_reserved":false,"is_disabled":false,"rental_uris":{"android":"levelo://app?vid=b107272f-c42e-49e8-90dc-465fffb7a287","ios":"levelo://app?vid=b107272f-c42e-49e8-90dc-465fffb7a287"},"vehicle_type_id":"4","last_reported":1733224121,"current_range_meters":18800,"station_id":"ce4bhlh2rcd13ifvqgig","pricing_plan_id":"cebpf4jnsgd1na2vs0mg"},{"bike_id":"75f41dcf-35c1-42fc-bc9a-9da53776c30f","system_id":"levelo_inurba_marseille","lat":43.25575,"lon":5.38237,"is_reserved":false,"is_disabled":false,"rental_uris":{"android":"levelo://app?vid=75f41dcf-35c1-42fc-bc9a-9da53776c30f","ios":"levelo://app?vid=75f41dcf-35c1-42fc-bc9a-9da53776c30f"},"vehicle_type_id":"4","last_reported":1733224121,"current_range_meters":38800,"station_id":"ce4bhih2rcd13ifvqfs0","pricing_plan_id":"cebpf4jnsgd1na2vs0mg"},{"bike_id":"d337693b-82b2-4f65-ad74-9a2472a5f9cd","system_id":"levelo_inurba_marseille","lat":43.29781,"lon":5.38115,"is_reserved":false,"is_disabled":true,"rental_uris":{"android":"levelo://app?vid=d337693b-82b2-4f65-ad74-9a2472a5f9cd","ios":"levelo://app?vid=d337693b-82b2-4f65-ad74-9a2472a5f9cd"},"vehicle_type_id":"4","last_reported":1733224121,"current_range_meters":36400,"station_id":"ce4bgip2rcd13ifvqbb0","pricing_plan_id":"cebpf4jnsgd1na2vs0mg"},{"bike_id":"0f99a20a-17a6-420a-8b84-4fc855a39322","system_id":"levelo_inurba_marseille","lat":43.30291,"lon":5.37695,"is_reserved":false,"is_disabled":false,"rental_uris":{"android":"levelo://app?vid=0f99a20a-17a6-420a-8b84-4fc855a39322","ios":"levelo://app?vid=0f99a20a-17a6-420a-8b84-4fc855a39322"},"vehicle_type_id":"4","last_reported":1733224121,"current_range_meters":20000,"station_id":"ce4bguh2rcd13ifvqcj0","pricing_plan_id":"cebpf4jnsgd1na2vs0mg"},{"bike_id":"43384b10-b491-41db-9639-18b2bd5837e9","system_id":"levelo_inurba_marseille","lat":43.28441,"lon":5.39197,"is_reserved":false,"is_disabled":false,"rental_uris":{"android":"levelo://app?vid=43384b10-b491-41db-9639-18b2bd5837e9","ios":"levelo://app?vid=43384b10-b491-41db-9639-18b2bd5837e9"},"vehicle_type_id":"4","last_reported":1733224121,"current_range_meters":16000,"station_id":"ce4bhoh2rcd13ifvqh5g","pricing_plan_id":"cebpf4jnsgd1na2vs0mg"},{"bike_id":"427d7497-fe79-4531-b7d6-69d2614ceec1","system_id":"levelo_inurba_marseille","lat":43.29175,"lon":5.38485,"is_reserved":false,"is_disabled":true,"rental_uris":{"android":"levelo://app?vid=427d7497-fe79-4531-b7d6-69d2614ceec1","ios":"levelo://app?vid=427d7497-fe79-4531-b7d6-69d2614ceec1"},"vehicle_type_id":"4","last_reported":1733224121,"current_range_meters":9200,"station_id":"","pricing_plan_id":"cebpf4jnsgd1na2vs0mg"},{"bike_id":"8fe55c2d-7384-438a-a0b6-fefb37ed3c90","system_id":"levelo_inurba_marseille","lat":43.28455,"lon":5.35897,"is_reserved":false,"is_disabled":false,"rental_uris":{"android":"levelo://app?vid=8fe55c2d-7384-438a-a0b6-fefb37ed3c90","ios":"levelo://app?vid=8fe55c2d-7384-438a-a0b6-fefb37ed3c90"},"vehicle_type_id":"4","last_reported":1733224121,"current_range_meters":38800,"station_id":"ce4bhah2rcd13ifvqei0","pricing_plan_id":"cebpf4jnsgd1na2vs0mg"},{"bike_id":"daa64a8d-65e1-48f3-89e8-4d94f47a6133","system_id":"levelo_inurba_marseille","lat":43.30532,"lon":5.36528,"is_reserved":false,"is_disabled":false,"rental_uris":{"android":"levelo://app?vid=daa64a8d-65e1-48f3-89e8-4d94f47a6133","ios":"levelo://app?vid=daa64a8d-65e1-48f3-89e8-4d94f47a6133"},"vehicle_type_id":"4","last_reported":1733224121,"current_range_meters":35600,"station_id":"ce4bgs12rcd13ifvqcag","pricing_plan_id":"cebpf4jnsgd1na2vs0mg"},{"bike_id":"a4b9e425-64b8-4ce2-a5ab-5fcc5d1230a4","system_id":"levelo_inurba_marseille","lat":43.32106,"lon":5.36779,"is_reserved":false,"is_disabled":false,"rental_uris":{"android":"levelo://app?vid=a4b9e425-64b8-4ce2-a5ab-5fcc5d1230a4","ios":"levelo://app?vid=a4b9e425-64b8-4ce2-a5ab-5fcc5d1230a4"},"vehicle_type_id":"4","last_reported":1733224121,"current_range_meters":11200,"station_id":"ce4bhrh2rcd13ifvqhug","pricing_plan_id":"cebpf4jnsgd1na2vs0mg"},{"bike_id":"9ee769c6-a68b-4af4-a596-24817c320270","system_id":"levelo_inurba_marseille","lat":43.3153,"lon":5.38024,"is_reserved":false,"is_disabled":false,"rental_uris":{"android":"levelo://app?vid=9ee769c6-a68b-4af4-a596-24817c320270","ios":"levelo://app?vid=9ee769c6-a68b-4af4-a596-24817c320270"},"vehicle_type_id":"4","last_reported":1733224121,"current_range_meters":38800,"station_id":"ce4bhsp2rcd13ifvqi50","pricing_plan_id":"cebpf4jnsgd1na2vs0mg"},{"bike_id":"e7593ea2-ec58-4888-b050-c3efd4c6660c","system_id":"levelo_inurba_marseille","lat":43.24078,"lon":5.37745,"is_reserved":false,"is_disabled":false,"rental_uris":{"android":"levelo://app?vid=e7593ea2-ec58-4888-b050-c3efd4c6660c","ios":"levelo://app?vid=e7593ea2-ec58-4888-b050-c3efd4c6660c"},"vehicle_type_id":"4","last_reported":1733224121,"current_range_meters":9200,"station_id":"ce4bhnp2rcd13ifvqgvg","pricing_plan_id":"cebpf4jnsgd1na2vs0mg"},{"bike_id":"b2bc1728-46a3-400e-bd39-12c204f62d20","system_id":"levelo_inurba_marseille","lat":43.26942,"lon":5.40242,"is_reserved":false,"is_disabled":true,"rental_uris":{"android":"levelo://app?vid=b2bc1728-46a3-400e-bd39-12c204f62d20","ios":"levelo://app?vid=b2bc1728-46a3-400e-bd39-12c204f62d20"},"vehicle_type_id":"4","last_reported":1733224121,"current_range_meters":27200,"station_id":"cjm6bp8fraef2m0cb0m0","pricing_plan_id":"cebpf4jnsgd1na2vs0mg"},{"bike_id":"b1e6b49b-359d-4791-b1ed-8e1b7d5c7a6e","system_id":"levelo_inurba_marseille","lat":43.27993,"lon":5.40024,"is_reserved":false,"is_disabled":false,"rental_uris":{"android":"levelo://app?vid=b1e6b49b-359d-4791-b1ed-8e1b7d5c7a6e","ios":"levelo://app?vid=b1e6b49b-359d-4791-b1ed-8e1b7d5c7a6e"},"vehicle_type_id":"4","last_reported":1733224121,"current_range_meters":11200,"station_id":"ce4bho92rcd13ifvqh4g","pricing_plan_id":"cebpf4jnsgd1na2vs0mg"},{"bike_id":"216616ff-f59a-4303-9300-a50b08bc08b0","system_id":"levelo_inurba_marseille","lat":43.30305,"lon":5.39207,"is_reserved":false,"is_disabled":true,"rental_uris":{"android":"levelo://app?vid=216616ff-f59a-4303-9300-a50b08bc08b0","ios":"levelo://app?vid=216616ff-f59a-4303-9300-a50b08bc08b0"},"vehicle_type_id":"4","last_reported":1733224121,"current_range_meters":0,"station_id":"ce4bgkh2rcd13ifvqbk0","pricing_plan_id":"cebpf4jnsgd1na2vs0mg"},{"bike_id":"cf411c2a-cc80-4aeb-9c99-a3d88fef5d8f","system_id":"levelo_inurba_marseille","lat":43.29606,"lon":5.37709,"is_reserved":false,"is_disabled":true,"rental_uris":{"android":"levelo://app?vid=cf411c2a-cc80-4aeb-9c99-a3d88fef5d8f","ios":"levelo://app?vid=cf411c2a-cc80-4aeb-9c99-a3d88fef5d8f"},"vehicle_type_id":"4","last_reported":1733224121,"current_range_meters":9600,"station_id":"ce4bgi92rcd13ifvqb90","pricing_plan_id":"cebpf4jnsgd1na2vs0mg"},{"bike_id":"b98ad254-83eb-474f-96ab-f072feb580d9","system_id":"levelo_inurba_marseille","lat":43.30639,"lon":5.40099,"is_reserved":false,"is_disabled":false,"rental_uris":{"android":"levelo://app?vid=b98ad254-83eb-474f-96ab-f072feb580d9","ios":"levelo://app?vid=b98ad254-83eb-474f-96ab-f072feb580d9"},"vehicle_type_id":"4","last_reported":1733224121,"current_range_meters":23200,"station_id":"ce4bh112rcd13ifvqda0","pricing_plan_id":"cebpf4jnsgd1na2vs0mg"},{"bike_id":"0ad42b68-970c-402c-986b-47af129383e2","system_id":"levelo_inurba_marseille","lat":43.26058,"lon":5.39389,"is_reserved":false,"is_disabled":false,"rental_uris":{"android":"levelo://app?vid=0ad42b68-970c-402c-986b-47af129383e2","ios":"levelo://app?vid=0ad42b68-970c-402c-986b-47af129383e2"},"vehicle_type_id":"4","last_reported":1733224121,"current_range_meters":38800,"station_id":"ce4bhh92rcd13ifvqfj0","pricing_plan_id":"cebpf4jnsgd1na2vs0mg"},{"bike_id":"4a5dc23a-914a-483a-9fd9-11c316d3acb1","system_id":"levelo_inurba_marseille","lat":43.25929,"lon":5.40909,"is_reserved":false,"is_disabled":false,"rental_uris":{"android":"levelo://app?vid=4a5dc23a-914a-483a-9fd9-11c316d3acb1","ios":"levelo://app?vid=4a5dc23a-914a-483a-9fd9-11c316d3acb1"},"vehicle_type_id":"4","last_reported":1733224121,"current_range_meters":31200,"station_id":"ce4bhm92rcd13ifvqglg","pricing_plan_id":"cebpf4jnsgd1na2vs0mg"},{"bike_id":"c96b39bd-6dab-4193-bf7d-5a2c776c8b8f","system_id":"levelo_inurba_marseille","lat":43.32482,"lon":5.36537,"is_reserved":false,"is_disabled":false,"rental_uris":{"android":"levelo://app?vid=c96b39bd-6dab-4193-bf7d-5a2c776c8b8f","ios":"levelo://app?vid=c96b39bd-6dab-4193-bf7d-5a2c776c8b8f"},"vehicle_type_id":"4","last_reported":1733224121,"current_range_meters":38800,"station_id":"ce4bhs12rcd13ifvqhvg","pricing_plan_id":"cebpf4jnsgd1na2vs0mg"},{"bike_id":"f4af382a-5363-4221-874b-b6fb29128c7b","system_id":"levelo_inurba_marseille","lat":43.29416,"lon":5.38624,"is_reserved":false,"is_disabled":true,"rental_uris":{"android":"levelo://app?vid=f4af382a-5363-4221-874b-b6fb29128c7b","ios":"levelo://app?vid=f4af382a-5363-4221-874b-b6fb29128c7b"},"vehicle_type_id":"4","last_reported":1733224121,"current_range_meters":0,"station_id":"ce4bh2h2rcd13ifvqdh0","pricing_plan_id":"cebpf4jnsgd1na2vs0mg"},{"bike_id":"aa45c956-3c51-4890-894b-f25b90d61b06","system_id":"levelo_inurba_marseille","lat":43.27838,"lon":5.39218,"is_reserved":false,"is_disabled":false,"rental_uris":{"android":"levelo://app?vid=aa45c956-3c51-4890-894b-f25b90d61b06","ios":"levelo://app?vid=aa45c956-3c51-4890-894b-f25b90d61b06"},"vehicle_type_id":"4","last_reported":1733224121,"current_range_meters":28800,"station_id":"ce4bhjp2rcd13ifvqga0","pricing_plan_id":"cebpf4jnsgd1na2vs0mg"},{"bike_id":"b5a03233-d31f-4598-84c4-07d6d6043f52","system_id":"levelo_inurba_marseille","lat":43.28126,"lon":5.4266,"is_reserved":false,"is_disabled":false,"rental_uris":{"android":"levelo://app?vid=b5a03233-d31f-4598-84c4-07d6d6043f52","ios":"levelo://app?vid=b5a03233-d31f-4598-84c4-07d6d6043f52"},"vehicle_type_id":"4","last_reported":1733224121,"current_range_meters":36400,"station_id":"ce4bhnh2rcd13ifvqgug","pricing_plan_id":"cebpf4jnsgd1na2vs0mg"},{"bike_id":"b5aecf4d-8f03-4c41-a394-676685d9a453","system_id":"levelo_inurba_marseille","lat":43.336,"lon":5.41022,"is_reserved":false,"is_disabled":false,"rental_uris":{"android":"levelo://app?vid=b5aecf4d-8f03-4c41-a394-676685d9a453","ios":"levelo://app?vid=b5aecf4d-8f03-4c41-a394-676685d9a453"},"vehicle_type_id":"4","last_reported":1733224121,"current_range_meters":16800,"station_id":"ce4bhqh2rcd13ifvqhmg","pricing_plan_id":"cebpf4jnsgd1na2vs0mg"},{"bike_id":"5e160b8e-5c83-4423-b051-bd2cf577003d","system_id":"levelo_inurba_marseille","lat":43.23191,"lon":5.35543,"is_reserved":false,"is_disabled":false,"rental_uris":{"android":"levelo://app?vid=5e160b8e-5c83-4423-b051-bd2cf577003d","ios":"levelo://app?vid=5e160b8e-5c83-4423-b051-bd2cf577003d"},"vehicle_type_id":"4","last_reported":1733224121,"current_range_meters":39200,"station_id":"ce4bhu92rcd13ifvqi70","pricing_plan_id":"cebpf4jnsgd1na2vs0mg"},{"bike_id":"322cf6fe-0822-422b-95a4-35c4bd952f62","system_id":"levelo_inurba_marseille","lat":43.27178,"lon":5.4099,"is_reserved":false,"is_disabled":false,"rental_uris":{"android":"levelo://app?vid=322cf6fe-0822-422b-95a4-35c4bd952f62","ios":"levelo://app?vid=322cf6fe-0822-422b-95a4-35c4bd952f62"},"vehicle_type_id":"4","last_reported":1733224121,"current_range_meters":24800,"station_id":"ce4bhl12rcd13ifvqgf0","pricing_plan_id":"cebpf4jnsgd1na2vs0mg"},{"bike_id":"4fe01c68-e63d-4c1f-9999-9a60626db30d","system_id":"levelo_inurba_marseille","lat":43.29021,"lon":5.38127,"is_reserved":false,"is_disabled":true,"rental_uris":{"android":"levelo://app?vid=4fe01c68-e63d-4c1f-9999-9a60626db30d","ios":"levelo://app?vid=4fe01c68-e63d-4c1f-9999-9a60626db30d"},"vehicle_type_id":"4","last_reported":1733224121,"current_range_meters":38800,"station_id":"ce4bh4p2rcd13ifvqe1g","pricing_plan_id":"cebpf4jnsgd1na2vs0mg"},{"bike_id":"7707ba29-5b91-4931-aa98-df59c8261c4e","system_id":"levelo_inurba_marseille","lat":43.32658,"lon":5.40991,"is_reserved":false,"is_disabled":false,"rental_uris":{"android":"levelo://app?vid=7707ba29-5b91-4931-aa98-df59c8261c4e","ios":"levelo://app?vid=7707ba29-5b91-4931-aa98-df59c8261c4e"},"vehicle_type_id":"4","last_reported":1733224121,"current_range_meters":22000,"station_id":"ce4bhpp2rcd13ifvqhgg","pricing_plan_id":"cebpf4jnsgd1na2vs0mg"},{"bike_id":"0ecfd779-5539-47af-aacd-2f9643bc2006","system_id":"levelo_inurba_marseille","lat":43.30147,"lon":5.38076,"is_reserved":false,"is_disabled":false,"rental_uris":{"android":"levelo://app?vid=0ecfd779-5539-47af-aacd-2f9643bc2006","ios":"levelo://app?vid=0ecfd779-5539-47af-aacd-2f9643bc2006"},"vehicle_type_id":"4","last_reported":1733224121,"current_range_meters":30000,"station_id":"ce4bgjp2rcd13ifvqbh0","pricing_plan_id":"cebpf4jnsgd1na2vs0mg"},{"bike_id":"4a66d2b0-6f0d-4e57-b4e4-f3390a846e1e","system_id":"levelo_inurba_marseille","lat":43.32447,"lon":5.4099,"is_reserved":false,"is_disabled":false,"rental_uris":{"android":"levelo://app?vid=4a66d2b0-6f0d-4e57-b4e4-f3390a846e1e","ios":"levelo://app?vid=4a66d2b0-6f0d-4e57-b4e4-f3390a846e1e"},"vehicle_type_id":"4","last_reported":1733224121,"current_range_meters":24800,"station_id":"ce4bhpp2rcd13ifvqhgg","pricing_plan_id":"cebpf4jnsgd1na2vs0mg"},{"bike_id":"a5ec52a0-fc7c-4022-8b79-b922e907dca7","system_id":"levelo_inurba_marseille","lat":43.29784,"lon":5.37096,"is_reserved":false,"is_disabled":false,"rental_uris":{"android":"levelo://app?vid=a5ec52a0-fc7c-4022-8b79-b922e907dca7","ios":"levelo://app?vid=a5ec52a0-fc7c-4022-8b79-b922e907dca7"},"vehicle_type_id":"4","last_reported":1733224121,"current_range_meters":32800,"station_id":"ce4bgop2rcd13ifvqc1g","pricing_plan_id":"cebpf4jnsgd1na2vs0mg"},{"bike_id":"dff91f48-f591-4ce0-8568-ae20c53ff6d4","system_id":"levelo_inurba_marseille","lat":43.30538,"lon":5.36688,"is_reserved":false,"is_disabled":false,"rental_uris":{"android":"levelo://app?vid=dff91f48-f591-4ce0-8568-ae20c53ff6d4","ios":"levelo://app?vid=dff91f48-f591-4ce0-8568-ae20c53ff6d4"},"vehicle_type_id":"4","last_reported":1733224121,"current_range_meters":38800,"station_id":"ce4bgrp2rcd13ifvqc9g","pricing_plan_id":"cebpf4jnsgd1na2vs0mg"},{"bike_id":"15851f68-6a89-4e49-bf81-feab192e3b3c","system_id":"levelo_inurba_marseille","lat":43.26808,"lon":5.4027,"is_reserved":false,"is_disabled":false,"rental_uris":{"android":"levelo://app?vid=15851f68-6a89-4e49-bf81-feab192e3b3c","ios":"levelo://app?vid=15851f68-6a89-4e49-bf81-feab192e3b3c"},"vehicle_type_id":"4","last_reported":1733224121,"current_range_meters":26800,"station_id":"ce501612rcd8frsf0b60","pricing_plan_id":"cebpf4jnsgd1na2vs0mg"},{"bike_id":"e63aa962-a242-44bd-8328-31cf6c0d9d3d","system_id":"levelo_inurba_marseille","lat":43.29298,"lon":5.37177,"is_reserved":false,"is_disabled":true,"rental_uris":{"android":"levelo://app?vid=e63aa962-a242-44bd-8328-31cf6c0d9d3d","ios":"levelo://app?vid=e63aa962-a242-44bd-8328-31cf6c0d9d3d"},"vehicle_type_id":"4","last_reported":1733224121,"current_range_meters":0,"station_id":"ce4bgh92rcd13ifvqb40","pricing_plan_id":"cebpf4jnsgd1na2vs0mg"},{"bike_id":"f8bcc820-9a1c-492a-9f26-6a6b26934b17","system_id":"levelo_inurba_marseille","lat":43.28611,"lon":5.37056,"is_reserved":false,"is_disabled":true,"rental_uris":{"android":"levelo://app?vid=f8bcc820-9a1c-492a-9f26-6a6b26934b17","ios":"levelo://app?vid=f8bcc820-9a1c-492a-9f26-6a6b26934b17"},"vehicle_type_id":"4","last_reported":1733224121,"current_range_meters":0,"station_id":"ce4bht12rcd13ifvqi60","pricing_plan_id":"cebpf4jnsgd1na2vs0mg"},{"bike_id":"9b11b797-67b2-437a-b4f6-f2adbc692ba5","system_id":"levelo_inurba_marseille","lat":43.29591,"lon":5.38101,"is_reserved":false,"is_disabled":false,"rental_uris":{"android":"levelo://app?vid=9b11b797-67b2-437a-b4f6-f2adbc692ba5","ios":"levelo://app?vid=9b11b797-67b2-437a-b4f6-f2adbc692ba5"},"vehicle_type_id":"4","last_reported":1733224121,"current_range_meters":38400,"station_id":"ce4bgl12rcd13ifvqbo0","pricing_plan_id":"cebpf4jnsgd1na2vs0mg"},{"bike_id":"aa598945-95fb-41cc-bce7-c5d2db9ce741","system_id":"levelo_inurba_marseille","lat":43.27494,"lon":5.42458,"is_reserved":false,"is_disabled":false,"rental_uris":{"android":"levelo://app?vid=aa598945-95fb-41cc-bce7-c5d2db9ce741","ios":"levelo://app?vid=aa598945-95fb-41cc-bce7-c5d2db9ce741"},"vehicle_type_id":"4","last_reported":1733224121,"current_range_meters":39200,"station_id":"ce4bhn92rcd13ifvqgrg","pricing_plan_id":"cebpf4jnsgd1na2vs0mg"},{"bike_id":"3a9149f3-357c-4d0a-859b-18382ef024a5","system_id":"levelo_inurba_marseille","lat":43.32112,"lon":5.36775,"is_reserved":false,"is_disabled":false,"rental_uris":{"android":"levelo://app?vid=3a9149f3-357c-4d0a-859b-18382ef024a5","ios":"levelo://app?vid=3a9149f3-357c-4d0a-859b-18382ef024a5"},"vehicle_type_id":"4","last_reported":1733224121,"current_range_meters":32400,"station_id":"ce4bhrh2rcd13ifvqhug","pricing_plan_id":"cebpf4jnsgd1na2vs0mg"},{"bike_id":"a0f1fd95-b620-4f0e-b037-c7a3fc5c6763","system_id":"levelo_inurba_marseille","lat":43.28074,"lon":5.39658,"is_reserved":false,"is_disabled":false,"rental_uris":{"android":"levelo://app?vid=a0f1fd95-b620-4f0e-b037-c7a3fc5c6763","ios":"levelo://app?vid=a0f1fd95-b620-4f0e-b037-c7a3fc5c6763"},"vehicle_type_id":"4","last_reported":1733224121,"current_range_meters":39200,"station_id":"ce4bho12rcd13ifvqh2g","pricing_plan_id":"cebpf4jnsgd1na2vs0mg"},{"bike_id":"7162aa44-86d7-4628-93e4-c9d3f5365eb9","system_id":"levelo_inurba_marseille","lat":43.30244,"lon":5.40053,"is_reserved":false,"is_disabled":true,"rental_uris":{"android":"levelo://app?vid=7162aa44-86d7-4628-93e4-c9d3f5365eb9","ios":"levelo://app?vid=7162aa44-86d7-4628-93e4-c9d3f5365eb9"},"vehicle_type_id":"4","last_reported":1733224121,"current_range_meters":38800,"station_id":"ce4bgvh2rcd13ifvqcs0","pricing_plan_id":"cebpf4jnsgd1na2vs0mg"},{"bike_id":"284516f3-1d20-45be-a6cc-533671ed0124","system_id":"levelo_inurba_marseille","lat":43.26681,"lon":5.38254,"is_reserved":false,"is_disabled":false,"rental_uris":{"android":"levelo://app?vid=284516f3-1d20-45be-a6cc-533671ed0124","ios":"levelo://app?vid=284516f3-1d20-45be-a6cc-533671ed0124"},"vehicle_type_id":"4","last_reported":1733224121,"current_range_meters":25600,"station_id":"ce4bhg92rcd13ifvqf90","pricing_plan_id":"cebpf4jnsgd1na2vs0mg"},{"bike_id":"da6a7a1d-e653-4950-af8c-8137b06f7d40","system_id":"levelo_inurba_marseille","lat":43.3004,"lon":5.37551,"is_reserved":false,"is_disabled":true,"rental_uris":{"android":"levelo://app?vid=da6a7a1d-e653-4950-af8c-8137b06f7d40","ios":"levelo://app?vid=da6a7a1d-e653-4950-af8c-8137b06f7d40"},"vehicle_type_id":"4","last_reported":1733224121,"current_range_meters":0,"station_id":"","pricing_plan_id":"cebpf4jnsgd1na2vs0mg"},{"bike_id":"8fb78ab9-adec-42f1-a37c-300eca6d20f7","system_id":"levelo_inurba_marseille","lat":43.30603,"lon":5.37227,"is_reserved":false,"is_disabled":false,"rental_uris":{"android":"levelo://app?vid=8fb78ab9-adec-42f1-a37c-300eca6d20f7","ios":"levelo://app?vid=8fb78ab9-adec-42f1-a37c-300eca6d20f7"},"vehicle_type_id":"4","last_reported":1733224121,"current_range_meters":28000,"station_id":"ce4bgqh2rcd13ifvqc4g","pricing_plan_id":"cebpf4jnsgd1na2vs0mg"},{"bike_id":"6fa219e0-9f23-47e4-aca4-88e49fc228ce","system_id":"levelo_inurba_marseille","lat":43.31374,"lon":5.3834,"is_reserved":false,"is_disabled":false,"rental_uris":{"android":"levelo://app?vid=6fa219e0-9f23-47e4-aca4-88e49fc228ce","ios":"levelo://app?vid=6fa219e0-9f23-47e4-aca4-88e49fc228ce"},"vehicle_type_id":"4","last_reported":1733224121,"current_range_meters":11600,"station_id":"","pricing_plan_id":"cebpf4jnsgd1na2vs0mg"},{"bike_id":"e6bbbf53-985a-487e-a0c4-ee284d44b44d","system_id":"levelo_inurba_marseille","lat":43.28842,"lon":5.39313,"is_reserved":false,"is_disabled":true,"rental_uris":{"android":"levelo://app?vid=e6bbbf53-985a-487e-a0c4-ee284d44b44d","ios":"levelo://app?vid=e6bbbf53-985a-487e-a0c4-ee284d44b44d"},"vehicle_type_id":"4","last_reported":1733224121,"current_range_meters":30400,"station_id":"ce4bh2p2rcd13ifvqdi0","pricing_plan_id":"cebpf4jnsgd1na2vs0mg"},{"bike_id":"b4aab7a2-6fb8-414b-a8e2-f2365f52e33a","system_id":"levelo_inurba_marseille","lat":43.29975,"lon":5.37172,"is_reserved":false,"is_disabled":false,"rental_uris":{"android":"levelo://app?vid=b4aab7a2-6fb8-414b-a8e2-f2365f52e33a","ios":"levelo://app?vid=b4aab7a2-6fb8-414b-a8e2-f2365f52e33a"},"vehicle_type_id":"4","last_reported":1733224121,"current_range_meters":31200,"station_id":"ce4bgr92rcd13ifvqc7g","pricing_plan_id":"cebpf4jnsgd1na2vs0mg"},{"bike_id":"8fe3f7e9-8aa6-49b9-ac21-54fdadf80eb9","system_id":"levelo_inurba_marseille","lat":43.30463,"lon":5.37902,"is_reserved":false,"is_disabled":false,"rental_uris":{"android":"levelo://app?vid=8fe3f7e9-8aa6-49b9-ac21-54fdadf80eb9","ios":"levelo://app?vid=8fe3f7e9-8aa6-49b9-ac21-54fdadf80eb9"},"vehicle_type_id":"4","last_reported":1733224121,"current_range_meters":32800,"station_id":"ce4bgup2rcd13ifvqcn0","pricing_plan_id":"cebpf4jnsgd1na2vs0mg"},{"bike_id":"776b382d-575b-4ad7-8214-1678f34da237","system_id":"levelo_inurba_marseille","lat":43.24545,"lon":5.39519,"is_reserved":false,"is_disabled":false,"rental_uris":{"android":"levelo://app?vid=776b382d-575b-4ad7-8214-1678f34da237","ios":"levelo://app?vid=776b382d-575b-4ad7-8214-1678f34da237"},"vehicle_type_id":"4","last_reported":1733224121,"current_range_meters":27200,"station_id":"ce4bhlp2rcd13ifvqgjg","pricing_plan_id":"cebpf4jnsgd1na2vs0mg"},{"bike_id":"9f182489-b5c1-4400-91e1-858ac18cbfca","system_id":"levelo_inurba_marseille","lat":43.29579,"lon":5.36734,"is_reserved":false,"is_disabled":false,"rental_uris":{"android":"levelo://app?vid=9f182489-b5c1-4400-91e1-858ac18cbfca","ios":"levelo://app?vid=9f182489-b5c1-4400-91e1-858ac18cbfca"},"vehicle_type_id":"4","last_reported":1733224121,"current_range_meters":38800,"station_id":"ce4bgph2rcd13ifvqc2g","pricing_plan_id":"cebpf4jnsgd1na2vs0mg"},{"bike_id":"79607b96-7d67-47a9-b169-dbc880b598e8","system_id":"levelo_inurba_marseille","lat":43.29306,"lon":5.37172,"is_reserved":false,"is_disabled":false,"rental_uris":{"android":"levelo://app?vid=79607b96-7d67-47a9-b169-dbc880b598e8","ios":"levelo://app?vid=79607b96-7d67-47a9-b169-dbc880b598e8"},"vehicle_type_id":"4","last_reported":1733224121,"current_range_meters":35600,"station_id":"ce4bgh92rcd13ifvqb40","pricing_plan_id":"cebpf4jnsgd1na2vs0mg"},{"bike_id":"70c61673-8159-49b2-b6ed-4b8c3dd127e4","system_id":"levelo_inurba_marseille","lat":43.25086,"lon":5.3951,"is_reserved":false,"is_disabled":false,"rental_uris":{"android":"levelo://app?vid=70c61673-8159-49b2-b6ed-4b8c3dd127e4","ios":"levelo://app?vid=70c61673-8159-49b2-b6ed-4b8c3dd127e4"},"vehicle_type_id":"4","last_reported":1733224121,"current_range_meters":38000,"station_id":"ce4bhm12rcd13ifvqgkg","pricing_plan_id":"cebpf4jnsgd1na2vs0mg"},{"bike_id":"a93894f3-05aa-4c7d-b46a-8bed8d0437bb","system_id":"levelo_inurba_marseille","lat":43.24072,"lon":5.37749,"is_reserved":false,"is_disabled":true,"rental_uris":{"android":"levelo://app?vid=a93894f3-05aa-4c7d-b46a-8bed8d0437bb","ios":"levelo://app?vid=a93894f3-05aa-4c7d-b46a-8bed8d0437bb"},"vehicle_type_id":"4","last_reported":1733224121,"current_range_meters":32000,"station_id":"ce4bhnp2rcd13ifvqgvg","pricing_plan_id":"cebpf4jnsgd1na2vs0mg"},{"bike_id":"971a3736-34e5-4d25-80d7-5267dd518a7f","system_id":"levelo_inurba_marseille","lat":43.29799,"lon":5.38081,"is_reserved":false,"is_disabled":false,"rental_uris":{"android":"levelo://app?vid=971a3736-34e5-4d25-80d7-5267dd518a7f","ios":"levelo://app?vid=971a3736-34e5-4d25-80d7-5267dd518a7f"},"vehicle_type_id":"4","last_reported":1733224121,"current_range_meters":38400,"station_id":"ce4bgip2rcd13ifvqbb0","pricing_plan_id":"cebpf4jnsgd1na2vs0mg"},{"bike_id":"f36891b2-a191-456c-9b2d-0a1fabafc3b6","system_id":"levelo_inurba_marseille","lat":43.24665,"lon":5.38169,"is_reserved":false,"is_disabled":false,"rental_uris":{"android":"levelo://app?vid=f36891b2-a191-456c-9b2d-0a1fabafc3b6","ios":"levelo://app?vid=f36891b2-a191-456c-9b2d-0a1fabafc3b6"},"vehicle_type_id":"4","last_reported":1733224121,"current_range_meters":38800,"station_id":"ce4bhih2rcd13ifvqfr0","pricing_plan_id":"cebpf4jnsgd1na2vs0mg"},{"bike_id":"0a2f1f9e-26e1-44a7-8c5e-9e6a6f7abf3b","system_id":"levelo_inurba_marseille","lat":43.29006,"lon":5.3561,"is_reserved":false,"is_disabled":false,"rental_uris":{"android":"levelo://app?vid=0a2f1f9e-26e1-44a7-8c5e-9e6a6f7abf3b","ios":"levelo://app?vid=0a2f1f9e-26e1-44a7-8c5e-9e6a6f7abf3b"},"vehicle_type_id":"4","last_reported":1733224121,"current_range_meters":28400,"station_id":"ce4bhb92rcd13ifvqen0","pricing_plan_id":"cebpf4jnsgd1na2vs0mg"},{"bike_id":"53c49f91-b461-492e-a085-09cd1efdb30c","system_id":"levelo_inurba_marseille","lat":43.27172,"lon":5.40989,"is_reserved":false,"is_disabled":false,"rental_uris":{"android":"levelo://app?vid=53c49f91-b461-492e-a085-09cd1efdb30c","ios":"levelo://app?vid=53c49f91-b461-492e-a085-09cd1efdb30c"},"vehicle_type_id":"4","last_reported":1733224121,"current_range_meters":36800,"station_id":"ce4bhl12rcd13ifvqgf0","pricing_plan_id":"cebpf4jnsgd1na2vs0mg"},{"bike_id":"d9594733-6e50-4ddc-8ecb-4d3854d84bf6","system_id":"levelo_inurba_marseille","lat":43.26195,"lon":5.3745,"is_reserved":false,"is_disabled":false,"rental_uris":{"android":"levelo://app?vid=d9594733-6e50-4ddc-8ecb-4d3854d84bf6","ios":"levelo://app?vid=d9594733-6e50-4ddc-8ecb-4d3854d84bf6"},"vehicle_type_id":"4","last_reported":1733224121,"current_range_meters":38000,"station_id":"ce4bhgp2rcd13ifvqfc0","pricing_plan_id":"cebpf4jnsgd1na2vs0mg"},{"bike_id":"d9600396-5d38-4428-bbf6-dcf2c609d4d4","system_id":"levelo_inurba_marseille","lat":43.23962,"lon":5.36624,"is_reserved":false,"is_disabled":false,"rental_uris":{"android":"levelo://app?vid=d9600396-5d38-4428-bbf6-dcf2c609d4d4","ios":"levelo://app?vid=d9600396-5d38-4428-bbf6-dcf2c609d4d4"},"vehicle_type_id":"4","last_reported":1733224121,"current_range_meters":38800,"station_id":"ce4bhi12rcd13ifvqfp0","pricing_plan_id":"cebpf4jnsgd1na2vs0mg"},{"bike_id":"88f5b6e0-f391-4b09-93c4-ed2d66b3b2cf","system_id":"levelo_inurba_marseille","lat":43.24076,"lon":5.3775,"is_reserved":false,"is_disabled":false,"rental_uris":{"android":"levelo://app?vid=88f5b6e0-f391-4b09-93c4-ed2d66b3b2cf","ios":"levelo://app?vid=88f5b6e0-f391-4b09-93c4-ed2d66b3b2cf"},"vehicle_type_id":"4","last_reported":1733224121,"current_range_meters":38800,"station_id":"ce4bhnp2rcd13ifvqgvg","pricing_plan_id":"cebpf4jnsgd1na2vs0mg"},{"bike_id":"902712a1-144b-4070-8403-00a1c17cca3e","system_id":"levelo_inurba_marseille","lat":43.29877,"lon":5.3973,"is_reserved":false,"is_disabled":false,"rental_uris":{"android":"levelo://app?vid=902712a1-144b-4070-8403-00a1c17cca3e","ios":"levelo://app?vid=902712a1-144b-4070-8403-00a1c17cca3e"},"vehicle_type_id":"4","last_reported":1733224121,"current_range_meters":25200,"station_id":"ce4bh0h2rcd13ifvqd50","pricing_plan_id":"cebpf4jnsgd1na2vs0mg"},{"bike_id":"e859e0a0-8fd2-4674-897e-5faffa03737a","system_id":"levelo_inurba_marseille","lat":43.25932,"lon":5.40905,"is_reserved":false,"is_disabled":false,"rental_uris":{"android":"levelo://app?vid=e859e0a0-8fd2-4674-897e-5faffa03737a","ios":"levelo://app?vid=e859e0a0-8fd2-4674-897e-5faffa03737a"},"vehicle_type_id":"4","last_reported":1733224121,"current_range_meters":28000,"station_id":"ce4bhm92rcd13ifvqglg","pricing_plan_id":"cebpf4jnsgd1na2vs0mg"},{"bike_id":"afee990f-b1ca-4562-adf0-5c85af5d126c","system_id":"levelo_inurba_marseille","lat":43.26032,"lon":5.37546,"is_reserved":false,"is_disabled":false,"rental_uris":{"android":"levelo://app?vid=afee990f-b1ca-4562-adf0-5c85af5d126c","ios":"levelo://app?vid=afee990f-b1ca-4562-adf0-5c85af5d126c"},"vehicle_type_id":"4","last_reported":1733224121,"current_range_meters":35200,"station_id":"ce4bhgh2rcd13ifvqfa0","pricing_plan_id":"cebpf4jnsgd1na2vs0mg"},{"bike_id":"04ec1179-3f46-48c6-a607-ae68d89f9007","system_id":"levelo_inurba_marseille","lat":43.27423,"lon":5.39425,"is_reserved":false,"is_disabled":false,"rental_uris":{"android":"levelo://app?vid=04ec1179-3f46-48c6-a607-ae68d89f9007","ios":"levelo://app?vid=04ec1179-3f46-48c6-a607-ae68d89f9007"},"vehicle_type_id":"4","last_reported":1733224121,"current_range_meters":8400,"station_id":"ce4bhdp2rcd13ifvqf20","pricing_plan_id":"cebpf4jnsgd1na2vs0mg"},{"bike_id":"a95689b9-33aa-4999-bcfa-e51f7b387b2a","system_id":"levelo_inurba_marseille","lat":43.27973,"lon":5.38736,"is_reserved":false,"is_disabled":true,"rental_uris":{"android":"levelo://app?vid=a95689b9-33aa-4999-bcfa-e51f7b387b2a","ios":"levelo://app?vid=a95689b9-33aa-4999-bcfa-e51f7b387b2a"},"vehicle_type_id":"4","last_reported":1733224121,"current_range_meters":0,"station_id":"ce4bhg12rcd13ifvqf80","pricing_plan_id":"cebpf4jnsgd1na2vs0mg"},{"bike_id":"b8afe9da-9a3d-438c-8fbb-80e14d663770","system_id":"levelo_inurba_marseille","lat":43.29521,"lon":5.39036,"is_reserved":false,"is_disabled":true,"rental_uris":{"android":"levelo://app?vid=b8afe9da-9a3d-438c-8fbb-80e14d663770","ios":"levelo://app?vid=b8afe9da-9a3d-438c-8fbb-80e14d663770"},"vehicle_type_id":"4","last_reported":1733224121,"current_range_meters":19600,"station_id":"ce4bh3p2rcd13ifvqdp0","pricing_plan_id":"cebpf4jnsgd1na2vs0mg"},{"bike_id":"fd6a8a04-9a40-49f5-beb2-6aaed26523a2","system_id":"levelo_inurba_marseille","lat":43.31358,"lon":5.36706,"is_reserved":false,"is_disabled":false,"rental_uris":{"android":"levelo://app?vid=fd6a8a04-9a40-49f5-beb2-6aaed26523a2","ios":"levelo://app?vid=fd6a8a04-9a40-49f5-beb2-6aaed26523a2"},"vehicle_type_id":"4","last_reported":1733224121,"current_range_meters":34000,"station_id":"ce4bgr92rcd13ifvqc6g","pricing_plan_id":"cebpf4jnsgd1na2vs0mg"},{"bike_id":"be8cd377-bf58-414c-876c-45495911bc5b","system_id":"levelo_inurba_marseille","lat":43.286848,"lon":5.410804,"is_reserved":false,"is_disabled":true,"rental_uris":{"android":"levelo://app?vid=be8cd377-bf58-414c-876c-45495911bc5b","ios":"levelo://app?vid=be8cd377-bf58-414c-876c-45495911bc5b"},"vehicle_type_id":"4","last_reported":1733224121,"current_range_meters":15200,"station_id":"","pricing_plan_id":"cebpf4jnsgd1na2vs0mg"},{"bike_id":"1dbbcb92-8b41-461d-a547-e0a0f419f470","system_id":"levelo_inurba_marseille","lat":43.27676,"lon":5.389,"is_reserved":false,"is_disabled":true,"rental_uris":{"android":"levelo://app?vid=1dbbcb92-8b41-461d-a547-e0a0f419f470","ios":"levelo://app?vid=1dbbcb92-8b41-461d-a547-e0a0f419f470"},"vehicle_type_id":"4","last_reported":1733224121,"current_range_meters":28800,"station_id":"ce4bhi12rcd13ifvqfo0","pricing_plan_id":"cebpf4jnsgd1na2vs0mg"},{"bike_id":"4645a393-0a2c-466f-b995-9389899b327c","system_id":"levelo_inurba_marseille","lat":43.2955,"lon":5.42285,"is_reserved":false,"is_disabled":false,"rental_uris":{"android":"levelo://app?vid=4645a393-0a2c-466f-b995-9389899b327c","ios":"levelo://app?vid=4645a393-0a2c-466f-b995-9389899b327c"},"vehicle_type_id":"4","last_reported":1733224121,"current_range_meters":25600,"station_id":"ce4bhph2rcd13ifvqhdg","pricing_plan_id":"cebpf4jnsgd1na2vs0mg"},{"bike_id":"8d94ae37-b1bf-46f0-8c5c-e08c5ca9486a","system_id":"levelo_inurba_marseille","lat":43.2395,"lon":5.36646,"is_reserved":false,"is_disabled":false,"rental_uris":{"android":"levelo://app?vid=8d94ae37-b1bf-46f0-8c5c-e08c5ca9486a","ios":"levelo://app?vid=8d94ae37-b1bf-46f0-8c5c-e08c5ca9486a"},"vehicle_type_id":"4","last_reported":1733224121,"current_range_meters":37600,"station_id":"ce4bhi12rcd13ifvqfp0","pricing_plan_id":"cebpf4jnsgd1na2vs0mg"},{"bike_id":"ab74d258-8d56-4ed9-9cb7-57ae1639ee73","system_id":"levelo_inurba_marseille","lat":43.26307,"lon":5.40134,"is_reserved":false,"is_disabled":true,"rental_uris":{"android":"levelo://app?vid=ab74d258-8d56-4ed9-9cb7-57ae1639ee73","ios":"levelo://app?vid=ab74d258-8d56-4ed9-9cb7-57ae1639ee73"},"vehicle_type_id":"4","last_reported":1733224121,"current_range_meters":0,"station_id":"","pricing_plan_id":"cebpf4jnsgd1na2vs0mg"},{"bike_id":"ddbab14a-1c97-47a4-8939-07127bb8ccdb","system_id":"levelo_inurba_marseille","lat":43.29584,"lon":5.36748,"is_reserved":false,"is_disabled":true,"rental_uris":{"android":"levelo://app?vid=ddbab14a-1c97-47a4-8939-07127bb8ccdb","ios":"levelo://app?vid=ddbab14a-1c97-47a4-8939-07127bb8ccdb"},"vehicle_type_id":"4","last_reported":1733224121,"current_range_meters":0,"station_id":"ce4bgph2rcd13ifvqc2g","pricing_plan_id":"cebpf4jnsgd1na2vs0mg"},{"bike_id":"298c5942-6ff2-4d74-8ffc-c0faca5ae7fb","system_id":"levelo_inurba_marseille","lat":43.30182,"lon":5.36605,"is_reserved":false,"is_disabled":false,"rental_uris":{"android":"levelo://app?vid=298c5942-6ff2-4d74-8ffc-c0faca5ae7fb","ios":"levelo://app?vid=298c5942-6ff2-4d74-8ffc-c0faca5ae7fb"},"vehicle_type_id":"4","last_reported":1733224121,"current_range_meters":27600,"station_id":"ce4bgrh2rcd13ifvqc8g","pricing_plan_id":"cebpf4jnsgd1na2vs0mg"},{"bike_id":"7f4b5f24-0326-4df2-8b9d-494987815fbe","system_id":"levelo_inurba_marseille","lat":43.30619,"lon":5.37263,"is_reserved":false,"is_disabled":true,"rental_uris":{"android":"levelo://app?vid=7f4b5f24-0326-4df2-8b9d-494987815fbe","ios":"levelo://app?vid=7f4b5f24-0326-4df2-8b9d-494987815fbe"},"vehicle_type_id":"4","last_reported":1733224121,"current_range_meters":1200,"station_id":"ce4bgqh2rcd13ifvqc4g","pricing_plan_id":"cebpf4jnsgd1na2vs0mg"},{"bike_id":"860f92b6-2de8-41bf-8565-4bac0a2ca538","system_id":"levelo_inurba_marseille","lat":43.26201,"lon":5.37919,"is_reserved":false,"is_disabled":false,"rental_uris":{"android":"levelo://app?vid=860f92b6-2de8-41bf-8565-4bac0a2ca538","ios":"levelo://app?vid=860f92b6-2de8-41bf-8565-4bac0a2ca538"},"vehicle_type_id":"4","last_reported":1733224121,"current_range_meters":36400,"station_id":"ce4bhjp2rcd13ifvqg90","pricing_plan_id":"cebpf4jnsgd1na2vs0mg"},{"bike_id":"d71c8cee-e359-494f-83f8-be9130ea613f","system_id":"levelo_inurba_marseille","lat":43.25723,"lon":5.41108,"is_reserved":false,"is_disabled":false,"rental_uris":{"android":"levelo://app?vid=d71c8cee-e359-494f-83f8-be9130ea613f","ios":"levelo://app?vid=d71c8cee-e359-494f-83f8-be9130ea613f"},"vehicle_type_id":"4","last_reported":1733224121,"current_range_meters":38800,"station_id":"ce4bhkp2rcd13ifvqgd0","pricing_plan_id":"cebpf4jnsgd1na2vs0mg"},{"bike_id":"3dabe718-5258-4617-8e51-dd9fb7d39d9c","system_id":"levelo_inurba_marseille","lat":43.25493,"lon":5.37647,"is_reserved":false,"is_disabled":false,"rental_uris":{"android":"levelo://app?vid=3dabe718-5258-4617-8e51-dd9fb7d39d9c","ios":"levelo://app?vid=3dabe718-5258-4617-8e51-dd9fb7d39d9c"},"vehicle_type_id":"4","last_reported":1733224121,"current_range_meters":24400,"station_id":"ce4bhh12rcd13ifvqff0","pricing_plan_id":"cebpf4jnsgd1na2vs0mg"},{"bike_id":"49bd129a-0c2a-40a1-ba32-925776295449","system_id":"levelo_inurba_marseille","lat":43.29279,"lon":5.36836,"is_reserved":false,"is_disabled":true,"rental_uris":{"android":"levelo://app?vid=49bd129a-0c2a-40a1-ba32-925776295449","ios":"levelo://app?vid=49bd129a-0c2a-40a1-ba32-925776295449"},"vehicle_type_id":"4","last_reported":1733224121,"current_range_meters":30000,"station_id":"ce4bhbp2rcd13ifvqesg","pricing_plan_id":"cebpf4jnsgd1na2vs0mg"},{"bike_id":"f4972a3b-77b5-4ed3-a999-58ae680537eb","system_id":"levelo_inurba_marseille","lat":43.30143,"lon":5.3742,"is_reserved":false,"is_disabled":false,"rental_uris":{"android":"levelo://app?vid=f4972a3b-77b5-4ed3-a999-58ae680537eb","ios":"levelo://app?vid=f4972a3b-77b5-4ed3-a999-58ae680537eb"},"vehicle_type_id":"4","last_reported":1733224121,"current_range_meters":35600,"station_id":"ce4bgs92rcd13ifvqcc0","pricing_plan_id":"cebpf4jnsgd1na2vs0mg"},{"bike_id":"c170131d-9e19-45a5-af16-6fa414ba3201","system_id":"levelo_inurba_marseille","lat":43.28362,"lon":5.38632,"is_reserved":false,"is_disabled":false,"rental_uris":{"android":"levelo://app?vid=c170131d-9e19-45a5-af16-6fa414ba3201","ios":"levelo://app?vid=c170131d-9e19-45a5-af16-6fa414ba3201"},"vehicle_type_id":"4","last_reported":1733224121,"current_range_meters":38400,"station_id":"ce4bh492rcd13ifvqdvg","pricing_plan_id":"cebpf4jnsgd1na2vs0mg"},{"bike_id":"84b75821-48fc-4fb9-a163-f14fef3bae78","system_id":"levelo_inurba_marseille","lat":43.26677,"lon":5.38265,"is_reserved":false,"is_disabled":false,"rental_uris":{"android":"levelo://app?vid=84b75821-48fc-4fb9-a163-f14fef3bae78","ios":"levelo://app?vid=84b75821-48fc-4fb9-a163-f14fef3bae78"},"vehicle_type_id":"4","last_reported":1733224121,"current_range_meters":18800,"station_id":"ce4bhg92rcd13ifvqf90","pricing_plan_id":"cebpf4jnsgd1na2vs0mg"},{"bike_id":"e6b4ae8f-5459-4307-a9d5-1ce11ae425e8","system_id":"levelo_inurba_marseille","lat":43.29532,"lon":5.37493,"is_reserved":false,"is_disabled":true,"rental_uris":{"android":"levelo://app?vid=e6b4ae8f-5459-4307-a9d5-1ce11ae425e8","ios":"levelo://app?vid=e6b4ae8f-5459-4307-a9d5-1ce11ae425e8"},"vehicle_type_id":"4","last_reported":1733224121,"current_range_meters":0,"station_id":"ce4bgkp2rcd13ifvqbmg","pricing_plan_id":"cebpf4jnsgd1na2vs0mg"},{"bike_id":"4db181ad-17da-42fb-b3a1-6b617a6391e7","system_id":"levelo_inurba_marseille","lat":43.29708,"lon":5.36613,"is_reserved":false,"is_disabled":false,"rental_uris":{"android":"levelo://app?vid=4db181ad-17da-42fb-b3a1-6b617a6391e7","ios":"levelo://app?vid=4db181ad-17da-42fb-b3a1-6b617a6391e7"},"vehicle_type_id":"4","last_reported":1733224121,"current_range_meters":33200,"station_id":"ce4bgn12rcd13ifvqbt0","pricing_plan_id":"cebpf4jnsgd1na2vs0mg"},{"bike_id":"05b1cad6-5837-4262-89e7-cdd743700db1","system_id":"levelo_inurba_marseille","lat":43.23148,"lon":5.43726,"is_reserved":false,"is_disabled":false,"rental_uris":{"android":"levelo://app?vid=05b1cad6-5837-4262-89e7-cdd743700db1","ios":"levelo://app?vid=05b1cad6-5837-4262-89e7-cdd743700db1"},