{"last_updated":1706454320,"ttl":30,"version":"2.2","data":{"bikes":[{"bike_id":"26eb7c4c-d820-4609-a57f-4739d1caec33","system_id":"levelo_inurba_marseille","lat":43.31341,"lon":5.367098,"is_reserved":false,"is_disabled":false,"rental_uris":{"android":"levelo://app?vid=26eb7c4c-d820-4609-a57f-4739d1caec33","ios":"levelo://app?vid=26eb7c4c-d820-4609-a57f-4739d1caec33"},"vehicle_type_id":"4","last_reported":1706454320,"current_range_meters":30000,"station_id":"ce4bgr92rcd13ifvqc6g","pricing_plan_id":"free"},{"bike_id":"869b492d-2884-45ef-b775-ad5e200f5295","system_id":"levelo_inurba_marseille","lat":43.31341,"lon":5.367098,"is_reserved":false,"is_disabled":false,"rental_uris":{"android":"levelo://app?vid=869b492d-2884-45ef-b775-ad5e200f5295","ios":"levelo://app?vid=869b492d-2884-45ef-b775-ad5e200f5295"},"vehicle_type_id":"4","last_reported":1706454320,"current_range_meters":30000,"station_id":"ce4bgr92rcd13ifvqc6g","pricing_plan_id":"free"},{"bike_id":"6d62df7d-1424-4269-96de-d92955ba9c4e","system_id":"levelo_inurba_marseille","lat":43.312239,"lon":5.368562,"is_reserved":false,"is_disabled":false,"rental_uris":{"android":"levelo://app?vid=6d62df7d-1424-4269-96de-d92955ba9c4e","ios":"levelo://app?vid=6d62df7d-1424-4269-96de-d92955ba9c4e"},"vehicle_type_id":"4","last_reported":1706454320,"current_range_meters":30000,"station_id":"ce4bgl92rcd13ifvqbq0","pricing_plan_id":"free"},{"bike_id":"735165c4-64c4-4b08-bb51-409503b731c5","system_id":"levelo_inurba_marseille","lat":43.312239,"lon":5.368562,"is_reserved":false,"is_disabled":false,"rental_uris":{"android":"levelo://app?vid=735165c4-64c4-4b08-bb51-409503b731c5","ios":"levelo://app?vid=735165c4-64c4-4b08-bb51-409503b731c5"},"vehicle_type_id":"4","last_reported":1706454320,"current_range_meters":29200,"station_id":"ce4bgl92rcd13ifvqbq0","pricing_plan_id":"free"},{"bike_id":"c8715b5f-9c32-4ce9-91e7-af07b0123c00","system_id":"levelo_inurba_marseille","lat":43.312239,"lon":5.368562,"is_reserved":false,"is_disabled":false,"rental_uris":{"android":"levelo://app?vid=c8715b5f-9c32-4ce9-91e7-af07b0123c00","ios":"levelo://app?vid=c8715b5f-9c32-4ce9-91e7-af07b0123c00"},"vehicle_type_id":"4","last_reported":1706454320,"current_range_meters":29200,"station_id":"ce4bgl92rcd13ifvqbq0","pricing_plan_id":"free"},{"bike_id":"f493d9c4-b117-4c79-ba72-2ce3df9e8b9c","system_id":"levelo_inurba_marseille","lat":43.312239,"lon":5.368562,"is_reserved":false,"is_disabled":false,"rental_uris":{"android":"levelo://app?vid=f493d9c4-b117-4c79-ba72-2ce3df9e8b9c","ios":"levelo://app?vid=f493d9c4-b117-4c79-ba72-2ce3df9e8b9c"},"vehicle_type_id":"4","last_reported":1706454320,"current_range_meters":7200,"station_id":"ce4bgl92rcd13ifvqbq0","pricing_plan_id":"free"},{"bike_id":"0b182d6f-1d21-4aa2-8ef8-40cddb83e648","system_id":"levelo_inurba_marseille","lat":43.309076,"lon":5.368465,"is_reserved":false,"is_disabled":false,"rental_uris":{"android":"levelo://app?vid=0b182d6f-1d21-4aa2-8ef8-40cddb83e648","ios":"levelo://app?vid=0b182d6f-1d21-4aa2-8ef8-40cddb83e648"},"vehicle_type_id":"4","last_reported":1706454320,"current_range_meters":8400,"station_id":"ce4bgn92rcd13ifvqbvg","pricing_plan_id":"free"},{"bike_id":"100937f0-ce09-4bcc-a6d1-37aa82c8a800","system_id":"levelo_inurba_marseille","lat":43.309076,"lon":5.368465,"is_reserved":false,"is_disabled":false,"rental_uris":{"android":"levelo://app?vid=100937f0-ce09-4bcc-a6d1-37aa82c8a800","ios":"levelo://app?vid=100937f0-ce09-4bcc-a6d1-37aa82c8a800"},"vehicle_type_id":"4","last_reported":1706454320,"current_range_meters":4800,"station_id":"ce4bgn92rcd13ifvqbvg","pricing_plan_id":"free"},{"bike_id":"84d8eca5-35ee-438d-885e-b336406c324c","system_id":"levelo_inurba_marseille","lat":43.309039,"lon":5.371797,"is_reserved":false,"is_disabled":false,"rental_uris":{"android":"levelo://app?vid=84d8eca5-35ee-438d-885e-b336406c324c","ios":"levelo://app?vid=84d8eca5-35ee-438d-885e-b336406c324c"},"vehicle_type_id":"4","last_reported":1706454320,"current_range_meters":2000,"station_id":"ce4bguh2rcd13ifvqckg","pricing_plan_id":"free"},{"bike_id":"095e7170-4c6f-4061-b2a6-ae424c9439f0","system_id":"levelo_inurba_marseille","lat":43.31479,"lon":5.37309,"is_reserved":false,"is_disabled":false,"rental_uris":{"android":"levelo://app?vid=095e7170-4c6f-4061-b2a6-ae424c9439f0","ios":"levelo://app?vid=095e7170-4c6f-4061-b2a6-ae424c9439f0"},"vehicle_type_id":"4","last_reported":1706454320,"current_range_meters":0,"station_id":"ce4bgt12rcd13ifvqcd0","pricing_plan_id":"free"},{"bike_id":"1a3d829b-da0a-440e-bd77-4996fdba56bf","system_id":"levelo_inurba_marseille","lat":43.314811,"lon":5.373104,"is_reserved":false,"is_disabled":false,"rental_uris":{"android":"levelo://app?vid=1a3d829b-da0a-440e-bd77-4996fdba56bf","ios":"levelo://app?vid=1a3d829b-da0a-440e-bd77-4996fdba56bf"},"vehicle_type_id":"4","last_reported":1706454320,"current_range_meters":28400,"station_id":"ce4bgt12rcd13ifvqcd0","pricing_plan_id":"free"},{"bike_id":"c26d9d98-cd68-4a8a-a849-f715a3d4b2a6","system_id":"levelo_inurba_marseille","lat":43.314811,"lon":5.373104,"is_reserved":false,"is_disabled":false,"rental_uris":{"android":"levelo://app?vid=c26d9d98-cd68-4a8a-a849-f715a3d4b2a6","ios":"levelo://app?vid=c26d9d98-cd68-4a8a-a849-f715a3d4b2a6"},"vehicle_type_id":"4","last_reported":1706454320,"current_range_meters":0,"station_id":"ce4bgt12rcd13ifvqcd0","pricing_plan_id":"free"},{"bike_id":"0c879c7c-b478-4341-b557-d8fa9e7ce411","system_id":"levelo_inurba_marseille","lat":43.314811,"lon":5.373104,"is_reserved":false,"is_disabled":false,"rental_uris":{"android":"levelo://app?vid=0c879c7c-b478-4341-b557-d8fa9e7ce411","ios":"levelo://app?vid=0c879c7c-b478-4341-b557-d8fa9e7ce411"},"vehicle_type_id":"4","last_reported":1706454320,"current_range_meters":30800,"station_id":"ce4bgt12rcd13ifvqcd0","pricing_plan_id":"free"},{"bike_id":"8459d3f1-3b3b-4465-9b5e-90b85a407091","system_id":"levelo_inurba_marseille","lat":43.314811,"lon":5.373104,"is_reserved":false,"is_disabled":false,"rental_uris":{"android":"levelo://app?vid=8459d3f1-3b3b-4465-9b5e-90b85a407091","ios":"levelo://app?vid=8459d3f1-3b3b-4465-9b5e-90b85a407091"},"vehicle_type_id":"4","last_reported":1706454320,"current_range_meters":0,"station_id":"ce4bgt12rcd13ifvqcd0","pricing_plan_id":"free"},{"bike_id":"822799cb-e276-4f23-852b-c4e265879aa5","system_id":"levelo_inurba_marseille","lat":43.309039,"lon":5.371797,"is_reserved":false,"is_disabled":false,"rental_uris":{"android":"levelo://app?vid=822799cb-e276-4f23-852b-c4e265879aa5","ios":"levelo://app?vid=822799cb-e276-4f23-852b-c4e265879aa5"},"vehicle_type_id":"4","last_reported":1706454320,"current_range_meters":4800,"station_id":"ce4bguh2rcd13ifvqckg","pricing_plan_id":"free"},{"bike_id":"dbaa0cda-c2ed-4aab-8224-3b837e90abd0","system_id":"levelo_inurba_marseille","lat":43.305368,"lon":5.367343,"is_reserved":false,"is_disabled":false,"rental_uris":{"android":"levelo://app?vid=dbaa0cda-c2ed-4aab-8224-3b837e90abd0","ios":"levelo://app?vid=dbaa0cda-c2ed-4aab-8224-3b837e90abd0"},"vehicle_type_id":"4","last_reported":1706454320,"current_range_meters":14400,"station_id":"ce4bgrp2rcd13ifvqc9g","pricing_plan_id":"free"},{"bike_id":"336644a3-7390-476d-98f8-37fd4c639279","system_id":"levelo_inurba_marseille","lat":43.305368,"lon":5.367343,"is_reserved":false,"is_disabled":false,"rental_uris":{"android":"levelo://app?vid=336644a3-7390-476d-98f8-37fd4c639279","ios":"levelo://app?vid=336644a3-7390-476d-98f8-37fd4c639279"},"vehicle_type_id":"4","last_reported":1706454320,"current_range_meters":30000,"station_id":"ce4bgrp2rcd13ifvqc9g","pricing_plan_id":"free"},{"bike_id":"4dbce1f5-73e5-4706-b317-bdbf2f603d15","system_id":"levelo_inurba_marseille","lat":43.305989,"lon":5.37225,"is_reserved":false,"is_disabled":false,"rental_uris":{"android":"levelo://app?vid=4dbce1f5-73e5-4706-b317-bdbf2f603d15","ios":"levelo://app?vid=4dbce1f5-73e5-4706-b317-bdbf2f603d15"},"vehicle_type_id":"4","last_reported":1706454320,"current_range_meters":30000,"station_id":"ce4bgqh2rcd13ifvqc4g","pricing_plan_id":"free"},{"bike_id":"b2ae720a-3005-4abb-b972-f6e5a69aa25a","system_id":"levelo_inurba_marseille","lat":43.317075,"lon":5.377367,"is_reserved":false,"is_disabled":false,"rental_uris":{"android":"levelo://app?vid=b2ae720a-3005-4abb-b972-f6e5a69aa25a","ios":"levelo://app?vid=b2ae720a-3005-4abb-b972-f6e5a69aa25a"},"vehicle_type_id":"4","last_reported":1706454320,"current_range_meters":2400,"station_id":"ce4bgth2rcd13ifvqch0","pricing_plan_id":"free"},{"bike_id":"6fff0b7d-2514-4e0c-a138-b6e9cb85be95","system_id":"levelo_inurba_marseille","lat":43.317075,"lon":5.377367,"is_reserved":false,"is_disabled":false,"rental_uris":{"android":"levelo://app?vid=6fff0b7d-2514-4e0c-a138-b6e9cb85be95","ios":"levelo://app?vid=6fff0b7d-2514-4e0c-a138-b6e9cb85be95"},"vehicle_type_id":"4","last_reported":1706454320,"current_range_meters":31200,"station_id":"ce4bgth2rcd13ifvqch0","pricing_plan_id":"free"},{"bike_id":"bf70306f-e475-47ca-8724-a7e42b25d923","system_id":"levelo_inurba_marseille","lat":43.317075,"lon":5.377367,"is_reserved":false,"is_disabled":false,"rental_uris":{"android":"levelo://app?vid=bf70306f-e475-47ca-8724-a7e42b25d923","ios":"levelo://app?vid=bf70306f-e475-47ca-8724-a7e42b25d923"},"vehicle_type_id":"4","last_reported":1706454320,"current_range_meters":30800,"station_id":"ce4bgth2rcd13ifvqch0","pricing_plan_id":"free"},{"bike_id":"b83daeb9-a39c-4884-86e2-16a37c651f7f","system_id":"levelo_inurba_marseille","lat":43.320056,"lon":5.376214,"is_reserved":false,"is_disabled":false,"rental_uris":{"android":"levelo://app?vid=b83daeb9-a39c-4884-86e2-16a37c651f7f","ios":"levelo://app?vid=b83daeb9-a39c-4884-86e2-16a37c651f7f"},"vehicle_type_id":"4","last_reported":1706454320,"current_range_meters":5600,"station_id":"","pricing_plan_id":"free"},{"bike_id":"2ef4199d-9d0a-4c08-8a51-c699d37ed061","system_id":"levelo_inurba_marseille","lat":43.301939,"lon":5.366286,"is_reserved":false,"is_disabled":false,"rental_uris":{"android":"levelo://app?vid=2ef4199d-9d0a-4c08-8a51-c699d37ed061","ios":"levelo://app?vid=2ef4199d-9d0a-4c08-8a51-c699d37ed061"},"vehicle_type_id":"4","last_reported":1706454320,"current_range_meters":21200,"station_id":"ce4bgrh2rcd13ifvqc8g","pricing_plan_id":"free"},{"bike_id":"dc00bdf8-dc57-4b02-8d44-8ea4906debe3","system_id":"levelo_inurba_marseille","lat":43.324771,"lon":5.36557,"is_reserved":false,"is_disabled":false,"rental_uris":{"android":"levelo://app?vid=dc00bdf8-dc57-4b02-8d44-8ea4906debe3","ios":"levelo://app?vid=dc00bdf8-dc57-4b02-8d44-8ea4906debe3"},"vehicle_type_id":"4","last_reported":1706454320,"current_range_meters":17600,"station_id":"ce4bhs12rcd13ifvqhvg","pricing_plan_id":"free"},{"bike_id":"4eb31649-fe20-440b-aa1f-056deaf98bc8","system_id":"levelo_inurba_marseille","lat":43.30143,"lon":5.37413,"is_reserved":false,"is_disabled":false,"rental_uris":{"android":"levelo://app?vid=4eb31649-fe20-440b-aa1f-056deaf98bc8","ios":"levelo://app?vid=4eb31649-fe20-440b-aa1f-056deaf98bc8"},"vehicle_type_id":"4","last_reported":1706454320,"current_range_meters":4800,"station_id":"ce4bgs92rcd13ifvqcc0","pricing_plan_id":"free"},{"bike_id":"edb73086-6ed8-4443-81ce-ff8c5176eab3","system_id":"levelo_inurba_marseille","lat":43.298433,"lon":5.362774,"is_reserved":false,"is_disabled":false,"rental_uris":{"android":"levelo://app?vid=edb73086-6ed8-4443-81ce-ff8c5176eab3","ios":"levelo://app?vid=edb73086-6ed8-4443-81ce-ff8c5176eab3"},"vehicle_type_id":"4","last_reported":1706454320,"current_range_meters":11600,"station_id":"ce4bgpp2rcd13ifvqc3g","pricing_plan_id":"free"},{"bike_id":"45300dfc-5695-46a5-a00a-9bfeedfa8b59","system_id":"levelo_inurba_marseille","lat":43.2985,"lon":5.36289,"is_reserved":false,"is_disabled":false,"rental_uris":{"android":"levelo://app?vid=45300dfc-5695-46a5-a00a-9bfeedfa8b59","ios":"levelo://app?vid=45300dfc-5695-46a5-a00a-9bfeedfa8b59"},"vehicle_type_id":"4","last_reported":1706454320,"current_range_meters":0,"station_id":"ce4bgpp2rcd13ifvqc3g","pricing_plan_id":"free"},{"bike_id":"c347e128-e5ef-4fd6-943f-8acdbb0bd2f9","system_id":"levelo_inurba_marseille","lat":43.298433,"lon":5.362774,"is_reserved":false,"is_disabled":false,"rental_uris":{"android":"levelo://app?vid=c347e128-e5ef-4fd6-943f-8acdbb0bd2f9","ios":"levelo://app?vid=c347e128-e5ef-4fd6-943f-8acdbb0bd2f9"},"vehicle_type_id":"4","last_reported":1706454320,"current_range_meters":7200,"station_id":"ce4bgpp2rcd13ifvqc3g","pricing_plan_id":"free"},{"bike_id":"69f11149-2799-486f-bb3b-74ca76b92b12","system_id":"levelo_inurba_marseille","lat":43.298433,"lon":5.362774,"is_reserved":false,"is_disabled":false,"rental_uris":{"android":"levelo://app?vid=69f11149-2799-486f-bb3b-74ca76b92b12","ios":"levelo://app?vid=69f11149-2799-486f-bb3b-74ca76b92b12"},"vehicle_type_id":"4","last_reported":1706454320,"current_range_meters":26800,"station_id":"ce4bgpp2rcd13ifvqc3g","pricing_plan_id":"free"},{"bike_id":"e1539f0d-02e3-46ca-8fd2-b115fd55a782","system_id":"levelo_inurba_marseille","lat":43.322872,"lon":5.382756,"is_reserved":false,"is_disabled":false,"rental_uris":{"android":"levelo://app?vid=e1539f0d-02e3-46ca-8fd2-b115fd55a782","ios":"levelo://app?vid=e1539f0d-02e3-46ca-8fd2-b115fd55a782"},"vehicle_type_id":"4","last_reported":1706454320,"current_range_meters":24400,"station_id":"ce4bhr12rcd13ifvqhqg","pricing_plan_id":"free"},{"bike_id":"29681540-ea76-4bd8-9b98-4da22d2bca06","system_id":"levelo_inurba_marseille","lat":43.322872,"lon":5.382756,"is_reserved":false,"is_disabled":false,"rental_uris":{"android":"levelo://app?vid=29681540-ea76-4bd8-9b98-4da22d2bca06","ios":"levelo://app?vid=29681540-ea76-4bd8-9b98-4da22d2bca06"},"vehicle_type_id":"4","last_reported":1706454320,"current_range_meters":24400,"station_id":"ce4bhr12rcd13ifvqhqg","pricing_plan_id":"free"},{"bike_id":"8820e2b9-8d94-4ecf-b398-c5169cc47e3d","system_id":"levelo_inurba_marseille","lat":43.322872,"lon":5.382756,"is_reserved":false,"is_disabled":false,"rental_uris":{"android":"levelo://app?vid=8820e2b9-8d94-4ecf-b398-c5169cc47e3d","ios":"levelo://app?vid=8820e2b9-8d94-4ecf-b398-c5169cc47e3d"},"vehicle_type_id":"4","last_reported":1706454320,"current_range_meters":30800,"station_id":"ce4bhr12rcd13ifvqhqg","pricing_plan_id":"free"},{"bike_id":"0f7b98a3-6434-4866-adac-ccd99f91e009","system_id":"levelo_inurba_marseille","lat":43.32826,"lon":5.36686,"is_reserved":false,"is_disabled":false,"rental_uris":{"android":"levelo://app?vid=0f7b98a3-6434-4866-adac-ccd99f91e009","ios":"levelo://app?vid=0f7b98a3-6434-4866-adac-ccd99f91e009"},"vehicle_type_id":"4","last_reported":1706454320,"current_range_meters":0,"station_id":"ce4bhs92rcd13ifvqi0g","pricing_plan_id":"free"},{"bike_id":"e46bb925-481b-445c-8790-e0bc35914cef","system_id":"levelo_inurba_marseille","lat":43.32828,"lon":5.36674,"is_reserved":false,"is_disabled":false,"rental_uris":{"android":"levelo://app?vid=e46bb925-481b-445c-8790-e0bc35914cef","ios":"levelo://app?vid=e46bb925-481b-445c-8790-e0bc35914cef"},"vehicle_type_id":"4","last_reported":1706454320,"current_range_meters":22400,"station_id":"ce4bhs92rcd13ifvqi0g","pricing_plan_id":"free"},{"bike_id":"1e3dac1e-79bb-416e-9a25-92222494a4ee","system_id":"levelo_inurba_marseille","lat":43.328371,"lon":5.366912,"is_reserved":false,"is_disabled":false,"rental_uris":{"android":"levelo://app?vid=1e3dac1e-79bb-416e-9a25-92222494a4ee","ios":"levelo://app?vid=1e3dac1e-79bb-416e-9a25-92222494a4ee"},"vehicle_type_id":"4","last_reported":1706454320,"current_range_meters":18000,"station_id":"ce4bhs92rcd13ifvqi0g","pricing_plan_id":"free"},{"bike_id":"12edd8fe-ac42-424b-86a0-ddbc64b4f114","system_id":"levelo_inurba_marseille","lat":43.328371,"lon":5.366909,"is_reserved":false,"is_disabled":false,"rental_uris":{"android":"levelo://app?vid=12edd8fe-ac42-424b-86a0-ddbc64b4f114","ios":"levelo://app?vid=12edd8fe-ac42-424b-86a0-ddbc64b4f114"},"vehicle_type_id":"4","last_reported":1706454320,"current_range_meters":13200,"station_id":"ce4bhs92rcd13ifvqi0g","pricing_plan_id":"free"},{"bike_id":"af1c8fc0-8183-4d68-848c-9159b1d2bf45","system_id":"levelo_inurba_marseille","lat":43.328371,"lon":5.366909,"is_reserved":false,"is_disabled":false,"rental_uris":{"android":"levelo://app?vid=af1c8fc0-8183-4d68-848c-9159b1d2bf45","ios":"levelo://app?vid=af1c8fc0-8183-4d68-848c-9159b1d2bf45"},"vehicle_type_id":"4","last_reported":1706454320,"current_range_meters":10000,"station_id":"ce4bhs92rcd13ifvqi0g","pricing_plan_id":"free"},{"bike_id":"1c92a68f-dd19-40cd-a344-b9886f7050a4","system_id":"levelo_inurba_marseille","lat":43.32832,"lon":5.36665,"is_reserved":false,"is_disabled":false,"rental_uris":{"android":"levelo://app?vid=1c92a68f-dd19-40cd-a344-b9886f7050a4","ios":"levelo://app?vid=1c92a68f-dd19-40cd-a344-b9886f7050a4"},"vehicle_type_id":"4","last_reported":1706454320,"current_range_meters":26400,"station_id":"ce4bhs92rcd13ifvqi0g","pricing_plan_id":"free"},{"bike_id":"3f459c05-3012-4433-b687-9d2bfb0fa41d","system_id":"levelo_inurba_marseille","lat":43.297163,"lon":5.365866,"is_reserved":false,"is_disabled":false,"rental_uris":{"android":"levelo://app?vid=3f459c05-3012-4433-b687-9d2bfb0fa41d","ios":"levelo://app?vid=3f459c05-3012-4433-b687-9d2bfb0fa41d"},"vehicle_type_id":"4","last_reported":1706454320,"current_range_meters":2000,"station_id":"ce4bgn12rcd13ifvqbt0","pricing_plan_id":"free"},{"bike_id":"a9cfc7c0-8b0c-46d1-bef7-a15a706c1148","system_id":"levelo_inurba_marseille","lat":43.2968,"lon":5.37291,"is_reserved":false,"is_disabled":false,"rental_uris":{"android":"levelo://app?vid=a9cfc7c0-8b0c-46d1-bef7-a15a706c1148","ios":"levelo://app?vid=a9cfc7c0-8b0c-46d1-bef7-a15a706c1148"},"vehicle_type_id":"4","last_reported":1706454320,"current_range_meters":22400,"station_id":"ce4bgk12rcd13ifvqbj0","pricing_plan_id":"free"},{"bike_id":"bccdda85-004e-44f8-82bf-24ff61512587","system_id":"levelo_inurba_marseille","lat":43.296131,"lon":5.370791,"is_reserved":false,"is_disabled":false,"rental_uris":{"android":"levelo://app?vid=bccdda85-004e-44f8-82bf-24ff61512587","ios":"levelo://app?vid=bccdda85-004e-44f8-82bf-24ff61512587"},"vehicle_type_id":"4","last_reported":1706454320,"current_range_meters":23200,"station_id":"ce4bgnh2rcd13ifvqc0g","pricing_plan_id":"free"},{"bike_id":"804061e8-4fcb-4367-92d1-abddc6e9870b","system_id":"levelo_inurba_marseille","lat":43.29573,"lon":5.367355,"is_reserved":false,"is_disabled":false,"rental_uris":{"android":"levelo://app?vid=804061e8-4fcb-4367-92d1-abddc6e9870b","ios":"levelo://app?vid=804061e8-4fcb-4367-92d1-abddc6e9870b"},"vehicle_type_id":"4","last_reported":1706454320,"current_range_meters":20400,"station_id":"ce4bgph2rcd13ifvqc2g","pricing_plan_id":"free"},{"bike_id":"4a480e19-84bc-45c8-8759-856255e25e7e","system_id":"levelo_inurba_marseille","lat":43.29573,"lon":5.367355,"is_reserved":false,"is_disabled":false,"rental_uris":{"android":"levelo://app?vid=4a480e19-84bc-45c8-8759-856255e25e7e","ios":"levelo://app?vid=4a480e19-84bc-45c8-8759-856255e25e7e"},"vehicle_type_id":"4","last_reported":1706454320,"current_range_meters":3600,"station_id":"ce4bgph2rcd13ifvqc2g","pricing_plan_id":"free"},{"bike_id":"84765d62-6690-4dbc-98cf-c055fdf3b0c7","system_id":"levelo_inurba_marseille","lat":43.304274,"lon":5.388873,"is_reserved":false,"is_disabled":false,"rental_uris":{"android":"levelo://app?vid=84765d62-6690-4dbc-98cf-c055fdf3b0c7","ios":"levelo://app?vid=84765d62-6690-4dbc-98cf-c055fdf3b0c7"},"vehicle_type_id":"4","last_reported":1706454320,"current_range_meters":11600,"station_id":"ce4bgk12rcd13ifvqbi0","pricing_plan_id":"free"},{"bike_id":"dbb6b770-7862-4adb-a204-907e9f7499e8","system_id":"levelo_inurba_marseille","lat":43.304278,"lon":5.388868,"is_reserved":false,"is_disabled":false,"rental_uris":{"android":"levelo://app?vid=dbb6b770-7862-4adb-a204-907e9f7499e8","ios":"levelo://app?vid=dbb6b770-7862-4adb-a204-907e9f7499e8"},"vehicle_type_id":"4","last_reported":1706454320,"current_range_meters":23600,"station_id":"ce4bgk12rcd13ifvqbi0","pricing_plan_id":"free"},{"bike_id":"6b3ead61-9279-41af-80a6-bf05e3214d0f","system_id":"levelo_inurba_marseille","lat":43.295748,"lon":5.37522,"is_reserved":false,"is_disabled":false,"rental_uris":{"android":"levelo://app?vid=6b3ead61-9279-41af-80a6-bf05e3214d0f","ios":"levelo://app?vid=6b3ead61-9279-41af-80a6-bf05e3214d0f"},"vehicle_type_id":"4","last_reported":1706454320,"current_range_meters":17600,"station_id":"ce4bgh92rcd13ifvqb50","pricing_plan_id":"free"},{"bike_id":"09cd9b95-94c4-4551-b20b-af91b28baa89","system_id":"levelo_inurba_marseille","lat":43.295279,"lon":5.375048,"is_reserved":false,"is_disabled":false,"rental_uris":{"android":"levelo://app?vid=09cd9b95-94c4-4551-b20b-af91b28baa89","ios":"levelo://app?vid=09cd9b95-94c4-4551-b20b-af91b28baa89"},"vehicle_type_id":"4","last_reported":1706454320,"current_range_meters":6400,"station_id":"ce4bgkp2rcd13ifvqbmg","pricing_plan_id":"free"},{"bike_id":"7da053e7-cbb8-4edc-afb8-0487402cd6f9","system_id":"levelo_inurba_marseille","lat":43.299717,"lon":5.384845,"is_reserved":false,"is_disabled":false,"rental_uris":{"android":"levelo://app?vid=7da053e7-cbb8-4edc-afb8-0487402cd6f9","ios":"levelo://app?vid=7da053e7-cbb8-4edc-afb8-0487402cd6f9"},"vehicle_type_id":"4","last_reported":1706454320,"current_range_meters":12000,"station_id":"ce4bgj92rcd13ifvqbd0","pricing_plan_id":"free"},{"bike_id":"1b3a9128-f322-47d4-8587-c613dad3f228","system_id":"levelo_inurba_marseille","lat":43.299724,"lon":5.384848,"is_reserved":false,"is_disabled":false,"rental_uris":{"android":"levelo://app?vid=1b3a9128-f322-47d4-8587-c613dad3f228","ios":"levelo://app?vid=1b3a9128-f322-47d4-8587-c613dad3f228"},"vehicle_type_id":"4","last_reported":1706454320,"current_range_meters":800,"station_id":"ce4bgj92rcd13ifvqbd0","pricing_plan_id":"free"},{"bike_id":"2aacea32-6038-4482-a3b5-a639a1efed8a","system_id":"levelo_inurba_marseille","lat":43.304274,"lon":5.388873,"is_reserved":false,"is_disabled":false,"rental_uris":{"android":"levelo://app?vid=2aacea32-6038-4482-a3b5-a639a1efed8a","ios":"levelo://app?vid=2aacea32-6038-4482-a3b5-a639a1efed8a"},"vehicle_type_id":"4","last_reported":1706454320,"current_range_meters":14800,"station_id":"ce4bgk12rcd13ifvqbi0","pricing_plan_id":"free"},{"bike_id":"fc5ee4fc-45ab-4489-88a1-4db976a402bc","system_id":"levelo_inurba_marseille","lat":43.309589,"lon":5.390258,"is_reserved":false,"is_disabled":false,"rental_uris":{"android":"levelo://app?vid=fc5ee4fc-45ab-4489-88a1-4db976a402bc","ios":"levelo://app?vid=fc5ee4fc-45ab-4489-88a1-4db976a402bc"},"vehicle_type_id":"4","last_reported":1706454320,"current_range_meters":9200,"station_id":"ce4bgup2rcd13ifvqco0","pricing_plan_id":"free"},{"bike_id":"311f2bb5-da85-44fc-915b-153e21fa0c75","system_id":"levelo_inurba_marseille","lat":43.32368,"lon":5.38883,"is_reserved":false,"is_disabled":false,"rental_uris":{"android":"levelo://app?vid=311f2bb5-da85-44fc-915b-153e21fa0c75","ios":"levelo://app?vid=311f2bb5-da85-44fc-915b-153e21fa0c75"},"vehicle_type_id":"4","last_reported":1706454320,"current_range_meters":0,"station_id":"ce4bhqp2rcd13ifvqhog","pricing_plan_id":"free"},{"bike_id":"940e1409-23ae-44ba-bd03-8cc48a154e07","system_id":"levelo_inurba_marseille","lat":43.292749,"lon":5.368402,"is_reserved":false,"is_disabled":false,"rental_uris":{"android":"levelo://app?vid=940e1409-23ae-44ba-bd03-8cc48a154e07","ios":"levelo://app?vid=940e1409-23ae-44ba-bd03-8cc48a154e07"},"vehicle_type_id":"4","last_reported":1706454320,"current_range_meters":2800,"station_id":"ce4bhbp2rcd13ifvqesg","pricing_plan_id":"free"},{"bike_id":"cf4c9773-22cb-4fc7-91ce-c921bd807c2d","system_id":"levelo_inurba_marseille","lat":43.29311,"lon":5.37179,"is_reserved":false,"is_disabled":false,"rental_uris":{"android":"levelo://app?vid=cf4c9773-22cb-4fc7-91ce-c921bd807c2d","ios":"levelo://app?vid=cf4c9773-22cb-4fc7-91ce-c921bd807c2d"},"vehicle_type_id":"4","last_reported":1706454320,"current_range_meters":22800,"station_id":"ce4bgh92rcd13ifvqb40","pricing_plan_id":"free"},{"bike_id":"33e60b59-73b9-4cc4-abef-fdda585c2985","system_id":"levelo_inurba_marseille","lat":43.2931,"lon":5.37173,"is_reserved":false,"is_disabled":false,"rental_uris":{"android":"levelo://app?vid=33e60b59-73b9-4cc4-abef-fdda585c2985","ios":"levelo://app?vid=33e60b59-73b9-4cc4-abef-fdda585c2985"},"vehicle_type_id":"4","last_reported":1706454320,"current_range_meters":9600,"station_id":"ce4bgh92rcd13ifvqb40","pricing_plan_id":"free"},{"bike_id":"eecdbd76-6524-4388-9a2c-06f07be29bca","system_id":"levelo_inurba_marseille","lat":43.29307,"lon":5.37172,"is_reserved":false,"is_disabled":false,"rental_uris":{"android":"levelo://app?vid=eecdbd76-6524-4388-9a2c-06f07be29bca","ios":"levelo://app?vid=eecdbd76-6524-4388-9a2c-06f07be29bca"},"vehicle_type_id":"4","last_reported":1706454320,"current_range_meters":4800,"station_id":"ce4bgh92rcd13ifvqb40","pricing_plan_id":"free"},{"bike_id":"37f4f7e3-bb85-4f53-8886-452759cccbb5","system_id":"levelo_inurba_marseille","lat":43.29268,"lon":5.36853,"is_reserved":false,"is_disabled":false,"rental_uris":{"android":"levelo://app?vid=37f4f7e3-bb85-4f53-8886-452759cccbb5","ios":"levelo://app?vid=37f4f7e3-bb85-4f53-8886-452759cccbb5"},"vehicle_type_id":"4","last_reported":1706454320,"current_range_meters":0,"station_id":"ce4bhbp2rcd13ifvqesg","pricing_plan_id":"free"},{"bike_id":"8160a596-60b0-490c-8ebc-4db149396981","system_id":"levelo_inurba_marseille","lat":43.293009,"lon":5.374584,"is_reserved":false,"is_disabled":false,"rental_uris":{"android":"levelo://app?vid=8160a596-60b0-490c-8ebc-4db149396981","ios":"levelo://app?vid=8160a596-60b0-490c-8ebc-4db149396981"},"vehicle_type_id":"4","last_reported":1706454320,"current_range_meters":0,"station_id":"ce4bgi12rcd13ifvqb70","pricing_plan_id":"free"},{"bike_id":"bf4fac92-fd73-4902-98b9-8039201ac607","system_id":"levelo_inurba_marseille","lat":43.29316,"lon":5.37478,"is_reserved":false,"is_disabled":false,"rental_uris":{"android":"levelo://app?vid=bf4fac92-fd73-4902-98b9-8039201ac607","ios":"levelo://app?vid=bf4fac92-fd73-4902-98b9-8039201ac607"},"vehicle_type_id":"4","last_reported":1706454320,"current_range_meters":0,"station_id":"ce4bgi12rcd13ifvqb70","pricing_plan_id":"free"},{"bike_id":"cf17154b-1432-45fc-900e-07b7f897c2f4","system_id":"levelo_inurba_marseille","lat":43.305994,"lon":5.393687,"is_reserved":false,"is_disabled":false,"rental_uris":{"android":"levelo://app?vid=cf17154b-1432-45fc-900e-07b7f897c2f4","ios":"levelo://app?vid=cf17154b-1432-45fc-900e-07b7f897c2f4"},"vehicle_type_id":"4","last_reported":1706454320,"current_range_meters":2400,"station_id":"ce4bh0p2rcd13ifvqd80","pricing_plan_id":"free"},{"bike_id":"6ce17309-9357-4bc4-a283-10122fde81cc","system_id":"levelo_inurba_marseille","lat":43.292311,"lon":5.360731,"is_reserved":false,"is_disabled":false,"rental_uris":{"android":"levelo://app?vid=6ce17309-9357-4bc4-a283-10122fde81cc","ios":"levelo://app?vid=6ce17309-9357-4bc4-a283-10122fde81cc"},"vehicle_type_id":"4","last_reported":1706454320,"current_range_meters":0,"station_id":"ce4bhbh2rcd13ifvqeqg","pricing_plan_id":"free"},{"bike_id":"be73d679-c5df-4583-9852-f7d4c3f31225","system_id":"levelo_inurba_marseille","lat":43.292311,"lon":5.360731,"is_reserved":false,"is_disabled":false,"rental_uris":{"android":"levelo://app?vid=be73d679-c5df-4583-9852-f7d4c3f31225","ios":"levelo://app?vid=be73d679-c5df-4583-9852-f7d4c3f31225"},"vehicle_type_id":"4","last_reported":1706454320,"current_range_meters":19200,"station_id":"ce4bhbh2rcd13ifvqeqg","pricing_plan_id":"free"},{"bike_id":"00a97067-c02f-4e19-b5ad-f05ba9d62dda","system_id":"levelo_inurba_marseille","lat":43.298764,"lon":5.388973,"is_reserved":false,"is_disabled":false,"rental_uris":{"android":"levelo://app?vid=00a97067-c02f-4e19-b5ad-f05ba9d62dda","ios":"levelo://app?vid=00a97067-c02f-4e19-b5ad-f05ba9d62dda"},"vehicle_type_id":"4","last_reported":1706454320,"current_range_meters":0,"station_id":"ce4bh392rcd13ifvqdl0","pricing_plan_id":"free"},{"bike_id":"17e6cf96-9f90-492b-a275-2599d613166e","system_id":"levelo_inurba_marseille","lat":43.291671,"lon":5.371575,"is_reserved":false,"is_disabled":false,"rental_uris":{"android":"levelo://app?vid=17e6cf96-9f90-492b-a275-2599d613166e","ios":"levelo://app?vid=17e6cf96-9f90-492b-a275-2599d613166e"},"vehicle_type_id":"4","last_reported":1706454320,"current_range_meters":22000,"station_id":"ce4bha92rcd13ifvqeh0","pricing_plan_id":"free"},{"bike_id":"68138b50-6d91-4e20-8544-a4edc6af0124","system_id":"levelo_inurba_marseille","lat":43.313291,"lon":5.396838,"is_reserved":false,"is_disabled":false,"rental_uris":{"android":"levelo://app?vid=68138b50-6d91-4e20-8544-a4edc6af0124","ios":"levelo://app?vid=68138b50-6d91-4e20-8544-a4edc6af0124"},"vehicle_type_id":"4","last_reported":1706454320,"current_range_meters":27200,"station_id":"ce4bgvp2rcd13ifvqcu0","pricing_plan_id":"free"},{"bike_id":"351b2350-1482-4f93-b0bd-aa28bd6ec66e","system_id":"levelo_inurba_marseille","lat":43.29529,"lon":5.385581,"is_reserved":false,"is_disabled":false,"rental_uris":{"android":"levelo://app?vid=351b2350-1482-4f93-b0bd-aa28bd6ec66e","ios":"levelo://app?vid=351b2350-1482-4f93-b0bd-aa28bd6ec66e"},"vehicle_type_id":"4","last_reported":1706454320,"current_range_meters":16000,"station_id":"ce4bgih2rcd13ifvqba0","pricing_plan_id":"free"},{"bike_id":"7eba6ad5-17db-4d5f-8455-eae0cd91f187","system_id":"levelo_inurba_marseille","lat":43.290779,"lon":5.371482,"is_reserved":false,"is_disabled":false,"rental_uris":{"android":"levelo://app?vid=7eba6ad5-17db-4d5f-8455-eae0cd91f187","ios":"levelo://app?vid=7eba6ad5-17db-4d5f-8455-eae0cd91f187"},"vehicle_type_id":"4","last_reported":1706454320,"current_range_meters":12400,"station_id":"ce4bh5p2rcd13ifvqe4g","pricing_plan_id":"free"},{"bike_id":"c862e57c-3f79-4b27-a5d3-f25d2c17935e","system_id":"levelo_inurba_marseille","lat":43.302008,"lon":5.394694,"is_reserved":false,"is_disabled":false,"rental_uris":{"android":"levelo://app?vid=c862e57c-3f79-4b27-a5d3-f25d2c17935e","ios":"levelo://app?vid=c862e57c-3f79-4b27-a5d3-f25d2c17935e"},"vehicle_type_id":"4","last_reported":1706454320,"current_range_meters":8400,"station_id":"ce4bh0p2rcd13ifvqd70","pricing_plan_id":"free"},{"bike_id":"896950a2-7a92-483f-89cc-8f0bd4e6830c","system_id":"levelo_inurba_marseille","lat":43.289468,"lon":5.363719,"is_reserved":false,"is_disabled":false,"rental_uris":{"android":"levelo://app?vid=896950a2-7a92-483f-89cc-8f0bd4e6830c","ios":"levelo://app?vid=896950a2-7a92-483f-89cc-8f0bd4e6830c"},"vehicle_type_id":"4","last_reported":1706454320,"current_range_meters":14800,"station_id":"ce4bhc92rcd13ifvqetg","pricing_plan_id":"free"},{"bike_id":"0c44bfe9-65dd-4c7b-9e41-62ce10f6f1aa","system_id":"levelo_inurba_marseille","lat":43.29015,"lon":5.35604,"is_reserved":false,"is_disabled":false,"rental_uris":{"android":"levelo://app?vid=0c44bfe9-65dd-4c7b-9e41-62ce10f6f1aa","ios":"levelo://app?vid=0c44bfe9-65dd-4c7b-9e41-62ce10f6f1aa"},"vehicle_type_id":"4","last_reported":1706454320,"current_range_meters":10400,"station_id":"ce4bhb92rcd13ifvqen0","pricing_plan_id":"free"},{"bike_id":"e3e97aff-c0d2-4a0f-aea1-75a961de773b","system_id":"levelo_inurba_marseille","lat":43.290104,"lon":5.356111,"is_reserved":false,"is_disabled":false,"rental_uris":{"android":"levelo://app?vid=e3e97aff-c0d2-4a0f-aea1-75a961de773b","ios":"levelo://app?vid=e3e97aff-c0d2-4a0f-aea1-75a961de773b"},"vehicle_type_id":"4","last_reported":1706454320,"current_range_meters":0,"station_id":"ce4bhb92rcd13ifvqen0","pricing_plan_id":"free"},{"bike_id":"ad793121-8aaa-4a38-90c7-c763d7dd522a","system_id":"levelo_inurba_marseille","lat":43.29004,"lon":5.35598,"is_reserved":false,"is_disabled":false,"rental_uris":{"android":"levelo://app?vid=ad793121-8aaa-4a38-90c7-c763d7dd522a","ios":"levelo://app?vid=ad793121-8aaa-4a38-90c7-c763d7dd522a"},"vehicle_type_id":"4","last_reported":1706454320,"current_range_meters":8000,"station_id":"ce4bhb92rcd13ifvqen0","pricing_plan_id":"free"},{"bike_id":"6629075f-ac44-4fcd-a171-a822a6a68c9c","system_id":"levelo_inurba_marseille","lat":43.312609,"lon":5.401662,"is_reserved":false,"is_disabled":false,"rental_uris":{"android":"levelo://app?vid=6629075f-ac44-4fcd-a171-a822a6a68c9c","ios":"levelo://app?vid=6629075f-ac44-4fcd-a171-a822a6a68c9c"},"vehicle_type_id":"4","last_reported":1706454320,"current_range_meters":4000,"station_id":"ce4bh092rcd13ifvqd30","pricing_plan_id":"free"},{"bike_id":"0f2c1b5b-2255-427d-8e1c-a2e4920df7dd","system_id":"levelo_inurba_marseille","lat":43.337496,"lon":5.374404,"is_reserved":false,"is_disabled":false,"rental_uris":{"android":"levelo://app?vid=0f2c1b5b-2255-427d-8e1c-a2e4920df7dd","ios":"levelo://app?vid=0f2c1b5b-2255-427d-8e1c-a2e4920df7dd"},"vehicle_type_id":"4","last_reported":1706454320,"current_range_meters":26400,"station_id":"","pricing_plan_id":"free"},{"bike_id":"a563cdbf-78b8-441c-8dce-8da1c3325b92","system_id":"levelo_inurba_marseille","lat":43.337534,"lon":5.374544,"is_reserved":false,"is_disabled":false,"rental_uris":{"android":"levelo://app?vid=a563cdbf-78b8-441c-8dce-8da1c3325b92","ios":"levelo://app?vid=a563cdbf-78b8-441c-8dce-8da1c3325b92"},"vehicle_type_id":"4","last_reported":1706454320,"current_range_meters":19600,"station_id":"","pricing_plan_id":"free"},{"bike_id":"b7f12eab-e0a6-499e-87ec-2b4381c4602a","system_id":"levelo_inurba_marseille","lat":43.337553,"lon":5.374565,"is_reserved":false,"is_disabled":false,"rental_uris":{"android":"levelo://app?vid=b7f12eab-e0a6-499e-87ec-2b4381c4602a","ios":"levelo://app?vid=b7f12eab-e0a6-499e-87ec-2b4381c4602a"},"vehicle_type_id":"4","last_reported":1706454320,"current_range_meters":24000,"station_id":"","pricing_plan_id":"free"},{"bike_id":"ce5cd671-7274-4c76-9ee7-e22a8ce37c17","system_id":"levelo_inurba_marseille","lat":43.337621,"lon":5.374534,"is_reserved":false,"is_disabled":false,"rental_uris":{"android":"levelo://app?vid=ce5cd671-7274-4c76-9ee7-e22a8ce37c17","ios":"levelo://app?vid=ce5cd671-7274-4c76-9ee7-e22a8ce37c17"},"vehicle_type_id":"4","last_reported":1706454320,"current_range_meters":28000,"station_id":"","pricing_plan_id":"free"},{"bike_id":"2fe24097-b1c2-4583-ba1f-cf8501171a4c","system_id":"levelo_inurba_marseille","lat":43.337574,"lon":5.374886,"is_reserved":false,"is_disabled":false,"rental_uris":{"android":"levelo://app?vid=2fe24097-b1c2-4583-ba1f-cf8501171a4c","ios":"levelo://app?vid=2fe24097-b1c2-4583-ba1f-cf8501171a4c"},"vehicle_type_id":"4","last_reported":1706454320,"current_range_meters":11200,"station_id":"","pricing_plan_id":"free"},{"bike_id":"b7d3b81d-d85a-44b5-a0c7-8f9c9f74639e","system_id":"levelo_inurba_marseille","lat":43.33765,"lon":5.374672,"is_reserved":false,"is_disabled":false,"rental_uris":{"android":"levelo://app?vid=b7d3b81d-d85a-44b5-a0c7-8f9c9f74639e","ios":"levelo://app?vid=b7d3b81d-d85a-44b5-a0c7-8f9c9f74639e"},"vehicle_type_id":"4","last_reported":1706454320,"current_range_meters":26800,"station_id":"","pricing_plan_id":"free"},{"bike_id":"1facbbf3-baac-42f8-85eb-cb1e36f3e4b9","system_id":"levelo_inurba_marseille","lat":43.33762,"lon":5.374881,"is_reserved":false,"is_disabled":false,"rental_uris":{"android":"levelo://app?vid=1facbbf3-baac-42f8-85eb-cb1e36f3e4b9","ios":"levelo://app?vid=1facbbf3-baac-42f8-85eb-cb1e36f3e4b9"},"vehicle_type_id":"4","last_reported":1706454320,"current_range_meters":14000,"station_id":"","pricing_plan_id":"free"},{"bike_id":"ea3903d8-d61d-43b0-b1b4-094b8407e410","system_id":"levelo_inurba_marseille","lat":43.306412,"lon":5.401035,"is_reserved":false,"is_disabled":false,"rental_uris":{"android":"levelo://app?vid=ea3903d8-d61d-43b0-b1b4-094b8407e410","ios":"levelo://app?vid=ea3903d8-d61d-43b0-b1b4-094b8407e410"},"vehicle_type_id":"4","last_reported":1706454320,"current_range_meters":0,"station_id":"ce4bh112rcd13ifvqda0","pricing_plan_id":"free"},{"bike_id":"bd626f46-20b6-4ce7-b22c-d2b3cdc93f35","system_id":"levelo_inurba_marseille","lat":43.301117,"lon":5.398795,"is_reserved":false,"is_disabled":false,"rental_uris":{"android":"levelo://app?vid=bd626f46-20b6-4ce7-b22c-d2b3cdc93f35","ios":"levelo://app?vid=bd626f46-20b6-4ce7-b22c-d2b3cdc93f35"},"vehicle_type_id":"4","last_reported":1706454320,"current_range_meters":9200,"station_id":"ce4bh0h2rcd13ifvqd40","pricing_plan_id":"free"},{"bike_id":"2ed57283-9dbf-4694-a3bf-337d2c76e52a","system_id":"levelo_inurba_marseille","lat":43.286961,"lon":5.373785,"is_reserved":false,"is_disabled":false,"rental_uris":{"android":"levelo://app?vid=2ed57283-9dbf-4694-a3bf-337d2c76e52a","ios":"levelo://app?vid=2ed57283-9dbf-4694-a3bf-337d2c76e52a"},"vehicle_type_id":"4","last_reported":1706454320,"current_range_meters":7200,"station_id":"ce4bh3p2rcd13ifvqdq0","pricing_plan_id":"free"},{"bike_id":"7916d153-1944-402a-a1d0-86562617f0c4","system_id":"levelo_inurba_marseille","lat":43.2955,"lon":5.39409,"is_reserved":false,"is_disabled":false,"rental_uris":{"android":"levelo://app?vid=7916d153-1944-402a-a1d0-86562617f0c4","ios":"levelo://app?vid=7916d153-1944-402a-a1d0-86562617f0c4"},"vehicle_type_id":"4","last_reported":1706454320,"current_range_meters":15600,"station_id":"ce4bh292rcd13ifvqdf0","pricing_plan_id":"free"},{"bike_id":"ae691436-4804-4499-b7aa-1632f621f427","system_id":"levelo_inurba_marseille","lat":43.286591,"lon":5.363346,"is_reserved":false,"is_disabled":false,"rental_uris":{"android":"levelo://app?vid=ae691436-4804-4499-b7aa-1632f621f427","ios":"levelo://app?vid=ae691436-4804-4499-b7aa-1632f621f427"},"vehicle_type_id":"4","last_reported":1706454320,"current_range_meters":18400,"station_id":"ce4bhah2rcd13ifvqej0","pricing_plan_id":"free"},{"bike_id":"bb05cfad-cb79-480d-8784-5d4d30d2c843","system_id":"levelo_inurba_marseille","lat":43.289307,"lon":5.38406,"is_reserved":false,"is_disabled":false,"rental_uris":{"android":"levelo://app?vid=bb05cfad-cb79-480d-8784-5d4d30d2c843","ios":"levelo://app?vid=bb05cfad-cb79-480d-8784-5d4d30d2c843"},"vehicle_type_id":"4","last_reported":1706454320,"current_range_meters":24000,"station_id":"ce4bh612rcd13ifvqe6g","pricing_plan_id":"free"},{"bike_id":"183bb1c1-398f-466c-b05d-327ac4efc436","system_id":"levelo_inurba_marseille","lat":43.302511,"lon":5.400653,"is_reserved":false,"is_disabled":false,"rental_uris":{"android":"levelo://app?vid=183bb1c1-398f-466c-b05d-327ac4efc436","ios":"levelo://app?vid=183bb1c1-398f-466c-b05d-327ac4efc436"},"vehicle_type_id":"4","last_reported":1706454320,"current_range_meters":10800,"station_id":"ce4bgth2rcd13ifvqch0","pricing_plan_id":"free"},{"bike_id":"b1d3ace4-1241-498c-ab81-0710b494f943","system_id":"levelo_inurba_marseille","lat":43.286039,"lon":5.370681,"is_reserved":false,"is_disabled":false,"rental_uris":{"android":"levelo://app?vid=b1d3ace4-1241-498c-ab81-0710b494f943","ios":"levelo://app?vid=b1d3ace4-1241-498c-ab81-0710b494f943"},"vehicle_type_id":"4","last_reported":1706454320,"current_range_meters":13600,"station_id":"ce4bht12rcd13ifvqi60","pricing_plan_id":"free"},{"bike_id":"c2b1ff0f-f7b3-4b96-9cee-7581f0ad34e1","system_id":"levelo_inurba_marseille","lat":43.284538,"lon":5.358657,"is_reserved":false,"is_disabled":false,"rental_uris":{"android":"levelo://app?vid=c2b1ff0f-f7b3-4b96-9cee-7581f0ad34e1","ios":"levelo://app?vid=c2b1ff0f-f7b3-4b96-9cee-7581f0ad34e1"},"vehicle_type_id":"4","last_reported":1706454320,"current_range_meters":25600,"station_id":"ce4bhah2rcd13ifvqei0","pricing_plan_id":"free"},{"bike_id":"620ae420-f411-4944-92f8-baf6f732554e","system_id":"levelo_inurba_marseille","lat":43.284538,"lon":5.358657,"is_reserved":false,"is_disabled":false,"rental_uris":{"android":"levelo://app?vid=620ae420-f411-4944-92f8-baf6f732554e","ios":"levelo://app?vid=620ae420-f411-4944-92f8-baf6f732554e"},"vehicle_type_id":"4","last_reported":1706454320,"current_range_meters":14000,"station_id":"ce4bhah2rcd13ifvqei0","pricing_plan_id":"free"},{"bike_id":"87d2b1d7-f0b4-4125-916a-46ce49d7eeac","system_id":"levelo_inurba_marseille","lat":43.285856,"lon":5.350771,"is_reserved":false,"is_disabled":false,"rental_uris":{"android":"levelo://app?vid=87d2b1d7-f0b4-4125-916a-46ce49d7eeac","ios":"levelo://app?vid=87d2b1d7-f0b4-4125-916a-46ce49d7eeac"},"vehicle_type_id":"4","last_reported":1706454320,"current_range_meters":8000,"station_id":"ce4bhch2rcd13ifvqeug","pricing_plan_id":"free"},{"bike_id":"84939456-6752-47ce-b628-fed93bcd290d","system_id":"levelo_inurba_marseille","lat":43.28617,"lon":5.35099,"is_reserved":false,"is_disabled":false,"rental_uris":{"android":"levelo://app?vid=84939456-6752-47ce-b628-fed93bcd290d","ios":"levelo://app?vid=84939456-6752-47ce-b628-fed93bcd290d"},"vehicle_type_id":"4","last_reported":1706454320,"current_range_meters":27200,"station_id":"ce4bhch2rcd13ifvqeug","pricing_plan_id":"free"},{"bike_id":"b7fda867-81a8-4fde-ba07-da1e215cf26a","system_id":"levelo_inurba_marseille","lat":43.283998,"lon":5.375062,"is_reserved":false,"is_disabled":false,"rental_uris":{"android":"levelo://app?vid=b7fda867-81a8-4fde-ba07-da1e215cf26a","ios":"levelo://app?vid=b7fda867-81a8-4fde-ba07-da1e215cf26a"},"vehicle_type_id":"4","last_reported":1706454320,"current_range_meters":5200,"station_id":"ce4bh412rcd13ifvqds0","pricing_plan_id":"free"},{"bike_id":"4ca5d17c-021c-4ab7-976f-355b8c09bcbb","system_id":"levelo_inurba_marseille","lat":43.283998,"lon":5.375062,"is_reserved":false,"is_disabled":false,"rental_uris":{"android":"levelo://app?vid=4ca5d17c-021c-4ab7-976f-355b8c09bcbb","ios":"levelo://app?vid=4ca5d17c-021c-4ab7-976f-355b8c09bcbb"},"vehicle_type_id":"4","last_reported":1706454320,"current_range_meters":13200,"station_id":"ce4bh412rcd13ifvqds0","pricing_plan_id":"free"},{"bike_id":"846efd26-df89-4583-bc6d-072cb54a4faa","system_id":"levelo_inurba_marseille","lat":43.283998,"lon":5.375062,"is_reserved":false,"is_disabled":false,"rental_uris":{"android":"levelo://app?vid=846efd26-df89-4583-bc6d-072cb54a4faa","ios":"levelo://app?vid=846efd26-df89-4583-bc6d-072cb54a4faa"},"vehicle_type_id":"4","last_reported":1706454320,"current_range_meters":18000,"station_id":"ce4bh412rcd13ifvqds0","pricing_plan_id":"free"},{"bike_id":"217759bf-795a-4e7a-9b95-0754b01f8515","system_id":"levelo_inurba_marseille","lat":43.28393,"lon":5.37515,"is_reserved":false,"is_disabled":false,"rental_uris":{"android":"levelo://app?vid=217759bf-795a-4e7a-9b95-0754b01f8515","ios":"levelo://app?vid=217759bf-795a-4e7a-9b95-0754b01f8515"},"vehicle_type_id":"4","last_reported":1706454320,"current_range_meters":10400,"station_id":"ce4bh412rcd13ifvqds0","pricing_plan_id":"free"},{"bike_id":"a745b18c-9b16-498a-a5ca-4b8728fae088","system_id":"levelo_inurba_marseille","lat":43.28387,"lon":5.37519,"is_reserved":false,"is_disabled":false,"rental_uris":{"android":"levelo://app?vid=a745b18c-9b16-498a-a5ca-4b8728fae088","ios":"levelo://app?vid=a745b18c-9b16-498a-a5ca-4b8728fae088"},"vehicle_type_id":"4","last_reported":1706454320,"current_range_meters":21600,"station_id":"ce4bh412rcd13ifvqds0","pricing_plan_id":"free"},{"bike_id":"c3058698-ad3c-4207-8185-1cc211aabcd4","system_id":"levelo_inurba_marseille","lat":43.31823,"lon":5.40679,"is_reserved":false,"is_disabled":false,"rental_uris":{"android":"levelo://app?vid=c3058698-ad3c-4207-8185-1cc211aabcd4","ios":"levelo://app?vid=c3058698-ad3c-4207-8185-1cc211aabcd4"},"vehicle_type_id":"4","last_reported":1706454320,"current_range_meters":1600,"station_id":"ce4bhq92rcd13ifvqhjg","pricing_plan_id":"free"},{"bike_id":"50b1af7f-697c-456a-b2c0-aaf507c51a13","system_id":"levelo_inurba_marseille","lat":43.33717,"lon":5.391857,"is_reserved":false,"is_disabled":false,"rental_uris":{"android":"levelo://app?vid=50b1af7f-697c-456a-b2c0-aaf507c51a13","ios":"levelo://app?vid=50b1af7f-697c-456a-b2c0-aaf507c51a13"},"vehicle_type_id":"4","last_reported":1706454320,"current_range_meters":27600,"station_id":"ce4bhr92rcd13ifvqhsg","pricing_plan_id":"free"},{"bike_id":"e64b6a0d-e1bd-4424-a5f5-7d824844caf0","system_id":"levelo_inurba_marseille","lat":43.323464,"lon":5.406297,"is_reserved":false,"is_disabled":false,"rental_uris":{"android":"levelo://app?vid=e64b6a0d-e1bd-4424-a5f5-7d824844caf0","ios":"levelo://app?vid=e64b6a0d-e1bd-4424-a5f5-7d824844caf0"},"vehicle_type_id":"4","last_reported":1706454320,"current_range_meters":10400,"station_id":"ce4bhq92rcd13ifvqhjg","pricing_plan_id":"free"},{"bike_id":"bd91b07f-0a00-43d7-a883-6e4d51c4b01e","system_id":"levelo_inurba_marseille","lat":43.337168,"lon":5.391825,"is_reserved":false,"is_disabled":false,"rental_uris":{"android":"levelo://app?vid=bd91b07f-0a00-43d7-a883-6e4d51c4b01e","ios":"levelo://app?vid=bd91b07f-0a00-43d7-a883-6e4d51c4b01e"},"vehicle_type_id":"4","last_reported":1706454320,"current_range_meters":25200,"station_id":"ce4bhr92rcd13ifvqhsg","pricing_plan_id":"free"},{"bike_id":"7f190cb8-bd09-49c3-b01d-5cc3ea188880","system_id":"levelo_inurba_marseille","lat":43.297946,"lon":5.404063,"is_reserved":false,"is_disabled":false,"rental_uris":{"android":"levelo://app?vid=7f190cb8-bd09-49c3-b01d-5cc3ea188880","ios":"levelo://app?vid=7f190cb8-bd09-49c3-b01d-5cc3ea188880"},"vehicle_type_id":"4","last_reported":1706454320,"current_range_meters":16400,"station_id":"ce4bh112rcd13ifvqd90","pricing_plan_id":"free"},{"bike_id":"2ff2af7b-db14-45c9-97ec-9c623f3fc5c9","system_id":"levelo_inurba_marseille","lat":43.284214,"lon":5.349706,"is_reserved":false,"is_disabled":false,"rental_uris":{"android":"levelo://app?vid=2ff2af7b-db14-45c9-97ec-9c623f3fc5c9","ios":"levelo://app?vid=2ff2af7b-db14-45c9-97ec-9c623f3fc5c9"},"vehicle_type_id":"4","last_reported":1706454320,"current_range_meters":20800,"station_id":"ce4bhbh2rcd13ifvqepg","pricing_plan_id":"free"},{"bike_id":"890b6862-bec4-42d7-9a15-88375b7eff83","system_id":"levelo_inurba_marseille","lat":43.284214,"lon":5.349706,"is_reserved":false,"is_disabled":false,"rental_uris":{"android":"levelo://app?vid=890b6862-bec4-42d7-9a15-88375b7eff83","ios":"levelo://app?vid=890b6862-bec4-42d7-9a15-88375b7eff83"},"vehicle_type_id":"4","last_reported":1706454320,"current_range_meters":13200,"station_id":"ce4bhbh2rcd13ifvqepg","pricing_plan_id":"free"},{"bike_id":"45413260-0261-49a1-889d-06b92bc08d8d","system_id":"levelo_inurba_marseille","lat":43.284219,"lon":5.3497,"is_reserved":false,"is_disabled":false,"rental_uris":{"android":"levelo://app?vid=45413260-0261-49a1-889d-06b92bc08d8d","ios":"levelo://app?vid=45413260-0261-49a1-889d-06b92bc08d8d"},"vehicle_type_id":"4","last_reported":1706454320,"current_range_meters":0,"station_id":"ce4bhbh2rcd13ifvqepg","pricing_plan_id":"free"},{"bike_id":"7011a61e-8276-4d6d-925e-ca84b073a4c0","system_id":"levelo_inurba_marseille","lat":43.284219,"lon":5.3497,"is_reserved":false,"is_disabled":false,"rental_uris":{"android":"levelo://app?vid=7011a61e-8276-4d6d-925e-ca84b073a4c0","ios":"levelo://app?vid=7011a61e-8276-4d6d-925e-ca84b073a4c0"},"vehicle_type_id":"4","last_reported":1706454320,"current_range_meters":5600,"station_id":"ce4bhbh2rcd13ifvqepg","pricing_plan_id":"free"},{"bike_id":"d4b3c849-44e7-44f7-b92f-d53cb93dc54e","system_id":"levelo_inurba_marseille","lat":43.284217,"lon":5.349697,"is_reserved":false,"is_disabled":false,"rental_uris":{"android":"levelo://app?vid=d4b3c849-44e7-44f7-b92f-d53cb93dc54e","ios":"levelo://app?vid=d4b3c849-44e7-44f7-b92f-d53cb93dc54e"},"vehicle_type_id":"4","last_reported":1706454320,"current_range_meters":27200,"station_id":"ce4bhbh2rcd13ifvqepg","pricing_plan_id":"free"},{"bike_id":"355b9db8-5835-4b85-a6ce-bb85d8b102cb","system_id":"levelo_inurba_marseille","lat":43.284219,"lon":5.3497,"is_reserved":false,"is_disabled":false,"rental_uris":{"android":"levelo://app?vid=355b9db8-5835-4b85-a6ce-bb85d8b102cb","ios":"levelo://app?vid=355b9db8-5835-4b85-a6ce-bb85d8b102cb"},"vehicle_type_id":"4","last_reported":1706454320,"current_range_meters":2800,"station_id":"ce4bhbh2rcd13ifvqepg","pricing_plan_id":"free"},{"bike_id":"6f2efcc5-e954-4018-a2b8-0c6bb1370030","system_id":"levelo_inurba_marseille","lat":43.284219,"lon":5.3497,"is_reserved":false,"is_disabled":false,"rental_uris":{"android":"levelo://app?vid=6f2efcc5-e954-4018-a2b8-0c6bb1370030","ios":"levelo://app?vid=6f2efcc5-e954-4018-a2b8-0c6bb1370030"},"vehicle_type_id":"4","last_reported":1706454320,"current_range_meters":12800,"station_id":"ce4bhbh2rcd13ifvqepg","pricing_plan_id":"free"},{"bike_id":"ceee1186-63d1-4807-8c9a-c433d5da8b0d","system_id":"levelo_inurba_marseille","lat":43.284217,"lon":5.349697,"is_reserved":false,"is_disabled":false,"rental_uris":{"android":"levelo://app?vid=ceee1186-63d1-4807-8c9a-c433d5da8b0d","ios":"levelo://app?vid=ceee1186-63d1-4807-8c9a-c433d5da8b0d"},"vehicle_type_id":"4","last_reported":1706454320,"current_range_meters":2800,"station_id":"ce4bhbh2rcd13ifvqepg","pricing_plan_id":"free"},{"bike_id":"b41bcd76-cb12-4b33-95cd-9444d1e23578","system_id":"levelo_inurba_marseille","lat":43.293556,"lon":5.401561,"is_reserved":false,"is_disabled":false,"rental_uris":{"android":"levelo://app?vid=b41bcd76-cb12-4b33-95cd-9444d1e23578","ios":"levelo://app?vid=b41bcd76-cb12-4b33-95cd-9444d1e23578"},"vehicle_type_id":"4","last_reported":1706454320,"current_range_meters":6000,"station_id":"","pricing_plan_id":"free"},{"bike_id":"6d191f29-0d73-4ff1-8c43-c6f61b09ce5e","system_id":"levelo_inurba_marseille","lat":43.33717,"lon":5.391857,"is_reserved":false,"is_disabled":false,"rental_uris":{"android":"levelo://app?vid=6d191f29-0d73-4ff1-8c43-c6f61b09ce5e","ios":"levelo://app?vid=6d191f29-0d73-4ff1-8c43-c6f61b09ce5e"},"vehicle_type_id":"4","last_reported":1706454320,"current_range_meters":25600,"station_id":"ce4bhr92rcd13ifvqhsg","pricing_plan_id":"free"},{"bike_id":"d2a6e015-9d34-4872-ae07-5faffeb30b13","system_id":"levelo_inurba_marseille","lat":43.292724,"lon":5.401131,"is_reserved":false,"is_disabled":false,"rental_uris":{"android":"levelo://app?vid=d2a6e015-9d34-4872-ae07-5faffeb30b13","ios":"levelo://app?vid=d2a6e015-9d34-4872-ae07-5faffeb30b13"},"vehicle_type_id":"4","last_reported":1706454320,"current_range_meters":10800,"station_id":"ce4bh312rcd13ifvqdk0","pricing_plan_id":"free"},{"bike_id":"e4fd8856-9805-4091-aed8-839f8134fb67","system_id":"levelo_inurba_marseille","lat":43.2829,"lon":5.35082,"is_reserved":false,"is_disabled":false,"rental_uris":{"android":"levelo://app?vid=e4fd8856-9805-4091-aed8-839f8134fb67","ios":"levelo://app?vid=e4fd8856-9805-4091-aed8-839f8134fb67"},"vehicle_type_id":"4","last_reported":1706454320,"current_range_meters":20800,"station_id":"ce4bhbp2rcd13ifvqerg","pricing_plan_id":"free"},{"bike_id":"ebc081b3-d9eb-43e8-9994-accb1a1dd961","system_id":"levelo_inurba_marseille","lat":43.282844,"lon":5.350504,"is_reserved":false,"is_disabled":false,"rental_uris":{"android":"levelo://app?vid=ebc081b3-d9eb-43e8-9994-accb1a1dd961","ios":"levelo://app?vid=ebc081b3-d9eb-43e8-9994-accb1a1dd961"},"vehicle_type_id":"4","last_reported":1706454320,"current_range_meters":17600,"station_id":"ce4bhbp2rcd13ifvqerg","pricing_plan_id":"free"},{"bike_id":"ac7756e8-ac9c-4293-a43d-31b9890d4892","system_id":"levelo_inurba_marseille","lat":43.283502,"lon":5.386471,"is_reserved":false,"is_disabled":false,"rental_uris":{"android":"levelo://app?vid=ac7756e8-ac9c-4293-a43d-31b9890d4892","ios":"levelo://app?vid=ac7756e8-ac9c-4293-a43d-31b9890d4892"},"vehicle_type_id":"4","last_reported":1706454320,"current_range_meters":11200,"station_id":"ce4bh492rcd13ifvqdvg","pricing_plan_id":"free"},{"bike_id":"58e2097e-b16d-4420-ba51-f981178a2e76","system_id":"levelo_inurba_marseille","lat":43.29041,"lon":5.399634,"is_reserved":false,"is_disabled":false,"rental_uris":{"android":"levelo://app?vid=58e2097e-b16d-4420-ba51-f981178a2e76","ios":"levelo://app?vid=58e2097e-b16d-4420-ba51-f981178a2e76"},"vehicle_type_id":"4","last_reported":1706454320,"current_range_meters":28400,"station_id":"ce4bh392rcd13ifvqdm0","pricing_plan_id":"free"},{"bike_id":"1c1735a5-a1dc-45e4-8c1b-f1c035a77967","system_id":"levelo_inurba_marseille","lat":43.281047,"lon":5.378487,"is_reserved":false,"is_disabled":false,"rental_uris":{"android":"levelo://app?vid=1c1735a5-a1dc-45e4-8c1b-f1c035a77967","ios":"levelo://app?vid=1c1735a5-a1dc-45e4-8c1b-f1c035a77967"},"vehicle_type_id":"4","last_reported":1706454320,"current_range_meters":7600,"station_id":"ce4bha12rcd13ifvqee0","pricing_plan_id":"free"},{"bike_id":"1fb3e8e7-51fd-45ee-9569-773cef97564a","system_id":"levelo_inurba_marseille","lat":43.28573,"lon":5.394992,"is_reserved":false,"is_disabled":false,"rental_uris":{"android":"levelo://app?vid=1fb3e8e7-51fd-45ee-9569-773cef97564a","ios":"levelo://app?vid=1fb3e8e7-51fd-45ee-9569-773cef97564a"},"vehicle_type_id":"4","last_reported":1706454320,"current_range_meters":23200,"station_id":"ce4bh292rcd13ifvqdg0","pricing_plan_id":"free"},{"bike_id":"1b61016d-4688-482b-bfc5-06d786d8a08a","system_id":"levelo_inurba_marseille","lat":43.304188,"lon":5.412904,"is_reserved":false,"is_disabled":false,"rental_uris":{"android":"levelo://app?vid=1b61016d-4688-482b-bfc5-06d786d8a08a","ios":"levelo://app?vid=1b61016d-4688-482b-bfc5-06d786d8a08a"},"vehicle_type_id":"4","last_reported":1706454320,"current_range_meters":28800,"station_id":"ce4bhop2rcd13ifvqh8g","pricing_plan_id":"free"},{"bike_id":"ee936567-c4cc-4d71-89c4-7841e82e51c6","system_id":"levelo_inurba_marseille","lat":43.279087,"lon":5.380114,"is_reserved":false,"is_disabled":false,"rental_uris":{"android":"levelo://app?vid=ee936567-c4cc-4d71-89c4-7841e82e51c6","ios":"levelo://app?vid=ee936567-c4cc-4d71-89c4-7841e82e51c6"},"vehicle_type_id":"4","last_reported":1706454320,"current_range_meters":1200,"station_id":"ce4bhf92rcd13ifvqf50","pricing_plan_id":"free"},{"bike_id":"49c1cc6b-634e-4401-bc12-ed22e45cdce2","system_id":"levelo_inurba_marseille","lat":43.287154,"lon":5.399979,"is_reserved":false,"is_disabled":false,"rental_uris":{"android":"levelo://app?vid=49c1cc6b-634e-4401-bc12-ed22e45cdce2","ios":"levelo://app?vid=49c1cc6b-634e-4401-bc12-ed22e45cdce2"},"vehicle_type_id":"4","last_reported":1706454320,"current_range_meters":0,"station_id":"ce4bho92rcd13ifvqh3g","pricing_plan_id":"free"},{"bike_id":"1671bc9b-ca7a-4d25-8432-6b00508c8aa6","system_id":"levelo_inurba_marseille","lat":43.287154,"lon":5.399979,"is_reserved":false,"is_disabled":false,"rental_uris":{"android":"levelo://app?vid=1671bc9b-ca7a-4d25-8432-6b00508c8aa6","ios":"levelo://app?vid=1671bc9b-ca7a-4d25-8432-6b00508c8aa6"},"vehicle_type_id":"4","last_reported":1706454320,"current_range_meters":14000,"station_id":"ce4bho92rcd13ifvqh3g","pricing_plan_id":"free"},{"bike_id":"08490f52-1f51-4501-a67d-c8a811aeabd2","system_id":"levelo_inurba_marseille","lat":43.279087,"lon":5.380114,"is_reserved":false,"is_disabled":false,"rental_uris":{"android":"levelo://app?vid=08490f52-1f51-4501-a67d-c8a811aeabd2","ios":"levelo://app?vid=08490f52-1f51-4501-a67d-c8a811aeabd2"},"vehicle_type_id":"4","last_reported":1706454320,"current_range_meters":0,"station_id":"ce4bhf92rcd13ifvqf50","pricing_plan_id":"free"},{"bike_id":"a539d426-9e55-4e9c-b7bf-13cd28eecf36","system_id":"levelo_inurba_marseille","lat":43.27819,"lon":5.35483,"is_reserved":false,"is_disabled":false,"rental_uris":{"android":"levelo://app?vid=a539d426-9e55-4e9c-b7bf-13cd28eecf36","ios":"levelo://app?vid=a539d426-9e55-4e9c-b7bf-13cd28eecf36"},"vehicle_type_id":"4","last_reported":1706454320,"current_range_meters":8000,"station_id":"","pricing_plan_id":"free"},{"bike_id":"1358a4cb-5d0b-441b-8174-a879d981f14d","system_id":"levelo_inurba_marseille","lat":43.299579,"lon":5.413255,"is_reserved":false,"is_disabled":false,"rental_uris":{"android":"levelo://app?vid=1358a4cb-5d0b-441b-8174-a879d981f14d","ios":"levelo://app?vid=1358a4cb-5d0b-441b-8174-a879d981f14d"},"vehicle_type_id":"4","last_reported":1706454320,"current_range_meters":14400,"station_id":"ce4bhp12rcd13ifvqh9g","pricing_plan_id":"free"},{"bike_id":"8e896a94-7680-441e-9e2b-2a9c49c2297a","system_id":"levelo_inurba_marseille","lat":43.279742,"lon":5.38744,"is_reserved":false,"is_disabled":false,"rental_uris":{"android":"levelo://app?vid=8e896a94-7680-441e-9e2b-2a9c49c2297a","ios":"levelo://app?vid=8e896a94-7680-441e-9e2b-2a9c49c2297a"},"vehicle_type_id":"4","last_reported":1706454320,"current_range_meters":18800,"station_id":"ce4bhg12rcd13ifvqf80","pricing_plan_id":"free"},{"bike_id":"6081d5b6-8a05-47ee-94e6-14b857445648","system_id":"levelo_inurba_marseille","lat":43.320045,"lon":5.415046,"is_reserved":false,"is_disabled":false,"rental_uris":{"android":"levelo://app?vid=6081d5b6-8a05-47ee-94e6-14b857445648","ios":"levelo://app?vid=6081d5b6-8a05-47ee-94e6-14b857445648"},"vehicle_type_id":"4","last_reported":1706454320,"current_range_meters":21200,"station_id":"ce4bhq92rcd13ifvqhkg","pricing_plan_id":"free"},{"bike_id":"14a5e061-0816-4d31-bbcb-4d13c1cabd72","system_id":"levelo_inurba_marseille","lat":43.279742,"lon":5.38744,"is_reserved":false,"is_disabled":false,"rental_uris":{"android":"levelo://app?vid=14a5e061-0816-4d31-bbcb-4d13c1cabd72","ios":"levelo://app?vid=14a5e061-0816-4d31-bbcb-4d13c1cabd72"},"vehicle_type_id":"4","last_reported":1706454320,"current_range_meters":0,"station_id":"ce4bhg12rcd13ifvqf80","pricing_plan_id":"free"},{"bike_id":"3057db62-96d5-485c-aced-c9914352b196","system_id":"levelo_inurba_marseille","lat":43.320045,"lon":5.415046,"is_reserved":false,"is_disabled":false,"rental_uris":{"android":"levelo://app?vid=3057db62-96d5-485c-aced-c9914352b196","ios":"levelo://app?vid=3057db62-96d5-485c-aced-c9914352b196"},"vehicle_type_id":"4","last_reported":1706454320,"current_range_meters":8400,"station_id":"ce4bhq92rcd13ifvqhkg","pricing_plan_id":"free"},{"bike_id":"0cbfd314-90b6-49fe-af97-084cb688065a","system_id":"levelo_inurba_marseille","lat":43.320045,"lon":5.415046,"is_reserved":false,"is_disabled":false,"rental_uris":{"android":"levelo://app?vid=0cbfd314-90b6-49fe-af97-084cb688065a","ios":"levelo://app?vid=0cbfd314-90b6-49fe-af97-084cb688065a"},"vehicle_type_id":"4","last_reported":1706454320,"current_range_meters":25600,"station_id":"ce4bhq92rcd13ifvqhkg","pricing_plan_id":"free"},{"bike_id":"0d5345b0-880e-4f60-a3c3-b6cd964986e0","system_id":"levelo_inurba_marseille","lat":43.320515,"lon":5.41556,"is_reserved":false,"is_disabled":false,"rental_uris":{"android":"levelo://app?vid=0d5345b0-880e-4f60-a3c3-b6cd964986e0","ios":"levelo://app?vid=0d5345b0-880e-4f60-a3c3-b6cd964986e0"},"vehicle_type_id":"4","last_reported":1706454320,"current_range_meters":26000,"station_id":"ce4bhq92rcd13ifvqhkg","pricing_plan_id":"free"},{"bike_id":"19564f7a-5e90-4eb3-97f1-44b1e4d189f2","system_id":"levelo_inurba_marseille","lat":43.292569,"lon":5.409107,"is_reserved":false,"is_disabled":false,"rental_uris":{"android":"levelo://app?vid=19564f7a-5e90-4eb3-97f1-44b1e4d189f2","ios":"levelo://app?vid=19564f7a-5e90-4eb3-97f1-44b1e4d189f2"},"vehicle_type_id":"4","last_reported":1706454320,"current_range_meters":9600,"station_id":"ce4bh192rcd13ifvqdc0","pricing_plan_id":"free"},{"bike_id":"a41ae808-4eee-4985-bc8a-d09a9154c012","system_id":"levelo_inurba_marseille","lat":43.325233,"lon":5.414318,"is_reserved":false,"is_disabled":false,"rental_uris":{"android":"levelo://app?vid=a41ae808-4eee-4985-bc8a-d09a9154c012","ios":"levelo://app?vid=a41ae808-4eee-4985-bc8a-d09a9154c012"},"vehicle_type_id":"4","last_reported":1706454320,"current_range_meters":22000,"station_id":"ce4bhq12rcd13ifvqhhg","pricing_plan_id":"free"},{"bike_id":"909a5d21-6b04-4442-9bb1-36db0b0552bd","system_id":"levelo_inurba_marseille","lat":43.27618,"lon":5.361009,"is_reserved":false,"is_disabled":false,"rental_uris":{"android":"levelo://app?vid=909a5d21-6b04-4442-9bb1-36db0b0552bd","ios":"levelo://app?vid=909a5d21-6b04-4442-9bb1-36db0b0552bd"},"vehicle_type_id":"4","last_reported":1706454320,"current_range_meters":13200,"station_id":"ce4bgj92rcd13ifvqbe0","pricing_plan_id":"free"},{"bike_id":"c7ff393f-b210-44aa-b6a8-8df578cda838","system_id":"levelo_inurba_marseille","lat":43.325233,"lon":5.414318,"is_reserved":false,"is_disabled":false,"rental_uris":{"android":"levelo://app?vid=c7ff393f-b210-44aa-b6a8-8df578cda838","ios":"levelo://app?vid=c7ff393f-b210-44aa-b6a8-8df578cda838"},"vehicle_type_id":"4","last_reported":1706454320,"current_range_meters":17200,"station_id":"ce4bhq12rcd13ifvqhhg","pricing_plan_id":"free"},{"bike_id":"bac5d2de-383c-400e-b60d-2d6b44ac88b7","system_id":"levelo_inurba_marseille","lat":43.27618,"lon":5.361009,"is_reserved":false,"is_disabled":false,"rental_uris":{"android":"levelo://app?vid=bac5d2de-383c-400e-b60d-2d6b44ac88b7","ios":"levelo://app?vid=bac5d2de-383c-400e-b60d-2d6b44ac88b7"},"vehicle_type_id":"4","last_reported":1706454320,"current_range_meters":8400,"station_id":"ce4bgj92rcd13ifvqbe0","pricing_plan_id":"free"},{"bike_id":"d5d2281b-6771-4faf-a5b2-db3ba2d0f539","system_id":"levelo_inurba_marseille","lat":43.325243,"lon":5.414326,"is_reserved":false,"is_disabled":false,"rental_uris":{"android":"levelo://app?vid=d5d2281b-6771-4faf-a5b2-db3ba2d0f539","ios":"levelo://app?vid=d5d2281b-6771-4faf-a5b2-db3ba2d0f539"},"vehicle_type_id":"4","last_reported":1706454320,"current_range_meters":25600,"station_id":"ce4bhq12rcd13ifvqhhg","pricing_plan_id":"free"},{"bike_id":"fb078c5e-afdd-49f2-9ccd-1e2ac33cabab","system_id":"levelo_inurba_marseille","lat":43.280784,"lon":5.396622,"is_reserved":false,"is_disabled":false,"rental_uris":{"android":"levelo://app?vid=fb078c5e-afdd-49f2-9ccd-1e2ac33cabab","ios":"levelo://app?vid=fb078c5e-afdd-49f2-9ccd-1e2ac33cabab"},"vehicle_type_id":"4","last_reported":1706454320,"current_range_meters":4400,"station_id":"ce4bho12rcd13ifvqh2g","pricing_plan_id":"free"},{"bike_id":"208337c6-1dfb-412d-80eb-c2acc2db597e","system_id":"levelo_inurba_marseille","lat":43.303837,"lon":5.418724,"is_reserved":false,"is_disabled":false,"rental_uris":{"android":"levelo://app?vid=208337c6-1dfb-412d-80eb-c2acc2db597e","ios":"levelo://app?vid=208337c6-1dfb-412d-80eb-c2acc2db597e"},"vehicle_type_id":"4","last_reported":1706454320,"current_range_meters":20400,"station_id":"ce4bhop2rcd13ifvqh7g","pricing_plan_id":"free"},{"bike_id":"aa0f517f-ada5-4a72-96f0-a728567ac06e","system_id":"levelo_inurba_marseille","lat":43.27383,"lon":5.36254,"is_reserved":false,"is_disabled":false,"rental_uris":{"android":"levelo://app?vid=aa0f517f-ada5-4a72-96f0-a728567ac06e","ios":"levelo://app?vid=aa0f517f-ada5-4a72-96f0-a728567ac06e"},"vehicle_type_id":"4","last_reported":1706454320,"current_range_meters":30400,"station_id":"ce4bhbh2rcd13ifvqeo0","pricing_plan_id":"free"},{"bike_id":"ba356d12-71b4-4978-aa6f-3bf0b9c5b6af","system_id":"levelo_inurba_marseille","lat":43.27382,"lon":5.36254,"is_reserved":false,"is_disabled":false,"rental_uris":{"android":"levelo://app?vid=ba356d12-71b4-4978-aa6f-3bf0b9c5b6af","ios":"levelo://app?vid=ba356d12-71b4-4978-aa6f-3bf0b9c5b6af"},"vehicle_type_id":"4","last_reported":1706454320,"current_range_meters":0,"station_id":"ce4bhbh2rcd13ifvqeo0","pricing_plan_id":"free"},{"bike_id":"0f122466-9baa-4361-904c-855373be1344","system_id":"levelo_inurba_marseille","lat":43.27381,"lon":5.36245,"is_reserved":false,"is_disabled":false,"rental_uris":{"android":"levelo://app?vid=0f122466-9baa-4361-904c-855373be1344","ios":"levelo://app?vid=0f122466-9baa-4361-904c-855373be1344"},"vehicle_type_id":"4","last_reported":1706454320,"current_range_meters":29200,"station_id":"ce4bhbh2rcd13ifvqeo0","pricing_plan_id":"free"},{"bike_id":"00181456-910d-4654-a55a-782977addfc0","system_id":"levelo_inurba_marseille","lat":43.273798,"lon":5.362535,"is_reserved":false,"is_disabled":false,"rental_uris":{"android":"levelo://app?vid=00181456-910d-4654-a55a-782977addfc0","ios":"levelo://app?vid=00181456-910d-4654-a55a-782977addfc0"},"vehicle_type_id":"4","last_reported":1706454320,"current_range_meters":14800,"station_id":"ce4bhbh2rcd13ifvqeo0","pricing_plan_id":"free"},{"bike_id":"a13dd372-9444-40e2-b6c6-1f77d905b760","system_id":"levelo_inurba_marseille","lat":43.2738,"lon":5.36245,"is_reserved":false,"is_disabled":false,"rental_uris":{"android":"levelo://app?vid=a13dd372-9444-40e2-b6c6-1f77d905b760","ios":"levelo://app?vid=a13dd372-9444-40e2-b6c6-1f77d905b760"},"vehicle_type_id":"4","last_reported":1706454320,"current_range_meters":30400,"station_id":"ce4bhbh2rcd13ifvqeo0","pricing_plan_id":"free"},{"bike_id":"af8f0c8b-fc2b-497e-a8d6-e5f44e740e9c","system_id":"levelo_inurba_marseille","lat":43.273613,"lon":5.362705,"is_reserved":false,"is_disabled":false,"rental_uris":{"android":"levelo://app?vid=af8f0c8b-fc2b-497e-a8d6-e5f44e740e9c","ios":"levelo://app?vid=af8f0c8b-fc2b-497e-a8d6-e5f44e740e9c"},"vehicle_type_id":"4","last_reported":1706454320,"current_range_meters":26800,"station_id":"ce4bhbh2rcd13ifvqeo0","pricing_plan_id":"free"},{"bike_id":"b4a7f937-1971-4787-8316-edb0b4620ef5","system_id":"levelo_inurba_marseille","lat":43.27379,"lon":5.36257,"is_reserved":false,"is_disabled":false,"rental_uris":{"android":"levelo://app?vid=b4a7f937-1971-4787-8316-edb0b4620ef5","ios":"levelo://app?vid=b4a7f937-1971-4787-8316-edb0b4620ef5"},"vehicle_type_id":"4","last_reported":1706454320,"current_range_meters":0,"station_id":"ce4bhbh2rcd13ifvqeo0","pricing_plan_id":"free"},{"bike_id":"f8d3a38a-b005-4d3f-8614-b44b4ad5f455","system_id":"levelo_inurba_marseille","lat":43.27378,"lon":5.36254,"is_reserved":false,"is_disabled":false,"rental_uris":{"android":"levelo://app?vid=f8d3a38a-b005-4d3f-8614-b44b4ad5f455","ios":"levelo://app?vid=f8d3a38a-b005-4d3f-8614-b44b4ad5f455"},"vehicle_type_id":"4","last_reported":1706454320,"current_range_meters":9200,"station_id":"ce4bhbh2rcd13ifvqeo0","pricing_plan_id":"free"},{"bike_id":"9ad3d5fa-4b67-4ef2-b795-3f0dde7c4ddb","system_id":"levelo_inurba_marseille","lat":43.27378,"lon":5.36247,"is_reserved":false,"is_disabled":false,"rental_uris":{"android":"levelo://app?vid=9ad3d5fa-4b67-4ef2-b795-3f0dde7c4ddb","ios":"levelo://app?vid=9ad3d5fa-4b67-4ef2-b795-3f0dde7c4ddb"},"vehicle_type_id":"4","last_reported":1706454320,"current_range_meters":30400,"station_id":"ce4bhbh2rcd13ifvqeo0","pricing_plan_id":"free"},{"bike_id":"b25fa1c4-251f-4601-ba24-21edc42bb4a4","system_id":"levelo_inurba_marseille","lat":43.273613,"lon":5.362705,"is_reserved":false,"is_disabled":false,"rental_uris":{"android":"levelo://app?vid=b25fa1c4-251f-4601-ba24-21edc42bb4a4","ios":"levelo://app?vid=b25fa1c4-251f-4601-ba24-21edc42bb4a4"},"vehicle_type_id":"4","last_reported":1706454320,"current_range_meters":25600,"station_id":"ce4bhbh2rcd13ifvqeo0","pricing_plan_id":"free"},{"bike_id":"1ef05613-4564-43d3-9773-b25e98403f64","system_id":"levelo_inurba_marseille","lat":43.27378,"lon":5.36243,"is_reserved":false,"is_disabled":false,"rental_uris":{"android":"levelo://app?vid=1ef05613-4564-43d3-9773-b25e98403f64","ios":"levelo://app?vid=1ef05613-4564-43d3-9773-b25e98403f64"},"vehicle_type_id":"4","last_reported":1706454320,"current_range_meters":30000,"station_id":"ce4bhbh2rcd13ifvqeo0","pricing_plan_id":"free"},{"bike_id":"c62370f5-ed2d-4939-afd3-2a8b3bc2f3d9","system_id":"levelo_inurba_marseille","lat":43.273613,"lon":5.362705,"is_reserved":false,"is_disabled":false,"rental_uris":{"android":"levelo://app?vid=c62370f5-ed2d-4939-afd3-2a8b3bc2f3d9","ios":"levelo://app?vid=c62370f5-ed2d-4939-afd3-2a8b3bc2f3d9"},"vehicle_type_id":"4","last_reported":1706454320,"current_range_meters":31200,"station_id":"ce4bhbh2rcd13ifvqeo0","pricing_plan_id":"free"},{"bike_id":"62943b99-cf90-4fda-b877-7096ce5009bf","system_id":"levelo_inurba_marseille","lat":43.27376,"lon":5.36249,"is_reserved":false,"is_disabled":false,"rental_uris":{"android":"levelo://app?vid=62943b99-cf90-4fda-b877-7096ce5009bf","ios":"levelo://app?vid=62943b99-cf90-4fda-b877-7096ce5009bf"},"vehicle_type_id":"4","last_reported":1706454320,"current_range_meters":0,"station_id":"ce4bhbh2rcd13ifvqeo0","pricing_plan_id":"free"},{"bike_id":"c0971226-fcae-4d74-b9a7-942a2c35d059","system_id":"levelo_inurba_marseille","lat":43.273613,"lon":5.362705,"is_reserved":false,"is_disabled":false,"rental_uris":{"android":"levelo://app?vid=c0971226-fcae-4d74-b9a7-942a2c35d059","ios":"levelo://app?vid=c0971226-fcae-4d74-b9a7-942a2c35d059"},"vehicle_type_id":"4","last_reported":1706454320,"current_range_meters":8000,"station_id":"ce4bhbh2rcd13ifvqeo0","pricing_plan_id":"free"},{"bike_id":"6ef6cea5-279b-4734-b184-642fd171d26e","system_id":"levelo_inurba_marseille","lat":43.27376,"lon":5.36245,"is_reserved":false,"is_disabled":false,"rental_uris":{"android":"levelo://app?vid=6ef6cea5-279b-4734-b184-642fd171d26e","ios":"levelo://app?vid=6ef6cea5-279b-4734-b184-642fd171d26e"},"vehicle_type_id":"4","last_reported":1706454320,"current_range_meters":12000,"station_id":"ce4bhbh2rcd13ifvqeo0","pricing_plan_id":"free"},{"bike_id":"4ed68de0-a69f-4dca-8b1e-4f261afe2a5a","system_id":"levelo_inurba_marseille","lat":43.273741,"lon":5.362624,"is_reserved":false,"is_disabled":false,"rental_uris":{"android":"levelo://app?vid=4ed68de0-a69f-4dca-8b1e-4f261afe2a5a","ios":"levelo://app?vid=4ed68de0-a69f-4dca-8b1e-4f261afe2a5a"},"vehicle_type_id":"4","last_reported":1706454320,"current_range_meters":3600,"station_id":"ce4bhbh2rcd13ifvqeo0","pricing_plan_id":"free"},{"bike_id":"fc4c5a92-0fdd-490c-ba20-57ecd8ed05f5","system_id":"levelo_inurba_marseille","lat":43.27375,"lon":5.36245,"is_reserved":false,"is_disabled":false,"rental_uris":{"android":"levelo://app?vid=fc4c5a92-0fdd-490c-ba20-57ecd8ed05f5","ios":"levelo://app?vid=fc4c5a92-0fdd-490c-ba20-57ecd8ed05f5"},"vehicle_type_id":"4","last_reported":1706454320,"current_range_meters":31200,"station_id":"ce4bhbh2rcd13ifvqeo0","pricing_plan_id":"free"},{"bike_id":"cff84d80-538b-41ae-af5c-37997cc805be","system_id":"levelo_inurba_marseille","lat":43.27373,"lon":5.36258,"is_reserved":false,"is_disabled":false,"rental_uris":{"android":"levelo://app?vid=cff84d80-538b-41ae-af5c-37997cc805be","ios":"levelo://app?vid=cff84d80-538b-41ae-af5c-37997cc805be"},"vehicle_type_id":"4","last_reported":1706454320,"current_range_meters":4000,"station_id":"ce4bhbh2rcd13ifvqeo0","pricing_plan_id":"free"},{"bike_id":"5669e1f0-dada-41ad-8c05-a1ffcda89858","system_id":"levelo_inurba_marseille","lat":43.27373,"lon":5.36258,"is_reserved":false,"is_disabled":false,"rental_uris":{"android":"levelo://app?vid=5669e1f0-dada-41ad-8c05-a1ffcda89858","ios":"levelo://app?vid=5669e1f0-dada-41ad-8c05-a1ffcda89858"},"vehicle_type_id":"4","last_reported":1706454320,"current_range_meters":1200,"station_id":"ce4bhbh2rcd13ifvqeo0","pricing_plan_id":"free"},{"bike_id":"8e803201-40e5-444f-8a41-d15e4d90adf3","system_id":"levelo_inurba_marseille","lat":43.273726,"lon":5.362619,"is_reserved":false,"is_disabled":false,"rental_uris":{"android":"levelo://app?vid=8e803201-40e5-444f-8a41-d15e4d90adf3","ios":"levelo://app?vid=8e803201-40e5-444f-8a41-d15e4d90adf3"},"vehicle_type_id":"4","last_reported":1706454320,"current_range_meters":12400,"station_id":"ce4bhbh2rcd13ifvqeo0","pricing_plan_id":"free"},{"bike_id":"66164650-0b87-4422-ba49-905ebe3395ff","system_id":"levelo_inurba_marseille","lat":43.273613,"lon":5.362705,"is_reserved":false,"is_disabled":false,"rental_uris":{"android":"levelo://app?vid=66164650-0b87-4422-ba49-905ebe3395ff","ios":"levelo://app?vid=66164650-0b87-4422-ba49-905ebe3395ff"},"vehicle_type_id":"4","last_reported":1706454320,"current_range_meters":25200,"station_id":"ce4bhbh2rcd13ifvqeo0","pricing_plan_id":"free"},{"bike_id":"48f0aa32-5d0f-474a-b960-73b4272b87f5","system_id":"levelo_inurba_marseille","lat":43.2737,"lon":5.36263,"is_reserved":false,"is_disabled":false,"rental_uris":{"android":"levelo://app?vid=48f0aa32-5d0f-474a-b960-73b4272b87f5","ios":"levelo://app?vid=48f0aa32-5d0f-474a-b960-73b4272b87f5"},"vehicle_type_id":"4","last_reported":1706454320,"current_range_meters":28400,"station_id":"ce4bhbh2rcd13ifvqeo0","pricing_plan_id":"free"},{"bike_id":"2bd41b8b-1140-49e9-a2ab-20d62d799e9f","system_id":"levelo_inurba_marseille","lat":43.275625,"lon":5.384392,"is_reserved":false,"is_disabled":false,"rental_uris":{"android":"levelo://app?vid=2bd41b8b-1140-49e9-a2ab-20d62d799e9f","ios":"levelo://app?vid=2bd41b8b-1140-49e9-a2ab-20d62d799e9f"},"vehicle_type_id":"4","last_reported":1706454320,"current_range_meters":14400,"station_id":"ce4bhh92rcd13ifvqfi0","pricing_plan_id":"free"},{"bike_id":"54049a08-f8b0-490e-99c5-5554c8d366b2","system_id":"levelo_inurba_marseille","lat":43.273693,"lon":5.362571,"is_reserved":false,"is_disabled":false,"rental_uris":{"android":"levelo://app?vid=54049a08-f8b0-490e-99c5-5554c8d366b2","ios":"levelo://app?vid=54049a08-f8b0-490e-99c5-5554c8d366b2"},"vehicle_type_id":"4","last_reported":1706454320,"current_range_meters":28000,"station_id":"ce4bhbh2rcd13ifvqeo0","pricing_plan_id":"free"},{"bike_id":"19a81d9e-2933-4872-b98f-2b093cc196eb","system_id":"levelo_inurba_marseille","lat":43.27369,"lon":5.36257,"is_reserved":false,"is_disabled":false,"rental_uris":{"android":"levelo://app?vid=19a81d9e-2933-4872-b98f-2b093cc196eb","ios":"levelo://app?vid=19a81d9e-2933-4872-b98f-2b093cc196eb"},"vehicle_type_id":"4","last_reported":1706454320,"current_range_meters":16000,"station_id":"ce4bhbh2rcd13ifvqeo0","pricing_plan_id":"free"},{"bike_id":"fa8661d5-d626-4b80-b5a5-f600b8c722d0","system_id":"levelo_inurba_marseille","lat":43.336134,"lon":5.410341,"is_reserved":false,"is_disabled":false,"rental_uris":{"android":"levelo://app?vid=fa8661d5-d626-4b80-b5a5-f600b8c722d0","ios":"levelo://app?vid=fa8661d5-d626-4b80-b5a5-f600b8c722d0"},"vehicle_type_id":"4","last_reported":1706454320,"current_range_meters":18800,"station_id":"ce4bhqh2rcd13ifvqhmg","pricing_plan_id":"free"},{"bike_id":"65f041e4-7942-445e-b7c2-8bb3a14702aa","system_id":"levelo_inurba_marseille","lat":43.273652,"lon":5.362597,"is_reserved":false,"is_disabled":false,"rental_uris":{"android":"levelo://app?vid=65f041e4-7942-445e-b7c2-8bb3a14702aa","ios":"levelo://app?vid=65f041e4-7942-445e-b7c2-8bb3a14702aa"},"vehicle_type_id":"4","last_reported":1706454320,"current_range_meters":27600,"station_id":"ce4bhbh2rcd13ifvqeo0","pricing_plan_id":"free"},{"bike_id":"81e9e01e-1e29-4467-aff8-992019661ef1","system_id":"levelo_inurba_marseille","lat":43.33585,"lon":5.4105,"is_reserved":false,"is_disabled":false,"rental_uris":{"android":"levelo://app?vid=81e9e01e-1e29-4467-aff8-992019661ef1","ios":"levelo://app?vid=81e9e01e-1e29-4467-aff8-992019661ef1"},"vehicle_type_id":"4","last_reported":1706454320,"current_range_meters":0,"station_id":"ce4bhqh2rcd13ifvqhmg","pricing_plan_id":"free"},{"bike_id":"6e46480a-3e24-44be-9b6c-60a8ec342681","system_id":"levelo_inurba_marseille","lat":43.336148,"lon":5.410349,"is_reserved":false,"is_disabled":false,"rental_uris":{"android":"levelo://app?vid=6e46480a-3e24-44be-9b6c-60a8ec342681","ios":"levelo://app?vid=6e46480a-3e24-44be-9b6c-60a8ec342681"},"vehicle_type_id":"4","last_reported":1706454320,"current_range_meters":12000,"station_id":"ce4bhqh2rcd13ifvqhmg","pricing_plan_id":"free"},{"bike_id":"44cd2ebb-5109-4a1d-82a2-37ac847c534e","system_id":"levelo_inurba_marseille","lat":43.336134,"lon":5.410341,"is_reserved":false,"is_disabled":false,"rental_uris":{"android":"levelo://app?vid=44cd2ebb-5109-4a1d-82a2-37ac847c534e","ios":"levelo://app?vid=44cd2ebb-5109-4a1d-82a2-37ac847c534e"},"vehicle_type_id":"4","last_reported":1706454320,"current_range_meters":28800,"station_id":"ce4bhqh2rcd13ifvqhmg","pricing_plan_id":"free"},{"bike_id":"6f46a34b-d5d1-4592-8607-98eec5146735","system_id":"levelo_inurba_marseille","lat":43.28367,"lon":5.40702,"is_reserved":false,"is_disabled":false,"rental_uris":{"android":"levelo://app?vid=6f46a34b-d5d1-4592-8607-98eec5146735","ios":"levelo://app?vid=6f46a34b-d5d1-4592-8607-98eec5146735"},"vehicle_type_id":"4","last_reported":1706454320,"current_range_meters":2400,"station_id":"","pricing_plan_id":"free"},{"bike_id":"87c998a4-b27c-4b57-8568-42f4629803bf","system_id":"levelo_inurba_marseille","lat":43.27624,"lon":5.39465,"is_reserved":false,"is_disabled":false,"rental_uris":{"android":"levelo://app?vid=87c998a4-b27c-4b57-8568-42f4629803bf","ios":"levelo://app?vid=87c998a4-b27c-4b57-8568-42f4629803bf"},"vehicle_type_id":"4","last_reported":1706454320,"current_range_meters":11600,"station_id":"","pricing_plan_id":"free"},{"bike_id":"c7034082-bffb-4f86-bb91-40ab0c03be2f","system_id":"levelo_inurba_marseille","lat":43.317121,"lon":5.423936,"is_reserved":false,"is_disabled":false,"rental_uris":{"android":"levelo://app?vid=c7034082-bffb-4f86-bb91-40ab0c03be2f","ios":"levelo://app?vid=c7034082-bffb-4f86-bb91-40ab0c03be2f"},"vehicle_type_id":"4","last_reported":1706454320,"current_range_meters":19600,"station_id":"ce4bhp92rcd13ifvqhbg","pricing_plan_id":"free"},{"bike_id":"9d7baec1-59f4-432d-9326-527854eb3cb2","system_id":"levelo_inurba_marseille","lat":43.317121,"lon":5.423936,"is_reserved":false,"is_disabled":false,"rental_uris":{"android":"levelo://app?vid=9d7baec1-59f4-432d-9326-527854eb3cb2","ios":"levelo://app?vid=9d7baec1-59f4-432d-9326-527854eb3cb2"},"vehicle_type_id":"4","last_reported":1706454320,"current_range_meters":18400,"station_id":"ce4bhp92rcd13ifvqhbg","pricing_plan_id":"free"},{"bike_id":"de994ca2-6a4e-45a1-a1d8-5826b8cc855b","system_id":"levelo_inurba_marseille","lat":43.340804,"lon":5.410219,"is_reserved":false,"is_disabled":false,"rental_uris":{"android":"levelo://app?vid=de994ca2-6a4e-45a1-a1d8-5826b8cc855b","ios":"levelo://app?vid=de994ca2-6a4e-45a1-a1d8-5826b8cc855b"},"vehicle_type_id":"4","last_reported":1706454320,"current_range_meters":9200,"station_id":"ce4bhqh2rcd13ifvqhlg","pricing_plan_id":"free"},{"bike_id":"32efc626-5611-4254-a6ae-99e8021b8194","system_id":"levelo_inurba_marseille","lat":43.273125,"lon":5.390731,"is_reserved":false,"is_disabled":false,"rental_uris":{"android":"levelo://app?vid=32efc626-5611-4254-a6ae-99e8021b8194","ios":"levelo://app?vid=32efc626-5611-4254-a6ae-99e8021b8194"},"vehicle_type_id":"4","last_reported":1706454320,"current_range_meters":25600,"station_id":"ce4bhgp2rcd13ifvqfe0","pricing_plan_id":"free"},{"bike_id":"79ba457f-e2e0-465e-914c-1aa6ff168bdd","system_id":"levelo_inurba_marseille","lat":43.27321,"lon":5.39089,"is_reserved":false,"is_disabled":false,"rental_uris":{"android":"levelo://app?vid=79ba457f-e2e0-465e-914c-1aa6ff168bdd","ios":"levelo://app?vid=79ba457f-e2e0-465e-914c-1aa6ff168bdd"},"vehicle_type_id":"4","last_reported":1706454320,"current_range_meters":0,"station_id":"ce4bhgp2rcd13ifvqfe0","pricing_plan_id":"free"},{"bike_id":"36b19ef0-7259-432b-af83-bb3aa797ff18","system_id":"levelo_inurba_marseille","lat":43.274099,"lon":5.394019,"is_reserved":false,"is_disabled":false,"rental_uris":{"android":"levelo://app?vid=36b19ef0-7259-432b-af83-bb3aa797ff18","ios":"levelo://app?vid=36b19ef0-7259-432b-af83-bb3aa797ff18"},"vehicle_type_id":"4","last_reported":1706454320,"current_range_meters":12800,"station_id":"ce4bhdp2rcd13ifvqf20","pricing_plan_id":"free"},{"bike_id":"ba5f58e5-4c97-45de-aa6a-1c96f28cc40c","system_id":"levelo_inurba_marseille","lat":43.274099,"lon":5.394019,"is_reserved":false,"is_disabled":false,"rental_uris":{"android":"levelo://app?vid=ba5f58e5-4c97-45de-aa6a-1c96f28cc40c","ios":"levelo://app?vid=ba5f58e5-4c97-45de-aa6a-1c96f28cc40c"},"vehicle_type_id":"4","last_reported":1706454320,"current_range_meters":20400,"station_id":"ce4bhdp2rcd13ifvqf20","pricing_plan_id":"free"},{"bike_id":"2c1dbbc5-9434-40ec-b6a7-210d08a19857","system_id":"levelo_inurba_marseille","lat":43.295523,"lon":5.422926,"is_reserved":false,"is_disabled":false,"rental_uris":{"android":"levelo://app?vid=2c1dbbc5-9434-40ec-b6a7-210d08a19857","ios":"levelo://app?vid=2c1dbbc5-9434-40ec-b6a7-210d08a19857"},"vehicle_type_id":"4","last_reported":1706454320,"current_range_meters":2000,"station_id":"ce4bhph2rcd13ifvqhdg","pricing_plan_id":"free"},{"bike_id":"6fe4555c-13a8-443a-bc04-01ca818a618f","system_id":"levelo_inurba_marseille","lat":43.295388,"lon":5.423081,"is_reserved":false,"is_disabled":false,"rental_uris":{"android":"levelo://app?vid=6fe4555c-13a8-443a-bc04-01ca818a618f","ios":"levelo://app?vid=6fe4555c-13a8-443a-bc04-01ca818a618f"},"vehicle_type_id":"4","last_reported":1706454320,"current_range_meters":20800,"station_id":"ce4bhph2rcd13ifvqhdg","pricing_plan_id":"free"},{"bike_id":"3d14cb8c-ebba-4e29-af31-4761cadfc2f6","system_id":"levelo_inurba_marseille","lat":43.27206,"lon":5.39189,"is_reserved":false,"is_disabled":false,"rental_uris":{"android":"levelo://app?vid=3d14cb8c-ebba-4e29-af31-4761cadfc2f6","ios":"levelo://app?vid=3d14cb8c-ebba-4e29-af31-4761cadfc2f6"},"vehicle_type_id":"4","last_reported":1706454320,"current_range_meters":0,"station_id":"ce4bhhp2rcd13ifvqfm0","pricing_plan_id":"free"},{"bike_id":"00ca5024-8e84-49ff-baf6-9e5f93fec4c5","system_id":"levelo_inurba_marseille","lat":43.278128,"lon":5.407195,"is_reserved":false,"is_disabled":false,"rental_uris":{"android":"levelo://app?vid=00ca5024-8e84-49ff-baf6-9e5f93fec4c5","ios":"levelo://app?vid=00ca5024-8e84-49ff-baf6-9e5f93fec4c5"},"vehicle_type_id":"4","last_reported":1706454320,"current_range_meters":25200,"station_id":"ce4bhnh2rcd13ifvqgtg","pricing_plan_id":"free"},{"bike_id":"9334d83d-0dc8-4f07-981a-9f8a162bb162","system_id":"levelo_inurba_marseille","lat":43.269467,"lon":5.386439,"is_reserved":false,"is_disabled":false,"rental_uris":{"android":"levelo://app?vid=9334d83d-0dc8-4f07-981a-9f8a162bb162","ios":"levelo://app?vid=9334d83d-0dc8-4f07-981a-9f8a162bb162"},"vehicle_type_id":"4","last_reported":1706454320,"current_range_meters":28800,"station_id":"ce4bhh92rcd13ifvqfh0","pricing_plan_id":"free"},{"bike_id":"05786094-3896-4f03-9513-5b10b509beeb","system_id":"levelo_inurba_marseille","lat":43.269467,"lon":5.386439,"is_reserved":false,"is_disabled":false,"rental_uris":{"android":"levelo://app?vid=05786094-3896-4f03-9513-5b10b509beeb","ios":"levelo://app?vid=05786094-3896-4f03-9513-5b10b509beeb"},"vehicle_type_id":"4","last_reported":1706454320,"current_range_meters":18800,"station_id":"ce4bhh92rcd13ifvqfh0","pricing_plan_id":"free"},{"bike_id":"1ca1641c-e289-4414-badc-e24f32d8aa76","system_id":"levelo_inurba_marseille","lat":43.267966,"lon":5.393976,"is_reserved":false,"is_disabled":false,"rental_uris":{"android":"levelo://app?vid=1ca1641c-e289-4414-badc-e24f32d8aa76","ios":"levelo://app?vid=1ca1641c-e289-4414-badc-e24f32d8aa76"},"vehicle_type_id":"4","last_reported":1706454320,"current_range_meters":24000,"station_id":"ce4bhh12rcd13ifvqfg0","pricing_plan_id":"free"},{"bike_id":"cdd2f078-4bb3-4707-85ae-150b88a84c2e","system_id":"levelo_inurba_marseille","lat":43.267966,"lon":5.393976,"is_reserved":false,"is_disabled":false,"rental_uris":{"android":"levelo://app?vid=cdd2f078-4bb3-4707-85ae-150b88a84c2e","ios":"levelo://app?vid=cdd2f078-4bb3-4707-85ae-150b88a84c2e"},"vehicle_type_id":"4","last_reported":1706454320,"current_range_meters":19600,"station_id":"ce4bhh12rcd13ifvqfg0","pricing_plan_id":"free"},{"bike_id":"629c8614-eac6-412f-9f4d-1b48e333328b","system_id":"levelo_inurba_marseille","lat":43.267966,"lon":5.393976,"is_reserved":false,"is_disabled":false,"rental_uris":{"android":"levelo://app?vid=629c8614-eac6-412f-9f4d-1b48e333328b","ios":"levelo://app?vid=629c8614-eac6-412f-9f4d-1b48e333328b"},"vehicle_type_id":"4","last_reported":1706454320,"current_range_meters":2000,"station_id":"ce4bhh12rcd13ifvqfg0","pricing_plan_id":"free"},{"bike_id":"06001b1b-1179-406e-9e0a-821e5eb692c8","system_id":"levelo_inurba_marseille","lat":43.267966,"lon":5.393976,"is_reserved":false,"is_disabled":false,"rental_uris":{"android":"levelo://app?vid=06001b1b-1179-406e-9e0a-821e5eb692c8","ios":"levelo://app?vid=06001b1b-1179-406e-9e0a-821e5eb692c8"},"vehicle_type_id":"4","last_reported":1706454320,"current_range_meters":10000,"station_id":"ce4bhh12rcd13ifvqfg0","pricing_plan_id":"free"},{"bike_id":"63d95574-1b72-4eb8-be0c-0f955f9841c0","system_id":"levelo_inurba_marseille","lat":43.308051,"lon":5.43527,"is_reserved":false,"is_disabled":false,"rental_uris":{"android":"levelo://app?vid=63d95574-1b72-4eb8-be0c-0f955f9841c0","ios":"levelo://app?vid=63d95574-1b72-4eb8-be0c-0f955f9841c0"},"vehicle_type_id":"4","last_reported":1706454320,"current_range_meters":6400,"station_id":"ce4bhph2rcd13ifvqheg","pricing_plan_id":"free"},{"bike_id":"a0c1da5c-da2c-4591-819f-e09460076444","system_id":"levelo_inurba_marseille","lat":43.33418,"lon":5.42896,"is_reserved":false,"is_disabled":false,"rental_uris":{"android":"levelo://app?vid=a0c1da5c-da2c-4591-819f-e09460076444","ios":"levelo://app?vid=a0c1da5c-da2c-4591-819f-e09460076444"},"vehicle_type_id":"4","last_reported":1706454320,"current_range_meters":4000,"station_id":"","pricing_plan_id":"free"},{"bike_id":"61126634-e004-44bf-8283-09584012bba3","system_id":"levelo_inurba_marseille","lat":43.265569,"lon":5.390047,"is_reserved":false,"is_disabled":false,"rental_uris":{"android":"levelo://app?vid=61126634-e004-44bf-8283-09584012bba3","ios":"levelo://app?vid=61126634-e004-44bf-8283-09584012bba3"},"vehicle_type_id":"4","last_reported":1706454320,"current_range_meters":28000,"station_id":"ce4bhe12rcd13ifvqf30","pricing_plan_id":"free"},{"bike_id":"c6e324a6-8470-4be4-843a-a004b7cb9989","system_id":"levelo_inurba_marseille","lat":43.26949,"lon":5.40262,"is_reserved":false,"is_disabled":false,"rental_uris":{"android":"levelo://app?vid=c6e324a6-8470-4be4-843a-a004b7cb9989","ios":"levelo://app?vid=c6e324a6-8470-4be4-843a-a004b7cb9989"},"vehicle_type_id":"4","last_reported":1706454320,"current_range_meters":6000,"station_id":"cjm6bp8fraef2m0cb0m0","pricing_plan_id":"free"},{"bike_id":"9375260d-c9fc-45d8-9707-8b3228cf7c9e","system_id":"levelo_inurba_marseille","lat":43.26188,"lon":5.37443,"is_reserved":false,"is_disabled":false,"rental_uris":{"android":"levelo://app?vid=9375260d-c9fc-45d8-9707-8b3228cf7c9e","ios":"levelo://app?vid=9375260d-c9fc-45d8-9707-8b3228cf7c9e"},"vehicle_type_id":"4","last_reported":1706454320,"current_range_meters":0,"station_id":"ce4bhgp2rcd13ifvqfc0","pricing_plan_id":"free"},{"bike_id":"ea0c2c40-7c9e-4df2-99b0-7460ee6b7e34","system_id":"levelo_inurba_marseille","lat":43.261782,"lon":5.374515,"is_reserved":false,"is_disabled":false,"rental_uris":{"android":"levelo://app?vid=ea0c2c40-7c9e-4df2-99b0-7460ee6b7e34","ios":"levelo://app?vid=ea0c2c40-7c9e-4df2-99b0-7460ee6b7e34"},"vehicle_type_id":"4","last_reported":1706454320,"current_range_meters":2000,"station_id":"ce4bhgp2rcd13ifvqfc0","pricing_plan_id":"free"},{"bike_id":"1863c7f3-9aa6-4739-a36b-4416deeab100","system_id":"levelo_inurba_marseille","lat":43.261782,"lon":5.374515,"is_reserved":false,"is_disabled":false,"rental_uris":{"android":"levelo://app?vid=1863c7f3-9aa6-4739-a36b-4416deeab100","ios":"levelo://app?vid=1863c7f3-9aa6-4739-a36b-4416deeab100"},"vehicle_type_id":"4","last_reported":1706454320,"current_range_meters":2000,"station_id":"ce4bhgp2rcd13ifvqfc0","pricing_plan_id":"free"},{"bike_id":"0e1586b7-ee20-4af2-87fb-92dd1bfe499b","system_id":"levelo_inurba_marseille","lat":43.317104,"lon":5.436818,"is_reserved":false,"is_disabled":false,"rental_uris":{"android":"levelo://app?vid=0e1586b7-ee20-4af2-87fb-92dd1bfe499b","ios":"levelo://app?vid=0e1586b7-ee20-4af2-87fb-92dd1bfe499b"},"vehicle_type_id":"4","last_reported":1706454320,"current_range_meters":5200,"station_id":"ce4bhp92rcd13ifvqhcg","pricing_plan_id":"free"},{"bike_id":"16b7575f-3c57-4c6d-a94a-f05f7def18e1","system_id":"levelo_inurba_marseille","lat":43.271388,"lon":5.409269,"is_reserved":false,"is_disabled":false,"rental_uris":{"android":"levelo://app?vid=16b7575f-3c57-4c6d-a94a-f05f7def18e1","ios":"levelo://app?vid=16b7575f-3c57-4c6d-a94a-f05f7def18e1"},"vehicle_type_id":"4","last_reported":1706454320,"current_range_meters":27600,"station_id":"ce4bhl12rcd13ifvqgf0","pricing_plan_id":"free"},{"bike_id":"a16ba5bf-4f32-4b8c-9273-ccb117f48b08","system_id":"levelo_inurba_marseille","lat":43.271368,"lon":5.40928,"is_reserved":false,"is_disabled":false,"rental_uris":{"android":"levelo://app?vid=a16ba5bf-4f32-4b8c-9273-ccb117f48b08","ios":"levelo://app?vid=a16ba5bf-4f32-4b8c-9273-ccb117f48b08"},"vehicle_type_id":"4","last_reported":1706454320,"current_range_meters":30000,"station_id":"ce4bhl12rcd13ifvqgf0","pricing_plan_id":"free"},{"bike_id":"04c17a24-a02a-450b-9bd0-8d8711dc0959","system_id":"levelo_inurba_marseille","lat":43.267959,"lon":5.402685,"is_reserved":false,"is_disabled":false,"rental_uris":{"android":"levelo://app?vid=04c17a24-a02a-450b-9bd0-8d8711dc0959","ios":"levelo://app?vid=04c17a24-a02a-450b-9bd0-8d8711dc0959"},"vehicle_type_id":"4","last_reported":1706454320,"current_range_meters":24400,"station_id":"ce501612rcd8frsf0b60","pricing_plan_id":"free"},{"bike_id":"0f768aa2-98bb-4657-a548-14951789dc34","system_id":"levelo_inurba_marseille","lat":43.26804,"lon":5.4026,"is_reserved":false,"is_disabled":false,"rental_uris":{"android":"levelo://app?vid=0f768aa2-98bb-4657-a548-14951789dc34","ios":"levelo://app?vid=0f768aa2-98bb-4657-a548-14951789dc34"},"vehicle_type_id":"4","last_reported":1706454320,"current_range_meters":10000,"station_id":"ce501612rcd8frsf0b60","pricing_plan_id":"free"},{"bike_id":"fee134bb-2129-4061-bbe0-b6e380decab8","system_id":"levelo_inurba_marseille","lat":43.26807,"lon":5.40268,"is_reserved":false,"is_disabled":false,"rental_uris":{"android":"levelo://app?vid=fee134bb-2129-4061-bbe0-b6e380decab8","ios":"levelo://app?vid=fee134bb-2129-4061-bbe0-b6e380decab8"},"vehicle_type_id":"4","last_reported":1706454320,"current_range_meters":1200,"station_id":"ce501612rcd8frsf0b60","pricing_plan_id":"free"},{"bike_id":"d74f509f-7a93-4c8c-8676-81762b3db143","system_id":"levelo_inurba_marseille","lat":43.26162,"lon":5.380097,"is_reserved":false,"is_disabled":false,"rental_uris":{"android":"levelo://app?vid=d74f509f-7a93-4c8c-8676-81762b3db143","ios":"levelo://app?vid=d74f509f-7a93-4c8c-8676-81762b3db143"},"vehicle_type_id":"4","last_reported":1706454320,"current_range_meters":12400,"station_id":"","pricing_plan_id":"free"},{"bike_id":"37247222-b032-496f-985d-3a8a774dddc8","system_id":"levelo_inurba_marseille","lat":43.264958,"lon":5.395433,"is_reserved":false,"is_disabled":false,"rental_uris":{"android":"levelo://app?vid=37247222-b032-496f-985d-3a8a774dddc8","ios":"levelo://app?vid=37247222-b032-496f-985d-3a8a774dddc8"},"vehicle_type_id":"4","last_reported":1706454320,"current_range_meters":15600,"station_id":"ce4bhi12rcd13ifvqfq0","pricing_plan_id":"free"},{"bike_id":"1364e02a-04a3-4ac5-b45e-98b2168b3c9f","system_id":"levelo_inurba_marseille","lat":43.264946,"lon":5.395416,"is_reserved":false,"is_disabled":false,"rental_uris":{"android":"levelo://app?vid=1364e02a-04a3-4ac5-b45e-98b2168b3c9f","ios":"levelo://app?vid=1364e02a-04a3-4ac5-b45e-98b2168b3c9f"},"vehicle_type_id":"4","last_reported":1706454320,"current_range_meters":4400,"station_id":"ce4bhi12rcd13ifvqfq0","pricing_plan_id":"free"},{"bike_id":"bc92b168-9def-4028-9c96-b8922d8d2862","system_id":"levelo_inurba_marseille","lat":43.298966,"lon":5.436621,"is_reserved":false,"is_disabled":false,"rental_uris":{"android":"levelo://app?vid=bc92b168-9def-4028-9c96-b8922d8d2862","ios":"levelo://app?vid=bc92b168-9def-4028-9c96-b8922d8d2862"},"vehicle_type_id":"4","last_reported":1706454320,"current_range_meters":22400,"station_id":"ce4bhpp2rcd13ifvqhfg","pricing_plan_id":"free"},{"bike_id":"12997fb5-883c-4230-99a8-176a3a81dbcf","system_id":"levelo_inurba_marseille","lat":43.29898,"lon":5.43665,"is_reserved":false,"is_disabled":false,"rental_uris":{"android":"levelo://app?vid=12997fb5-883c-4230-99a8-176a3a81dbcf","ios":"levelo://app?vid=12997fb5-883c-4230-99a8-176a3a81dbcf"},"vehicle_type_id":"4","last_reported":1706454320,"current_range_meters":25600,"station_id":"ce4bhpp2rcd13ifvqhfg","pricing_plan_id":"free"},{"bike_id":"753d6921-1f8f-42a9-a695-776f5a15aa39","system_id":"levelo_inurba_marseille","lat":43.29897,"lon":5.436648,"is_reserved":false,"is_disabled":false,"rental_uris":{"android":"levelo://app?vid=753d6921-1f8f-42a9-a695-776f5a15aa39","ios":"levelo://app?vid=753d6921-1f8f-42a9-a695-776f5a15aa39"},"vehicle_type_id":"4","last_reported":1706454320,"current_range_meters":27200,"station_id":"ce4bhpp2rcd13ifvqhfg","pricing_plan_id":"free"},{"bike_id":"6b61ab2c-ab67-440f-8712-0e7d44411e15","system_id":"levelo_inurba_marseille","lat":43.298958,"lon":5.43671,"is_reserved":false,"is_disabled":false,"rental_uris":{"android":"levelo://app?vid=6b61ab2c-ab67-440f-8712-0e7d44411e15","ios":"levelo://app?vid=6b61ab2c-ab67-440f-8712-0e7d44411e15"},"vehicle_type_id":"4","last_reported":1706454320,"current_range_meters":5600,"station_id":"ce4bhpp2rcd13ifvqhfg","pricing_plan_id":"free"},{"bike_id":"9a9b052e-9615-400e-801b-fc1afa54d7f5","system_id":"levelo_inurba_marseille","lat":43.26031,"lon":5.37553,"is_reserved":false,"is_disabled":false,"rental_uris":{"android":"levelo://app?vid=9a9b052e-9615-400e-801b-fc1afa54d7f5","ios":"levelo://app?vid=9a9b052e-9615-400e-801b-fc1afa54d7f5"},"vehicle_type_id":"4","last_reported":1706454320,"current_range_meters":11600,"station_id":"ce4bhgh2rcd13ifvqfa0","pricing_plan_id":"free"},{"bike_id":"ffd71adb-fd3a-446d-9206-2d665ea729cd","system_id":"levelo_inurba_marseille","lat":43.260219,"lon":5.37546,"is_reserved":false,"is_disabled":false,"rental_uris":{"android":"levelo://app?vid=ffd71adb-fd3a-446d-9206-2d665ea729cd","ios":"levelo://app?vid=ffd71adb-fd3a-446d-9206-2d665ea729cd"},"vehicle_type_id":"4","last_reported":1706454320,"current_range_meters":25200,"station_id":"ce4bhgh2rcd13ifvqfa0","pricing_plan_id":"free"},{"bike_id":"b9c297e9-a4f0-43ee-b803-e7cc171f3969","system_id":"levelo_inurba_marseille","lat":43.28157,"lon":5.42643,"is_reserved":false,"is_disabled":false,"rental_uris":{"android":"levelo://app?vid=b9c297e9-a4f0-43ee-b803-e7cc171f3969","ios":"levelo://app?vid=b9c297e9-a4f0-43ee-b803-e7cc171f3969"},"vehicle_type_id":"4","last_reported":1706454320,"current_range_meters":0,"station_id":"ce4bhnh2rcd13ifvqgug","pricing_plan_id":"free"},{"bike_id":"0ae55a9b-4fac-4307-93a4-3081d0859a4f","system_id":"levelo_inurba_marseille","lat":43.326164,"lon":5.438153,"is_reserved":false,"is_disabled":false,"rental_uris":{"android":"levelo://app?vid=0ae55a9b-4fac-4307-93a4-3081d0859a4f","ios":"levelo://app?vid=0ae55a9b-4fac-4307-93a4-3081d0859a4f"},"vehicle_type_id":"4","last_reported":1706454320,"current_range_meters":19600,"station_id":"","pricing_plan_id":"free"},{"bike_id":"a0bdda2b-2a00-436a-9f7d-913aff803325","system_id":"levelo_inurba_marseille","lat":43.2607,"lon":5.393983,"is_reserved":false,"is_disabled":false,"rental_uris":{"android":"levelo://app?vid=a0bdda2b-2a00-436a-9f7d-913aff803325","ios":"levelo://app?vid=a0bdda2b-2a00-436a-9f7d-913aff803325"},"vehicle_type_id":"4","last_reported":1706454320,"current_range_meters":10800,"station_id":"ce4bhh92rcd13ifvqfj0","pricing_plan_id":"free"},{"bike_id":"1d4c75d9-6e2f-47f5-9cb9-90417dc0477c","system_id":"levelo_inurba_marseille","lat":43.260219,"lon":5.37546,"is_reserved":false,"is_disabled":false,"rental_uris":{"android":"levelo://app?vid=1d4c75d9-6e2f-47f5-9cb9-90417dc0477c","ios":"levelo://app?vid=1d4c75d9-6e2f-47f5-9cb9-90417dc0477c"},"vehicle_type_id":"4","last_reported":1706454320,"current_range_meters":14000,"station_id":"ce4bhgh2rcd13ifvqfa0","pricing_plan_id":"free"},{"bike_id":"d3974c38-8364-4df9-ac0a-1a78603acf0c","system_id":"levelo_inurba_marseille","lat":43.275028,"lon":5.424534,"is_reserved":false,"is_disabled":false,"rental_uris":{"android":"levelo://app?vid=d3974c38-8364-4df9-ac0a-1a78603acf0c","ios":"levelo://app?vid=d3974c38-8364-4df9-ac0a-1a78603acf0c"},"vehicle_type_id":"4","last_reported":1706454320,"current_range_meters":26000,"station_id":"ce4bhn92rcd13ifvqgrg","pricing_plan_id":"free"},{"bike_id":"cfc4b1dd-e628-4917-bf3c-41e8678cc630","system_id":"levelo_inurba_marseille","lat":43.275028,"lon":5.424534,"is_reserved":false,"is_disabled":false,"rental_uris":{"android":"levelo://app?vid=cfc4b1dd-e628-4917-bf3c-41e8678cc630","ios":"levelo://app?vid=cfc4b1dd-e628-4917-bf3c-41e8678cc630"},"vehicle_type_id":"4","last_reported":1706454320,"current_range_meters":31600,"station_id":"ce4bhn92rcd13ifvqgrg","pricing_plan_id":"free"},{"bike_id":"9e840305-fbd9-4f32-87ff-66ac5fd91d30","system_id":"levelo_inurba_marseille","lat":43.275028,"lon":5.424534,"is_reserved":false,"is_disabled":false,"rental_uris":{"android":"levelo://app?vid=9e840305-fbd9-4f32-87ff-66ac5fd91d30","ios":"levelo://app?vid=9e840305-fbd9-4f32-87ff-66ac5fd91d30"},"vehicle_type_id":"4","last_reported":1706454320,"current_range_meters":16400,"station_id":"ce4bhn92rcd13ifvqgrg","pricing_plan_id":"free"},{"bike_id":"c029fd37-f006-4f46-aea8-9bbbadd0c920","system_id":"levelo_inurba_marseille","lat":43.27497,"lon":5.42461,"is_reserved":false,"is_disabled":false,"rental_uris":{"android":"levelo://app?vid=c029fd37-f006-4f46-aea8-9bbbadd0c920","ios":"levelo://app?vid=c029fd37-f006-4f46-aea8-9bbbadd0c920"},"vehicle_type_id":"4","last_reported":1706454320,"current_range_meters":3200,"station_id":"ce4bhn92rcd13ifvqgrg","pricing_plan_id":"free"},{"bike_id":"775798ba-5b06-4a39-baf4-11f99377d0db","system_id":"levelo_inurba_marseille","lat":43.255756,"lon":5.382303,"is_reserved":false,"is_disabled":false,"rental_uris":{"android":"levelo://app?vid=775798ba-5b06-4a39-baf4-11f99377d0db","ios":"levelo://app?vid=775798ba-5b06-4a39-baf4-11f99377d0db"},"vehicle_type_id":"4","last_reported":1706454320,"current_range_meters":11600,"station_id":"ce4bhih2rcd13ifvqfs0","pricing_plan_id":"free"},{"bike_id":"7bccd3e0-2237-458e-8a8a-14593f12ee44","system_id":"levelo_inurba_marseille","lat":43.255756,"lon":5.382303,"is_reserved":false,"is_disabled":false,"rental_uris":{"android":"levelo://app?vid=7bccd3e0-2237-458e-8a8a-14593f12ee44","ios":"levelo://app?vid=7bccd3e0-2237-458e-8a8a-14593f12ee44"},"vehicle_type_id":"4","last_reported":1706454320,"current_range_meters":800,"station_id":"ce4bhih2rcd13ifvqfs0","pricing_plan_id":"free"},{"bike_id":"d56ec2c2-cfca-4562-a779-940602b26b3b","system_id":"levelo_inurba_marseille","lat":43.258224,"lon":5.394369,"is_reserved":false,"is_disabled":false,"rental_uris":{"android":"levelo://app?vid=d56ec2c2-cfca-4562-a779-940602b26b3b","ios":"levelo://app?vid=d56ec2c2-cfca-4562-a779-940602b26b3b"},"vehicle_type_id":"4","last_reported":1706454320,"current_range_meters":16400,"station_id":"ce4bhip2rcd13ifvqft0","pricing_plan_id":"free"},{"bike_id":"43e2a3b2-860f-4944-8527-240fb4c393c3","system_id":"levelo_inurba_marseille","lat":43.25506,"lon":5.37655,"is_reserved":false,"is_disabled":false,"rental_uris":{"android":"levelo://app?vid=43e2a3b2-860f-4944-8527-240fb4c393c3","ios":"levelo://app?vid=43e2a3b2-860f-4944-8527-240fb4c393c3"},"vehicle_type_id":"4","last_reported":1706454320,"current_range_meters":16000,"station_id":"ce4bhh12rcd13ifvqff0","pricing_plan_id":"free"},{"bike_id":"4e0f6993-493d-463d-8d81-f84ce9c2ed0a","system_id":"levelo_inurba_marseille","lat":43.255703,"lon":5.382253,"is_reserved":false,"is_disabled":false,"rental_uris":{"android":"levelo://app?vid=4e0f6993-493d-463d-8d81-f84ce9c2ed0a","ios":"levelo://app?vid=4e0f6993-493d-463d-8d81-f84ce9c2ed0a"},"vehicle_type_id":"4","last_reported":1706454320,"current_range_meters":28800,"station_id":"ce4bhih2rcd13ifvqfs0","pricing_plan_id":"free"},{"bike_id":"feb720f6-ddf4-4e01-a945-d6fbdfcff8a8","system_id":"levelo_inurba_marseille","lat":43.255708,"lon":5.38238,"is_reserved":false,"is_disabled":false,"rental_uris":{"android":"levelo://app?vid=feb720f6-ddf4-4e01-a945-d6fbdfcff8a8","ios":"levelo://app?vid=feb720f6-ddf4-4e01-a945-d6fbdfcff8a8"},"vehicle_type_id":"4","last_reported":1706454320,"current_range_meters":24400,"station_id":"ce4bhih2rcd13ifvqfs0","pricing_plan_id":"free"},{"bike_id":"3c9c0afa-19ea-47d2-8217-a9406531a653","system_id":"levelo_inurba_marseille","lat":43.258224,"lon":5.394369,"is_reserved":false,"is_disabled":false,"rental_uris":{"android":"levelo://app?vid=3c9c0afa-19ea-47d2-8217-a9406531a653","ios":"levelo://app?vid=3c9c0afa-19ea-47d2-8217-a9406531a653"},"vehicle_type_id":"4","last_reported":1706454320,"current_range_meters":27200,"station_id":"ce4bhip2rcd13ifvqft0","pricing_plan_id":"free"},{"bike_id":"a2370d1c-9e14-4d4b-8c40-596549ac7337","system_id":"levelo_inurba_marseille","lat":43.254947,"lon":5.376454,"is_reserved":false,"is_disabled":false,"rental_uris":{"android":"levelo://app?vid=a2370d1c-9e14-4d4b-8c40-596549ac7337","ios":"levelo://app?vid=a2370d1c-9e14-4d4b-8c40-596549ac7337"},