{"last_updated":1748611401,"ttl":60,"version":"2.2","data":{"bikes":[{"bike_id":"55d42eeb-6b71-4987-a0f2-3d758b10d43e","system_id":"levelo_inurba_marseille","lat":43.33771,"lon":5.37424,"is_reserved":false,"is_disabled":true,"rental_uris":{"android":"levelo://app?vid=55d42eeb-6b71-4987-a0f2-3d758b10d43e","ios":"levelo://app?vid=55d42eeb-6b71-4987-a0f2-3d758b10d43e"},"vehicle_type_id":"4","last_reported":1748611401,"current_range_meters":0,"station_id":"","pricing_plan_id":"cebpf4jnsgd1na2vs0mg"},{"bike_id":"b7fe4621-b706-42f0-9085-4811142f84e8","system_id":"levelo_inurba_marseille","lat":43.337499,"lon":5.374469,"is_reserved":false,"is_disabled":true,"rental_uris":{"android":"levelo://app?vid=b7fe4621-b706-42f0-9085-4811142f84e8","ios":"levelo://app?vid=b7fe4621-b706-42f0-9085-4811142f84e8"},"vehicle_type_id":"4","last_reported":1748611401,"current_range_meters":0,"station_id":"","pricing_plan_id":"cebpf4jnsgd1na2vs0mg"},{"bike_id":"ad402f0f-3192-410c-afac-8cf064a40c6d","system_id":"levelo_inurba_marseille","lat":43.337444,"lon":5.374475,"is_reserved":false,"is_disabled":true,"rental_uris":{"android":"levelo://app?vid=ad402f0f-3192-410c-afac-8cf064a40c6d","ios":"levelo://app?vid=ad402f0f-3192-410c-afac-8cf064a40c6d"},"vehicle_type_id":"4","last_reported":1748611401,"current_range_meters":0,"station_id":"","pricing_plan_id":"cebpf4jnsgd1na2vs0mg"},{"bike_id":"d90baf97-e6b3-4c48-bcd2-63bc44243da4","system_id":"levelo_inurba_marseille","lat":43.21646,"lon":5.34306,"is_reserved":false,"is_disabled":true,"rental_uris":{"android":"levelo://app?vid=d90baf97-e6b3-4c48-bcd2-63bc44243da4","ios":"levelo://app?vid=d90baf97-e6b3-4c48-bcd2-63bc44243da4"},"vehicle_type_id":"4","last_reported":1748611401,"current_range_meters":0,"station_id":"","pricing_plan_id":"cebpf4jnsgd1na2vs0mg"},{"bike_id":"c1117fd7-65f6-4efd-8a4c-c93f54155199","system_id":"levelo_inurba_marseille","lat":43.25483,"lon":5.37746,"is_reserved":false,"is_disabled":true,"rental_uris":{"android":"levelo://app?vid=c1117fd7-65f6-4efd-8a4c-c93f54155199","ios":"levelo://app?vid=c1117fd7-65f6-4efd-8a4c-c93f54155199"},"vehicle_type_id":"4","last_reported":1748611401,"current_range_meters":0,"station_id":"","pricing_plan_id":"cebpf4jnsgd1na2vs0mg"},{"bike_id":"80dc1064-d63f-4a22-ad21-d8abd70986c0","system_id":"levelo_inurba_marseille","lat":43.337558,"lon":5.374801,"is_reserved":false,"is_disabled":true,"rental_uris":{"android":"levelo://app?vid=80dc1064-d63f-4a22-ad21-d8abd70986c0","ios":"levelo://app?vid=80dc1064-d63f-4a22-ad21-d8abd70986c0"},"vehicle_type_id":"4","last_reported":1748611401,"current_range_meters":0,"station_id":"","pricing_plan_id":"cebpf4jnsgd1na2vs0mg"},{"bike_id":"bc4bb38f-7311-46d6-a8ac-87cfb8735f7e","system_id":"levelo_inurba_marseille","lat":43.225006,"lon":5.347851,"is_reserved":false,"is_disabled":true,"rental_uris":{"android":"levelo://app?vid=bc4bb38f-7311-46d6-a8ac-87cfb8735f7e","ios":"levelo://app?vid=bc4bb38f-7311-46d6-a8ac-87cfb8735f7e"},"vehicle_type_id":"4","last_reported":1748611401,"current_range_meters":0,"station_id":"","pricing_plan_id":"cebpf4jnsgd1na2vs0mg"},{"bike_id":"ea08f233-b145-4ce6-b2e7-2299dab0a338","system_id":"levelo_inurba_marseille","lat":43.29312,"lon":5.37175,"is_reserved":false,"is_disabled":true,"rental_uris":{"android":"levelo://app?vid=ea08f233-b145-4ce6-b2e7-2299dab0a338","ios":"levelo://app?vid=ea08f233-b145-4ce6-b2e7-2299dab0a338"},"vehicle_type_id":"4","last_reported":1748611401,"current_range_meters":0,"station_id":"ce4bgh92rcd13ifvqb40","pricing_plan_id":"cebpf4jnsgd1na2vs0mg"},{"bike_id":"c9c89169-ec0c-44ed-85af-b8c94d0cfd63","system_id":"levelo_inurba_marseille","lat":43.29705,"lon":5.366003,"is_reserved":false,"is_disabled":true,"rental_uris":{"android":"levelo://app?vid=c9c89169-ec0c-44ed-85af-b8c94d0cfd63","ios":"levelo://app?vid=c9c89169-ec0c-44ed-85af-b8c94d0cfd63"},"vehicle_type_id":"4","last_reported":1748611401,"current_range_meters":0,"station_id":"ce4bgn12rcd13ifvqbt0","pricing_plan_id":"cebpf4jnsgd1na2vs0mg"},{"bike_id":"ec1073fb-3071-4d11-8f55-4241a13f9b5c","system_id":"levelo_inurba_marseille","lat":43.31078,"lon":5.38355,"is_reserved":false,"is_disabled":true,"rental_uris":{"android":"levelo://app?vid=ec1073fb-3071-4d11-8f55-4241a13f9b5c","ios":"levelo://app?vid=ec1073fb-3071-4d11-8f55-4241a13f9b5c"},"vehicle_type_id":"4","last_reported":1748611401,"current_range_meters":0,"station_id":"ce4bgv92rcd13ifvqcr0","pricing_plan_id":"cebpf4jnsgd1na2vs0mg"},{"bike_id":"160c6e8a-dac6-4670-81b3-ef5cea527bf1","system_id":"levelo_inurba_marseille","lat":43.28467,"lon":5.35895,"is_reserved":false,"is_disabled":true,"rental_uris":{"android":"levelo://app?vid=160c6e8a-dac6-4670-81b3-ef5cea527bf1","ios":"levelo://app?vid=160c6e8a-dac6-4670-81b3-ef5cea527bf1"},"vehicle_type_id":"4","last_reported":1748611401,"current_range_meters":0,"station_id":"ce4bhah2rcd13ifvqei0","pricing_plan_id":"cebpf4jnsgd1na2vs0mg"},{"bike_id":"5eeb8e22-9984-41ad-b76b-38331d10bb50","system_id":"levelo_inurba_marseille","lat":43.290039,"lon":5.356156,"is_reserved":false,"is_disabled":false,"rental_uris":{"android":"levelo://app?vid=5eeb8e22-9984-41ad-b76b-38331d10bb50","ios":"levelo://app?vid=5eeb8e22-9984-41ad-b76b-38331d10bb50"},"vehicle_type_id":"4","last_reported":1748611401,"current_range_meters":0,"station_id":"ce4bhb92rcd13ifvqen0","pricing_plan_id":"cebpf4jnsgd1na2vs0mg"},{"bike_id":"3e07b9e5-f715-40cc-9a8f-653c7aa03161","system_id":"levelo_inurba_marseille","lat":43.29007,"lon":5.356125,"is_reserved":false,"is_disabled":true,"rental_uris":{"android":"levelo://app?vid=3e07b9e5-f715-40cc-9a8f-653c7aa03161","ios":"levelo://app?vid=3e07b9e5-f715-40cc-9a8f-653c7aa03161"},"vehicle_type_id":"4","last_reported":1748611401,"current_range_meters":0,"station_id":"ce4bhb92rcd13ifvqen0","pricing_plan_id":"cebpf4jnsgd1na2vs0mg"},{"bike_id":"1fabc757-90e1-4d70-a4be-b1bab8c55e75","system_id":"levelo_inurba_marseille","lat":43.27381,"lon":5.36249,"is_reserved":false,"is_disabled":true,"rental_uris":{"android":"levelo://app?vid=1fabc757-90e1-4d70-a4be-b1bab8c55e75","ios":"levelo://app?vid=1fabc757-90e1-4d70-a4be-b1bab8c55e75"},"vehicle_type_id":"4","last_reported":1748611401,"current_range_meters":0,"station_id":"ce4bhbh2rcd13ifvqeo0","pricing_plan_id":"cebpf4jnsgd1na2vs0mg"},{"bike_id":"942195ec-efb3-4f25-8ee6-d975b6969060","system_id":"levelo_inurba_marseille","lat":43.27392,"lon":5.36293,"is_reserved":false,"is_disabled":true,"rental_uris":{"android":"levelo://app?vid=942195ec-efb3-4f25-8ee6-d975b6969060","ios":"levelo://app?vid=942195ec-efb3-4f25-8ee6-d975b6969060"},"vehicle_type_id":"4","last_reported":1748611401,"current_range_meters":0,"station_id":"ce4bhbh2rcd13ifvqeo0","pricing_plan_id":"cebpf4jnsgd1na2vs0mg"},{"bike_id":"300c3511-49b5-4a66-8335-d3bb03650cb4","system_id":"levelo_inurba_marseille","lat":43.292662,"lon":5.368493,"is_reserved":false,"is_disabled":true,"rental_uris":{"android":"levelo://app?vid=300c3511-49b5-4a66-8335-d3bb03650cb4","ios":"levelo://app?vid=300c3511-49b5-4a66-8335-d3bb03650cb4"},"vehicle_type_id":"4","last_reported":1748611401,"current_range_meters":0,"station_id":"ce4bhbp2rcd13ifvqesg","pricing_plan_id":"cebpf4jnsgd1na2vs0mg"},{"bike_id":"538f994a-34b8-4dd3-9c39-e9196029819d","system_id":"levelo_inurba_marseille","lat":43.24393,"lon":5.37051,"is_reserved":false,"is_disabled":true,"rental_uris":{"android":"levelo://app?vid=538f994a-34b8-4dd3-9c39-e9196029819d","ios":"levelo://app?vid=538f994a-34b8-4dd3-9c39-e9196029819d"},"vehicle_type_id":"4","last_reported":1748611401,"current_range_meters":0,"station_id":"ce4bhhh2rcd13ifvqfk0","pricing_plan_id":"cebpf4jnsgd1na2vs0mg"},{"bike_id":"7847f305-f89a-41ce-b132-df90225e4673","system_id":"levelo_inurba_marseille","lat":43.23961,"lon":5.36631,"is_reserved":false,"is_disabled":true,"rental_uris":{"android":"levelo://app?vid=7847f305-f89a-41ce-b132-df90225e4673","ios":"levelo://app?vid=7847f305-f89a-41ce-b132-df90225e4673"},"vehicle_type_id":"4","last_reported":1748611401,"current_range_meters":0,"station_id":"ce4bhi12rcd13ifvqfp0","pricing_plan_id":"cebpf4jnsgd1na2vs0mg"},{"bike_id":"d15385dd-e601-4661-b726-8b3c4d3a429c","system_id":"levelo_inurba_marseille","lat":43.24184,"lon":5.39717,"is_reserved":false,"is_disabled":true,"rental_uris":{"android":"levelo://app?vid=d15385dd-e601-4661-b726-8b3c4d3a429c","ios":"levelo://app?vid=d15385dd-e601-4661-b726-8b3c4d3a429c"},"vehicle_type_id":"4","last_reported":1748611401,"current_range_meters":0,"station_id":"ce4bhn12rcd13ifvqgpg","pricing_plan_id":"cebpf4jnsgd1na2vs0mg"},{"bike_id":"4e5a1d5f-5a6a-4a83-a5ff-d402a6d6435b","system_id":"levelo_inurba_marseille","lat":43.27826,"lon":5.40718,"is_reserved":false,"is_disabled":true,"rental_uris":{"android":"levelo://app?vid=4e5a1d5f-5a6a-4a83-a5ff-d402a6d6435b","ios":"levelo://app?vid=4e5a1d5f-5a6a-4a83-a5ff-d402a6d6435b"},"vehicle_type_id":"4","last_reported":1748611401,"current_range_meters":0,"station_id":"ce4bhnh2rcd13ifvqgtg","pricing_plan_id":"cebpf4jnsgd1na2vs0mg"},{"bike_id":"0b603e0a-df90-4fa6-b945-fbb8f205a73d","system_id":"levelo_inurba_marseille","lat":43.24168,"lon":5.3639,"is_reserved":false,"is_disabled":true,"rental_uris":{"android":"levelo://app?vid=0b603e0a-df90-4fa6-b945-fbb8f205a73d","ios":"levelo://app?vid=0b603e0a-df90-4fa6-b945-fbb8f205a73d"},"vehicle_type_id":"4","last_reported":1748611401,"current_range_meters":0,"station_id":"cpo36qri1sfpv3e86is0","pricing_plan_id":"cebpf4jnsgd1na2vs0mg"},{"bike_id":"26b5c2b4-94cd-4dd8-bba5-ec447d478a00","system_id":"levelo_inurba_marseille","lat":43.24167,"lon":5.36397,"is_reserved":false,"is_disabled":true,"rental_uris":{"android":"levelo://app?vid=26b5c2b4-94cd-4dd8-bba5-ec447d478a00","ios":"levelo://app?vid=26b5c2b4-94cd-4dd8-bba5-ec447d478a00"},"vehicle_type_id":"4","last_reported":1748611401,"current_range_meters":0,"station_id":"cpo36qri1sfpv3e86is0","pricing_plan_id":"cebpf4jnsgd1na2vs0mg"},{"bike_id":"73692252-284e-452c-9b85-90a54145fcf6","system_id":"levelo_inurba_marseille","lat":43.21744,"lon":5.34611,"is_reserved":false,"is_disabled":true,"rental_uris":{"android":"levelo://app?vid=73692252-284e-452c-9b85-90a54145fcf6","ios":"levelo://app?vid=73692252-284e-452c-9b85-90a54145fcf6"},"vehicle_type_id":"4","last_reported":1748611401,"current_range_meters":0,"station_id":"st_cvj6r9ubvosntc0bgbag","pricing_plan_id":"cebpf4jnsgd1na2vs0mg"},{"bike_id":"55084d5d-7e2e-478e-939b-c31f48c3985f","system_id":"levelo_inurba_marseille","lat":43.21191,"lon":5.3507,"is_reserved":false,"is_disabled":true,"rental_uris":{"android":"levelo://app?vid=55084d5d-7e2e-478e-939b-c31f48c3985f","ios":"levelo://app?vid=55084d5d-7e2e-478e-939b-c31f48c3985f"},"vehicle_type_id":"4","last_reported":1748611401,"current_range_meters":0,"station_id":"st_cvj6sg6p6f1abm77japg","pricing_plan_id":"cebpf4jnsgd1na2vs0mg"},{"bike_id":"93eb774d-3463-428a-b001-9ab0d0a0b1cd","system_id":"levelo_inurba_marseille","lat":43.21191,"lon":5.35068,"is_reserved":false,"is_disabled":true,"rental_uris":{"android":"levelo://app?vid=93eb774d-3463-428a-b001-9ab0d0a0b1cd","ios":"levelo://app?vid=93eb774d-3463-428a-b001-9ab0d0a0b1cd"},"vehicle_type_id":"4","last_reported":1748611401,"current_range_meters":0,"station_id":"st_cvj6sg6p6f1abm77japg","pricing_plan_id":"cebpf4jnsgd1na2vs0mg"},{"bike_id":"7678b44e-c7c2-4775-8940-af72d2d106f0","system_id":"levelo_inurba_marseille","lat":43.28263,"lon":5.35056,"is_reserved":false,"is_disabled":true,"rental_uris":{"android":"levelo://app?vid=7678b44e-c7c2-4775-8940-af72d2d106f0","ios":"levelo://app?vid=7678b44e-c7c2-4775-8940-af72d2d106f0"},"vehicle_type_id":"4","last_reported":1748611401,"current_range_meters":400,"station_id":"ce4bhbp2rcd13ifvqerg","pricing_plan_id":"cebpf4jnsgd1na2vs0mg"},{"bike_id":"a0196572-33a5-438e-a7d3-18c230e1ed5c","system_id":"levelo_inurba_marseille","lat":43.28257,"lon":5.35055,"is_reserved":false,"is_disabled":true,"rental_uris":{"android":"levelo://app?vid=a0196572-33a5-438e-a7d3-18c230e1ed5c","ios":"levelo://app?vid=a0196572-33a5-438e-a7d3-18c230e1ed5c"},"vehicle_type_id":"4","last_reported":1748611401,"current_range_meters":400,"station_id":"ce4bhbp2rcd13ifvqerg","pricing_plan_id":"cebpf4jnsgd1na2vs0mg"},{"bike_id":"308275e5-6099-4ddb-82e1-1aba680b542b","system_id":"levelo_inurba_marseille","lat":43.25585,"lon":5.38227,"is_reserved":false,"is_disabled":true,"rental_uris":{"android":"levelo://app?vid=308275e5-6099-4ddb-82e1-1aba680b542b","ios":"levelo://app?vid=308275e5-6099-4ddb-82e1-1aba680b542b"},"vehicle_type_id":"4","last_reported":1748611401,"current_range_meters":400,"station_id":"ce4bhih2rcd13ifvqfs0","pricing_plan_id":"cebpf4jnsgd1na2vs0mg"},{"bike_id":"b80ee325-09b2-4724-993d-4f8d3707c41c","system_id":"levelo_inurba_marseille","lat":43.25862,"lon":5.39902,"is_reserved":false,"is_disabled":true,"rental_uris":{"android":"levelo://app?vid=b80ee325-09b2-4724-993d-4f8d3707c41c","ios":"levelo://app?vid=b80ee325-09b2-4724-993d-4f8d3707c41c"},"vehicle_type_id":"4","last_reported":1748611401,"current_range_meters":400,"station_id":"ce4bhl92rcd13ifvqghg","pricing_plan_id":"cebpf4jnsgd1na2vs0mg"},{"bike_id":"a9c8cc09-b81f-4b6d-ae1a-4da7ee8da825","system_id":"levelo_inurba_marseille","lat":43.25936,"lon":5.40905,"is_reserved":false,"is_disabled":true,"rental_uris":{"android":"levelo://app?vid=a9c8cc09-b81f-4b6d-ae1a-4da7ee8da825","ios":"levelo://app?vid=a9c8cc09-b81f-4b6d-ae1a-4da7ee8da825"},"vehicle_type_id":"4","last_reported":1748611401,"current_range_meters":400,"station_id":"ce4bhm92rcd13ifvqglg","pricing_plan_id":"cebpf4jnsgd1na2vs0mg"},{"bike_id":"97d9bf3e-5537-44fb-ae8f-043cd11395f2","system_id":"levelo_inurba_marseille","lat":43.23049,"lon":5.35507,"is_reserved":false,"is_disabled":true,"rental_uris":{"android":"levelo://app?vid=97d9bf3e-5537-44fb-ae8f-043cd11395f2","ios":"levelo://app?vid=97d9bf3e-5537-44fb-ae8f-043cd11395f2"},"vehicle_type_id":"4","last_reported":1748611401,"current_range_meters":400,"station_id":"cpo3342slgdg3j2ifvpg","pricing_plan_id":"cebpf4jnsgd1na2vs0mg"},{"bike_id":"ffab3924-25f4-4b3d-86bd-4ee689add3c3","system_id":"levelo_inurba_marseille","lat":43.29068,"lon":5.37154,"is_reserved":false,"is_disabled":true,"rental_uris":{"android":"levelo://app?vid=ffab3924-25f4-4b3d-86bd-4ee689add3c3","ios":"levelo://app?vid=ffab3924-25f4-4b3d-86bd-4ee689add3c3"},"vehicle_type_id":"4","last_reported":1748611401,"current_range_meters":800,"station_id":"ce4bh5p2rcd13ifvqe4g","pricing_plan_id":"cebpf4jnsgd1na2vs0mg"},{"bike_id":"b6c10ca6-6d0d-41a0-9948-8de8731fe76a","system_id":"levelo_inurba_marseille","lat":43.28614,"lon":5.35105,"is_reserved":false,"is_disabled":true,"rental_uris":{"android":"levelo://app?vid=b6c10ca6-6d0d-41a0-9948-8de8731fe76a","ios":"levelo://app?vid=b6c10ca6-6d0d-41a0-9948-8de8731fe76a"},"vehicle_type_id":"4","last_reported":1748611401,"current_range_meters":800,"station_id":"ce4bhch2rcd13ifvqeug","pricing_plan_id":"cebpf4jnsgd1na2vs0mg"},{"bike_id":"028b93d7-85a5-4119-8f00-6efb1c34269a","system_id":"levelo_inurba_marseille","lat":43.27942,"lon":5.41046,"is_reserved":false,"is_disabled":true,"rental_uris":{"android":"levelo://app?vid=028b93d7-85a5-4119-8f00-6efb1c34269a","ios":"levelo://app?vid=028b93d7-85a5-4119-8f00-6efb1c34269a"},"vehicle_type_id":"4","last_reported":1748611401,"current_range_meters":800,"station_id":"ce4bhnp2rcd13ifvqh0g","pricing_plan_id":"cebpf4jnsgd1na2vs0mg"},{"bike_id":"4d38e9c4-bfd2-4a43-b41c-972a847b15d5","system_id":"levelo_inurba_marseille","lat":43.26557,"lon":5.37282,"is_reserved":false,"is_disabled":true,"rental_uris":{"android":"levelo://app?vid=4d38e9c4-bfd2-4a43-b41c-972a847b15d5","ios":"levelo://app?vid=4d38e9c4-bfd2-4a43-b41c-972a847b15d5"},"vehicle_type_id":"4","last_reported":1748611401,"current_range_meters":1200,"station_id":"","pricing_plan_id":"cebpf4jnsgd1na2vs0mg"},{"bike_id":"e0737bc8-775f-4fdf-80d6-826efff38cb2","system_id":"levelo_inurba_marseille","lat":43.276152,"lon":5.361001,"is_reserved":false,"is_disabled":true,"rental_uris":{"android":"levelo://app?vid=e0737bc8-775f-4fdf-80d6-826efff38cb2","ios":"levelo://app?vid=e0737bc8-775f-4fdf-80d6-826efff38cb2"},"vehicle_type_id":"4","last_reported":1748611401,"current_range_meters":1200,"station_id":"ce4bgj92rcd13ifvqbe0","pricing_plan_id":"cebpf4jnsgd1na2vs0mg"},{"bike_id":"3314e3cb-73b6-42ea-ac81-048dedcf4fc7","system_id":"levelo_inurba_marseille","lat":43.301422,"lon":5.380931,"is_reserved":false,"is_disabled":true,"rental_uris":{"android":"levelo://app?vid=3314e3cb-73b6-42ea-ac81-048dedcf4fc7","ios":"levelo://app?vid=3314e3cb-73b6-42ea-ac81-048dedcf4fc7"},"vehicle_type_id":"4","last_reported":1748611401,"current_range_meters":1200,"station_id":"ce4bgjp2rcd13ifvqbh0","pricing_plan_id":"cebpf4jnsgd1na2vs0mg"},{"bike_id":"ee811be6-56da-4b7b-b1b5-2f7e8687681c","system_id":"levelo_inurba_marseille","lat":43.31163,"lon":5.38733,"is_reserved":false,"is_disabled":true,"rental_uris":{"android":"levelo://app?vid=ee811be6-56da-4b7b-b1b5-2f7e8687681c","ios":"levelo://app?vid=ee811be6-56da-4b7b-b1b5-2f7e8687681c"},"vehicle_type_id":"4","last_reported":1748611401,"current_range_meters":1200,"station_id":"ce4bgv12rcd13ifvqcp0","pricing_plan_id":"cebpf4jnsgd1na2vs0mg"},{"bike_id":"cab5d4a0-9c24-44e9-a136-403fa3c688f8","system_id":"levelo_inurba_marseille","lat":43.28938,"lon":5.3664,"is_reserved":false,"is_disabled":true,"rental_uris":{"android":"levelo://app?vid=cab5d4a0-9c24-44e9-a136-403fa3c688f8","ios":"levelo://app?vid=cab5d4a0-9c24-44e9-a136-403fa3c688f8"},"vehicle_type_id":"4","last_reported":1748611401,"current_range_meters":1200,"station_id":"ce4bhap2rcd13ifvqek0","pricing_plan_id":"cebpf4jnsgd1na2vs0mg"},{"bike_id":"a3e04d0f-727b-4726-b2d8-f1bdfaa7df01","system_id":"levelo_inurba_marseille","lat":43.28854,"lon":5.35875,"is_reserved":false,"is_disabled":true,"rental_uris":{"android":"levelo://app?vid=a3e04d0f-727b-4726-b2d8-f1bdfaa7df01","ios":"levelo://app?vid=a3e04d0f-727b-4726-b2d8-f1bdfaa7df01"},"vehicle_type_id":"4","last_reported":1748611401,"current_range_meters":1200,"station_id":"ce4bhb12rcd13ifvqem0","pricing_plan_id":"cebpf4jnsgd1na2vs0mg"},{"bike_id":"bddf14eb-d699-4e1d-ba46-16ee84538253","system_id":"levelo_inurba_marseille","lat":43.290009,"lon":5.356148,"is_reserved":false,"is_disabled":true,"rental_uris":{"android":"levelo://app?vid=bddf14eb-d699-4e1d-ba46-16ee84538253","ios":"levelo://app?vid=bddf14eb-d699-4e1d-ba46-16ee84538253"},"vehicle_type_id":"4","last_reported":1748611401,"current_range_meters":1200,"station_id":"ce4bhb92rcd13ifvqen0","pricing_plan_id":"cebpf4jnsgd1na2vs0mg"},{"bike_id":"df93a8d8-884d-4704-a2f9-1be7c6e86934","system_id":"levelo_inurba_marseille","lat":43.27375,"lon":5.36257,"is_reserved":false,"is_disabled":true,"rental_uris":{"android":"levelo://app?vid=df93a8d8-884d-4704-a2f9-1be7c6e86934","ios":"levelo://app?vid=df93a8d8-884d-4704-a2f9-1be7c6e86934"},"vehicle_type_id":"4","last_reported":1748611401,"current_range_meters":1200,"station_id":"ce4bhbh2rcd13ifvqeo0","pricing_plan_id":"cebpf4jnsgd1na2vs0mg"},{"bike_id":"5a99c85c-ae96-49f2-9bd7-ea7bc41a77a8","system_id":"levelo_inurba_marseille","lat":43.27378,"lon":5.36256,"is_reserved":false,"is_disabled":true,"rental_uris":{"android":"levelo://app?vid=5a99c85c-ae96-49f2-9bd7-ea7bc41a77a8","ios":"levelo://app?vid=5a99c85c-ae96-49f2-9bd7-ea7bc41a77a8"},"vehicle_type_id":"4","last_reported":1748611401,"current_range_meters":1200,"station_id":"ce4bhbh2rcd13ifvqeo0","pricing_plan_id":"cebpf4jnsgd1na2vs0mg"},{"bike_id":"96071b45-023c-48fd-8d49-3531c9e43c43","system_id":"levelo_inurba_marseille","lat":43.27381,"lon":5.36256,"is_reserved":false,"is_disabled":true,"rental_uris":{"android":"levelo://app?vid=96071b45-023c-48fd-8d49-3531c9e43c43","ios":"levelo://app?vid=96071b45-023c-48fd-8d49-3531c9e43c43"},"vehicle_type_id":"4","last_reported":1748611401,"current_range_meters":1200,"station_id":"ce4bhbh2rcd13ifvqeo0","pricing_plan_id":"cebpf4jnsgd1na2vs0mg"},{"bike_id":"13b0af23-cd14-4443-951f-8d68e6675bd1","system_id":"levelo_inurba_marseille","lat":43.27915,"lon":5.39582,"is_reserved":false,"is_disabled":true,"rental_uris":{"android":"levelo://app?vid=13b0af23-cd14-4443-951f-8d68e6675bd1","ios":"levelo://app?vid=13b0af23-cd14-4443-951f-8d68e6675bd1"},"vehicle_type_id":"4","last_reported":1748611401,"current_range_meters":1200,"station_id":"ce4bhf92rcd13ifvqf40","pricing_plan_id":"cebpf4jnsgd1na2vs0mg"},{"bike_id":"2104fef3-b801-49f0-bc7e-c95fb5468f5f","system_id":"levelo_inurba_marseille","lat":43.23192,"lon":5.35565,"is_reserved":false,"is_disabled":true,"rental_uris":{"android":"levelo://app?vid=2104fef3-b801-49f0-bc7e-c95fb5468f5f","ios":"levelo://app?vid=2104fef3-b801-49f0-bc7e-c95fb5468f5f"},"vehicle_type_id":"4","last_reported":1748611401,"current_range_meters":1200,"station_id":"ce4bhu92rcd13ifvqi70","pricing_plan_id":"cebpf4jnsgd1na2vs0mg"},{"bike_id":"28276286-2255-441d-8a22-478e4e0fccf9","system_id":"levelo_inurba_marseille","lat":43.286152,"lon":5.351076,"is_reserved":false,"is_disabled":true,"rental_uris":{"android":"levelo://app?vid=28276286-2255-441d-8a22-478e4e0fccf9","ios":"levelo://app?vid=28276286-2255-441d-8a22-478e4e0fccf9"},"vehicle_type_id":"4","last_reported":1748611401,"current_range_meters":1600,"station_id":"ce4bhch2rcd13ifvqeug","pricing_plan_id":"cebpf4jnsgd1na2vs0mg"},{"bike_id":"a5c32d29-491b-4fbc-8fd1-99b9b13ec00a","system_id":"levelo_inurba_marseille","lat":43.25118,"lon":5.40318,"is_reserved":false,"is_disabled":true,"rental_uris":{"android":"levelo://app?vid=a5c32d29-491b-4fbc-8fd1-99b9b13ec00a","ios":"levelo://app?vid=a5c32d29-491b-4fbc-8fd1-99b9b13ec00a"},"vehicle_type_id":"4","last_reported":1748611401,"current_range_meters":1600,"station_id":"ce4bhlh2rcd13ifvqgig","pricing_plan_id":"cebpf4jnsgd1na2vs0mg"},{"bike_id":"24204c04-5d8c-4ac1-bc38-3e364dee5b7a","system_id":"levelo_inurba_marseille","lat":43.30246,"lon":5.41311,"is_reserved":false,"is_disabled":true,"rental_uris":{"android":"levelo://app?vid=24204c04-5d8c-4ac1-bc38-3e364dee5b7a","ios":"levelo://app?vid=24204c04-5d8c-4ac1-bc38-3e364dee5b7a"},"vehicle_type_id":"4","last_reported":1748611401,"current_range_meters":2000,"station_id":"","pricing_plan_id":"cebpf4jnsgd1na2vs0mg"},{"bike_id":"f95007fb-3e5b-41e7-93f9-8fca69e0d136","system_id":"levelo_inurba_marseille","lat":43.25576,"lon":5.38225,"is_reserved":false,"is_disabled":true,"rental_uris":{"android":"levelo://app?vid=f95007fb-3e5b-41e7-93f9-8fca69e0d136","ios":"levelo://app?vid=f95007fb-3e5b-41e7-93f9-8fca69e0d136"},"vehicle_type_id":"4","last_reported":1748611401,"current_range_meters":2000,"station_id":"ce4bhih2rcd13ifvqfs0","pricing_plan_id":"cebpf4jnsgd1na2vs0mg"},{"bike_id":"832765b1-8eef-4ffb-b398-7a3dc1187e49","system_id":"levelo_inurba_marseille","lat":43.32341,"lon":5.4062,"is_reserved":false,"is_disabled":true,"rental_uris":{"android":"levelo://app?vid=832765b1-8eef-4ffb-b398-7a3dc1187e49","ios":"levelo://app?vid=832765b1-8eef-4ffb-b398-7a3dc1187e49"},"vehicle_type_id":"4","last_reported":1748611401,"current_range_meters":2000,"station_id":"ce4bhq92rcd13ifvqhjg","pricing_plan_id":"cebpf4jnsgd1na2vs0mg"},{"bike_id":"8a593d4b-3aab-4020-bd3a-46386cf5065a","system_id":"levelo_inurba_marseille","lat":43.26573,"lon":5.39007,"is_reserved":false,"is_disabled":false,"rental_uris":{"android":"levelo://app?vid=8a593d4b-3aab-4020-bd3a-46386cf5065a","ios":"levelo://app?vid=8a593d4b-3aab-4020-bd3a-46386cf5065a"},"vehicle_type_id":"4","last_reported":1748611401,"current_range_meters":2800,"station_id":"ce4bhe12rcd13ifvqf30","pricing_plan_id":"cebpf4jnsgd1na2vs0mg"},{"bike_id":"cf9fa339-df19-43b1-8529-7dcc6c56a9e5","system_id":"levelo_inurba_marseille","lat":43.24175,"lon":5.39728,"is_reserved":false,"is_disabled":false,"rental_uris":{"android":"levelo://app?vid=cf9fa339-df19-43b1-8529-7dcc6c56a9e5","ios":"levelo://app?vid=cf9fa339-df19-43b1-8529-7dcc6c56a9e5"},"vehicle_type_id":"4","last_reported":1748611401,"current_range_meters":2800,"station_id":"ce4bhn12rcd13ifvqgpg","pricing_plan_id":"cebpf4jnsgd1na2vs0mg"},{"bike_id":"3c8a5c1e-a25f-4975-8d3e-585e822506f1","system_id":"levelo_inurba_marseille","lat":43.2481,"lon":5.37442,"is_reserved":false,"is_disabled":false,"rental_uris":{"android":"levelo://app?vid=3c8a5c1e-a25f-4975-8d3e-585e822506f1","ios":"levelo://app?vid=3c8a5c1e-a25f-4975-8d3e-585e822506f1"},"vehicle_type_id":"4","last_reported":1748611401,"current_range_meters":3200,"station_id":"ce4bhgh2rcd13ifvqfb0","pricing_plan_id":"cebpf4jnsgd1na2vs0mg"},{"bike_id":"7b53ddd1-c396-4f9a-9d25-db8175925579","system_id":"levelo_inurba_marseille","lat":43.273098,"lon":5.390783,"is_reserved":false,"is_disabled":false,"rental_uris":{"android":"levelo://app?vid=7b53ddd1-c396-4f9a-9d25-db8175925579","ios":"levelo://app?vid=7b53ddd1-c396-4f9a-9d25-db8175925579"},"vehicle_type_id":"4","last_reported":1748611401,"current_range_meters":3200,"station_id":"ce4bhgp2rcd13ifvqfe0","pricing_plan_id":"cebpf4jnsgd1na2vs0mg"},{"bike_id":"8b96ce17-8309-42b6-80b6-642331455e48","system_id":"levelo_inurba_marseille","lat":43.23067,"lon":5.355065,"is_reserved":false,"is_disabled":false,"rental_uris":{"android":"levelo://app?vid=8b96ce17-8309-42b6-80b6-642331455e48","ios":"levelo://app?vid=8b96ce17-8309-42b6-80b6-642331455e48"},"vehicle_type_id":"4","last_reported":1748611401,"current_range_meters":3200,"station_id":"cpo3342slgdg3j2ifvpg","pricing_plan_id":"cebpf4jnsgd1na2vs0mg"},{"bike_id":"93222ebe-437b-49ba-b05e-139fa3159770","system_id":"levelo_inurba_marseille","lat":43.229143,"lon":5.35368,"is_reserved":false,"is_disabled":false,"rental_uris":{"android":"levelo://app?vid=93222ebe-437b-49ba-b05e-139fa3159770","ios":"levelo://app?vid=93222ebe-437b-49ba-b05e-139fa3159770"},"vehicle_type_id":"4","last_reported":1748611401,"current_range_meters":3200,"station_id":"cpo3532slgdg3j2ikp40","pricing_plan_id":"cebpf4jnsgd1na2vs0mg"},{"bike_id":"2f650bb1-6027-4191-83d2-16315820a0a7","system_id":"levelo_inurba_marseille","lat":43.299929,"lon":5.373464,"is_reserved":false,"is_disabled":false,"rental_uris":{"android":"levelo://app?vid=2f650bb1-6027-4191-83d2-16315820a0a7","ios":"levelo://app?vid=2f650bb1-6027-4191-83d2-16315820a0a7"},"vehicle_type_id":"4","last_reported":1748611401,"current_range_meters":3600,"station_id":"","pricing_plan_id":"cebpf4jnsgd1na2vs0mg"},{"bike_id":"b6d7201f-b0c8-4bf9-a5a3-0209897c022d","system_id":"levelo_inurba_marseille","lat":43.24682,"lon":5.38136,"is_reserved":false,"is_disabled":false,"rental_uris":{"android":"levelo://app?vid=b6d7201f-b0c8-4bf9-a5a3-0209897c022d","ios":"levelo://app?vid=b6d7201f-b0c8-4bf9-a5a3-0209897c022d"},"vehicle_type_id":"4","last_reported":1748611401,"current_range_meters":3600,"station_id":"ce4bhih2rcd13ifvqfr0","pricing_plan_id":"cebpf4jnsgd1na2vs0mg"},{"bike_id":"afaafb81-c1da-4abd-b048-f0280e38264f","system_id":"levelo_inurba_marseille","lat":43.23153,"lon":5.43711,"is_reserved":false,"is_disabled":false,"rental_uris":{"android":"levelo://app?vid=afaafb81-c1da-4abd-b048-f0280e38264f","ios":"levelo://app?vid=afaafb81-c1da-4abd-b048-f0280e38264f"},"vehicle_type_id":"4","last_reported":1748611401,"current_range_meters":3600,"station_id":"ce4bhmp2rcd13ifvqgog","pricing_plan_id":"cebpf4jnsgd1na2vs0mg"},{"bike_id":"3f0441b1-6cb6-41fd-b679-f454d34b2118","system_id":"levelo_inurba_marseille","lat":43.21185,"lon":5.350626,"is_reserved":false,"is_disabled":false,"rental_uris":{"android":"levelo://app?vid=3f0441b1-6cb6-41fd-b679-f454d34b2118","ios":"levelo://app?vid=3f0441b1-6cb6-41fd-b679-f454d34b2118"},"vehicle_type_id":"4","last_reported":1748611401,"current_range_meters":3600,"station_id":"st_cvj6sg6p6f1abm77japg","pricing_plan_id":"cebpf4jnsgd1na2vs0mg"},{"bike_id":"c254bbe3-2dba-4a9f-9336-418969b865d2","system_id":"levelo_inurba_marseille","lat":43.29045,"lon":5.35902,"is_reserved":false,"is_disabled":false,"rental_uris":{"android":"levelo://app?vid=c254bbe3-2dba-4a9f-9336-418969b865d2","ios":"levelo://app?vid=c254bbe3-2dba-4a9f-9336-418969b865d2"},"vehicle_type_id":"4","last_reported":1748611401,"current_range_meters":4000,"station_id":"ce4bha92rcd13ifvqeg0","pricing_plan_id":"cebpf4jnsgd1na2vs0mg"},{"bike_id":"2f693c44-0e73-420a-a1d1-5de34b15e961","system_id":"levelo_inurba_marseille","lat":43.23049,"lon":5.35504,"is_reserved":false,"is_disabled":false,"rental_uris":{"android":"levelo://app?vid=2f693c44-0e73-420a-a1d1-5de34b15e961","ios":"levelo://app?vid=2f693c44-0e73-420a-a1d1-5de34b15e961"},"vehicle_type_id":"4","last_reported":1748611401,"current_range_meters":4000,"station_id":"cpo3342slgdg3j2ifvpg","pricing_plan_id":"cebpf4jnsgd1na2vs0mg"},{"bike_id":"7c6e48ab-b87e-4e89-9339-a1a2992e6797","system_id":"levelo_inurba_marseille","lat":43.26111,"lon":5.41466,"is_reserved":false,"is_disabled":false,"rental_uris":{"android":"levelo://app?vid=7c6e48ab-b87e-4e89-9339-a1a2992e6797","ios":"levelo://app?vid=7c6e48ab-b87e-4e89-9339-a1a2992e6797"},"vehicle_type_id":"4","last_reported":1748611401,"current_range_meters":4800,"station_id":"","pricing_plan_id":"cebpf4jnsgd1na2vs0mg"},{"bike_id":"1559e3fe-d36a-4efd-9b3e-9c1a532ae053","system_id":"levelo_inurba_marseille","lat":43.29781,"lon":5.38117,"is_reserved":false,"is_disabled":false,"rental_uris":{"android":"levelo://app?vid=1559e3fe-d36a-4efd-9b3e-9c1a532ae053","ios":"levelo://app?vid=1559e3fe-d36a-4efd-9b3e-9c1a532ae053"},"vehicle_type_id":"4","last_reported":1748611401,"current_range_meters":4800,"station_id":"ce4bgip2rcd13ifvqbb0","pricing_plan_id":"cebpf4jnsgd1na2vs0mg"},{"bike_id":"025a83fe-163c-4d59-83ef-72f462e6e76c","system_id":"levelo_inurba_marseille","lat":43.29019,"lon":5.3562,"is_reserved":false,"is_disabled":false,"rental_uris":{"android":"levelo://app?vid=025a83fe-163c-4d59-83ef-72f462e6e76c","ios":"levelo://app?vid=025a83fe-163c-4d59-83ef-72f462e6e76c"},"vehicle_type_id":"4","last_reported":1748611401,"current_range_meters":4800,"station_id":"ce4bhb92rcd13ifvqen0","pricing_plan_id":"cebpf4jnsgd1na2vs0mg"},{"bike_id":"740fac56-8888-441d-8c1d-455c73d3099a","system_id":"levelo_inurba_marseille","lat":43.28268,"lon":5.35065,"is_reserved":false,"is_disabled":false,"rental_uris":{"android":"levelo://app?vid=740fac56-8888-441d-8c1d-455c73d3099a","ios":"levelo://app?vid=740fac56-8888-441d-8c1d-455c73d3099a"},"vehicle_type_id":"4","last_reported":1748611401,"current_range_meters":4800,"station_id":"ce4bhbp2rcd13ifvqerg","pricing_plan_id":"cebpf4jnsgd1na2vs0mg"},{"bike_id":"6b66164f-cb48-4188-bdb4-e8fdff1a66df","system_id":"levelo_inurba_marseille","lat":43.27053,"lon":5.40261,"is_reserved":false,"is_disabled":false,"rental_uris":{"android":"levelo://app?vid=6b66164f-cb48-4188-bdb4-e8fdff1a66df","ios":"levelo://app?vid=6b66164f-cb48-4188-bdb4-e8fdff1a66df"},"vehicle_type_id":"4","last_reported":1748611401,"current_range_meters":4800,"station_id":"ce4bhk92rcd13ifvqgc0","pricing_plan_id":"cebpf4jnsgd1na2vs0mg"},{"bike_id":"97924de5-704b-4335-bfa8-efb0fb5c5565","system_id":"levelo_inurba_marseille","lat":43.24162,"lon":5.36398,"is_reserved":false,"is_disabled":false,"rental_uris":{"android":"levelo://app?vid=97924de5-704b-4335-bfa8-efb0fb5c5565","ios":"levelo://app?vid=97924de5-704b-4335-bfa8-efb0fb5c5565"},"vehicle_type_id":"4","last_reported":1748611401,"current_range_meters":4800,"station_id":"cpo36qri1sfpv3e86is0","pricing_plan_id":"cebpf4jnsgd1na2vs0mg"},{"bike_id":"679c7f36-90fb-4c6a-98f8-4e0c32d70fb4","system_id":"levelo_inurba_marseille","lat":43.31169,"lon":5.3872,"is_reserved":false,"is_disabled":false,"rental_uris":{"android":"levelo://app?vid=679c7f36-90fb-4c6a-98f8-4e0c32d70fb4","ios":"levelo://app?vid=679c7f36-90fb-4c6a-98f8-4e0c32d70fb4"},"vehicle_type_id":"4","last_reported":1748611401,"current_range_meters":5600,"station_id":"ce4bgv12rcd13ifvqcp0","pricing_plan_id":"cebpf4jnsgd1na2vs0mg"},{"bike_id":"9c577ffd-c617-42a2-81e0-c523deb63b21","system_id":"levelo_inurba_marseille","lat":43.24809,"lon":5.37466,"is_reserved":false,"is_disabled":false,"rental_uris":{"android":"levelo://app?vid=9c577ffd-c617-42a2-81e0-c523deb63b21","ios":"levelo://app?vid=9c577ffd-c617-42a2-81e0-c523deb63b21"},"vehicle_type_id":"4","last_reported":1748611401,"current_range_meters":5600,"station_id":"ce4bhgh2rcd13ifvqfb0","pricing_plan_id":"cebpf4jnsgd1na2vs0mg"},{"bike_id":"5e8c73c1-3b98-45cc-92dc-19433f06047d","system_id":"levelo_inurba_marseille","lat":43.26934,"lon":5.40261,"is_reserved":false,"is_disabled":false,"rental_uris":{"android":"levelo://app?vid=5e8c73c1-3b98-45cc-92dc-19433f06047d","ios":"levelo://app?vid=5e8c73c1-3b98-45cc-92dc-19433f06047d"},"vehicle_type_id":"4","last_reported":1748611401,"current_range_meters":5600,"station_id":"cjm6bp8fraef2m0cb0m0","pricing_plan_id":"cebpf4jnsgd1na2vs0mg"},{"bike_id":"614b8b1d-506a-4862-a2e3-8b70b8522cc3","system_id":"levelo_inurba_marseille","lat":43.21184,"lon":5.35066,"is_reserved":false,"is_disabled":false,"rental_uris":{"android":"levelo://app?vid=614b8b1d-506a-4862-a2e3-8b70b8522cc3","ios":"levelo://app?vid=614b8b1d-506a-4862-a2e3-8b70b8522cc3"},"vehicle_type_id":"4","last_reported":1748611401,"current_range_meters":5600,"station_id":"st_cvj6sg6p6f1abm77japg","pricing_plan_id":"cebpf4jnsgd1na2vs0mg"},{"bike_id":"f643d6ce-9596-419e-b71d-198dba66fb04","system_id":"levelo_inurba_marseille","lat":43.27406,"lon":5.36198,"is_reserved":false,"is_disabled":false,"rental_uris":{"android":"levelo://app?vid=f643d6ce-9596-419e-b71d-198dba66fb04","ios":"levelo://app?vid=f643d6ce-9596-419e-b71d-198dba66fb04"},"vehicle_type_id":"4","last_reported":1748611401,"current_range_meters":6000,"station_id":"","pricing_plan_id":"cebpf4jnsgd1na2vs0mg"},{"bike_id":"eb6f7b70-b554-4f0b-9071-c468db80e368","system_id":"levelo_inurba_marseille","lat":43.2399,"lon":5.3628,"is_reserved":false,"is_disabled":false,"rental_uris":{"android":"levelo://app?vid=eb6f7b70-b554-4f0b-9071-c468db80e368","ios":"levelo://app?vid=eb6f7b70-b554-4f0b-9071-c468db80e368"},"vehicle_type_id":"4","last_reported":1748611401,"current_range_meters":6000,"station_id":"","pricing_plan_id":"cebpf4jnsgd1na2vs0mg"},{"bike_id":"34803993-189f-43e5-b1e3-bb311218fbb8","system_id":"levelo_inurba_marseille","lat":43.28272,"lon":5.35073,"is_reserved":false,"is_disabled":false,"rental_uris":{"android":"levelo://app?vid=34803993-189f-43e5-b1e3-bb311218fbb8","ios":"levelo://app?vid=34803993-189f-43e5-b1e3-bb311218fbb8"},"vehicle_type_id":"4","last_reported":1748611401,"current_range_meters":6000,"station_id":"ce4bhbp2rcd13ifvqerg","pricing_plan_id":"cebpf4jnsgd1na2vs0mg"},{"bike_id":"697d924a-ea53-411b-88e3-ed7542c4178d","system_id":"levelo_inurba_marseille","lat":43.22501,"lon":5.34778,"is_reserved":false,"is_disabled":false,"rental_uris":{"android":"levelo://app?vid=697d924a-ea53-411b-88e3-ed7542c4178d","ios":"levelo://app?vid=697d924a-ea53-411b-88e3-ed7542c4178d"},"vehicle_type_id":"4","last_reported":1748611401,"current_range_meters":6000,"station_id":"st_cvj5dfep6f1abm77gieg","pricing_plan_id":"cebpf4jnsgd1na2vs0mg"},{"bike_id":"8e8bb5fa-39f0-45f6-b8e6-80bcae2c7b87","system_id":"levelo_inurba_marseille","lat":43.26207,"lon":5.3744,"is_reserved":false,"is_disabled":false,"rental_uris":{"android":"levelo://app?vid=8e8bb5fa-39f0-45f6-b8e6-80bcae2c7b87","ios":"levelo://app?vid=8e8bb5fa-39f0-45f6-b8e6-80bcae2c7b87"},"vehicle_type_id":"4","last_reported":1748611401,"current_range_meters":6400,"station_id":"ce4bhgp2rcd13ifvqfc0","pricing_plan_id":"cebpf4jnsgd1na2vs0mg"},{"bike_id":"cb88469c-8067-43f3-83f6-c881895e7713","system_id":"levelo_inurba_marseille","lat":43.23962,"lon":5.36628,"is_reserved":false,"is_disabled":false,"rental_uris":{"android":"levelo://app?vid=cb88469c-8067-43f3-83f6-c881895e7713","ios":"levelo://app?vid=cb88469c-8067-43f3-83f6-c881895e7713"},"vehicle_type_id":"4","last_reported":1748611401,"current_range_meters":6400,"station_id":"ce4bhi12rcd13ifvqfp0","pricing_plan_id":"cebpf4jnsgd1na2vs0mg"},{"bike_id":"e89a598f-638d-4aec-ba89-b46886dc99d7","system_id":"levelo_inurba_marseille","lat":43.21194,"lon":5.35069,"is_reserved":false,"is_disabled":false,"rental_uris":{"android":"levelo://app?vid=e89a598f-638d-4aec-ba89-b46886dc99d7","ios":"levelo://app?vid=e89a598f-638d-4aec-ba89-b46886dc99d7"},"vehicle_type_id":"4","last_reported":1748611401,"current_range_meters":6400,"station_id":"st_cvj6sg6p6f1abm77japg","pricing_plan_id":"cebpf4jnsgd1na2vs0mg"},{"bike_id":"299bc464-0062-40b9-b8fd-94e53cb49a69","system_id":"levelo_inurba_marseille","lat":43.29698,"lon":5.36273,"is_reserved":false,"is_disabled":false,"rental_uris":{"android":"levelo://app?vid=299bc464-0062-40b9-b8fd-94e53cb49a69","ios":"levelo://app?vid=299bc464-0062-40b9-b8fd-94e53cb49a69"},"vehicle_type_id":"4","last_reported":1748611401,"current_range_meters":6800,"station_id":"","pricing_plan_id":"cebpf4jnsgd1na2vs0mg"},{"bike_id":"ae7b6c3d-e2fb-4957-892d-3c5889b1171e","system_id":"levelo_inurba_marseille","lat":43.30143,"lon":5.37414,"is_reserved":false,"is_disabled":false,"rental_uris":{"android":"levelo://app?vid=ae7b6c3d-e2fb-4957-892d-3c5889b1171e","ios":"levelo://app?vid=ae7b6c3d-e2fb-4957-892d-3c5889b1171e"},"vehicle_type_id":"4","last_reported":1748611401,"current_range_meters":6800,"station_id":"ce4bgs92rcd13ifvqcc0","pricing_plan_id":"cebpf4jnsgd1na2vs0mg"},{"bike_id":"a4d08ee9-f263-4f1b-a383-6abd10721bee","system_id":"levelo_inurba_marseille","lat":43.28419,"lon":5.34996,"is_reserved":false,"is_disabled":false,"rental_uris":{"android":"levelo://app?vid=a4d08ee9-f263-4f1b-a383-6abd10721bee","ios":"levelo://app?vid=a4d08ee9-f263-4f1b-a383-6abd10721bee"},"vehicle_type_id":"4","last_reported":1748611401,"current_range_meters":6800,"station_id":"ce4bhbh2rcd13ifvqepg","pricing_plan_id":"cebpf4jnsgd1na2vs0mg"},{"bike_id":"84c2a946-f9dc-4ea8-b2fc-efc8bd951867","system_id":"levelo_inurba_marseille","lat":43.27419,"lon":5.39412,"is_reserved":false,"is_disabled":false,"rental_uris":{"android":"levelo://app?vid=84c2a946-f9dc-4ea8-b2fc-efc8bd951867","ios":"levelo://app?vid=84c2a946-f9dc-4ea8-b2fc-efc8bd951867"},"vehicle_type_id":"4","last_reported":1748611401,"current_range_meters":6800,"station_id":"ce4bhdp2rcd13ifvqf20","pricing_plan_id":"cebpf4jnsgd1na2vs0mg"},{"bike_id":"6589122c-b40b-45b3-a431-e25247336f5f","system_id":"levelo_inurba_marseille","lat":43.2792,"lon":5.39578,"is_reserved":false,"is_disabled":false,"rental_uris":{"android":"levelo://app?vid=6589122c-b40b-45b3-a431-e25247336f5f","ios":"levelo://app?vid=6589122c-b40b-45b3-a431-e25247336f5f"},"vehicle_type_id":"4","last_reported":1748611401,"current_range_meters":6800,"station_id":"ce4bhf92rcd13ifvqf40","pricing_plan_id":"cebpf4jnsgd1na2vs0mg"},{"bike_id":"acb60c08-c033-4613-8d5f-046cf1447204","system_id":"levelo_inurba_marseille","lat":43.27808,"lon":5.40711,"is_reserved":false,"is_disabled":false,"rental_uris":{"android":"levelo://app?vid=acb60c08-c033-4613-8d5f-046cf1447204","ios":"levelo://app?vid=acb60c08-c033-4613-8d5f-046cf1447204"},"vehicle_type_id":"4","last_reported":1748611401,"current_range_meters":6800,"station_id":"ce4bhnh2rcd13ifvqgtg","pricing_plan_id":"cebpf4jnsgd1na2vs0mg"},{"bike_id":"a31233f2-38a5-4025-b2ff-7e2e68159629","system_id":"levelo_inurba_marseille","lat":43.29582,"lon":5.39973,"is_reserved":false,"is_disabled":false,"rental_uris":{"android":"levelo://app?vid=a31233f2-38a5-4025-b2ff-7e2e68159629","ios":"levelo://app?vid=a31233f2-38a5-4025-b2ff-7e2e68159629"},"vehicle_type_id":"4","last_reported":1748611401,"current_range_meters":7200,"station_id":"ce4bh312rcd13ifvqdj0","pricing_plan_id":"cebpf4jnsgd1na2vs0mg"},{"bike_id":"c35d2061-aed1-4c46-b546-94e38bebc7d5","system_id":"levelo_inurba_marseille","lat":43.2894,"lon":5.39619,"is_reserved":false,"is_disabled":false,"rental_uris":{"android":"levelo://app?vid=c35d2061-aed1-4c46-b546-94e38bebc7d5","ios":"levelo://app?vid=c35d2061-aed1-4c46-b546-94e38bebc7d5"},"vehicle_type_id":"4","last_reported":1748611401,"current_range_meters":7200,"station_id":"ce4bh3h2rcd13ifvqdn0","pricing_plan_id":"cebpf4jnsgd1na2vs0mg"},{"bike_id":"62fc4e03-1811-44b1-bcee-dab6a892e2aa","system_id":"levelo_inurba_marseille","lat":43.26547,"lon":5.37279,"is_reserved":false,"is_disabled":false,"rental_uris":{"android":"levelo://app?vid=62fc4e03-1811-44b1-bcee-dab6a892e2aa","ios":"levelo://app?vid=62fc4e03-1811-44b1-bcee-dab6a892e2aa"},"vehicle_type_id":"4","last_reported":1748611401,"current_range_meters":7200,"station_id":"ce4bhg12rcd13ifvqf70","pricing_plan_id":"cebpf4jnsgd1na2vs0mg"},{"bike_id":"abfe4519-e2a3-4aea-a6a9-016dba2ff093","system_id":"levelo_inurba_marseille","lat":43.26552,"lon":5.37285,"is_reserved":false,"is_disabled":false,"rental_uris":{"android":"levelo://app?vid=abfe4519-e2a3-4aea-a6a9-016dba2ff093","ios":"levelo://app?vid=abfe4519-e2a3-4aea-a6a9-016dba2ff093"},"vehicle_type_id":"4","last_reported":1748611401,"current_range_meters":7200,"station_id":"ce4bhg12rcd13ifvqf70","pricing_plan_id":"cebpf4jnsgd1na2vs0mg"},{"bike_id":"d7b85abc-0671-4ef5-8485-4e0f6adb5922","system_id":"levelo_inurba_marseille","lat":43.29555,"lon":5.42293,"is_reserved":false,"is_disabled":false,"rental_uris":{"android":"levelo://app?vid=d7b85abc-0671-4ef5-8485-4e0f6adb5922","ios":"levelo://app?vid=d7b85abc-0671-4ef5-8485-4e0f6adb5922"},"vehicle_type_id":"4","last_reported":1748611401,"current_range_meters":7200,"station_id":"ce4bhph2rcd13ifvqhdg","pricing_plan_id":"cebpf4jnsgd1na2vs0mg"},{"bike_id":"480bdba7-4c1d-4e58-897c-0e32faed1cdf","system_id":"levelo_inurba_marseille","lat":43.22898,"lon":5.35437,"is_reserved":false,"is_disabled":false,"rental_uris":{"android":"levelo://app?vid=480bdba7-4c1d-4e58-897c-0e32faed1cdf","ios":"levelo://app?vid=480bdba7-4c1d-4e58-897c-0e32faed1cdf"},"vehicle_type_id":"4","last_reported":1748611401,"current_range_meters":7200,"station_id":"cpo3532slgdg3j2ikp40","pricing_plan_id":"cebpf4jnsgd1na2vs0mg"},{"bike_id":"a56c098b-1c53-4e15-847c-9c5921bd0803","system_id":"levelo_inurba_marseille","lat":43.22505,"lon":5.34781,"is_reserved":false,"is_disabled":false,"rental_uris":{"android":"levelo://app?vid=a56c098b-1c53-4e15-847c-9c5921bd0803","ios":"levelo://app?vid=a56c098b-1c53-4e15-847c-9c5921bd0803"},"vehicle_type_id":"4","last_reported":1748611401,"current_range_meters":7200,"station_id":"st_cvj5dfep6f1abm77gieg","pricing_plan_id":"cebpf4jnsgd1na2vs0mg"},{"bike_id":"42dca157-bdb0-4361-8022-7979135f94aa","system_id":"levelo_inurba_marseille","lat":43.28581,"lon":5.36564,"is_reserved":false,"is_disabled":false,"rental_uris":{"android":"levelo://app?vid=42dca157-bdb0-4361-8022-7979135f94aa","ios":"levelo://app?vid=42dca157-bdb0-4361-8022-7979135f94aa"},"vehicle_type_id":"4","last_reported":1748611401,"current_range_meters":8000,"station_id":"","pricing_plan_id":"cebpf4jnsgd1na2vs0mg"},{"bike_id":"36ccf9ea-4705-4153-ab47-119a7284ac2d","system_id":"levelo_inurba_marseille","lat":43.304435,"lon":5.397379,"is_reserved":false,"is_disabled":false,"rental_uris":{"android":"levelo://app?vid=36ccf9ea-4705-4153-ab47-119a7284ac2d","ios":"levelo://app?vid=36ccf9ea-4705-4153-ab47-119a7284ac2d"},"vehicle_type_id":"4","last_reported":1748611401,"current_range_meters":8000,"station_id":"ce4bh092rcd13ifvqd20","pricing_plan_id":"cebpf4jnsgd1na2vs0mg"},{"bike_id":"e18f0c83-b5a6-4748-a086-995ca71dbfcc","system_id":"levelo_inurba_marseille","lat":43.29004,"lon":5.35614,"is_reserved":false,"is_disabled":false,"rental_uris":{"android":"levelo://app?vid=e18f0c83-b5a6-4748-a086-995ca71dbfcc","ios":"levelo://app?vid=e18f0c83-b5a6-4748-a086-995ca71dbfcc"},"vehicle_type_id":"4","last_reported":1748611401,"current_range_meters":8000,"station_id":"ce4bhb92rcd13ifvqen0","pricing_plan_id":"cebpf4jnsgd1na2vs0mg"},{"bike_id":"7f8081d1-6ab1-4bea-b581-83c3b69d4e7a","system_id":"levelo_inurba_marseille","lat":43.27375,"lon":5.36257,"is_reserved":false,"is_disabled":false,"rental_uris":{"android":"levelo://app?vid=7f8081d1-6ab1-4bea-b581-83c3b69d4e7a","ios":"levelo://app?vid=7f8081d1-6ab1-4bea-b581-83c3b69d4e7a"},"vehicle_type_id":"4","last_reported":1748611401,"current_range_meters":8000,"station_id":"ce4bhbh2rcd13ifvqeo0","pricing_plan_id":"cebpf4jnsgd1na2vs0mg"},{"bike_id":"4e7eaec8-b2c8-4351-8131-6316d0b2e027","system_id":"levelo_inurba_marseille","lat":43.28263,"lon":5.35062,"is_reserved":false,"is_disabled":false,"rental_uris":{"android":"levelo://app?vid=4e7eaec8-b2c8-4351-8131-6316d0b2e027","ios":"levelo://app?vid=4e7eaec8-b2c8-4351-8131-6316d0b2e027"},"vehicle_type_id":"4","last_reported":1748611401,"current_range_meters":8000,"station_id":"ce4bhbp2rcd13ifvqerg","pricing_plan_id":"cebpf4jnsgd1na2vs0mg"},{"bike_id":"410d261d-b237-4601-a4e7-26026be491bb","system_id":"levelo_inurba_marseille","lat":43.27431,"lon":5.39405,"is_reserved":false,"is_disabled":false,"rental_uris":{"android":"levelo://app?vid=410d261d-b237-4601-a4e7-26026be491bb","ios":"levelo://app?vid=410d261d-b237-4601-a4e7-26026be491bb"},"vehicle_type_id":"4","last_reported":1748611401,"current_range_meters":8000,"station_id":"ce4bhdp2rcd13ifvqf20","pricing_plan_id":"cebpf4jnsgd1na2vs0mg"},{"bike_id":"7f281b14-83cd-4565-8249-0cd5c4ede6dc","system_id":"levelo_inurba_marseille","lat":43.26205,"lon":5.37434,"is_reserved":false,"is_disabled":false,"rental_uris":{"android":"levelo://app?vid=7f281b14-83cd-4565-8249-0cd5c4ede6dc","ios":"levelo://app?vid=7f281b14-83cd-4565-8249-0cd5c4ede6dc"},"vehicle_type_id":"4","last_reported":1748611401,"current_range_meters":8000,"station_id":"ce4bhgp2rcd13ifvqfc0","pricing_plan_id":"cebpf4jnsgd1na2vs0mg"},{"bike_id":"3a9dde02-c5af-42c0-a956-b9063ad69494","system_id":"levelo_inurba_marseille","lat":43.24395,"lon":5.37069,"is_reserved":false,"is_disabled":false,"rental_uris":{"android":"levelo://app?vid=3a9dde02-c5af-42c0-a956-b9063ad69494","ios":"levelo://app?vid=3a9dde02-c5af-42c0-a956-b9063ad69494"},"vehicle_type_id":"4","last_reported":1748611401,"current_range_meters":8000,"station_id":"ce4bhhh2rcd13ifvqfk0","pricing_plan_id":"cebpf4jnsgd1na2vs0mg"},{"bike_id":"a0b44b20-89b3-41fb-bb26-259cf1852531","system_id":"levelo_inurba_marseille","lat":43.25705,"lon":5.41116,"is_reserved":false,"is_disabled":false,"rental_uris":{"android":"levelo://app?vid=a0b44b20-89b3-41fb-bb26-259cf1852531","ios":"levelo://app?vid=a0b44b20-89b3-41fb-bb26-259cf1852531"},"vehicle_type_id":"4","last_reported":1748611401,"current_range_meters":8000,"station_id":"ce4bhkp2rcd13ifvqgd0","pricing_plan_id":"cebpf4jnsgd1na2vs0mg"},{"bike_id":"7c06be0a-c2f5-43ed-9c84-7ccb445f6544","system_id":"levelo_inurba_marseille","lat":43.33605,"lon":5.41033,"is_reserved":false,"is_disabled":false,"rental_uris":{"android":"levelo://app?vid=7c06be0a-c2f5-43ed-9c84-7ccb445f6544","ios":"levelo://app?vid=7c06be0a-c2f5-43ed-9c84-7ccb445f6544"},"vehicle_type_id":"4","last_reported":1748611401,"current_range_meters":8000,"station_id":"ce4bhqh2rcd13ifvqhmg","pricing_plan_id":"cebpf4jnsgd1na2vs0mg"},{"bike_id":"e4682d0e-f11e-4413-a153-dda6f6bea265","system_id":"levelo_inurba_marseille","lat":43.23193,"lon":5.35559,"is_reserved":false,"is_disabled":false,"rental_uris":{"android":"levelo://app?vid=e4682d0e-f11e-4413-a153-dda6f6bea265","ios":"levelo://app?vid=e4682d0e-f11e-4413-a153-dda6f6bea265"},"vehicle_type_id":"4","last_reported":1748611401,"current_range_meters":8000,"station_id":"ce4bhu92rcd13ifvqi70","pricing_plan_id":"cebpf4jnsgd1na2vs0mg"},{"bike_id":"6fdc4299-6802-439d-a809-304047183056","system_id":"levelo_inurba_marseille","lat":43.21736,"lon":5.34635,"is_reserved":false,"is_disabled":false,"rental_uris":{"android":"levelo://app?vid=6fdc4299-6802-439d-a809-304047183056","ios":"levelo://app?vid=6fdc4299-6802-439d-a809-304047183056"},"vehicle_type_id":"4","last_reported":1748611401,"current_range_meters":8000,"station_id":"st_cvj6r9ubvosntc0bgbag","pricing_plan_id":"cebpf4jnsgd1na2vs0mg"},{"bike_id":"339f38b0-f75b-4455-bd41-33673ac56d64","system_id":"levelo_inurba_marseille","lat":43.309845,"lon":5.417231,"is_reserved":false,"is_disabled":false,"rental_uris":{"android":"levelo://app?vid=339f38b0-f75b-4455-bd41-33673ac56d64","ios":"levelo://app?vid=339f38b0-f75b-4455-bd41-33673ac56d64"},"vehicle_type_id":"4","last_reported":1748611401,"current_range_meters":8400,"station_id":"","pricing_plan_id":"cebpf4jnsgd1na2vs0mg"},{"bike_id":"00f77637-c960-45d0-b516-a2f6a0285858","system_id":"levelo_inurba_marseille","lat":43.29741,"lon":5.38553,"is_reserved":false,"is_disabled":false,"rental_uris":{"android":"levelo://app?vid=00f77637-c960-45d0-b516-a2f6a0285858","ios":"levelo://app?vid=00f77637-c960-45d0-b516-a2f6a0285858"},"vehicle_type_id":"4","last_reported":1748611401,"current_range_meters":8400,"station_id":"","pricing_plan_id":"cebpf4jnsgd1na2vs0mg"},{"bike_id":"b47395ee-1c78-49b7-9ff1-88adc8546ce1","system_id":"levelo_inurba_marseille","lat":43.29046,"lon":5.35908,"is_reserved":false,"is_disabled":false,"rental_uris":{"android":"levelo://app?vid=b47395ee-1c78-49b7-9ff1-88adc8546ce1","ios":"levelo://app?vid=b47395ee-1c78-49b7-9ff1-88adc8546ce1"},"vehicle_type_id":"4","last_reported":1748611401,"current_range_meters":8400,"station_id":"ce4bha92rcd13ifvqeg0","pricing_plan_id":"cebpf4jnsgd1na2vs0mg"},{"bike_id":"cc5221bc-d0e0-4477-85c6-221f52d9c10d","system_id":"levelo_inurba_marseille","lat":43.28831,"lon":5.35898,"is_reserved":false,"is_disabled":false,"rental_uris":{"android":"levelo://app?vid=cc5221bc-d0e0-4477-85c6-221f52d9c10d","ios":"levelo://app?vid=cc5221bc-d0e0-4477-85c6-221f52d9c10d"},"vehicle_type_id":"4","last_reported":1748611401,"current_range_meters":8400,"station_id":"ce4bhb12rcd13ifvqem0","pricing_plan_id":"cebpf4jnsgd1na2vs0mg"},{"bike_id":"32bbb78f-b019-4b4a-a1ee-e7a5f1d1ee03","system_id":"levelo_inurba_marseille","lat":43.27379,"lon":5.36256,"is_reserved":false,"is_disabled":false,"rental_uris":{"android":"levelo://app?vid=32bbb78f-b019-4b4a-a1ee-e7a5f1d1ee03","ios":"levelo://app?vid=32bbb78f-b019-4b4a-a1ee-e7a5f1d1ee03"},"vehicle_type_id":"4","last_reported":1748611401,"current_range_meters":8400,"station_id":"ce4bhbh2rcd13ifvqeo0","pricing_plan_id":"cebpf4jnsgd1na2vs0mg"},{"bike_id":"f29a45eb-a2eb-4df3-9d24-5e5913e221a4","system_id":"levelo_inurba_marseille","lat":43.28263,"lon":5.35061,"is_reserved":false,"is_disabled":false,"rental_uris":{"android":"levelo://app?vid=f29a45eb-a2eb-4df3-9d24-5e5913e221a4","ios":"levelo://app?vid=f29a45eb-a2eb-4df3-9d24-5e5913e221a4"},"vehicle_type_id":"4","last_reported":1748611401,"current_range_meters":8400,"station_id":"ce4bhbp2rcd13ifvqerg","pricing_plan_id":"cebpf4jnsgd1na2vs0mg"},{"bike_id":"fe439f2a-a08a-4d2f-bb7b-e8d50f420149","system_id":"levelo_inurba_marseille","lat":43.29277,"lon":5.36846,"is_reserved":false,"is_disabled":false,"rental_uris":{"android":"levelo://app?vid=fe439f2a-a08a-4d2f-bb7b-e8d50f420149","ios":"levelo://app?vid=fe439f2a-a08a-4d2f-bb7b-e8d50f420149"},"vehicle_type_id":"4","last_reported":1748611401,"current_range_meters":8400,"station_id":"ce4bhbp2rcd13ifvqesg","pricing_plan_id":"cebpf4jnsgd1na2vs0mg"},{"bike_id":"cc1357d6-9e6d-4205-aeaf-50a8aa0a518e","system_id":"levelo_inurba_marseille","lat":43.26213,"lon":5.37443,"is_reserved":false,"is_disabled":false,"rental_uris":{"android":"levelo://app?vid=cc1357d6-9e6d-4205-aeaf-50a8aa0a518e","ios":"levelo://app?vid=cc1357d6-9e6d-4205-aeaf-50a8aa0a518e"},"vehicle_type_id":"4","last_reported":1748611401,"current_range_meters":8400,"station_id":"ce4bhgp2rcd13ifvqfc0","pricing_plan_id":"cebpf4jnsgd1na2vs0mg"},{"bike_id":"2678f8be-6420-4ee3-828b-2032fbbec775","system_id":"levelo_inurba_marseille","lat":43.23192,"lon":5.35555,"is_reserved":false,"is_disabled":false,"rental_uris":{"android":"levelo://app?vid=2678f8be-6420-4ee3-828b-2032fbbec775","ios":"levelo://app?vid=2678f8be-6420-4ee3-828b-2032fbbec775"},"vehicle_type_id":"4","last_reported":1748611401,"current_range_meters":8400,"station_id":"ce4bhu92rcd13ifvqi70","pricing_plan_id":"cebpf4jnsgd1na2vs0mg"},{"bike_id":"72119918-05f2-4c30-a402-85ca49013522","system_id":"levelo_inurba_marseille","lat":43.22918,"lon":5.35375,"is_reserved":false,"is_disabled":false,"rental_uris":{"android":"levelo://app?vid=72119918-05f2-4c30-a402-85ca49013522","ios":"levelo://app?vid=72119918-05f2-4c30-a402-85ca49013522"},"vehicle_type_id":"4","last_reported":1748611401,"current_range_meters":8400,"station_id":"cpo3532slgdg3j2ikp40","pricing_plan_id":"cebpf4jnsgd1na2vs0mg"},{"bike_id":"589d2674-f00d-4f0b-ba06-62403023c413","system_id":"levelo_inurba_marseille","lat":43.24169,"lon":5.36393,"is_reserved":false,"is_disabled":false,"rental_uris":{"android":"levelo://app?vid=589d2674-f00d-4f0b-ba06-62403023c413","ios":"levelo://app?vid=589d2674-f00d-4f0b-ba06-62403023c413"},"vehicle_type_id":"4","last_reported":1748611401,"current_range_meters":8400,"station_id":"cpo36qri1sfpv3e86is0","pricing_plan_id":"cebpf4jnsgd1na2vs0mg"},{"bike_id":"90e99e93-e59a-4900-b486-e2f05fd6f680","system_id":"levelo_inurba_marseille","lat":43.29779,"lon":5.38122,"is_reserved":false,"is_disabled":false,"rental_uris":{"android":"levelo://app?vid=90e99e93-e59a-4900-b486-e2f05fd6f680","ios":"levelo://app?vid=90e99e93-e59a-4900-b486-e2f05fd6f680"},"vehicle_type_id":"4","last_reported":1748611401,"current_range_meters":8800,"station_id":"ce4bgip2rcd13ifvqbb0","pricing_plan_id":"cebpf4jnsgd1na2vs0mg"},{"bike_id":"e1766bfa-25ce-445b-bcd8-a53cf1aeb985","system_id":"levelo_inurba_marseille","lat":43.30534,"lon":5.36545,"is_reserved":false,"is_disabled":false,"rental_uris":{"android":"levelo://app?vid=e1766bfa-25ce-445b-bcd8-a53cf1aeb985","ios":"levelo://app?vid=e1766bfa-25ce-445b-bcd8-a53cf1aeb985"},"vehicle_type_id":"4","last_reported":1748611401,"current_range_meters":8800,"station_id":"ce4bgs12rcd13ifvqcag","pricing_plan_id":"cebpf4jnsgd1na2vs0mg"},{"bike_id":"7be2354b-6ae0-479f-be18-8c0cf1d8be2e","system_id":"levelo_inurba_marseille","lat":43.25122,"lon":5.40315,"is_reserved":false,"is_disabled":false,"rental_uris":{"android":"levelo://app?vid=7be2354b-6ae0-479f-be18-8c0cf1d8be2e","ios":"levelo://app?vid=7be2354b-6ae0-479f-be18-8c0cf1d8be2e"},"vehicle_type_id":"4","last_reported":1748611401,"current_range_meters":8800,"station_id":"ce4bhlh2rcd13ifvqgig","pricing_plan_id":"cebpf4jnsgd1na2vs0mg"},{"bike_id":"a426f99b-d34a-41bf-bbda-59f7dfd6939b","system_id":"levelo_inurba_marseille","lat":43.255796,"lon":5.382262,"is_reserved":false,"is_disabled":false,"rental_uris":{"android":"levelo://app?vid=a426f99b-d34a-41bf-bbda-59f7dfd6939b","ios":"levelo://app?vid=a426f99b-d34a-41bf-bbda-59f7dfd6939b"},"vehicle_type_id":"4","last_reported":1748611401,"current_range_meters":8800,"station_id":"ce501612rcd8frsf0b60","pricing_plan_id":"cebpf4jnsgd1na2vs0mg"},{"bike_id":"ae3b3dce-af27-4783-b46b-aceacebb4963","system_id":"levelo_inurba_marseille","lat":43.23062,"lon":5.3548,"is_reserved":false,"is_disabled":false,"rental_uris":{"android":"levelo://app?vid=ae3b3dce-af27-4783-b46b-aceacebb4963","ios":"levelo://app?vid=ae3b3dce-af27-4783-b46b-aceacebb4963"},"vehicle_type_id":"4","last_reported":1748611401,"current_range_meters":8800,"station_id":"cpo3342slgdg3j2ifvpg","pricing_plan_id":"cebpf4jnsgd1na2vs0mg"},{"bike_id":"c484e154-33d2-4c69-98f9-ca095b2175da","system_id":"levelo_inurba_marseille","lat":43.21184,"lon":5.35103,"is_reserved":false,"is_disabled":false,"rental_uris":{"android":"levelo://app?vid=c484e154-33d2-4c69-98f9-ca095b2175da","ios":"levelo://app?vid=c484e154-33d2-4c69-98f9-ca095b2175da"},"vehicle_type_id":"4","last_reported":1748611401,"current_range_meters":8800,"station_id":"st_cvj6sg6p6f1abm77japg","pricing_plan_id":"cebpf4jnsgd1na2vs0mg"},{"bike_id":"f5733814-9732-4748-bcc9-3b2fac8e1564","system_id":"levelo_inurba_marseille","lat":43.31256,"lon":5.37829,"is_reserved":false,"is_disabled":false,"rental_uris":{"android":"levelo://app?vid=f5733814-9732-4748-bcc9-3b2fac8e1564","ios":"levelo://app?vid=f5733814-9732-4748-bcc9-3b2fac8e1564"},"vehicle_type_id":"4","last_reported":1748611401,"current_range_meters":9200,"station_id":"","pricing_plan_id":"cebpf4jnsgd1na2vs0mg"},{"bike_id":"88eabf88-86c3-41df-b85c-48e8507a3da0","system_id":"levelo_inurba_marseille","lat":43.29569,"lon":5.37525,"is_reserved":false,"is_disabled":false,"rental_uris":{"android":"levelo://app?vid=88eabf88-86c3-41df-b85c-48e8507a3da0","ios":"levelo://app?vid=88eabf88-86c3-41df-b85c-48e8507a3da0"},"vehicle_type_id":"4","last_reported":1748611401,"current_range_meters":9200,"station_id":"ce4bgh92rcd13ifvqb50","pricing_plan_id":"cebpf4jnsgd1na2vs0mg"},{"bike_id":"2a21d2bd-ee74-4503-9513-135d75f326f7","system_id":"levelo_inurba_marseille","lat":43.29287,"lon":5.374659,"is_reserved":false,"is_disabled":false,"rental_uris":{"android":"levelo://app?vid=2a21d2bd-ee74-4503-9513-135d75f326f7","ios":"levelo://app?vid=2a21d2bd-ee74-4503-9513-135d75f326f7"},"vehicle_type_id":"4","last_reported":1748611401,"current_range_meters":9200,"station_id":"ce4bgi12rcd13ifvqb70","pricing_plan_id":"cebpf4jnsgd1na2vs0mg"},{"bike_id":"4d78e84e-9b3b-4ac9-8d25-ca032492c620","system_id":"levelo_inurba_marseille","lat":43.27619,"lon":5.36116,"is_reserved":false,"is_disabled":false,"rental_uris":{"android":"levelo://app?vid=4d78e84e-9b3b-4ac9-8d25-ca032492c620","ios":"levelo://app?vid=4d78e84e-9b3b-4ac9-8d25-ca032492c620"},"vehicle_type_id":"4","last_reported":1748611401,"current_range_meters":9200,"station_id":"ce4bgj92rcd13ifvqbe0","pricing_plan_id":"cebpf4jnsgd1na2vs0mg"},{"bike_id":"85506a40-b1c6-42fc-ad03-680a0b54da35","system_id":"levelo_inurba_marseille","lat":43.29848,"lon":5.36296,"is_reserved":false,"is_disabled":false,"rental_uris":{"android":"levelo://app?vid=85506a40-b1c6-42fc-ad03-680a0b54da35","ios":"levelo://app?vid=85506a40-b1c6-42fc-ad03-680a0b54da35"},"vehicle_type_id":"4","last_reported":1748611401,"current_range_meters":9200,"station_id":"ce4bgpp2rcd13ifvqc3g","pricing_plan_id":"cebpf4jnsgd1na2vs0mg"},{"bike_id":"283fa37b-83b7-45f1-8667-b41ec760f474","system_id":"levelo_inurba_marseille","lat":43.26555,"lon":5.37283,"is_reserved":false,"is_disabled":false,"rental_uris":{"android":"levelo://app?vid=283fa37b-83b7-45f1-8667-b41ec760f474","ios":"levelo://app?vid=283fa37b-83b7-45f1-8667-b41ec760f474"},"vehicle_type_id":"4","last_reported":1748611401,"current_range_meters":9200,"station_id":"ce4bhg12rcd13ifvqf70","pricing_plan_id":"cebpf4jnsgd1na2vs0mg"},{"bike_id":"6948c974-658b-4326-bce1-cc610112daaa","system_id":"levelo_inurba_marseille","lat":43.26032,"lon":5.37554,"is_reserved":false,"is_disabled":false,"rental_uris":{"android":"levelo://app?vid=6948c974-658b-4326-bce1-cc610112daaa","ios":"levelo://app?vid=6948c974-658b-4326-bce1-cc610112daaa"},"vehicle_type_id":"4","last_reported":1748611401,"current_range_meters":9200,"station_id":"ce4bhgh2rcd13ifvqfa0","pricing_plan_id":"cebpf4jnsgd1na2vs0mg"},{"bike_id":"4258291f-daf6-4adf-952f-cf27f3ce12b6","system_id":"levelo_inurba_marseille","lat":43.26207,"lon":5.37451,"is_reserved":false,"is_disabled":false,"rental_uris":{"android":"levelo://app?vid=4258291f-daf6-4adf-952f-cf27f3ce12b6","ios":"levelo://app?vid=4258291f-daf6-4adf-952f-cf27f3ce12b6"},"vehicle_type_id":"4","last_reported":1748611401,"current_range_meters":9200,"station_id":"ce4bhgp2rcd13ifvqfc0","pricing_plan_id":"cebpf4jnsgd1na2vs0mg"},{"bike_id":"eb320f23-6699-4606-9b3e-9dbc454fbcf7","system_id":"levelo_inurba_marseille","lat":43.24548,"lon":5.39521,"is_reserved":false,"is_disabled":false,"rental_uris":{"android":"levelo://app?vid=eb320f23-6699-4606-9b3e-9dbc454fbcf7","ios":"levelo://app?vid=eb320f23-6699-4606-9b3e-9dbc454fbcf7"},"vehicle_type_id":"4","last_reported":1748611401,"current_range_meters":9200,"station_id":"ce4bhlp2rcd13ifvqgjg","pricing_plan_id":"cebpf4jnsgd1na2vs0mg"},{"bike_id":"89f10be6-efc4-4e14-836e-b0caf6074d7a","system_id":"levelo_inurba_marseille","lat":43.23067,"lon":5.35491,"is_reserved":false,"is_disabled":false,"rental_uris":{"android":"levelo://app?vid=89f10be6-efc4-4e14-836e-b0caf6074d7a","ios":"levelo://app?vid=89f10be6-efc4-4e14-836e-b0caf6074d7a"},"vehicle_type_id":"4","last_reported":1748611401,"current_range_meters":9200,"station_id":"cpo3342slgdg3j2ifvpg","pricing_plan_id":"cebpf4jnsgd1na2vs0mg"},{"bike_id":"c666405f-462c-40b6-aad2-05c3e84c9054","system_id":"levelo_inurba_marseille","lat":43.241784,"lon":5.363917,"is_reserved":false,"is_disabled":false,"rental_uris":{"android":"levelo://app?vid=c666405f-462c-40b6-aad2-05c3e84c9054","ios":"levelo://app?vid=c666405f-462c-40b6-aad2-05c3e84c9054"},"vehicle_type_id":"4","last_reported":1748611401,"current_range_meters":9200,"station_id":"cpo36qri1sfpv3e86is0","pricing_plan_id":"cebpf4jnsgd1na2vs0mg"},{"bike_id":"a807c8dd-75ce-4f49-b322-50ddd08ec8d0","system_id":"levelo_inurba_marseille","lat":43.34747,"lon":5.37296,"is_reserved":false,"is_disabled":false,"rental_uris":{"android":"levelo://app?vid=a807c8dd-75ce-4f49-b322-50ddd08ec8d0","ios":"levelo://app?vid=a807c8dd-75ce-4f49-b322-50ddd08ec8d0"},"vehicle_type_id":"4","last_reported":1748611401,"current_range_meters":9600,"station_id":"","pricing_plan_id":"cebpf4jnsgd1na2vs0mg"},{"bike_id":"e9cda520-c6f4-465d-ad7f-8c059b3dc45a","system_id":"levelo_inurba_marseille","lat":43.313967,"lon":5.383993,"is_reserved":false,"is_disabled":false,"rental_uris":{"android":"levelo://app?vid=e9cda520-c6f4-465d-ad7f-8c059b3dc45a","ios":"levelo://app?vid=e9cda520-c6f4-465d-ad7f-8c059b3dc45a"},"vehicle_type_id":"4","last_reported":1748611401,"current_range_meters":9600,"station_id":"","pricing_plan_id":"cebpf4jnsgd1na2vs0mg"},{"bike_id":"54e0c0f7-b8f3-48f3-a8b9-65efc0d1fd7c","system_id":"levelo_inurba_marseille","lat":43.31385,"lon":5.36704,"is_reserved":false,"is_disabled":false,"rental_uris":{"android":"levelo://app?vid=54e0c0f7-b8f3-48f3-a8b9-65efc0d1fd7c","ios":"levelo://app?vid=54e0c0f7-b8f3-48f3-a8b9-65efc0d1fd7c"},"vehicle_type_id":"4","last_reported":1748611401,"current_range_meters":9600,"station_id":"","pricing_plan_id":"cebpf4jnsgd1na2vs0mg"},{"bike_id":"2171ff64-4318-4f70-840a-08731aeffb0a","system_id":"levelo_inurba_marseille","lat":43.28267,"lon":5.35077,"is_reserved":false,"is_disabled":false,"rental_uris":{"android":"levelo://app?vid=2171ff64-4318-4f70-840a-08731aeffb0a","ios":"levelo://app?vid=2171ff64-4318-4f70-840a-08731aeffb0a"},"vehicle_type_id":"4","last_reported":1748611401,"current_range_meters":9600,"station_id":"ce4bhbp2rcd13ifvqerg","pricing_plan_id":"cebpf4jnsgd1na2vs0mg"},{"bike_id":"16d5a951-792b-4916-85e6-1f33bfb1a6fd","system_id":"levelo_inurba_marseille","lat":43.28264,"lon":5.35058,"is_reserved":false,"is_disabled":false,"rental_uris":{"android":"levelo://app?vid=16d5a951-792b-4916-85e6-1f33bfb1a6fd","ios":"levelo://app?vid=16d5a951-792b-4916-85e6-1f33bfb1a6fd"},"vehicle_type_id":"4","last_reported":1748611401,"current_range_meters":9600,"station_id":"ce4bhbp2rcd13ifvqerg","pricing_plan_id":"cebpf4jnsgd1na2vs0mg"},{"bike_id":"a3d613e2-daa6-4ac9-9455-e8d73b3f29e0","system_id":"levelo_inurba_marseille","lat":43.26205,"lon":5.37447,"is_reserved":false,"is_disabled":false,"rental_uris":{"android":"levelo://app?vid=a3d613e2-daa6-4ac9-9455-e8d73b3f29e0","ios":"levelo://app?vid=a3d613e2-daa6-4ac9-9455-e8d73b3f29e0"},"vehicle_type_id":"4","last_reported":1748611401,"current_range_meters":9600,"station_id":"ce4bhgp2rcd13ifvqfc0","pricing_plan_id":"cebpf4jnsgd1na2vs0mg"},{"bike_id":"b20bbe32-37ed-4b7f-abe4-fbeece7bebaa","system_id":"levelo_inurba_marseille","lat":43.21739,"lon":5.34626,"is_reserved":false,"is_disabled":false,"rental_uris":{"android":"levelo://app?vid=b20bbe32-37ed-4b7f-abe4-fbeece7bebaa","ios":"levelo://app?vid=b20bbe32-37ed-4b7f-abe4-fbeece7bebaa"},"vehicle_type_id":"4","last_reported":1748611401,"current_range_meters":9600,"station_id":"st_cvj6r9ubvosntc0bgbag","pricing_plan_id":"cebpf4jnsgd1na2vs0mg"},{"bike_id":"e88454e9-5108-4967-a989-df9e4e3590e1","system_id":"levelo_inurba_marseille","lat":43.27374,"lon":5.3625,"is_reserved":false,"is_disabled":false,"rental_uris":{"android":"levelo://app?vid=e88454e9-5108-4967-a989-df9e4e3590e1","ios":"levelo://app?vid=e88454e9-5108-4967-a989-df9e4e3590e1"},"vehicle_type_id":"4","last_reported":1748611401,"current_range_meters":10000,"station_id":"ce4bhbh2rcd13ifvqeo0","pricing_plan_id":"cebpf4jnsgd1na2vs0mg"},{"bike_id":"e6fd2ca1-d968-4e6d-950a-3de70295f052","system_id":"levelo_inurba_marseille","lat":43.28411,"lon":5.35,"is_reserved":false,"is_disabled":false,"rental_uris":{"android":"levelo://app?vid=e6fd2ca1-d968-4e6d-950a-3de70295f052","ios":"levelo://app?vid=e6fd2ca1-d968-4e6d-950a-3de70295f052"},"vehicle_type_id":"4","last_reported":1748611401,"current_range_meters":10000,"station_id":"ce4bhbh2rcd13ifvqepg","pricing_plan_id":"cebpf4jnsgd1na2vs0mg"},{"bike_id":"fbf62787-a3c6-4f23-83c5-9f8471a73f2d","system_id":"levelo_inurba_marseille","lat":43.26557,"lon":5.37282,"is_reserved":false,"is_disabled":false,"rental_uris":{"android":"levelo://app?vid=fbf62787-a3c6-4f23-83c5-9f8471a73f2d","ios":"levelo://app?vid=fbf62787-a3c6-4f23-83c5-9f8471a73f2d"},"vehicle_type_id":"4","last_reported":1748611401,"current_range_meters":10000,"station_id":"ce4bhg12rcd13ifvqf70","pricing_plan_id":"cebpf4jnsgd1na2vs0mg"},{"bike_id":"c1c2d85c-5c42-48f8-b1ee-87631c48c9eb","system_id":"levelo_inurba_marseille","lat":43.24809,"lon":5.37459,"is_reserved":false,"is_disabled":false,"rental_uris":{"android":"levelo://app?vid=c1c2d85c-5c42-48f8-b1ee-87631c48c9eb","ios":"levelo://app?vid=c1c2d85c-5c42-48f8-b1ee-87631c48c9eb"},"vehicle_type_id":"4","last_reported":1748611401,"current_range_meters":10000,"station_id":"ce4bhgh2rcd13ifvqfb0","pricing_plan_id":"cebpf4jnsgd1na2vs0mg"},{"bike_id":"c2d0ecac-e5c0-484d-bda9-5e1a7c443cd9","system_id":"levelo_inurba_marseille","lat":43.25582,"lon":5.38226,"is_reserved":false,"is_disabled":false,"rental_uris":{"android":"levelo://app?vid=c2d0ecac-e5c0-484d-bda9-5e1a7c443cd9","ios":"levelo://app?vid=c2d0ecac-e5c0-484d-bda9-5e1a7c443cd9"},"vehicle_type_id":"4","last_reported":1748611401,"current_range_meters":10000,"station_id":"ce4bhih2rcd13ifvqfs0","pricing_plan_id":"cebpf4jnsgd1na2vs0mg"},{"bike_id":"452cbfa7-e61c-418a-859f-e52bd574a645","system_id":"levelo_inurba_marseille","lat":43.23151,"lon":5.43717,"is_reserved":false,"is_disabled":false,"rental_uris":{"android":"levelo://app?vid=452cbfa7-e61c-418a-859f-e52bd574a645","ios":"levelo://app?vid=452cbfa7-e61c-418a-859f-e52bd574a645"},"vehicle_type_id":"4","last_reported":1748611401,"current_range_meters":10000,"station_id":"ce4bhmp2rcd13ifvqgog","pricing_plan_id":"cebpf4jnsgd1na2vs0mg"},{"bike_id":"10506cb7-ecd1-4b9a-8a8d-ad241d961b8c","system_id":"levelo_inurba_marseille","lat":43.232,"lon":5.35541,"is_reserved":false,"is_disabled":false,"rental_uris":{"android":"levelo://app?vid=10506cb7-ecd1-4b9a-8a8d-ad241d961b8c","ios":"levelo://app?vid=10506cb7-ecd1-4b9a-8a8d-ad241d961b8c"},"vehicle_type_id":"4","last_reported":1748611401,"current_range_meters":10000,"station_id":"ce4bhu92rcd13ifvqi70","pricing_plan_id":"cebpf4jnsgd1na2vs0mg"},{"bike_id":"2268d6eb-394c-4867-b8af-430a178523b0","system_id":"levelo_inurba_marseille","lat":43.22923,"lon":5.35393,"is_reserved":false,"is_disabled":false,"rental_uris":{"android":"levelo://app?vid=2268d6eb-394c-4867-b8af-430a178523b0","ios":"levelo://app?vid=2268d6eb-394c-4867-b8af-430a178523b0"},"vehicle_type_id":"4","last_reported":1748611401,"current_range_meters":10000,"station_id":"cpo3532slgdg3j2ikp40","pricing_plan_id":"cebpf4jnsgd1na2vs0mg"},{"bike_id":"d53b1633-3b09-4f5b-9e4b-39611b87d780","system_id":"levelo_inurba_marseille","lat":43.284099,"lon":5.349774,"is_reserved":false,"is_disabled":false,"rental_uris":{"android":"levelo://app?vid=d53b1633-3b09-4f5b-9e4b-39611b87d780","ios":"levelo://app?vid=d53b1633-3b09-4f5b-9e4b-39611b87d780"},"vehicle_type_id":"4","last_reported":1748611401,"current_range_meters":10800,"station_id":"","pricing_plan_id":"cebpf4jnsgd1na2vs0mg"},{"bike_id":"882f96e6-6d51-400c-b332-99ec0e88ba27","system_id":"levelo_inurba_marseille","lat":43.27623,"lon":5.36106,"is_reserved":false,"is_disabled":false,"rental_uris":{"android":"levelo://app?vid=882f96e6-6d51-400c-b332-99ec0e88ba27","ios":"levelo://app?vid=882f96e6-6d51-400c-b332-99ec0e88ba27"},"vehicle_type_id":"4","last_reported":1748611401,"current_range_meters":10800,"station_id":"ce4bgj92rcd13ifvqbe0","pricing_plan_id":"cebpf4jnsgd1na2vs0mg"},{"bike_id":"048ee714-11e0-405d-a47c-6cf612ee1fcc","system_id":"levelo_inurba_marseille","lat":43.29371,"lon":5.37836,"is_reserved":false,"is_disabled":false,"rental_uris":{"android":"levelo://app?vid=048ee714-11e0-405d-a47c-6cf612ee1fcc","ios":"levelo://app?vid=048ee714-11e0-405d-a47c-6cf612ee1fcc"},"vehicle_type_id":"4","last_reported":1748611401,"current_range_meters":10800,"station_id":"ce4bgjh2rcd13ifvqbf0","pricing_plan_id":"cebpf4jnsgd1na2vs0mg"},{"bike_id":"fd48a4cf-a9af-4050-93c5-ad684b79e166","system_id":"levelo_inurba_marseille","lat":43.2737,"lon":5.36253,"is_reserved":false,"is_disabled":false,"rental_uris":{"android":"levelo://app?vid=fd48a4cf-a9af-4050-93c5-ad684b79e166","ios":"levelo://app?vid=fd48a4cf-a9af-4050-93c5-ad684b79e166"},"vehicle_type_id":"4","last_reported":1748611401,"current_range_meters":10800,"station_id":"ce4bhbh2rcd13ifvqeo0","pricing_plan_id":"cebpf4jnsgd1na2vs0mg"},{"bike_id":"c7c3a5a4-b6e4-462b-80c7-827e33b91cd7","system_id":"levelo_inurba_marseille","lat":43.26567,"lon":5.3729,"is_reserved":false,"is_disabled":false,"rental_uris":{"android":"levelo://app?vid=c7c3a5a4-b6e4-462b-80c7-827e33b91cd7","ios":"levelo://app?vid=c7c3a5a4-b6e4-462b-80c7-827e33b91cd7"},"vehicle_type_id":"4","last_reported":1748611401,"current_range_meters":10800,"station_id":"ce4bhg12rcd13ifvqf70","pricing_plan_id":"cebpf4jnsgd1na2vs0mg"},{"bike_id":"3cfcd708-bb66-4827-988c-59ab1f9ea42d","system_id":"levelo_inurba_marseille","lat":43.26218,"lon":5.40455,"is_reserved":false,"is_disabled":false,"rental_uris":{"android":"levelo://app?vid=3cfcd708-bb66-4827-988c-59ab1f9ea42d","ios":"levelo://app?vid=3cfcd708-bb66-4827-988c-59ab1f9ea42d"},"vehicle_type_id":"4","last_reported":1748611401,"current_range_meters":10800,"station_id":"ce4bhmh2rcd13ifvqgmg","pricing_plan_id":"cebpf4jnsgd1na2vs0mg"},{"bike_id":"af78cd64-d0b1-4ec8-8285-880188198f73","system_id":"levelo_inurba_marseille","lat":43.23189,"lon":5.35572,"is_reserved":false,"is_disabled":false,"rental_uris":{"android":"levelo://app?vid=af78cd64-d0b1-4ec8-8285-880188198f73","ios":"levelo://app?vid=af78cd64-d0b1-4ec8-8285-880188198f73"},"vehicle_type_id":"4","last_reported":1748611401,"current_range_meters":10800,"station_id":"ce4bhu92rcd13ifvqi70","pricing_plan_id":"cebpf4jnsgd1na2vs0mg"},{"bike_id":"f46a5942-aa0f-498b-ae15-e1f7f612e9d2","system_id":"levelo_inurba_marseille","lat":43.24166,"lon":5.36399,"is_reserved":false,"is_disabled":false,"rental_uris":{"android":"levelo://app?vid=f46a5942-aa0f-498b-ae15-e1f7f612e9d2","ios":"levelo://app?vid=f46a5942-aa0f-498b-ae15-e1f7f612e9d2"},"vehicle_type_id":"4","last_reported":1748611401,"current_range_meters":10800,"station_id":"cpo36qri1sfpv3e86is0","pricing_plan_id":"cebpf4jnsgd1na2vs0mg"},{"bike_id":"b4762fa1-e596-4ef5-8381-22e8d18b51b2","system_id":"levelo_inurba_marseille","lat":43.28417,"lon":5.34976,"is_reserved":false,"is_disabled":false,"rental_uris":{"android":"levelo://app?vid=b4762fa1-e596-4ef5-8381-22e8d18b51b2","ios":"levelo://app?vid=b4762fa1-e596-4ef5-8381-22e8d18b51b2"},"vehicle_type_id":"4","last_reported":1748611401,"current_range_meters":11200,"station_id":"ce4bhbh2rcd13ifvqepg","pricing_plan_id":"cebpf4jnsgd1na2vs0mg"},{"bike_id":"2bab18aa-61cd-4c18-a24b-1032bd90bb09","system_id":"levelo_inurba_marseille","lat":43.26026,"lon":5.37554,"is_reserved":false,"is_disabled":false,"rental_uris":{"android":"levelo://app?vid=2bab18aa-61cd-4c18-a24b-1032bd90bb09","ios":"levelo://app?vid=2bab18aa-61cd-4c18-a24b-1032bd90bb09"},"vehicle_type_id":"4","last_reported":1748611401,"current_range_meters":11200,"station_id":"ce4bhgh2rcd13ifvqfa0","pricing_plan_id":"cebpf4jnsgd1na2vs0mg"},{"bike_id":"541ad9a3-adb5-4112-ae88-a2ba289d8a87","system_id":"levelo_inurba_marseille","lat":43.24382,"lon":5.37063,"is_reserved":false,"is_disabled":false,"rental_uris":{"android":"levelo://app?vid=541ad9a3-adb5-4112-ae88-a2ba289d8a87","ios":"levelo://app?vid=541ad9a3-adb5-4112-ae88-a2ba289d8a87"},"vehicle_type_id":"4","last_reported":1748611401,"current_range_meters":11200,"station_id":"ce4bhhh2rcd13ifvqfk0","pricing_plan_id":"cebpf4jnsgd1na2vs0mg"},{"bike_id":"b433ccd5-cacf-41ad-b027-1bfde740b889","system_id":"levelo_inurba_marseille","lat":43.2307,"lon":5.35485,"is_reserved":false,"is_disabled":false,"rental_uris":{"android":"levelo://app?vid=b433ccd5-cacf-41ad-b027-1bfde740b889","ios":"levelo://app?vid=b433ccd5-cacf-41ad-b027-1bfde740b889"},"vehicle_type_id":"4","last_reported":1748611401,"current_range_meters":11200,"station_id":"cpo3342slgdg3j2ifvpg","pricing_plan_id":"cebpf4jnsgd1na2vs0mg"},{"bike_id":"3dd1b342-5d0a-4155-9da3-0dd9cd16e16e","system_id":"levelo_inurba_marseille","lat":43.229326,"lon":5.353555,"is_reserved":false,"is_disabled":false,"rental_uris":{"android":"levelo://app?vid=3dd1b342-5d0a-4155-9da3-0dd9cd16e16e","ios":"levelo://app?vid=3dd1b342-5d0a-4155-9da3-0dd9cd16e16e"},"vehicle_type_id":"4","last_reported":1748611401,"current_range_meters":11200,"station_id":"cpo3532slgdg3j2ikp40","pricing_plan_id":"cebpf4jnsgd1na2vs0mg"},{"bike_id":"2685075f-b8f6-46ca-b896-824ca70385ab","system_id":"levelo_inurba_marseille","lat":43.314846,"lon":5.373048,"is_reserved":false,"is_disabled":false,"rental_uris":{"android":"levelo://app?vid=2685075f-b8f6-46ca-b896-824ca70385ab","ios":"levelo://app?vid=2685075f-b8f6-46ca-b896-824ca70385ab"},"vehicle_type_id":"4","last_reported":1748611401,"current_range_meters":11600,"station_id":"","pricing_plan_id":"cebpf4jnsgd1na2vs0mg"},{"bike_id":"9b9b7fd9-83ca-4ded-b18c-9f01bb3e35cf","system_id":"levelo_inurba_marseille","lat":43.29862,"lon":5.36273,"is_reserved":false,"is_disabled":false,"rental_uris":{"android":"levelo://app?vid=9b9b7fd9-83ca-4ded-b18c-9f01bb3e35cf","ios":"levelo://app?vid=9b9b7fd9-83ca-4ded-b18c-9f01bb3e35cf"},"vehicle_type_id":"4","last_reported":1748611401,"current_range_meters":11600,"station_id":"ce4bgpp2rcd13ifvqc3g","pricing_plan_id":"cebpf4jnsgd1na2vs0mg"},{"bike_id":"f67c0dea-1fe5-4948-9215-8f57b4153744","system_id":"levelo_inurba_marseille","lat":43.28411,"lon":5.34995,"is_reserved":false,"is_disabled":false,"rental_uris":{"android":"levelo://app?vid=f67c0dea-1fe5-4948-9215-8f57b4153744","ios":"levelo://app?vid=f67c0dea-1fe5-4948-9215-8f57b4153744"},"vehicle_type_id":"4","last_reported":1748611401,"current_range_meters":11600,"station_id":"ce4bhbh2rcd13ifvqepg","pricing_plan_id":"cebpf4jnsgd1na2vs0mg"},{"bike_id":"abb8e33b-e663-4a8b-88d2-b0e186bde40e","system_id":"levelo_inurba_marseille","lat":43.259326,"lon":5.408994,"is_reserved":false,"is_disabled":false,"rental_uris":{"android":"levelo://app?vid=abb8e33b-e663-4a8b-88d2-b0e186bde40e","ios":"levelo://app?vid=abb8e33b-e663-4a8b-88d2-b0e186bde40e"},"vehicle_type_id":"4","last_reported":1748611401,"current_range_meters":11600,"station_id":"ce4bhm92rcd13ifvqglg","pricing_plan_id":"cebpf4jnsgd1na2vs0mg"},{"bike_id":"7243d7c8-02f5-4392-89cf-8c360e846d55","system_id":"levelo_inurba_marseille","lat":43.252754,"lon":5.378299,"is_reserved":false,"is_disabled":false,"rental_uris":{"android":"levelo://app?vid=7243d7c8-02f5-4392-89cf-8c360e846d55","ios":"levelo://app?vid=7243d7c8-02f5-4392-89cf-8c360e846d55"},"vehicle_type_id":"4","last_reported":1748611401,"current_range_meters":12000,"station_id":"","pricing_plan_id":"cebpf4jnsgd1na2vs0mg"},{"bike_id":"21772de4-4f68-4c18-8804-63f113a5a30f","system_id":"levelo_inurba_marseille","lat":43.29268,"lon":5.38437,"is_reserved":false,"is_disabled":false,"rental_uris":{"android":"levelo://app?vid=21772de4-4f68-4c18-8804-63f113a5a30f","ios":"levelo://app?vid=21772de4-4f68-4c18-8804-63f113a5a30f"},"vehicle_type_id":"4","last_reported":1748611401,"current_range_meters":12000,"station_id":"ce4bh692rcd13ifvqea0","pricing_plan_id":"cebpf4jnsgd1na2vs0mg"},{"bike_id":"aa37f21b-4079-46bb-946b-4c91c73d1ce0","system_id":"levelo_inurba_marseille","lat":43.290039,"lon":5.356157,"is_reserved":false,"is_disabled":false,"rental_uris":{"android":"levelo://app?vid=aa37f21b-4079-46bb-946b-4c91c73d1ce0","ios":"levelo://app?vid=aa37f21b-4079-46bb-946b-4c91c73d1ce0"},"vehicle_type_id":"4","last_reported":1748611401,"current_range_meters":12000,"station_id":"ce4bhb92rcd13ifvqen0","pricing_plan_id":"cebpf4jnsgd1na2vs0mg"},{"bike_id":"dfd668b9-05ce-4b7b-a10a-73d7e20b9c94","system_id":"levelo_inurba_marseille","lat":43.279946,"lon":5.400142,"is_reserved":false,"is_disabled":false,"rental_uris":{"android":"levelo://app?vid=dfd668b9-05ce-4b7b-a10a-73d7e20b9c94","ios":"levelo://app?vid=dfd668b9-05ce-4b7b-a10a-73d7e20b9c94"},"vehicle_type_id":"4","last_reported":1748611401,"current_range_meters":12000,"station_id":"ce4bho92rcd13ifvqh4g","pricing_plan_id":"cebpf4jnsgd1na2vs0mg"},{"bike_id":"ae040f14-0cd4-4d3d-af1f-f247fcaf0f54","system_id":"levelo_inurba_marseille","lat":43.29586,"lon":5.36741,"is_reserved":false,"is_disabled":false,"rental_uris":{"android":"levelo://app?vid=ae040f14-0cd4-4d3d-af1f-f247fcaf0f54","ios":"levelo://app?vid=ae040f14-0cd4-4d3d-af1f-f247fcaf0f54"},"vehicle_type_id":"4","last_reported":1748611401,"current_range_meters":12400,"station_id":"ce4bgph2rcd13ifvqc2g","pricing_plan_id":"cebpf4jnsgd1na2vs0mg"},{"bike_id":"a8babbae-4230-42fa-b018-7e86784abf81","system_id":"levelo_inurba_marseille","lat":43.27377,"lon":5.3626,"is_reserved":false,"is_disabled":false,"rental_uris":{"android":"levelo://app?vid=a8babbae-4230-42fa-b018-7e86784abf81","ios":"levelo://app?vid=a8babbae-4230-42fa-b018-7e86784abf81"},"vehicle_type_id":"4","last_reported":1748611401,"current_range_meters":12400,"station_id":"ce4bhbh2rcd13ifvqeo0","pricing_plan_id":"cebpf4jnsgd1na2vs0mg"},{"bike_id":"8ef93db9-18da-4676-8c38-0d8244ad7fe8","system_id":"levelo_inurba_marseille","lat":43.27378,"lon":5.36257,"is_reserved":false,"is_disabled":false,"rental_uris":{"android":"levelo://app?vid=8ef93db9-18da-4676-8c38-0d8244ad7fe8","ios":"levelo://app?vid=8ef93db9-18da-4676-8c38-0d8244ad7fe8"},"vehicle_type_id":"4","last_reported":1748611401,"current_range_meters":12400,"station_id":"ce4bhbh2rcd13ifvqeo0","pricing_plan_id":"cebpf4jnsgd1na2vs0mg"},{"bike_id":"529137a1-0fec-4a4c-bbe8-03949b5f4bac","system_id":"levelo_inurba_marseille","lat":43.28406,"lon":5.34976,"is_reserved":false,"is_disabled":false,"rental_uris":{"android":"levelo://app?vid=529137a1-0fec-4a4c-bbe8-03949b5f4bac","ios":"levelo://app?vid=529137a1-0fec-4a4c-bbe8-03949b5f4bac"},"vehicle_type_id":"4","last_reported":1748611401,"current_range_meters":12400,"station_id":"ce4bhbh2rcd13ifvqepg","pricing_plan_id":"cebpf4jnsgd1na2vs0mg"},{"bike_id":"251b376d-12c6-4d2b-9389-376fcda55c7f","system_id":"levelo_inurba_marseille","lat":43.28413,"lon":5.34974,"is_reserved":false,"is_disabled":false,"rental_uris":{"android":"levelo://app?vid=251b376d-12c6-4d2b-9389-376fcda55c7f","ios":"levelo://app?vid=251b376d-12c6-4d2b-9389-376fcda55c7f"},"vehicle_type_id":"4","last_reported":1748611401,"current_range_meters":12400,"station_id":"ce4bhbh2rcd13ifvqepg","pricing_plan_id":"cebpf4jnsgd1na2vs0mg"},{"bike_id":"c5955212-23b9-47a9-8fed-0e2d976ea049","system_id":"levelo_inurba_marseille","lat":43.26572,"lon":5.37321,"is_reserved":false,"is_disabled":false,"rental_uris":{"android":"levelo://app?vid=c5955212-23b9-47a9-8fed-0e2d976ea049","ios":"levelo://app?vid=c5955212-23b9-47a9-8fed-0e2d976ea049"},"vehicle_type_id":"4","last_reported":1748611401,"current_range_meters":12400,"station_id":"ce4bhg12rcd13ifvqf70","pricing_plan_id":"cebpf4jnsgd1na2vs0mg"},{"bike_id":"376e3220-304c-4620-9a1d-a8a356335e66","system_id":"levelo_inurba_marseille","lat":43.24811,"lon":5.37478,"is_reserved":false,"is_disabled":false,"rental_uris":{"android":"levelo://app?vid=376e3220-304c-4620-9a1d-a8a356335e66","ios":"levelo://app?vid=376e3220-304c-4620-9a1d-a8a356335e66"},"vehicle_type_id":"4","last_reported":1748611401,"current_range_meters":12400,"station_id":"ce4bhgh2rcd13ifvqfb0","pricing_plan_id":"cebpf4jnsgd1na2vs0mg"},{"bike_id":"d51d1b55-e49b-4aab-b17a-941d1955bf76","system_id":"levelo_inurba_marseille","lat":43.26207,"lon":5.37448,"is_reserved":false,"is_disabled":false,"rental_uris":{"android":"levelo://app?vid=d51d1b55-e49b-4aab-b17a-941d1955bf76","ios":"levelo://app?vid=d51d1b55-e49b-4aab-b17a-941d1955bf76"},"vehicle_type_id":"4","last_reported":1748611401,"current_range_meters":12400,"station_id":"ce4bhgp2rcd13ifvqfc0","pricing_plan_id":"cebpf4jnsgd1na2vs0mg"},{"bike_id":"81929695-c996-4344-b136-61f971835187","system_id":"levelo_inurba_marseille","lat":43.26221,"lon":5.37469,"is_reserved":false,"is_disabled":false,"rental_uris":{"android":"levelo://app?vid=81929695-c996-4344-b136-61f971835187","ios":"levelo://app?vid=81929695-c996-4344-b136-61f971835187"},"vehicle_type_id":"4","last_reported":1748611401,"current_range_meters":12400,"station_id":"ce4bhgp2rcd13ifvqfc0","pricing_plan_id":"cebpf4jnsgd1na2vs0mg"},{"bike_id":"abfb2785-3525-4a1d-9239-639c76e6692d","system_id":"levelo_inurba_marseille","lat":43.2293,"lon":5.3537,"is_reserved":false,"is_disabled":false,"rental_uris":{"android":"levelo://app?vid=abfb2785-3525-4a1d-9239-639c76e6692d","ios":"levelo://app?vid=abfb2785-3525-4a1d-9239-639c76e6692d"},"vehicle_type_id":"4","last_reported":1748611401,"current_range_meters":12400,"station_id":"cpo3532slgdg3j2ikp40","pricing_plan_id":"cebpf4jnsgd1na2vs0mg"},{"bike_id":"990df701-79a7-41ec-b963-3693dc590a87","system_id":"levelo_inurba_marseille","lat":43.30211,"lon":5.37906,"is_reserved":false,"is_disabled":false,"rental_uris":{"android":"levelo://app?vid=990df701-79a7-41ec-b963-3693dc590a87","ios":"levelo://app?vid=990df701-79a7-41ec-b963-3693dc590a87"},"vehicle_type_id":"4","last_reported":1748611401,"current_range_meters":12800,"station_id":"","pricing_plan_id":"cebpf4jnsgd1na2vs0mg"},{"bike_id":"1b4baf80-e71a-4d81-a05c-f59a75670d6f","system_id":"levelo_inurba_marseille","lat":43.27617,"lon":5.36116,"is_reserved":false,"is_disabled":false,"rental_uris":{"android":"levelo://app?vid=1b4baf80-e71a-4d81-a05c-f59a75670d6f","ios":"levelo://app?vid=1b4baf80-e71a-4d81-a05c-f59a75670d6f"},"vehicle_type_id":"4","last_reported":1748611401,"current_range_meters":12800,"station_id":"ce4bgj92rcd13ifvqbe0","pricing_plan_id":"cebpf4jnsgd1na2vs0mg"},{"bike_id":"61c15026-a867-42fb-b7d6-64b6c88157e9","system_id":"levelo_inurba_marseille","lat":43.299652,"lon":5.371731,"is_reserved":false,"is_disabled":false,"rental_uris":{"android":"levelo://app?vid=61c15026-a867-42fb-b7d6-64b6c88157e9","ios":"levelo://app?vid=61c15026-a867-42fb-b7d6-64b6c88157e9"},"vehicle_type_id":"4","last_reported":1748611401,"current_range_meters":12800,"station_id":"ce4bgr92rcd13ifvqc7g","pricing_plan_id":"cebpf4jnsgd1na2vs0mg"},{"bike_id":"ecd5d1eb-d4a9-49b2-b106-124fd1ed6822","system_id":"levelo_inurba_marseille","lat":43.31329,"lon":5.37514,"is_reserved":false,"is_disabled":false,"rental_uris":{"android":"levelo://app?vid=ecd5d1eb-d4a9-49b2-b106-124fd1ed6822","ios":"levelo://app?vid=ecd5d1eb-d4a9-49b2-b106-124fd1ed6822"},"vehicle_type_id":"4","last_reported":1748611401,"current_range_meters":12800,"station_id":"ce4bgt12rcd13ifvqcd0","pricing_plan_id":"cebpf4jnsgd1na2vs0mg"},{"bike_id":"8faea632-a2d0-4c48-8d08-462347233efa","system_id":"levelo_inurba_marseille","lat":43.30766,"lon":5.37653,"is_reserved":false,"is_disabled":false,"rental_uris":{"android":"levelo://app?vid=8faea632-a2d0-4c48-8d08-462347233efa","ios":"levelo://app?vid=8faea632-a2d0-4c48-8d08-462347233efa"},"vehicle_type_id":"4","last_reported":1748611401,"current_range_meters":12800,"station_id":"ce4bgv92rcd13ifvqcq0","pricing_plan_id":"cebpf4jnsgd1na2vs0mg"},{"bike_id":"9ca33b72-6fa5-4b89-8922-37121f9ed197","system_id":"levelo_inurba_marseille","lat":43.28479,"lon":5.38429,"is_reserved":false,"is_disabled":false,"rental_uris":{"android":"levelo://app?vid=9ca33b72-6fa5-4b89-8922-37121f9ed197","ios":"levelo://app?vid=9ca33b72-6fa5-4b89-8922-37121f9ed197"},"vehicle_type_id":"4","last_reported":1748611401,"current_range_meters":12800,"station_id":"ce4bh512rcd13ifvqe3g","pricing_plan_id":"cebpf4jnsgd1na2vs0mg"},{"bike_id":"9af03606-090e-46b5-878a-c9029c380453","system_id":"levelo_inurba_marseille","lat":43.28936,"lon":5.36644,"is_reserved":false,"is_disabled":false,"rental_uris":{"android":"levelo://app?vid=9af03606-090e-46b5-878a-c9029c380453","ios":"levelo://app?vid=9af03606-090e-46b5-878a-c9029c380453"},"vehicle_type_id":"4","last_reported":1748611401,"current_range_meters":12800,"station_id":"ce4bhap2rcd13ifvqek0","pricing_plan_id":"cebpf4jnsgd1na2vs0mg"},{"bike_id":"020d01e0-24d9-4551-a03d-4c28bdf4ea75","system_id":"levelo_inurba_marseille","lat":43.29009,"lon":5.35602,"is_reserved":false,"is_disabled":false,"rental_uris":{"android":"levelo://app?vid=020d01e0-24d9-4551-a03d-4c28bdf4ea75","ios":"levelo://app?vid=020d01e0-24d9-4551-a03d-4c28bdf4ea75"},"vehicle_type_id":"4","last_reported":1748611401,"current_range_meters":12800,"station_id":"ce4bhb92rcd13ifvqen0","pricing_plan_id":"cebpf4jnsgd1na2vs0mg"},{"bike_id":"85f488b5-f2d1-453d-9f13-38f4bd13329e","system_id":"levelo_inurba_marseille","lat":43.229291,"lon":5.353809,"is_reserved":false,"is_disabled":false,"rental_uris":{"android":"levelo://app?vid=85f488b5-f2d1-453d-9f13-38f4bd13329e","ios":"levelo://app?vid=85f488b5-f2d1-453d-9f13-38f4bd13329e"},"vehicle_type_id":"4","last_reported":1748611401,"current_range_meters":12800,"station_id":"cpo3532slgdg3j2ikp40","pricing_plan_id":"cebpf4jnsgd1na2vs0mg"},{"bike_id":"185ef902-b976-4dcb-adc5-16bcf1fbe96f","system_id":"levelo_inurba_marseille","lat":43.229333,"lon":5.353733,"is_reserved":false,"is_disabled":false,"rental_uris":{"android":"levelo://app?vid=185ef902-b976-4dcb-adc5-16bcf1fbe96f","ios":"levelo://app?vid=185ef902-b976-4dcb-adc5-16bcf1fbe96f"},"vehicle_type_id":"4","last_reported":1748611401,"current_range_meters":12800,"station_id":"cpo3532slgdg3j2ikp40","pricing_plan_id":"cebpf4jnsgd1na2vs0mg"},{"bike_id":"e2323763-e8bc-4c18-8623-deb9c58bfd9b","system_id":"levelo_inurba_marseille","lat":43.24169,"lon":5.36396,"is_reserved":false,"is_disabled":false,"rental_uris":{"android":"levelo://app?vid=e2323763-e8bc-4c18-8623-deb9c58bfd9b","ios":"levelo://app?vid=e2323763-e8bc-4c18-8623-deb9c58bfd9b"},"vehicle_type_id":"4","last_reported":1748611401,"current_range_meters":12800,"station_id":"cpo36qri1sfpv3e86is0","pricing_plan_id":"cebpf4jnsgd1na2vs0mg"},{"bike_id":"dfe8fe35-d227-47d8-ac09-653652305ce4","system_id":"levelo_inurba_marseille","lat":43.21742,"lon":5.34617,"is_reserved":false,"is_disabled":false,"rental_uris":{"android":"levelo://app?vid=dfe8fe35-d227-47d8-ac09-653652305ce4","ios":"levelo://app?vid=dfe8fe35-d227-47d8-ac09-653652305ce4"},"vehicle_type_id":"4","last_reported":1748611401,"current_range_meters":12800,"station_id":"st_cvj6r9ubvosntc0bgbag","pricing_plan_id":"cebpf4jnsgd1na2vs0mg"},{"bike_id":"97752aff-9cf9-4d42-b9a7-1864fd20607a","system_id":"levelo_inurba_marseille","lat":43.2998,"lon":5.385,"is_reserved":false,"is_disabled":false,"rental_uris":{"android":"levelo://app?vid=97752aff-9cf9-4d42-b9a7-1864fd20607a","ios":"levelo://app?vid=97752aff-9cf9-4d42-b9a7-1864fd20607a"},"vehicle_type_id":"4","last_reported":1748611401,"current_range_meters":13600,"station_id":"ce4bgj92rcd13ifvqbd0","pricing_plan_id":"cebpf4jnsgd1na2vs0mg"},{"bike_id":"c8049e62-4841-4f66-a6eb-2e29fbbf8509","system_id":"levelo_inurba_marseille","lat":43.2848,"lon":5.38406,"is_reserved":false,"is_disabled":false,"rental_uris":{"android":"levelo://app?vid=c8049e62-4841-4f66-a6eb-2e29fbbf8509","ios":"levelo://app?vid=c8049e62-4841-4f66-a6eb-2e29fbbf8509"},"vehicle_type_id":"4","last_reported":1748611401,"current_range_meters":13600,"station_id":"ce4bh512rcd13ifvqe3g","pricing_plan_id":"cebpf4jnsgd1na2vs0mg"},{"bike_id":"a4dcd63c-212a-4d34-8feb-4220e4ed3774","system_id":"levelo_inurba_marseille","lat":43.28407,"lon":5.35001,"is_reserved":false,"is_disabled":false,"rental_uris":{"android":"levelo://app?vid=a4dcd63c-212a-4d34-8feb-4220e4ed3774","ios":"levelo://app?vid=a4dcd63c-212a-4d34-8feb-4220e4ed3774"},"vehicle_type_id":"4","last_reported":1748611401,"current_range_meters":13600,"station_id":"ce4bhbh2rcd13ifvqepg","pricing_plan_id":"cebpf4jnsgd1na2vs0mg"},{"bike_id":"bac667cf-137e-4ea7-b037-7ebd6a2ad77c","system_id":"levelo_inurba_marseille","lat":43.282515,"lon":5.350989,"is_reserved":false,"is_disabled":false,"rental_uris":{"android":"levelo://app?vid=bac667cf-137e-4ea7-b037-7ebd6a2ad77c","ios":"levelo://app?vid=bac667cf-137e-4ea7-b037-7ebd6a2ad77c"},"vehicle_type_id":"4","last_reported":1748611401,"current_range_meters":13600,"station_id":"ce4bhbp2rcd13ifvqerg","pricing_plan_id":"cebpf4jnsgd1na2vs0mg"},{"bike_id":"9b0f4c5d-d1f3-4a91-a0b0-9b7524c26b19","system_id":"levelo_inurba_marseille","lat":43.24651,"lon":5.38892,"is_reserved":false,"is_disabled":false,"rental_uris":{"android":"levelo://app?vid=9b0f4c5d-d1f3-4a91-a0b0-9b7524c26b19","ios":"levelo://app?vid=9b0f4c5d-d1f3-4a91-a0b0-9b7524c26b19"},"vehicle_type_id":"4","last_reported":1748611401,"current_range_meters":13600,"station_id":"ce4bhg12rcd13ifvqf60","pricing_plan_id":"cebpf4jnsgd1na2vs0mg"},{"bike_id":"5afd64a8-7bd8-4fd6-8fe7-328cf9079bbe","system_id":"levelo_inurba_marseille","lat":43.26804,"lon":5.40266,"is_reserved":false,"is_disabled":false,"rental_uris":{"android":"levelo://app?vid=5afd64a8-7bd8-4fd6-8fe7-328cf9079bbe","ios":"levelo://app?vid=5afd64a8-7bd8-4fd6-8fe7-328cf9079bbe"},"vehicle_type_id":"4","last_reported":1748611401,"current_range_meters":13600,"station_id":"ce501612rcd8frsf0b60","pricing_plan_id":"cebpf4jnsgd1na2vs0mg"},{"bike_id":"76b6f719-787f-4365-b708-eef6e7f05ee9","system_id":"levelo_inurba_marseille","lat":43.24166,"lon":5.36393,"is_reserved":false,"is_disabled":false,"rental_uris":{"android":"levelo://app?vid=76b6f719-787f-4365-b708-eef6e7f05ee9","ios":"levelo://app?vid=76b6f719-787f-4365-b708-eef6e7f05ee9"},"vehicle_type_id":"4","last_reported":1748611401,"current_range_meters":13600,"station_id":"cpo36qri1sfpv3e86is0","pricing_plan_id":"cebpf4jnsgd1na2vs0mg"},{"bike_id":"7920e439-3ff5-4641-aa23-192c084545b7","system_id":"levelo_inurba_marseille","lat":43.21744,"lon":5.34606,"is_reserved":false,"is_disabled":false,"rental_uris":{"android":"levelo://app?vid=7920e439-3ff5-4641-aa23-192c084545b7","ios":"levelo://app?vid=7920e439-3ff5-4641-aa23-192c084545b7"},"vehicle_type_id":"4","last_reported":1748611401,"current_range_meters":13600,"station_id":"st_cvj6r9ubvosntc0bgbag","pricing_plan_id":"cebpf4jnsgd1na2vs0mg"},{"bike_id":"950a66c6-0112-4714-a007-202e42172c1f","system_id":"levelo_inurba_marseille","lat":43.24815,"lon":5.37502,"is_reserved":false,"is_disabled":false,"rental_uris":{"android":"levelo://app?vid=950a66c6-0112-4714-a007-202e42172c1f","ios":"levelo://app?vid=950a66c6-0112-4714-a007-202e42172c1f"},"vehicle_type_id":"4","last_reported":1748611401,"current_range_meters":14000,"station_id":"","pricing_plan_id":"cebpf4jnsgd1na2vs0mg"},{"bike_id":"32204e68-d82a-49c1-9816-42bdc5424f7e","system_id":"levelo_inurba_marseille","lat":43.29362,"lon":5.37835,"is_reserved":false,"is_disabled":false,"rental_uris":{"android":"levelo://app?vid=32204e68-d82a-49c1-9816-42bdc5424f7e","ios":"levelo://app?vid=32204e68-d82a-49c1-9816-42bdc5424f7e"},"vehicle_type_id":"4","last_reported":1748611401,"current_range_meters":14000,"station_id":"ce4bgjh2rcd13ifvqbf0","pricing_plan_id":"cebpf4jnsgd1na2vs0mg"},{"bike_id":"c57d422f-8ffb-4f53-bcb4-7884d1d47c9b","system_id":"levelo_inurba_marseille","lat":43.29272,"lon":5.368476,"is_reserved":false,"is_disabled":false,"rental_uris":{"android":"levelo://app?vid=c57d422f-8ffb-4f53-bcb4-7884d1d47c9b","ios":"levelo://app?vid=c57d422f-8ffb-4f53-bcb4-7884d1d47c9b"},"vehicle_type_id":"4","last_reported":1748611401,"current_range_meters":14000,"station_id":"ce4bhbp2rcd13ifvqesg","pricing_plan_id":"cebpf4jnsgd1na2vs0mg"},{"bike_id":"9c8f2851-b94a-491b-9cb6-2e6f5d4c91c2","system_id":"levelo_inurba_marseille","lat":43.26211,"lon":5.37463,"is_reserved":false,"is_disabled":false,"rental_uris":{"android":"levelo://app?vid=9c8f2851-b94a-491b-9cb6-2e6f5d4c91c2","ios":"levelo://app?vid=9c8f2851-b94a-491b-9cb6-2e6f5d4c91c2"},"vehicle_type_id":"4","last_reported":1748611401,"current_range_meters":14000,"station_id":"ce4bhgp2rcd13ifvqfc0","pricing_plan_id":"cebpf4jnsgd1na2vs0mg"},{"bike_id":"3a019ff1-9ef1-4afb-b0b6-39b68b680f14","system_id":"levelo_inurba_marseille","lat":43.24389,"lon":5.37058,"is_reserved":false,"is_disabled":false,"rental_uris":{"android":"levelo://app?vid=3a019ff1-9ef1-4afb-b0b6-39b68b680f14","ios":"levelo://app?vid=3a019ff1-9ef1-4afb-b0b6-39b68b680f14"},"vehicle_type_id":"4","last_reported":1748611401,"current_range_meters":14000,"station_id":"ce4bhhh2rcd13ifvqfk0","pricing_plan_id":"cebpf4jnsgd1na2vs0mg"},{"bike_id":"a880c703-54c6-4c7f-a753-2af950420730","system_id":"levelo_inurba_marseille","lat":43.22498,"lon":5.34778,"is_reserved":false,"is_disabled":false,"rental_uris":{"android":"levelo://app?vid=a880c703-54c6-4c7f-a753-2af950420730","ios":"levelo://app?vid=a880c703-54c6-4c7f-a753-2af950420730"},"vehicle_type_id":"4","last_reported":1748611401,"current_range_meters":14000,"station_id":"st_cvj5dfep6f1abm77gieg","pricing_plan_id":"cebpf4jnsgd1na2vs0mg"},{"bike_id":"c5920169-3583-4c5e-acb5-6aee94a72b98","system_id":"levelo_inurba_marseille","lat":43.2119,"lon":5.35068,"is_reserved":false,"is_disabled":false,"rental_uris":{"android":"levelo://app?vid=c5920169-3583-4c5e-acb5-6aee94a72b98","ios":"levelo://app?vid=c5920169-3583-4c5e-acb5-6aee94a72b98"},"vehicle_type_id":"4","last_reported":1748611401,"current_range_meters":14000,"station_id":"st_cvj6sg6p6f1abm77japg","pricing_plan_id":"cebpf4jnsgd1na2vs0mg"},{"bike_id":"dd34afa2-f665-4263-85a8-7de7dbd3a196","system_id":"levelo_inurba_marseille","lat":43.27596,"lon":5.39713,"is_reserved":false,"is_disabled":false,"rental_uris":{"android":"levelo://app?vid=dd34afa2-f665-4263-85a8-7de7dbd3a196","ios":"levelo://app?vid=dd34afa2-f665-4263-85a8-7de7dbd3a196"},"vehicle_type_id":"4","last_reported":1748611401,"current_range_meters":14400,"station_id":"","pricing_plan_id":"cebpf4jnsgd1na2vs0mg"},{"bike_id":"b18036e4-cdbb-441f-a4f1-99c9cdbece34","system_id":"levelo_inurba_marseille","lat":43.29532,"lon":5.39111,"is_reserved":false,"is_disabled":false,"rental_uris":{"android":"levelo://app?vid=b18036e4-cdbb-441f-a4f1-99c9cdbece34","ios":"levelo://app?vid=b18036e4-cdbb-441f-a4f1-99c9cdbece34"},"vehicle_type_id":"4","last_reported":1748611401,"current_range_meters":14400,"station_id":"","pricing_plan_id":"cebpf4jnsgd1na2vs0mg"},{"bike_id":"6a75803f-2996-4ea4-ac8d-32aa13db2118","system_id":"levelo_inurba_marseille","lat":43.289362,"lon":5.396226,"is_reserved":false,"is_disabled":false,"rental_uris":{"android":"levelo://app?vid=6a75803f-2996-4ea4-ac8d-32aa13db2118","ios":"levelo://app?vid=6a75803f-2996-4ea4-ac8d-32aa13db2118"},"vehicle_type_id":"4","last_reported":1748611401,"current_range_meters":14400,"station_id":"ce4bh3h2rcd13ifvqdn0","pricing_plan_id":"cebpf4jnsgd1na2vs0mg"},{"bike_id":"d1a84cf1-b123-4563-b9fd-b39f223c2e3e","system_id":"levelo_inurba_marseille","lat":43.26568,"lon":5.39009,"is_reserved":false,"is_disabled":false,"rental_uris":{"android":"levelo://app?vid=d1a84cf1-b123-4563-b9fd-b39f223c2e3e","ios":"levelo://app?vid=d1a84cf1-b123-4563-b9fd-b39f223c2e3e"},"vehicle_type_id":"4","last_reported":1748611401,"current_range_meters":14400,"station_id":"ce4bhe12rcd13ifvqf30","pricing_plan_id":"cebpf4jnsgd1na2vs0mg"},{"bike_id":"31eafd4f-c771-4795-9fcf-9a1173682c94","system_id":"levelo_inurba_marseille","lat":43.24812,"lon":5.37458,"is_reserved":false,"is_disabled":false,"rental_uris":{"android":"levelo://app?vid=31eafd4f-c771-4795-9fcf-9a1173682c94","ios":"levelo://app?vid=31eafd4f-c771-4795-9fcf-9a1173682c94"},"vehicle_type_id":"4","last_reported":1748611401,"current_range_meters":14400,"station_id":"ce4bhgh2rcd13ifvqfb0","pricing_plan_id":"cebpf4jnsgd1na2vs0mg"},{"bike_id":"caed8174-199f-47b2-a36a-d066cb3c05d1","system_id":"levelo_inurba_marseille","lat":43.26211,"lon":5.37453,"is_reserved":false,"is_disabled":false,"rental_uris":{"android":"levelo://app?vid=caed8174-199f-47b2-a36a-d066cb3c05d1","ios":"levelo://app?vid=caed8174-199f-47b2-a36a-d066cb3c05d1"},"vehicle_type_id":"4","last_reported":1748611401,"current_range_meters":14400,"station_id":"ce4bhgp2rcd13ifvqfc0","pricing_plan_id":"cebpf4jnsgd1na2vs0mg"},{"bike_id":"67a6560c-83dc-490e-9fc7-f17e3d931afd","system_id":"levelo_inurba_marseille","lat":43.24164,"lon":5.36412,"is_reserved":false,"is_disabled":false,"rental_uris":{"android":"levelo://app?vid=67a6560c-83dc-490e-9fc7-f17e3d931afd","ios":"levelo://app?vid=67a6560c-83dc-490e-9fc7-f17e3d931afd"},"vehicle_type_id":"4","last_reported":1748611401,"current_range_meters":14400,"station_id":"cpo36qri1sfpv3e86is0","pricing_plan_id":"cebpf4jnsgd1na2vs0mg"},{"bike_id":"d6d1ada7-d095-4848-a9c7-71d520f6d868","system_id":"levelo_inurba_marseille","lat":43.299666,"lon":5.384894,"is_reserved":false,"is_disabled":false,"rental_uris":{"android":"levelo://app?vid=d6d1ada7-d095-4848-a9c7-71d520f6d868","ios":"levelo://app?vid=d6d1ada7-d095-4848-a9c7-71d520f6d868"},"vehicle_type_id":"4","last_reported":1748611401,"current_range_meters":14800,"station_id":"","pricing_plan_id":"cebpf4jnsgd1na2vs0mg"},{"bike_id":"be46b420-155f-4b86-be1d-0b2e41e991a3","system_id":"levelo_inurba_marseille","lat":43.30185,"lon":5.36619,"is_reserved":false,"is_disabled":false,"rental_uris":{"android":"levelo://app?vid=be46b420-155f-4b86-be1d-0b2e41e991a3","ios":"levelo://app?vid=be46b420-155f-4b86-be1d-0b2e41e991a3"},"vehicle_type_id":"4","last_reported":1748611401,"current_range_meters":14800,"station_id":"ce4bgrh2rcd13ifvqc8g","pricing_plan_id":"cebpf4jnsgd1na2vs0mg"},{"bike_id":"f42fa997-d73f-4f23-b76a-1a92df7f1eb3","system_id":"levelo_inurba_marseille","lat":43.25001,"lon":5.38919,"is_reserved":false,"is_disabled":false,"rental_uris":{"android":"levelo://app?vid=f42fa997-d73f-4f23-b76a-1a92df7f1eb3","ios":"levelo://app?vid=f42fa997-d73f-4f23-b76a-1a92df7f1eb3"},"vehicle_type_id":"4","last_reported":1748611401,"current_range_meters":14800,"station_id":"ce4bhgp2rcd13ifvqfd0","pricing_plan_id":"cebpf4jnsgd1na2vs0mg"},{"bike_id":"d544d600-9751-413e-8e27-2dd1341aa004","system_id":"levelo_inurba_marseille","lat":43.28004,"lon":5.40011,"is_reserved":false,"is_disabled":false,"rental_uris":{"android":"levelo://app?vid=d544d600-9751-413e-8e27-2dd1341aa004","ios":"levelo://app?vid=d544d600-9751-413e-8e27-2dd1341aa004"},"vehicle_type_id":"4","last_reported":1748611401,"current_range_meters":14800,"station_id":"ce4bho92rcd13ifvqh4g","pricing_plan_id":"cebpf4jnsgd1na2vs0mg"},{"bike_id":"804c1e9d-d315-46e9-9f3f-dfb10605c47f","system_id":"levelo_inurba_marseille","lat":43.29003,"lon":5.35618,"is_reserved":false,"is_disabled":false,"rental_uris":{"android":"levelo://app?vid=804c1e9d-d315-46e9-9f3f-dfb10605c47f","ios":"levelo://app?vid=804c1e9d-d315-46e9-9f3f-dfb10605c47f"},"vehicle_type_id":"4","last_reported":1748611401,"current_range_meters":15200,"station_id":"ce4bhb92rcd13ifvqen0","pricing_plan_id":"cebpf4jnsgd1na2vs0mg"},{"bike_id":"18a92080-c5c7-426c-a7d0-2bf1592f2888","system_id":"levelo_inurba_marseille","lat":43.28281,"lon":5.35074,"is_reserved":false,"is_disabled":false,"rental_uris":{"android":"levelo://app?vid=18a92080-c5c7-426c-a7d0-2bf1592f2888","ios":"levelo://app?vid=18a92080-c5c7-426c-a7d0-2bf1592f2888"},"vehicle_type_id":"4","last_reported":1748611401,"current_range_meters":15200,"station_id":"ce4bhbp2rcd13ifvqerg","pricing_plan_id":"cebpf4jnsgd1na2vs0mg"},{"bike_id":"e5f17177-5446-4000-ac93-41ada14f33cb","system_id":"levelo_inurba_marseille","lat":43.32446,"lon":5.36587,"is_reserved":false,"is_disabled":false,"rental_uris":{"android":"levelo://app?vid=e5f17177-5446-4000-ac93-41ada14f33cb","ios":"levelo://app?vid=e5f17177-5446-4000-ac93-41ada14f33cb"},"vehicle_type_id":"4","last_reported":1748611401,"current_range_meters":15200,"station_id":"ce4bhs12rcd13ifvqhvg","pricing_plan_id":"cebpf4jnsgd1na2vs0mg"},