{"last_updated":1761826873,"ttl":60,"version":"2.2","data":{"bikes":[{"bike_id":"aacc01e3-6d9f-491a-b1ed-d10f639e29e2","system_id":"levelo_inurba_marseille","lat":43.337444,"lon":5.374475,"is_reserved":false,"is_disabled":false,"rental_uris":{"android":"levelo://app?vid=aacc01e3-6d9f-491a-b1ed-d10f639e29e2","ios":"levelo://app?vid=aacc01e3-6d9f-491a-b1ed-d10f639e29e2"},"vehicle_type_id":"4","last_reported":1761826873,"current_range_meters":0,"station_id":"","pricing_plan_id":"cebpf4jnsgd1na2vs0mg"},{"bike_id":"35ef2eb9-fe09-4124-a7ab-f792dcbd6ddc","system_id":"levelo_inurba_marseille","lat":43.337444,"lon":5.374475,"is_reserved":false,"is_disabled":false,"rental_uris":{"android":"levelo://app?vid=35ef2eb9-fe09-4124-a7ab-f792dcbd6ddc","ios":"levelo://app?vid=35ef2eb9-fe09-4124-a7ab-f792dcbd6ddc"},"vehicle_type_id":"4","last_reported":1761826873,"current_range_meters":0,"station_id":"","pricing_plan_id":"cebpf4jnsgd1na2vs0mg"},{"bike_id":"49ddb7e7-127c-434c-8992-2e05f2e3428d","system_id":"levelo_inurba_marseille","lat":43.337444,"lon":5.374475,"is_reserved":false,"is_disabled":false,"rental_uris":{"android":"levelo://app?vid=49ddb7e7-127c-434c-8992-2e05f2e3428d","ios":"levelo://app?vid=49ddb7e7-127c-434c-8992-2e05f2e3428d"},"vehicle_type_id":"4","last_reported":1761826873,"current_range_meters":0,"station_id":"","pricing_plan_id":"cebpf4jnsgd1na2vs0mg"},{"bike_id":"b3b460c5-2faa-45c2-8fde-7b54e8b4eaf5","system_id":"levelo_inurba_marseille","lat":43.337444,"lon":5.374475,"is_reserved":false,"is_disabled":false,"rental_uris":{"android":"levelo://app?vid=b3b460c5-2faa-45c2-8fde-7b54e8b4eaf5","ios":"levelo://app?vid=b3b460c5-2faa-45c2-8fde-7b54e8b4eaf5"},"vehicle_type_id":"4","last_reported":1761826873,"current_range_meters":0,"station_id":"","pricing_plan_id":"cebpf4jnsgd1na2vs0mg"},{"bike_id":"6b8eeff3-ec31-445f-be43-f1e3ba63fb37","system_id":"levelo_inurba_marseille","lat":43.337416,"lon":5.374586,"is_reserved":false,"is_disabled":false,"rental_uris":{"android":"levelo://app?vid=6b8eeff3-ec31-445f-be43-f1e3ba63fb37","ios":"levelo://app?vid=6b8eeff3-ec31-445f-be43-f1e3ba63fb37"},"vehicle_type_id":"4","last_reported":1761826873,"current_range_meters":0,"station_id":"","pricing_plan_id":"cebpf4jnsgd1na2vs0mg"},{"bike_id":"e0e86d10-d79a-47b9-82ad-a00ae7a62a8a","system_id":"levelo_inurba_marseille","lat":43.337444,"lon":5.374475,"is_reserved":false,"is_disabled":false,"rental_uris":{"android":"levelo://app?vid=e0e86d10-d79a-47b9-82ad-a00ae7a62a8a","ios":"levelo://app?vid=e0e86d10-d79a-47b9-82ad-a00ae7a62a8a"},"vehicle_type_id":"4","last_reported":1761826873,"current_range_meters":0,"station_id":"","pricing_plan_id":"cebpf4jnsgd1na2vs0mg"},{"bike_id":"548f1c45-4f2a-4cfe-b981-5bc1daecb21b","system_id":"levelo_inurba_marseille","lat":43.337444,"lon":5.374475,"is_reserved":false,"is_disabled":false,"rental_uris":{"android":"levelo://app?vid=548f1c45-4f2a-4cfe-b981-5bc1daecb21b","ios":"levelo://app?vid=548f1c45-4f2a-4cfe-b981-5bc1daecb21b"},"vehicle_type_id":"4","last_reported":1761826873,"current_range_meters":0,"station_id":"","pricing_plan_id":"cebpf4jnsgd1na2vs0mg"},{"bike_id":"5260dce0-6ede-4de4-b006-1466527b5fbe","system_id":"levelo_inurba_marseille","lat":43.337444,"lon":5.374475,"is_reserved":false,"is_disabled":false,"rental_uris":{"android":"levelo://app?vid=5260dce0-6ede-4de4-b006-1466527b5fbe","ios":"levelo://app?vid=5260dce0-6ede-4de4-b006-1466527b5fbe"},"vehicle_type_id":"4","last_reported":1761826873,"current_range_meters":0,"station_id":"","pricing_plan_id":"cebpf4jnsgd1na2vs0mg"},{"bike_id":"fb1816a3-8e74-463a-88d2-d6b63cf0a426","system_id":"levelo_inurba_marseille","lat":43.337444,"lon":5.374475,"is_reserved":false,"is_disabled":false,"rental_uris":{"android":"levelo://app?vid=fb1816a3-8e74-463a-88d2-d6b63cf0a426","ios":"levelo://app?vid=fb1816a3-8e74-463a-88d2-d6b63cf0a426"},"vehicle_type_id":"4","last_reported":1761826873,"current_range_meters":0,"station_id":"","pricing_plan_id":"cebpf4jnsgd1na2vs0mg"},{"bike_id":"3c881d8d-608f-4c39-9df3-b2aa54f8afcf","system_id":"levelo_inurba_marseille","lat":43.337444,"lon":5.374475,"is_reserved":false,"is_disabled":false,"rental_uris":{"android":"levelo://app?vid=3c881d8d-608f-4c39-9df3-b2aa54f8afcf","ios":"levelo://app?vid=3c881d8d-608f-4c39-9df3-b2aa54f8afcf"},"vehicle_type_id":"4","last_reported":1761826873,"current_range_meters":0,"station_id":"","pricing_plan_id":"cebpf4jnsgd1na2vs0mg"},{"bike_id":"a26e4937-215f-44d2-a8de-a7d3ec75d32b","system_id":"levelo_inurba_marseille","lat":43.337444,"lon":5.374475,"is_reserved":false,"is_disabled":false,"rental_uris":{"android":"levelo://app?vid=a26e4937-215f-44d2-a8de-a7d3ec75d32b","ios":"levelo://app?vid=a26e4937-215f-44d2-a8de-a7d3ec75d32b"},"vehicle_type_id":"4","last_reported":1761826873,"current_range_meters":0,"station_id":"","pricing_plan_id":"cebpf4jnsgd1na2vs0mg"},{"bike_id":"fadc4e19-b9ad-4402-a5bc-a0eff5c2b634","system_id":"levelo_inurba_marseille","lat":43.337444,"lon":5.374475,"is_reserved":false,"is_disabled":false,"rental_uris":{"android":"levelo://app?vid=fadc4e19-b9ad-4402-a5bc-a0eff5c2b634","ios":"levelo://app?vid=fadc4e19-b9ad-4402-a5bc-a0eff5c2b634"},"vehicle_type_id":"4","last_reported":1761826873,"current_range_meters":0,"station_id":"","pricing_plan_id":"cebpf4jnsgd1na2vs0mg"},{"bike_id":"e294c151-4441-4e4a-a116-13c66dfb9429","system_id":"levelo_inurba_marseille","lat":43.337444,"lon":5.374475,"is_reserved":false,"is_disabled":false,"rental_uris":{"android":"levelo://app?vid=e294c151-4441-4e4a-a116-13c66dfb9429","ios":"levelo://app?vid=e294c151-4441-4e4a-a116-13c66dfb9429"},"vehicle_type_id":"4","last_reported":1761826873,"current_range_meters":0,"station_id":"","pricing_plan_id":"cebpf4jnsgd1na2vs0mg"},{"bike_id":"0baff1cc-f548-40f7-a934-77958566d6a5","system_id":"levelo_inurba_marseille","lat":43.337444,"lon":5.374475,"is_reserved":false,"is_disabled":false,"rental_uris":{"android":"levelo://app?vid=0baff1cc-f548-40f7-a934-77958566d6a5","ios":"levelo://app?vid=0baff1cc-f548-40f7-a934-77958566d6a5"},"vehicle_type_id":"4","last_reported":1761826873,"current_range_meters":0,"station_id":"","pricing_plan_id":"cebpf4jnsgd1na2vs0mg"},{"bike_id":"1310c5d0-e39d-4b9c-84d7-1872f297ff18","system_id":"levelo_inurba_marseille","lat":43.337444,"lon":5.374475,"is_reserved":false,"is_disabled":false,"rental_uris":{"android":"levelo://app?vid=1310c5d0-e39d-4b9c-84d7-1872f297ff18","ios":"levelo://app?vid=1310c5d0-e39d-4b9c-84d7-1872f297ff18"},"vehicle_type_id":"4","last_reported":1761826873,"current_range_meters":0,"station_id":"","pricing_plan_id":"cebpf4jnsgd1na2vs0mg"},{"bike_id":"01eaacf7-8682-4054-bf38-52456d06e6f6","system_id":"levelo_inurba_marseille","lat":43.337444,"lon":5.374475,"is_reserved":false,"is_disabled":false,"rental_uris":{"android":"levelo://app?vid=01eaacf7-8682-4054-bf38-52456d06e6f6","ios":"levelo://app?vid=01eaacf7-8682-4054-bf38-52456d06e6f6"},"vehicle_type_id":"4","last_reported":1761826873,"current_range_meters":0,"station_id":"","pricing_plan_id":"cebpf4jnsgd1na2vs0mg"},{"bike_id":"4dbab57a-b708-409a-b815-3b9a5d92f753","system_id":"levelo_inurba_marseille","lat":43.337444,"lon":5.374475,"is_reserved":false,"is_disabled":false,"rental_uris":{"android":"levelo://app?vid=4dbab57a-b708-409a-b815-3b9a5d92f753","ios":"levelo://app?vid=4dbab57a-b708-409a-b815-3b9a5d92f753"},"vehicle_type_id":"4","last_reported":1761826873,"current_range_meters":0,"station_id":"","pricing_plan_id":"cebpf4jnsgd1na2vs0mg"},{"bike_id":"00f1260a-63f9-4663-ac1e-51258f9213bd","system_id":"levelo_inurba_marseille","lat":43.337444,"lon":5.374475,"is_reserved":false,"is_disabled":false,"rental_uris":{"android":"levelo://app?vid=00f1260a-63f9-4663-ac1e-51258f9213bd","ios":"levelo://app?vid=00f1260a-63f9-4663-ac1e-51258f9213bd"},"vehicle_type_id":"4","last_reported":1761826873,"current_range_meters":0,"station_id":"","pricing_plan_id":"cebpf4jnsgd1na2vs0mg"},{"bike_id":"50aa746e-d71a-437c-bb7a-ed648a03f81b","system_id":"levelo_inurba_marseille","lat":43.337444,"lon":5.374475,"is_reserved":false,"is_disabled":false,"rental_uris":{"android":"levelo://app?vid=50aa746e-d71a-437c-bb7a-ed648a03f81b","ios":"levelo://app?vid=50aa746e-d71a-437c-bb7a-ed648a03f81b"},"vehicle_type_id":"4","last_reported":1761826873,"current_range_meters":0,"station_id":"","pricing_plan_id":"cebpf4jnsgd1na2vs0mg"},{"bike_id":"3e68cf6e-17b6-46f5-8b08-d049449e0ca4","system_id":"levelo_inurba_marseille","lat":43.337444,"lon":5.374475,"is_reserved":false,"is_disabled":false,"rental_uris":{"android":"levelo://app?vid=3e68cf6e-17b6-46f5-8b08-d049449e0ca4","ios":"levelo://app?vid=3e68cf6e-17b6-46f5-8b08-d049449e0ca4"},"vehicle_type_id":"4","last_reported":1761826873,"current_range_meters":0,"station_id":"","pricing_plan_id":"cebpf4jnsgd1na2vs0mg"},{"bike_id":"b06c4997-7e4f-467a-922f-92f2f2e27e9d","system_id":"levelo_inurba_marseille","lat":43.337444,"lon":5.374475,"is_reserved":false,"is_disabled":false,"rental_uris":{"android":"levelo://app?vid=b06c4997-7e4f-467a-922f-92f2f2e27e9d","ios":"levelo://app?vid=b06c4997-7e4f-467a-922f-92f2f2e27e9d"},"vehicle_type_id":"4","last_reported":1761826873,"current_range_meters":0,"station_id":"","pricing_plan_id":"cebpf4jnsgd1na2vs0mg"},{"bike_id":"bb49b980-4cfb-49a5-9add-f3f9d4fc6db5","system_id":"levelo_inurba_marseille","lat":43.337444,"lon":5.374475,"is_reserved":false,"is_disabled":false,"rental_uris":{"android":"levelo://app?vid=bb49b980-4cfb-49a5-9add-f3f9d4fc6db5","ios":"levelo://app?vid=bb49b980-4cfb-49a5-9add-f3f9d4fc6db5"},"vehicle_type_id":"4","last_reported":1761826873,"current_range_meters":0,"station_id":"","pricing_plan_id":"cebpf4jnsgd1na2vs0mg"},{"bike_id":"b97206fc-6c94-4378-926a-a788d4f71c09","system_id":"levelo_inurba_marseille","lat":43.337444,"lon":5.374475,"is_reserved":false,"is_disabled":false,"rental_uris":{"android":"levelo://app?vid=b97206fc-6c94-4378-926a-a788d4f71c09","ios":"levelo://app?vid=b97206fc-6c94-4378-926a-a788d4f71c09"},"vehicle_type_id":"4","last_reported":1761826873,"current_range_meters":0,"station_id":"","pricing_plan_id":"cebpf4jnsgd1na2vs0mg"},{"bike_id":"37d7ebf5-2b3d-4af3-a7cd-4f29f464d5a0","system_id":"levelo_inurba_marseille","lat":43.337444,"lon":5.374475,"is_reserved":false,"is_disabled":false,"rental_uris":{"android":"levelo://app?vid=37d7ebf5-2b3d-4af3-a7cd-4f29f464d5a0","ios":"levelo://app?vid=37d7ebf5-2b3d-4af3-a7cd-4f29f464d5a0"},"vehicle_type_id":"4","last_reported":1761826873,"current_range_meters":0,"station_id":"","pricing_plan_id":"cebpf4jnsgd1na2vs0mg"},{"bike_id":"4ce4318f-b763-4325-8589-2aecbcc80add","system_id":"levelo_inurba_marseille","lat":43.337444,"lon":5.374475,"is_reserved":false,"is_disabled":false,"rental_uris":{"android":"levelo://app?vid=4ce4318f-b763-4325-8589-2aecbcc80add","ios":"levelo://app?vid=4ce4318f-b763-4325-8589-2aecbcc80add"},"vehicle_type_id":"4","last_reported":1761826873,"current_range_meters":0,"station_id":"","pricing_plan_id":"cebpf4jnsgd1na2vs0mg"},{"bike_id":"a6a3a590-5c2a-4683-a516-e9f5572de0f8","system_id":"levelo_inurba_marseille","lat":43.337444,"lon":5.374475,"is_reserved":false,"is_disabled":false,"rental_uris":{"android":"levelo://app?vid=a6a3a590-5c2a-4683-a516-e9f5572de0f8","ios":"levelo://app?vid=a6a3a590-5c2a-4683-a516-e9f5572de0f8"},"vehicle_type_id":"4","last_reported":1761826873,"current_range_meters":0,"station_id":"","pricing_plan_id":"cebpf4jnsgd1na2vs0mg"},{"bike_id":"111bdd74-3ae9-48f5-979c-2e177e7747d9","system_id":"levelo_inurba_marseille","lat":43.337444,"lon":5.374475,"is_reserved":false,"is_disabled":false,"rental_uris":{"android":"levelo://app?vid=111bdd74-3ae9-48f5-979c-2e177e7747d9","ios":"levelo://app?vid=111bdd74-3ae9-48f5-979c-2e177e7747d9"},"vehicle_type_id":"4","last_reported":1761826873,"current_range_meters":0,"station_id":"","pricing_plan_id":"cebpf4jnsgd1na2vs0mg"},{"bike_id":"b9d871b8-65b0-40af-afa3-0bf2492a45a9","system_id":"levelo_inurba_marseille","lat":43.337444,"lon":5.374475,"is_reserved":false,"is_disabled":false,"rental_uris":{"android":"levelo://app?vid=b9d871b8-65b0-40af-afa3-0bf2492a45a9","ios":"levelo://app?vid=b9d871b8-65b0-40af-afa3-0bf2492a45a9"},"vehicle_type_id":"4","last_reported":1761826873,"current_range_meters":0,"station_id":"","pricing_plan_id":"cebpf4jnsgd1na2vs0mg"},{"bike_id":"5bec735e-fcf4-48c7-8bdc-29590fc410b1","system_id":"levelo_inurba_marseille","lat":43.337444,"lon":5.374475,"is_reserved":false,"is_disabled":false,"rental_uris":{"android":"levelo://app?vid=5bec735e-fcf4-48c7-8bdc-29590fc410b1","ios":"levelo://app?vid=5bec735e-fcf4-48c7-8bdc-29590fc410b1"},"vehicle_type_id":"4","last_reported":1761826873,"current_range_meters":0,"station_id":"","pricing_plan_id":"cebpf4jnsgd1na2vs0mg"},{"bike_id":"026e76ec-bb30-48a3-8407-a17635ff5e4d","system_id":"levelo_inurba_marseille","lat":43.337444,"lon":5.374475,"is_reserved":false,"is_disabled":false,"rental_uris":{"android":"levelo://app?vid=026e76ec-bb30-48a3-8407-a17635ff5e4d","ios":"levelo://app?vid=026e76ec-bb30-48a3-8407-a17635ff5e4d"},"vehicle_type_id":"4","last_reported":1761826873,"current_range_meters":0,"station_id":"","pricing_plan_id":"cebpf4jnsgd1na2vs0mg"},{"bike_id":"46d34bff-7ac4-476c-bd3e-8e7dba53c807","system_id":"levelo_inurba_marseille","lat":43.337444,"lon":5.374475,"is_reserved":false,"is_disabled":false,"rental_uris":{"android":"levelo://app?vid=46d34bff-7ac4-476c-bd3e-8e7dba53c807","ios":"levelo://app?vid=46d34bff-7ac4-476c-bd3e-8e7dba53c807"},"vehicle_type_id":"4","last_reported":1761826873,"current_range_meters":0,"station_id":"","pricing_plan_id":"cebpf4jnsgd1na2vs0mg"},{"bike_id":"2c7e37d6-d4ca-47ae-a0e0-a648dd4e1706","system_id":"levelo_inurba_marseille","lat":43.337444,"lon":5.374475,"is_reserved":false,"is_disabled":false,"rental_uris":{"android":"levelo://app?vid=2c7e37d6-d4ca-47ae-a0e0-a648dd4e1706","ios":"levelo://app?vid=2c7e37d6-d4ca-47ae-a0e0-a648dd4e1706"},"vehicle_type_id":"4","last_reported":1761826873,"current_range_meters":0,"station_id":"","pricing_plan_id":"cebpf4jnsgd1na2vs0mg"},{"bike_id":"94eee6a6-2463-4d2a-b222-3ef19356212a","system_id":"levelo_inurba_marseille","lat":43.337444,"lon":5.374475,"is_reserved":false,"is_disabled":false,"rental_uris":{"android":"levelo://app?vid=94eee6a6-2463-4d2a-b222-3ef19356212a","ios":"levelo://app?vid=94eee6a6-2463-4d2a-b222-3ef19356212a"},"vehicle_type_id":"4","last_reported":1761826873,"current_range_meters":0,"station_id":"","pricing_plan_id":"cebpf4jnsgd1na2vs0mg"},{"bike_id":"4592e008-320c-4bcd-ae3b-d140e613f684","system_id":"levelo_inurba_marseille","lat":43.337444,"lon":5.374475,"is_reserved":false,"is_disabled":false,"rental_uris":{"android":"levelo://app?vid=4592e008-320c-4bcd-ae3b-d140e613f684","ios":"levelo://app?vid=4592e008-320c-4bcd-ae3b-d140e613f684"},"vehicle_type_id":"4","last_reported":1761826873,"current_range_meters":0,"station_id":"","pricing_plan_id":"cebpf4jnsgd1na2vs0mg"},{"bike_id":"5807ce94-1b62-42db-8c77-9488accc83d5","system_id":"levelo_inurba_marseille","lat":43.337444,"lon":5.374475,"is_reserved":false,"is_disabled":false,"rental_uris":{"android":"levelo://app?vid=5807ce94-1b62-42db-8c77-9488accc83d5","ios":"levelo://app?vid=5807ce94-1b62-42db-8c77-9488accc83d5"},"vehicle_type_id":"4","last_reported":1761826873,"current_range_meters":0,"station_id":"","pricing_plan_id":"cebpf4jnsgd1na2vs0mg"},{"bike_id":"7e937c41-45d5-4d3b-8e8f-665d3e5c39b8","system_id":"levelo_inurba_marseille","lat":43.23198,"lon":5.35547,"is_reserved":false,"is_disabled":false,"rental_uris":{"android":"levelo://app?vid=7e937c41-45d5-4d3b-8e8f-665d3e5c39b8","ios":"levelo://app?vid=7e937c41-45d5-4d3b-8e8f-665d3e5c39b8"},"vehicle_type_id":"4","last_reported":1761826873,"current_range_meters":2800,"station_id":"ce4bhu92rcd13ifvqi70","pricing_plan_id":"cebpf4jnsgd1na2vs0mg"},{"bike_id":"1cd3efae-2a38-4844-9866-fae9f7855bad","system_id":"levelo_inurba_marseille","lat":43.25339,"lon":5.42174,"is_reserved":false,"is_disabled":false,"rental_uris":{"android":"levelo://app?vid=1cd3efae-2a38-4844-9866-fae9f7855bad","ios":"levelo://app?vid=1cd3efae-2a38-4844-9866-fae9f7855bad"},"vehicle_type_id":"4","last_reported":1761826873,"current_range_meters":2800,"station_id":"st_d2m65c5bi1j21697t3ng","pricing_plan_id":"cebpf4jnsgd1na2vs0mg"},{"bike_id":"55d330bb-2213-49e0-88d5-618886e51fdb","system_id":"levelo_inurba_marseille","lat":43.2928,"lon":5.36841,"is_reserved":false,"is_disabled":false,"rental_uris":{"android":"levelo://app?vid=55d330bb-2213-49e0-88d5-618886e51fdb","ios":"levelo://app?vid=55d330bb-2213-49e0-88d5-618886e51fdb"},"vehicle_type_id":"4","last_reported":1761826873,"current_range_meters":2800,"station_id":"","pricing_plan_id":"cebpf4jnsgd1na2vs0mg"},{"bike_id":"168cdd09-2b2d-4b1c-8254-6a304c196f06","system_id":"levelo_inurba_marseille","lat":43.30965,"lon":5.39104,"is_reserved":false,"is_disabled":false,"rental_uris":{"android":"levelo://app?vid=168cdd09-2b2d-4b1c-8254-6a304c196f06","ios":"levelo://app?vid=168cdd09-2b2d-4b1c-8254-6a304c196f06"},"vehicle_type_id":"4","last_reported":1761826873,"current_range_meters":3200,"station_id":"","pricing_plan_id":"cebpf4jnsgd1na2vs0mg"},{"bike_id":"eb8f13ff-065d-4e4e-b5e0-9c6d6156824b","system_id":"levelo_inurba_marseille","lat":43.21192,"lon":5.35075,"is_reserved":false,"is_disabled":false,"rental_uris":{"android":"levelo://app?vid=eb8f13ff-065d-4e4e-b5e0-9c6d6156824b","ios":"levelo://app?vid=eb8f13ff-065d-4e4e-b5e0-9c6d6156824b"},"vehicle_type_id":"4","last_reported":1761826873,"current_range_meters":3600,"station_id":"st_cvj6sg6p6f1abm77japg","pricing_plan_id":"cebpf4jnsgd1na2vs0mg"},{"bike_id":"d5ca831f-8041-403e-ada8-7b4196c3d5be","system_id":"levelo_inurba_marseille","lat":43.293714,"lon":5.379385,"is_reserved":false,"is_disabled":false,"rental_uris":{"android":"levelo://app?vid=d5ca831f-8041-403e-ada8-7b4196c3d5be","ios":"levelo://app?vid=d5ca831f-8041-403e-ada8-7b4196c3d5be"},"vehicle_type_id":"4","last_reported":1761826873,"current_range_meters":4000,"station_id":"","pricing_plan_id":"cebpf4jnsgd1na2vs0mg"},{"bike_id":"e8cecdc3-ea04-4bed-a2e8-e4ef75d8bb5c","system_id":"levelo_inurba_marseille","lat":43.21754,"lon":5.34601,"is_reserved":false,"is_disabled":false,"rental_uris":{"android":"levelo://app?vid=e8cecdc3-ea04-4bed-a2e8-e4ef75d8bb5c","ios":"levelo://app?vid=e8cecdc3-ea04-4bed-a2e8-e4ef75d8bb5c"},"vehicle_type_id":"4","last_reported":1761826873,"current_range_meters":4400,"station_id":"st_cvj6r9ubvosntc0bgbag","pricing_plan_id":"cebpf4jnsgd1na2vs0mg"},{"bike_id":"d864b028-0589-4521-8b04-ba3066e13c93","system_id":"levelo_inurba_marseille","lat":43.21744,"lon":5.34607,"is_reserved":false,"is_disabled":false,"rental_uris":{"android":"levelo://app?vid=d864b028-0589-4521-8b04-ba3066e13c93","ios":"levelo://app?vid=d864b028-0589-4521-8b04-ba3066e13c93"},"vehicle_type_id":"4","last_reported":1761826873,"current_range_meters":4800,"station_id":"","pricing_plan_id":"cebpf4jnsgd1na2vs0mg"},{"bike_id":"6734ea4f-81f3-48a5-98ff-eb52308bd657","system_id":"levelo_inurba_marseille","lat":43.27941,"lon":5.410397,"is_reserved":false,"is_disabled":true,"rental_uris":{"android":"levelo://app?vid=6734ea4f-81f3-48a5-98ff-eb52308bd657","ios":"levelo://app?vid=6734ea4f-81f3-48a5-98ff-eb52308bd657"},"vehicle_type_id":"4","last_reported":1761826873,"current_range_meters":4800,"station_id":"ce4bhnp2rcd13ifvqh0g","pricing_plan_id":"cebpf4jnsgd1na2vs0mg"},{"bike_id":"96eb1989-c128-445d-8c9b-ec34676f501e","system_id":"levelo_inurba_marseille","lat":43.28853,"lon":5.4249,"is_reserved":false,"is_disabled":false,"rental_uris":{"android":"levelo://app?vid=96eb1989-c128-445d-8c9b-ec34676f501e","ios":"levelo://app?vid=96eb1989-c128-445d-8c9b-ec34676f501e"},"vehicle_type_id":"4","last_reported":1761826873,"current_range_meters":4800,"station_id":"st_d3b462108ojc7389ooeg","pricing_plan_id":"cebpf4jnsgd1na2vs0mg"},{"bike_id":"479f345b-a765-4b3b-a74e-b63e2b916910","system_id":"levelo_inurba_marseille","lat":43.29639,"lon":5.37169,"is_reserved":false,"is_disabled":false,"rental_uris":{"android":"levelo://app?vid=479f345b-a765-4b3b-a74e-b63e2b916910","ios":"levelo://app?vid=479f345b-a765-4b3b-a74e-b63e2b916910"},"vehicle_type_id":"4","last_reported":1761826873,"current_range_meters":5600,"station_id":"ce4bgnh2rcd13ifvqc0g","pricing_plan_id":"cebpf4jnsgd1na2vs0mg"},{"bike_id":"888fd47c-99f4-4f63-8ec1-9f89e861dec7","system_id":"levelo_inurba_marseille","lat":43.24392,"lon":5.37062,"is_reserved":false,"is_disabled":false,"rental_uris":{"android":"levelo://app?vid=888fd47c-99f4-4f63-8ec1-9f89e861dec7","ios":"levelo://app?vid=888fd47c-99f4-4f63-8ec1-9f89e861dec7"},"vehicle_type_id":"4","last_reported":1761826873,"current_range_meters":5600,"station_id":"ce4bhhh2rcd13ifvqfk0","pricing_plan_id":"cebpf4jnsgd1na2vs0mg"},{"bike_id":"3a3e1e7c-19bf-40a1-b4af-70dd66735a36","system_id":"levelo_inurba_marseille","lat":43.30597,"lon":5.37218,"is_reserved":false,"is_disabled":false,"rental_uris":{"android":"levelo://app?vid=3a3e1e7c-19bf-40a1-b4af-70dd66735a36","ios":"levelo://app?vid=3a3e1e7c-19bf-40a1-b4af-70dd66735a36"},"vehicle_type_id":"4","last_reported":1761826873,"current_range_meters":5600,"station_id":"ce4bgqh2rcd13ifvqc4g","pricing_plan_id":"cebpf4jnsgd1na2vs0mg"},{"bike_id":"b0559237-3c13-47c2-b710-0c16cdfd4100","system_id":"levelo_inurba_marseille","lat":43.27424,"lon":5.39419,"is_reserved":false,"is_disabled":false,"rental_uris":{"android":"levelo://app?vid=b0559237-3c13-47c2-b710-0c16cdfd4100","ios":"levelo://app?vid=b0559237-3c13-47c2-b710-0c16cdfd4100"},"vehicle_type_id":"4","last_reported":1761826873,"current_range_meters":6000,"station_id":"ce4bhdp2rcd13ifvqf20","pricing_plan_id":"cebpf4jnsgd1na2vs0mg"},{"bike_id":"f879ff1b-eebd-4299-8050-576a526ad9eb","system_id":"levelo_inurba_marseille","lat":43.28489,"lon":5.38554,"is_reserved":false,"is_disabled":false,"rental_uris":{"android":"levelo://app?vid=f879ff1b-eebd-4299-8050-576a526ad9eb","ios":"levelo://app?vid=f879ff1b-eebd-4299-8050-576a526ad9eb"},"vehicle_type_id":"4","last_reported":1761826873,"current_range_meters":6000,"station_id":"ce4bh8p2rcd13ifvqeb0","pricing_plan_id":"cebpf4jnsgd1na2vs0mg"},{"bike_id":"031ba078-e36f-4ed3-889c-1fe60e3a92e8","system_id":"levelo_inurba_marseille","lat":43.27071,"lon":5.42278,"is_reserved":false,"is_disabled":false,"rental_uris":{"android":"levelo://app?vid=031ba078-e36f-4ed3-889c-1fe60e3a92e8","ios":"levelo://app?vid=031ba078-e36f-4ed3-889c-1fe60e3a92e8"},"vehicle_type_id":"4","last_reported":1761826873,"current_range_meters":6000,"station_id":"ce4bhk92rcd13ifvqgb0","pricing_plan_id":"cebpf4jnsgd1na2vs0mg"},{"bike_id":"f6adb9c1-4a78-4322-baec-aa5f6f5d93b6","system_id":"levelo_inurba_marseille","lat":43.337896,"lon":5.374361,"is_reserved":false,"is_disabled":false,"rental_uris":{"android":"levelo://app?vid=f6adb9c1-4a78-4322-baec-aa5f6f5d93b6","ios":"levelo://app?vid=f6adb9c1-4a78-4322-baec-aa5f6f5d93b6"},"vehicle_type_id":"4","last_reported":1761826873,"current_range_meters":6000,"station_id":"","pricing_plan_id":"cebpf4jnsgd1na2vs0mg"},{"bike_id":"df4a7072-9a99-4388-960f-688f83a92f17","system_id":"levelo_inurba_marseille","lat":43.29549,"lon":5.42287,"is_reserved":false,"is_disabled":false,"rental_uris":{"android":"levelo://app?vid=df4a7072-9a99-4388-960f-688f83a92f17","ios":"levelo://app?vid=df4a7072-9a99-4388-960f-688f83a92f17"},"vehicle_type_id":"4","last_reported":1761826873,"current_range_meters":6400,"station_id":"ce4bhph2rcd13ifvqhdg","pricing_plan_id":"cebpf4jnsgd1na2vs0mg"},{"bike_id":"ae8ebe94-fc0f-4409-8f77-39eb5c613a67","system_id":"levelo_inurba_marseille","lat":43.337444,"lon":5.374475,"is_reserved":false,"is_disabled":false,"rental_uris":{"android":"levelo://app?vid=ae8ebe94-fc0f-4409-8f77-39eb5c613a67","ios":"levelo://app?vid=ae8ebe94-fc0f-4409-8f77-39eb5c613a67"},"vehicle_type_id":"4","last_reported":1761826873,"current_range_meters":6800,"station_id":"","pricing_plan_id":"cebpf4jnsgd1na2vs0mg"},{"bike_id":"b4a2a88b-5c71-4f91-8c89-f55fadc45e7d","system_id":"levelo_inurba_marseille","lat":43.284623,"lon":5.374641,"is_reserved":false,"is_disabled":false,"rental_uris":{"android":"levelo://app?vid=b4a2a88b-5c71-4f91-8c89-f55fadc45e7d","ios":"levelo://app?vid=b4a2a88b-5c71-4f91-8c89-f55fadc45e7d"},"vehicle_type_id":"4","last_reported":1761826873,"current_range_meters":6800,"station_id":"ce4bha12rcd13ifvqef0","pricing_plan_id":"cebpf4jnsgd1na2vs0mg"},{"bike_id":"c9c87355-3b52-4212-a571-208926c11bf2","system_id":"levelo_inurba_marseille","lat":43.337444,"lon":5.374475,"is_reserved":false,"is_disabled":false,"rental_uris":{"android":"levelo://app?vid=c9c87355-3b52-4212-a571-208926c11bf2","ios":"levelo://app?vid=c9c87355-3b52-4212-a571-208926c11bf2"},"vehicle_type_id":"4","last_reported":1761826873,"current_range_meters":6800,"station_id":"ce4bhq12rcd13ifvqhig","pricing_plan_id":"cebpf4jnsgd1na2vs0mg"},{"bike_id":"8c830576-9a11-4ace-905f-fcf50c13e22a","system_id":"levelo_inurba_marseille","lat":43.31232,"lon":5.36852,"is_reserved":false,"is_disabled":false,"rental_uris":{"android":"levelo://app?vid=8c830576-9a11-4ace-905f-fcf50c13e22a","ios":"levelo://app?vid=8c830576-9a11-4ace-905f-fcf50c13e22a"},"vehicle_type_id":"4","last_reported":1761826873,"current_range_meters":6800,"station_id":"ce4bgl92rcd13ifvqbq0","pricing_plan_id":"cebpf4jnsgd1na2vs0mg"},{"bike_id":"d7501644-af29-4949-85a6-6fb0d170cf4f","system_id":"levelo_inurba_marseille","lat":43.21191,"lon":5.35064,"is_reserved":false,"is_disabled":false,"rental_uris":{"android":"levelo://app?vid=d7501644-af29-4949-85a6-6fb0d170cf4f","ios":"levelo://app?vid=d7501644-af29-4949-85a6-6fb0d170cf4f"},"vehicle_type_id":"4","last_reported":1761826873,"current_range_meters":6800,"station_id":"st_cvj6sg6p6f1abm77japg","pricing_plan_id":"cebpf4jnsgd1na2vs0mg"},{"bike_id":"e3c50aa6-6386-41c8-a55d-eaf1343e5af1","system_id":"levelo_inurba_marseille","lat":43.30955,"lon":5.39018,"is_reserved":false,"is_disabled":false,"rental_uris":{"android":"levelo://app?vid=e3c50aa6-6386-41c8-a55d-eaf1343e5af1","ios":"levelo://app?vid=e3c50aa6-6386-41c8-a55d-eaf1343e5af1"},"vehicle_type_id":"4","last_reported":1761826873,"current_range_meters":7200,"station_id":"ce4bgup2rcd13ifvqco0","pricing_plan_id":"cebpf4jnsgd1na2vs0mg"},{"bike_id":"bfedba69-57a2-4d9a-bb06-db7150de8512","system_id":"levelo_inurba_marseille","lat":43.3205,"lon":5.41551,"is_reserved":false,"is_disabled":false,"rental_uris":{"android":"levelo://app?vid=bfedba69-57a2-4d9a-bb06-db7150de8512","ios":"levelo://app?vid=bfedba69-57a2-4d9a-bb06-db7150de8512"},"vehicle_type_id":"4","last_reported":1761826873,"current_range_meters":7200,"station_id":"ce4bhq92rcd13ifvqhkg","pricing_plan_id":"cebpf4jnsgd1na2vs0mg"},{"bike_id":"bd5ee828-7a33-417d-9eac-f31832adc46d","system_id":"levelo_inurba_marseille","lat":43.29268,"lon":5.37625,"is_reserved":false,"is_disabled":false,"rental_uris":{"android":"levelo://app?vid=bd5ee828-7a33-417d-9eac-f31832adc46d","ios":"levelo://app?vid=bd5ee828-7a33-417d-9eac-f31832adc46d"},"vehicle_type_id":"4","last_reported":1761826873,"current_range_meters":7200,"station_id":"ce4bgi12rcd13ifvqb80","pricing_plan_id":"cebpf4jnsgd1na2vs0mg"},{"bike_id":"522b4eff-46db-447a-b5bc-41661d6504c7","system_id":"levelo_inurba_marseille","lat":43.231537,"lon":5.437257,"is_reserved":false,"is_disabled":false,"rental_uris":{"android":"levelo://app?vid=522b4eff-46db-447a-b5bc-41661d6504c7","ios":"levelo://app?vid=522b4eff-46db-447a-b5bc-41661d6504c7"},"vehicle_type_id":"4","last_reported":1761826873,"current_range_meters":7200,"station_id":"ce4bhmp2rcd13ifvqgog","pricing_plan_id":"cebpf4jnsgd1na2vs0mg"},{"bike_id":"0d7df5c4-0562-46cd-8ee3-ef7997062c91","system_id":"levelo_inurba_marseille","lat":43.27215,"lon":5.39182,"is_reserved":false,"is_disabled":false,"rental_uris":{"android":"levelo://app?vid=0d7df5c4-0562-46cd-8ee3-ef7997062c91","ios":"levelo://app?vid=0d7df5c4-0562-46cd-8ee3-ef7997062c91"},"vehicle_type_id":"4","last_reported":1761826873,"current_range_meters":7200,"station_id":"ce4bhhp2rcd13ifvqfm0","pricing_plan_id":"cebpf4jnsgd1na2vs0mg"},{"bike_id":"d03f6b0e-52f1-4b1d-aa37-63c36e7ad0bf","system_id":"levelo_inurba_marseille","lat":43.30891,"lon":5.37183,"is_reserved":false,"is_disabled":false,"rental_uris":{"android":"levelo://app?vid=d03f6b0e-52f1-4b1d-aa37-63c36e7ad0bf","ios":"levelo://app?vid=d03f6b0e-52f1-4b1d-aa37-63c36e7ad0bf"},"vehicle_type_id":"4","last_reported":1761826873,"current_range_meters":8000,"station_id":"ce4bguh2rcd13ifvqckg","pricing_plan_id":"cebpf4jnsgd1na2vs0mg"},{"bike_id":"ac9002d3-5ce3-41df-b0eb-16d879c31751","system_id":"levelo_inurba_marseille","lat":43.274665,"lon":5.394645,"is_reserved":false,"is_disabled":false,"rental_uris":{"android":"levelo://app?vid=ac9002d3-5ce3-41df-b0eb-16d879c31751","ios":"levelo://app?vid=ac9002d3-5ce3-41df-b0eb-16d879c31751"},"vehicle_type_id":"4","last_reported":1761826873,"current_range_meters":8000,"station_id":"ce4bhdp2rcd13ifvqf20","pricing_plan_id":"cebpf4jnsgd1na2vs0mg"},{"bike_id":"a53ed180-be0f-409f-88e8-3795719465ba","system_id":"levelo_inurba_marseille","lat":43.2994,"lon":5.3661,"is_reserved":false,"is_disabled":false,"rental_uris":{"android":"levelo://app?vid=a53ed180-be0f-409f-88e8-3795719465ba","ios":"levelo://app?vid=a53ed180-be0f-409f-88e8-3795719465ba"},"vehicle_type_id":"4","last_reported":1761826873,"current_range_meters":8400,"station_id":"ce4bgm92rcd13ifvqbr0","pricing_plan_id":"cebpf4jnsgd1na2vs0mg"},{"bike_id":"175714ac-4acb-4069-91d3-1d6308c64fe2","system_id":"levelo_inurba_marseille","lat":43.26956,"lon":5.38627,"is_reserved":false,"is_disabled":false,"rental_uris":{"android":"levelo://app?vid=175714ac-4acb-4069-91d3-1d6308c64fe2","ios":"levelo://app?vid=175714ac-4acb-4069-91d3-1d6308c64fe2"},"vehicle_type_id":"4","last_reported":1761826873,"current_range_meters":8400,"station_id":"ce4bhh92rcd13ifvqfh0","pricing_plan_id":"cebpf4jnsgd1na2vs0mg"},{"bike_id":"38bc32ba-4078-46f4-81a1-615a9404c3a5","system_id":"levelo_inurba_marseille","lat":43.29263,"lon":5.38438,"is_reserved":false,"is_disabled":false,"rental_uris":{"android":"levelo://app?vid=38bc32ba-4078-46f4-81a1-615a9404c3a5","ios":"levelo://app?vid=38bc32ba-4078-46f4-81a1-615a9404c3a5"},"vehicle_type_id":"4","last_reported":1761826873,"current_range_meters":8800,"station_id":"ce4bh692rcd13ifvqea0","pricing_plan_id":"cebpf4jnsgd1na2vs0mg"},{"bike_id":"578482da-2b7f-4cb5-9c28-3da7e39ee4f3","system_id":"levelo_inurba_marseille","lat":43.25583,"lon":5.38233,"is_reserved":false,"is_disabled":false,"rental_uris":{"android":"levelo://app?vid=578482da-2b7f-4cb5-9c28-3da7e39ee4f3","ios":"levelo://app?vid=578482da-2b7f-4cb5-9c28-3da7e39ee4f3"},"vehicle_type_id":"4","last_reported":1761826873,"current_range_meters":9200,"station_id":"ce4bhih2rcd13ifvqfs0","pricing_plan_id":"cebpf4jnsgd1na2vs0mg"},{"bike_id":"f186889b-7fdc-4d4c-9c7d-20e6f270d9c3","system_id":"levelo_inurba_marseille","lat":43.29594,"lon":5.38105,"is_reserved":false,"is_disabled":false,"rental_uris":{"android":"levelo://app?vid=f186889b-7fdc-4d4c-9c7d-20e6f270d9c3","ios":"levelo://app?vid=f186889b-7fdc-4d4c-9c7d-20e6f270d9c3"},"vehicle_type_id":"4","last_reported":1761826873,"current_range_meters":9200,"station_id":"ce4bgl12rcd13ifvqbo0","pricing_plan_id":"cebpf4jnsgd1na2vs0mg"},{"bike_id":"6ae2294e-180e-4dc7-84eb-904546d86fab","system_id":"levelo_inurba_marseille","lat":43.28937,"lon":5.36644,"is_reserved":false,"is_disabled":false,"rental_uris":{"android":"levelo://app?vid=6ae2294e-180e-4dc7-84eb-904546d86fab","ios":"levelo://app?vid=6ae2294e-180e-4dc7-84eb-904546d86fab"},"vehicle_type_id":"4","last_reported":1761826873,"current_range_meters":9200,"station_id":"ce4bhap2rcd13ifvqek0","pricing_plan_id":"cebpf4jnsgd1na2vs0mg"},{"bike_id":"522ee54d-c106-4d32-b0a7-fbb70e08f9ff","system_id":"levelo_inurba_marseille","lat":43.28275,"lon":5.35072,"is_reserved":false,"is_disabled":false,"rental_uris":{"android":"levelo://app?vid=522ee54d-c106-4d32-b0a7-fbb70e08f9ff","ios":"levelo://app?vid=522ee54d-c106-4d32-b0a7-fbb70e08f9ff"},"vehicle_type_id":"4","last_reported":1761826873,"current_range_meters":9200,"station_id":"ce4bhbp2rcd13ifvqerg","pricing_plan_id":"cebpf4jnsgd1na2vs0mg"},{"bike_id":"cf10c757-2501-4f65-983f-c47f764ca848","system_id":"levelo_inurba_marseille","lat":43.29869,"lon":5.39729,"is_reserved":false,"is_disabled":false,"rental_uris":{"android":"levelo://app?vid=cf10c757-2501-4f65-983f-c47f764ca848","ios":"levelo://app?vid=cf10c757-2501-4f65-983f-c47f764ca848"},"vehicle_type_id":"4","last_reported":1761826873,"current_range_meters":9200,"station_id":"ce4bh0h2rcd13ifvqd50","pricing_plan_id":"cebpf4jnsgd1na2vs0mg"},{"bike_id":"e35cd5de-6e10-427c-89f3-59b2503e667d","system_id":"levelo_inurba_marseille","lat":43.30285,"lon":5.37703,"is_reserved":false,"is_disabled":false,"rental_uris":{"android":"levelo://app?vid=e35cd5de-6e10-427c-89f3-59b2503e667d","ios":"levelo://app?vid=e35cd5de-6e10-427c-89f3-59b2503e667d"},"vehicle_type_id":"4","last_reported":1761826873,"current_range_meters":9200,"station_id":"ce4bguh2rcd13ifvqcj0","pricing_plan_id":"cebpf4jnsgd1na2vs0mg"},{"bike_id":"4644b8ac-affa-4d50-b2ae-974d32d38290","system_id":"levelo_inurba_marseille","lat":43.30798,"lon":5.43518,"is_reserved":false,"is_disabled":false,"rental_uris":{"android":"levelo://app?vid=4644b8ac-affa-4d50-b2ae-974d32d38290","ios":"levelo://app?vid=4644b8ac-affa-4d50-b2ae-974d32d38290"},"vehicle_type_id":"4","last_reported":1761826873,"current_range_meters":9600,"station_id":"","pricing_plan_id":"cebpf4jnsgd1na2vs0mg"},{"bike_id":"6a844e63-1168-45e4-9412-5f4a9ef354c0","system_id":"levelo_inurba_marseille","lat":43.26188,"lon":5.37455,"is_reserved":false,"is_disabled":false,"rental_uris":{"android":"levelo://app?vid=6a844e63-1168-45e4-9412-5f4a9ef354c0","ios":"levelo://app?vid=6a844e63-1168-45e4-9412-5f4a9ef354c0"},"vehicle_type_id":"4","last_reported":1761826873,"current_range_meters":9600,"station_id":"ce4bhgp2rcd13ifvqfc0","pricing_plan_id":"cebpf4jnsgd1na2vs0mg"},{"bike_id":"2a43ec62-5bbb-4862-ae6d-06c012743743","system_id":"levelo_inurba_marseille","lat":43.27064,"lon":5.42271,"is_reserved":false,"is_disabled":false,"rental_uris":{"android":"levelo://app?vid=2a43ec62-5bbb-4862-ae6d-06c012743743","ios":"levelo://app?vid=2a43ec62-5bbb-4862-ae6d-06c012743743"},"vehicle_type_id":"4","last_reported":1761826873,"current_range_meters":9600,"station_id":"ce4bhk92rcd13ifvqgb0","pricing_plan_id":"cebpf4jnsgd1na2vs0mg"},{"bike_id":"92ec4d5d-da79-4627-b63d-4144a540aca1","system_id":"levelo_inurba_marseille","lat":43.292825,"lon":5.401384,"is_reserved":false,"is_disabled":false,"rental_uris":{"android":"levelo://app?vid=92ec4d5d-da79-4627-b63d-4144a540aca1","ios":"levelo://app?vid=92ec4d5d-da79-4627-b63d-4144a540aca1"},"vehicle_type_id":"4","last_reported":1761826873,"current_range_meters":9600,"station_id":"ce4bh312rcd13ifvqdk0","pricing_plan_id":"cebpf4jnsgd1na2vs0mg"},{"bike_id":"faee4aed-34d1-4e59-9f3e-bc2337688920","system_id":"levelo_inurba_marseille","lat":43.31712,"lon":5.43697,"is_reserved":false,"is_disabled":true,"rental_uris":{"android":"levelo://app?vid=faee4aed-34d1-4e59-9f3e-bc2337688920","ios":"levelo://app?vid=faee4aed-34d1-4e59-9f3e-bc2337688920"},"vehicle_type_id":"4","last_reported":1761826873,"current_range_meters":9600,"station_id":"ce4bhp92rcd13ifvqhcg","pricing_plan_id":"cebpf4jnsgd1na2vs0mg"},{"bike_id":"5f204f25-e969-4297-b2f6-3d905b7ca4c2","system_id":"levelo_inurba_marseille","lat":43.23188,"lon":5.39989,"is_reserved":false,"is_disabled":false,"rental_uris":{"android":"levelo://app?vid=5f204f25-e969-4297-b2f6-3d905b7ca4c2","ios":"levelo://app?vid=5f204f25-e969-4297-b2f6-3d905b7ca4c2"},"vehicle_type_id":"4","last_reported":1761826873,"current_range_meters":9600,"station_id":"ce4bhn12rcd13ifvqgqg","pricing_plan_id":"cebpf4jnsgd1na2vs0mg"},{"bike_id":"e3260d53-1f31-4048-a6b1-57d9b1375877","system_id":"levelo_inurba_marseille","lat":43.28538,"lon":5.44095,"is_reserved":false,"is_disabled":false,"rental_uris":{"android":"levelo://app?vid=e3260d53-1f31-4048-a6b1-57d9b1375877","ios":"levelo://app?vid=e3260d53-1f31-4048-a6b1-57d9b1375877"},"vehicle_type_id":"4","last_reported":1761826873,"current_range_meters":10000,"station_id":"st_d3j3df2ikq2c7380ej80","pricing_plan_id":"cebpf4jnsgd1na2vs0mg"},{"bike_id":"2625f2d9-0b92-405e-9f2a-1b0a88319163","system_id":"levelo_inurba_marseille","lat":43.30891,"lon":5.39656,"is_reserved":false,"is_disabled":false,"rental_uris":{"android":"levelo://app?vid=2625f2d9-0b92-405e-9f2a-1b0a88319163","ios":"levelo://app?vid=2625f2d9-0b92-405e-9f2a-1b0a88319163"},"vehicle_type_id":"4","last_reported":1761826873,"current_range_meters":10000,"station_id":"ce4bh012rcd13ifvqcv0","pricing_plan_id":"cebpf4jnsgd1na2vs0mg"},{"bike_id":"48cc5a83-cf07-471a-9479-5a71011e485c","system_id":"levelo_inurba_marseille","lat":43.31431,"lon":5.3675,"is_reserved":false,"is_disabled":false,"rental_uris":{"android":"levelo://app?vid=48cc5a83-cf07-471a-9479-5a71011e485c","ios":"levelo://app?vid=48cc5a83-cf07-471a-9479-5a71011e485c"},"vehicle_type_id":"4","last_reported":1761826873,"current_range_meters":10000,"station_id":"","pricing_plan_id":"cebpf4jnsgd1na2vs0mg"},{"bike_id":"cf3c763a-afe1-4333-aebc-52927272ff43","system_id":"levelo_inurba_marseille","lat":43.23158,"lon":5.43705,"is_reserved":false,"is_disabled":false,"rental_uris":{"android":"levelo://app?vid=cf3c763a-afe1-4333-aebc-52927272ff43","ios":"levelo://app?vid=cf3c763a-afe1-4333-aebc-52927272ff43"},"vehicle_type_id":"4","last_reported":1761826873,"current_range_meters":10000,"station_id":"ce4bhmp2rcd13ifvqgog","pricing_plan_id":"cebpf4jnsgd1na2vs0mg"},{"bike_id":"9bb630a3-b103-450f-b962-d4ecf4a45a82","system_id":"levelo_inurba_marseille","lat":43.25729,"lon":5.41108,"is_reserved":false,"is_disabled":false,"rental_uris":{"android":"levelo://app?vid=9bb630a3-b103-450f-b962-d4ecf4a45a82","ios":"levelo://app?vid=9bb630a3-b103-450f-b962-d4ecf4a45a82"},"vehicle_type_id":"4","last_reported":1761826873,"current_range_meters":10000,"station_id":"ce4bhkp2rcd13ifvqgd0","pricing_plan_id":"cebpf4jnsgd1na2vs0mg"},{"bike_id":"38499398-1186-4bdb-ae3d-3d3e989bfa27","system_id":"levelo_inurba_marseille","lat":43.30139,"lon":5.39873,"is_reserved":false,"is_disabled":false,"rental_uris":{"android":"levelo://app?vid=38499398-1186-4bdb-ae3d-3d3e989bfa27","ios":"levelo://app?vid=38499398-1186-4bdb-ae3d-3d3e989bfa27"},"vehicle_type_id":"4","last_reported":1761826873,"current_range_meters":10800,"station_id":"ce4bh0h2rcd13ifvqd40","pricing_plan_id":"cebpf4jnsgd1na2vs0mg"},{"bike_id":"72631774-c460-4247-8259-657a1ad717bf","system_id":"levelo_inurba_marseille","lat":43.30434,"lon":5.39746,"is_reserved":false,"is_disabled":false,"rental_uris":{"android":"levelo://app?vid=72631774-c460-4247-8259-657a1ad717bf","ios":"levelo://app?vid=72631774-c460-4247-8259-657a1ad717bf"},"vehicle_type_id":"4","last_reported":1761826873,"current_range_meters":11200,"station_id":"ce4bh092rcd13ifvqd20","pricing_plan_id":"cebpf4jnsgd1na2vs0mg"},{"bike_id":"569160a4-e207-4db9-b243-c638f0330d62","system_id":"levelo_inurba_marseille","lat":43.32104,"lon":5.36777,"is_reserved":false,"is_disabled":false,"rental_uris":{"android":"levelo://app?vid=569160a4-e207-4db9-b243-c638f0330d62","ios":"levelo://app?vid=569160a4-e207-4db9-b243-c638f0330d62"},"vehicle_type_id":"4","last_reported":1761826873,"current_range_meters":11200,"station_id":"ce4bhrh2rcd13ifvqhug","pricing_plan_id":"cebpf4jnsgd1na2vs0mg"},{"bike_id":"f7473f50-bd9e-4d9e-821f-0348106526ff","system_id":"levelo_inurba_marseille","lat":43.28284,"lon":5.35065,"is_reserved":false,"is_disabled":false,"rental_uris":{"android":"levelo://app?vid=f7473f50-bd9e-4d9e-821f-0348106526ff","ios":"levelo://app?vid=f7473f50-bd9e-4d9e-821f-0348106526ff"},"vehicle_type_id":"4","last_reported":1761826873,"current_range_meters":11200,"station_id":"ce4bhbp2rcd13ifvqerg","pricing_plan_id":"cebpf4jnsgd1na2vs0mg"},{"bike_id":"8f8bc35f-4914-4b7a-8d83-31c1009102ce","system_id":"levelo_inurba_marseille","lat":43.246319,"lon":5.431449,"is_reserved":false,"is_disabled":false,"rental_uris":{"android":"levelo://app?vid=8f8bc35f-4914-4b7a-8d83-31c1009102ce","ios":"levelo://app?vid=8f8bc35f-4914-4b7a-8d83-31c1009102ce"},"vehicle_type_id":"4","last_reported":1761826873,"current_range_meters":11600,"station_id":"st_d2m6c4gdas8pm72e190g","pricing_plan_id":"cebpf4jnsgd1na2vs0mg"},{"bike_id":"975faf7c-f033-4ee3-b89f-4c64c6677fbb","system_id":"levelo_inurba_marseille","lat":43.241786,"lon":5.397368,"is_reserved":false,"is_disabled":false,"rental_uris":{"android":"levelo://app?vid=975faf7c-f033-4ee3-b89f-4c64c6677fbb","ios":"levelo://app?vid=975faf7c-f033-4ee3-b89f-4c64c6677fbb"},"vehicle_type_id":"4","last_reported":1761826873,"current_range_meters":11600,"station_id":"ce4bhn12rcd13ifvqgpg","pricing_plan_id":"cebpf4jnsgd1na2vs0mg"},{"bike_id":"62c01f7d-8766-4cc8-b4df-6fdcd6452e89","system_id":"levelo_inurba_marseille","lat":43.310373,"lon":5.368813,"is_reserved":false,"is_disabled":false,"rental_uris":{"android":"levelo://app?vid=62c01f7d-8766-4cc8-b4df-6fdcd6452e89","ios":"levelo://app?vid=62c01f7d-8766-4cc8-b4df-6fdcd6452e89"},"vehicle_type_id":"4","last_reported":1761826873,"current_range_meters":11600,"station_id":"ce4bgl92rcd13ifvqbq0","pricing_plan_id":"cebpf4jnsgd1na2vs0mg"},{"bike_id":"6fff56e2-dc33-4322-9554-e738206d1bc0","system_id":"levelo_inurba_marseille","lat":43.21191,"lon":5.35078,"is_reserved":false,"is_disabled":false,"rental_uris":{"android":"levelo://app?vid=6fff56e2-dc33-4322-9554-e738206d1bc0","ios":"levelo://app?vid=6fff56e2-dc33-4322-9554-e738206d1bc0"},"vehicle_type_id":"4","last_reported":1761826873,"current_range_meters":12000,"station_id":"st_cvj6sg6p6f1abm77japg","pricing_plan_id":"cebpf4jnsgd1na2vs0mg"},{"bike_id":"3c1d3cfd-193c-42cb-af4d-d787aea6ab3c","system_id":"levelo_inurba_marseille","lat":43.25931,"lon":5.40909,"is_reserved":false,"is_disabled":false,"rental_uris":{"android":"levelo://app?vid=3c1d3cfd-193c-42cb-af4d-d787aea6ab3c","ios":"levelo://app?vid=3c1d3cfd-193c-42cb-af4d-d787aea6ab3c"},"vehicle_type_id":"4","last_reported":1761826873,"current_range_meters":12000,"station_id":"ce4bhm92rcd13ifvqglg","pricing_plan_id":"cebpf4jnsgd1na2vs0mg"},{"bike_id":"43602c37-7763-4b0c-9efc-820bd499d789","system_id":"levelo_inurba_marseille","lat":43.266794,"lon":5.382623,"is_reserved":false,"is_disabled":false,"rental_uris":{"android":"levelo://app?vid=43602c37-7763-4b0c-9efc-820bd499d789","ios":"levelo://app?vid=43602c37-7763-4b0c-9efc-820bd499d789"},"vehicle_type_id":"4","last_reported":1761826873,"current_range_meters":12000,"station_id":"ce4bhg92rcd13ifvqf90","pricing_plan_id":"cebpf4jnsgd1na2vs0mg"},{"bike_id":"9e8ff94c-8435-4455-8fcf-bce11b88e3c4","system_id":"levelo_inurba_marseille","lat":43.28363,"lon":5.38095,"is_reserved":false,"is_disabled":false,"rental_uris":{"android":"levelo://app?vid=9e8ff94c-8435-4455-8fcf-bce11b88e3c4","ios":"levelo://app?vid=9e8ff94c-8435-4455-8fcf-bce11b88e3c4"},"vehicle_type_id":"4","last_reported":1761826873,"current_range_meters":12000,"station_id":"ce4bh412rcd13ifvqdr0","pricing_plan_id":"cebpf4jnsgd1na2vs0mg"},{"bike_id":"59638618-fc14-4ff8-a11f-768499ef9f16","system_id":"levelo_inurba_marseille","lat":43.21192,"lon":5.35076,"is_reserved":false,"is_disabled":false,"rental_uris":{"android":"levelo://app?vid=59638618-fc14-4ff8-a11f-768499ef9f16","ios":"levelo://app?vid=59638618-fc14-4ff8-a11f-768499ef9f16"},"vehicle_type_id":"4","last_reported":1761826873,"current_range_meters":12400,"station_id":"st_cvj6sg6p6f1abm77japg","pricing_plan_id":"cebpf4jnsgd1na2vs0mg"},{"bike_id":"3126ce35-4101-4b06-a7b2-19548fb25089","system_id":"levelo_inurba_marseille","lat":43.21191,"lon":5.35065,"is_reserved":false,"is_disabled":false,"rental_uris":{"android":"levelo://app?vid=3126ce35-4101-4b06-a7b2-19548fb25089","ios":"levelo://app?vid=3126ce35-4101-4b06-a7b2-19548fb25089"},"vehicle_type_id":"4","last_reported":1761826873,"current_range_meters":12800,"station_id":"st_cvj6sg6p6f1abm77japg","pricing_plan_id":"cebpf4jnsgd1na2vs0mg"},{"bike_id":"9a47f147-cf75-4f32-8fd7-5af99662d3a5","system_id":"levelo_inurba_marseille","lat":43.25943,"lon":5.40891,"is_reserved":false,"is_disabled":false,"rental_uris":{"android":"levelo://app?vid=9a47f147-cf75-4f32-8fd7-5af99662d3a5","ios":"levelo://app?vid=9a47f147-cf75-4f32-8fd7-5af99662d3a5"},"vehicle_type_id":"4","last_reported":1761826873,"current_range_meters":12800,"station_id":"ce4bhm92rcd13ifvqglg","pricing_plan_id":"cebpf4jnsgd1na2vs0mg"},{"bike_id":"a82e7080-be6f-4609-8a2f-89c25390d857","system_id":"levelo_inurba_marseille","lat":43.282627,"lon":5.350645,"is_reserved":false,"is_disabled":false,"rental_uris":{"android":"levelo://app?vid=a82e7080-be6f-4609-8a2f-89c25390d857","ios":"levelo://app?vid=a82e7080-be6f-4609-8a2f-89c25390d857"},"vehicle_type_id":"4","last_reported":1761826873,"current_range_meters":13600,"station_id":"ce4bhbp2rcd13ifvqerg","pricing_plan_id":"cebpf4jnsgd1na2vs0mg"},{"bike_id":"75df00d1-b79d-4514-b45c-0d363788a217","system_id":"levelo_inurba_marseille","lat":43.321044,"lon":5.367769,"is_reserved":false,"is_disabled":false,"rental_uris":{"android":"levelo://app?vid=75df00d1-b79d-4514-b45c-0d363788a217","ios":"levelo://app?vid=75df00d1-b79d-4514-b45c-0d363788a217"},"vehicle_type_id":"4","last_reported":1761826873,"current_range_meters":13600,"station_id":"ce4bhrh2rcd13ifvqhug","pricing_plan_id":"cebpf4jnsgd1na2vs0mg"},{"bike_id":"93a31e57-600a-478a-9e22-f09fbb6b10ba","system_id":"levelo_inurba_marseille","lat":43.24017,"lon":5.36251,"is_reserved":false,"is_disabled":false,"rental_uris":{"android":"levelo://app?vid=93a31e57-600a-478a-9e22-f09fbb6b10ba","ios":"levelo://app?vid=93a31e57-600a-478a-9e22-f09fbb6b10ba"},"vehicle_type_id":"4","last_reported":1761826873,"current_range_meters":13600,"station_id":"","pricing_plan_id":"cebpf4jnsgd1na2vs0mg"},{"bike_id":"b2990066-4154-4d1f-afd9-ffa5efe6b439","system_id":"levelo_inurba_marseille","lat":43.30146,"lon":5.38072,"is_reserved":false,"is_disabled":false,"rental_uris":{"android":"levelo://app?vid=b2990066-4154-4d1f-afd9-ffa5efe6b439","ios":"levelo://app?vid=b2990066-4154-4d1f-afd9-ffa5efe6b439"},"vehicle_type_id":"4","last_reported":1761826873,"current_range_meters":13600,"station_id":"ce4bgjp2rcd13ifvqbh0","pricing_plan_id":"cebpf4jnsgd1na2vs0mg"},{"bike_id":"ed13730a-3ba9-4dd0-9694-3922e9b991f1","system_id":"levelo_inurba_marseille","lat":43.26201,"lon":5.37441,"is_reserved":false,"is_disabled":false,"rental_uris":{"android":"levelo://app?vid=ed13730a-3ba9-4dd0-9694-3922e9b991f1","ios":"levelo://app?vid=ed13730a-3ba9-4dd0-9694-3922e9b991f1"},"vehicle_type_id":"4","last_reported":1761826873,"current_range_meters":13600,"station_id":"ce4bhgp2rcd13ifvqfc0","pricing_plan_id":"cebpf4jnsgd1na2vs0mg"},{"bike_id":"832bfd5f-8204-417a-8de0-2ce4cc85fad2","system_id":"levelo_inurba_marseille","lat":43.30466,"lon":5.37905,"is_reserved":false,"is_disabled":false,"rental_uris":{"android":"levelo://app?vid=832bfd5f-8204-417a-8de0-2ce4cc85fad2","ios":"levelo://app?vid=832bfd5f-8204-417a-8de0-2ce4cc85fad2"},"vehicle_type_id":"4","last_reported":1761826873,"current_range_meters":13600,"station_id":"ce4bgup2rcd13ifvqcn0","pricing_plan_id":"cebpf4jnsgd1na2vs0mg"},{"bike_id":"a4a81a3a-b1a5-4e69-b8f2-fc130ffc3362","system_id":"levelo_inurba_marseille","lat":43.26554,"lon":5.3729,"is_reserved":false,"is_disabled":false,"rental_uris":{"android":"levelo://app?vid=a4a81a3a-b1a5-4e69-b8f2-fc130ffc3362","ios":"levelo://app?vid=a4a81a3a-b1a5-4e69-b8f2-fc130ffc3362"},"vehicle_type_id":"4","last_reported":1761826873,"current_range_meters":13600,"station_id":"ce4bhg12rcd13ifvqf70","pricing_plan_id":"cebpf4jnsgd1na2vs0mg"},{"bike_id":"86c193ed-e97a-463b-a260-c4a737ea768c","system_id":"levelo_inurba_marseille","lat":43.25352,"lon":5.42173,"is_reserved":false,"is_disabled":false,"rental_uris":{"android":"levelo://app?vid=86c193ed-e97a-463b-a260-c4a737ea768c","ios":"levelo://app?vid=86c193ed-e97a-463b-a260-c4a737ea768c"},"vehicle_type_id":"4","last_reported":1761826873,"current_range_meters":14000,"station_id":"st_d2m65c5bi1j21697t3ng","pricing_plan_id":"cebpf4jnsgd1na2vs0mg"},{"bike_id":"cd299e6a-a73f-4190-967b-3e53973e9165","system_id":"levelo_inurba_marseille","lat":43.300826,"lon":5.390647,"is_reserved":false,"is_disabled":false,"rental_uris":{"android":"levelo://app?vid=cd299e6a-a73f-4190-967b-3e53973e9165","ios":"levelo://app?vid=cd299e6a-a73f-4190-967b-3e53973e9165"},"vehicle_type_id":"4","last_reported":1761826873,"current_range_meters":14000,"station_id":"ce4bh192rcd13ifvqdb0","pricing_plan_id":"cebpf4jnsgd1na2vs0mg"},{"bike_id":"3f7c2454-ca9f-47be-9de2-edec7fea1658","system_id":"levelo_inurba_marseille","lat":43.30286,"lon":5.37706,"is_reserved":false,"is_disabled":false,"rental_uris":{"android":"levelo://app?vid=3f7c2454-ca9f-47be-9de2-edec7fea1658","ios":"levelo://app?vid=3f7c2454-ca9f-47be-9de2-edec7fea1658"},"vehicle_type_id":"4","last_reported":1761826873,"current_range_meters":14000,"station_id":"ce4bguh2rcd13ifvqcj0","pricing_plan_id":"cebpf4jnsgd1na2vs0mg"},{"bike_id":"74cec031-176c-4142-bede-a14e110a0e54","system_id":"levelo_inurba_marseille","lat":43.31229,"lon":5.36865,"is_reserved":false,"is_disabled":false,"rental_uris":{"android":"levelo://app?vid=74cec031-176c-4142-bede-a14e110a0e54","ios":"levelo://app?vid=74cec031-176c-4142-bede-a14e110a0e54"},"vehicle_type_id":"4","last_reported":1761826873,"current_range_meters":14000,"station_id":"ce4bgl92rcd13ifvqbq0","pricing_plan_id":"cebpf4jnsgd1na2vs0mg"},{"bike_id":"d814c370-459e-40cb-8325-1100ff5d0d59","system_id":"levelo_inurba_marseille","lat":43.29702,"lon":5.36609,"is_reserved":false,"is_disabled":false,"rental_uris":{"android":"levelo://app?vid=d814c370-459e-40cb-8325-1100ff5d0d59","ios":"levelo://app?vid=d814c370-459e-40cb-8325-1100ff5d0d59"},"vehicle_type_id":"4","last_reported":1761826873,"current_range_meters":14000,"station_id":"ce4bgn12rcd13ifvqbt0","pricing_plan_id":"cebpf4jnsgd1na2vs0mg"},{"bike_id":"00e24bd8-fda8-492e-9c2f-80c31e7cf260","system_id":"levelo_inurba_marseille","lat":43.28361,"lon":5.38098,"is_reserved":false,"is_disabled":false,"rental_uris":{"android":"levelo://app?vid=00e24bd8-fda8-492e-9c2f-80c31e7cf260","ios":"levelo://app?vid=00e24bd8-fda8-492e-9c2f-80c31e7cf260"},"vehicle_type_id":"4","last_reported":1761826873,"current_range_meters":14000,"station_id":"ce4bh412rcd13ifvqdr0","pricing_plan_id":"cebpf4jnsgd1na2vs0mg"},{"bike_id":"3a499934-9140-435e-968f-fa10dd280f36","system_id":"levelo_inurba_marseille","lat":43.24678,"lon":5.43099,"is_reserved":false,"is_disabled":false,"rental_uris":{"android":"levelo://app?vid=3a499934-9140-435e-968f-fa10dd280f36","ios":"levelo://app?vid=3a499934-9140-435e-968f-fa10dd280f36"},"vehicle_type_id":"4","last_reported":1761826873,"current_range_meters":14400,"station_id":"st_d2m6c4gdas8pm72e190g","pricing_plan_id":"cebpf4jnsgd1na2vs0mg"},{"bike_id":"87f07427-7afa-4c61-8863-cee86bfb2232","system_id":"levelo_inurba_marseille","lat":43.27193,"lon":5.4099,"is_reserved":false,"is_disabled":false,"rental_uris":{"android":"levelo://app?vid=87f07427-7afa-4c61-8863-cee86bfb2232","ios":"levelo://app?vid=87f07427-7afa-4c61-8863-cee86bfb2232"},"vehicle_type_id":"4","last_reported":1761826873,"current_range_meters":14400,"station_id":"ce4bhl12rcd13ifvqgf0","pricing_plan_id":"cebpf4jnsgd1na2vs0mg"},{"bike_id":"868c9f67-46db-40c2-8054-2388a5f9841e","system_id":"levelo_inurba_marseille","lat":43.323614,"lon":5.367271,"is_reserved":false,"is_disabled":false,"rental_uris":{"android":"levelo://app?vid=868c9f67-46db-40c2-8054-2388a5f9841e","ios":"levelo://app?vid=868c9f67-46db-40c2-8054-2388a5f9841e"},"vehicle_type_id":"4","last_reported":1761826873,"current_range_meters":14400,"station_id":"ce4bhsh2rcd13ifvqi2g","pricing_plan_id":"cebpf4jnsgd1na2vs0mg"},{"bike_id":"92096dbe-1998-416e-aeba-32cd7afe91c2","system_id":"levelo_inurba_marseille","lat":43.21745,"lon":5.34605,"is_reserved":false,"is_disabled":false,"rental_uris":{"android":"levelo://app?vid=92096dbe-1998-416e-aeba-32cd7afe91c2","ios":"levelo://app?vid=92096dbe-1998-416e-aeba-32cd7afe91c2"},"vehicle_type_id":"4","last_reported":1761826873,"current_range_meters":14400,"station_id":"","pricing_plan_id":"cebpf4jnsgd1na2vs0mg"},{"bike_id":"15e2c5dd-bae1-46fb-906a-d29fa37d6e53","system_id":"levelo_inurba_marseille","lat":43.3132,"lon":5.37242,"is_reserved":false,"is_disabled":false,"rental_uris":{"android":"levelo://app?vid=15e2c5dd-bae1-46fb-906a-d29fa37d6e53","ios":"levelo://app?vid=15e2c5dd-bae1-46fb-906a-d29fa37d6e53"},"vehicle_type_id":"4","last_reported":1761826873,"current_range_meters":14400,"station_id":"","pricing_plan_id":"cebpf4jnsgd1na2vs0mg"},{"bike_id":"27c5316d-7066-4c9b-9cf7-7473c6579fc4","system_id":"levelo_inurba_marseille","lat":43.31332,"lon":5.39689,"is_reserved":false,"is_disabled":false,"rental_uris":{"android":"levelo://app?vid=27c5316d-7066-4c9b-9cf7-7473c6579fc4","ios":"levelo://app?vid=27c5316d-7066-4c9b-9cf7-7473c6579fc4"},"vehicle_type_id":"4","last_reported":1761826873,"current_range_meters":14400,"station_id":"ce4bgvp2rcd13ifvqcu0","pricing_plan_id":"cebpf4jnsgd1na2vs0mg"},{"bike_id":"92865c50-f627-4093-a988-688cfdf93319","system_id":"levelo_inurba_marseille","lat":43.295291,"lon":5.375039,"is_reserved":false,"is_disabled":true,"rental_uris":{"android":"levelo://app?vid=92865c50-f627-4093-a988-688cfdf93319","ios":"levelo://app?vid=92865c50-f627-4093-a988-688cfdf93319"},"vehicle_type_id":"4","last_reported":1761826873,"current_range_meters":14800,"station_id":"","pricing_plan_id":"cebpf4jnsgd1na2vs0mg"},{"bike_id":"6132fbb0-fb1f-4c42-a930-257bf68886c2","system_id":"levelo_inurba_marseille","lat":43.30894,"lon":5.36855,"is_reserved":false,"is_disabled":false,"rental_uris":{"android":"levelo://app?vid=6132fbb0-fb1f-4c42-a930-257bf68886c2","ios":"levelo://app?vid=6132fbb0-fb1f-4c42-a930-257bf68886c2"},"vehicle_type_id":"4","last_reported":1761826873,"current_range_meters":14800,"station_id":"ce4bgn92rcd13ifvqbvg","pricing_plan_id":"cebpf4jnsgd1na2vs0mg"},{"bike_id":"0c003ebf-0f85-4149-8935-7c08c6a5cd23","system_id":"levelo_inurba_marseille","lat":43.24192,"lon":5.36357,"is_reserved":false,"is_disabled":false,"rental_uris":{"android":"levelo://app?vid=0c003ebf-0f85-4149-8935-7c08c6a5cd23","ios":"levelo://app?vid=0c003ebf-0f85-4149-8935-7c08c6a5cd23"},"vehicle_type_id":"4","last_reported":1761826873,"current_range_meters":14800,"station_id":"cpo36qri1sfpv3e86is0","pricing_plan_id":"cebpf4jnsgd1na2vs0mg"},{"bike_id":"a18dbf48-2c4d-4fa4-a4c5-c9871d73c9a0","system_id":"levelo_inurba_marseille","lat":43.301994,"lon":5.383462,"is_reserved":false,"is_disabled":false,"rental_uris":{"android":"levelo://app?vid=a18dbf48-2c4d-4fa4-a4c5-c9871d73c9a0","ios":"levelo://app?vid=a18dbf48-2c4d-4fa4-a4c5-c9871d73c9a0"},"vehicle_type_id":"4","last_reported":1761826873,"current_range_meters":14800,"station_id":"ce4bgup2rcd13ifvqcn0","pricing_plan_id":"cebpf4jnsgd1na2vs0mg"},{"bike_id":"ece027da-824a-47d0-bc54-5da75c26caf2","system_id":"levelo_inurba_marseille","lat":43.30548,"lon":5.3668,"is_reserved":false,"is_disabled":false,"rental_uris":{"android":"levelo://app?vid=ece027da-824a-47d0-bc54-5da75c26caf2","ios":"levelo://app?vid=ece027da-824a-47d0-bc54-5da75c26caf2"},"vehicle_type_id":"4","last_reported":1761826873,"current_range_meters":14800,"station_id":"ce4bgrp2rcd13ifvqc9g","pricing_plan_id":"cebpf4jnsgd1na2vs0mg"},{"bike_id":"f6946de9-6fd5-486c-846e-6aac0ac8e59f","system_id":"levelo_inurba_marseille","lat":43.21193,"lon":5.35069,"is_reserved":false,"is_disabled":false,"rental_uris":{"android":"levelo://app?vid=f6946de9-6fd5-486c-846e-6aac0ac8e59f","ios":"levelo://app?vid=f6946de9-6fd5-486c-846e-6aac0ac8e59f"},"vehicle_type_id":"4","last_reported":1761826873,"current_range_meters":14800,"station_id":"st_cvj6sg6p6f1abm77japg","pricing_plan_id":"cebpf4jnsgd1na2vs0mg"},{"bike_id":"e953e533-9ecf-4a11-9a34-84556483bbcd","system_id":"levelo_inurba_marseille","lat":43.24943,"lon":5.40493,"is_reserved":false,"is_disabled":true,"rental_uris":{"android":"levelo://app?vid=e953e533-9ecf-4a11-9a34-84556483bbcd","ios":"levelo://app?vid=e953e533-9ecf-4a11-9a34-84556483bbcd"},"vehicle_type_id":"4","last_reported":1761826873,"current_range_meters":14800,"station_id":"st_d2ngiaodas8pm72gd1h0","pricing_plan_id":"cebpf4jnsgd1na2vs0mg"},{"bike_id":"70ccb20f-1c7f-4290-abbf-331ee5053661","system_id":"levelo_inurba_marseille","lat":43.2743,"lon":5.39421,"is_reserved":false,"is_disabled":false,"rental_uris":{"android":"levelo://app?vid=70ccb20f-1c7f-4290-abbf-331ee5053661","ios":"levelo://app?vid=70ccb20f-1c7f-4290-abbf-331ee5053661"},"vehicle_type_id":"4","last_reported":1761826873,"current_range_meters":14800,"station_id":"ce4bhdp2rcd13ifvqf20","pricing_plan_id":"cebpf4jnsgd1na2vs0mg"},{"bike_id":"da8f56d5-8503-4e9c-a707-120b62152f8f","system_id":"levelo_inurba_marseille","lat":43.30461,"lon":5.37904,"is_reserved":false,"is_disabled":false,"rental_uris":{"android":"levelo://app?vid=da8f56d5-8503-4e9c-a707-120b62152f8f","ios":"levelo://app?vid=da8f56d5-8503-4e9c-a707-120b62152f8f"},"vehicle_type_id":"4","last_reported":1761826873,"current_range_meters":15200,"station_id":"ce4bgup2rcd13ifvqcn0","pricing_plan_id":"cebpf4jnsgd1na2vs0mg"},{"bike_id":"b9d9dba1-2937-49d0-ae3f-073d6a94b728","system_id":"levelo_inurba_marseille","lat":43.302277,"lon":5.395111,"is_reserved":false,"is_disabled":false,"rental_uris":{"android":"levelo://app?vid=b9d9dba1-2937-49d0-ae3f-073d6a94b728","ios":"levelo://app?vid=b9d9dba1-2937-49d0-ae3f-073d6a94b728"},"vehicle_type_id":"4","last_reported":1761826873,"current_range_meters":15200,"station_id":"","pricing_plan_id":"cebpf4jnsgd1na2vs0mg"},{"bike_id":"def1e88a-dab0-4c45-961c-44bec5da061c","system_id":"levelo_inurba_marseille","lat":43.29299,"lon":5.37454,"is_reserved":false,"is_disabled":false,"rental_uris":{"android":"levelo://app?vid=def1e88a-dab0-4c45-961c-44bec5da061c","ios":"levelo://app?vid=def1e88a-dab0-4c45-961c-44bec5da061c"},"vehicle_type_id":"4","last_reported":1761826873,"current_range_meters":15200,"station_id":"ce4bgi12rcd13ifvqb70","pricing_plan_id":"cebpf4jnsgd1na2vs0mg"},{"bike_id":"87bc2dca-3b31-4c1c-837b-4a46c49a0ffa","system_id":"levelo_inurba_marseille","lat":43.25581,"lon":5.38232,"is_reserved":false,"is_disabled":false,"rental_uris":{"android":"levelo://app?vid=87bc2dca-3b31-4c1c-837b-4a46c49a0ffa","ios":"levelo://app?vid=87bc2dca-3b31-4c1c-837b-4a46c49a0ffa"},"vehicle_type_id":"4","last_reported":1761826873,"current_range_meters":15200,"station_id":"ce4bhih2rcd13ifvqfs0","pricing_plan_id":"cebpf4jnsgd1na2vs0mg"},{"bike_id":"092c4099-4149-48b1-85f7-36ede0238c2b","system_id":"levelo_inurba_marseille","lat":43.273801,"lon":5.362358,"is_reserved":false,"is_disabled":true,"rental_uris":{"android":"levelo://app?vid=092c4099-4149-48b1-85f7-36ede0238c2b","ios":"levelo://app?vid=092c4099-4149-48b1-85f7-36ede0238c2b"},"vehicle_type_id":"4","last_reported":1761826873,"current_range_meters":16000,"station_id":"","pricing_plan_id":"cebpf4jnsgd1na2vs0mg"},{"bike_id":"17263299-61e2-4002-bc39-437c115a8ee5","system_id":"levelo_inurba_marseille","lat":43.29093,"lon":5.38135,"is_reserved":false,"is_disabled":false,"rental_uris":{"android":"levelo://app?vid=17263299-61e2-4002-bc39-437c115a8ee5","ios":"levelo://app?vid=17263299-61e2-4002-bc39-437c115a8ee5"},"vehicle_type_id":"4","last_reported":1761826873,"current_range_meters":16000,"station_id":"ce4bh512rcd13ifvqe2g","pricing_plan_id":"cebpf4jnsgd1na2vs0mg"},{"bike_id":"9b93b5e1-c939-4745-bf85-2d21945442dc","system_id":"levelo_inurba_marseille","lat":43.299951,"lon":5.363998,"is_reserved":false,"is_disabled":false,"rental_uris":{"android":"levelo://app?vid=9b93b5e1-c939-4745-bf85-2d21945442dc","ios":"levelo://app?vid=9b93b5e1-c939-4745-bf85-2d21945442dc"},"vehicle_type_id":"4","last_reported":1761826873,"current_range_meters":16400,"station_id":"","pricing_plan_id":"cebpf4jnsgd1na2vs0mg"},{"bike_id":"932ad1c2-4305-4dbf-ad9d-624ed36a7479","system_id":"levelo_inurba_marseille","lat":43.30107,"lon":5.38753,"is_reserved":false,"is_disabled":false,"rental_uris":{"android":"levelo://app?vid=932ad1c2-4305-4dbf-ad9d-624ed36a7479","ios":"levelo://app?vid=932ad1c2-4305-4dbf-ad9d-624ed36a7479"},"vehicle_type_id":"4","last_reported":1761826873,"current_range_meters":16400,"station_id":"","pricing_plan_id":"cebpf4jnsgd1na2vs0mg"},{"bike_id":"79ab418a-79c0-4a6e-993b-761280f132d6","system_id":"levelo_inurba_marseille","lat":43.284839,"lon":5.485351,"is_reserved":false,"is_disabled":false,"rental_uris":{"android":"levelo://app?vid=79ab418a-79c0-4a6e-993b-761280f132d6","ios":"levelo://app?vid=79ab418a-79c0-4a6e-993b-761280f132d6"},"vehicle_type_id":"4","last_reported":1761826873,"current_range_meters":16400,"station_id":"","pricing_plan_id":"cebpf4jnsgd1na2vs0mg"},{"bike_id":"52a753d3-3ac4-4caa-88bc-c038122b2bbb","system_id":"levelo_inurba_marseille","lat":43.26234,"lon":5.4046,"is_reserved":false,"is_disabled":false,"rental_uris":{"android":"levelo://app?vid=52a753d3-3ac4-4caa-88bc-c038122b2bbb","ios":"levelo://app?vid=52a753d3-3ac4-4caa-88bc-c038122b2bbb"},"vehicle_type_id":"4","last_reported":1761826873,"current_range_meters":16400,"station_id":"ce4bhmh2rcd13ifvqgmg","pricing_plan_id":"cebpf4jnsgd1na2vs0mg"},{"bike_id":"7059abfa-bba6-43b2-8c14-96f92d7be186","system_id":"levelo_inurba_marseille","lat":43.309143,"lon":5.368475,"is_reserved":false,"is_disabled":false,"rental_uris":{"android":"levelo://app?vid=7059abfa-bba6-43b2-8c14-96f92d7be186","ios":"levelo://app?vid=7059abfa-bba6-43b2-8c14-96f92d7be186"},"vehicle_type_id":"4","last_reported":1761826873,"current_range_meters":16400,"station_id":"ce4bgn92rcd13ifvqbvg","pricing_plan_id":"cebpf4jnsgd1na2vs0mg"},{"bike_id":"13b5bebc-2277-4643-9efc-b419c3a09bbd","system_id":"levelo_inurba_marseille","lat":43.22928,"lon":5.3538,"is_reserved":false,"is_disabled":false,"rental_uris":{"android":"levelo://app?vid=13b5bebc-2277-4643-9efc-b419c3a09bbd","ios":"levelo://app?vid=13b5bebc-2277-4643-9efc-b419c3a09bbd"},"vehicle_type_id":"4","last_reported":1761826873,"current_range_meters":16800,"station_id":"cpo3532slgdg3j2ikp40","pricing_plan_id":"cebpf4jnsgd1na2vs0mg"},{"bike_id":"c2b29e2a-9ddf-4599-9569-ebeda3771708","system_id":"levelo_inurba_marseille","lat":43.21189,"lon":5.35074,"is_reserved":false,"is_disabled":false,"rental_uris":{"android":"levelo://app?vid=c2b29e2a-9ddf-4599-9569-ebeda3771708","ios":"levelo://app?vid=c2b29e2a-9ddf-4599-9569-ebeda3771708"},"vehicle_type_id":"4","last_reported":1761826873,"current_range_meters":16800,"station_id":"st_cvj6sg6p6f1abm77japg","pricing_plan_id":"cebpf4jnsgd1na2vs0mg"},{"bike_id":"7401697e-e742-42f7-a996-f24ec4dd940e","system_id":"levelo_inurba_marseille","lat":43.243832,"lon":5.370739,"is_reserved":false,"is_disabled":false,"rental_uris":{"android":"levelo://app?vid=7401697e-e742-42f7-a996-f24ec4dd940e","ios":"levelo://app?vid=7401697e-e742-42f7-a996-f24ec4dd940e"},"vehicle_type_id":"4","last_reported":1761826873,"current_range_meters":16800,"station_id":"ce4bhhh2rcd13ifvqfk0","pricing_plan_id":"cebpf4jnsgd1na2vs0mg"},{"bike_id":"023d82d1-0cbb-48b4-aa62-09df23f032ec","system_id":"levelo_inurba_marseille","lat":43.2551,"lon":5.37655,"is_reserved":false,"is_disabled":false,"rental_uris":{"android":"levelo://app?vid=023d82d1-0cbb-48b4-aa62-09df23f032ec","ios":"levelo://app?vid=023d82d1-0cbb-48b4-aa62-09df23f032ec"},"vehicle_type_id":"4","last_reported":1761826873,"current_range_meters":16800,"station_id":"ce4bhh12rcd13ifvqff0","pricing_plan_id":"cebpf4jnsgd1na2vs0mg"},{"bike_id":"667a4a8e-bd76-4fb1-b40f-6d82b3d1d948","system_id":"levelo_inurba_marseille","lat":43.31767,"lon":5.39012,"is_reserved":false,"is_disabled":false,"rental_uris":{"android":"levelo://app?vid=667a4a8e-bd76-4fb1-b40f-6d82b3d1d948","ios":"levelo://app?vid=667a4a8e-bd76-4fb1-b40f-6d82b3d1d948"},"vehicle_type_id":"4","last_reported":1761826873,"current_range_meters":16800,"station_id":"ce4bhqp2rcd13ifvqhng","pricing_plan_id":"cebpf4jnsgd1na2vs0mg"},{"bike_id":"c1b80a2d-4c09-4897-a6de-d7dc582f3acd","system_id":"levelo_inurba_marseille","lat":43.30256,"lon":5.37725,"is_reserved":false,"is_disabled":false,"rental_uris":{"android":"levelo://app?vid=c1b80a2d-4c09-4897-a6de-d7dc582f3acd","ios":"levelo://app?vid=c1b80a2d-4c09-4897-a6de-d7dc582f3acd"},"vehicle_type_id":"4","last_reported":1761826873,"current_range_meters":16800,"station_id":"ce4bguh2rcd13ifvqcj0","pricing_plan_id":"cebpf4jnsgd1na2vs0mg"},{"bike_id":"6348b82b-073b-4d92-bbdd-a826f7b00468","system_id":"levelo_inurba_marseille","lat":43.30221,"lon":5.39463,"is_reserved":false,"is_disabled":false,"rental_uris":{"android":"levelo://app?vid=6348b82b-073b-4d92-bbdd-a826f7b00468","ios":"levelo://app?vid=6348b82b-073b-4d92-bbdd-a826f7b00468"},"vehicle_type_id":"4","last_reported":1761826873,"current_range_meters":16800,"station_id":"ce4bh0p2rcd13ifvqd70","pricing_plan_id":"cebpf4jnsgd1na2vs0mg"},{"bike_id":"2fd86c53-d195-4ab3-a5e6-984f6c0f4c38","system_id":"levelo_inurba_marseille","lat":43.26559,"lon":5.37281,"is_reserved":false,"is_disabled":false,"rental_uris":{"android":"levelo://app?vid=2fd86c53-d195-4ab3-a5e6-984f6c0f4c38","ios":"levelo://app?vid=2fd86c53-d195-4ab3-a5e6-984f6c0f4c38"},"vehicle_type_id":"4","last_reported":1761826873,"current_range_meters":17200,"station_id":"ce4bhg12rcd13ifvqf70","pricing_plan_id":"cebpf4jnsgd1na2vs0mg"},{"bike_id":"5d317c75-5640-4a39-9b5f-c239e3feaeb6","system_id":"levelo_inurba_marseille","lat":43.2315,"lon":5.43709,"is_reserved":false,"is_disabled":false,"rental_uris":{"android":"levelo://app?vid=5d317c75-5640-4a39-9b5f-c239e3feaeb6","ios":"levelo://app?vid=5d317c75-5640-4a39-9b5f-c239e3feaeb6"},"vehicle_type_id":"4","last_reported":1761826873,"current_range_meters":17200,"station_id":"ce4bhmp2rcd13ifvqgog","pricing_plan_id":"cebpf4jnsgd1na2vs0mg"},{"bike_id":"562b7e74-2065-4a33-8ea3-3cb60ad24f49","system_id":"levelo_inurba_marseille","lat":43.30147,"lon":5.38068,"is_reserved":false,"is_disabled":false,"rental_uris":{"android":"levelo://app?vid=562b7e74-2065-4a33-8ea3-3cb60ad24f49","ios":"levelo://app?vid=562b7e74-2065-4a33-8ea3-3cb60ad24f49"},"vehicle_type_id":"4","last_reported":1761826873,"current_range_meters":17200,"station_id":"ce4bgjp2rcd13ifvqbh0","pricing_plan_id":"cebpf4jnsgd1na2vs0mg"},{"bike_id":"88327406-ba65-4ce0-831c-3da476dbb691","system_id":"levelo_inurba_marseille","lat":43.2378,"lon":5.36628,"is_reserved":false,"is_disabled":false,"rental_uris":{"android":"levelo://app?vid=88327406-ba65-4ce0-831c-3da476dbb691","ios":"levelo://app?vid=88327406-ba65-4ce0-831c-3da476dbb691"},"vehicle_type_id":"4","last_reported":1761826873,"current_range_meters":17200,"station_id":"st_d3nk18o9ro0c73en2l3g","pricing_plan_id":"cebpf4jnsgd1na2vs0mg"},{"bike_id":"da0420b8-69e2-4ddf-9915-f492ed723756","system_id":"levelo_inurba_marseille","lat":43.30175,"lon":5.36619,"is_reserved":false,"is_disabled":false,"rental_uris":{"android":"levelo://app?vid=da0420b8-69e2-4ddf-9915-f492ed723756","ios":"levelo://app?vid=da0420b8-69e2-4ddf-9915-f492ed723756"},"vehicle_type_id":"4","last_reported":1761826873,"current_range_meters":17200,"station_id":"ce4bgrh2rcd13ifvqc8g","pricing_plan_id":"cebpf4jnsgd1na2vs0mg"},{"bike_id":"9852e0a1-4995-4628-84f2-0d56389f5aef","system_id":"levelo_inurba_marseille","lat":43.317182,"lon":5.423972,"is_reserved":false,"is_disabled":false,"rental_uris":{"android":"levelo://app?vid=9852e0a1-4995-4628-84f2-0d56389f5aef","ios":"levelo://app?vid=9852e0a1-4995-4628-84f2-0d56389f5aef"},"vehicle_type_id":"4","last_reported":1761826873,"current_range_meters":17200,"station_id":"ce4bhp92rcd13ifvqhbg","pricing_plan_id":"cebpf4jnsgd1na2vs0mg"},{"bike_id":"201e2a4c-73e3-4f87-93fe-8854747b415c","system_id":"levelo_inurba_marseille","lat":43.30144,"lon":5.37425,"is_reserved":false,"is_disabled":false,"rental_uris":{"android":"levelo://app?vid=201e2a4c-73e3-4f87-93fe-8854747b415c","ios":"levelo://app?vid=201e2a4c-73e3-4f87-93fe-8854747b415c"},"vehicle_type_id":"4","last_reported":1761826873,"current_range_meters":17200,"station_id":"ce4bgs92rcd13ifvqcc0","pricing_plan_id":"cebpf4jnsgd1na2vs0mg"},{"bike_id":"025e0e13-f23e-485e-bcbe-84392b88d37d","system_id":"levelo_inurba_marseille","lat":43.2996,"lon":5.41324,"is_reserved":false,"is_disabled":false,"rental_uris":{"android":"levelo://app?vid=025e0e13-f23e-485e-bcbe-84392b88d37d","ios":"levelo://app?vid=025e0e13-f23e-485e-bcbe-84392b88d37d"},"vehicle_type_id":"4","last_reported":1761826873,"current_range_meters":17200,"station_id":"ce4bhp12rcd13ifvqh9g","pricing_plan_id":"cebpf4jnsgd1na2vs0mg"},{"bike_id":"216e46ca-be00-4e8e-a1e1-fb94531ee1ae","system_id":"levelo_inurba_marseille","lat":43.29554,"lon":5.4229,"is_reserved":false,"is_disabled":true,"rental_uris":{"android":"levelo://app?vid=216e46ca-be00-4e8e-a1e1-fb94531ee1ae","ios":"levelo://app?vid=216e46ca-be00-4e8e-a1e1-fb94531ee1ae"},"vehicle_type_id":"4","last_reported":1761826873,"current_range_meters":17600,"station_id":"ce4bhph2rcd13ifvqhdg","pricing_plan_id":"cebpf4jnsgd1na2vs0mg"},{"bike_id":"9a8c6b52-40de-40a8-961b-f25b9a19491b","system_id":"levelo_inurba_marseille","lat":43.27071,"lon":5.42284,"is_reserved":false,"is_disabled":false,"rental_uris":{"android":"levelo://app?vid=9a8c6b52-40de-40a8-961b-f25b9a19491b","ios":"levelo://app?vid=9a8c6b52-40de-40a8-961b-f25b9a19491b"},"vehicle_type_id":"4","last_reported":1761826873,"current_range_meters":17600,"station_id":"ce4bhk92rcd13ifvqgb0","pricing_plan_id":"cebpf4jnsgd1na2vs0mg"},{"bike_id":"05a47c24-c74d-4482-aade-5974399cb310","system_id":"levelo_inurba_marseille","lat":43.29606,"lon":5.37672,"is_reserved":false,"is_disabled":false,"rental_uris":{"android":"levelo://app?vid=05a47c24-c74d-4482-aade-5974399cb310","ios":"levelo://app?vid=05a47c24-c74d-4482-aade-5974399cb310"},"vehicle_type_id":"4","last_reported":1761826873,"current_range_meters":17600,"station_id":"ce4bgi92rcd13ifvqb90","pricing_plan_id":"cebpf4jnsgd1na2vs0mg"},{"bike_id":"1d16d20a-dbf1-4a69-8537-89211ea34b71","system_id":"levelo_inurba_marseille","lat":43.31281,"lon":5.37829,"is_reserved":false,"is_disabled":false,"rental_uris":{"android":"levelo://app?vid=1d16d20a-dbf1-4a69-8537-89211ea34b71","ios":"levelo://app?vid=1d16d20a-dbf1-4a69-8537-89211ea34b71"},"vehicle_type_id":"4","last_reported":1761826873,"current_range_meters":17600,"station_id":"","pricing_plan_id":"cebpf4jnsgd1na2vs0mg"},{"bike_id":"f6e41c21-0e74-476c-8273-8a6a7b44e6bc","system_id":"levelo_inurba_marseille","lat":43.307329,"lon":5.424389,"is_reserved":false,"is_disabled":false,"rental_uris":{"android":"levelo://app?vid=f6e41c21-0e74-476c-8273-8a6a7b44e6bc","ios":"levelo://app?vid=f6e41c21-0e74-476c-8273-8a6a7b44e6bc"},"vehicle_type_id":"4","last_reported":1761826873,"current_range_meters":17600,"station_id":"st_cvj6ca6bvosntc0bfgr0","pricing_plan_id":"cebpf4jnsgd1na2vs0mg"},{"bike_id":"6424d1da-295a-4bbc-8c9a-9242419308e7","system_id":"levelo_inurba_marseille","lat":43.29061,"lon":5.3718,"is_reserved":false,"is_disabled":false,"rental_uris":{"android":"levelo://app?vid=6424d1da-295a-4bbc-8c9a-9242419308e7","ios":"levelo://app?vid=6424d1da-295a-4bbc-8c9a-9242419308e7"},"vehicle_type_id":"4","last_reported":1761826873,"current_range_meters":18000,"station_id":"","pricing_plan_id":"cebpf4jnsgd1na2vs0mg"},{"bike_id":"a4dac4fa-66e6-48be-a654-6e17cdc7ca0b","system_id":"levelo_inurba_marseille","lat":43.337571,"lon":5.374323,"is_reserved":false,"is_disabled":false,"rental_uris":{"android":"levelo://app?vid=a4dac4fa-66e6-48be-a654-6e17cdc7ca0b","ios":"levelo://app?vid=a4dac4fa-66e6-48be-a654-6e17cdc7ca0b"},"vehicle_type_id":"4","last_reported":1761826873,"current_range_meters":18000,"station_id":"","pricing_plan_id":"cebpf4jnsgd1na2vs0mg"},{"bike_id":"b3145fb6-fafb-4029-a4fc-58fd96331a6b","system_id":"levelo_inurba_marseille","lat":43.305973,"lon":5.393648,"is_reserved":false,"is_disabled":true,"rental_uris":{"android":"levelo://app?vid=b3145fb6-fafb-4029-a4fc-58fd96331a6b","ios":"levelo://app?vid=b3145fb6-fafb-4029-a4fc-58fd96331a6b"},"vehicle_type_id":"4","last_reported":1761826873,"current_range_meters":18000,"station_id":"ce4bh0p2rcd13ifvqd80","pricing_plan_id":"cebpf4jnsgd1na2vs0mg"},{"bike_id":"64fdac23-4f77-4c37-85cb-a39b6a8edb5d","system_id":"levelo_inurba_marseille","lat":43.26768,"lon":5.39441,"is_reserved":false,"is_disabled":true,"rental_uris":{"android":"levelo://app?vid=64fdac23-4f77-4c37-85cb-a39b6a8edb5d","ios":"levelo://app?vid=64fdac23-4f77-4c37-85cb-a39b6a8edb5d"},"vehicle_type_id":"4","last_reported":1761826873,"current_range_meters":18000,"station_id":"ce4bhh12rcd13ifvqfg0","pricing_plan_id":"cebpf4jnsgd1na2vs0mg"},{"bike_id":"1ce0baa3-1ac8-410e-9137-57f18b2f4b33","system_id":"levelo_inurba_marseille","lat":43.24164,"lon":5.39727,"is_reserved":false,"is_disabled":false,"rental_uris":{"android":"levelo://app?vid=1ce0baa3-1ac8-410e-9137-57f18b2f4b33","ios":"levelo://app?vid=1ce0baa3-1ac8-410e-9137-57f18b2f4b33"},"vehicle_type_id":"4","last_reported":1761826873,"current_range_meters":18000,"station_id":"ce4bhn12rcd13ifvqgpg","pricing_plan_id":"cebpf4jnsgd1na2vs0mg"},{"bike_id":"ac054415-4e37-4567-b95e-73970b5e64bc","system_id":"levelo_inurba_marseille","lat":43.32488,"lon":5.36565,"is_reserved":false,"is_disabled":false,"rental_uris":{"android":"levelo://app?vid=ac054415-4e37-4567-b95e-73970b5e64bc","ios":"levelo://app?vid=ac054415-4e37-4567-b95e-73970b5e64bc"},"vehicle_type_id":"4","last_reported":1761826873,"current_range_meters":18000,"station_id":"ce4bhs12rcd13ifvqhvg","pricing_plan_id":"cebpf4jnsgd1na2vs0mg"},{"bike_id":"763dc609-0d5a-4657-a6ee-2fa9b00a8e8f","system_id":"levelo_inurba_marseille","lat":43.30535,"lon":5.3652,"is_reserved":false,"is_disabled":false,"rental_uris":{"android":"levelo://app?vid=763dc609-0d5a-4657-a6ee-2fa9b00a8e8f","ios":"levelo://app?vid=763dc609-0d5a-4657-a6ee-2fa9b00a8e8f"},"vehicle_type_id":"4","last_reported":1761826873,"current_range_meters":18000,"station_id":"ce4bgs12rcd13ifvqcag","pricing_plan_id":"cebpf4jnsgd1na2vs0mg"},{"bike_id":"b8f404d3-62c4-4489-a471-d37212346558","system_id":"levelo_inurba_marseille","lat":43.310466,"lon":5.378789,"is_reserved":false,"is_disabled":false,"rental_uris":{"android":"levelo://app?vid=b8f404d3-62c4-4489-a471-d37212346558","ios":"levelo://app?vid=b8f404d3-62c4-4489-a471-d37212346558"},"vehicle_type_id":"4","last_reported":1761826873,"current_range_meters":18000,"station_id":"","pricing_plan_id":"cebpf4jnsgd1na2vs0mg"},{"bike_id":"6214b679-751c-46ee-8442-d298bdc15bd6","system_id":"levelo_inurba_marseille","lat":43.30085,"lon":5.3908,"is_reserved":false,"is_disabled":false,"rental_uris":{"android":"levelo://app?vid=6214b679-751c-46ee-8442-d298bdc15bd6","ios":"levelo://app?vid=6214b679-751c-46ee-8442-d298bdc15bd6"},"vehicle_type_id":"4","last_reported":1761826873,"current_range_meters":18000,"station_id":"ce4bh192rcd13ifvqdb0","pricing_plan_id":"cebpf4jnsgd1na2vs0mg"},{"bike_id":"32a35b9b-6aca-4b70-9bd2-e6acde4ddbcc","system_id":"levelo_inurba_marseille","lat":43.22908,"lon":5.35375,"is_reserved":false,"is_disabled":false,"rental_uris":{"android":"levelo://app?vid=32a35b9b-6aca-4b70-9bd2-e6acde4ddbcc","ios":"levelo://app?vid=32a35b9b-6aca-4b70-9bd2-e6acde4ddbcc"},"vehicle_type_id":"4","last_reported":1761826873,"current_range_meters":18000,"station_id":"cpo3532slgdg3j2ikp40","pricing_plan_id":"cebpf4jnsgd1na2vs0mg"},{"bike_id":"a86d27c2-696e-472b-911c-6468600e7222","system_id":"levelo_inurba_marseille","lat":43.30922,"lon":5.36857,"is_reserved":false,"is_disabled":false,"rental_uris":{"android":"levelo://app?vid=a86d27c2-696e-472b-911c-6468600e7222","ios":"levelo://app?vid=a86d27c2-696e-472b-911c-6468600e7222"},"vehicle_type_id":"4","last_reported":1761826873,"current_range_meters":18800,"station_id":"ce4bgn92rcd13ifvqbvg","pricing_plan_id":"cebpf4jnsgd1na2vs0mg"},{"bike_id":"20c1c26d-be2a-4cac-8028-038f5ffc2f00","system_id":"levelo_inurba_marseille","lat":43.292751,"lon":5.368461,"is_reserved":false,"is_disabled":false,"rental_uris":{"android":"levelo://app?vid=20c1c26d-be2a-4cac-8028-038f5ffc2f00","ios":"levelo://app?vid=20c1c26d-be2a-4cac-8028-038f5ffc2f00"},"vehicle_type_id":"4","last_reported":1761826873,"current_range_meters":18800,"station_id":"ce4bhbp2rcd13ifvqesg","pricing_plan_id":"cebpf4jnsgd1na2vs0mg"},{"bike_id":"b22c42ff-4285-4504-9e58-c6df4a616eed","system_id":"levelo_inurba_marseille","lat":43.308824,"lon":5.371951,"is_reserved":false,"is_disabled":false,"rental_uris":{"android":"levelo://app?vid=b22c42ff-4285-4504-9e58-c6df4a616eed","ios":"levelo://app?vid=b22c42ff-4285-4504-9e58-c6df4a616eed"},"vehicle_type_id":"4","last_reported":1761826873,"current_range_meters":18800,"station_id":"ce4bguh2rcd13ifvqckg","pricing_plan_id":"cebpf4jnsgd1na2vs0mg"},{"bike_id":"ab990100-f09d-4188-954e-60a6f3a24316","system_id":"levelo_inurba_marseille","lat":43.30145,"lon":5.38787,"is_reserved":false,"is_disabled":true,"rental_uris":{"android":"levelo://app?vid=ab990100-f09d-4188-954e-60a6f3a24316","ios":"levelo://app?vid=ab990100-f09d-4188-954e-60a6f3a24316"},"vehicle_type_id":"4","last_reported":1761826873,"current_range_meters":18800,"station_id":"ce4bghh2rcd13ifvqb60","pricing_plan_id":"cebpf4jnsgd1na2vs0mg"},{"bike_id":"a27ea015-9d73-41b0-aa36-b3953f30b56d","system_id":"levelo_inurba_marseille","lat":43.24644,"lon":5.38891,"is_reserved":false,"is_disabled":false,"rental_uris":{"android":"levelo://app?vid=a27ea015-9d73-41b0-aa36-b3953f30b56d","ios":"levelo://app?vid=a27ea015-9d73-41b0-aa36-b3953f30b56d"},"vehicle_type_id":"4","last_reported":1761826873,"current_range_meters":19200,"station_id":"ce4bhg12rcd13ifvqf60","pricing_plan_id":"cebpf4jnsgd1na2vs0mg"},{"bike_id":"c0a1ab8d-72ff-4114-b274-fdab8f1c3cb0","system_id":"levelo_inurba_marseille","lat":43.24173,"lon":5.39707,"is_reserved":false,"is_disabled":false,"rental_uris":{"android":"levelo://app?vid=c0a1ab8d-72ff-4114-b274-fdab8f1c3cb0","ios":"levelo://app?vid=c0a1ab8d-72ff-4114-b274-fdab8f1c3cb0"},"vehicle_type_id":"4","last_reported":1761826873,"current_range_meters":19200,"station_id":"ce4bhn12rcd13ifvqgpg","pricing_plan_id":"cebpf4jnsgd1na2vs0mg"},{"bike_id":"6ba702d0-e966-4951-b620-0b7ba2297332","system_id":"levelo_inurba_marseille","lat":43.28486,"lon":5.38585,"is_reserved":false,"is_disabled":false,"rental_uris":{"android":"levelo://app?vid=6ba702d0-e966-4951-b620-0b7ba2297332","ios":"levelo://app?vid=6ba702d0-e966-4951-b620-0b7ba2297332"},"vehicle_type_id":"4","last_reported":1761826873,"current_range_meters":19200,"station_id":"ce4bh8p2rcd13ifvqeb0","pricing_plan_id":"cebpf4jnsgd1na2vs0mg"},{"bike_id":"ad0a1604-2087-499f-b7d9-20888b00c203","system_id":"levelo_inurba_marseille","lat":43.277832,"lon":5.405855,"is_reserved":false,"is_disabled":false,"rental_uris":{"android":"levelo://app?vid=ad0a1604-2087-499f-b7d9-20888b00c203","ios":"levelo://app?vid=ad0a1604-2087-499f-b7d9-20888b00c203"},"vehicle_type_id":"4","last_reported":1761826873,"current_range_meters":19200,"station_id":"ce4bhnh2rcd13ifvqgtg","pricing_plan_id":"cebpf4jnsgd1na2vs0mg"},{"bike_id":"48d3b96f-8416-4329-ac85-a1ebb32987c2","system_id":"levelo_inurba_marseille","lat":43.276635,"lon":5.388816,"is_reserved":false,"is_disabled":false,"rental_uris":{"android":"levelo://app?vid=48d3b96f-8416-4329-ac85-a1ebb32987c2","ios":"levelo://app?vid=48d3b96f-8416-4329-ac85-a1ebb32987c2"},"vehicle_type_id":"4","last_reported":1761826873,"current_range_meters":19200,"station_id":"ce4bhi12rcd13ifvqfo0","pricing_plan_id":"cebpf4jnsgd1na2vs0mg"},{"bike_id":"a72320d3-c1d1-434a-ab1c-d81e425c9cf4","system_id":"levelo_inurba_marseille","lat":43.27372,"lon":5.36258,"is_reserved":false,"is_disabled":false,"rental_uris":{"android":"levelo://app?vid=a72320d3-c1d1-434a-ab1c-d81e425c9cf4","ios":"levelo://app?vid=a72320d3-c1d1-434a-ab1c-d81e425c9cf4"},"vehicle_type_id":"4","last_reported":1761826873,"current_range_meters":19200,"station_id":"ce4bhbh2rcd13ifvqeo0","pricing_plan_id":"cebpf4jnsgd1na2vs0mg"},{"bike_id":"ee261a32-9de1-4b9e-a923-6c91e1e26176","system_id":"levelo_inurba_marseille","lat":43.28537,"lon":5.48337,"is_reserved":false,"is_disabled":false,"rental_uris":{"android":"levelo://app?vid=ee261a32-9de1-4b9e-a923-6c91e1e26176","ios":"levelo://app?vid=ee261a32-9de1-4b9e-a923-6c91e1e26176"},"vehicle_type_id":"4","last_reported":1761826873,"current_range_meters":19200,"station_id":"st_d3svhcjqgbts73a3dn0g","pricing_plan_id":"cebpf4jnsgd1na2vs0mg"},{"bike_id":"1b4e444c-b4c2-4950-9891-1a96f5bc0caa","system_id":"levelo_inurba_marseille","lat":43.26174,"lon":5.40433,"is_reserved":false,"is_disabled":false,"rental_uris":{"android":"levelo://app?vid=1b4e444c-b4c2-4950-9891-1a96f5bc0caa","ios":"levelo://app?vid=1b4e444c-b4c2-4950-9891-1a96f5bc0caa"},"vehicle_type_id":"4","last_reported":1761826873,"current_range_meters":19200,"station_id":"ce4bhmh2rcd13ifvqgmg","pricing_plan_id":"cebpf4jnsgd1na2vs0mg"},{"bike_id":"420c6014-3dda-497a-bf80-db8c7dfa6d9c","system_id":"levelo_inurba_marseille","lat":43.301138,"lon":5.43129,"is_reserved":false,"is_disabled":false,"rental_uris":{"android":"levelo://app?vid=420c6014-3dda-497a-bf80-db8c7dfa6d9c","ios":"levelo://app?vid=420c6014-3dda-497a-bf80-db8c7dfa6d9c"},"vehicle_type_id":"4","last_reported":1761826873,"current_range_meters":19600,"station_id":"ce4bh9p2rcd13ifvqec0","pricing_plan_id":"cebpf4jnsgd1na2vs0mg"},{"bike_id":"6787dfb7-4499-48de-8fff-ea4e38bd98bd","system_id":"levelo_inurba_marseille","lat":43.30141,"lon":5.37427,"is_reserved":false,"is_disabled":false,"rental_uris":{"android":"levelo://app?vid=6787dfb7-4499-48de-8fff-ea4e38bd98bd","ios":"levelo://app?vid=6787dfb7-4499-48de-8fff-ea4e38bd98bd"},"vehicle_type_id":"4","last_reported":1761826873,"current_range_meters":19600,"station_id":"ce4bgs92rcd13ifvqcc0","pricing_plan_id":"cebpf4jnsgd1na2vs0mg"},{"bike_id":"f7986849-5488-47e8-b8c2-0ebfdf9d8390","system_id":"levelo_inurba_marseille","lat":43.2468,"lon":5.38185,"is_reserved":false,"is_disabled":false,"rental_uris":{"android":"levelo://app?vid=f7986849-5488-47e8-b8c2-0ebfdf9d8390","ios":"levelo://app?vid=f7986849-5488-47e8-b8c2-0ebfdf9d8390"},"vehicle_type_id":"4","last_reported":1761826873,"current_range_meters":19600,"station_id":"ce4bhih2rcd13ifvqfr0","pricing_plan_id":"cebpf4jnsgd1na2vs0mg"},{"bike_id":"0a9abdf5-79f0-47db-9743-c4be71bd0ac0","system_id":"levelo_inurba_marseille","lat":43.3014,"lon":5.4311,"is_reserved":false,"is_disabled":false,"rental_uris":{"android":"levelo://app?vid=0a9abdf5-79f0-47db-9743-c4be71bd0ac0","ios":"levelo://app?vid=0a9abdf5-79f0-47db-9743-c4be71bd0ac0"},"vehicle_type_id":"4","last_reported":1761826873,"current_range_meters":19600,"station_id":"st_d3js3co5814s73ftftug","pricing_plan_id":"cebpf4jnsgd1na2vs0mg"},{"bike_id":"7d25d21d-1831-4eba-9168-89d3ade37c3e","system_id":"levelo_inurba_marseille","lat":43.30278,"lon":5.37711,"is_reserved":false,"is_disabled":false,"rental_uris":{"android":"levelo://app?vid=7d25d21d-1831-4eba-9168-89d3ade37c3e","ios":"levelo://app?vid=7d25d21d-1831-4eba-9168-89d3ade37c3e"},"vehicle_type_id":"4","last_reported":1761826873,"current_range_meters":19600,"station_id":"ce4bguh2rcd13ifvqcj0","pricing_plan_id":"cebpf4jnsgd1na2vs0mg"},{"bike_id":"36a11609-9db6-4801-a4a3-7b3568932d85","system_id":"levelo_inurba_marseille","lat":43.292728,"lon":5.368454,"is_reserved":false,"is_disabled":false,"rental_uris":{"android":"levelo://app?vid=36a11609-9db6-4801-a4a3-7b3568932d85","ios":"levelo://app?vid=36a11609-9db6-4801-a4a3-7b3568932d85"},"vehicle_type_id":"4","last_reported":1761826873,"current_range_meters":19600,"station_id":"ce4bhbp2rcd13ifvqesg","pricing_plan_id":"cebpf4jnsgd1na2vs0mg"},{"bike_id":"bda1cf16-91bb-49ee-a178-d588354faf1b","system_id":"levelo_inurba_marseille","lat":43.26549,"lon":5.37286,"is_reserved":false,"is_disabled":false,"rental_uris":{"android":"levelo://app?vid=bda1cf16-91bb-49ee-a178-d588354faf1b","ios":"levelo://app?vid=bda1cf16-91bb-49ee-a178-d588354faf1b"},"vehicle_type_id":"4","last_reported":1761826873,"current_range_meters":19600,"station_id":"ce4bhg12rcd13ifvqf70","pricing_plan_id":"cebpf4jnsgd1na2vs0mg"},{"bike_id":"91fab070-569c-458a-b7a9-ce203c556e30","system_id":"levelo_inurba_marseille","lat":43.21179,"lon":5.35093,"is_reserved":false,"is_disabled":false,"rental_uris":{"android":"levelo://app?vid=91fab070-569c-458a-b7a9-ce203c556e30","ios":"levelo://app?vid=91fab070-569c-458a-b7a9-ce203c556e30"},"vehicle_type_id":"4","last_reported":1761826873,"current_range_meters":19600,"station_id":"st_cvj6sg6p6f1abm77japg","pricing_plan_id":"cebpf4jnsgd1na2vs0mg"},{"bike_id":"e1dbd190-5267-4d72-befa-df28aabbe041","system_id":"levelo_inurba_marseille","lat":43.24017,"lon":5.36244,"is_reserved":false,"is_disabled":false,"rental_uris":{"android":"levelo://app?vid=e1dbd190-5267-4d72-befa-df28aabbe041","ios":"levelo://app?vid=e1dbd190-5267-4d72-befa-df28aabbe041"},"vehicle_type_id":"4","last_reported":1761826873,"current_range_meters":19600,"station_id":"","pricing_plan_id":"cebpf4jnsgd1na2vs0mg"},{"bike_id":"68e629e6-4332-4de0-a0d6-6142439992aa","system_id":"levelo_inurba_marseille","lat":43.31544,"lon":5.38009,"is_reserved":false,"is_disabled":false,"rental_uris":{"android":"levelo://app?vid=68e629e6-4332-4de0-a0d6-6142439992aa","ios":"levelo://app?vid=68e629e6-4332-4de0-a0d6-6142439992aa"},"vehicle_type_id":"4","last_reported":1761826873,"current_range_meters":20000,"station_id":"ce4bhsp2rcd13ifvqi50","pricing_plan_id":"cebpf4jnsgd1na2vs0mg"},{"bike_id":"dc019d93-95a9-47c6-b72a-c76434025334","system_id":"levelo_inurba_marseille","lat":43.301875,"lon":5.366215,"is_reserved":false,"is_disabled":false,"rental_uris":{"android":"levelo://app?vid=dc019d93-95a9-47c6-b72a-c76434025334","ios":"levelo://app?vid=dc019d93-95a9-47c6-b72a-c76434025334"},"vehicle_type_id":"4","last_reported":1761826873,"current_range_meters":20000,"station_id":"ce4bgrh2rcd13ifvqc8g","pricing_plan_id":"cebpf4jnsgd1na2vs0mg"},{"bike_id":"8ba39452-163f-42d2-87c6-c114cd2c71e8","system_id":"levelo_inurba_marseille","lat":43.29576,"lon":5.37492,"is_reserved":false,"is_disabled":false,"rental_uris":{"android":"levelo://app?vid=8ba39452-163f-42d2-87c6-c114cd2c71e8","ios":"levelo://app?vid=8ba39452-163f-42d2-87c6-c114cd2c71e8"},"vehicle_type_id":"4","last_reported":1761826873,"current_range_meters":20000,"station_id":"ce4bgh92rcd13ifvqb50","pricing_plan_id":"cebpf4jnsgd1na2vs0mg"},{"bike_id":"179ce6e6-2ed9-442e-92a4-9e439bdae226","system_id":"levelo_inurba_marseille","lat":43.3121,"lon":5.36996,"is_reserved":false,"is_disabled":false,"rental_uris":{"android":"levelo://app?vid=179ce6e6-2ed9-442e-92a4-9e439bdae226","ios":"levelo://app?vid=179ce6e6-2ed9-442e-92a4-9e439bdae226"},"vehicle_type_id":"4","last_reported":1761826873,"current_range_meters":20000,"station_id":"ce4bgl92rcd13ifvqbq0","pricing_plan_id":"cebpf4jnsgd1na2vs0mg"},{"bike_id":"4290b4ba-108f-4964-b6ca-7b0ab243eb11","system_id":"levelo_inurba_marseille","lat":43.28698,"lon":5.39973,"is_reserved":false,"is_disabled":false,"rental_uris":{"android":"levelo://app?vid=4290b4ba-108f-4964-b6ca-7b0ab243eb11","ios":"levelo://app?vid=4290b4ba-108f-4964-b6ca-7b0ab243eb11"},"vehicle_type_id":"4","last_reported":1761826873,"current_range_meters":20000,"station_id":"ce4bho92rcd13ifvqh3g","pricing_plan_id":"cebpf4jnsgd1na2vs0mg"},{"bike_id":"120940a2-38a7-4258-836f-f8203348377c","system_id":"levelo_inurba_marseille","lat":43.292003,"lon":5.358059,"is_reserved":false,"is_disabled":false,"rental_uris":{"android":"levelo://app?vid=120940a2-38a7-4258-836f-f8203348377c","ios":"levelo://app?vid=120940a2-38a7-4258-836f-f8203348377c"},"vehicle_type_id":"4","last_reported":1761826873,"current_range_meters":20000,"station_id":"ce4bhb12rcd13ifvqel0","pricing_plan_id":"cebpf4jnsgd1na2vs0mg"},{"bike_id":"c76f5740-f04b-475f-b20c-ba9bf99b1583","system_id":"levelo_inurba_marseille","lat":43.27182,"lon":5.40978,"is_reserved":false,"is_disabled":false,"rental_uris":{"android":"levelo://app?vid=c76f5740-f04b-475f-b20c-ba9bf99b1583","ios":"levelo://app?vid=c76f5740-f04b-475f-b20c-ba9bf99b1583"},"vehicle_type_id":"4","last_reported":1761826873,"current_range_meters":20000,"station_id":"ce4bhl12rcd13ifvqgf0","pricing_plan_id":"cebpf4jnsgd1na2vs0mg"},{"bike_id":"8addfb9c-68d4-4b75-8da3-df90ea7c453f","system_id":"levelo_inurba_marseille","lat":43.30953,"lon":5.39027,"is_reserved":false,"is_disabled":false,"rental_uris":{"android":"levelo://app?vid=8addfb9c-68d4-4b75-8da3-df90ea7c453f","ios":"levelo://app?vid=8addfb9c-68d4-4b75-8da3-df90ea7c453f"},"vehicle_type_id":"4","last_reported":1761826873,"current_range_meters":20000,"station_id":"ce4bgup2rcd13ifvqco0","pricing_plan_id":"cebpf4jnsgd1na2vs0mg"},{"bike_id":"3e147cc7-1c05-4c10-88db-3d10fe34fe3a","system_id":"levelo_inurba_marseille","lat":43.24644,"lon":5.43145,"is_reserved":false,"is_disabled":false,"rental_uris":{"android":"levelo://app?vid=3e147cc7-1c05-4c10-88db-3d10fe34fe3a","ios":"levelo://app?vid=3e147cc7-1c05-4c10-88db-3d10fe34fe3a"},"vehicle_type_id":"4","last_reported":1761826873,"current_range_meters":20000,"station_id":"st_d2m6c4gdas8pm72e190g","pricing_plan_id":"cebpf4jnsgd1na2vs0mg"},{"bike_id":"74fb40b5-09ba-4fbd-ac16-98c4cfca9fb1","system_id":"levelo_inurba_marseille","lat":43.2417,"lon":5.36392,"is_reserved":false,"is_disabled":false,"rental_uris":{"android":"levelo://app?vid=74fb40b5-09ba-4fbd-ac16-98c4cfca9fb1","ios":"levelo://app?vid=74fb40b5-09ba-4fbd-ac16-98c4cfca9fb1"},"vehicle_type_id":"4","last_reported":1761826873,"current_range_meters":20400,"station_id":"cpo36qri1sfpv3e86is0","pricing_plan_id":"cebpf4jnsgd1na2vs0mg"},{"bike_id":"059c07bc-af1b-421b-8fef-ee235e3c6e42","system_id":"levelo_inurba_marseille","lat":43.29099,"lon":5.38119,"is_reserved":false,"is_disabled":false,"rental_uris":{"android":"levelo://app?vid=059c07bc-af1b-421b-8fef-ee235e3c6e42","ios":"levelo://app?vid=059c07bc-af1b-421b-8fef-ee235e3c6e42"},"vehicle_type_id":"4","last_reported":1761826873,"current_range_meters":20400,"station_id":"ce4bh512rcd13ifvqe2g","pricing_plan_id":"cebpf4jnsgd1na2vs0mg"},{"bike_id":"4dfda3f6-0107-4abe-9691-c087da796c03","system_id":"levelo_inurba_marseille","lat":43.29044,"lon":5.37573,"is_reserved":false,"is_disabled":false,"rental_uris":{"android":"levelo://app?vid=4dfda3f6-0107-4abe-9691-c087da796c03","ios":"levelo://app?vid=4dfda3f6-0107-4abe-9691-c087da796c03"},"vehicle_type_id":"4","last_reported":1761826873,"current_range_meters":20400,"station_id":"ce4bh692rcd13ifvqe90","pricing_plan_id":"cebpf4jnsgd1na2vs0mg"},{"bike_id":"e974006c-e3c8-4c1a-9a8d-ea5c7e7acb49","system_id":"levelo_inurba_marseille","lat":43.28541,"lon":5.44083,"is_reserved":false,"is_disabled":false,"rental_uris":{"android":"levelo://app?vid=e974006c-e3c8-4c1a-9a8d-ea5c7e7acb49","ios":"levelo://app?vid=e974006c-e3c8-4c1a-9a8d-ea5c7e7acb49"},"vehicle_type_id":"4","last_reported":1761826873,"current_range_meters":20400,"station_id":"st_d3j3df2ikq2c7380ej80","pricing_plan_id":"cebpf4jnsgd1na2vs0mg"},{"bike_id":"e02b8061-ba2d-4d7c-8048-3c9472854eb0","system_id":"levelo_inurba_marseille","lat":43.27328,"lon":5.39091,"is_reserved":false,"is_disabled":false,"rental_uris":{"android":"levelo://app?vid=e02b8061-ba2d-4d7c-8048-3c9472854eb0","ios":"levelo://app?vid=e02b8061-ba2d-4d7c-8048-3c9472854eb0"},"vehicle_type_id":"4","last_reported":1761826873,"current_range_meters":20400,"station_id":"ce4bhgp2rcd13ifvqfe0","pricing_plan_id":"cebpf4jnsgd1na2vs0mg"},{"bike_id":"184d28e3-b90a-4f94-9392-6703a8d0a131","system_id":"levelo_inurba_marseille","lat":43.30362,"lon":5.42499,"is_reserved":false,"is_disabled":false,"rental_uris":{"android":"levelo://app?vid=184d28e3-b90a-4f94-9392-6703a8d0a131","ios":"levelo://app?vid=184d28e3-b90a-4f94-9392-6703a8d0a131"},"vehicle_type_id":"4","last_reported":1761826873,"current_range_meters":20400,"station_id":"ce4bhoh2rcd13ifvqh6g","pricing_plan_id":"cebpf4jnsgd1na2vs0mg"},{"bike_id":"831ee1e1-0830-43d2-b356-480d28a65e63","system_id":"levelo_inurba_marseille","lat":43.27792,"lon":5.362424,"is_reserved":false,"is_disabled":false,"rental_uris":{"android":"levelo://app?vid=831ee1e1-0830-43d2-b356-480d28a65e63","ios":"levelo://app?vid=831ee1e1-0830-43d2-b356-480d28a65e63"},"vehicle_type_id":"4","last_reported":1761826873,"current_range_meters":20400,"station_id":"ce4bh412rcd13ifvqds0","pricing_plan_id":"cebpf4jnsgd1na2vs0mg"},{"bike_id":"53e66290-0ede-4a08-8fbe-aadbd1038f64","system_id":"levelo_inurba_marseille","lat":43.32116,"lon":5.36778,"is_reserved":false,"is_disabled":false,"rental_uris":{"android":"levelo://app?vid=53e66290-0ede-4a08-8fbe-aadbd1038f64","ios":"levelo://app?vid=53e66290-0ede-4a08-8fbe-aadbd1038f64"},"vehicle_type_id":"4","last_reported":1761826873,"current_range_meters":20400,"station_id":"ce4bhrh2rcd13ifvqhug","pricing_plan_id":"cebpf4jnsgd1na2vs0mg"},{"bike_id":"90cc4e35-1e9a-4d48-878d-a3997094c0ce","system_id":"levelo_inurba_marseille","lat":43.246334,"lon":5.431452,"is_reserved":false,"is_disabled":false,"rental_uris":{"android":"levelo://app?vid=90cc4e35-1e9a-4d48-878d-a3997094c0ce","ios":"levelo://app?vid=90cc4e35-1e9a-4d48-878d-a3997094c0ce"},"vehicle_type_id":"4","last_reported":1761826873,"current_range_meters":20400,"station_id":"st_d2m6c4gdas8pm72e190g","pricing_plan_id":"cebpf4jnsgd1na2vs0mg"},{"bike_id":"8569d2d9-ab4e-4bf3-8243-0008a46fb7ef","system_id":"levelo_inurba_marseille","lat":43.217407,"lon":5.346073,"is_reserved":false,"is_disabled":false,"rental_uris":{"android":"levelo://app?vid=8569d2d9-ab4e-4bf3-8243-0008a46fb7ef","ios":"levelo://app?vid=8569d2d9-ab4e-4bf3-8243-0008a46fb7ef"},"vehicle_type_id":"4","last_reported":1761826873,"current_range_meters":20800,"station_id":"st_cvj6r9ubvosntc0bgbag","pricing_plan_id":"cebpf4jnsgd1na2vs0mg"},{"bike_id":"af74471a-600d-4cc7-bc03-f7a0f18cce4e","system_id":"levelo_inurba_marseille","lat":43.273752,"lon":5.362607,"is_reserved":false,"is_disabled":false,"rental_uris":{"android":"levelo://app?vid=af74471a-600d-4cc7-bc03-f7a0f18cce4e","ios":"levelo://app?vid=af74471a-600d-4cc7-bc03-f7a0f18cce4e"},"vehicle_type_id":"4","last_reported":1761826873,"current_range_meters":20800,"station_id":"","pricing_plan_id":"cebpf4jnsgd1na2vs0mg"},{"bike_id":"cb1fa815-aefd-4bd1-952d-88e4cf3eea21","system_id":"levelo_inurba_marseille","lat":43.2293,"lon":5.35383,"is_reserved":false,"is_disabled":false,"rental_uris":{"android":"levelo://app?vid=cb1fa815-aefd-4bd1-952d-88e4cf3eea21","ios":"levelo://app?vid=cb1fa815-aefd-4bd1-952d-88e4cf3eea21"},"vehicle_type_id":"4","last_reported":1761826873,"current_range_meters":20800,"station_id":"cpo3532slgdg3j2ikp40","pricing_plan_id":"cebpf4jnsgd1na2vs0mg"},{"bike_id":"cbb665fa-281a-4631-b1f8-985ccb6b7530","system_id":"levelo_inurba_marseille","lat":43.24178,"lon":5.39722,"is_reserved":false,"is_disabled":false,"rental_uris":{"android":"levelo://app?vid=cbb665fa-281a-4631-b1f8-985ccb6b7530","ios":"levelo://app?vid=cbb665fa-281a-4631-b1f8-985ccb6b7530"},"vehicle_type_id":"4","last_reported":1761826873,"current_range_meters":20800,"station_id":"ce4bhn12rcd13ifvqgpg","pricing_plan_id":"cebpf4jnsgd1na2vs0mg"},{"bike_id":"dd7effdd-b4d0-4944-b416-eed0dda84790","system_id":"levelo_inurba_marseille","lat":43.286154,"lon":5.370665,"is_reserved":false,"is_disabled":false,"rental_uris":{"android":"levelo://app?vid=dd7effdd-b4d0-4944-b416-eed0dda84790","ios":"levelo://app?vid=dd7effdd-b4d0-4944-b416-eed0dda84790"},"vehicle_type_id":"4","last_reported":1761826873,"current_range_meters":20800,"station_id":"","pricing_plan_id":"cebpf4jnsgd1na2vs0mg"},{"bike_id":"bb423be3-b250-4e22-85e9-4b181dbadbd9","system_id":"levelo_inurba_marseille","lat":43.23154,"lon":5.43701,"is_reserved":false,"is_disabled":false,"rental_uris":{"android":"levelo://app?vid=bb423be3-b250-4e22-85e9-4b181dbadbd9","ios":"levelo://app?vid=bb423be3-b250-4e22-85e9-4b181dbadbd9"},"vehicle_type_id":"4","last_reported":1761826873,"current_range_meters":20800,"station_id":"ce4bhmp2rcd13ifvqgog","pricing_plan_id":"cebpf4jnsgd1na2vs0mg"},{"bike_id":"0e1a3c98-ef7b-480d-9f1c-3dfe3a257800","system_id":"levelo_inurba_marseille","lat":43.29099,"lon":5.38152,"is_reserved":false,"is_disabled":false,"rental_uris":{"android":"levelo://app?vid=0e1a3c98-ef7b-480d-9f1c-3dfe3a257800","ios":"levelo://app?vid=0e1a3c98-ef7b-480d-9f1c-3dfe3a257800"},"vehicle_type_id":"4","last_reported":1761826873,"current_range_meters":21600,"station_id":"ce4bh512rcd13ifvqe2g","pricing_plan_id":"cebpf4jnsgd1na2vs0mg"},{"bike_id":"b1e81361-2b17-4ef1-8a58-6def5753471b","system_id":"levelo_inurba_marseille","lat":43.33753,"lon":5.37484,"is_reserved":false,"is_disabled":false,"rental_uris":{"android":"levelo://app?vid=b1e81361-2b17-4ef1-8a58-6def5753471b","ios":"levelo://app?vid=b1e81361-2b17-4ef1-8a58-6def5753471b"},"vehicle_type_id":"4","last_reported":1761826873,"current_range_meters":21600,"station_id":"","pricing_plan_id":"cebpf4jnsgd1na2vs0mg"},{"bike_id":"a5fdf179-67ab-431e-9d49-ef288a6f7094","system_id":"levelo_inurba_marseille","lat":43.30638,"lon":5.37309,"is_reserved":false,"is_disabled":false,"rental_uris":{"android":"levelo://app?vid=a5fdf179-67ab-431e-9d49-ef288a6f7094","ios":"levelo://app?vid=a5fdf179-67ab-431e-9d49-ef288a6f7094"},"vehicle_type_id":"4","last_reported":1761826873,"current_range_meters":21600,"station_id":"ce4bgv92rcd13ifvqcq0","pricing_plan_id":"cebpf4jnsgd1na2vs0mg"},{"bike_id":"b29adc19-b67e-454c-a0de-f667e061e9f5","system_id":"levelo_inurba_marseille","lat":43.24819,"lon":5.37473,"is_reserved":false,"is_disabled":false,"rental_uris":{"android":"levelo://app?vid=b29adc19-b67e-454c-a0de-f667e061e9f5","ios":"levelo://app?vid=b29adc19-b67e-454c-a0de-f667e061e9f5"},"vehicle_type_id":"4","last_reported":1761826873,"current_range_meters":21600,"station_id":"ce4bhgh2rcd13ifvqfb0","pricing_plan_id":"cebpf4jnsgd1na2vs0mg"},{"bike_id":"a86389bb-3604-46d8-b8db-ed2ce28aa894","system_id":"levelo_inurba_marseille","lat":43.29792,"lon":5.39341,"is_reserved":false,"is_disabled":false,"rental_uris":{"android":"levelo://app?vid=a86389bb-3604-46d8-b8db-ed2ce28aa894","ios":"levelo://app?vid=a86389bb-3604-46d8-b8db-ed2ce28aa894"},"vehicle_type_id":"4","last_reported":1761826873,"current_range_meters":21600,"station_id":"chh1huq6cuj3fo74tm60","pricing_plan_id":"cebpf4jnsgd1na2vs0mg"},{"bike_id":"576e565b-2478-462c-8105-778196cda7b9","system_id":"levelo_inurba_marseille","lat":43.27421,"lon":5.39413,"is_reserved":false,"is_disabled":false,"rental_uris":{"android":"levelo://app?vid=576e565b-2478-462c-8105-778196cda7b9","ios":"levelo://app?vid=576e565b-2478-462c-8105-778196cda7b9"},"vehicle_type_id":"4","last_reported":1761826873,"current_range_meters":21600,"station_id":"ce4bhdp2rcd13ifvqf20","pricing_plan_id":"cebpf4jnsgd1na2vs0mg"},{"bike_id":"2df24f4e-bbb0-4ee1-ab6c-2d1c698d3abd","system_id":"levelo_inurba_marseille","lat":43.32055,"lon":5.41542,"is_reserved":false,"is_disabled":false,"rental_uris":{"android":"levelo://app?vid=2df24f4e-bbb0-4ee1-ab6c-2d1c698d3abd","ios":"levelo://app?vid=2df24f4e-bbb0-4ee1-ab6c-2d1c698d3abd"},"vehicle_type_id":"4","last_reported":1761826873,"current_range_meters":21600,"station_id":"ce4bhq92rcd13ifvqhkg","pricing_plan_id":"cebpf4jnsgd1na2vs0mg"},{"bike_id":"4c048a96-d103-4561-9dfa-cea6174628b6","system_id":"levelo_inurba_marseille","lat":43.3213,"lon":5.36761,"is_reserved":false,"is_disabled":false,"rental_uris":{"android":"levelo://app?vid=4c048a96-d103-4561-9dfa-cea6174628b6","ios":"levelo://app?vid=4c048a96-d103-4561-9dfa-cea6174628b6"},"vehicle_type_id":"4","last_reported":1761826873,"current_range_meters":22000,"station_id":"ce4bhrh2rcd13ifvqhug","pricing_plan_id":"cebpf4jnsgd1na2vs0mg"},{"bike_id":"3c76c202-ec16-409e-82ec-c15e4d1dc19b","system_id":"levelo_inurba_marseille","lat":43.29625,"lon":5.37728,"is_reserved":false,"is_disabled":false,"rental_uris":{"android":"levelo://app?vid=3c76c202-ec16-409e-82ec-c15e4d1dc19b","ios":"levelo://app?vid=3c76c202-ec16-409e-82ec-c15e4d1dc19b"},"vehicle_type_id":"4","last_reported":1761826873,"current_range_meters":22000,"station_id":"ce4bgi92rcd13ifvqb90","pricing_plan_id":"cebpf4jnsgd1na2vs0mg"},