{"last_updated":1735232871,"ttl":60,"version":"2.2","data":{"bikes":[{"bike_id":"dfd00d02-bd4d-4b8a-80ec-fc5003d73139","system_id":"levelo_inurba_marseille","lat":43.26503,"lon":5.3954,"is_reserved":false,"is_disabled":false,"rental_uris":{"android":"levelo://app?vid=dfd00d02-bd4d-4b8a-80ec-fc5003d73139","ios":"levelo://app?vid=dfd00d02-bd4d-4b8a-80ec-fc5003d73139"},"vehicle_type_id":"4","last_reported":1735232872,"current_range_meters":24800,"station_id":"ce4bhi12rcd13ifvqfq0","pricing_plan_id":"cebpf4jnsgd1na2vs0mg"},{"bike_id":"02f10b7d-aaef-415b-8fe3-cae349f4991b","system_id":"levelo_inurba_marseille","lat":43.29529,"lon":5.38538,"is_reserved":false,"is_disabled":false,"rental_uris":{"android":"levelo://app?vid=02f10b7d-aaef-415b-8fe3-cae349f4991b","ios":"levelo://app?vid=02f10b7d-aaef-415b-8fe3-cae349f4991b"},"vehicle_type_id":"4","last_reported":1735232872,"current_range_meters":20000,"station_id":"ce4bgih2rcd13ifvqba0","pricing_plan_id":"cebpf4jnsgd1na2vs0mg"},{"bike_id":"5238aba4-0817-405d-b4a5-1b647b1d378d","system_id":"levelo_inurba_marseille","lat":43.27903,"lon":5.38019,"is_reserved":false,"is_disabled":false,"rental_uris":{"android":"levelo://app?vid=5238aba4-0817-405d-b4a5-1b647b1d378d","ios":"levelo://app?vid=5238aba4-0817-405d-b4a5-1b647b1d378d"},"vehicle_type_id":"4","last_reported":1735232872,"current_range_meters":24400,"station_id":"ce4bhf92rcd13ifvqf50","pricing_plan_id":"cebpf4jnsgd1na2vs0mg"},{"bike_id":"015f3506-0edf-4591-879e-490275f7a7d2","system_id":"levelo_inurba_marseille","lat":43.23963,"lon":5.36627,"is_reserved":false,"is_disabled":false,"rental_uris":{"android":"levelo://app?vid=015f3506-0edf-4591-879e-490275f7a7d2","ios":"levelo://app?vid=015f3506-0edf-4591-879e-490275f7a7d2"},"vehicle_type_id":"4","last_reported":1735232872,"current_range_meters":29600,"station_id":"ce4bhi12rcd13ifvqfp0","pricing_plan_id":"cebpf4jnsgd1na2vs0mg"},{"bike_id":"b09c5416-8f2b-4a41-b23f-99ed8ff57b3f","system_id":"levelo_inurba_marseille","lat":43.25072,"lon":5.39502,"is_reserved":false,"is_disabled":false,"rental_uris":{"android":"levelo://app?vid=b09c5416-8f2b-4a41-b23f-99ed8ff57b3f","ios":"levelo://app?vid=b09c5416-8f2b-4a41-b23f-99ed8ff57b3f"},"vehicle_type_id":"4","last_reported":1735232872,"current_range_meters":39200,"station_id":"ce4bhm12rcd13ifvqgkg","pricing_plan_id":"cebpf4jnsgd1na2vs0mg"},{"bike_id":"4002b2fd-0047-43bc-a817-e8ae2b385cad","system_id":"levelo_inurba_marseille","lat":43.27942,"lon":5.41051,"is_reserved":false,"is_disabled":false,"rental_uris":{"android":"levelo://app?vid=4002b2fd-0047-43bc-a817-e8ae2b385cad","ios":"levelo://app?vid=4002b2fd-0047-43bc-a817-e8ae2b385cad"},"vehicle_type_id":"4","last_reported":1735232872,"current_range_meters":21600,"station_id":"ce4bhnp2rcd13ifvqh0g","pricing_plan_id":"cebpf4jnsgd1na2vs0mg"},{"bike_id":"1f14806d-ae11-4061-998c-72dada3be529","system_id":"levelo_inurba_marseille","lat":43.28031,"lon":5.36943,"is_reserved":false,"is_disabled":false,"rental_uris":{"android":"levelo://app?vid=1f14806d-ae11-4061-998c-72dada3be529","ios":"levelo://app?vid=1f14806d-ae11-4061-998c-72dada3be529"},"vehicle_type_id":"4","last_reported":1735232872,"current_range_meters":38800,"station_id":"ce4bha12rcd13ifvqef0","pricing_plan_id":"cebpf4jnsgd1na2vs0mg"},{"bike_id":"ef055ca5-748a-47d4-a389-96d8e4090452","system_id":"levelo_inurba_marseille","lat":43.31112,"lon":5.3776,"is_reserved":false,"is_disabled":false,"rental_uris":{"android":"levelo://app?vid=ef055ca5-748a-47d4-a389-96d8e4090452","ios":"levelo://app?vid=ef055ca5-748a-47d4-a389-96d8e4090452"},"vehicle_type_id":"4","last_reported":1735232872,"current_range_meters":22400,"station_id":"ce4bgt92rcd13ifvqcg0","pricing_plan_id":"cebpf4jnsgd1na2vs0mg"},{"bike_id":"3991aac2-ec7f-43c8-801f-23e11845f2d6","system_id":"levelo_inurba_marseille","lat":43.28152,"lon":5.42641,"is_reserved":false,"is_disabled":false,"rental_uris":{"android":"levelo://app?vid=3991aac2-ec7f-43c8-801f-23e11845f2d6","ios":"levelo://app?vid=3991aac2-ec7f-43c8-801f-23e11845f2d6"},"vehicle_type_id":"4","last_reported":1735232872,"current_range_meters":22800,"station_id":"ce4bhnh2rcd13ifvqgug","pricing_plan_id":"cebpf4jnsgd1na2vs0mg"},{"bike_id":"d8c854c6-f7ad-479f-bd7b-eeaa7e4fcc66","system_id":"levelo_inurba_marseille","lat":43.28359,"lon":5.38623,"is_reserved":false,"is_disabled":false,"rental_uris":{"android":"levelo://app?vid=d8c854c6-f7ad-479f-bd7b-eeaa7e4fcc66","ios":"levelo://app?vid=d8c854c6-f7ad-479f-bd7b-eeaa7e4fcc66"},"vehicle_type_id":"4","last_reported":1735232872,"current_range_meters":38800,"station_id":"ce4bh492rcd13ifvqdvg","pricing_plan_id":"cebpf4jnsgd1na2vs0mg"},{"bike_id":"aa910906-3ca2-4107-80e1-4fe46d1472a6","system_id":"levelo_inurba_marseille","lat":43.32047,"lon":5.41554,"is_reserved":false,"is_disabled":false,"rental_uris":{"android":"levelo://app?vid=aa910906-3ca2-4107-80e1-4fe46d1472a6","ios":"levelo://app?vid=aa910906-3ca2-4107-80e1-4fe46d1472a6"},"vehicle_type_id":"4","last_reported":1735232872,"current_range_meters":38400,"station_id":"ce4bhq92rcd13ifvqhkg","pricing_plan_id":"cebpf4jnsgd1na2vs0mg"},{"bike_id":"d0bd85f8-be15-4d35-b411-aa7db25104d6","system_id":"levelo_inurba_marseille","lat":43.24547,"lon":5.39523,"is_reserved":false,"is_disabled":false,"rental_uris":{"android":"levelo://app?vid=d0bd85f8-be15-4d35-b411-aa7db25104d6","ios":"levelo://app?vid=d0bd85f8-be15-4d35-b411-aa7db25104d6"},"vehicle_type_id":"4","last_reported":1735232872,"current_range_meters":38800,"station_id":"ce4bhlp2rcd13ifvqgjg","pricing_plan_id":"cebpf4jnsgd1na2vs0mg"},{"bike_id":"ba6d85e2-7207-425d-898a-b7b3093733b9","system_id":"levelo_inurba_marseille","lat":43.27058,"lon":5.42263,"is_reserved":false,"is_disabled":false,"rental_uris":{"android":"levelo://app?vid=ba6d85e2-7207-425d-898a-b7b3093733b9","ios":"levelo://app?vid=ba6d85e2-7207-425d-898a-b7b3093733b9"},"vehicle_type_id":"4","last_reported":1735232872,"current_range_meters":37600,"station_id":"ce4bhk92rcd13ifvqgb0","pricing_plan_id":"cebpf4jnsgd1na2vs0mg"},{"bike_id":"a14d744f-7e07-417c-ab27-34286df72687","system_id":"levelo_inurba_marseille","lat":43.23191,"lon":5.35544,"is_reserved":false,"is_disabled":false,"rental_uris":{"android":"levelo://app?vid=a14d744f-7e07-417c-ab27-34286df72687","ios":"levelo://app?vid=a14d744f-7e07-417c-ab27-34286df72687"},"vehicle_type_id":"4","last_reported":1735232872,"current_range_meters":7200,"station_id":"ce4bhu92rcd13ifvqi70","pricing_plan_id":"cebpf4jnsgd1na2vs0mg"},{"bike_id":"005093bd-bc75-4130-9b81-85c3a4edf08f","system_id":"levelo_inurba_marseille","lat":43.27195,"lon":5.39179,"is_reserved":false,"is_disabled":false,"rental_uris":{"android":"levelo://app?vid=005093bd-bc75-4130-9b81-85c3a4edf08f","ios":"levelo://app?vid=005093bd-bc75-4130-9b81-85c3a4edf08f"},"vehicle_type_id":"4","last_reported":1735232872,"current_range_meters":35200,"station_id":"ce4bhhp2rcd13ifvqfm0","pricing_plan_id":"cebpf4jnsgd1na2vs0mg"},{"bike_id":"5bee95f1-fdd3-4371-a9d2-156b6c2cb6af","system_id":"levelo_inurba_marseille","lat":43.26949,"lon":5.38626,"is_reserved":false,"is_disabled":false,"rental_uris":{"android":"levelo://app?vid=5bee95f1-fdd3-4371-a9d2-156b6c2cb6af","ios":"levelo://app?vid=5bee95f1-fdd3-4371-a9d2-156b6c2cb6af"},"vehicle_type_id":"4","last_reported":1735232872,"current_range_meters":22800,"station_id":"ce4bhh92rcd13ifvqfh0","pricing_plan_id":"cebpf4jnsgd1na2vs0mg"},{"bike_id":"23267f0c-d6e2-43b6-8e8d-d55180155fcc","system_id":"levelo_inurba_marseille","lat":43.29916,"lon":5.3747,"is_reserved":false,"is_disabled":false,"rental_uris":{"android":"levelo://app?vid=23267f0c-d6e2-43b6-8e8d-d55180155fcc","ios":"levelo://app?vid=23267f0c-d6e2-43b6-8e8d-d55180155fcc"},"vehicle_type_id":"4","last_reported":1735232872,"current_range_meters":26800,"station_id":"ce4bgjh2rcd13ifvqbg0","pricing_plan_id":"cebpf4jnsgd1na2vs0mg"},{"bike_id":"d4663405-bee1-476b-a9e6-b188d9eda682","system_id":"levelo_inurba_marseille","lat":43.30541,"lon":5.36699,"is_reserved":false,"is_disabled":false,"rental_uris":{"android":"levelo://app?vid=d4663405-bee1-476b-a9e6-b188d9eda682","ios":"levelo://app?vid=d4663405-bee1-476b-a9e6-b188d9eda682"},"vehicle_type_id":"4","last_reported":1735232872,"current_range_meters":36000,"station_id":"ce4bgrp2rcd13ifvqc9g","pricing_plan_id":"cebpf4jnsgd1na2vs0mg"},{"bike_id":"b63b84a6-b8c4-422e-ab87-29cdd003f127","system_id":"levelo_inurba_marseille","lat":43.31217,"lon":5.3685,"is_reserved":false,"is_disabled":false,"rental_uris":{"android":"levelo://app?vid=b63b84a6-b8c4-422e-ab87-29cdd003f127","ios":"levelo://app?vid=b63b84a6-b8c4-422e-ab87-29cdd003f127"},"vehicle_type_id":"4","last_reported":1735232872,"current_range_meters":12400,"station_id":"ce4bgl92rcd13ifvqbq0","pricing_plan_id":"cebpf4jnsgd1na2vs0mg"},{"bike_id":"ff891e39-252b-4d4e-8692-37efe0bea514","system_id":"levelo_inurba_marseille","lat":43.27946,"lon":5.41046,"is_reserved":false,"is_disabled":false,"rental_uris":{"android":"levelo://app?vid=ff891e39-252b-4d4e-8692-37efe0bea514","ios":"levelo://app?vid=ff891e39-252b-4d4e-8692-37efe0bea514"},"vehicle_type_id":"4","last_reported":1735232872,"current_range_meters":38800,"station_id":"ce4bhnp2rcd13ifvqh0g","pricing_plan_id":"cebpf4jnsgd1na2vs0mg"},{"bike_id":"54e82adf-653a-40bc-8212-b0e67d34d16f","system_id":"levelo_inurba_marseille","lat":43.29926,"lon":5.36521,"is_reserved":false,"is_disabled":false,"rental_uris":{"android":"levelo://app?vid=54e82adf-653a-40bc-8212-b0e67d34d16f","ios":"levelo://app?vid=54e82adf-653a-40bc-8212-b0e67d34d16f"},"vehicle_type_id":"4","last_reported":1735232872,"current_range_meters":12000,"station_id":"ce4bgm92rcd13ifvqbr0","pricing_plan_id":"cebpf4jnsgd1na2vs0mg"},{"bike_id":"7bf56867-f147-4165-89ee-4c8ea1ec9c93","system_id":"levelo_inurba_marseille","lat":43.29907,"lon":5.43665,"is_reserved":false,"is_disabled":false,"rental_uris":{"android":"levelo://app?vid=7bf56867-f147-4165-89ee-4c8ea1ec9c93","ios":"levelo://app?vid=7bf56867-f147-4165-89ee-4c8ea1ec9c93"},"vehicle_type_id":"4","last_reported":1735232872,"current_range_meters":38000,"station_id":"ce4bhpp2rcd13ifvqhfg","pricing_plan_id":"cebpf4jnsgd1na2vs0mg"},{"bike_id":"857344dd-6be1-4d34-90e7-6f62afbbef2e","system_id":"levelo_inurba_marseille","lat":43.32106,"lon":5.36764,"is_reserved":false,"is_disabled":false,"rental_uris":{"android":"levelo://app?vid=857344dd-6be1-4d34-90e7-6f62afbbef2e","ios":"levelo://app?vid=857344dd-6be1-4d34-90e7-6f62afbbef2e"},"vehicle_type_id":"4","last_reported":1735232872,"current_range_meters":10800,"station_id":"ce4bhrh2rcd13ifvqhug","pricing_plan_id":"cebpf4jnsgd1na2vs0mg"},{"bike_id":"8bb784aa-04c9-4996-8ca8-ea4b00c12859","system_id":"levelo_inurba_marseille","lat":43.30208,"lon":5.36603,"is_reserved":false,"is_disabled":false,"rental_uris":{"android":"levelo://app?vid=8bb784aa-04c9-4996-8ca8-ea4b00c12859","ios":"levelo://app?vid=8bb784aa-04c9-4996-8ca8-ea4b00c12859"},"vehicle_type_id":"4","last_reported":1735232872,"current_range_meters":39200,"station_id":"ce4bgrh2rcd13ifvqc8g","pricing_plan_id":"cebpf4jnsgd1na2vs0mg"},{"bike_id":"c3b1da72-7aa2-4efc-9736-ad0168ec3188","system_id":"levelo_inurba_marseille","lat":43.29031,"lon":5.38129,"is_reserved":false,"is_disabled":false,"rental_uris":{"android":"levelo://app?vid=c3b1da72-7aa2-4efc-9736-ad0168ec3188","ios":"levelo://app?vid=c3b1da72-7aa2-4efc-9736-ad0168ec3188"},"vehicle_type_id":"4","last_reported":1735232872,"current_range_meters":38800,"station_id":"ce4bh4p2rcd13ifvqe1g","pricing_plan_id":"cebpf4jnsgd1na2vs0mg"},{"bike_id":"f3aa85d1-5b96-49f5-a947-7c68fe96a831","system_id":"levelo_inurba_marseille","lat":43.31278,"lon":5.40168,"is_reserved":false,"is_disabled":false,"rental_uris":{"android":"levelo://app?vid=f3aa85d1-5b96-49f5-a947-7c68fe96a831","ios":"levelo://app?vid=f3aa85d1-5b96-49f5-a947-7c68fe96a831"},"vehicle_type_id":"4","last_reported":1735232872,"current_range_meters":16800,"station_id":"ce4bh092rcd13ifvqd30","pricing_plan_id":"cebpf4jnsgd1na2vs0mg"},{"bike_id":"b9809c41-7dac-4246-9178-07b42e5ce1be","system_id":"levelo_inurba_marseille","lat":43.25113,"lon":5.40317,"is_reserved":false,"is_disabled":false,"rental_uris":{"android":"levelo://app?vid=b9809c41-7dac-4246-9178-07b42e5ce1be","ios":"levelo://app?vid=b9809c41-7dac-4246-9178-07b42e5ce1be"},"vehicle_type_id":"4","last_reported":1735232872,"current_range_meters":32800,"station_id":"ce4bhlh2rcd13ifvqgig","pricing_plan_id":"cebpf4jnsgd1na2vs0mg"},{"bike_id":"4bd7f16b-a13a-408c-8f0b-645b687ee475","system_id":"levelo_inurba_marseille","lat":43.2408,"lon":5.37751,"is_reserved":false,"is_disabled":false,"rental_uris":{"android":"levelo://app?vid=4bd7f16b-a13a-408c-8f0b-645b687ee475","ios":"levelo://app?vid=4bd7f16b-a13a-408c-8f0b-645b687ee475"},"vehicle_type_id":"4","last_reported":1735232872,"current_range_meters":4800,"station_id":"ce4bhnp2rcd13ifvqgvg","pricing_plan_id":"cebpf4jnsgd1na2vs0mg"},{"bike_id":"d8ea974a-4a73-4aa7-892d-99d6b6bac9b7","system_id":"levelo_inurba_marseille","lat":43.2952,"lon":5.38531,"is_reserved":false,"is_disabled":false,"rental_uris":{"android":"levelo://app?vid=d8ea974a-4a73-4aa7-892d-99d6b6bac9b7","ios":"levelo://app?vid=d8ea974a-4a73-4aa7-892d-99d6b6bac9b7"},"vehicle_type_id":"4","last_reported":1735232872,"current_range_meters":24800,"station_id":"ce4bgih2rcd13ifvqba0","pricing_plan_id":"cebpf4jnsgd1na2vs0mg"},{"bike_id":"ad66ce9d-e2b2-4064-ae7f-fe87403c632b","system_id":"levelo_inurba_marseille","lat":43.23062,"lon":5.35495,"is_reserved":false,"is_disabled":false,"rental_uris":{"android":"levelo://app?vid=ad66ce9d-e2b2-4064-ae7f-fe87403c632b","ios":"levelo://app?vid=ad66ce9d-e2b2-4064-ae7f-fe87403c632b"},"vehicle_type_id":"4","last_reported":1735232872,"current_range_meters":28000,"station_id":"cpo3342slgdg3j2ifvpg","pricing_plan_id":"cebpf4jnsgd1na2vs0mg"},{"bike_id":"67bcc128-08c2-4bfd-b7d0-8acd4de18b90","system_id":"levelo_inurba_marseille","lat":43.30552,"lon":5.36699,"is_reserved":false,"is_disabled":false,"rental_uris":{"android":"levelo://app?vid=67bcc128-08c2-4bfd-b7d0-8acd4de18b90","ios":"levelo://app?vid=67bcc128-08c2-4bfd-b7d0-8acd4de18b90"},"vehicle_type_id":"4","last_reported":1735232872,"current_range_meters":36800,"station_id":"ce4bgrp2rcd13ifvqc9g","pricing_plan_id":"cebpf4jnsgd1na2vs0mg"},{"bike_id":"8dc7feae-e456-496f-bc14-7216ececc50e","system_id":"levelo_inurba_marseille","lat":43.29566,"lon":5.37507,"is_reserved":false,"is_disabled":false,"rental_uris":{"android":"levelo://app?vid=8dc7feae-e456-496f-bc14-7216ececc50e","ios":"levelo://app?vid=8dc7feae-e456-496f-bc14-7216ececc50e"},"vehicle_type_id":"4","last_reported":1735232872,"current_range_meters":18800,"station_id":"ce4bgh92rcd13ifvqb50","pricing_plan_id":"cebpf4jnsgd1na2vs0mg"},{"bike_id":"cde5a6f0-d593-42b1-864e-b923ad3f4516","system_id":"levelo_inurba_marseille","lat":43.30598,"lon":5.39349,"is_reserved":false,"is_disabled":false,"rental_uris":{"android":"levelo://app?vid=cde5a6f0-d593-42b1-864e-b923ad3f4516","ios":"levelo://app?vid=cde5a6f0-d593-42b1-864e-b923ad3f4516"},"vehicle_type_id":"4","last_reported":1735232872,"current_range_meters":39200,"station_id":"ce4bh0p2rcd13ifvqd80","pricing_plan_id":"cebpf4jnsgd1na2vs0mg"},{"bike_id":"d0533ccb-11ce-46dc-9cca-daa9f7a4985a","system_id":"levelo_inurba_marseille","lat":43.29564,"lon":5.42297,"is_reserved":false,"is_disabled":false,"rental_uris":{"android":"levelo://app?vid=d0533ccb-11ce-46dc-9cca-daa9f7a4985a","ios":"levelo://app?vid=d0533ccb-11ce-46dc-9cca-daa9f7a4985a"},"vehicle_type_id":"4","last_reported":1735232872,"current_range_meters":39200,"station_id":"ce4bhph2rcd13ifvqhdg","pricing_plan_id":"cebpf4jnsgd1na2vs0mg"},{"bike_id":"90bedb08-14d3-41b8-a2d5-9f9bdffc4c99","system_id":"levelo_inurba_marseille","lat":43.29437,"lon":5.39749,"is_reserved":false,"is_disabled":false,"rental_uris":{"android":"levelo://app?vid=90bedb08-14d3-41b8-a2d5-9f9bdffc4c99","ios":"levelo://app?vid=90bedb08-14d3-41b8-a2d5-9f9bdffc4c99"},"vehicle_type_id":"4","last_reported":1735232872,"current_range_meters":29600,"station_id":"ce4bh3h2rcd13ifvqdo0","pricing_plan_id":"cebpf4jnsgd1na2vs0mg"},{"bike_id":"648f7b41-6558-4508-9484-4305a1485141","system_id":"levelo_inurba_marseille","lat":43.30431,"lon":5.38889,"is_reserved":false,"is_disabled":false,"rental_uris":{"android":"levelo://app?vid=648f7b41-6558-4508-9484-4305a1485141","ios":"levelo://app?vid=648f7b41-6558-4508-9484-4305a1485141"},"vehicle_type_id":"4","last_reported":1735232872,"current_range_meters":32000,"station_id":"ce4bgk12rcd13ifvqbi0","pricing_plan_id":"cebpf4jnsgd1na2vs0mg"},{"bike_id":"b32fb18a-c8a8-4404-98aa-9a585746a89d","system_id":"levelo_inurba_marseille","lat":43.32065,"lon":5.41522,"is_reserved":false,"is_disabled":false,"rental_uris":{"android":"levelo://app?vid=b32fb18a-c8a8-4404-98aa-9a585746a89d","ios":"levelo://app?vid=b32fb18a-c8a8-4404-98aa-9a585746a89d"},"vehicle_type_id":"4","last_reported":1735232872,"current_range_meters":32000,"station_id":"ce4bhq92rcd13ifvqhkg","pricing_plan_id":"cebpf4jnsgd1na2vs0mg"},{"bike_id":"186ab767-dd05-4b5f-9fb0-dc469dc690ba","system_id":"levelo_inurba_marseille","lat":43.24545,"lon":5.39521,"is_reserved":false,"is_disabled":false,"rental_uris":{"android":"levelo://app?vid=186ab767-dd05-4b5f-9fb0-dc469dc690ba","ios":"levelo://app?vid=186ab767-dd05-4b5f-9fb0-dc469dc690ba"},"vehicle_type_id":"4","last_reported":1735232872,"current_range_meters":38400,"station_id":"ce4bhlp2rcd13ifvqgjg","pricing_plan_id":"cebpf4jnsgd1na2vs0mg"},{"bike_id":"77ad1453-2c50-429f-a767-e472764a7a77","system_id":"levelo_inurba_marseille","lat":43.258599,"lon":5.394542,"is_reserved":false,"is_disabled":false,"rental_uris":{"android":"levelo://app?vid=77ad1453-2c50-429f-a767-e472764a7a77","ios":"levelo://app?vid=77ad1453-2c50-429f-a767-e472764a7a77"},"vehicle_type_id":"4","last_reported":1735232872,"current_range_meters":7200,"station_id":"ce4bhip2rcd13ifvqft0","pricing_plan_id":"cebpf4jnsgd1na2vs0mg"},{"bike_id":"61b6d437-e950-46a2-8cbf-76c4bc393d6f","system_id":"levelo_inurba_marseille","lat":43.27073,"lon":5.42274,"is_reserved":false,"is_disabled":false,"rental_uris":{"android":"levelo://app?vid=61b6d437-e950-46a2-8cbf-76c4bc393d6f","ios":"levelo://app?vid=61b6d437-e950-46a2-8cbf-76c4bc393d6f"},"vehicle_type_id":"4","last_reported":1735232872,"current_range_meters":9200,"station_id":"ce4bhk92rcd13ifvqgb0","pricing_plan_id":"cebpf4jnsgd1na2vs0mg"},{"bike_id":"708391b3-36c8-4884-938c-40ac8ddeb2d4","system_id":"levelo_inurba_marseille","lat":43.30213,"lon":5.39473,"is_reserved":false,"is_disabled":false,"rental_uris":{"android":"levelo://app?vid=708391b3-36c8-4884-938c-40ac8ddeb2d4","ios":"levelo://app?vid=708391b3-36c8-4884-938c-40ac8ddeb2d4"},"vehicle_type_id":"4","last_reported":1735232872,"current_range_meters":36800,"station_id":"ce4bh0p2rcd13ifvqd70","pricing_plan_id":"cebpf4jnsgd1na2vs0mg"},{"bike_id":"417a3b93-35ae-43df-b252-fc6e1dccb29d","system_id":"levelo_inurba_marseille","lat":43.30143,"lon":5.39869,"is_reserved":false,"is_disabled":false,"rental_uris":{"android":"levelo://app?vid=417a3b93-35ae-43df-b252-fc6e1dccb29d","ios":"levelo://app?vid=417a3b93-35ae-43df-b252-fc6e1dccb29d"},"vehicle_type_id":"4","last_reported":1735232872,"current_range_meters":39200,"station_id":"ce4bh0h2rcd13ifvqd40","pricing_plan_id":"cebpf4jnsgd1na2vs0mg"},{"bike_id":"41d9a8e5-cfac-4d9e-813b-916758ce5708","system_id":"levelo_inurba_marseille","lat":43.29974,"lon":5.38486,"is_reserved":false,"is_disabled":false,"rental_uris":{"android":"levelo://app?vid=41d9a8e5-cfac-4d9e-813b-916758ce5708","ios":"levelo://app?vid=41d9a8e5-cfac-4d9e-813b-916758ce5708"},"vehicle_type_id":"4","last_reported":1735232872,"current_range_meters":38800,"station_id":"ce4bgj92rcd13ifvqbd0","pricing_plan_id":"cebpf4jnsgd1na2vs0mg"},{"bike_id":"2b08ca99-c6f3-4395-ab2d-aeebc3305aa4","system_id":"levelo_inurba_marseille","lat":43.33771,"lon":5.37464,"is_reserved":false,"is_disabled":false,"rental_uris":{"android":"levelo://app?vid=2b08ca99-c6f3-4395-ab2d-aeebc3305aa4","ios":"levelo://app?vid=2b08ca99-c6f3-4395-ab2d-aeebc3305aa4"},"vehicle_type_id":"4","last_reported":1735232872,"current_range_meters":36000,"station_id":"","pricing_plan_id":"cebpf4jnsgd1na2vs0mg"},{"bike_id":"23e25e04-dd29-4836-8ab5-f117edae0dca","system_id":"levelo_inurba_marseille","lat":43.30131,"lon":5.37433,"is_reserved":false,"is_disabled":false,"rental_uris":{"android":"levelo://app?vid=23e25e04-dd29-4836-8ab5-f117edae0dca","ios":"levelo://app?vid=23e25e04-dd29-4836-8ab5-f117edae0dca"},"vehicle_type_id":"4","last_reported":1735232872,"current_range_meters":38800,"station_id":"ce4bgs92rcd13ifvqcc0","pricing_plan_id":"cebpf4jnsgd1na2vs0mg"},{"bike_id":"dbe70d38-abd2-4f61-8ff9-dab515c26a03","system_id":"levelo_inurba_marseille","lat":43.28673,"lon":5.38664,"is_reserved":false,"is_disabled":false,"rental_uris":{"android":"levelo://app?vid=dbe70d38-abd2-4f61-8ff9-dab515c26a03","ios":"levelo://app?vid=dbe70d38-abd2-4f61-8ff9-dab515c26a03"},"vehicle_type_id":"4","last_reported":1735232872,"current_range_meters":26000,"station_id":"ce4bh492rcd13ifvqdug","pricing_plan_id":"cebpf4jnsgd1na2vs0mg"},{"bike_id":"b127a35d-b7ce-4f77-8d9a-e00b19875b1d","system_id":"levelo_inurba_marseille","lat":43.29524,"lon":5.37508,"is_reserved":false,"is_disabled":false,"rental_uris":{"android":"levelo://app?vid=b127a35d-b7ce-4f77-8d9a-e00b19875b1d","ios":"levelo://app?vid=b127a35d-b7ce-4f77-8d9a-e00b19875b1d"},"vehicle_type_id":"4","last_reported":1735232872,"current_range_meters":30800,"station_id":"ce4bgkp2rcd13ifvqbmg","pricing_plan_id":"cebpf4jnsgd1na2vs0mg"},{"bike_id":"33e4c278-497a-4992-9269-3f4bd7a2ca60","system_id":"levelo_inurba_marseille","lat":43.2991,"lon":5.3747,"is_reserved":false,"is_disabled":false,"rental_uris":{"android":"levelo://app?vid=33e4c278-497a-4992-9269-3f4bd7a2ca60","ios":"levelo://app?vid=33e4c278-497a-4992-9269-3f4bd7a2ca60"},"vehicle_type_id":"4","last_reported":1735232872,"current_range_meters":32000,"station_id":"ce4bgjh2rcd13ifvqbg0","pricing_plan_id":"cebpf4jnsgd1na2vs0mg"},{"bike_id":"41f89dc1-f673-4034-94b0-c822206c26f3","system_id":"levelo_inurba_marseille","lat":43.32048,"lon":5.41537,"is_reserved":false,"is_disabled":false,"rental_uris":{"android":"levelo://app?vid=41f89dc1-f673-4034-94b0-c822206c26f3","ios":"levelo://app?vid=41f89dc1-f673-4034-94b0-c822206c26f3"},"vehicle_type_id":"4","last_reported":1735232872,"current_range_meters":9200,"station_id":"ce4bhq92rcd13ifvqhkg","pricing_plan_id":"cebpf4jnsgd1na2vs0mg"},{"bike_id":"a758cb60-4620-46d5-b0a9-a9a8ea8957ea","system_id":"levelo_inurba_marseille","lat":43.29528,"lon":5.39398,"is_reserved":false,"is_disabled":false,"rental_uris":{"android":"levelo://app?vid=a758cb60-4620-46d5-b0a9-a9a8ea8957ea","ios":"levelo://app?vid=a758cb60-4620-46d5-b0a9-a9a8ea8957ea"},"vehicle_type_id":"4","last_reported":1735232872,"current_range_meters":25200,"station_id":"ce4bh292rcd13ifvqdf0","pricing_plan_id":"cebpf4jnsgd1na2vs0mg"},{"bike_id":"aefc4ad1-7b2f-4fcb-a9c2-71d08d505f0e","system_id":"levelo_inurba_marseille","lat":43.24689,"lon":5.38165,"is_reserved":false,"is_disabled":false,"rental_uris":{"android":"levelo://app?vid=aefc4ad1-7b2f-4fcb-a9c2-71d08d505f0e","ios":"levelo://app?vid=aefc4ad1-7b2f-4fcb-a9c2-71d08d505f0e"},"vehicle_type_id":"4","last_reported":1735232872,"current_range_meters":38800,"station_id":"ce4bhih2rcd13ifvqfr0","pricing_plan_id":"cebpf4jnsgd1na2vs0mg"},{"bike_id":"b5656570-3315-4cb5-bf48-7ff14d1a0a27","system_id":"levelo_inurba_marseille","lat":43.29537,"lon":5.37499,"is_reserved":false,"is_disabled":false,"rental_uris":{"android":"levelo://app?vid=b5656570-3315-4cb5-bf48-7ff14d1a0a27","ios":"levelo://app?vid=b5656570-3315-4cb5-bf48-7ff14d1a0a27"},"vehicle_type_id":"4","last_reported":1735232872,"current_range_meters":12800,"station_id":"ce4bgkp2rcd13ifvqbmg","pricing_plan_id":"cebpf4jnsgd1na2vs0mg"},{"bike_id":"a0898d4b-2086-47da-9ba0-4953b8186d9a","system_id":"levelo_inurba_marseille","lat":43.23961,"lon":5.36635,"is_reserved":false,"is_disabled":false,"rental_uris":{"android":"levelo://app?vid=a0898d4b-2086-47da-9ba0-4953b8186d9a","ios":"levelo://app?vid=a0898d4b-2086-47da-9ba0-4953b8186d9a"},"vehicle_type_id":"4","last_reported":1735232872,"current_range_meters":20000,"station_id":"ce4bhi12rcd13ifvqfp0","pricing_plan_id":"cebpf4jnsgd1na2vs0mg"},{"bike_id":"a143b01f-6c25-4a53-8634-de8b94840e9c","system_id":"levelo_inurba_marseille","lat":43.29574,"lon":5.37521,"is_reserved":false,"is_disabled":false,"rental_uris":{"android":"levelo://app?vid=a143b01f-6c25-4a53-8634-de8b94840e9c","ios":"levelo://app?vid=a143b01f-6c25-4a53-8634-de8b94840e9c"},"vehicle_type_id":"4","last_reported":1735232872,"current_range_meters":38800,"station_id":"ce4bgh92rcd13ifvqb50","pricing_plan_id":"cebpf4jnsgd1na2vs0mg"},{"bike_id":"3484b42b-fb92-4df7-950c-ba5afdfbc366","system_id":"levelo_inurba_marseille","lat":43.28003,"lon":5.40012,"is_reserved":false,"is_disabled":false,"rental_uris":{"android":"levelo://app?vid=3484b42b-fb92-4df7-950c-ba5afdfbc366","ios":"levelo://app?vid=3484b42b-fb92-4df7-950c-ba5afdfbc366"},"vehicle_type_id":"4","last_reported":1735232872,"current_range_meters":22800,"station_id":"ce4bho92rcd13ifvqh4g","pricing_plan_id":"cebpf4jnsgd1na2vs0mg"},{"bike_id":"688d0d99-20f1-4fc1-971f-5e39b1819456","system_id":"levelo_inurba_marseille","lat":43.279388,"lon":5.401076,"is_reserved":false,"is_disabled":true,"rental_uris":{"android":"levelo://app?vid=688d0d99-20f1-4fc1-971f-5e39b1819456","ios":"levelo://app?vid=688d0d99-20f1-4fc1-971f-5e39b1819456"},"vehicle_type_id":"4","last_reported":1735232872,"current_range_meters":1600,"station_id":"","pricing_plan_id":"cebpf4jnsgd1na2vs0mg"},{"bike_id":"b5d62212-20a0-4e84-b1ab-de7b86e281ef","system_id":"levelo_inurba_marseille","lat":43.29915,"lon":5.37475,"is_reserved":false,"is_disabled":false,"rental_uris":{"android":"levelo://app?vid=b5d62212-20a0-4e84-b1ab-de7b86e281ef","ios":"levelo://app?vid=b5d62212-20a0-4e84-b1ab-de7b86e281ef"},"vehicle_type_id":"4","last_reported":1735232872,"current_range_meters":27200,"station_id":"ce4bgjh2rcd13ifvqbg0","pricing_plan_id":"cebpf4jnsgd1na2vs0mg"},{"bike_id":"3cae62ab-49f2-410c-a0d8-298dc830ea00","system_id":"levelo_inurba_marseille","lat":43.2694,"lon":5.40252,"is_reserved":false,"is_disabled":false,"rental_uris":{"android":"levelo://app?vid=3cae62ab-49f2-410c-a0d8-298dc830ea00","ios":"levelo://app?vid=3cae62ab-49f2-410c-a0d8-298dc830ea00"},"vehicle_type_id":"4","last_reported":1735232872,"current_range_meters":38000,"station_id":"cjm6bp8fraef2m0cb0m0","pricing_plan_id":"cebpf4jnsgd1na2vs0mg"},{"bike_id":"e49de1cd-0acd-4a78-8121-d4a34beac4ee","system_id":"levelo_inurba_marseille","lat":43.29266,"lon":5.38445,"is_reserved":false,"is_disabled":false,"rental_uris":{"android":"levelo://app?vid=e49de1cd-0acd-4a78-8121-d4a34beac4ee","ios":"levelo://app?vid=e49de1cd-0acd-4a78-8121-d4a34beac4ee"},"vehicle_type_id":"4","last_reported":1735232872,"current_range_meters":38800,"station_id":"ce4bh692rcd13ifvqea0","pricing_plan_id":"cebpf4jnsgd1na2vs0mg"},{"bike_id":"590b7c25-ee0d-40fc-8461-b30f501ed803","system_id":"levelo_inurba_marseille","lat":43.28493,"lon":5.38575,"is_reserved":false,"is_disabled":false,"rental_uris":{"android":"levelo://app?vid=590b7c25-ee0d-40fc-8461-b30f501ed803","ios":"levelo://app?vid=590b7c25-ee0d-40fc-8461-b30f501ed803"},"vehicle_type_id":"4","last_reported":1735232872,"current_range_meters":32400,"station_id":"ce4bh8p2rcd13ifvqeb0","pricing_plan_id":"cebpf4jnsgd1na2vs0mg"},{"bike_id":"f349cc7d-3bb2-4ec8-9833-02f92e44fae4","system_id":"levelo_inurba_marseille","lat":43.30882,"lon":5.39656,"is_reserved":false,"is_disabled":false,"rental_uris":{"android":"levelo://app?vid=f349cc7d-3bb2-4ec8-9833-02f92e44fae4","ios":"levelo://app?vid=f349cc7d-3bb2-4ec8-9833-02f92e44fae4"},"vehicle_type_id":"4","last_reported":1735232872,"current_range_meters":31200,"station_id":"ce4bh012rcd13ifvqcv0","pricing_plan_id":"cebpf4jnsgd1na2vs0mg"},{"bike_id":"307e91f2-7eda-4399-8767-f528498164bc","system_id":"levelo_inurba_marseille","lat":43.28699,"lon":5.37392,"is_reserved":false,"is_disabled":false,"rental_uris":{"android":"levelo://app?vid=307e91f2-7eda-4399-8767-f528498164bc","ios":"levelo://app?vid=307e91f2-7eda-4399-8767-f528498164bc"},"vehicle_type_id":"4","last_reported":1735232872,"current_range_meters":22800,"station_id":"ce4bh3p2rcd13ifvqdq0","pricing_plan_id":"cebpf4jnsgd1na2vs0mg"},{"bike_id":"45a39e5d-53bd-464c-aa2f-8ff68f75c34c","system_id":"levelo_inurba_marseille","lat":43.29412,"lon":5.3863,"is_reserved":false,"is_disabled":false,"rental_uris":{"android":"levelo://app?vid=45a39e5d-53bd-464c-aa2f-8ff68f75c34c","ios":"levelo://app?vid=45a39e5d-53bd-464c-aa2f-8ff68f75c34c"},"vehicle_type_id":"4","last_reported":1735232872,"current_range_meters":38800,"station_id":"ce4bh2h2rcd13ifvqdh0","pricing_plan_id":"cebpf4jnsgd1na2vs0mg"},{"bike_id":"d09e3fdb-576a-4d07-98c5-88b1e58a69ba","system_id":"levelo_inurba_marseille","lat":43.30293,"lon":5.39197,"is_reserved":false,"is_disabled":false,"rental_uris":{"android":"levelo://app?vid=d09e3fdb-576a-4d07-98c5-88b1e58a69ba","ios":"levelo://app?vid=d09e3fdb-576a-4d07-98c5-88b1e58a69ba"},"vehicle_type_id":"4","last_reported":1735232872,"current_range_meters":27200,"station_id":"ce4bgkh2rcd13ifvqbk0","pricing_plan_id":"cebpf4jnsgd1na2vs0mg"},{"bike_id":"5f8a76e6-d34b-4171-ae8b-f316ea07c0e1","system_id":"levelo_inurba_marseille","lat":43.25501,"lon":5.3765,"is_reserved":false,"is_disabled":false,"rental_uris":{"android":"levelo://app?vid=5f8a76e6-d34b-4171-ae8b-f316ea07c0e1","ios":"levelo://app?vid=5f8a76e6-d34b-4171-ae8b-f316ea07c0e1"},"vehicle_type_id":"4","last_reported":1735232872,"current_range_meters":28400,"station_id":"ce4bhh12rcd13ifvqff0","pricing_plan_id":"cebpf4jnsgd1na2vs0mg"},{"bike_id":"009d8673-60f8-4ac1-9326-cd4aec079338","system_id":"levelo_inurba_marseille","lat":43.29273,"lon":5.40124,"is_reserved":false,"is_disabled":false,"rental_uris":{"android":"levelo://app?vid=009d8673-60f8-4ac1-9326-cd4aec079338","ios":"levelo://app?vid=009d8673-60f8-4ac1-9326-cd4aec079338"},"vehicle_type_id":"4","last_reported":1735232872,"current_range_meters":38800,"station_id":"ce4bh312rcd13ifvqdk0","pricing_plan_id":"cebpf4jnsgd1na2vs0mg"},{"bike_id":"09898dd2-84ad-4911-a21d-d1f0823964b3","system_id":"levelo_inurba_marseille","lat":43.29611,"lon":5.37732,"is_reserved":false,"is_disabled":false,"rental_uris":{"android":"levelo://app?vid=09898dd2-84ad-4911-a21d-d1f0823964b3","ios":"levelo://app?vid=09898dd2-84ad-4911-a21d-d1f0823964b3"},"vehicle_type_id":"4","last_reported":1735232872,"current_range_meters":39200,"station_id":"ce4bgi92rcd13ifvqb90","pricing_plan_id":"cebpf4jnsgd1na2vs0mg"},{"bike_id":"60968da4-eb7b-45c8-944b-65c3601ac59f","system_id":"levelo_inurba_marseille","lat":43.29599,"lon":5.38099,"is_reserved":false,"is_disabled":false,"rental_uris":{"android":"levelo://app?vid=60968da4-eb7b-45c8-944b-65c3601ac59f","ios":"levelo://app?vid=60968da4-eb7b-45c8-944b-65c3601ac59f"},"vehicle_type_id":"4","last_reported":1735232872,"current_range_meters":26800,"station_id":"ce4bgl12rcd13ifvqbo0","pricing_plan_id":"cebpf4jnsgd1na2vs0mg"},{"bike_id":"280a2d8e-0091-49b8-beab-ee950b68e6eb","system_id":"levelo_inurba_marseille","lat":43.255,"lon":5.3765,"is_reserved":false,"is_disabled":false,"rental_uris":{"android":"levelo://app?vid=280a2d8e-0091-49b8-beab-ee950b68e6eb","ios":"levelo://app?vid=280a2d8e-0091-49b8-beab-ee950b68e6eb"},"vehicle_type_id":"4","last_reported":1735232872,"current_range_meters":38800,"station_id":"ce4bhh12rcd13ifvqff0","pricing_plan_id":"cebpf4jnsgd1na2vs0mg"},{"bike_id":"244d4ade-4fc4-4115-b8a5-196794b226c5","system_id":"levelo_inurba_marseille","lat":43.33025,"lon":5.39035,"is_reserved":false,"is_disabled":false,"rental_uris":{"android":"levelo://app?vid=244d4ade-4fc4-4115-b8a5-196794b226c5","ios":"levelo://app?vid=244d4ade-4fc4-4115-b8a5-196794b226c5"},"vehicle_type_id":"4","last_reported":1735232872,"current_range_meters":28000,"station_id":"ce4bhr92rcd13ifvqhrg","pricing_plan_id":"cebpf4jnsgd1na2vs0mg"},{"bike_id":"038af3fc-3082-4aae-94ad-d0ead92a965d","system_id":"levelo_inurba_marseille","lat":43.28108,"lon":5.37816,"is_reserved":false,"is_disabled":false,"rental_uris":{"android":"levelo://app?vid=038af3fc-3082-4aae-94ad-d0ead92a965d","ios":"levelo://app?vid=038af3fc-3082-4aae-94ad-d0ead92a965d"},"vehicle_type_id":"4","last_reported":1735232872,"current_range_meters":38800,"station_id":"ce4bha12rcd13ifvqee0","pricing_plan_id":"cebpf4jnsgd1na2vs0mg"},{"bike_id":"8234143f-b9f7-4ac0-9282-4fef28733928","system_id":"levelo_inurba_marseille","lat":43.27841,"lon":5.39203,"is_reserved":false,"is_disabled":false,"rental_uris":{"android":"levelo://app?vid=8234143f-b9f7-4ac0-9282-4fef28733928","ios":"levelo://app?vid=8234143f-b9f7-4ac0-9282-4fef28733928"},"vehicle_type_id":"4","last_reported":1735232872,"current_range_meters":38800,"station_id":"ce4bhjp2rcd13ifvqga0","pricing_plan_id":"cebpf4jnsgd1na2vs0mg"},{"bike_id":"6fc39219-982d-4feb-9b3b-e1ba4db40afe","system_id":"levelo_inurba_marseille","lat":43.29602,"lon":5.38081,"is_reserved":false,"is_disabled":false,"rental_uris":{"android":"levelo://app?vid=6fc39219-982d-4feb-9b3b-e1ba4db40afe","ios":"levelo://app?vid=6fc39219-982d-4feb-9b3b-e1ba4db40afe"},"vehicle_type_id":"4","last_reported":1735232872,"current_range_meters":38800,"station_id":"ce4bgl12rcd13ifvqbo0","pricing_plan_id":"cebpf4jnsgd1na2vs0mg"},{"bike_id":"e73e6057-e6e9-407b-a17e-f4e119a96aba","system_id":"levelo_inurba_marseille","lat":43.32117,"lon":5.36778,"is_reserved":false,"is_disabled":false,"rental_uris":{"android":"levelo://app?vid=e73e6057-e6e9-407b-a17e-f4e119a96aba","ios":"levelo://app?vid=e73e6057-e6e9-407b-a17e-f4e119a96aba"},"vehicle_type_id":"4","last_reported":1735232872,"current_range_meters":26000,"station_id":"ce4bhrh2rcd13ifvqhug","pricing_plan_id":"cebpf4jnsgd1na2vs0mg"},{"bike_id":"ab22365c-bdba-4f7c-81a5-7e7ddb1ecf11","system_id":"levelo_inurba_marseille","lat":43.29307,"lon":5.37163,"is_reserved":false,"is_disabled":false,"rental_uris":{"android":"levelo://app?vid=ab22365c-bdba-4f7c-81a5-7e7ddb1ecf11","ios":"levelo://app?vid=ab22365c-bdba-4f7c-81a5-7e7ddb1ecf11"},"vehicle_type_id":"4","last_reported":1735232872,"current_range_meters":28000,"station_id":"ce4bgh92rcd13ifvqb40","pricing_plan_id":"cebpf4jnsgd1na2vs0mg"},{"bike_id":"4457ac0b-5759-4724-82b6-65c4e675216e","system_id":"levelo_inurba_marseille","lat":43.27806,"lon":5.40708,"is_reserved":false,"is_disabled":false,"rental_uris":{"android":"levelo://app?vid=4457ac0b-5759-4724-82b6-65c4e675216e","ios":"levelo://app?vid=4457ac0b-5759-4724-82b6-65c4e675216e"},"vehicle_type_id":"4","last_reported":1735232872,"current_range_meters":9600,"station_id":"ce4bhnh2rcd13ifvqgtg","pricing_plan_id":"cebpf4jnsgd1na2vs0mg"},{"bike_id":"4ec8a1e3-16df-44e2-8673-74c0731756a1","system_id":"levelo_inurba_marseille","lat":43.29984,"lon":5.37184,"is_reserved":false,"is_disabled":false,"rental_uris":{"android":"levelo://app?vid=4ec8a1e3-16df-44e2-8673-74c0731756a1","ios":"levelo://app?vid=4ec8a1e3-16df-44e2-8673-74c0731756a1"},"vehicle_type_id":"4","last_reported":1735232872,"current_range_meters":38800,"station_id":"ce4bgr92rcd13ifvqc7g","pricing_plan_id":"cebpf4jnsgd1na2vs0mg"},{"bike_id":"90a15985-e414-4303-93ac-d5f4499c7362","system_id":"levelo_inurba_marseille","lat":43.2861,"lon":5.351,"is_reserved":false,"is_disabled":false,"rental_uris":{"android":"levelo://app?vid=90a15985-e414-4303-93ac-d5f4499c7362","ios":"levelo://app?vid=90a15985-e414-4303-93ac-d5f4499c7362"},"vehicle_type_id":"4","last_reported":1735232872,"current_range_meters":38000,"station_id":"ce4bhch2rcd13ifvqeug","pricing_plan_id":"cebpf4jnsgd1na2vs0mg"},{"bike_id":"d04d6210-6164-41f5-85e8-a549db863f06","system_id":"levelo_inurba_marseille","lat":43.29304,"lon":5.37176,"is_reserved":false,"is_disabled":false,"rental_uris":{"android":"levelo://app?vid=d04d6210-6164-41f5-85e8-a549db863f06","ios":"levelo://app?vid=d04d6210-6164-41f5-85e8-a549db863f06"},"vehicle_type_id":"4","last_reported":1735232872,"current_range_meters":30400,"station_id":"ce4bgh92rcd13ifvqb40","pricing_plan_id":"cebpf4jnsgd1na2vs0mg"},{"bike_id":"731ba9de-00dd-4cec-ab12-769c3978dcf6","system_id":"levelo_inurba_marseille","lat":43.32029,"lon":5.41573,"is_reserved":false,"is_disabled":false,"rental_uris":{"android":"levelo://app?vid=731ba9de-00dd-4cec-ab12-769c3978dcf6","ios":"levelo://app?vid=731ba9de-00dd-4cec-ab12-769c3978dcf6"},"vehicle_type_id":"4","last_reported":1735232872,"current_range_meters":38800,"station_id":"ce4bhq92rcd13ifvqhkg","pricing_plan_id":"cebpf4jnsgd1na2vs0mg"},{"bike_id":"4cac333c-d1dd-4143-9d9b-28dca58be05d","system_id":"levelo_inurba_marseille","lat":43.28951,"lon":5.36379,"is_reserved":false,"is_disabled":false,"rental_uris":{"android":"levelo://app?vid=4cac333c-d1dd-4143-9d9b-28dca58be05d","ios":"levelo://app?vid=4cac333c-d1dd-4143-9d9b-28dca58be05d"},"vehicle_type_id":"4","last_reported":1735232872,"current_range_meters":23200,"station_id":"ce4bhc92rcd13ifvqetg","pricing_plan_id":"cebpf4jnsgd1na2vs0mg"},{"bike_id":"44feb1f8-8133-46a4-aad2-4e8c1364f452","system_id":"levelo_inurba_marseille","lat":43.29369,"lon":5.37838,"is_reserved":false,"is_disabled":false,"rental_uris":{"android":"levelo://app?vid=44feb1f8-8133-46a4-aad2-4e8c1364f452","ios":"levelo://app?vid=44feb1f8-8133-46a4-aad2-4e8c1364f452"},"vehicle_type_id":"4","last_reported":1735232872,"current_range_meters":10000,"station_id":"ce4bgjh2rcd13ifvqbf0","pricing_plan_id":"cebpf4jnsgd1na2vs0mg"},{"bike_id":"6d25a30b-30d6-41bb-9eba-44bccb93801a","system_id":"levelo_inurba_marseille","lat":43.2919,"lon":5.39311,"is_reserved":false,"is_disabled":false,"rental_uris":{"android":"levelo://app?vid=6d25a30b-30d6-41bb-9eba-44bccb93801a","ios":"levelo://app?vid=6d25a30b-30d6-41bb-9eba-44bccb93801a"},"vehicle_type_id":"4","last_reported":1735232872,"current_range_meters":38800,"station_id":"ce4bh192rcd13ifvqdd0","pricing_plan_id":"cebpf4jnsgd1na2vs0mg"},{"bike_id":"1e7b217a-b027-4110-90d3-48819f0dec1b","system_id":"levelo_inurba_marseille","lat":43.2842,"lon":5.34998,"is_reserved":false,"is_disabled":false,"rental_uris":{"android":"levelo://app?vid=1e7b217a-b027-4110-90d3-48819f0dec1b","ios":"levelo://app?vid=1e7b217a-b027-4110-90d3-48819f0dec1b"},"vehicle_type_id":"4","last_reported":1735232872,"current_range_meters":18000,"station_id":"ce4bhbh2rcd13ifvqepg","pricing_plan_id":"cebpf4jnsgd1na2vs0mg"},{"bike_id":"8703ddc2-abd8-4ed3-8052-d2dedbc6fd5c","system_id":"levelo_inurba_marseille","lat":43.26955,"lon":5.38628,"is_reserved":false,"is_disabled":false,"rental_uris":{"android":"levelo://app?vid=8703ddc2-abd8-4ed3-8052-d2dedbc6fd5c","ios":"levelo://app?vid=8703ddc2-abd8-4ed3-8052-d2dedbc6fd5c"},"vehicle_type_id":"4","last_reported":1735232872,"current_range_meters":30000,"station_id":"ce4bhh92rcd13ifvqfh0","pricing_plan_id":"cebpf4jnsgd1na2vs0mg"},{"bike_id":"50e9988d-8c66-43a7-82cb-9818dcb38114","system_id":"levelo_inurba_marseille","lat":43.30424,"lon":5.3976,"is_reserved":false,"is_disabled":false,"rental_uris":{"android":"levelo://app?vid=50e9988d-8c66-43a7-82cb-9818dcb38114","ios":"levelo://app?vid=50e9988d-8c66-43a7-82cb-9818dcb38114"},"vehicle_type_id":"4","last_reported":1735232872,"current_range_meters":38800,"station_id":"ce4bh092rcd13ifvqd20","pricing_plan_id":"cebpf4jnsgd1na2vs0mg"},{"bike_id":"d31240d3-9979-449f-a2b4-47db9b31346e","system_id":"levelo_inurba_marseille","lat":43.28464,"lon":5.3854,"is_reserved":false,"is_disabled":false,"rental_uris":{"android":"levelo://app?vid=d31240d3-9979-449f-a2b4-47db9b31346e","ios":"levelo://app?vid=d31240d3-9979-449f-a2b4-47db9b31346e"},"vehicle_type_id":"4","last_reported":1735232872,"current_range_meters":28000,"station_id":"ce4bh8p2rcd13ifvqeb0","pricing_plan_id":"cebpf4jnsgd1na2vs0mg"},{"bike_id":"90bcfe0a-0251-48b9-b280-a465c9bf2e2c","system_id":"levelo_inurba_marseille","lat":43.26208,"lon":5.37445,"is_reserved":false,"is_disabled":false,"rental_uris":{"android":"levelo://app?vid=90bcfe0a-0251-48b9-b280-a465c9bf2e2c","ios":"levelo://app?vid=90bcfe0a-0251-48b9-b280-a465c9bf2e2c"},"vehicle_type_id":"4","last_reported":1735232872,"current_range_meters":12400,"station_id":"ce4bhgp2rcd13ifvqfc0","pricing_plan_id":"cebpf4jnsgd1na2vs0mg"},{"bike_id":"dad6db58-f5bc-4da2-b0b4-3d5d1002166b","system_id":"levelo_inurba_marseille","lat":43.32113,"lon":5.36771,"is_reserved":false,"is_disabled":false,"rental_uris":{"android":"levelo://app?vid=dad6db58-f5bc-4da2-b0b4-3d5d1002166b","ios":"levelo://app?vid=dad6db58-f5bc-4da2-b0b4-3d5d1002166b"},"vehicle_type_id":"4","last_reported":1735232872,"current_range_meters":20400,"station_id":"ce4bhrh2rcd13ifvqhug","pricing_plan_id":"cebpf4jnsgd1na2vs0mg"},{"bike_id":"53de4c91-b843-49c8-a9b8-1f4b2ff43715","system_id":"levelo_inurba_marseille","lat":43.29904,"lon":5.3814,"is_reserved":false,"is_disabled":false,"rental_uris":{"android":"levelo://app?vid=53de4c91-b843-49c8-a9b8-1f4b2ff43715","ios":"levelo://app?vid=53de4c91-b843-49c8-a9b8-1f4b2ff43715"},"vehicle_type_id":"4","last_reported":1735232872,"current_range_meters":38000,"station_id":"ce4bgj12rcd13ifvqbc0","pricing_plan_id":"cebpf4jnsgd1na2vs0mg"},{"bike_id":"5288de5a-7b5d-49f6-a273-76e383ab7ff0","system_id":"levelo_inurba_marseille","lat":43.30303,"lon":5.39202,"is_reserved":false,"is_disabled":false,"rental_uris":{"android":"levelo://app?vid=5288de5a-7b5d-49f6-a273-76e383ab7ff0","ios":"levelo://app?vid=5288de5a-7b5d-49f6-a273-76e383ab7ff0"},"vehicle_type_id":"4","last_reported":1735232872,"current_range_meters":15200,"station_id":"ce4bgkh2rcd13ifvqbk0","pricing_plan_id":"cebpf4jnsgd1na2vs0mg"},{"bike_id":"a6935858-d6c5-4b9f-a185-f82370fb6f32","system_id":"levelo_inurba_marseille","lat":43.29878,"lon":5.38906,"is_reserved":false,"is_disabled":false,"rental_uris":{"android":"levelo://app?vid=a6935858-d6c5-4b9f-a185-f82370fb6f32","ios":"levelo://app?vid=a6935858-d6c5-4b9f-a185-f82370fb6f32"},"vehicle_type_id":"4","last_reported":1735232872,"current_range_meters":24400,"station_id":"ce4bh392rcd13ifvqdl0","pricing_plan_id":"cebpf4jnsgd1na2vs0mg"},{"bike_id":"87617f22-d63f-4159-b76c-20f590ceaa9a","system_id":"levelo_inurba_marseille","lat":43.27205,"lon":5.39183,"is_reserved":false,"is_disabled":false,"rental_uris":{"android":"levelo://app?vid=87617f22-d63f-4159-b76c-20f590ceaa9a","ios":"levelo://app?vid=87617f22-d63f-4159-b76c-20f590ceaa9a"},"vehicle_type_id":"4","last_reported":1735232872,"current_range_meters":39200,"station_id":"ce4bhhp2rcd13ifvqfm0","pricing_plan_id":"cebpf4jnsgd1na2vs0mg"},{"bike_id":"4ffd7b60-3c47-45bc-8928-6a2fd1f7ad0e","system_id":"levelo_inurba_marseille","lat":43.29725,"lon":5.37693,"is_reserved":false,"is_disabled":false,"rental_uris":{"android":"levelo://app?vid=4ffd7b60-3c47-45bc-8928-6a2fd1f7ad0e","ios":"levelo://app?vid=4ffd7b60-3c47-45bc-8928-6a2fd1f7ad0e"},"vehicle_type_id":"4","last_reported":1735232872,"current_range_meters":38800,"station_id":"ce4bgkh2rcd13ifvqbl0","pricing_plan_id":"cebpf4jnsgd1na2vs0mg"},{"bike_id":"cb110b53-9ba7-4d84-966e-01041503cc76","system_id":"levelo_inurba_marseille","lat":43.25728,"lon":5.41107,"is_reserved":false,"is_disabled":false,"rental_uris":{"android":"levelo://app?vid=cb110b53-9ba7-4d84-966e-01041503cc76","ios":"levelo://app?vid=cb110b53-9ba7-4d84-966e-01041503cc76"},"vehicle_type_id":"4","last_reported":1735232872,"current_range_meters":28000,"station_id":"ce4bhkp2rcd13ifvqgd0","pricing_plan_id":"cebpf4jnsgd1na2vs0mg"},{"bike_id":"b47db860-784f-4241-8032-0be4111cb35d","system_id":"levelo_inurba_marseille","lat":43.28919,"lon":5.38404,"is_reserved":false,"is_disabled":false,"rental_uris":{"android":"levelo://app?vid=b47db860-784f-4241-8032-0be4111cb35d","ios":"levelo://app?vid=b47db860-784f-4241-8032-0be4111cb35d"},"vehicle_type_id":"4","last_reported":1735232872,"current_range_meters":14400,"station_id":"ce4bh612rcd13ifvqe6g","pricing_plan_id":"cebpf4jnsgd1na2vs0mg"},{"bike_id":"9fcbe1f3-6673-4eff-b8fc-e10a07d4bde9","system_id":"levelo_inurba_marseille","lat":43.29521,"lon":5.39406,"is_reserved":false,"is_disabled":false,"rental_uris":{"android":"levelo://app?vid=9fcbe1f3-6673-4eff-b8fc-e10a07d4bde9","ios":"levelo://app?vid=9fcbe1f3-6673-4eff-b8fc-e10a07d4bde9"},"vehicle_type_id":"4","last_reported":1735232872,"current_range_meters":33600,"station_id":"ce4bh292rcd13ifvqdf0","pricing_plan_id":"cebpf4jnsgd1na2vs0mg"},{"bike_id":"9c99b2b9-cebc-4e69-bb49-8f5a9aa575aa","system_id":"levelo_inurba_marseille","lat":43.29971,"lon":5.38489,"is_reserved":false,"is_disabled":false,"rental_uris":{"android":"levelo://app?vid=9c99b2b9-cebc-4e69-bb49-8f5a9aa575aa","ios":"levelo://app?vid=9c99b2b9-cebc-4e69-bb49-8f5a9aa575aa"},"vehicle_type_id":"4","last_reported":1735232872,"current_range_meters":38800,"station_id":"ce4bgj92rcd13ifvqbd0","pricing_plan_id":"cebpf4jnsgd1na2vs0mg"},{"bike_id":"383bf036-0049-4dff-9cd1-bbd04a84035c","system_id":"levelo_inurba_marseille","lat":43.30553,"lon":5.36538,"is_reserved":false,"is_disabled":false,"rental_uris":{"android":"levelo://app?vid=383bf036-0049-4dff-9cd1-bbd04a84035c","ios":"levelo://app?vid=383bf036-0049-4dff-9cd1-bbd04a84035c"},"vehicle_type_id":"4","last_reported":1735232872,"current_range_meters":37600,"station_id":"ce4bgs12rcd13ifvqcag","pricing_plan_id":"cebpf4jnsgd1na2vs0mg"},{"bike_id":"356fdf04-5389-4dea-9842-bb9771f47806","system_id":"levelo_inurba_marseille","lat":43.29618,"lon":5.37719,"is_reserved":false,"is_disabled":false,"rental_uris":{"android":"levelo://app?vid=356fdf04-5389-4dea-9842-bb9771f47806","ios":"levelo://app?vid=356fdf04-5389-4dea-9842-bb9771f47806"},"vehicle_type_id":"4","last_reported":1735232872,"current_range_meters":38800,"station_id":"ce4bgi92rcd13ifvqb90","pricing_plan_id":"cebpf4jnsgd1na2vs0mg"},{"bike_id":"17ca5fa3-8ba7-4f38-8ecc-2d8a4a57bba0","system_id":"levelo_inurba_marseille","lat":43.29304,"lon":5.37463,"is_reserved":false,"is_disabled":false,"rental_uris":{"android":"levelo://app?vid=17ca5fa3-8ba7-4f38-8ecc-2d8a4a57bba0","ios":"levelo://app?vid=17ca5fa3-8ba7-4f38-8ecc-2d8a4a57bba0"},"vehicle_type_id":"4","last_reported":1735232872,"current_range_meters":38400,"station_id":"ce4bgi12rcd13ifvqb70","pricing_plan_id":"cebpf4jnsgd1na2vs0mg"},{"bike_id":"4344e0d7-0b59-4f6a-abc5-4ee5565e4d4c","system_id":"levelo_inurba_marseille","lat":43.29705,"lon":5.37698,"is_reserved":false,"is_disabled":false,"rental_uris":{"android":"levelo://app?vid=4344e0d7-0b59-4f6a-abc5-4ee5565e4d4c","ios":"levelo://app?vid=4344e0d7-0b59-4f6a-abc5-4ee5565e4d4c"},"vehicle_type_id":"4","last_reported":1735232872,"current_range_meters":12400,"station_id":"ce4bgkh2rcd13ifvqbl0","pricing_plan_id":"cebpf4jnsgd1na2vs0mg"},{"bike_id":"ff152d6a-b6bc-406b-998e-dbf3ad51a72e","system_id":"levelo_inurba_marseille","lat":43.25581,"lon":5.38234,"is_reserved":false,"is_disabled":false,"rental_uris":{"android":"levelo://app?vid=ff152d6a-b6bc-406b-998e-dbf3ad51a72e","ios":"levelo://app?vid=ff152d6a-b6bc-406b-998e-dbf3ad51a72e"},"vehicle_type_id":"4","last_reported":1735232872,"current_range_meters":35200,"station_id":"ce4bhih2rcd13ifvqfs0","pricing_plan_id":"cebpf4jnsgd1na2vs0mg"},{"bike_id":"72f4433a-b028-4e45-ab59-31d664b14844","system_id":"levelo_inurba_marseille","lat":43.27181,"lon":5.39181,"is_reserved":false,"is_disabled":false,"rental_uris":{"android":"levelo://app?vid=72f4433a-b028-4e45-ab59-31d664b14844","ios":"levelo://app?vid=72f4433a-b028-4e45-ab59-31d664b14844"},"vehicle_type_id":"4","last_reported":1735232872,"current_range_meters":36000,"station_id":"ce4bhhp2rcd13ifvqfm0","pricing_plan_id":"cebpf4jnsgd1na2vs0mg"},{"bike_id":"c6834b76-82f1-466a-8b2d-118839d142cc","system_id":"levelo_inurba_marseille","lat":43.29897,"lon":5.43674,"is_reserved":false,"is_disabled":false,"rental_uris":{"android":"levelo://app?vid=c6834b76-82f1-466a-8b2d-118839d142cc","ios":"levelo://app?vid=c6834b76-82f1-466a-8b2d-118839d142cc"},"vehicle_type_id":"4","last_reported":1735232872,"current_range_meters":38800,"station_id":"ce4bhpp2rcd13ifvqhfg","pricing_plan_id":"cebpf4jnsgd1na2vs0mg"},{"bike_id":"13c39096-92de-47dd-a9ee-5b5cda0c5bbc","system_id":"levelo_inurba_marseille","lat":43.24651,"lon":5.38905,"is_reserved":false,"is_disabled":false,"rental_uris":{"android":"levelo://app?vid=13c39096-92de-47dd-a9ee-5b5cda0c5bbc","ios":"levelo://app?vid=13c39096-92de-47dd-a9ee-5b5cda0c5bbc"},"vehicle_type_id":"4","last_reported":1735232872,"current_range_meters":22800,"station_id":"ce4bhg12rcd13ifvqf60","pricing_plan_id":"cebpf4jnsgd1na2vs0mg"},{"bike_id":"1107b56a-98a5-4a01-8449-9eba086fee5a","system_id":"levelo_inurba_marseille","lat":43.2906,"lon":5.398663,"is_reserved":false,"is_disabled":false,"rental_uris":{"android":"levelo://app?vid=1107b56a-98a5-4a01-8449-9eba086fee5a","ios":"levelo://app?vid=1107b56a-98a5-4a01-8449-9eba086fee5a"},"vehicle_type_id":"4","last_reported":1735232872,"current_range_meters":20800,"station_id":"","pricing_plan_id":"cebpf4jnsgd1na2vs0mg"},{"bike_id":"4e4277ec-b79e-43a1-bae0-d0f951c20956","system_id":"levelo_inurba_marseille","lat":43.298,"lon":5.39348,"is_reserved":false,"is_disabled":false,"rental_uris":{"android":"levelo://app?vid=4e4277ec-b79e-43a1-bae0-d0f951c20956","ios":"levelo://app?vid=4e4277ec-b79e-43a1-bae0-d0f951c20956"},"vehicle_type_id":"4","last_reported":1735232872,"current_range_meters":38800,"station_id":"chh1huq6cuj3fo74tm60","pricing_plan_id":"cebpf4jnsgd1na2vs0mg"},{"bike_id":"6f68edfd-fb24-4919-b968-971a44d10505","system_id":"levelo_inurba_marseille","lat":43.33696,"lon":5.39159,"is_reserved":false,"is_disabled":false,"rental_uris":{"android":"levelo://app?vid=6f68edfd-fb24-4919-b968-971a44d10505","ios":"levelo://app?vid=6f68edfd-fb24-4919-b968-971a44d10505"},"vehicle_type_id":"4","last_reported":1735232872,"current_range_meters":38800,"station_id":"ce4bhr92rcd13ifvqhsg","pricing_plan_id":"cebpf4jnsgd1na2vs0mg"},{"bike_id":"1f684283-70c5-4418-9dae-a40aa13a4889","system_id":"levelo_inurba_marseille","lat":43.3055,"lon":5.36525,"is_reserved":false,"is_disabled":false,"rental_uris":{"android":"levelo://app?vid=1f684283-70c5-4418-9dae-a40aa13a4889","ios":"levelo://app?vid=1f684283-70c5-4418-9dae-a40aa13a4889"},"vehicle_type_id":"4","last_reported":1735232872,"current_range_meters":38000,"station_id":"ce4bgs12rcd13ifvqcag","pricing_plan_id":"cebpf4jnsgd1na2vs0mg"},{"bike_id":"70bb7d91-2818-40e6-b342-2577862291ed","system_id":"levelo_inurba_marseille","lat":43.28355,"lon":5.38096,"is_reserved":false,"is_disabled":false,"rental_uris":{"android":"levelo://app?vid=70bb7d91-2818-40e6-b342-2577862291ed","ios":"levelo://app?vid=70bb7d91-2818-40e6-b342-2577862291ed"},"vehicle_type_id":"4","last_reported":1735232872,"current_range_meters":8000,"station_id":"ce4bh412rcd13ifvqdr0","pricing_plan_id":"cebpf4jnsgd1na2vs0mg"},{"bike_id":"e00dfb05-17e3-4fe6-bb2e-302de9c485a7","system_id":"levelo_inurba_marseille","lat":43.29597,"lon":5.38104,"is_reserved":false,"is_disabled":false,"rental_uris":{"android":"levelo://app?vid=e00dfb05-17e3-4fe6-bb2e-302de9c485a7","ios":"levelo://app?vid=e00dfb05-17e3-4fe6-bb2e-302de9c485a7"},"vehicle_type_id":"4","last_reported":1735232872,"current_range_meters":36000,"station_id":"ce4bgl12rcd13ifvqbo0","pricing_plan_id":"cebpf4jnsgd1na2vs0mg"},{"bike_id":"5608df94-b66e-460e-9f45-682a8f36b500","system_id":"levelo_inurba_marseille","lat":43.26945,"lon":5.38936,"is_reserved":false,"is_disabled":false,"rental_uris":{"android":"levelo://app?vid=5608df94-b66e-460e-9f45-682a8f36b500","ios":"levelo://app?vid=5608df94-b66e-460e-9f45-682a8f36b500"},"vehicle_type_id":"4","last_reported":1735232872,"current_range_meters":38400,"station_id":"ce4bhhh2rcd13ifvqfl0","pricing_plan_id":"cebpf4jnsgd1na2vs0mg"},{"bike_id":"4e6d0ca2-6374-490a-b48e-6cba90785a4f","system_id":"levelo_inurba_marseille","lat":43.24646,"lon":5.38892,"is_reserved":false,"is_disabled":false,"rental_uris":{"android":"levelo://app?vid=4e6d0ca2-6374-490a-b48e-6cba90785a4f","ios":"levelo://app?vid=4e6d0ca2-6374-490a-b48e-6cba90785a4f"},"vehicle_type_id":"4","last_reported":1735232872,"current_range_meters":10800,"station_id":"ce4bhg12rcd13ifvqf60","pricing_plan_id":"cebpf4jnsgd1na2vs0mg"},{"bike_id":"2cd19a34-46fd-4f51-9f4b-b064913bb92f","system_id":"levelo_inurba_marseille","lat":43.29788,"lon":5.39346,"is_reserved":false,"is_disabled":false,"rental_uris":{"android":"levelo://app?vid=2cd19a34-46fd-4f51-9f4b-b064913bb92f","ios":"levelo://app?vid=2cd19a34-46fd-4f51-9f4b-b064913bb92f"},"vehicle_type_id":"4","last_reported":1735232872,"current_range_meters":38400,"station_id":"chh1huq6cuj3fo74tm60","pricing_plan_id":"cebpf4jnsgd1na2vs0mg"},{"bike_id":"963b50d8-757b-4c39-84ed-9fb9fa9d8d9e","system_id":"levelo_inurba_marseille","lat":43.29233,"lon":5.36058,"is_reserved":false,"is_disabled":false,"rental_uris":{"android":"levelo://app?vid=963b50d8-757b-4c39-84ed-9fb9fa9d8d9e","ios":"levelo://app?vid=963b50d8-757b-4c39-84ed-9fb9fa9d8d9e"},"vehicle_type_id":"4","last_reported":1735232872,"current_range_meters":26800,"station_id":"ce4bhbh2rcd13ifvqeqg","pricing_plan_id":"cebpf4jnsgd1na2vs0mg"},{"bike_id":"cf71366f-be23-4797-93cf-6dfe19a14fb0","system_id":"levelo_inurba_marseille","lat":43.29799,"lon":5.38088,"is_reserved":false,"is_disabled":false,"rental_uris":{"android":"levelo://app?vid=cf71366f-be23-4797-93cf-6dfe19a14fb0","ios":"levelo://app?vid=cf71366f-be23-4797-93cf-6dfe19a14fb0"},"vehicle_type_id":"4","last_reported":1735232872,"current_range_meters":32400,"station_id":"ce4bgip2rcd13ifvqbb0","pricing_plan_id":"cebpf4jnsgd1na2vs0mg"},{"bike_id":"797752e9-9b8c-41c6-b3b4-1c43170cd15b","system_id":"levelo_inurba_marseille","lat":43.23148,"lon":5.43703,"is_reserved":false,"is_disabled":false,"rental_uris":{"android":"levelo://app?vid=797752e9-9b8c-41c6-b3b4-1c43170cd15b","ios":"levelo://app?vid=797752e9-9b8c-41c6-b3b4-1c43170cd15b"},"vehicle_type_id":"4","last_reported":1735232872,"current_range_meters":27600,"station_id":"ce4bhmp2rcd13ifvqgog","pricing_plan_id":"cebpf4jnsgd1na2vs0mg"},{"bike_id":"40604247-8679-4b68-9682-619d18eba1e2","system_id":"levelo_inurba_marseille","lat":43.26935,"lon":5.40258,"is_reserved":false,"is_disabled":false,"rental_uris":{"android":"levelo://app?vid=40604247-8679-4b68-9682-619d18eba1e2","ios":"levelo://app?vid=40604247-8679-4b68-9682-619d18eba1e2"},"vehicle_type_id":"4","last_reported":1735232872,"current_range_meters":38800,"station_id":"cjm6bp8fraef2m0cb0m0","pricing_plan_id":"cebpf4jnsgd1na2vs0mg"},{"bike_id":"41e441a8-4ad2-4bf0-81ba-96c35feaf6d8","system_id":"levelo_inurba_marseille","lat":43.28152,"lon":5.42635,"is_reserved":false,"is_disabled":false,"rental_uris":{"android":"levelo://app?vid=41e441a8-4ad2-4bf0-81ba-96c35feaf6d8","ios":"levelo://app?vid=41e441a8-4ad2-4bf0-81ba-96c35feaf6d8"},"vehicle_type_id":"4","last_reported":1735232872,"current_range_meters":8400,"station_id":"ce4bhnh2rcd13ifvqgug","pricing_plan_id":"cebpf4jnsgd1na2vs0mg"},{"bike_id":"afaaeea3-9c7e-490e-b33f-56120fc8b0ed","system_id":"levelo_inurba_marseille","lat":43.29707,"lon":5.36606,"is_reserved":false,"is_disabled":false,"rental_uris":{"android":"levelo://app?vid=afaaeea3-9c7e-490e-b33f-56120fc8b0ed","ios":"levelo://app?vid=afaaeea3-9c7e-490e-b33f-56120fc8b0ed"},"vehicle_type_id":"4","last_reported":1735232872,"current_range_meters":36800,"station_id":"ce4bgn12rcd13ifvqbt0","pricing_plan_id":"cebpf4jnsgd1na2vs0mg"},{"bike_id":"60cc7039-abea-45cc-868b-0dc1ad9222e5","system_id":"levelo_inurba_marseille","lat":43.2679,"lon":5.39414,"is_reserved":false,"is_disabled":false,"rental_uris":{"android":"levelo://app?vid=60cc7039-abea-45cc-868b-0dc1ad9222e5","ios":"levelo://app?vid=60cc7039-abea-45cc-868b-0dc1ad9222e5"},"vehicle_type_id":"4","last_reported":1735232872,"current_range_meters":35200,"station_id":"ce4bhh12rcd13ifvqfg0","pricing_plan_id":"cebpf4jnsgd1na2vs0mg"},{"bike_id":"4e04e3c8-bad8-47c2-a784-0c5eba8b5d4f","system_id":"levelo_inurba_marseille","lat":43.27067,"lon":5.42278,"is_reserved":false,"is_disabled":false,"rental_uris":{"android":"levelo://app?vid=4e04e3c8-bad8-47c2-a784-0c5eba8b5d4f","ios":"levelo://app?vid=4e04e3c8-bad8-47c2-a784-0c5eba8b5d4f"},"vehicle_type_id":"4","last_reported":1735232872,"current_range_meters":34000,"station_id":"ce4bhk92rcd13ifvqgb0","pricing_plan_id":"cebpf4jnsgd1na2vs0mg"},{"bike_id":"aa6ce8e8-9ef3-4eb0-8e38-4499327ca64f","system_id":"levelo_inurba_marseille","lat":43.29885,"lon":5.38887,"is_reserved":false,"is_disabled":false,"rental_uris":{"android":"levelo://app?vid=aa6ce8e8-9ef3-4eb0-8e38-4499327ca64f","ios":"levelo://app?vid=aa6ce8e8-9ef3-4eb0-8e38-4499327ca64f"},"vehicle_type_id":"4","last_reported":1735232872,"current_range_meters":39200,"station_id":"ce4bh392rcd13ifvqdl0","pricing_plan_id":"cebpf4jnsgd1na2vs0mg"},{"bike_id":"b3f7c1d6-8123-4d01-aa9c-fa3c8f407264","system_id":"levelo_inurba_marseille","lat":43.29021,"lon":5.38642,"is_reserved":false,"is_disabled":false,"rental_uris":{"android":"levelo://app?vid=b3f7c1d6-8123-4d01-aa9c-fa3c8f407264","ios":"levelo://app?vid=b3f7c1d6-8123-4d01-aa9c-fa3c8f407264"},"vehicle_type_id":"4","last_reported":1735232872,"current_range_meters":38800,"station_id":"ce4bh4p2rcd13ifvqe0g","pricing_plan_id":"cebpf4jnsgd1na2vs0mg"},{"bike_id":"2ea2828b-4054-4613-b03c-004a3cdbc7d6","system_id":"levelo_inurba_marseille","lat":43.29939,"lon":5.36526,"is_reserved":false,"is_disabled":false,"rental_uris":{"android":"levelo://app?vid=2ea2828b-4054-4613-b03c-004a3cdbc7d6","ios":"levelo://app?vid=2ea2828b-4054-4613-b03c-004a3cdbc7d6"},"vehicle_type_id":"4","last_reported":1735232872,"current_range_meters":36800,"station_id":"ce4bgm92rcd13ifvqbr0","pricing_plan_id":"cebpf4jnsgd1na2vs0mg"},{"bike_id":"235c02dd-a81a-4614-b09e-8ecbb664a04b","system_id":"levelo_inurba_marseille","lat":43.24556,"lon":5.39531,"is_reserved":false,"is_disabled":false,"rental_uris":{"android":"levelo://app?vid=235c02dd-a81a-4614-b09e-8ecbb664a04b","ios":"levelo://app?vid=235c02dd-a81a-4614-b09e-8ecbb664a04b"},"vehicle_type_id":"4","last_reported":1735232872,"current_range_meters":38800,"station_id":"ce4bhlp2rcd13ifvqgjg","pricing_plan_id":"cebpf4jnsgd1na2vs0mg"},{"bike_id":"b9e24016-64c9-40c7-9813-9e5697a1c91c","system_id":"levelo_inurba_marseille","lat":43.29216,"lon":5.36055,"is_reserved":false,"is_disabled":false,"rental_uris":{"android":"levelo://app?vid=b9e24016-64c9-40c7-9813-9e5697a1c91c","ios":"levelo://app?vid=b9e24016-64c9-40c7-9813-9e5697a1c91c"},"vehicle_type_id":"4","last_reported":1735232872,"current_range_meters":16000,"station_id":"ce4bhbh2rcd13ifvqeqg","pricing_plan_id":"cebpf4jnsgd1na2vs0mg"},{"bike_id":"f2f91b7c-af31-49df-af15-35bc0e323143","system_id":"levelo_inurba_marseille","lat":43.27811,"lon":5.40715,"is_reserved":false,"is_disabled":false,"rental_uris":{"android":"levelo://app?vid=f2f91b7c-af31-49df-af15-35bc0e323143","ios":"levelo://app?vid=f2f91b7c-af31-49df-af15-35bc0e323143"},"vehicle_type_id":"4","last_reported":1735232872,"current_range_meters":14000,"station_id":"ce4bhnh2rcd13ifvqgtg","pricing_plan_id":"cebpf4jnsgd1na2vs0mg"},{"bike_id":"55f367c1-71c1-4390-b4a3-b526235e9e25","system_id":"levelo_inurba_marseille","lat":43.30189,"lon":5.36613,"is_reserved":false,"is_disabled":false,"rental_uris":{"android":"levelo://app?vid=55f367c1-71c1-4390-b4a3-b526235e9e25","ios":"levelo://app?vid=55f367c1-71c1-4390-b4a3-b526235e9e25"},"vehicle_type_id":"4","last_reported":1735232872,"current_range_meters":39200,"station_id":"ce4bgrh2rcd13ifvqc8g","pricing_plan_id":"cebpf4jnsgd1na2vs0mg"},{"bike_id":"62e61e4f-c04b-4ed0-9ce5-9ce735ffd318","system_id":"levelo_inurba_marseille","lat":43.25861,"lon":5.39899,"is_reserved":false,"is_disabled":false,"rental_uris":{"android":"levelo://app?vid=62e61e4f-c04b-4ed0-9ce5-9ce735ffd318","ios":"levelo://app?vid=62e61e4f-c04b-4ed0-9ce5-9ce735ffd318"},"vehicle_type_id":"4","last_reported":1735232872,"current_range_meters":36800,"station_id":"ce4bhl92rcd13ifvqghg","pricing_plan_id":"cebpf4jnsgd1na2vs0mg"},{"bike_id":"affaff11-df12-4166-bf6b-e6dfd0c68b23","system_id":"levelo_inurba_marseille","lat":43.30539,"lon":5.36697,"is_reserved":false,"is_disabled":false,"rental_uris":{"android":"levelo://app?vid=affaff11-df12-4166-bf6b-e6dfd0c68b23","ios":"levelo://app?vid=affaff11-df12-4166-bf6b-e6dfd0c68b23"},"vehicle_type_id":"4","last_reported":1735232872,"current_range_meters":27600,"station_id":"ce4bgrp2rcd13ifvqc9g","pricing_plan_id":"cebpf4jnsgd1na2vs0mg"},{"bike_id":"cc679926-49d0-4021-a6d1-8fe3eb2e6bd4","system_id":"levelo_inurba_marseille","lat":43.28679,"lon":5.38668,"is_reserved":false,"is_disabled":false,"rental_uris":{"android":"levelo://app?vid=cc679926-49d0-4021-a6d1-8fe3eb2e6bd4","ios":"levelo://app?vid=cc679926-49d0-4021-a6d1-8fe3eb2e6bd4"},"vehicle_type_id":"4","last_reported":1735232872,"current_range_meters":22400,"station_id":"ce4bh492rcd13ifvqdug","pricing_plan_id":"cebpf4jnsgd1na2vs0mg"},{"bike_id":"f12eb93c-d258-40bc-ba9f-19d77f84b7cd","system_id":"levelo_inurba_marseille","lat":43.30237,"lon":5.4005,"is_reserved":false,"is_disabled":false,"rental_uris":{"android":"levelo://app?vid=f12eb93c-d258-40bc-ba9f-19d77f84b7cd","ios":"levelo://app?vid=f12eb93c-d258-40bc-ba9f-19d77f84b7cd"},"vehicle_type_id":"4","last_reported":1735232872,"current_range_meters":36800,"station_id":"ce4bgvh2rcd13ifvqcs0","pricing_plan_id":"cebpf4jnsgd1na2vs0mg"},{"bike_id":"afa1ff45-7503-4146-b21a-bfc51c88b9da","system_id":"levelo_inurba_marseille","lat":43.29555,"lon":5.37507,"is_reserved":false,"is_disabled":false,"rental_uris":{"android":"levelo://app?vid=afa1ff45-7503-4146-b21a-bfc51c88b9da","ios":"levelo://app?vid=afa1ff45-7503-4146-b21a-bfc51c88b9da"},"vehicle_type_id":"4","last_reported":1735232872,"current_range_meters":22400,"station_id":"ce4bgh92rcd13ifvqb50","pricing_plan_id":"cebpf4jnsgd1na2vs0mg"},{"bike_id":"509d6939-a055-4cab-b606-fdeee6645c66","system_id":"levelo_inurba_marseille","lat":43.26494,"lon":5.39547,"is_reserved":false,"is_disabled":false,"rental_uris":{"android":"levelo://app?vid=509d6939-a055-4cab-b606-fdeee6645c66","ios":"levelo://app?vid=509d6939-a055-4cab-b606-fdeee6645c66"},"vehicle_type_id":"4","last_reported":1735232872,"current_range_meters":26000,"station_id":"ce4bhi12rcd13ifvqfq0","pricing_plan_id":"cebpf4jnsgd1na2vs0mg"},{"bike_id":"f9d7a6aa-83a7-4384-8969-5637dd508436","system_id":"levelo_inurba_marseille","lat":43.2781,"lon":5.4071,"is_reserved":false,"is_disabled":false,"rental_uris":{"android":"levelo://app?vid=f9d7a6aa-83a7-4384-8969-5637dd508436","ios":"levelo://app?vid=f9d7a6aa-83a7-4384-8969-5637dd508436"},"vehicle_type_id":"4","last_reported":1735232872,"current_range_meters":38800,"station_id":"ce4bhnh2rcd13ifvqgtg","pricing_plan_id":"cebpf4jnsgd1na2vs0mg"},{"bike_id":"c2e4bfcb-4330-4a44-a7a7-d9f03bd2cccf","system_id":"levelo_inurba_marseille","lat":43.30294,"lon":5.39218,"is_reserved":false,"is_disabled":false,"rental_uris":{"android":"levelo://app?vid=c2e4bfcb-4330-4a44-a7a7-d9f03bd2cccf","ios":"levelo://app?vid=c2e4bfcb-4330-4a44-a7a7-d9f03bd2cccf"},"vehicle_type_id":"4","last_reported":1735232872,"current_range_meters":28800,"station_id":"ce4bgkh2rcd13ifvqbk0","pricing_plan_id":"cebpf4jnsgd1na2vs0mg"},{"bike_id":"673ed0fe-3027-4e1f-9efc-2804b0e32190","system_id":"levelo_inurba_marseille","lat":43.26687,"lon":5.38272,"is_reserved":false,"is_disabled":false,"rental_uris":{"android":"levelo://app?vid=673ed0fe-3027-4e1f-9efc-2804b0e32190","ios":"levelo://app?vid=673ed0fe-3027-4e1f-9efc-2804b0e32190"},"vehicle_type_id":"4","last_reported":1735232872,"current_range_meters":24000,"station_id":"ce4bhg92rcd13ifvqf90","pricing_plan_id":"cebpf4jnsgd1na2vs0mg"},{"bike_id":"8383b770-0a68-43d5-b3f5-5338128961cb","system_id":"levelo_inurba_marseille","lat":43.29941,"lon":5.36534,"is_reserved":false,"is_disabled":false,"rental_uris":{"android":"levelo://app?vid=8383b770-0a68-43d5-b3f5-5338128961cb","ios":"levelo://app?vid=8383b770-0a68-43d5-b3f5-5338128961cb"},"vehicle_type_id":"4","last_reported":1735232872,"current_range_meters":22800,"station_id":"ce4bgm92rcd13ifvqbr0","pricing_plan_id":"cebpf4jnsgd1na2vs0mg"},{"bike_id":"2e48270a-c773-45cd-b6b6-1f931f6c2627","system_id":"levelo_inurba_marseille","lat":43.29882,"lon":5.38906,"is_reserved":false,"is_disabled":false,"rental_uris":{"android":"levelo://app?vid=2e48270a-c773-45cd-b6b6-1f931f6c2627","ios":"levelo://app?vid=2e48270a-c773-45cd-b6b6-1f931f6c2627"},"vehicle_type_id":"4","last_reported":1735232872,"current_range_meters":39200,"station_id":"ce4bh392rcd13ifvqdl0","pricing_plan_id":"cebpf4jnsgd1na2vs0mg"},{"bike_id":"669093f3-9e30-4f27-a07e-489670469d1a","system_id":"levelo_inurba_marseille","lat":43.27914,"lon":5.39589,"is_reserved":false,"is_disabled":false,"rental_uris":{"android":"levelo://app?vid=669093f3-9e30-4f27-a07e-489670469d1a","ios":"levelo://app?vid=669093f3-9e30-4f27-a07e-489670469d1a"},"vehicle_type_id":"4","last_reported":1735232872,"current_range_meters":35200,"station_id":"ce4bhf92rcd13ifvqf40","pricing_plan_id":"cebpf4jnsgd1na2vs0mg"},{"bike_id":"5249bd37-65b5-430a-b64a-2b633e6064c4","system_id":"levelo_inurba_marseille","lat":43.29727,"lon":5.37697,"is_reserved":false,"is_disabled":false,"rental_uris":{"android":"levelo://app?vid=5249bd37-65b5-430a-b64a-2b633e6064c4","ios":"levelo://app?vid=5249bd37-65b5-430a-b64a-2b633e6064c4"},"vehicle_type_id":"4","last_reported":1735232872,"current_range_meters":38800,"station_id":"ce4bgkh2rcd13ifvqbl0","pricing_plan_id":"cebpf4jnsgd1na2vs0mg"},{"bike_id":"4e3ec7a4-2c0f-419c-b4af-b681beb75cc8","system_id":"levelo_inurba_marseille","lat":43.30414,"lon":5.41276,"is_reserved":false,"is_disabled":false,"rental_uris":{"android":"levelo://app?vid=4e3ec7a4-2c0f-419c-b4af-b681beb75cc8","ios":"levelo://app?vid=4e3ec7a4-2c0f-419c-b4af-b681beb75cc8"},"vehicle_type_id":"4","last_reported":1735232872,"current_range_meters":38800,"station_id":"ce4bhop2rcd13ifvqh8g","pricing_plan_id":"cebpf4jnsgd1na2vs0mg"},{"bike_id":"a579e378-9a38-461a-820f-0563d8aad362","system_id":"levelo_inurba_marseille","lat":43.30549,"lon":5.36531,"is_reserved":false,"is_disabled":false,"rental_uris":{"android":"levelo://app?vid=a579e378-9a38-461a-820f-0563d8aad362","ios":"levelo://app?vid=a579e378-9a38-461a-820f-0563d8aad362"},"vehicle_type_id":"4","last_reported":1735232872,"current_range_meters":21600,"station_id":"ce4bgs12rcd13ifvqcag","pricing_plan_id":"cebpf4jnsgd1na2vs0mg"},{"bike_id":"cadf8335-6df2-49c1-9678-5228c753266c","system_id":"levelo_inurba_marseille","lat":43.28076,"lon":5.39656,"is_reserved":false,"is_disabled":false,"rental_uris":{"android":"levelo://app?vid=cadf8335-6df2-49c1-9678-5228c753266c","ios":"levelo://app?vid=cadf8335-6df2-49c1-9678-5228c753266c"},"vehicle_type_id":"4","last_reported":1735232872,"current_range_meters":6400,"station_id":"ce4bho12rcd13ifvqh2g","pricing_plan_id":"cebpf4jnsgd1na2vs0mg"},{"bike_id":"28db8ffd-989e-446d-8732-3c319458c8d8","system_id":"levelo_inurba_marseille","lat":43.31489,"lon":5.37296,"is_reserved":false,"is_disabled":false,"rental_uris":{"android":"levelo://app?vid=28db8ffd-989e-446d-8732-3c319458c8d8","ios":"levelo://app?vid=28db8ffd-989e-446d-8732-3c319458c8d8"},"vehicle_type_id":"4","last_reported":1735232872,"current_range_meters":38000,"station_id":"ce4bgt12rcd13ifvqcd0","pricing_plan_id":"cebpf4jnsgd1na2vs0mg"},{"bike_id":"36c94d29-a143-4ca2-8a11-fcf2b617451d","system_id":"levelo_inurba_marseille","lat":43.24804,"lon":5.37453,"is_reserved":false,"is_disabled":false,"rental_uris":{"android":"levelo://app?vid=36c94d29-a143-4ca2-8a11-fcf2b617451d","ios":"levelo://app?vid=36c94d29-a143-4ca2-8a11-fcf2b617451d"},"vehicle_type_id":"4","last_reported":1735232872,"current_range_meters":16800,"station_id":"ce4bhgh2rcd13ifvqfb0","pricing_plan_id":"cebpf4jnsgd1na2vs0mg"},{"bike_id":"0d356a97-93db-4905-a410-a6d23d3b385c","system_id":"levelo_inurba_marseille","lat":43.2884,"lon":5.35848,"is_reserved":false,"is_disabled":false,"rental_uris":{"android":"levelo://app?vid=0d356a97-93db-4905-a410-a6d23d3b385c","ios":"levelo://app?vid=0d356a97-93db-4905-a410-a6d23d3b385c"},"vehicle_type_id":"4","last_reported":1735232872,"current_range_meters":19600,"station_id":"ce4bhb12rcd13ifvqem0","pricing_plan_id":"cebpf4jnsgd1na2vs0mg"},{"bike_id":"6556df2a-0e73-47d2-b43c-151912c9038b","system_id":"levelo_inurba_marseille","lat":43.24549,"lon":5.39545,"is_reserved":false,"is_disabled":false,"rental_uris":{"android":"levelo://app?vid=6556df2a-0e73-47d2-b43c-151912c9038b","ios":"levelo://app?vid=6556df2a-0e73-47d2-b43c-151912c9038b"},"vehicle_type_id":"4","last_reported":1735232872,"current_range_meters":38800,"station_id":"ce4bhlp2rcd13ifvqgjg","pricing_plan_id":"cebpf4jnsgd1na2vs0mg"},{"bike_id":"0089825d-bdd9-4c40-bf0e-57b3cbb36429","system_id":"levelo_inurba_marseille","lat":43.30544,"lon":5.36713,"is_reserved":false,"is_disabled":false,"rental_uris":{"android":"levelo://app?vid=0089825d-bdd9-4c40-bf0e-57b3cbb36429","ios":"levelo://app?vid=0089825d-bdd9-4c40-bf0e-57b3cbb36429"},"vehicle_type_id":"4","last_reported":1735232872,"current_range_meters":38800,"station_id":"ce4bgrp2rcd13ifvqc9g","pricing_plan_id":"cebpf4jnsgd1na2vs0mg"},{"bike_id":"ed723caa-2168-4c55-adfa-85629ce07988","system_id":"levelo_inurba_marseille","lat":43.29532,"lon":5.37501,"is_reserved":false,"is_disabled":false,"rental_uris":{"android":"levelo://app?vid=ed723caa-2168-4c55-adfa-85629ce07988","ios":"levelo://app?vid=ed723caa-2168-4c55-adfa-85629ce07988"},"vehicle_type_id":"4","last_reported":1735232872,"current_range_meters":36000,"station_id":"","pricing_plan_id":"cebpf4jnsgd1na2vs0mg"},{"bike_id":"20d421ba-c6c8-4371-8278-73fac8e7ee94","system_id":"levelo_inurba_marseille","lat":43.29006,"lon":5.3562,"is_reserved":false,"is_disabled":false,"rental_uris":{"android":"levelo://app?vid=20d421ba-c6c8-4371-8278-73fac8e7ee94","ios":"levelo://app?vid=20d421ba-c6c8-4371-8278-73fac8e7ee94"},"vehicle_type_id":"4","last_reported":1735232872,"current_range_meters":2800,"station_id":"ce4bhb92rcd13ifvqen0","pricing_plan_id":"cebpf4jnsgd1na2vs0mg"},{"bike_id":"d36bb8df-822e-49e3-adc4-c36f4503a77d","system_id":"levelo_inurba_marseille","lat":43.27493,"lon":5.42453,"is_reserved":false,"is_disabled":false,"rental_uris":{"android":"levelo://app?vid=d36bb8df-822e-49e3-adc4-c36f4503a77d","ios":"levelo://app?vid=d36bb8df-822e-49e3-adc4-c36f4503a77d"},"vehicle_type_id":"4","last_reported":1735232872,"current_range_meters":9600,"station_id":"ce4bhn92rcd13ifvqgrg","pricing_plan_id":"cebpf4jnsgd1na2vs0mg"},{"bike_id":"1621a986-e41d-45bf-834a-f6c7fb7fded1","system_id":"levelo_inurba_marseille","lat":43.29254,"lon":5.40909,"is_reserved":false,"is_disabled":false,"rental_uris":{"android":"levelo://app?vid=1621a986-e41d-45bf-834a-f6c7fb7fded1","ios":"levelo://app?vid=1621a986-e41d-45bf-834a-f6c7fb7fded1"},"vehicle_type_id":"4","last_reported":1735232872,"current_range_meters":34000,"station_id":"ce4bh192rcd13ifvqdc0","pricing_plan_id":"cebpf4jnsgd1na2vs0mg"},{"bike_id":"4f5db02c-99f9-460e-a880-3ca7100df048","system_id":"levelo_inurba_marseille","lat":43.27428,"lon":5.39378,"is_reserved":false,"is_disabled":false,"rental_uris":{"android":"levelo://app?vid=4f5db02c-99f9-460e-a880-3ca7100df048","ios":"levelo://app?vid=4f5db02c-99f9-460e-a880-3ca7100df048"},"vehicle_type_id":"4","last_reported":1735232872,"current_range_meters":38800,"station_id":"ce4bhdp2rcd13ifvqf20","pricing_plan_id":"cebpf4jnsgd1na2vs0mg"},{"bike_id":"d92ce413-4a40-4ff0-95ab-ebe054e256bf","system_id":"levelo_inurba_marseille","lat":43.27947,"lon":5.41025,"is_reserved":false,"is_disabled":false,"rental_uris":{"android":"levelo://app?vid=d92ce413-4a40-4ff0-95ab-ebe054e256bf","ios":"levelo://app?vid=d92ce413-4a40-4ff0-95ab-ebe054e256bf"},"vehicle_type_id":"4","last_reported":1735232872,"current_range_meters":38800,"station_id":"ce4bhnp2rcd13ifvqh0g","pricing_plan_id":"cebpf4jnsgd1na2vs0mg"},{"bike_id":"fe73862b-8c55-4fc9-8d05-70c0d05c8069","system_id":"levelo_inurba_marseille","lat":43.30891,"lon":5.39653,"is_reserved":false,"is_disabled":false,"rental_uris":{"android":"levelo://app?vid=fe73862b-8c55-4fc9-8d05-70c0d05c8069","ios":"levelo://app?vid=fe73862b-8c55-4fc9-8d05-70c0d05c8069"},"vehicle_type_id":"4","last_reported":1735232872,"current_range_meters":38800,"station_id":"ce4bh012rcd13ifvqcv0","pricing_plan_id":"cebpf4jnsgd1na2vs0mg"},{"bike_id":"7a519144-206a-401e-ac5a-51065853ad87","system_id":"levelo_inurba_marseille","lat":43.29574,"lon":5.37513,"is_reserved":false,"is_disabled":false,"rental_uris":{"android":"levelo://app?vid=7a519144-206a-401e-ac5a-51065853ad87","ios":"levelo://app?vid=7a519144-206a-401e-ac5a-51065853ad87"},"vehicle_type_id":"4","last_reported":1735232872,"current_range_meters":37600,"station_id":"ce4bgh92rcd13ifvqb50","pricing_plan_id":"cebpf4jnsgd1na2vs0mg"},{"bike_id":"be913148-f7c7-4ad3-ae5a-f2ec4be3d194","system_id":"levelo_inurba_marseille","lat":43.29246,"lon":5.4091,"is_reserved":false,"is_disabled":false,"rental_uris":{"android":"levelo://app?vid=be913148-f7c7-4ad3-ae5a-f2ec4be3d194","ios":"levelo://app?vid=be913148-f7c7-4ad3-ae5a-f2ec4be3d194"},"vehicle_type_id":"4","last_reported":1735232872,"current_range_meters":38800,"station_id":"ce4bh192rcd13ifvqdc0","pricing_plan_id":"cebpf4jnsgd1na2vs0mg"},{"bike_id":"f48a31c5-7ac5-4db9-a487-f29d0d3d18d7","system_id":"levelo_inurba_marseille","lat":43.29805,"lon":5.381,"is_reserved":false,"is_disabled":false,"rental_uris":{"android":"levelo://app?vid=f48a31c5-7ac5-4db9-a487-f29d0d3d18d7","ios":"levelo://app?vid=f48a31c5-7ac5-4db9-a487-f29d0d3d18d7"},"vehicle_type_id":"4","last_reported":1735232872,"current_range_meters":18000,"station_id":"ce4bgip2rcd13ifvqbb0","pricing_plan_id":"cebpf4jnsgd1na2vs0mg"},{"bike_id":"b07e0204-2c57-49d1-a1f7-320de8610e25","system_id":"levelo_inurba_marseille","lat":43.29402,"lon":5.37344,"is_reserved":false,"is_disabled":true,"rental_uris":{"android":"levelo://app?vid=b07e0204-2c57-49d1-a1f7-320de8610e25","ios":"levelo://app?vid=b07e0204-2c57-49d1-a1f7-320de8610e25"},"vehicle_type_id":"4","last_reported":1735232872,"current_range_meters":9600,"station_id":"","pricing_plan_id":"cebpf4jnsgd1na2vs0mg"},{"bike_id":"288a9011-95b6-4421-825b-ee0e5deb880f","system_id":"levelo_inurba_marseille","lat":43.28679,"lon":5.3867,"is_reserved":false,"is_disabled":false,"rental_uris":{"android":"levelo://app?vid=288a9011-95b6-4421-825b-ee0e5deb880f","ios":"levelo://app?vid=288a9011-95b6-4421-825b-ee0e5deb880f"},"vehicle_type_id":"4","last_reported":1735232872,"current_range_meters":39200,"station_id":"ce4bh492rcd13ifvqdug","pricing_plan_id":"cebpf4jnsgd1na2vs0mg"},{"bike_id":"9d49c05f-0fd6-43f7-973f-c7f9dbb8dd66","system_id":"levelo_inurba_marseille","lat":43.30536,"lon":5.3671,"is_reserved":false,"is_disabled":false,"rental_uris":{"android":"levelo://app?vid=9d49c05f-0fd6-43f7-973f-c7f9dbb8dd66","ios":"levelo://app?vid=9d49c05f-0fd6-43f7-973f-c7f9dbb8dd66"},"vehicle_type_id":"4","last_reported":1735232872,"current_range_meters":30000,"station_id":"ce4bgrp2rcd13ifvqc9g","pricing_plan_id":"cebpf4jnsgd1na2vs0mg"},{"bike_id":"05790929-d9fc-4028-a48a-4e32c1d392ca","system_id":"levelo_inurba_marseille","lat":43.26206,"lon":5.37444,"is_reserved":false,"is_disabled":false,"rental_uris":{"android":"levelo://app?vid=05790929-d9fc-4028-a48a-4e32c1d392ca","ios":"levelo://app?vid=05790929-d9fc-4028-a48a-4e32c1d392ca"},"vehicle_type_id":"4","last_reported":1735232872,"current_range_meters":24800,"station_id":"ce4bhgp2rcd13ifvqfc0","pricing_plan_id":"cebpf4jnsgd1na2vs0mg"},{"bike_id":"d051bf13-7445-45ad-86d7-0bc2c858622c","system_id":"levelo_inurba_marseille","lat":43.29191,"lon":5.3579,"is_reserved":false,"is_disabled":false,"rental_uris":{"android":"levelo://app?vid=d051bf13-7445-45ad-86d7-0bc2c858622c","ios":"levelo://app?vid=d051bf13-7445-45ad-86d7-0bc2c858622c"},"vehicle_type_id":"4","last_reported":1735232872,"current_range_meters":27600,"station_id":"ce4bhb12rcd13ifvqel0","pricing_plan_id":"cebpf4jnsgd1na2vs0mg"},{"bike_id":"1786334d-2721-40c5-be60-f94ab6a924f7","system_id":"levelo_inurba_marseille","lat":43.26201,"lon":5.37926,"is_reserved":false,"is_disabled":false,"rental_uris":{"android":"levelo://app?vid=1786334d-2721-40c5-be60-f94ab6a924f7","ios":"levelo://app?vid=1786334d-2721-40c5-be60-f94ab6a924f7"},"vehicle_type_id":"4","last_reported":1735232872,"current_range_meters":38800,"station_id":"ce4bhjp2rcd13ifvqg90","pricing_plan_id":"cebpf4jnsgd1na2vs0mg"},{"bike_id":"43f7e734-263c-460e-a5d5-9f3194a8a7de","system_id":"levelo_inurba_marseille","lat":43.30135,"lon":5.39877,"is_reserved":false,"is_disabled":false,"rental_uris":{"android":"levelo://app?vid=43f7e734-263c-460e-a5d5-9f3194a8a7de","ios":"levelo://app?vid=43f7e734-263c-460e-a5d5-9f3194a8a7de"},"vehicle_type_id":"4","last_reported":1735232872,"current_range_meters":39200,"station_id":"ce4bh0h2rcd13ifvqd40","pricing_plan_id":"cebpf4jnsgd1na2vs0mg"},{"bike_id":"71160096-1f78-4a01-8bd7-5e65b9e0ac95","system_id":"levelo_inurba_marseille","lat":43.26201,"lon":5.37929,"is_reserved":false,"is_disabled":false,"rental_uris":{"android":"levelo://app?vid=71160096-1f78-4a01-8bd7-5e65b9e0ac95","ios":"levelo://app?vid=71160096-1f78-4a01-8bd7-5e65b9e0ac95"},"vehicle_type_id":"4","last_reported":1735232872,"current_range_meters":17200,"station_id":"ce4bhjp2rcd13ifvqg90","pricing_plan_id":"cebpf4jnsgd1na2vs0mg"},{"bike_id":"b7d95495-43a7-413c-9947-d7e462a705ea","system_id":"levelo_inurba_marseille","lat":43.28933,"lon":5.36394,"is_reserved":false,"is_disabled":true,"rental_uris":{"android":"levelo://app?vid=b7d95495-43a7-413c-9947-d7e462a705ea","ios":"levelo://app?vid=b7d95495-43a7-413c-9947-d7e462a705ea"},"vehicle_type_id":"4","last_reported":1735232872,"current_range_meters":0,"station_id":"ce4bhc92rcd13ifvqetg","pricing_plan_id":"cebpf4jnsgd1na2vs0mg"},{"bike_id":"6bb5b2fb-0945-4ff5-acf1-86283d3f0757","system_id":"levelo_inurba_marseille","lat":43.24666,"lon":5.38173,"is_reserved":false,"is_disabled":false,"rental_uris":{"android":"levelo://app?vid=6bb5b2fb-0945-4ff5-acf1-86283d3f0757","ios":"levelo://app?vid=6bb5b2fb-0945-4ff5-acf1-86283d3f0757"},"vehicle_type_id":"4","last_reported":1735232872,"current_range_meters":36800,"station_id":"ce4bhih2rcd13ifvqfr0","pricing_plan_id":"cebpf4jnsgd1na2vs0mg"},{"bike_id":"6fddf6a9-b5c4-4b31-ab3d-6a64a29448f0","system_id":"levelo_inurba_marseille","lat":43.29305,"lon":5.37182,"is_reserved":false,"is_disabled":false,"rental_uris":{"android":"levelo://app?vid=6fddf6a9-b5c4-4b31-ab3d-6a64a29448f0","ios":"levelo://app?vid=6fddf6a9-b5c4-4b31-ab3d-6a64a29448f0"},"vehicle_type_id":"4","last_reported":1735232872,"current_range_meters":17200,"station_id":"ce4bgh92rcd13ifvqb40","pricing_plan_id":"cebpf4jnsgd1na2vs0mg"},{"bike_id":"3a84a32c-567a-4338-81f5-3396af11cdea","system_id":"levelo_inurba_marseille","lat":43.26489,"lon":5.39541,"is_reserved":false,"is_disabled":false,"rental_uris":{"android":"levelo://app?vid=3a84a32c-567a-4338-81f5-3396af11cdea","ios":"levelo://app?vid=3a84a32c-567a-4338-81f5-3396af11cdea"},"vehicle_type_id":"4","last_reported":1735232872,"current_range_meters":30400,"station_id":"ce4bhi12rcd13ifvqfq0","pricing_plan_id":"cebpf4jnsgd1na2vs0mg"},{"bike_id":"67f9cc59-b46e-43cc-96bb-d5158b089fac","system_id":"levelo_inurba_marseille","lat":43.28937,"lon":5.3663,"is_reserved":false,"is_disabled":false,"rental_uris":{"android":"levelo://app?vid=67f9cc59-b46e-43cc-96bb-d5158b089fac","ios":"levelo://app?vid=67f9cc59-b46e-43cc-96bb-d5158b089fac"},"vehicle_type_id":"4","last_reported":1735232872,"current_range_meters":30800,"station_id":"ce4bhap2rcd13ifvqek0","pricing_plan_id":"cebpf4jnsgd1na2vs0mg"},{"bike_id":"526c3b21-f659-466e-a14d-5675dcf072b5","system_id":"levelo_inurba_marseille","lat":43.27073,"lon":5.42285,"is_reserved":false,"is_disabled":false,"rental_uris":{"android":"levelo://app?vid=526c3b21-f659-466e-a14d-5675dcf072b5","ios":"levelo://app?vid=526c3b21-f659-466e-a14d-5675dcf072b5"},"vehicle_type_id":"4","last_reported":1735232872,"current_range_meters":30400,"station_id":"ce4bhk92rcd13ifvqgb0","pricing_plan_id":"cebpf4jnsgd1na2vs0mg"},{"bike_id":"6882da18-50dc-4a58-b492-e62917a7ffc4","system_id":"levelo_inurba_marseille","lat":43.29624,"lon":5.37149,"is_reserved":false,"is_disabled":false,"rental_uris":{"android":"levelo://app?vid=6882da18-50dc-4a58-b492-e62917a7ffc4","ios":"levelo://app?vid=6882da18-50dc-4a58-b492-e62917a7ffc4"},"vehicle_type_id":"4","last_reported":1735232872,"current_range_meters":38000,"station_id":"ce4bgnh2rcd13ifvqc0g","pricing_plan_id":"cebpf4jnsgd1na2vs0mg"},{"bike_id":"4533eada-6a5e-4943-8abf-0be564ed4a4a","system_id":"levelo_inurba_marseille","lat":43.297024,"lon":5.400688,"is_reserved":false,"is_disabled":false,"rental_uris":{"android":"levelo://app?vid=4533eada-6a5e-4943-8abf-0be564ed4a4a","ios":"levelo://app?vid=4533eada-6a5e-4943-8abf-0be564ed4a4a"},"vehicle_type_id":"4","last_reported":1735232872,"current_range_meters":5600,"station_id":"ce4bh092rcd13ifvqd30","pricing_plan_id":"cebpf4jnsgd1na2vs0mg"},{"bike_id":"e21de414-f290-4ca8-aba3-0da9154d1645","system_id":"levelo_inurba_marseille","lat":43.29271,"lon":5.36849,"is_reserved":false,"is_disabled":true,"rental_uris":{"android":"levelo://app?vid=e21de414-f290-4ca8-aba3-0da9154d1645","ios":"levelo://app?vid=e21de414-f290-4ca8-aba3-0da9154d1645"},"vehicle_type_id":"4","last_reported":1735232872,"current_range_meters":400,"station_id":"ce4bhbp2rcd13ifvqesg","pricing_plan_id":"cebpf4jnsgd1na2vs0mg"},{"bike_id":"137f6041-7402-4720-b8e3-8360c38100c9","system_id":"levelo_inurba_marseille","lat":43.2694,"lon":5.40254,"is_reserved":false,"is_disabled":false,"rental_uris":{"android":"levelo://app?vid=137f6041-7402-4720-b8e3-8360c38100c9","ios":"levelo://app?vid=137f6041-7402-4720-b8e3-8360c38100c9"},"vehicle_type_id":"4","last_reported":1735232872,"current_range_meters":38000,"station_id":"cjm6bp8fraef2m0cb0m0","pricing_plan_id":"cebpf4jnsgd1na2vs0mg"},{"bike_id":"abb6f3f1-c9e4-4600-bf62-12f84f815612","system_id":"levelo_inurba_marseille","lat":43.28357,"lon":5.38108,"is_reserved":false,"is_disabled":false,"rental_uris":{"android":"levelo://app?vid=abb6f3f1-c9e4-4600-bf62-12f84f815612","ios":"levelo://app?vid=abb6f3f1-c9e4-4600-bf62-12f84f815612"},"vehicle_type_id":"4","last_reported":1735232872,"current_range_meters":38800,"station_id":"ce4bh412rcd13ifvqdr0","pricing_plan_id":"cebpf4jnsgd1na2vs0mg"},{"bike_id":"e9081ace-5d5c-4eae-9910-c1e01fc02b5e","system_id":"levelo_inurba_marseille","lat":43.28467,"lon":5.38417,"is_reserved":false,"is_disabled":false,"rental_uris":{"android":"levelo://app?vid=e9081ace-5d5c-4eae-9910-c1e01fc02b5e","ios":"levelo://app?vid=e9081ace-5d5c-4eae-9910-c1e01fc02b5e"},"vehicle_type_id":"4","last_reported":1735232872,"current_range_meters":22000,"station_id":"ce4bh512rcd13ifvqe3g","pricing_plan_id":"cebpf4jnsgd1na2vs0mg"},{"bike_id":"6fa05ba4-8a22-468c-a828-c3aee18643bb","system_id":"levelo_inurba_marseille","lat":43.28705,"lon":5.37382,"is_reserved":false,"is_disabled":false,"rental_uris":{"android":"levelo://app?vid=6fa05ba4-8a22-468c-a828-c3aee18643bb","ios":"levelo://app?vid=6fa05ba4-8a22-468c-a828-c3aee18643bb"},"vehicle_type_id":"4","last_reported":1735232872,"current_range_meters":33600,"station_id":"ce4bh3p2rcd13ifvqdq0","pricing_plan_id":"cebpf4jnsgd1na2vs0mg"},{"bike_id":"aaa78394-0f83-4d1b-bc11-2e06bb634e07","system_id":"levelo_inurba_marseille","lat":43.28149,"lon":5.42644,"is_reserved":false,"is_disabled":false,"rental_uris":{"android":"levelo://app?vid=aaa78394-0f83-4d1b-bc11-2e06bb634e07","ios":"levelo://app?vid=aaa78394-0f83-4d1b-bc11-2e06bb634e07"},"vehicle_type_id":"4","last_reported":1735232872,"current_range_meters":19600,"station_id":"ce4bhnh2rcd13ifvqgug","pricing_plan_id":"cebpf4jnsgd1na2vs0mg"},{"bike_id":"9e0ce3af-2e3c-435a-8c4f-d3ce16f81c59","system_id":"levelo_inurba_marseille","lat":43.29217,"lon":5.36048,"is_reserved":false,"is_disabled":true,"rental_uris":{"android":"levelo://app?vid=9e0ce3af-2e3c-435a-8c4f-d3ce16f81c59","ios":"levelo://app?vid=9e0ce3af-2e3c-435a-8c4f-d3ce16f81c59"},"vehicle_type_id":"4","last_reported":1735232872,"current_range_meters":19200,"station_id":"ce4bhbh2rcd13ifvqeqg","pricing_plan_id":"cebpf4jnsgd1na2vs0mg"},{"bike_id":"c376de60-3c95-4c79-9305-e755da7df523","system_id":"levelo_inurba_marseille","lat":43.25118,"lon":5.40322,"is_reserved":false,"is_disabled":false,"rental_uris":{"android":"levelo://app?vid=c376de60-3c95-4c79-9305-e755da7df523","ios":"levelo://app?vid=c376de60-3c95-4c79-9305-e755da7df523"},"vehicle_type_id":"4","last_reported":1735232872,"current_range_meters":38400,"station_id":"ce4bhlh2rcd13ifvqgig","pricing_plan_id":"cebpf4jnsgd1na2vs0mg"},{"bike_id":"28614f0f-83c7-4a5e-aa82-6698d8d0f203","system_id":"levelo_inurba_marseille","lat":43.24807,"lon":5.37463,"is_reserved":false,"is_disabled":false,"rental_uris":{"android":"levelo://app?vid=28614f0f-83c7-4a5e-aa82-6698d8d0f203","ios":"levelo://app?vid=28614f0f-83c7-4a5e-aa82-6698d8d0f203"},"vehicle_type_id":"4","last_reported":1735232872,"current_range_meters":29600,"station_id":"ce4bhgh2rcd13ifvqfb0","pricing_plan_id":"cebpf4jnsgd1na2vs0mg"},{"bike_id":"cccf64b9-3fec-4726-adbb-2244a41bdfca","system_id":"levelo_inurba_marseille","lat":43.29029,"lon":5.38641,"is_reserved":false,"is_disabled":false,"rental_uris":{"android":"levelo://app?vid=cccf64b9-3fec-4726-adbb-2244a41bdfca","ios":"levelo://app?vid=cccf64b9-3fec-4726-adbb-2244a41bdfca"},"vehicle_type_id":"4","last_reported":1735232872,"current_range_meters":28800,"station_id":"ce4bh4p2rcd13ifvqe0g","pricing_plan_id":"cebpf4jnsgd1na2vs0mg"},{"bike_id":"9914af9f-1a90-45b8-815d-6e77d9e8c962","system_id":"levelo_inurba_marseille","lat":43.30331,"lon":5.40436,"is_reserved":false,"is_disabled":false,"rental_uris":{"android":"levelo://app?vid=9914af9f-1a90-45b8-815d-6e77d9e8c962","ios":"levelo://app?vid=9914af9f-1a90-45b8-815d-6e77d9e8c962"},"vehicle_type_id":"4","last_reported":1735232872,"current_range_meters":30000,"station_id":"ce4bh012rcd13ifvqd10","pricing_plan_id":"cebpf4jnsgd1na2vs0mg"},{"bike_id":"99b1a51d-f858-498e-af8b-1fd360c8cfcf","system_id":"levelo_inurba_marseille","lat":43.25582,"lon":5.38234,"is_reserved":false,"is_disabled":false,"rental_uris":{"android":"levelo://app?vid=99b1a51d-f858-498e-af8b-1fd360c8cfcf","ios":"levelo://app?vid=99b1a51d-f858-498e-af8b-1fd360c8cfcf"},"vehicle_type_id":"4","last_reported":1735232872,"current_range_meters":38000,"station_id":"ce4bhih2rcd13ifvqfs0","pricing_plan_id":"cebpf4jnsgd1na2vs0mg"},{"bike_id":"ec3f8186-a764-4e8c-a21b-2f9464123659","system_id":"levelo_inurba_marseille","lat":43.29228,"lon":5.36084,"is_reserved":false,"is_disabled":false,"rental_uris":{"android":"levelo://app?vid=ec3f8186-a764-4e8c-a21b-2f9464123659","ios":"levelo://app?vid=ec3f8186-a764-4e8c-a21b-2f9464123659"},"vehicle_type_id":"4","last_reported":1735232872,"current_range_meters":10800,"station_id":"ce4bhbh2rcd13ifvqeqg","pricing_plan_id":"cebpf4jnsgd1na2vs0mg"},{"bike_id":"4f0978bb-2568-4421-9860-b196c4f6425f","system_id":"levelo_inurba_marseille","lat":43.292783,"lon":5.368497,"is_reserved":false,"is_disabled":false,"rental_uris":{"android":"levelo://app?vid=4f0978bb-2568-4421-9860-b196c4f6425f","ios":"levelo://app?vid=4f0978bb-2568-4421-9860-b196c4f6425f"},"vehicle_type_id":"4","last_reported":1735232872,"current_range_meters":24800,"station_id":"ce4bhbp2rcd13ifvqesg","pricing_plan_id":"cebpf4jnsgd1na2vs0mg"},{"bike_id":"2cca7a4c-2861-4c49-80ab-3fd5edea29ec","system_id":"levelo_inurba_marseille","lat":43.29554,"lon":5.37374,"is_reserved":false,"is_disabled":false,"rental_uris":{"android":"levelo://app?vid=2cca7a4c-2861-4c49-80ab-3fd5edea29ec","ios":"levelo://app?vid=2cca7a4c-2861-4c49-80ab-3fd5edea29ec"},"vehicle_type_id":"4","last_reported":1735232872,"current_range_meters":21600,"station_id":"","pricing_plan_id":"cebpf4jnsgd1na2vs0mg"},{"bike_id":"94d10c6e-d518-4ac3-9a89-d911f4a360bc","system_id":"levelo_inurba_marseille","lat":43.28106,"lon":5.37836,"is_reserved":false,"is_disabled":false,"rental_uris":{"android":"levelo://app?vid=94d10c6e-d518-4ac3-9a89-d911f4a360bc","ios":"levelo://app?vid=94d10c6e-d518-4ac3-9a89-d911f4a360bc"},"vehicle_type_id":"4","last_reported":1735232872,"current_range_meters":36800,"station_id":"ce4bha12rcd13ifvqee0","pricing_plan_id":"cebpf4jnsgd1na2vs0mg"},{"bike_id":"4e7c8620-84dc-4bc7-8f9b-4ff4d2d3c951","system_id":"levelo_inurba_marseille","lat":43.27372,"lon":5.36257,"is_reserved":false,"is_disabled":false,"rental_uris":{"android":"levelo://app?vid=4e7c8620-84dc-4bc7-8f9b-4ff4d2d3c951","ios":"levelo://app?vid=4e7c8620-84dc-4bc7-8f9b-4ff4d2d3c951"},"vehicle_type_id":"4","last_reported":1735232872,"current_range_meters":33600,"station_id":"ce4bhbh2rcd13ifvqeo0","pricing_plan_id":"cebpf4jnsgd1na2vs0mg"},{"bike_id":"61e423ca-1cdc-4949-a601-5438262c4bcb","system_id":"levelo_inurba_marseille","lat":43.29873,"lon":5.3973,"is_reserved":false,"is_disabled":false,"rental_uris":{"android":"levelo://app?vid=61e423ca-1cdc-4949-a601-5438262c4bcb","ios":"levelo://app?vid=61e423ca-1cdc-4949-a601-5438262c4bcb"},"vehicle_type_id":"4","last_reported":1735232872,"current_range_meters":32800,"station_id":"ce4bh0h2rcd13ifvqd50","pricing_plan_id":"cebpf4jnsgd1na2vs0mg"},{"bike_id":"21bbb1ff-0bcd-4ac9-bbd7-65bfc79f417c","system_id":"levelo_inurba_marseille","lat":43.29733,"lon":5.37698,"is_reserved":false,"is_disabled":false,"rental_uris":{"android":"levelo://app?vid=21bbb1ff-0bcd-4ac9-bbd7-65bfc79f417c","ios":"levelo://app?vid=21bbb1ff-0bcd-4ac9-bbd7-65bfc79f417c"},"vehicle_type_id":"4","last_reported":1735232872,"current_range_meters":20800,"station_id":"ce4bgkh2rcd13ifvqbl0","pricing_plan_id":"cebpf4jnsgd1na2vs0mg"},{"bike_id":"9558baa7-2a7d-47c9-9553-a4b09aaf772c","system_id":"levelo_inurba_marseille","lat":43.26556,"lon":5.37283,"is_reserved":false,"is_disabled":false,"rental_uris":{"android":"levelo://app?vid=9558baa7-2a7d-47c9-9553-a4b09aaf772c","ios":"levelo://app?vid=9558baa7-2a7d-47c9-9553-a4b09aaf772c"},"vehicle_type_id":"4","last_reported":1735232872,"current_range_meters":34800,"station_id":"ce4bhg12rcd13ifvqf70","pricing_plan_id":"cebpf4jnsgd1na2vs0mg"},{"bike_id":"3a5a0cc7-f31e-4cbc-80af-0889792aef3a","system_id":"levelo_inurba_marseille","lat":43.26027,"lon":5.37551,"is_reserved":false,"is_disabled":false,"rental_uris":{"android":"levelo://app?vid=3a5a0cc7-f31e-4cbc-80af-0889792aef3a","ios":"levelo://app?vid=3a5a0cc7-f31e-4cbc-80af-0889792aef3a"},"vehicle_type_id":"4","last_reported":1735232872,"current_range_meters":38000,"station_id":"ce4bhgh2rcd13ifvqfa0","pricing_plan_id":"cebpf4jnsgd1na2vs0mg"},{"bike_id":"b0a18d06-1002-4baf-906d-b04071543c58","system_id":"levelo_inurba_marseille","lat":43.30494,"lon":5.36516,"is_reserved":false,"is_disabled":false,"rental_uris":{"android":"levelo://app?vid=b0a18d06-1002-4baf-906d-b04071543c58","ios":"levelo://app?vid=b0a18d06-1002-4baf-906d-b04071543c58"},"vehicle_type_id":"4","last_reported":1735232872,"current_range_meters":28800,"station_id":"","pricing_plan_id":"cebpf4jnsgd1na2vs0mg"},{"bike_id":"e0bd784d-ca28-4620-afc9-ab6d9370b0ba","system_id":"levelo_inurba_marseille","lat":43.32055,"lon":5.41548,"is_reserved":false,"is_disabled":false,"rental_uris":{"android":"levelo://app?vid=e0bd784d-ca28-4620-afc9-ab6d9370b0ba","ios":"levelo://app?vid=e0bd784d-ca28-4620-afc9-ab6d9370b0ba"},"vehicle_type_id":"4","last_reported":1735232872,"current_range_meters":25200,"station_id":"ce4bhq92rcd13ifvqhkg","pricing_plan_id":"cebpf4jnsgd1na2vs0mg"},{"bike_id":"c5fabc1a-3ab7-43b8-943e-68ee975cfc9e","system_id":"levelo_inurba_marseille","lat":43.30315,"lon":5.3691,"is_reserved":false,"is_disabled":false,"rental_uris":{"android":"levelo://app?vid=c5fabc1a-3ab7-43b8-943e-68ee975cfc9e","ios":"levelo://app?vid=c5fabc1a-3ab7-43b8-943e-68ee975cfc9e"},"vehicle_type_id":"4","last_reported":1735232872,"current_range_meters":38800,"station_id":"ce4bgqh2rcd13ifvqc5g","pricing_plan_id":"cebpf4jnsgd1na2vs0mg"},{"bike_id":"8489053c-46c5-4e78-9708-8c7f2f0c9a79","system_id":"levelo_inurba_marseille","lat":43.30598,"lon":5.39353,"is_reserved":false,"is_disabled":false,"rental_uris":{"android":"levelo://app?vid=8489053c-46c5-4e78-9708-8c7f2f0c9a79","ios":"levelo://app?vid=8489053c-46c5-4e78-9708-8c7f2f0c9a79"},"vehicle_type_id":"4","last_reported":1735232872,"current_range_meters":36800,"station_id":"ce4bh0p2rcd13ifvqd80","pricing_plan_id":"cebpf4jnsgd1na2vs0mg"},{"bike_id":"441c8311-0c47-449c-9802-2d24792eb261","system_id":"levelo_inurba_marseille","lat":43.30428,"lon":5.39757,"is_reserved":false,"is_disabled":false,"rental_uris":{"android":"levelo://app?vid=441c8311-0c47-449c-9802-2d24792eb261","ios":"levelo://app?vid=441c8311-0c47-449c-9802-2d24792eb261"},"vehicle_type_id":"4","last_reported":1735232872,"current_range_meters":38400,"station_id":"ce4bh092rcd13ifvqd20","pricing_plan_id":"cebpf4jnsgd1na2vs0mg"},{"bike_id":"a1c9af49-1121-45a0-9403-8da49a14b00d","system_id":"levelo_inurba_marseille","lat":43.26957,"lon":5.38634,"is_reserved":false,"is_disabled":false,"rental_uris":{"android":"levelo://app?vid=a1c9af49-1121-45a0-9403-8da49a14b00d","ios":"levelo://app?vid=a1c9af49-1121-45a0-9403-8da49a14b00d"},"vehicle_type_id":"4","last_reported":1735232872,"current_range_meters":23200,"station_id":"ce4bhh92rcd13ifvqfh0","pricing_plan_id":"cebpf4jnsgd1na2vs0mg"},{"bike_id":"1b732f27-a851-4d12-ac02-3b86e3dc8a61","system_id":"levelo_inurba_marseille","lat":43.262308,"lon":5.374387,"is_reserved":false,"is_disabled":false,"rental_uris":{"android":"levelo://app?vid=1b732f27-a851-4d12-ac02-3b86e3dc8a61","ios":"levelo://app?vid=1b732f27-a851-4d12-ac02-3b86e3dc8a61"},"vehicle_type_id":"4","last_reported":1735232872,"current_range_meters":26000,"station_id":"","pricing_plan_id":"cebpf4jnsgd1na2vs0mg"},{"bike_id":"7b24f2f4-e3c0-4c8f-8ee1-3f46bbf2f116","system_id":"levelo_inurba_marseille","lat":43.31762,"lon":5.39003,"is_reserved":false,"is_disabled":false,"rental_uris":{"android":"levelo://app?vid=7b24f2f4-e3c0-4c8f-8ee1-3f46bbf2f116","ios":"levelo://app?vid=7b24f2f4-e3c0-4c8f-8ee1-3f46bbf2f116"},"vehicle_type_id":"4","last_reported":1735232872,"current_range_meters":38800,"station_id":"ce4bhqp2rcd13ifvqhng","pricing_plan_id":"cebpf4jnsgd1na2vs0mg"},{"bike_id":"491a606a-5a0e-411b-9789-9c74b8b5e4f2","system_id":"levelo_inurba_marseille","lat":43.25824,"lon":5.39439,"is_reserved":false,"is_disabled":false,"rental_uris":{"android":"levelo://app?vid=491a606a-5a0e-411b-9789-9c74b8b5e4f2","ios":"levelo://app?vid=491a606a-5a0e-411b-9789-9c74b8b5e4f2"},"vehicle_type_id":"4","last_reported":1735232872,"current_range_meters":38800,"station_id":"ce4bhip2rcd13ifvqft0","pricing_plan_id":"cebpf4jnsgd1na2vs0mg"},{"bike_id":"dac94ecf-3203-4c89-acc0-21c14e979588","system_id":"levelo_inurba_marseille","lat":43.26695,"lon":5.38262,"is_reserved":false,"is_disabled":false,"rental_uris":{"android":"levelo://app?vid=dac94ecf-3203-4c89-acc0-21c14e979588","ios":"levelo://app?vid=dac94ecf-3203-4c89-acc0-21c14e979588"},"vehicle_type_id":"4","last_reported":1735232872,"current_range_meters":6000,"station_id":"ce4bhg92rcd13ifvqf90","pricing_plan_id":"cebpf4jnsgd1na2vs0mg"},{"bike_id":"f0cafae0-f29d-4301-add9-cbd6aefdfe71","system_id":"levelo_inurba_marseille","lat":43.27067,"lon":5.42278,"is_reserved":false,"is_disabled":false,"rental_uris":{"android":"levelo://app?vid=f0cafae0-f29d-4301-add9-cbd6aefdfe71","ios":"levelo://app?vid=f0cafae0-f29d-4301-add9-cbd6aefdfe71"},"vehicle_type_id":"4","last_reported":1735232872,"current_range_meters":32000,"station_id":"ce4bhk92rcd13ifvqgb0","pricing_plan_id":"cebpf4jnsgd1na2vs0mg"},{"bike_id":"926e00f2-1ae7-452a-97c8-86d0ae773737","system_id":"levelo_inurba_marseille","lat":43.28925,"lon":5.38394,"is_reserved":false,"is_disabled":false,"rental_uris":{"android":"levelo://app?vid=926e00f2-1ae7-452a-97c8-86d0ae773737","ios":"levelo://app?vid=926e00f2-1ae7-452a-97c8-86d0ae773737"},"vehicle_type_id":"4","last_reported":1735232872,"current_range_meters":38800,"station_id":"ce4bh612rcd13ifvqe6g","pricing_plan_id":"cebpf4jnsgd1na2vs0mg"},{"bike_id":"3d57da4d-f3d8-4246-b524-85e84afd0427","system_id":"levelo_inurba_marseille","lat":43.28451,"lon":5.35897,"is_reserved":false,"is_disabled":false,"rental_uris":{"android":"levelo://app?vid=3d57da4d-f3d8-4246-b524-85e84afd0427","ios":"levelo://app?vid=3d57da4d-f3d8-4246-b524-85e84afd0427"},"vehicle_type_id":"4","last_reported":1735232872,"current_range_meters":39200,"station_id":"ce4bhah2rcd13ifvqei0","pricing_plan_id":"cebpf4jnsgd1na2vs0mg"},{"bike_id":"879290b3-531b-40dc-869e-debdd27a5907","system_id":"levelo_inurba_marseille","lat":43.30597,"lon":5.37213,"is_reserved":false,"is_disabled":false,"rental_uris":{"android":"levelo://app?vid=879290b3-531b-40dc-869e-debdd27a5907","ios":"levelo://app?vid=879290b3-531b-40dc-869e-debdd27a5907"},"vehicle_type_id":"4","last_reported":1735232872,"current_range_meters":37600,"station_id":"ce4bgqh2rcd13ifvqc4g","pricing_plan_id":"cebpf4jnsgd1na2vs0mg"},{"bike_id":"71992619-6fe8-4f76-b36b-288c95633568","system_id":"levelo_inurba_marseille","lat":43.30533,"lon":5.36541,"is_reserved":false,"is_disabled":false,"rental_uris":{"android":"levelo://app?vid=71992619-6fe8-4f76-b36b-288c95633568","ios":"levelo://app?vid=71992619-6fe8-4f76-b36b-288c95633568"},"vehicle_type_id":"4","last_reported":1735232872,"current_range_meters":39200,"station_id":"ce4bgs12rcd13ifvqcag","pricing_plan_id":"cebpf4jnsgd1na2vs0mg"},{"bike_id":"d02ad9e6-a3e9-4e68-90d4-ff4e1b7f7299","system_id":"levelo_inurba_marseille","lat":43.28653,"lon":5.38676,"is_reserved":false,"is_disabled":false,"rental_uris":{"android":"levelo://app?vid=d02ad9e6-a3e9-4e68-90d4-ff4e1b7f7299","ios":"levelo://app?vid=d02ad9e6-a3e9-4e68-90d4-ff4e1b7f7299"},"vehicle_type_id":"4","last_reported":1735232872,"current_range_meters":34800,"station_id":"ce4bh492rcd13ifvqdug","pricing_plan_id":"cebpf4jnsgd1na2vs0mg"},{"bike_id":"7b1c41a3-6a2e-4420-a856-9b0139eb480b","system_id":"levelo_inurba_marseille","lat":43.27491,"lon":5.42459,"is_reserved":false,"is_disabled":false,"rental_uris":{"android":"levelo://app?vid=7b1c41a3-6a2e-4420-a856-9b0139eb480b","ios":"levelo://app?vid=7b1c41a3-6a2e-4420-a856-9b0139eb480b"},"vehicle_type_id":"4","last_reported":1735232872,"current_range_meters":38800,"station_id":"ce4bhn92rcd13ifvqgrg","pricing_plan_id":"cebpf4jnsgd1na2vs0mg"},{"bike_id":"0e1aa3d0-e604-4c41-a886-44380f8ecb2e","system_id":"levelo_inurba_marseille","lat":43.28923,"lon":5.38391,"is_reserved":false,"is_disabled":false,"rental_uris":{"android":"levelo://app?vid=0e1aa3d0-e604-4c41-a886-44380f8ecb2e","ios":"levelo://app?vid=0e1aa3d0-e604-4c41-a886-44380f8ecb2e"},"vehicle_type_id":"4","last_reported":1735232872,"current_range_meters":30400,"station_id":"ce4bh612rcd13ifvqe6g","pricing_plan_id":"cebpf4jnsgd1na2vs0mg"},{"bike_id":"a316364b-115e-4bcd-918a-67c9f933048a","system_id":"levelo_inurba_marseille","lat":43.27985,"lon":5.40014,"is_reserved":false,"is_disabled":false,"rental_uris":{"android":"levelo://app?vid=a316364b-115e-4bcd-918a-67c9f933048a","ios":"levelo://app?vid=a316364b-115e-4bcd-918a-67c9f933048a"},"vehicle_type_id":"4","last_reported":1735232872,"current_range_meters":28800,"station_id":"ce4bho92rcd13ifvqh4g","pricing_plan_id":"cebpf4jnsgd1na2vs0mg"},{"bike_id":"012a7886-754a-458d-baaa-135571da9a55","system_id":"levelo_inurba_marseille","lat":43.337444,"lon":5.374475,"is_reserved":false,"is_disabled":false,"rental_uris":{"android":"levelo://app?vid=012a7886-754a-458d-baaa-135571da9a55","ios":"levelo://app?vid=012a7886-754a-458d-baaa-135571da9a55"},"vehicle_type_id":"4","last_reported":1735232872,"current_range_meters":18800,"station_id":"","pricing_plan_id":"cebpf4jnsgd1na2vs0mg"},{"bike_id":"6741d67d-3b4b-455d-b3b3-2517fac5f4fa","system_id":"levelo_inurba_marseille","lat":43.27497,"lon":5.42454,"is_reserved":false,"is_disabled":false,"rental_uris":{"android":"levelo://app?vid=6741d67d-3b4b-455d-b3b3-2517fac5f4fa","ios":"levelo://app?vid=6741d67d-3b4b-455d-b3b3-2517fac5f4fa"},"vehicle_type_id":"4","last_reported":1735232872,"current_range_meters":12400,"station_id":"ce4bhn92rcd13ifvqgrg","pricing_plan_id":"cebpf4jnsgd1na2vs0mg"},