{"last_updated":1724188102,"ttl":30,"version":"2.2","data":{"bikes":[{"bike_id":"d4b58afc-2451-45d6-852e-7b6873b38e59","system_id":"levelo_inurba_marseille","lat":43.31099,"lon":5.36975,"is_reserved":false,"is_disabled":false,"rental_uris":{"android":"levelo://app?vid=d4b58afc-2451-45d6-852e-7b6873b38e59","ios":"levelo://app?vid=d4b58afc-2451-45d6-852e-7b6873b38e59"},"vehicle_type_id":"4","last_reported":1724188102,"current_range_meters":13600,"station_id":"","pricing_plan_id":"cebpf4jnsgd1na2vs0mg"},{"bike_id":"b058f7a3-468d-48d0-9e18-28cfbab3e1f3","system_id":"levelo_inurba_marseille","lat":43.309076,"lon":5.368465,"is_reserved":false,"is_disabled":false,"rental_uris":{"android":"levelo://app?vid=b058f7a3-468d-48d0-9e18-28cfbab3e1f3","ios":"levelo://app?vid=b058f7a3-468d-48d0-9e18-28cfbab3e1f3"},"vehicle_type_id":"4","last_reported":1724188102,"current_range_meters":6800,"station_id":"ce4bgn92rcd13ifvqbvg","pricing_plan_id":"cebpf4jnsgd1na2vs0mg"},{"bike_id":"7ed38082-0b66-4a36-9fb0-18ab992877e7","system_id":"levelo_inurba_marseille","lat":43.30906,"lon":5.36849,"is_reserved":false,"is_disabled":false,"rental_uris":{"android":"levelo://app?vid=7ed38082-0b66-4a36-9fb0-18ab992877e7","ios":"levelo://app?vid=7ed38082-0b66-4a36-9fb0-18ab992877e7"},"vehicle_type_id":"4","last_reported":1724188102,"current_range_meters":15200,"station_id":"","pricing_plan_id":"cebpf4jnsgd1na2vs0mg"},{"bike_id":"37a960dc-c827-4d9c-93ea-0bb07d7aa6dc","system_id":"levelo_inurba_marseille","lat":43.314811,"lon":5.373103,"is_reserved":false,"is_disabled":false,"rental_uris":{"android":"levelo://app?vid=37a960dc-c827-4d9c-93ea-0bb07d7aa6dc","ios":"levelo://app?vid=37a960dc-c827-4d9c-93ea-0bb07d7aa6dc"},"vehicle_type_id":"4","last_reported":1724188102,"current_range_meters":30000,"station_id":"ce4bgt12rcd13ifvqcd0","pricing_plan_id":"cebpf4jnsgd1na2vs0mg"},{"bike_id":"a54af360-c356-4a79-abee-9f43e0560481","system_id":"levelo_inurba_marseille","lat":43.31499,"lon":5.37311,"is_reserved":false,"is_disabled":false,"rental_uris":{"android":"levelo://app?vid=a54af360-c356-4a79-abee-9f43e0560481","ios":"levelo://app?vid=a54af360-c356-4a79-abee-9f43e0560481"},"vehicle_type_id":"4","last_reported":1724188102,"current_range_meters":9200,"station_id":"ce4bgt12rcd13ifvqcd0","pricing_plan_id":"cebpf4jnsgd1na2vs0mg"},{"bike_id":"a64f775c-4670-466a-a60f-4409e6815c26","system_id":"levelo_inurba_marseille","lat":43.309039,"lon":5.371797,"is_reserved":false,"is_disabled":false,"rental_uris":{"android":"levelo://app?vid=a64f775c-4670-466a-a60f-4409e6815c26","ios":"levelo://app?vid=a64f775c-4670-466a-a60f-4409e6815c26"},"vehicle_type_id":"4","last_reported":1724188102,"current_range_meters":15600,"station_id":"ce4bguh2rcd13ifvqckg","pricing_plan_id":"cebpf4jnsgd1na2vs0mg"},{"bike_id":"395c8d5e-96a2-4f8e-a586-fcf89a0d92fc","system_id":"levelo_inurba_marseille","lat":43.309039,"lon":5.371797,"is_reserved":false,"is_disabled":false,"rental_uris":{"android":"levelo://app?vid=395c8d5e-96a2-4f8e-a586-fcf89a0d92fc","ios":"levelo://app?vid=395c8d5e-96a2-4f8e-a586-fcf89a0d92fc"},"vehicle_type_id":"4","last_reported":1724188102,"current_range_meters":27200,"station_id":"ce4bguh2rcd13ifvqckg","pricing_plan_id":"cebpf4jnsgd1na2vs0mg"},{"bike_id":"0a4ab756-c7a6-4853-ab46-563e60a5e8b7","system_id":"levelo_inurba_marseille","lat":43.309034,"lon":5.371783,"is_reserved":false,"is_disabled":false,"rental_uris":{"android":"levelo://app?vid=0a4ab756-c7a6-4853-ab46-563e60a5e8b7","ios":"levelo://app?vid=0a4ab756-c7a6-4853-ab46-563e60a5e8b7"},"vehicle_type_id":"4","last_reported":1724188102,"current_range_meters":5200,"station_id":"ce4bguh2rcd13ifvqckg","pricing_plan_id":"cebpf4jnsgd1na2vs0mg"},{"bike_id":"9964f8d4-2b9c-4395-92ab-76e8c098d4de","system_id":"levelo_inurba_marseille","lat":43.309039,"lon":5.371797,"is_reserved":false,"is_disabled":false,"rental_uris":{"android":"levelo://app?vid=9964f8d4-2b9c-4395-92ab-76e8c098d4de","ios":"levelo://app?vid=9964f8d4-2b9c-4395-92ab-76e8c098d4de"},"vehicle_type_id":"4","last_reported":1724188102,"current_range_meters":18000,"station_id":"ce4bguh2rcd13ifvqckg","pricing_plan_id":"cebpf4jnsgd1na2vs0mg"},{"bike_id":"d5af994d-604a-4899-a96b-657ed3b0f1bd","system_id":"levelo_inurba_marseille","lat":43.30547,"lon":5.36702,"is_reserved":false,"is_disabled":false,"rental_uris":{"android":"levelo://app?vid=d5af994d-604a-4899-a96b-657ed3b0f1bd","ios":"levelo://app?vid=d5af994d-604a-4899-a96b-657ed3b0f1bd"},"vehicle_type_id":"4","last_reported":1724188102,"current_range_meters":11600,"station_id":"ce4bgrp2rcd13ifvqc9g","pricing_plan_id":"cebpf4jnsgd1na2vs0mg"},{"bike_id":"d0d6340b-0bb8-400f-938e-55a66625efcc","system_id":"levelo_inurba_marseille","lat":43.30537,"lon":5.367345,"is_reserved":false,"is_disabled":false,"rental_uris":{"android":"levelo://app?vid=d0d6340b-0bb8-400f-938e-55a66625efcc","ios":"levelo://app?vid=d0d6340b-0bb8-400f-938e-55a66625efcc"},"vehicle_type_id":"4","last_reported":1724188102,"current_range_meters":15600,"station_id":"ce4bgrp2rcd13ifvqc9g","pricing_plan_id":"cebpf4jnsgd1na2vs0mg"},{"bike_id":"4395dba7-92c6-49a9-9949-cefe8836deac","system_id":"levelo_inurba_marseille","lat":43.30537,"lon":5.367345,"is_reserved":false,"is_disabled":false,"rental_uris":{"android":"levelo://app?vid=4395dba7-92c6-49a9-9949-cefe8836deac","ios":"levelo://app?vid=4395dba7-92c6-49a9-9949-cefe8836deac"},"vehicle_type_id":"4","last_reported":1724188102,"current_range_meters":400,"station_id":"ce4bgrp2rcd13ifvqc9g","pricing_plan_id":"cebpf4jnsgd1na2vs0mg"},{"bike_id":"3838c7a9-222e-40e0-a515-3930a73a3cfd","system_id":"levelo_inurba_marseille","lat":43.30536,"lon":5.36711,"is_reserved":false,"is_disabled":false,"rental_uris":{"android":"levelo://app?vid=3838c7a9-222e-40e0-a515-3930a73a3cfd","ios":"levelo://app?vid=3838c7a9-222e-40e0-a515-3930a73a3cfd"},"vehicle_type_id":"4","last_reported":1724188102,"current_range_meters":12800,"station_id":"ce4bgrp2rcd13ifvqc9g","pricing_plan_id":"cebpf4jnsgd1na2vs0mg"},{"bike_id":"08afd546-1187-4862-b405-c55dfcd5af85","system_id":"levelo_inurba_marseille","lat":43.310863,"lon":5.37703,"is_reserved":false,"is_disabled":false,"rental_uris":{"android":"levelo://app?vid=08afd546-1187-4862-b405-c55dfcd5af85","ios":"levelo://app?vid=08afd546-1187-4862-b405-c55dfcd5af85"},"vehicle_type_id":"4","last_reported":1724188102,"current_range_meters":31200,"station_id":"","pricing_plan_id":"cebpf4jnsgd1na2vs0mg"},{"bike_id":"91d2be67-5218-472b-be53-a7d92ff7db6d","system_id":"levelo_inurba_marseille","lat":43.305989,"lon":5.37225,"is_reserved":false,"is_disabled":false,"rental_uris":{"android":"levelo://app?vid=91d2be67-5218-472b-be53-a7d92ff7db6d","ios":"levelo://app?vid=91d2be67-5218-472b-be53-a7d92ff7db6d"},"vehicle_type_id":"4","last_reported":1724188102,"current_range_meters":4000,"station_id":"ce4bgqh2rcd13ifvqc4g","pricing_plan_id":"cebpf4jnsgd1na2vs0mg"},{"bike_id":"371a8404-70f5-43bb-ba70-c614dca936f4","system_id":"levelo_inurba_marseille","lat":43.305989,"lon":5.37225,"is_reserved":false,"is_disabled":false,"rental_uris":{"android":"levelo://app?vid=371a8404-70f5-43bb-ba70-c614dca936f4","ios":"levelo://app?vid=371a8404-70f5-43bb-ba70-c614dca936f4"},"vehicle_type_id":"4","last_reported":1724188102,"current_range_meters":30000,"station_id":"ce4bgqh2rcd13ifvqc4g","pricing_plan_id":"cebpf4jnsgd1na2vs0mg"},{"bike_id":"6e294992-452e-4c7a-8e1f-6b50ae5dde72","system_id":"levelo_inurba_marseille","lat":43.305989,"lon":5.37225,"is_reserved":false,"is_disabled":false,"rental_uris":{"android":"levelo://app?vid=6e294992-452e-4c7a-8e1f-6b50ae5dde72","ios":"levelo://app?vid=6e294992-452e-4c7a-8e1f-6b50ae5dde72"},"vehicle_type_id":"4","last_reported":1724188102,"current_range_meters":15200,"station_id":"ce4bgqh2rcd13ifvqc4g","pricing_plan_id":"cebpf4jnsgd1na2vs0mg"},{"bike_id":"4bab8288-d3d2-4941-9e95-0a4ab1daa344","system_id":"levelo_inurba_marseille","lat":43.305989,"lon":5.37225,"is_reserved":false,"is_disabled":false,"rental_uris":{"android":"levelo://app?vid=4bab8288-d3d2-4941-9e95-0a4ab1daa344","ios":"levelo://app?vid=4bab8288-d3d2-4941-9e95-0a4ab1daa344"},"vehicle_type_id":"4","last_reported":1724188102,"current_range_meters":19200,"station_id":"ce4bgqh2rcd13ifvqc4g","pricing_plan_id":"cebpf4jnsgd1na2vs0mg"},{"bike_id":"7417a2e8-98f6-48e1-adbb-e99b484c05b8","system_id":"levelo_inurba_marseille","lat":43.305989,"lon":5.37225,"is_reserved":false,"is_disabled":false,"rental_uris":{"android":"levelo://app?vid=7417a2e8-98f6-48e1-adbb-e99b484c05b8","ios":"levelo://app?vid=7417a2e8-98f6-48e1-adbb-e99b484c05b8"},"vehicle_type_id":"4","last_reported":1724188102,"current_range_meters":20000,"station_id":"ce4bgqh2rcd13ifvqc4g","pricing_plan_id":"cebpf4jnsgd1na2vs0mg"},{"bike_id":"9f2965f7-3981-4c2e-bc40-702a387e652c","system_id":"levelo_inurba_marseille","lat":43.311131,"lon":5.377651,"is_reserved":false,"is_disabled":false,"rental_uris":{"android":"levelo://app?vid=9f2965f7-3981-4c2e-bc40-702a387e652c","ios":"levelo://app?vid=9f2965f7-3981-4c2e-bc40-702a387e652c"},"vehicle_type_id":"4","last_reported":1724188102,"current_range_meters":5600,"station_id":"ce4bgt92rcd13ifvqcg0","pricing_plan_id":"cebpf4jnsgd1na2vs0mg"},{"bike_id":"2d175563-6e59-4046-b64c-c3dd07e8f2f6","system_id":"levelo_inurba_marseille","lat":43.311131,"lon":5.377651,"is_reserved":false,"is_disabled":false,"rental_uris":{"android":"levelo://app?vid=2d175563-6e59-4046-b64c-c3dd07e8f2f6","ios":"levelo://app?vid=2d175563-6e59-4046-b64c-c3dd07e8f2f6"},"vehicle_type_id":"4","last_reported":1724188102,"current_range_meters":30000,"station_id":"ce4bgt92rcd13ifvqcg0","pricing_plan_id":"cebpf4jnsgd1na2vs0mg"},{"bike_id":"080569d4-c0b9-4a52-a036-4b64b7bd5edb","system_id":"levelo_inurba_marseille","lat":43.311125,"lon":5.377624,"is_reserved":false,"is_disabled":false,"rental_uris":{"android":"levelo://app?vid=080569d4-c0b9-4a52-a036-4b64b7bd5edb","ios":"levelo://app?vid=080569d4-c0b9-4a52-a036-4b64b7bd5edb"},"vehicle_type_id":"4","last_reported":1724188102,"current_range_meters":5200,"station_id":"ce4bgt92rcd13ifvqcg0","pricing_plan_id":"cebpf4jnsgd1na2vs0mg"},{"bike_id":"ece8a793-2fc6-4f40-b1af-8b720422be8b","system_id":"levelo_inurba_marseille","lat":43.311125,"lon":5.377624,"is_reserved":false,"is_disabled":false,"rental_uris":{"android":"levelo://app?vid=ece8a793-2fc6-4f40-b1af-8b720422be8b","ios":"levelo://app?vid=ece8a793-2fc6-4f40-b1af-8b720422be8b"},"vehicle_type_id":"4","last_reported":1724188102,"current_range_meters":17200,"station_id":"ce4bgt92rcd13ifvqcg0","pricing_plan_id":"cebpf4jnsgd1na2vs0mg"},{"bike_id":"00cb5905-026e-4fcb-b567-981f88f213a4","system_id":"levelo_inurba_marseille","lat":43.307945,"lon":5.376487,"is_reserved":false,"is_disabled":false,"rental_uris":{"android":"levelo://app?vid=00cb5905-026e-4fcb-b567-981f88f213a4","ios":"levelo://app?vid=00cb5905-026e-4fcb-b567-981f88f213a4"},"vehicle_type_id":"4","last_reported":1724188102,"current_range_meters":22400,"station_id":"ce4bgv92rcd13ifvqcq0","pricing_plan_id":"cebpf4jnsgd1na2vs0mg"},{"bike_id":"2cf75ba1-00d2-4235-a182-594928543df0","system_id":"levelo_inurba_marseille","lat":43.307886,"lon":5.376478,"is_reserved":false,"is_disabled":false,"rental_uris":{"android":"levelo://app?vid=2cf75ba1-00d2-4235-a182-594928543df0","ios":"levelo://app?vid=2cf75ba1-00d2-4235-a182-594928543df0"},"vehicle_type_id":"4","last_reported":1724188102,"current_range_meters":25200,"station_id":"ce4bgv92rcd13ifvqcq0","pricing_plan_id":"cebpf4jnsgd1na2vs0mg"},{"bike_id":"a2e9e4ba-7aca-44b6-9ec1-57504e3e5285","system_id":"levelo_inurba_marseille","lat":43.307945,"lon":5.376487,"is_reserved":false,"is_disabled":false,"rental_uris":{"android":"levelo://app?vid=a2e9e4ba-7aca-44b6-9ec1-57504e3e5285","ios":"levelo://app?vid=a2e9e4ba-7aca-44b6-9ec1-57504e3e5285"},"vehicle_type_id":"4","last_reported":1724188102,"current_range_meters":0,"station_id":"ce4bgv92rcd13ifvqcq0","pricing_plan_id":"cebpf4jnsgd1na2vs0mg"},{"bike_id":"46b2bcd9-b916-4a2e-ab6e-b8d1bcf02b8f","system_id":"levelo_inurba_marseille","lat":43.3079,"lon":5.37654,"is_reserved":false,"is_disabled":false,"rental_uris":{"android":"levelo://app?vid=46b2bcd9-b916-4a2e-ab6e-b8d1bcf02b8f","ios":"levelo://app?vid=46b2bcd9-b916-4a2e-ab6e-b8d1bcf02b8f"},"vehicle_type_id":"4","last_reported":1724188102,"current_range_meters":0,"station_id":"ce4bgv92rcd13ifvqcq0","pricing_plan_id":"cebpf4jnsgd1na2vs0mg"},{"bike_id":"99831d40-9bdf-413c-bced-3148dbfafd6d","system_id":"levelo_inurba_marseille","lat":43.307883,"lon":5.37653,"is_reserved":false,"is_disabled":false,"rental_uris":{"android":"levelo://app?vid=99831d40-9bdf-413c-bced-3148dbfafd6d","ios":"levelo://app?vid=99831d40-9bdf-413c-bced-3148dbfafd6d"},"vehicle_type_id":"4","last_reported":1724188102,"current_range_meters":10800,"station_id":"ce4bgv92rcd13ifvqcq0","pricing_plan_id":"cebpf4jnsgd1na2vs0mg"},{"bike_id":"75cd5b07-e655-478f-9d12-84bf54703b08","system_id":"levelo_inurba_marseille","lat":43.31018,"lon":5.37933,"is_reserved":false,"is_disabled":false,"rental_uris":{"android":"levelo://app?vid=75cd5b07-e655-478f-9d12-84bf54703b08","ios":"levelo://app?vid=75cd5b07-e655-478f-9d12-84bf54703b08"},"vehicle_type_id":"4","last_reported":1724188102,"current_range_meters":30800,"station_id":"","pricing_plan_id":"cebpf4jnsgd1na2vs0mg"},{"bike_id":"7672f2b4-d2ce-422c-a138-93bdd5856a48","system_id":"levelo_inurba_marseille","lat":43.315289,"lon":5.380349,"is_reserved":false,"is_disabled":false,"rental_uris":{"android":"levelo://app?vid=7672f2b4-d2ce-422c-a138-93bdd5856a48","ios":"levelo://app?vid=7672f2b4-d2ce-422c-a138-93bdd5856a48"},"vehicle_type_id":"4","last_reported":1724188102,"current_range_meters":15200,"station_id":"ce4bhsp2rcd13ifvqi50","pricing_plan_id":"cebpf4jnsgd1na2vs0mg"},{"bike_id":"b02e451a-def5-4a0f-b3fa-6a866225de08","system_id":"levelo_inurba_marseille","lat":43.315289,"lon":5.380349,"is_reserved":false,"is_disabled":false,"rental_uris":{"android":"levelo://app?vid=b02e451a-def5-4a0f-b3fa-6a866225de08","ios":"levelo://app?vid=b02e451a-def5-4a0f-b3fa-6a866225de08"},"vehicle_type_id":"4","last_reported":1724188102,"current_range_meters":20000,"station_id":"ce4bhsp2rcd13ifvqi50","pricing_plan_id":"cebpf4jnsgd1na2vs0mg"},{"bike_id":"0789c8fa-267c-4f8e-9674-391c523ebe30","system_id":"levelo_inurba_marseille","lat":43.315289,"lon":5.380349,"is_reserved":false,"is_disabled":false,"rental_uris":{"android":"levelo://app?vid=0789c8fa-267c-4f8e-9674-391c523ebe30","ios":"levelo://app?vid=0789c8fa-267c-4f8e-9674-391c523ebe30"},"vehicle_type_id":"4","last_reported":1724188102,"current_range_meters":12800,"station_id":"ce4bhsp2rcd13ifvqi50","pricing_plan_id":"cebpf4jnsgd1na2vs0mg"},{"bike_id":"1a312b1f-53da-4d16-8517-0d280c128ec4","system_id":"levelo_inurba_marseille","lat":43.315289,"lon":5.380349,"is_reserved":false,"is_disabled":false,"rental_uris":{"android":"levelo://app?vid=1a312b1f-53da-4d16-8517-0d280c128ec4","ios":"levelo://app?vid=1a312b1f-53da-4d16-8517-0d280c128ec4"},"vehicle_type_id":"4","last_reported":1724188102,"current_range_meters":31200,"station_id":"ce4bhsp2rcd13ifvqi50","pricing_plan_id":"cebpf4jnsgd1na2vs0mg"},{"bike_id":"35beb1da-9519-4068-a399-56f9f4d36ddb","system_id":"levelo_inurba_marseille","lat":43.301939,"lon":5.366286,"is_reserved":false,"is_disabled":false,"rental_uris":{"android":"levelo://app?vid=35beb1da-9519-4068-a399-56f9f4d36ddb","ios":"levelo://app?vid=35beb1da-9519-4068-a399-56f9f4d36ddb"},"vehicle_type_id":"4","last_reported":1724188102,"current_range_meters":25600,"station_id":"ce4bgrh2rcd13ifvqc8g","pricing_plan_id":"cebpf4jnsgd1na2vs0mg"},{"bike_id":"a83a0e6d-9fc0-4801-8cf2-67eddd0eae13","system_id":"levelo_inurba_marseille","lat":43.301939,"lon":5.366286,"is_reserved":false,"is_disabled":false,"rental_uris":{"android":"levelo://app?vid=a83a0e6d-9fc0-4801-8cf2-67eddd0eae13","ios":"levelo://app?vid=a83a0e6d-9fc0-4801-8cf2-67eddd0eae13"},"vehicle_type_id":"4","last_reported":1724188102,"current_range_meters":19200,"station_id":"ce4bgrh2rcd13ifvqc8g","pricing_plan_id":"cebpf4jnsgd1na2vs0mg"},{"bike_id":"6873cba4-186b-4b3a-af18-70efdedd745a","system_id":"levelo_inurba_marseille","lat":43.308012,"lon":5.381511,"is_reserved":false,"is_disabled":false,"rental_uris":{"android":"levelo://app?vid=6873cba4-186b-4b3a-af18-70efdedd745a","ios":"levelo://app?vid=6873cba4-186b-4b3a-af18-70efdedd745a"},"vehicle_type_id":"4","last_reported":1724188102,"current_range_meters":10800,"station_id":"ce4bgt12rcd13ifvqce0","pricing_plan_id":"cebpf4jnsgd1na2vs0mg"},{"bike_id":"d7b2d2ba-7ce1-4d96-8f7d-4959ca2a761c","system_id":"levelo_inurba_marseille","lat":43.308012,"lon":5.381511,"is_reserved":false,"is_disabled":false,"rental_uris":{"android":"levelo://app?vid=d7b2d2ba-7ce1-4d96-8f7d-4959ca2a761c","ios":"levelo://app?vid=d7b2d2ba-7ce1-4d96-8f7d-4959ca2a761c"},"vehicle_type_id":"4","last_reported":1724188102,"current_range_meters":8000,"station_id":"ce4bgt12rcd13ifvqce0","pricing_plan_id":"cebpf4jnsgd1na2vs0mg"},{"bike_id":"44ad4a5e-86e7-4803-96a8-23112b93d1be","system_id":"levelo_inurba_marseille","lat":43.308012,"lon":5.381511,"is_reserved":false,"is_disabled":false,"rental_uris":{"android":"levelo://app?vid=44ad4a5e-86e7-4803-96a8-23112b93d1be","ios":"levelo://app?vid=44ad4a5e-86e7-4803-96a8-23112b93d1be"},"vehicle_type_id":"4","last_reported":1724188102,"current_range_meters":13600,"station_id":"ce4bgt12rcd13ifvqce0","pricing_plan_id":"cebpf4jnsgd1na2vs0mg"},{"bike_id":"677a97bc-1926-442c-a6f9-fb459c677d4b","system_id":"levelo_inurba_marseille","lat":43.30283,"lon":5.3759,"is_reserved":false,"is_disabled":false,"rental_uris":{"android":"levelo://app?vid=677a97bc-1926-442c-a6f9-fb459c677d4b","ios":"levelo://app?vid=677a97bc-1926-442c-a6f9-fb459c677d4b"},"vehicle_type_id":"4","last_reported":1724188102,"current_range_meters":0,"station_id":"","pricing_plan_id":"cebpf4jnsgd1na2vs0mg"},{"bike_id":"66ef9885-7735-4d61-b52d-704bb6c97e10","system_id":"levelo_inurba_marseille","lat":43.324771,"lon":5.36557,"is_reserved":false,"is_disabled":false,"rental_uris":{"android":"levelo://app?vid=66ef9885-7735-4d61-b52d-704bb6c97e10","ios":"levelo://app?vid=66ef9885-7735-4d61-b52d-704bb6c97e10"},"vehicle_type_id":"4","last_reported":1724188102,"current_range_meters":18800,"station_id":"ce4bhs12rcd13ifvqhvg","pricing_plan_id":"cebpf4jnsgd1na2vs0mg"},{"bike_id":"9c6dd7ce-9146-46f7-9ce6-19e1b5292c7f","system_id":"levelo_inurba_marseille","lat":43.324771,"lon":5.36557,"is_reserved":false,"is_disabled":false,"rental_uris":{"android":"levelo://app?vid=9c6dd7ce-9146-46f7-9ce6-19e1b5292c7f","ios":"levelo://app?vid=9c6dd7ce-9146-46f7-9ce6-19e1b5292c7f"},"vehicle_type_id":"4","last_reported":1724188102,"current_range_meters":4400,"station_id":"ce4bhs12rcd13ifvqhvg","pricing_plan_id":"cebpf4jnsgd1na2vs0mg"},{"bike_id":"91b4b8fd-54a4-4262-a27b-f0c7dbfe7c81","system_id":"levelo_inurba_marseille","lat":43.324771,"lon":5.36557,"is_reserved":false,"is_disabled":false,"rental_uris":{"android":"levelo://app?vid=91b4b8fd-54a4-4262-a27b-f0c7dbfe7c81","ios":"levelo://app?vid=91b4b8fd-54a4-4262-a27b-f0c7dbfe7c81"},"vehicle_type_id":"4","last_reported":1724188102,"current_range_meters":6400,"station_id":"ce4bhs12rcd13ifvqhvg","pricing_plan_id":"cebpf4jnsgd1na2vs0mg"},{"bike_id":"99f85634-82f5-4457-8803-fca8ab05250f","system_id":"levelo_inurba_marseille","lat":43.310804,"lon":5.38359,"is_reserved":false,"is_disabled":false,"rental_uris":{"android":"levelo://app?vid=99f85634-82f5-4457-8803-fca8ab05250f","ios":"levelo://app?vid=99f85634-82f5-4457-8803-fca8ab05250f"},"vehicle_type_id":"4","last_reported":1724188102,"current_range_meters":12400,"station_id":"ce4bgv92rcd13ifvqcr0","pricing_plan_id":"cebpf4jnsgd1na2vs0mg"},{"bike_id":"534fb49a-2bd9-4746-8b36-14a9118ce17a","system_id":"levelo_inurba_marseille","lat":43.310804,"lon":5.38359,"is_reserved":false,"is_disabled":false,"rental_uris":{"android":"levelo://app?vid=534fb49a-2bd9-4746-8b36-14a9118ce17a","ios":"levelo://app?vid=534fb49a-2bd9-4746-8b36-14a9118ce17a"},"vehicle_type_id":"4","last_reported":1724188102,"current_range_meters":25200,"station_id":"ce4bgv92rcd13ifvqcr0","pricing_plan_id":"cebpf4jnsgd1na2vs0mg"},{"bike_id":"755fde3c-1d3f-45b0-89c1-9f5380e3e22f","system_id":"levelo_inurba_marseille","lat":43.302784,"lon":5.377158,"is_reserved":false,"is_disabled":false,"rental_uris":{"android":"levelo://app?vid=755fde3c-1d3f-45b0-89c1-9f5380e3e22f","ios":"levelo://app?vid=755fde3c-1d3f-45b0-89c1-9f5380e3e22f"},"vehicle_type_id":"4","last_reported":1724188102,"current_range_meters":5200,"station_id":"ce4bguh2rcd13ifvqcj0","pricing_plan_id":"cebpf4jnsgd1na2vs0mg"},{"bike_id":"7b1f9a07-4a1b-4be0-8126-e3cfb0807681","system_id":"levelo_inurba_marseille","lat":43.319935,"lon":5.381699,"is_reserved":false,"is_disabled":false,"rental_uris":{"android":"levelo://app?vid=7b1f9a07-4a1b-4be0-8126-e3cfb0807681","ios":"levelo://app?vid=7b1f9a07-4a1b-4be0-8126-e3cfb0807681"},"vehicle_type_id":"4","last_reported":1724188102,"current_range_meters":4800,"station_id":"ce4bhr12rcd13ifvqhpg","pricing_plan_id":"cebpf4jnsgd1na2vs0mg"},{"bike_id":"03a742fa-1190-4c07-b6e9-54425bd42d48","system_id":"levelo_inurba_marseille","lat":43.30582,"lon":5.3819,"is_reserved":false,"is_disabled":false,"rental_uris":{"android":"levelo://app?vid=03a742fa-1190-4c07-b6e9-54425bd42d48","ios":"levelo://app?vid=03a742fa-1190-4c07-b6e9-54425bd42d48"},"vehicle_type_id":"4","last_reported":1724188102,"current_range_meters":25200,"station_id":"","pricing_plan_id":"cebpf4jnsgd1na2vs0mg"},{"bike_id":"e46e4663-4b59-4890-8ea3-c1021b3d91ef","system_id":"levelo_inurba_marseille","lat":43.319935,"lon":5.381699,"is_reserved":false,"is_disabled":false,"rental_uris":{"android":"levelo://app?vid=e46e4663-4b59-4890-8ea3-c1021b3d91ef","ios":"levelo://app?vid=e46e4663-4b59-4890-8ea3-c1021b3d91ef"},"vehicle_type_id":"4","last_reported":1724188102,"current_range_meters":29200,"station_id":"ce4bhr12rcd13ifvqhpg","pricing_plan_id":"cebpf4jnsgd1na2vs0mg"},{"bike_id":"e0261f5f-1773-4595-aeae-acb08614d1ff","system_id":"levelo_inurba_marseille","lat":43.319935,"lon":5.381699,"is_reserved":false,"is_disabled":false,"rental_uris":{"android":"levelo://app?vid=e0261f5f-1773-4595-aeae-acb08614d1ff","ios":"levelo://app?vid=e0261f5f-1773-4595-aeae-acb08614d1ff"},"vehicle_type_id":"4","last_reported":1724188102,"current_range_meters":13200,"station_id":"ce4bhr12rcd13ifvqhpg","pricing_plan_id":"cebpf4jnsgd1na2vs0mg"},{"bike_id":"e0b78655-c169-4347-89af-7d849d57ccba","system_id":"levelo_inurba_marseille","lat":43.313571,"lon":5.384829,"is_reserved":false,"is_disabled":false,"rental_uris":{"android":"levelo://app?vid=e0b78655-c169-4347-89af-7d849d57ccba","ios":"levelo://app?vid=e0b78655-c169-4347-89af-7d849d57ccba"},"vehicle_type_id":"4","last_reported":1724188102,"current_range_meters":12400,"station_id":"ce4bgt92rcd13ifvqcf0","pricing_plan_id":"cebpf4jnsgd1na2vs0mg"},{"bike_id":"6b7e9e3c-d5c4-4af1-ae4e-4ed1e9d05e63","system_id":"levelo_inurba_marseille","lat":43.313571,"lon":5.384829,"is_reserved":false,"is_disabled":false,"rental_uris":{"android":"levelo://app?vid=6b7e9e3c-d5c4-4af1-ae4e-4ed1e9d05e63","ios":"levelo://app?vid=6b7e9e3c-d5c4-4af1-ae4e-4ed1e9d05e63"},"vehicle_type_id":"4","last_reported":1724188102,"current_range_meters":4800,"station_id":"ce4bgt92rcd13ifvqcf0","pricing_plan_id":"cebpf4jnsgd1na2vs0mg"},{"bike_id":"540569aa-b222-461d-9523-4d0c98b00fd2","system_id":"levelo_inurba_marseille","lat":43.313571,"lon":5.384829,"is_reserved":false,"is_disabled":false,"rental_uris":{"android":"levelo://app?vid=540569aa-b222-461d-9523-4d0c98b00fd2","ios":"levelo://app?vid=540569aa-b222-461d-9523-4d0c98b00fd2"},"vehicle_type_id":"4","last_reported":1724188102,"current_range_meters":31200,"station_id":"ce4bgt92rcd13ifvqcf0","pricing_plan_id":"cebpf4jnsgd1na2vs0mg"},{"bike_id":"7ca327b1-20af-4705-88ab-755c9b6ab95c","system_id":"levelo_inurba_marseille","lat":43.313571,"lon":5.384829,"is_reserved":false,"is_disabled":false,"rental_uris":{"android":"levelo://app?vid=7ca327b1-20af-4705-88ab-755c9b6ab95c","ios":"levelo://app?vid=7ca327b1-20af-4705-88ab-755c9b6ab95c"},"vehicle_type_id":"4","last_reported":1724188102,"current_range_meters":13200,"station_id":"ce4bgt92rcd13ifvqcf0","pricing_plan_id":"cebpf4jnsgd1na2vs0mg"},{"bike_id":"2be09650-b22c-40d1-9a84-c16b7e18544e","system_id":"levelo_inurba_marseille","lat":43.31354,"lon":5.38499,"is_reserved":false,"is_disabled":false,"rental_uris":{"android":"levelo://app?vid=2be09650-b22c-40d1-9a84-c16b7e18544e","ios":"levelo://app?vid=2be09650-b22c-40d1-9a84-c16b7e18544e"},"vehicle_type_id":"4","last_reported":1724188102,"current_range_meters":24800,"station_id":"ce4bgt92rcd13ifvqcf0","pricing_plan_id":"cebpf4jnsgd1na2vs0mg"},{"bike_id":"5219cef4-0439-4ed6-b2b3-b1f196fd620d","system_id":"levelo_inurba_marseille","lat":43.313571,"lon":5.384829,"is_reserved":false,"is_disabled":false,"rental_uris":{"android":"levelo://app?vid=5219cef4-0439-4ed6-b2b3-b1f196fd620d","ios":"levelo://app?vid=5219cef4-0439-4ed6-b2b3-b1f196fd620d"},"vehicle_type_id":"4","last_reported":1724188102,"current_range_meters":31200,"station_id":"ce4bgt92rcd13ifvqcf0","pricing_plan_id":"cebpf4jnsgd1na2vs0mg"},{"bike_id":"efb2eb52-125b-41ec-bbeb-af43157fda0c","system_id":"levelo_inurba_marseille","lat":43.299222,"lon":5.365554,"is_reserved":false,"is_disabled":false,"rental_uris":{"android":"levelo://app?vid=efb2eb52-125b-41ec-bbeb-af43157fda0c","ios":"levelo://app?vid=efb2eb52-125b-41ec-bbeb-af43157fda0c"},"vehicle_type_id":"4","last_reported":1724188102,"current_range_meters":22400,"station_id":"ce4bgm92rcd13ifvqbr0","pricing_plan_id":"cebpf4jnsgd1na2vs0mg"},{"bike_id":"8deb1b8c-13b8-4f6e-827b-181e130bd9d9","system_id":"levelo_inurba_marseille","lat":43.299222,"lon":5.365554,"is_reserved":false,"is_disabled":false,"rental_uris":{"android":"levelo://app?vid=8deb1b8c-13b8-4f6e-827b-181e130bd9d9","ios":"levelo://app?vid=8deb1b8c-13b8-4f6e-827b-181e130bd9d9"},"vehicle_type_id":"4","last_reported":1724188102,"current_range_meters":21200,"station_id":"ce4bgm92rcd13ifvqbr0","pricing_plan_id":"cebpf4jnsgd1na2vs0mg"},{"bike_id":"fa53a795-cb5a-4f36-92be-cf6e76c8d5e6","system_id":"levelo_inurba_marseille","lat":43.31334,"lon":5.38617,"is_reserved":false,"is_disabled":false,"rental_uris":{"android":"levelo://app?vid=fa53a795-cb5a-4f36-92be-cf6e76c8d5e6","ios":"levelo://app?vid=fa53a795-cb5a-4f36-92be-cf6e76c8d5e6"},"vehicle_type_id":"4","last_reported":1724188102,"current_range_meters":31200,"station_id":"","pricing_plan_id":"cebpf4jnsgd1na2vs0mg"},{"bike_id":"13d739cb-64c3-433a-a276-b95620469bc3","system_id":"levelo_inurba_marseille","lat":43.305364,"lon":5.384119,"is_reserved":false,"is_disabled":false,"rental_uris":{"android":"levelo://app?vid=13d739cb-64c3-433a-a276-b95620469bc3","ios":"levelo://app?vid=13d739cb-64c3-433a-a276-b95620469bc3"},"vehicle_type_id":"4","last_reported":1724188102,"current_range_meters":0,"station_id":"ce4bgg92rcd13ifvqb30","pricing_plan_id":"cebpf4jnsgd1na2vs0mg"},{"bike_id":"7cbf42ce-7a57-43e4-b707-b734ad233c39","system_id":"levelo_inurba_marseille","lat":43.299243,"lon":5.374807,"is_reserved":false,"is_disabled":false,"rental_uris":{"android":"levelo://app?vid=7cbf42ce-7a57-43e4-b707-b734ad233c39","ios":"levelo://app?vid=7cbf42ce-7a57-43e4-b707-b734ad233c39"},"vehicle_type_id":"4","last_reported":1724188102,"current_range_meters":29200,"station_id":"ce4bgjh2rcd13ifvqbg0","pricing_plan_id":"cebpf4jnsgd1na2vs0mg"},{"bike_id":"79f40c2f-9718-4a9d-b30d-979b609b2334","system_id":"levelo_inurba_marseille","lat":43.298433,"lon":5.362774,"is_reserved":false,"is_disabled":false,"rental_uris":{"android":"levelo://app?vid=79f40c2f-9718-4a9d-b30d-979b609b2334","ios":"levelo://app?vid=79f40c2f-9718-4a9d-b30d-979b609b2334"},"vehicle_type_id":"4","last_reported":1724188102,"current_range_meters":19200,"station_id":"ce4bgpp2rcd13ifvqc3g","pricing_plan_id":"cebpf4jnsgd1na2vs0mg"},{"bike_id":"0a08b350-7afb-4a85-831f-8b7a56d50089","system_id":"levelo_inurba_marseille","lat":43.298433,"lon":5.362774,"is_reserved":false,"is_disabled":false,"rental_uris":{"android":"levelo://app?vid=0a08b350-7afb-4a85-831f-8b7a56d50089","ios":"levelo://app?vid=0a08b350-7afb-4a85-831f-8b7a56d50089"},"vehicle_type_id":"4","last_reported":1724188102,"current_range_meters":26000,"station_id":"ce4bgpp2rcd13ifvqc3g","pricing_plan_id":"cebpf4jnsgd1na2vs0mg"},{"bike_id":"a9d7acff-57c0-4a6d-be8d-f4a3f9f5ebdb","system_id":"levelo_inurba_marseille","lat":43.298433,"lon":5.362774,"is_reserved":false,"is_disabled":false,"rental_uris":{"android":"levelo://app?vid=a9d7acff-57c0-4a6d-be8d-f4a3f9f5ebdb","ios":"levelo://app?vid=a9d7acff-57c0-4a6d-be8d-f4a3f9f5ebdb"},"vehicle_type_id":"4","last_reported":1724188102,"current_range_meters":13200,"station_id":"ce4bgpp2rcd13ifvqc3g","pricing_plan_id":"cebpf4jnsgd1na2vs0mg"},{"bike_id":"17b7af6b-cd06-429f-bfae-2d9bb272fa77","system_id":"levelo_inurba_marseille","lat":43.311722,"lon":5.387247,"is_reserved":false,"is_disabled":false,"rental_uris":{"android":"levelo://app?vid=17b7af6b-cd06-429f-bfae-2d9bb272fa77","ios":"levelo://app?vid=17b7af6b-cd06-429f-bfae-2d9bb272fa77"},"vehicle_type_id":"4","last_reported":1724188102,"current_range_meters":4800,"station_id":"ce4bgv12rcd13ifvqcp0","pricing_plan_id":"cebpf4jnsgd1na2vs0mg"},{"bike_id":"74e269d4-3bc6-4d4a-a239-72f32d3b90d2","system_id":"levelo_inurba_marseille","lat":43.305364,"lon":5.384119,"is_reserved":false,"is_disabled":false,"rental_uris":{"android":"levelo://app?vid=74e269d4-3bc6-4d4a-a239-72f32d3b90d2","ios":"levelo://app?vid=74e269d4-3bc6-4d4a-a239-72f32d3b90d2"},"vehicle_type_id":"4","last_reported":1724188102,"current_range_meters":0,"station_id":"ce4bgg92rcd13ifvqb30","pricing_plan_id":"cebpf4jnsgd1na2vs0mg"},{"bike_id":"bc1cc372-3871-44dd-acac-3a04d6035fff","system_id":"levelo_inurba_marseille","lat":43.311722,"lon":5.387247,"is_reserved":false,"is_disabled":false,"rental_uris":{"android":"levelo://app?vid=bc1cc372-3871-44dd-acac-3a04d6035fff","ios":"levelo://app?vid=bc1cc372-3871-44dd-acac-3a04d6035fff"},"vehicle_type_id":"4","last_reported":1724188102,"current_range_meters":29200,"station_id":"ce4bgv12rcd13ifvqcp0","pricing_plan_id":"cebpf4jnsgd1na2vs0mg"},{"bike_id":"fc6a7d30-165f-4615-916d-bd63beff6e56","system_id":"levelo_inurba_marseille","lat":43.311722,"lon":5.387247,"is_reserved":false,"is_disabled":false,"rental_uris":{"android":"levelo://app?vid=fc6a7d30-165f-4615-916d-bd63beff6e56","ios":"levelo://app?vid=fc6a7d30-165f-4615-916d-bd63beff6e56"},"vehicle_type_id":"4","last_reported":1724188102,"current_range_meters":19200,"station_id":"ce4bgv12rcd13ifvqcp0","pricing_plan_id":"cebpf4jnsgd1na2vs0mg"},{"bike_id":"0abc7191-c039-434c-b0e8-6444185ef43b","system_id":"levelo_inurba_marseille","lat":43.311722,"lon":5.387247,"is_reserved":false,"is_disabled":false,"rental_uris":{"android":"levelo://app?vid=0abc7191-c039-434c-b0e8-6444185ef43b","ios":"levelo://app?vid=0abc7191-c039-434c-b0e8-6444185ef43b"},"vehicle_type_id":"4","last_reported":1724188102,"current_range_meters":11600,"station_id":"ce4bgv12rcd13ifvqcp0","pricing_plan_id":"cebpf4jnsgd1na2vs0mg"},{"bike_id":"dd7f0d25-d5b4-4296-a5fe-85c902c0c71e","system_id":"levelo_inurba_marseille","lat":43.29832,"lon":5.36248,"is_reserved":false,"is_disabled":false,"rental_uris":{"android":"levelo://app?vid=dd7f0d25-d5b4-4296-a5fe-85c902c0c71e","ios":"levelo://app?vid=dd7f0d25-d5b4-4296-a5fe-85c902c0c71e"},"vehicle_type_id":"4","last_reported":1724188102,"current_range_meters":24000,"station_id":"ce4bgpp2rcd13ifvqc3g","pricing_plan_id":"cebpf4jnsgd1na2vs0mg"},{"bike_id":"4bbc7280-25ec-4650-984b-611268cba327","system_id":"levelo_inurba_marseille","lat":43.311722,"lon":5.387247,"is_reserved":false,"is_disabled":false,"rental_uris":{"android":"levelo://app?vid=4bbc7280-25ec-4650-984b-611268cba327","ios":"levelo://app?vid=4bbc7280-25ec-4650-984b-611268cba327"},"vehicle_type_id":"4","last_reported":1724188102,"current_range_meters":26400,"station_id":"ce4bgv12rcd13ifvqcp0","pricing_plan_id":"cebpf4jnsgd1na2vs0mg"},{"bike_id":"718973d2-47f7-4f1e-8274-e08fdc499488","system_id":"levelo_inurba_marseille","lat":43.311722,"lon":5.387247,"is_reserved":false,"is_disabled":false,"rental_uris":{"android":"levelo://app?vid=718973d2-47f7-4f1e-8274-e08fdc499488","ios":"levelo://app?vid=718973d2-47f7-4f1e-8274-e08fdc499488"},"vehicle_type_id":"4","last_reported":1724188102,"current_range_meters":17600,"station_id":"ce4bgv12rcd13ifvqcp0","pricing_plan_id":"cebpf4jnsgd1na2vs0mg"},{"bike_id":"6409471f-26cc-4632-98bf-f3012b6e7033","system_id":"levelo_inurba_marseille","lat":43.311722,"lon":5.387247,"is_reserved":false,"is_disabled":false,"rental_uris":{"android":"levelo://app?vid=6409471f-26cc-4632-98bf-f3012b6e7033","ios":"levelo://app?vid=6409471f-26cc-4632-98bf-f3012b6e7033"},"vehicle_type_id":"4","last_reported":1724188102,"current_range_meters":10000,"station_id":"ce4bgv12rcd13ifvqcp0","pricing_plan_id":"cebpf4jnsgd1na2vs0mg"},{"bike_id":"13808eb8-3adf-4236-af1f-8f04fcf44510","system_id":"levelo_inurba_marseille","lat":43.311722,"lon":5.387247,"is_reserved":false,"is_disabled":false,"rental_uris":{"android":"levelo://app?vid=13808eb8-3adf-4236-af1f-8f04fcf44510","ios":"levelo://app?vid=13808eb8-3adf-4236-af1f-8f04fcf44510"},"vehicle_type_id":"4","last_reported":1724188102,"current_range_meters":14800,"station_id":"ce4bgv12rcd13ifvqcp0","pricing_plan_id":"cebpf4jnsgd1na2vs0mg"},{"bike_id":"d2f7c856-4eb2-4364-92ea-7f32aa4a496d","system_id":"levelo_inurba_marseille","lat":43.311722,"lon":5.387247,"is_reserved":false,"is_disabled":false,"rental_uris":{"android":"levelo://app?vid=d2f7c856-4eb2-4364-92ea-7f32aa4a496d","ios":"levelo://app?vid=d2f7c856-4eb2-4364-92ea-7f32aa4a496d"},"vehicle_type_id":"4","last_reported":1724188102,"current_range_meters":9600,"station_id":"ce4bgv12rcd13ifvqcp0","pricing_plan_id":"cebpf4jnsgd1na2vs0mg"},{"bike_id":"b0246119-1443-40a8-be56-0bb47a4c0c82","system_id":"levelo_inurba_marseille","lat":43.311722,"lon":5.387247,"is_reserved":false,"is_disabled":false,"rental_uris":{"android":"levelo://app?vid=b0246119-1443-40a8-be56-0bb47a4c0c82","ios":"levelo://app?vid=b0246119-1443-40a8-be56-0bb47a4c0c82"},"vehicle_type_id":"4","last_reported":1724188102,"current_range_meters":18400,"station_id":"ce4bgv12rcd13ifvqcp0","pricing_plan_id":"cebpf4jnsgd1na2vs0mg"},{"bike_id":"a42e2646-3bd0-4c87-b22e-7f0c8fd89cd5","system_id":"levelo_inurba_marseille","lat":43.311722,"lon":5.387247,"is_reserved":false,"is_disabled":false,"rental_uris":{"android":"levelo://app?vid=a42e2646-3bd0-4c87-b22e-7f0c8fd89cd5","ios":"levelo://app?vid=a42e2646-3bd0-4c87-b22e-7f0c8fd89cd5"},"vehicle_type_id":"4","last_reported":1724188102,"current_range_meters":7200,"station_id":"ce4bgv12rcd13ifvqcp0","pricing_plan_id":"cebpf4jnsgd1na2vs0mg"},{"bike_id":"5e269e30-1533-4f95-8438-47c7ee7b0853","system_id":"levelo_inurba_marseille","lat":43.29824,"lon":5.36238,"is_reserved":false,"is_disabled":false,"rental_uris":{"android":"levelo://app?vid=5e269e30-1533-4f95-8438-47c7ee7b0853","ios":"levelo://app?vid=5e269e30-1533-4f95-8438-47c7ee7b0853"},"vehicle_type_id":"4","last_reported":1724188102,"current_range_meters":28800,"station_id":"ce4bgpp2rcd13ifvqc3g","pricing_plan_id":"cebpf4jnsgd1na2vs0mg"},{"bike_id":"b7c77592-e3ee-46f7-ac22-85d117c49f88","system_id":"levelo_inurba_marseille","lat":43.301417,"lon":5.3809,"is_reserved":false,"is_disabled":false,"rental_uris":{"android":"levelo://app?vid=b7c77592-e3ee-46f7-ac22-85d117c49f88","ios":"levelo://app?vid=b7c77592-e3ee-46f7-ac22-85d117c49f88"},"vehicle_type_id":"4","last_reported":1724188102,"current_range_meters":14000,"station_id":"ce4bgjp2rcd13ifvqbh0","pricing_plan_id":"cebpf4jnsgd1na2vs0mg"},{"bike_id":"72ee5bcc-c564-4def-a85b-42a7c2e5d2fc","system_id":"levelo_inurba_marseille","lat":43.298998,"lon":5.3758,"is_reserved":false,"is_disabled":false,"rental_uris":{"android":"levelo://app?vid=72ee5bcc-c564-4def-a85b-42a7c2e5d2fc","ios":"levelo://app?vid=72ee5bcc-c564-4def-a85b-42a7c2e5d2fc"},"vehicle_type_id":"4","last_reported":1724188102,"current_range_meters":8000,"station_id":"","pricing_plan_id":"cebpf4jnsgd1na2vs0mg"},{"bike_id":"82a514c2-b0ca-43d8-be2d-1362d2980e39","system_id":"levelo_inurba_marseille","lat":43.322872,"lon":5.382756,"is_reserved":false,"is_disabled":false,"rental_uris":{"android":"levelo://app?vid=82a514c2-b0ca-43d8-be2d-1362d2980e39","ios":"levelo://app?vid=82a514c2-b0ca-43d8-be2d-1362d2980e39"},"vehicle_type_id":"4","last_reported":1724188102,"current_range_meters":17600,"station_id":"ce4bhr12rcd13ifvqhqg","pricing_plan_id":"cebpf4jnsgd1na2vs0mg"},{"bike_id":"9de35079-ff0b-4f26-9e89-a57d9850ad50","system_id":"levelo_inurba_marseille","lat":43.322872,"lon":5.382756,"is_reserved":false,"is_disabled":false,"rental_uris":{"android":"levelo://app?vid=9de35079-ff0b-4f26-9e89-a57d9850ad50","ios":"levelo://app?vid=9de35079-ff0b-4f26-9e89-a57d9850ad50"},"vehicle_type_id":"4","last_reported":1724188102,"current_range_meters":29200,"station_id":"ce4bhr12rcd13ifvqhqg","pricing_plan_id":"cebpf4jnsgd1na2vs0mg"},{"bike_id":"38b10a66-6051-4349-afd2-1d54758bdc3a","system_id":"levelo_inurba_marseille","lat":43.322872,"lon":5.382756,"is_reserved":false,"is_disabled":false,"rental_uris":{"android":"levelo://app?vid=38b10a66-6051-4349-afd2-1d54758bdc3a","ios":"levelo://app?vid=38b10a66-6051-4349-afd2-1d54758bdc3a"},"vehicle_type_id":"4","last_reported":1724188102,"current_range_meters":27200,"station_id":"ce4bhr12rcd13ifvqhqg","pricing_plan_id":"cebpf4jnsgd1na2vs0mg"},{"bike_id":"dbdb641c-ea85-41bb-87e0-4d69504d4f8b","system_id":"levelo_inurba_marseille","lat":43.322872,"lon":5.382756,"is_reserved":false,"is_disabled":false,"rental_uris":{"android":"levelo://app?vid=dbdb641c-ea85-41bb-87e0-4d69504d4f8b","ios":"levelo://app?vid=dbdb641c-ea85-41bb-87e0-4d69504d4f8b"},"vehicle_type_id":"4","last_reported":1724188102,"current_range_meters":2400,"station_id":"ce4bhr12rcd13ifvqhqg","pricing_plan_id":"cebpf4jnsgd1na2vs0mg"},{"bike_id":"e90fb3b6-4ba5-4768-8484-edf2d46fa148","system_id":"levelo_inurba_marseille","lat":43.322872,"lon":5.382756,"is_reserved":false,"is_disabled":false,"rental_uris":{"android":"levelo://app?vid=e90fb3b6-4ba5-4768-8484-edf2d46fa148","ios":"levelo://app?vid=e90fb3b6-4ba5-4768-8484-edf2d46fa148"},"vehicle_type_id":"4","last_reported":1724188102,"current_range_meters":22800,"station_id":"ce4bhr12rcd13ifvqhqg","pricing_plan_id":"cebpf4jnsgd1na2vs0mg"},{"bike_id":"bf4f6403-c5ef-464e-b431-841f53d807fd","system_id":"levelo_inurba_marseille","lat":43.2981,"lon":5.37407,"is_reserved":false,"is_disabled":false,"rental_uris":{"android":"levelo://app?vid=bf4f6403-c5ef-464e-b431-841f53d807fd","ios":"levelo://app?vid=bf4f6403-c5ef-464e-b431-841f53d807fd"},"vehicle_type_id":"4","last_reported":1724188102,"current_range_meters":0,"station_id":"","pricing_plan_id":"cebpf4jnsgd1na2vs0mg"},{"bike_id":"e5ea8f9a-c581-40cf-9bcb-bad69f9752ce","system_id":"levelo_inurba_marseille","lat":43.305994,"lon":5.393687,"is_reserved":false,"is_disabled":false,"rental_uris":{"android":"levelo://app?vid=e5ea8f9a-c581-40cf-9bcb-bad69f9752ce","ios":"levelo://app?vid=e5ea8f9a-c581-40cf-9bcb-bad69f9752ce"},"vehicle_type_id":"4","last_reported":1724188102,"current_range_meters":26000,"station_id":"ce4bh0p2rcd13ifvqd80","pricing_plan_id":"cebpf4jnsgd1na2vs0mg"},{"bike_id":"173c87e2-330e-4e49-92a9-1f77ef590222","system_id":"levelo_inurba_marseille","lat":43.29672,"lon":5.36435,"is_reserved":false,"is_disabled":false,"rental_uris":{"android":"levelo://app?vid=173c87e2-330e-4e49-92a9-1f77ef590222","ios":"levelo://app?vid=173c87e2-330e-4e49-92a9-1f77ef590222"},"vehicle_type_id":"4","last_reported":1724188102,"current_range_meters":25600,"station_id":"","pricing_plan_id":"cebpf4jnsgd1na2vs0mg"},{"bike_id":"fa5037ef-f4c4-40e9-84b3-88b0321f6436","system_id":"levelo_inurba_marseille","lat":43.2967,"lon":5.363,"is_reserved":false,"is_disabled":false,"rental_uris":{"android":"levelo://app?vid=fa5037ef-f4c4-40e9-84b3-88b0321f6436","ios":"levelo://app?vid=fa5037ef-f4c4-40e9-84b3-88b0321f6436"},"vehicle_type_id":"4","last_reported":1724188102,"current_range_meters":18800,"station_id":"","pricing_plan_id":"cebpf4jnsgd1na2vs0mg"},{"bike_id":"22363821-99dc-4e5b-a4bc-d21fc90abbae","system_id":"levelo_inurba_marseille","lat":43.304274,"lon":5.388873,"is_reserved":false,"is_disabled":false,"rental_uris":{"android":"levelo://app?vid=22363821-99dc-4e5b-a4bc-d21fc90abbae","ios":"levelo://app?vid=22363821-99dc-4e5b-a4bc-d21fc90abbae"},"vehicle_type_id":"4","last_reported":1724188102,"current_range_meters":21200,"station_id":"ce4bgk12rcd13ifvqbi0","pricing_plan_id":"cebpf4jnsgd1na2vs0mg"},{"bike_id":"67bc8656-cad2-4c99-a0b7-b1bc42dcf377","system_id":"levelo_inurba_marseille","lat":43.29573,"lon":5.367355,"is_reserved":false,"is_disabled":false,"rental_uris":{"android":"levelo://app?vid=67bc8656-cad2-4c99-a0b7-b1bc42dcf377","ios":"levelo://app?vid=67bc8656-cad2-4c99-a0b7-b1bc42dcf377"},"vehicle_type_id":"4","last_reported":1724188102,"current_range_meters":1200,"station_id":"ce4bgph2rcd13ifvqc2g","pricing_plan_id":"cebpf4jnsgd1na2vs0mg"},{"bike_id":"8436cb7d-a3ec-48b7-9108-f088fe8129b5","system_id":"levelo_inurba_marseille","lat":43.299028,"lon":5.381509,"is_reserved":false,"is_disabled":false,"rental_uris":{"android":"levelo://app?vid=8436cb7d-a3ec-48b7-9108-f088fe8129b5","ios":"levelo://app?vid=8436cb7d-a3ec-48b7-9108-f088fe8129b5"},"vehicle_type_id":"4","last_reported":1724188102,"current_range_meters":5600,"station_id":"ce4bgj12rcd13ifvqbc0","pricing_plan_id":"cebpf4jnsgd1na2vs0mg"},{"bike_id":"407df8fc-4f00-4132-b9e1-4fa065b320de","system_id":"levelo_inurba_marseille","lat":43.309471,"lon":5.390276,"is_reserved":false,"is_disabled":false,"rental_uris":{"android":"levelo://app?vid=407df8fc-4f00-4132-b9e1-4fa065b320de","ios":"levelo://app?vid=407df8fc-4f00-4132-b9e1-4fa065b320de"},"vehicle_type_id":"4","last_reported":1724188102,"current_range_meters":31200,"station_id":"ce4bgup2rcd13ifvqco0","pricing_plan_id":"cebpf4jnsgd1na2vs0mg"},{"bike_id":"d4cf0bec-7c79-4e04-8639-df93987916d7","system_id":"levelo_inurba_marseille","lat":43.309589,"lon":5.390258,"is_reserved":false,"is_disabled":false,"rental_uris":{"android":"levelo://app?vid=d4cf0bec-7c79-4e04-8639-df93987916d7","ios":"levelo://app?vid=d4cf0bec-7c79-4e04-8639-df93987916d7"},"vehicle_type_id":"4","last_reported":1724188102,"current_range_meters":28400,"station_id":"ce4bgup2rcd13ifvqco0","pricing_plan_id":"cebpf4jnsgd1na2vs0mg"},{"bike_id":"5d934c6b-d6f7-4b0c-aa01-d0f9040d93eb","system_id":"levelo_inurba_marseille","lat":43.309589,"lon":5.390258,"is_reserved":false,"is_disabled":false,"rental_uris":{"android":"levelo://app?vid=5d934c6b-d6f7-4b0c-aa01-d0f9040d93eb","ios":"levelo://app?vid=5d934c6b-d6f7-4b0c-aa01-d0f9040d93eb"},"vehicle_type_id":"4","last_reported":1724188102,"current_range_meters":24800,"station_id":"ce4bgup2rcd13ifvqco0","pricing_plan_id":"cebpf4jnsgd1na2vs0mg"},{"bike_id":"ba1a97e9-12d5-4e95-8f2b-72c37412cdd4","system_id":"levelo_inurba_marseille","lat":43.30955,"lon":5.39037,"is_reserved":false,"is_disabled":false,"rental_uris":{"android":"levelo://app?vid=ba1a97e9-12d5-4e95-8f2b-72c37412cdd4","ios":"levelo://app?vid=ba1a97e9-12d5-4e95-8f2b-72c37412cdd4"},"vehicle_type_id":"4","last_reported":1724188102,"current_range_meters":26400,"station_id":"ce4bgup2rcd13ifvqco0","pricing_plan_id":"cebpf4jnsgd1na2vs0mg"},{"bike_id":"7a157b78-3fc8-476f-a4e6-ff3e9ae96698","system_id":"levelo_inurba_marseille","lat":43.309589,"lon":5.390258,"is_reserved":false,"is_disabled":false,"rental_uris":{"android":"levelo://app?vid=7a157b78-3fc8-476f-a4e6-ff3e9ae96698","ios":"levelo://app?vid=7a157b78-3fc8-476f-a4e6-ff3e9ae96698"},"vehicle_type_id":"4","last_reported":1724188102,"current_range_meters":17600,"station_id":"ce4bgup2rcd13ifvqco0","pricing_plan_id":"cebpf4jnsgd1na2vs0mg"},{"bike_id":"c8e1e8bb-b705-4e65-a39a-d6b8430cbeb8","system_id":"levelo_inurba_marseille","lat":43.309589,"lon":5.390258,"is_reserved":false,"is_disabled":false,"rental_uris":{"android":"levelo://app?vid=c8e1e8bb-b705-4e65-a39a-d6b8430cbeb8","ios":"levelo://app?vid=c8e1e8bb-b705-4e65-a39a-d6b8430cbeb8"},"vehicle_type_id":"4","last_reported":1724188102,"current_range_meters":0,"station_id":"ce4bgup2rcd13ifvqco0","pricing_plan_id":"cebpf4jnsgd1na2vs0mg"},{"bike_id":"ead46181-1ba8-4370-b4c2-0fb9d2b78c11","system_id":"levelo_inurba_marseille","lat":43.309589,"lon":5.390258,"is_reserved":false,"is_disabled":false,"rental_uris":{"android":"levelo://app?vid=ead46181-1ba8-4370-b4c2-0fb9d2b78c11","ios":"levelo://app?vid=ead46181-1ba8-4370-b4c2-0fb9d2b78c11"},"vehicle_type_id":"4","last_reported":1724188102,"current_range_meters":10400,"station_id":"ce4bgup2rcd13ifvqco0","pricing_plan_id":"cebpf4jnsgd1na2vs0mg"},{"bike_id":"8fde73e5-4898-4b44-a1e4-7c191a491c0c","system_id":"levelo_inurba_marseille","lat":43.309589,"lon":5.390258,"is_reserved":false,"is_disabled":false,"rental_uris":{"android":"levelo://app?vid=8fde73e5-4898-4b44-a1e4-7c191a491c0c","ios":"levelo://app?vid=8fde73e5-4898-4b44-a1e4-7c191a491c0c"},"vehicle_type_id":"4","last_reported":1724188102,"current_range_meters":22400,"station_id":"ce4bgup2rcd13ifvqco0","pricing_plan_id":"cebpf4jnsgd1na2vs0mg"},{"bike_id":"91124e59-a540-4b5f-99ec-b462ba39bf9c","system_id":"levelo_inurba_marseille","lat":43.309589,"lon":5.390258,"is_reserved":false,"is_disabled":false,"rental_uris":{"android":"levelo://app?vid=91124e59-a540-4b5f-99ec-b462ba39bf9c","ios":"levelo://app?vid=91124e59-a540-4b5f-99ec-b462ba39bf9c"},"vehicle_type_id":"4","last_reported":1724188102,"current_range_meters":4400,"station_id":"ce4bgup2rcd13ifvqco0","pricing_plan_id":"cebpf4jnsgd1na2vs0mg"},{"bike_id":"db9f1a04-2718-4ddc-8688-c10bd4d43347","system_id":"levelo_inurba_marseille","lat":43.309589,"lon":5.390258,"is_reserved":false,"is_disabled":false,"rental_uris":{"android":"levelo://app?vid=db9f1a04-2718-4ddc-8688-c10bd4d43347","ios":"levelo://app?vid=db9f1a04-2718-4ddc-8688-c10bd4d43347"},"vehicle_type_id":"4","last_reported":1724188102,"current_range_meters":15200,"station_id":"ce4bgup2rcd13ifvqco0","pricing_plan_id":"cebpf4jnsgd1na2vs0mg"},{"bike_id":"04921009-5f91-46af-977d-dc1ca35c8999","system_id":"levelo_inurba_marseille","lat":43.309589,"lon":5.390258,"is_reserved":false,"is_disabled":false,"rental_uris":{"android":"levelo://app?vid=04921009-5f91-46af-977d-dc1ca35c8999","ios":"levelo://app?vid=04921009-5f91-46af-977d-dc1ca35c8999"},"vehicle_type_id":"4","last_reported":1724188102,"current_range_meters":31200,"station_id":"ce4bgup2rcd13ifvqco0","pricing_plan_id":"cebpf4jnsgd1na2vs0mg"},{"bike_id":"baf8f010-76f6-4d9c-ac8a-284ed3f8366e","system_id":"levelo_inurba_marseille","lat":43.304274,"lon":5.388873,"is_reserved":false,"is_disabled":false,"rental_uris":{"android":"levelo://app?vid=baf8f010-76f6-4d9c-ac8a-284ed3f8366e","ios":"levelo://app?vid=baf8f010-76f6-4d9c-ac8a-284ed3f8366e"},"vehicle_type_id":"4","last_reported":1724188102,"current_range_meters":5200,"station_id":"ce4bgk12rcd13ifvqbi0","pricing_plan_id":"cebpf4jnsgd1na2vs0mg"},{"bike_id":"26f68f84-6b92-4e8d-b278-4ea8af669133","system_id":"levelo_inurba_marseille","lat":43.30429,"lon":5.38884,"is_reserved":false,"is_disabled":false,"rental_uris":{"android":"levelo://app?vid=26f68f84-6b92-4e8d-b278-4ea8af669133","ios":"levelo://app?vid=26f68f84-6b92-4e8d-b278-4ea8af669133"},"vehicle_type_id":"4","last_reported":1724188102,"current_range_meters":20800,"station_id":"ce4bgk12rcd13ifvqbi0","pricing_plan_id":"cebpf4jnsgd1na2vs0mg"},{"bike_id":"eba58252-9de6-4247-ac91-54941bac923a","system_id":"levelo_inurba_marseille","lat":43.2962,"lon":5.37701,"is_reserved":false,"is_disabled":false,"rental_uris":{"android":"levelo://app?vid=eba58252-9de6-4247-ac91-54941bac923a","ios":"levelo://app?vid=eba58252-9de6-4247-ac91-54941bac923a"},"vehicle_type_id":"4","last_reported":1724188102,"current_range_meters":0,"station_id":"ce4bgi92rcd13ifvqb90","pricing_plan_id":"cebpf4jnsgd1na2vs0mg"},{"bike_id":"0acfbbd1-211d-43fe-b7f2-3d3f1782e755","system_id":"levelo_inurba_marseille","lat":43.304274,"lon":5.388873,"is_reserved":false,"is_disabled":false,"rental_uris":{"android":"levelo://app?vid=0acfbbd1-211d-43fe-b7f2-3d3f1782e755","ios":"levelo://app?vid=0acfbbd1-211d-43fe-b7f2-3d3f1782e755"},"vehicle_type_id":"4","last_reported":1724188102,"current_range_meters":29200,"station_id":"ce4bgk12rcd13ifvqbi0","pricing_plan_id":"cebpf4jnsgd1na2vs0mg"},{"bike_id":"821c7f4a-4d50-4aaf-a005-030fcbb6d4fd","system_id":"levelo_inurba_marseille","lat":43.29549,"lon":5.37503,"is_reserved":false,"is_disabled":false,"rental_uris":{"android":"levelo://app?vid=821c7f4a-4d50-4aaf-a005-030fcbb6d4fd","ios":"levelo://app?vid=821c7f4a-4d50-4aaf-a005-030fcbb6d4fd"},"vehicle_type_id":"4","last_reported":1724188102,"current_range_meters":18000,"station_id":"","pricing_plan_id":"cebpf4jnsgd1na2vs0mg"},{"bike_id":"1e387b61-263a-4276-819c-d63f5e596d61","system_id":"levelo_inurba_marseille","lat":43.299707,"lon":5.384859,"is_reserved":false,"is_disabled":false,"rental_uris":{"android":"levelo://app?vid=1e387b61-263a-4276-819c-d63f5e596d61","ios":"levelo://app?vid=1e387b61-263a-4276-819c-d63f5e596d61"},"vehicle_type_id":"4","last_reported":1724188102,"current_range_meters":29200,"station_id":"ce4bgj92rcd13ifvqbd0","pricing_plan_id":"cebpf4jnsgd1na2vs0mg"},{"bike_id":"9e70d63e-a372-4c15-af48-6f2c86a636e2","system_id":"levelo_inurba_marseille","lat":43.295279,"lon":5.375048,"is_reserved":false,"is_disabled":false,"rental_uris":{"android":"levelo://app?vid=9e70d63e-a372-4c15-af48-6f2c86a636e2","ios":"levelo://app?vid=9e70d63e-a372-4c15-af48-6f2c86a636e2"},"vehicle_type_id":"4","last_reported":1724188102,"current_range_meters":25600,"station_id":"ce4bgkp2rcd13ifvqbmg","pricing_plan_id":"cebpf4jnsgd1na2vs0mg"},{"bike_id":"64fe08eb-50fb-4059-bd88-705ef72dd8be","system_id":"levelo_inurba_marseille","lat":43.29504,"lon":5.37602,"is_reserved":false,"is_disabled":false,"rental_uris":{"android":"levelo://app?vid=64fe08eb-50fb-4059-bd88-705ef72dd8be","ios":"levelo://app?vid=64fe08eb-50fb-4059-bd88-705ef72dd8be"},"vehicle_type_id":"4","last_reported":1724188102,"current_range_meters":14000,"station_id":"","pricing_plan_id":"cebpf4jnsgd1na2vs0mg"},{"bike_id":"7d00275e-6661-4e69-b00f-0fa5ca76531b","system_id":"levelo_inurba_marseille","lat":43.30143,"lon":5.38775,"is_reserved":false,"is_disabled":false,"rental_uris":{"android":"levelo://app?vid=7d00275e-6661-4e69-b00f-0fa5ca76531b","ios":"levelo://app?vid=7d00275e-6661-4e69-b00f-0fa5ca76531b"},"vehicle_type_id":"4","last_reported":1724188102,"current_range_meters":0,"station_id":"ce4bghh2rcd13ifvqb60","pricing_plan_id":"cebpf4jnsgd1na2vs0mg"},{"bike_id":"1015ff92-6e87-4eb7-bbd5-d9789c5ee81c","system_id":"levelo_inurba_marseille","lat":43.3014,"lon":5.387745,"is_reserved":false,"is_disabled":false,"rental_uris":{"android":"levelo://app?vid=1015ff92-6e87-4eb7-bbd5-d9789c5ee81c","ios":"levelo://app?vid=1015ff92-6e87-4eb7-bbd5-d9789c5ee81c"},"vehicle_type_id":"4","last_reported":1724188102,"current_range_meters":31200,"station_id":"ce4bghh2rcd13ifvqb60","pricing_plan_id":"cebpf4jnsgd1na2vs0mg"},{"bike_id":"7b18b9fe-097b-419d-b401-f843ae70f703","system_id":"levelo_inurba_marseille","lat":43.30139,"lon":5.38774,"is_reserved":false,"is_disabled":false,"rental_uris":{"android":"levelo://app?vid=7b18b9fe-097b-419d-b401-f843ae70f703","ios":"levelo://app?vid=7b18b9fe-097b-419d-b401-f843ae70f703"},"vehicle_type_id":"4","last_reported":1724188102,"current_range_meters":25600,"station_id":"ce4bghh2rcd13ifvqb60","pricing_plan_id":"cebpf4jnsgd1na2vs0mg"},{"bike_id":"ccef5f5a-c1fd-4e29-b324-6663d630e1fa","system_id":"levelo_inurba_marseille","lat":43.30138,"lon":5.38776,"is_reserved":false,"is_disabled":false,"rental_uris":{"android":"levelo://app?vid=ccef5f5a-c1fd-4e29-b324-6663d630e1fa","ios":"levelo://app?vid=ccef5f5a-c1fd-4e29-b324-6663d630e1fa"},"vehicle_type_id":"4","last_reported":1724188102,"current_range_meters":27200,"station_id":"ce4bghh2rcd13ifvqb60","pricing_plan_id":"cebpf4jnsgd1na2vs0mg"},{"bike_id":"014a4a0d-8d95-4d06-871c-ca3bce4fb43f","system_id":"levelo_inurba_marseille","lat":43.301419,"lon":5.387855,"is_reserved":false,"is_disabled":false,"rental_uris":{"android":"levelo://app?vid=014a4a0d-8d95-4d06-871c-ca3bce4fb43f","ios":"levelo://app?vid=014a4a0d-8d95-4d06-871c-ca3bce4fb43f"},"vehicle_type_id":"4","last_reported":1724188102,"current_range_meters":31200,"station_id":"ce4bghh2rcd13ifvqb60","pricing_plan_id":"cebpf4jnsgd1na2vs0mg"},{"bike_id":"6bea9c93-8d6e-48ee-860b-a64659c70646","system_id":"levelo_inurba_marseille","lat":43.30133,"lon":5.38777,"is_reserved":false,"is_disabled":false,"rental_uris":{"android":"levelo://app?vid=6bea9c93-8d6e-48ee-860b-a64659c70646","ios":"levelo://app?vid=6bea9c93-8d6e-48ee-860b-a64659c70646"},"vehicle_type_id":"4","last_reported":1724188102,"current_range_meters":31600,"station_id":"ce4bghh2rcd13ifvqb60","pricing_plan_id":"cebpf4jnsgd1na2vs0mg"},{"bike_id":"1a4fe159-6e1f-4231-b064-cd7544dfc46d","system_id":"levelo_inurba_marseille","lat":43.301396,"lon":5.387812,"is_reserved":false,"is_disabled":false,"rental_uris":{"android":"levelo://app?vid=1a4fe159-6e1f-4231-b064-cd7544dfc46d","ios":"levelo://app?vid=1a4fe159-6e1f-4231-b064-cd7544dfc46d"},"vehicle_type_id":"4","last_reported":1724188102,"current_range_meters":31200,"station_id":"ce4bghh2rcd13ifvqb60","pricing_plan_id":"cebpf4jnsgd1na2vs0mg"},{"bike_id":"1beb4de4-db3b-487b-ae4d-9f9a9621412c","system_id":"levelo_inurba_marseille","lat":43.301396,"lon":5.387812,"is_reserved":false,"is_disabled":false,"rental_uris":{"android":"levelo://app?vid=1beb4de4-db3b-487b-ae4d-9f9a9621412c","ios":"levelo://app?vid=1beb4de4-db3b-487b-ae4d-9f9a9621412c"},"vehicle_type_id":"4","last_reported":1724188102,"current_range_meters":30800,"station_id":"ce4bghh2rcd13ifvqb60","pricing_plan_id":"cebpf4jnsgd1na2vs0mg"},{"bike_id":"44c3bb2e-5024-4656-b430-1530a131733d","system_id":"levelo_inurba_marseille","lat":43.30138,"lon":5.38787,"is_reserved":false,"is_disabled":false,"rental_uris":{"android":"levelo://app?vid=44c3bb2e-5024-4656-b430-1530a131733d","ios":"levelo://app?vid=44c3bb2e-5024-4656-b430-1530a131733d"},"vehicle_type_id":"4","last_reported":1724188102,"current_range_meters":27600,"station_id":"ce4bghh2rcd13ifvqb60","pricing_plan_id":"cebpf4jnsgd1na2vs0mg"},{"bike_id":"e5f7d4a0-1796-4cfa-b082-3be1d543e5d7","system_id":"levelo_inurba_marseille","lat":43.301396,"lon":5.387812,"is_reserved":false,"is_disabled":false,"rental_uris":{"android":"levelo://app?vid=e5f7d4a0-1796-4cfa-b082-3be1d543e5d7","ios":"levelo://app?vid=e5f7d4a0-1796-4cfa-b082-3be1d543e5d7"},"vehicle_type_id":"4","last_reported":1724188102,"current_range_meters":18400,"station_id":"ce4bghh2rcd13ifvqb60","pricing_plan_id":"cebpf4jnsgd1na2vs0mg"},{"bike_id":"afb8e3cb-4283-476b-b06e-55151758bf00","system_id":"levelo_inurba_marseille","lat":43.301396,"lon":5.387812,"is_reserved":false,"is_disabled":false,"rental_uris":{"android":"levelo://app?vid=afb8e3cb-4283-476b-b06e-55151758bf00","ios":"levelo://app?vid=afb8e3cb-4283-476b-b06e-55151758bf00"},"vehicle_type_id":"4","last_reported":1724188102,"current_range_meters":30800,"station_id":"ce4bghh2rcd13ifvqb60","pricing_plan_id":"cebpf4jnsgd1na2vs0mg"},{"bike_id":"6abdf67f-8f18-4715-849b-59c7d7af0b83","system_id":"levelo_inurba_marseille","lat":43.30129,"lon":5.38785,"is_reserved":false,"is_disabled":false,"rental_uris":{"android":"levelo://app?vid=6abdf67f-8f18-4715-849b-59c7d7af0b83","ios":"levelo://app?vid=6abdf67f-8f18-4715-849b-59c7d7af0b83"},"vehicle_type_id":"4","last_reported":1724188102,"current_range_meters":9200,"station_id":"ce4bghh2rcd13ifvqb60","pricing_plan_id":"cebpf4jnsgd1na2vs0mg"},{"bike_id":"a0dfe47f-5b6c-4276-bac2-4f9c00359eb7","system_id":"levelo_inurba_marseille","lat":43.301396,"lon":5.387812,"is_reserved":false,"is_disabled":false,"rental_uris":{"android":"levelo://app?vid=a0dfe47f-5b6c-4276-bac2-4f9c00359eb7","ios":"levelo://app?vid=a0dfe47f-5b6c-4276-bac2-4f9c00359eb7"},"vehicle_type_id":"4","last_reported":1724188102,"current_range_meters":11200,"station_id":"ce4bghh2rcd13ifvqb60","pricing_plan_id":"cebpf4jnsgd1na2vs0mg"},{"bike_id":"7082ef74-5b99-4f15-9541-a7f63ca14d36","system_id":"levelo_inurba_marseille","lat":43.301396,"lon":5.387812,"is_reserved":false,"is_disabled":false,"rental_uris":{"android":"levelo://app?vid=7082ef74-5b99-4f15-9541-a7f63ca14d36","ios":"levelo://app?vid=7082ef74-5b99-4f15-9541-a7f63ca14d36"},"vehicle_type_id":"4","last_reported":1724188102,"current_range_meters":31200,"station_id":"ce4bghh2rcd13ifvqb60","pricing_plan_id":"cebpf4jnsgd1na2vs0mg"},{"bike_id":"4075b3b0-ed21-4bc0-8380-3641744740db","system_id":"levelo_inurba_marseille","lat":43.301396,"lon":5.387812,"is_reserved":false,"is_disabled":false,"rental_uris":{"android":"levelo://app?vid=4075b3b0-ed21-4bc0-8380-3641744740db","ios":"levelo://app?vid=4075b3b0-ed21-4bc0-8380-3641744740db"},"vehicle_type_id":"4","last_reported":1724188102,"current_range_meters":8000,"station_id":"ce4bghh2rcd13ifvqb60","pricing_plan_id":"cebpf4jnsgd1na2vs0mg"},{"bike_id":"6d587793-101c-4d4d-8f66-f6ddbf2be032","system_id":"levelo_inurba_marseille","lat":43.305994,"lon":5.393687,"is_reserved":false,"is_disabled":false,"rental_uris":{"android":"levelo://app?vid=6d587793-101c-4d4d-8f66-f6ddbf2be032","ios":"levelo://app?vid=6d587793-101c-4d4d-8f66-f6ddbf2be032"},"vehicle_type_id":"4","last_reported":1724188102,"current_range_meters":25200,"station_id":"ce4bh0p2rcd13ifvqd80","pricing_plan_id":"cebpf4jnsgd1na2vs0mg"},{"bike_id":"9cb7a118-8b6c-45c6-95bd-0f26e26b3274","system_id":"levelo_inurba_marseille","lat":43.32367,"lon":5.388836,"is_reserved":false,"is_disabled":false,"rental_uris":{"android":"levelo://app?vid=9cb7a118-8b6c-45c6-95bd-0f26e26b3274","ios":"levelo://app?vid=9cb7a118-8b6c-45c6-95bd-0f26e26b3274"},"vehicle_type_id":"4","last_reported":1724188102,"current_range_meters":31200,"station_id":"ce4bhqp2rcd13ifvqhog","pricing_plan_id":"cebpf4jnsgd1na2vs0mg"},{"bike_id":"161338fd-96ad-4c33-9247-a039b973f69c","system_id":"levelo_inurba_marseille","lat":43.29614,"lon":5.38072,"is_reserved":false,"is_disabled":false,"rental_uris":{"android":"levelo://app?vid=161338fd-96ad-4c33-9247-a039b973f69c","ios":"levelo://app?vid=161338fd-96ad-4c33-9247-a039b973f69c"},"vehicle_type_id":"4","last_reported":1724188102,"current_range_meters":24000,"station_id":"ce4bgl12rcd13ifvqbo0","pricing_plan_id":"cebpf4jnsgd1na2vs0mg"},{"bike_id":"95e5a08d-84be-442e-b106-43a0ed6d50ef","system_id":"levelo_inurba_marseille","lat":43.29596,"lon":5.38094,"is_reserved":false,"is_disabled":false,"rental_uris":{"android":"levelo://app?vid=95e5a08d-84be-442e-b106-43a0ed6d50ef","ios":"levelo://app?vid=95e5a08d-84be-442e-b106-43a0ed6d50ef"},"vehicle_type_id":"4","last_reported":1724188102,"current_range_meters":16000,"station_id":"ce4bgl12rcd13ifvqbo0","pricing_plan_id":"cebpf4jnsgd1na2vs0mg"},{"bike_id":"f5591ec3-a26e-4908-937b-f5a423749350","system_id":"levelo_inurba_marseille","lat":43.29601,"lon":5.381084,"is_reserved":false,"is_disabled":false,"rental_uris":{"android":"levelo://app?vid=f5591ec3-a26e-4908-937b-f5a423749350","ios":"levelo://app?vid=f5591ec3-a26e-4908-937b-f5a423749350"},"vehicle_type_id":"4","last_reported":1724188102,"current_range_meters":7600,"station_id":"ce4bgl12rcd13ifvqbo0","pricing_plan_id":"cebpf4jnsgd1na2vs0mg"},{"bike_id":"56b463ae-6754-491a-ba4c-d1eee2aa568e","system_id":"levelo_inurba_marseille","lat":43.292749,"lon":5.368402,"is_reserved":false,"is_disabled":false,"rental_uris":{"android":"levelo://app?vid=56b463ae-6754-491a-ba4c-d1eee2aa568e","ios":"levelo://app?vid=56b463ae-6754-491a-ba4c-d1eee2aa568e"},"vehicle_type_id":"4","last_reported":1724188102,"current_range_meters":0,"station_id":"ce4bhbp2rcd13ifvqesg","pricing_plan_id":"cebpf4jnsgd1na2vs0mg"},{"bike_id":"8828d8af-7130-4fc2-8474-e22ecf70a723","system_id":"levelo_inurba_marseille","lat":43.29237,"lon":5.36637,"is_reserved":false,"is_disabled":false,"rental_uris":{"android":"levelo://app?vid=8828d8af-7130-4fc2-8474-e22ecf70a723","ios":"levelo://app?vid=8828d8af-7130-4fc2-8474-e22ecf70a723"},"vehicle_type_id":"4","last_reported":1724188102,"current_range_meters":16800,"station_id":"ce4bha92rcd13ifvqeh0","pricing_plan_id":"cebpf4jnsgd1na2vs0mg"},{"bike_id":"c0036f39-f665-4cac-98ea-39d65869eb24","system_id":"levelo_inurba_marseille","lat":43.30596,"lon":5.3935,"is_reserved":false,"is_disabled":false,"rental_uris":{"android":"levelo://app?vid=c0036f39-f665-4cac-98ea-39d65869eb24","ios":"levelo://app?vid=c0036f39-f665-4cac-98ea-39d65869eb24"},"vehicle_type_id":"4","last_reported":1724188102,"current_range_meters":21600,"station_id":"ce4bh0p2rcd13ifvqd80","pricing_plan_id":"cebpf4jnsgd1na2vs0mg"},{"bike_id":"612da73e-57c7-4cb4-9454-63ca0d63645d","system_id":"levelo_inurba_marseille","lat":43.305994,"lon":5.393687,"is_reserved":false,"is_disabled":false,"rental_uris":{"android":"levelo://app?vid=612da73e-57c7-4cb4-9454-63ca0d63645d","ios":"levelo://app?vid=612da73e-57c7-4cb4-9454-63ca0d63645d"},"vehicle_type_id":"4","last_reported":1724188102,"current_range_meters":10000,"station_id":"ce4bh0p2rcd13ifvqd80","pricing_plan_id":"cebpf4jnsgd1na2vs0mg"},{"bike_id":"00ba5e2b-ddf0-4025-8fd5-b2bc87bd37f2","system_id":"levelo_inurba_marseille","lat":43.305994,"lon":5.393687,"is_reserved":false,"is_disabled":false,"rental_uris":{"android":"levelo://app?vid=00ba5e2b-ddf0-4025-8fd5-b2bc87bd37f2","ios":"levelo://app?vid=00ba5e2b-ddf0-4025-8fd5-b2bc87bd37f2"},"vehicle_type_id":"4","last_reported":1724188102,"current_range_meters":18800,"station_id":"ce4bh0p2rcd13ifvqd80","pricing_plan_id":"cebpf4jnsgd1na2vs0mg"},{"bike_id":"0f98380e-918c-4329-b267-fc382234a741","system_id":"levelo_inurba_marseille","lat":43.305994,"lon":5.393687,"is_reserved":false,"is_disabled":false,"rental_uris":{"android":"levelo://app?vid=0f98380e-918c-4329-b267-fc382234a741","ios":"levelo://app?vid=0f98380e-918c-4329-b267-fc382234a741"},"vehicle_type_id":"4","last_reported":1724188102,"current_range_meters":17200,"station_id":"ce4bh0p2rcd13ifvqd80","pricing_plan_id":"cebpf4jnsgd1na2vs0mg"},{"bike_id":"5cbef500-5547-4016-89f0-fbf8e2f5e10d","system_id":"levelo_inurba_marseille","lat":43.305994,"lon":5.393687,"is_reserved":false,"is_disabled":false,"rental_uris":{"android":"levelo://app?vid=5cbef500-5547-4016-89f0-fbf8e2f5e10d","ios":"levelo://app?vid=5cbef500-5547-4016-89f0-fbf8e2f5e10d"},"vehicle_type_id":"4","last_reported":1724188102,"current_range_meters":19600,"station_id":"ce4bh0p2rcd13ifvqd80","pricing_plan_id":"cebpf4jnsgd1na2vs0mg"},{"bike_id":"f086056d-13e7-4535-bc01-ca8953c70a82","system_id":"levelo_inurba_marseille","lat":43.303002,"lon":5.392142,"is_reserved":false,"is_disabled":false,"rental_uris":{"android":"levelo://app?vid=f086056d-13e7-4535-bc01-ca8953c70a82","ios":"levelo://app?vid=f086056d-13e7-4535-bc01-ca8953c70a82"},"vehicle_type_id":"4","last_reported":1724188102,"current_range_meters":14000,"station_id":"ce4bgkh2rcd13ifvqbk0","pricing_plan_id":"cebpf4jnsgd1na2vs0mg"},{"bike_id":"f33472a2-1666-4723-8551-3d96d9ed9209","system_id":"levelo_inurba_marseille","lat":43.303002,"lon":5.392142,"is_reserved":false,"is_disabled":false,"rental_uris":{"android":"levelo://app?vid=f33472a2-1666-4723-8551-3d96d9ed9209","ios":"levelo://app?vid=f33472a2-1666-4723-8551-3d96d9ed9209"},"vehicle_type_id":"4","last_reported":1724188102,"current_range_meters":30400,"station_id":"ce4bgkh2rcd13ifvqbk0","pricing_plan_id":"cebpf4jnsgd1na2vs0mg"},{"bike_id":"3c944a26-a45e-4917-aa34-fe5bc447e201","system_id":"levelo_inurba_marseille","lat":43.303002,"lon":5.392142,"is_reserved":false,"is_disabled":false,"rental_uris":{"android":"levelo://app?vid=3c944a26-a45e-4917-aa34-fe5bc447e201","ios":"levelo://app?vid=3c944a26-a45e-4917-aa34-fe5bc447e201"},"vehicle_type_id":"4","last_reported":1724188102,"current_range_meters":26000,"station_id":"ce4bgkh2rcd13ifvqbk0","pricing_plan_id":"cebpf4jnsgd1na2vs0mg"},{"bike_id":"d52a845b-9082-4eea-a9a9-839c31964584","system_id":"levelo_inurba_marseille","lat":43.303002,"lon":5.392142,"is_reserved":false,"is_disabled":false,"rental_uris":{"android":"levelo://app?vid=d52a845b-9082-4eea-a9a9-839c31964584","ios":"levelo://app?vid=d52a845b-9082-4eea-a9a9-839c31964584"},"vehicle_type_id":"4","last_reported":1724188102,"current_range_meters":6400,"station_id":"ce4bgkh2rcd13ifvqbk0","pricing_plan_id":"cebpf4jnsgd1na2vs0mg"},{"bike_id":"7ff8035b-46f9-4efe-b373-20789679f881","system_id":"levelo_inurba_marseille","lat":43.302992,"lon":5.392136,"is_reserved":false,"is_disabled":false,"rental_uris":{"android":"levelo://app?vid=7ff8035b-46f9-4efe-b373-20789679f881","ios":"levelo://app?vid=7ff8035b-46f9-4efe-b373-20789679f881"},"vehicle_type_id":"4","last_reported":1724188102,"current_range_meters":0,"station_id":"ce4bgkh2rcd13ifvqbk0","pricing_plan_id":"cebpf4jnsgd1na2vs0mg"},{"bike_id":"9c152a2f-f1af-4afc-8404-8cb74ace3baa","system_id":"levelo_inurba_marseille","lat":43.2936,"lon":5.37835,"is_reserved":false,"is_disabled":false,"rental_uris":{"android":"levelo://app?vid=9c152a2f-f1af-4afc-8404-8cb74ace3baa","ios":"levelo://app?vid=9c152a2f-f1af-4afc-8404-8cb74ace3baa"},"vehicle_type_id":"4","last_reported":1724188102,"current_range_meters":8400,"station_id":"ce4bgjh2rcd13ifvqbf0","pricing_plan_id":"cebpf4jnsgd1na2vs0mg"},{"bike_id":"d6265540-51e4-4a7e-9e4c-02904a165d7d","system_id":"levelo_inurba_marseille","lat":43.302992,"lon":5.392136,"is_reserved":false,"is_disabled":false,"rental_uris":{"android":"levelo://app?vid=d6265540-51e4-4a7e-9e4c-02904a165d7d","ios":"levelo://app?vid=d6265540-51e4-4a7e-9e4c-02904a165d7d"},"vehicle_type_id":"4","last_reported":1724188102,"current_range_meters":12800,"station_id":"ce4bgkh2rcd13ifvqbk0","pricing_plan_id":"cebpf4jnsgd1na2vs0mg"},{"bike_id":"234c4251-9339-4af7-ad8b-e5c0b5ffaea9","system_id":"levelo_inurba_marseille","lat":43.2936,"lon":5.37835,"is_reserved":false,"is_disabled":false,"rental_uris":{"android":"levelo://app?vid=234c4251-9339-4af7-ad8b-e5c0b5ffaea9","ios":"levelo://app?vid=234c4251-9339-4af7-ad8b-e5c0b5ffaea9"},"vehicle_type_id":"4","last_reported":1724188102,"current_range_meters":17200,"station_id":"ce4bgjh2rcd13ifvqbf0","pricing_plan_id":"cebpf4jnsgd1na2vs0mg"},{"bike_id":"5418e9ac-44b5-40c7-b92c-255859a9135d","system_id":"levelo_inurba_marseille","lat":43.300852,"lon":5.390859,"is_reserved":false,"is_disabled":false,"rental_uris":{"android":"levelo://app?vid=5418e9ac-44b5-40c7-b92c-255859a9135d","ios":"levelo://app?vid=5418e9ac-44b5-40c7-b92c-255859a9135d"},"vehicle_type_id":"4","last_reported":1724188102,"current_range_meters":26400,"station_id":"ce4bh192rcd13ifvqdb0","pricing_plan_id":"cebpf4jnsgd1na2vs0mg"},{"bike_id":"7eab7e14-04c2-4a74-9b63-e32b63c7bf09","system_id":"levelo_inurba_marseille","lat":43.300852,"lon":5.390859,"is_reserved":false,"is_disabled":false,"rental_uris":{"android":"levelo://app?vid=7eab7e14-04c2-4a74-9b63-e32b63c7bf09","ios":"levelo://app?vid=7eab7e14-04c2-4a74-9b63-e32b63c7bf09"},"vehicle_type_id":"4","last_reported":1724188102,"current_range_meters":17600,"station_id":"ce4bh192rcd13ifvqdb0","pricing_plan_id":"cebpf4jnsgd1na2vs0mg"},{"bike_id":"a1605db0-95bf-4582-b493-ba3fd5445e42","system_id":"levelo_inurba_marseille","lat":43.2936,"lon":5.37835,"is_reserved":false,"is_disabled":false,"rental_uris":{"android":"levelo://app?vid=a1605db0-95bf-4582-b493-ba3fd5445e42","ios":"levelo://app?vid=a1605db0-95bf-4582-b493-ba3fd5445e42"},"vehicle_type_id":"4","last_reported":1724188102,"current_range_meters":7200,"station_id":"ce4bgjh2rcd13ifvqbf0","pricing_plan_id":"cebpf4jnsgd1na2vs0mg"},{"bike_id":"67af4f5a-cc99-4a58-9728-8106061bb2d0","system_id":"levelo_inurba_marseille","lat":43.300852,"lon":5.390859,"is_reserved":false,"is_disabled":false,"rental_uris":{"android":"levelo://app?vid=67af4f5a-cc99-4a58-9728-8106061bb2d0","ios":"levelo://app?vid=67af4f5a-cc99-4a58-9728-8106061bb2d0"},"vehicle_type_id":"4","last_reported":1724188102,"current_range_meters":31200,"station_id":"ce4bh192rcd13ifvqdb0","pricing_plan_id":"cebpf4jnsgd1na2vs0mg"},{"bike_id":"88cf835a-dde9-4b5a-952f-f6b1a9b0f7d4","system_id":"levelo_inurba_marseille","lat":43.292311,"lon":5.360731,"is_reserved":false,"is_disabled":false,"rental_uris":{"android":"levelo://app?vid=88cf835a-dde9-4b5a-952f-f6b1a9b0f7d4","ios":"levelo://app?vid=88cf835a-dde9-4b5a-952f-f6b1a9b0f7d4"},"vehicle_type_id":"4","last_reported":1724188102,"current_range_meters":31200,"station_id":"ce4bhbh2rcd13ifvqeqg","pricing_plan_id":"cebpf4jnsgd1na2vs0mg"},{"bike_id":"0b114b8e-4b1e-4aa3-80c8-111c55927384","system_id":"levelo_inurba_marseille","lat":43.300852,"lon":5.390859,"is_reserved":false,"is_disabled":false,"rental_uris":{"android":"levelo://app?vid=0b114b8e-4b1e-4aa3-80c8-111c55927384","ios":"levelo://app?vid=0b114b8e-4b1e-4aa3-80c8-111c55927384"},"vehicle_type_id":"4","last_reported":1724188102,"current_range_meters":12000,"station_id":"ce4bh192rcd13ifvqdb0","pricing_plan_id":"cebpf4jnsgd1na2vs0mg"},{"bike_id":"c9c2c3e3-ac59-4a06-b13f-5d1e7afe7ccc","system_id":"levelo_inurba_marseille","lat":43.300852,"lon":5.390859,"is_reserved":false,"is_disabled":false,"rental_uris":{"android":"levelo://app?vid=c9c2c3e3-ac59-4a06-b13f-5d1e7afe7ccc","ios":"levelo://app?vid=c9c2c3e3-ac59-4a06-b13f-5d1e7afe7ccc"},"vehicle_type_id":"4","last_reported":1724188102,"current_range_meters":27600,"station_id":"ce4bh192rcd13ifvqdb0","pricing_plan_id":"cebpf4jnsgd1na2vs0mg"},{"bike_id":"f4819780-d25b-4f1a-aa0c-75d78c61d4fe","system_id":"levelo_inurba_marseille","lat":43.300852,"lon":5.390859,"is_reserved":false,"is_disabled":false,"rental_uris":{"android":"levelo://app?vid=f4819780-d25b-4f1a-aa0c-75d78c61d4fe","ios":"levelo://app?vid=f4819780-d25b-4f1a-aa0c-75d78c61d4fe"},"vehicle_type_id":"4","last_reported":1724188102,"current_range_meters":12000,"station_id":"ce4bh192rcd13ifvqdb0","pricing_plan_id":"cebpf4jnsgd1na2vs0mg"},{"bike_id":"1c14f1ea-53da-4684-90c8-ff43f365bfb4","system_id":"levelo_inurba_marseille","lat":43.30085,"lon":5.390856,"is_reserved":false,"is_disabled":false,"rental_uris":{"android":"levelo://app?vid=1c14f1ea-53da-4684-90c8-ff43f365bfb4","ios":"levelo://app?vid=1c14f1ea-53da-4684-90c8-ff43f365bfb4"},"vehicle_type_id":"4","last_reported":1724188102,"current_range_meters":22000,"station_id":"ce4bh192rcd13ifvqdb0","pricing_plan_id":"cebpf4jnsgd1na2vs0mg"},{"bike_id":"3f526e2a-d97a-42d9-bed3-083694a9c6c7","system_id":"levelo_inurba_marseille","lat":43.30085,"lon":5.390856,"is_reserved":false,"is_disabled":false,"rental_uris":{"android":"levelo://app?vid=3f526e2a-d97a-42d9-bed3-083694a9c6c7","ios":"levelo://app?vid=3f526e2a-d97a-42d9-bed3-083694a9c6c7"},"vehicle_type_id":"4","last_reported":1724188102,"current_range_meters":28800,"station_id":"ce4bh192rcd13ifvqdb0","pricing_plan_id":"cebpf4jnsgd1na2vs0mg"},{"bike_id":"fa0e0113-4651-4e94-9097-3d42a34b2127","system_id":"levelo_inurba_marseille","lat":43.30085,"lon":5.390856,"is_reserved":false,"is_disabled":false,"rental_uris":{"android":"levelo://app?vid=fa0e0113-4651-4e94-9097-3d42a34b2127","ios":"levelo://app?vid=fa0e0113-4651-4e94-9097-3d42a34b2127"},"vehicle_type_id":"4","last_reported":1724188102,"current_range_meters":6800,"station_id":"ce4bh192rcd13ifvqdb0","pricing_plan_id":"cebpf4jnsgd1na2vs0mg"},{"bike_id":"8af2cb4f-f4b7-424e-a573-6c04436f0f23","system_id":"levelo_inurba_marseille","lat":43.30085,"lon":5.390856,"is_reserved":false,"is_disabled":false,"rental_uris":{"android":"levelo://app?vid=8af2cb4f-f4b7-424e-a573-6c04436f0f23","ios":"levelo://app?vid=8af2cb4f-f4b7-424e-a573-6c04436f0f23"},"vehicle_type_id":"4","last_reported":1724188102,"current_range_meters":4800,"station_id":"ce4bh192rcd13ifvqdb0","pricing_plan_id":"cebpf4jnsgd1na2vs0mg"},{"bike_id":"78ed2c11-416e-48c6-99e4-b3ee4a6960ee","system_id":"levelo_inurba_marseille","lat":43.30085,"lon":5.390856,"is_reserved":false,"is_disabled":false,"rental_uris":{"android":"levelo://app?vid=78ed2c11-416e-48c6-99e4-b3ee4a6960ee","ios":"levelo://app?vid=78ed2c11-416e-48c6-99e4-b3ee4a6960ee"},"vehicle_type_id":"4","last_reported":1724188102,"current_range_meters":21600,"station_id":"ce4bh192rcd13ifvqdb0","pricing_plan_id":"cebpf4jnsgd1na2vs0mg"},{"bike_id":"78b97119-7e85-4ebe-8fcf-300cc5f06717","system_id":"levelo_inurba_marseille","lat":43.298764,"lon":5.388973,"is_reserved":false,"is_disabled":false,"rental_uris":{"android":"levelo://app?vid=78b97119-7e85-4ebe-8fcf-300cc5f06717","ios":"levelo://app?vid=78b97119-7e85-4ebe-8fcf-300cc5f06717"},"vehicle_type_id":"4","last_reported":1724188102,"current_range_meters":25200,"station_id":"ce4bh392rcd13ifvqdl0","pricing_plan_id":"cebpf4jnsgd1na2vs0mg"},{"bike_id":"f7d5c580-02ba-42a7-aabd-e6e06c398498","system_id":"levelo_inurba_marseille","lat":43.313639,"lon":5.396007,"is_reserved":false,"is_disabled":false,"rental_uris":{"android":"levelo://app?vid=f7d5c580-02ba-42a7-aabd-e6e06c398498","ios":"levelo://app?vid=f7d5c580-02ba-42a7-aabd-e6e06c398498"},"vehicle_type_id":"4","last_reported":1724188102,"current_range_meters":18400,"station_id":"","pricing_plan_id":"cebpf4jnsgd1na2vs0mg"},{"bike_id":"d0cf4efc-522f-4b24-b61a-a59045323ffb","system_id":"levelo_inurba_marseille","lat":43.298764,"lon":5.388973,"is_reserved":false,"is_disabled":false,"rental_uris":{"android":"levelo://app?vid=d0cf4efc-522f-4b24-b61a-a59045323ffb","ios":"levelo://app?vid=d0cf4efc-522f-4b24-b61a-a59045323ffb"},"vehicle_type_id":"4","last_reported":1724188102,"current_range_meters":26000,"station_id":"ce4bh392rcd13ifvqdl0","pricing_plan_id":"cebpf4jnsgd1na2vs0mg"},{"bike_id":"4751a908-f01e-4336-a1e6-b595962efcd1","system_id":"levelo_inurba_marseille","lat":43.298764,"lon":5.388973,"is_reserved":false,"is_disabled":false,"rental_uris":{"android":"levelo://app?vid=4751a908-f01e-4336-a1e6-b595962efcd1","ios":"levelo://app?vid=4751a908-f01e-4336-a1e6-b595962efcd1"},"vehicle_type_id":"4","last_reported":1724188102,"current_range_meters":30400,"station_id":"ce4bh392rcd13ifvqdl0","pricing_plan_id":"cebpf4jnsgd1na2vs0mg"},{"bike_id":"671ce850-e2db-40df-a898-75ecf8d415a4","system_id":"levelo_inurba_marseille","lat":43.298764,"lon":5.388973,"is_reserved":false,"is_disabled":false,"rental_uris":{"android":"levelo://app?vid=671ce850-e2db-40df-a898-75ecf8d415a4","ios":"levelo://app?vid=671ce850-e2db-40df-a898-75ecf8d415a4"},"vehicle_type_id":"4","last_reported":1724188102,"current_range_meters":5200,"station_id":"ce4bh392rcd13ifvqdl0","pricing_plan_id":"cebpf4jnsgd1na2vs0mg"},{"bike_id":"cd49750b-ee96-45cb-b093-ef618412f39d","system_id":"levelo_inurba_marseille","lat":43.309038,"lon":5.396546,"is_reserved":false,"is_disabled":false,"rental_uris":{"android":"levelo://app?vid=cd49750b-ee96-45cb-b093-ef618412f39d","ios":"levelo://app?vid=cd49750b-ee96-45cb-b093-ef618412f39d"},"vehicle_type_id":"4","last_reported":1724188102,"current_range_meters":23600,"station_id":"ce4bh012rcd13ifvqcv0","pricing_plan_id":"cebpf4jnsgd1na2vs0mg"},{"bike_id":"92e5fca5-97ed-42db-ab80-c3878b62dc45","system_id":"levelo_inurba_marseille","lat":43.30883,"lon":5.39633,"is_reserved":false,"is_disabled":false,"rental_uris":{"android":"levelo://app?vid=92e5fca5-97ed-42db-ab80-c3878b62dc45","ios":"levelo://app?vid=92e5fca5-97ed-42db-ab80-c3878b62dc45"},"vehicle_type_id":"4","last_reported":1724188102,"current_range_meters":31200,"station_id":"ce4bh012rcd13ifvqcv0","pricing_plan_id":"cebpf4jnsgd1na2vs0mg"},{"bike_id":"9d9bdc37-1c32-4364-86c2-adbd7bffb4bf","system_id":"levelo_inurba_marseille","lat":43.30882,"lon":5.39633,"is_reserved":false,"is_disabled":false,"rental_uris":{"android":"levelo://app?vid=9d9bdc37-1c32-4364-86c2-adbd7bffb4bf","ios":"levelo://app?vid=9d9bdc37-1c32-4364-86c2-adbd7bffb4bf"},"vehicle_type_id":"4","last_reported":1724188102,"current_range_meters":27600,"station_id":"ce4bh012rcd13ifvqcv0","pricing_plan_id":"cebpf4jnsgd1na2vs0mg"},{"bike_id":"037e8150-f4d2-45c2-aad6-92b9cdbfa645","system_id":"levelo_inurba_marseille","lat":43.309047,"lon":5.396551,"is_reserved":false,"is_disabled":false,"rental_uris":{"android":"levelo://app?vid=037e8150-f4d2-45c2-aad6-92b9cdbfa645","ios":"levelo://app?vid=037e8150-f4d2-45c2-aad6-92b9cdbfa645"},"vehicle_type_id":"4","last_reported":1724188102,"current_range_meters":31200,"station_id":"ce4bh012rcd13ifvqcv0","pricing_plan_id":"cebpf4jnsgd1na2vs0mg"},{"bike_id":"728215ad-16e6-40ec-848c-7f0fbcf800c2","system_id":"levelo_inurba_marseille","lat":43.30877,"lon":5.39637,"is_reserved":false,"is_disabled":false,"rental_uris":{"android":"levelo://app?vid=728215ad-16e6-40ec-848c-7f0fbcf800c2","ios":"levelo://app?vid=728215ad-16e6-40ec-848c-7f0fbcf800c2"},"vehicle_type_id":"4","last_reported":1724188102,"current_range_meters":24400,"station_id":"ce4bh012rcd13ifvqcv0","pricing_plan_id":"cebpf4jnsgd1na2vs0mg"},{"bike_id":"39ad501b-4e2a-444e-9203-f85299f050a5","system_id":"levelo_inurba_marseille","lat":43.308828,"lon":5.396394,"is_reserved":false,"is_disabled":false,"rental_uris":{"android":"levelo://app?vid=39ad501b-4e2a-444e-9203-f85299f050a5","ios":"levelo://app?vid=39ad501b-4e2a-444e-9203-f85299f050a5"},"vehicle_type_id":"4","last_reported":1724188102,"current_range_meters":6800,"station_id":"ce4bh012rcd13ifvqcv0","pricing_plan_id":"cebpf4jnsgd1na2vs0mg"},{"bike_id":"f7e8fbfc-e8fa-4650-ae8b-6f835d46b658","system_id":"levelo_inurba_marseille","lat":43.313291,"lon":5.396838,"is_reserved":false,"is_disabled":false,"rental_uris":{"android":"levelo://app?vid=f7e8fbfc-e8fa-4650-ae8b-6f835d46b658","ios":"levelo://app?vid=f7e8fbfc-e8fa-4650-ae8b-6f835d46b658"},"vehicle_type_id":"4","last_reported":1724188102,"current_range_meters":24400,"station_id":"ce4bgvp2rcd13ifvqcu0","pricing_plan_id":"cebpf4jnsgd1na2vs0mg"},{"bike_id":"752573e1-c10c-48f9-b4ca-ae5944955254","system_id":"levelo_inurba_marseille","lat":43.31327,"lon":5.39691,"is_reserved":false,"is_disabled":false,"rental_uris":{"android":"levelo://app?vid=752573e1-c10c-48f9-b4ca-ae5944955254","ios":"levelo://app?vid=752573e1-c10c-48f9-b4ca-ae5944955254"},"vehicle_type_id":"4","last_reported":1724188102,"current_range_meters":9200,"station_id":"ce4bgvp2rcd13ifvqcu0","pricing_plan_id":"cebpf4jnsgd1na2vs0mg"},{"bike_id":"22e0b657-0313-4220-b944-e7cb1a5c4374","system_id":"levelo_inurba_marseille","lat":43.313291,"lon":5.396838,"is_reserved":false,"is_disabled":false,"rental_uris":{"android":"levelo://app?vid=22e0b657-0313-4220-b944-e7cb1a5c4374","ios":"levelo://app?vid=22e0b657-0313-4220-b944-e7cb1a5c4374"},"vehicle_type_id":"4","last_reported":1724188102,"current_range_meters":7200,"station_id":"ce4bgvp2rcd13ifvqcu0","pricing_plan_id":"cebpf4jnsgd1na2vs0mg"},{"bike_id":"37d25c77-c9b9-4ff9-822a-987818e722e6","system_id":"levelo_inurba_marseille","lat":43.30881,"lon":5.39646,"is_reserved":false,"is_disabled":false,"rental_uris":{"android":"levelo://app?vid=37d25c77-c9b9-4ff9-822a-987818e722e6","ios":"levelo://app?vid=37d25c77-c9b9-4ff9-822a-987818e722e6"},"vehicle_type_id":"4","last_reported":1724188102,"current_range_meters":18000,"station_id":"ce4bh012rcd13ifvqcv0","pricing_plan_id":"cebpf4jnsgd1na2vs0mg"},{"bike_id":"50210e03-5c4d-4cf7-9386-4d5f4b77f1e6","system_id":"levelo_inurba_marseille","lat":43.308793,"lon":5.396467,"is_reserved":false,"is_disabled":false,"rental_uris":{"android":"levelo://app?vid=50210e03-5c4d-4cf7-9386-4d5f4b77f1e6","ios":"levelo://app?vid=50210e03-5c4d-4cf7-9386-4d5f4b77f1e6"},"vehicle_type_id":"4","last_reported":1724188102,"current_range_meters":12800,"station_id":"ce4bh012rcd13ifvqcv0","pricing_plan_id":"cebpf4jnsgd1na2vs0mg"},{"bike_id":"b0f21591-874f-4dc6-a194-17b545d1cc94","system_id":"levelo_inurba_marseille","lat":43.31326,"lon":5.39696,"is_reserved":false,"is_disabled":false,"rental_uris":{"android":"levelo://app?vid=b0f21591-874f-4dc6-a194-17b545d1cc94","ios":"levelo://app?vid=b0f21591-874f-4dc6-a194-17b545d1cc94"},"vehicle_type_id":"4","last_reported":1724188102,"current_range_meters":15200,"station_id":"ce4bgvp2rcd13ifvqcu0","pricing_plan_id":"cebpf4jnsgd1na2vs0mg"},{"bike_id":"e217995f-8ea2-44b3-b0e9-c8ff76ff96cc","system_id":"levelo_inurba_marseille","lat":43.308808,"lon":5.39648,"is_reserved":false,"is_disabled":false,"rental_uris":{"android":"levelo://app?vid=e217995f-8ea2-44b3-b0e9-c8ff76ff96cc","ios":"levelo://app?vid=e217995f-8ea2-44b3-b0e9-c8ff76ff96cc"},"vehicle_type_id":"4","last_reported":1724188102,"current_range_meters":25600,"station_id":"ce4bh012rcd13ifvqcv0","pricing_plan_id":"cebpf4jnsgd1na2vs0mg"},{"bike_id":"066fb531-298f-4cec-bd0e-1d4ec4b3b3c7","system_id":"levelo_inurba_marseille","lat":43.3133,"lon":5.39697,"is_reserved":false,"is_disabled":false,"rental_uris":{"android":"levelo://app?vid=066fb531-298f-4cec-bd0e-1d4ec4b3b3c7","ios":"levelo://app?vid=066fb531-298f-4cec-bd0e-1d4ec4b3b3c7"},"vehicle_type_id":"4","last_reported":1724188102,"current_range_meters":12000,"station_id":"ce4bgvp2rcd13ifvqcu0","pricing_plan_id":"cebpf4jnsgd1na2vs0mg"},{"bike_id":"b57f2251-b145-47d6-af88-def0b9acb51a","system_id":"levelo_inurba_marseille","lat":43.309047,"lon":5.396551,"is_reserved":false,"is_disabled":false,"rental_uris":{"android":"levelo://app?vid=b57f2251-b145-47d6-af88-def0b9acb51a","ios":"levelo://app?vid=b57f2251-b145-47d6-af88-def0b9acb51a"},"vehicle_type_id":"4","last_reported":1724188102,"current_range_meters":11200,"station_id":"ce4bh012rcd13ifvqcv0","pricing_plan_id":"cebpf4jnsgd1na2vs0mg"},{"bike_id":"db750a4c-cf54-462e-9dfd-75aa192fd206","system_id":"levelo_inurba_marseille","lat":43.31325,"lon":5.39698,"is_reserved":false,"is_disabled":false,"rental_uris":{"android":"levelo://app?vid=db750a4c-cf54-462e-9dfd-75aa192fd206","ios":"levelo://app?vid=db750a4c-cf54-462e-9dfd-75aa192fd206"},"vehicle_type_id":"4","last_reported":1724188102,"current_range_meters":10000,"station_id":"ce4bgvp2rcd13ifvqcu0","pricing_plan_id":"cebpf4jnsgd1na2vs0mg"},{"bike_id":"3e033e52-e5c6-4571-b496-11f76821f8c2","system_id":"levelo_inurba_marseille","lat":43.31328,"lon":5.39698,"is_reserved":false,"is_disabled":false,"rental_uris":{"android":"levelo://app?vid=3e033e52-e5c6-4571-b496-11f76821f8c2","ios":"levelo://app?vid=3e033e52-e5c6-4571-b496-11f76821f8c2"},"vehicle_type_id":"4","last_reported":1724188102,"current_range_meters":18800,"station_id":"ce4bgvp2rcd13ifvqcu0","pricing_plan_id":"cebpf4jnsgd1na2vs0mg"},{"bike_id":"ecc476b5-78e5-4ed0-88e6-b8666362792f","system_id":"levelo_inurba_marseille","lat":43.30884,"lon":5.39655,"is_reserved":false,"is_disabled":false,"rental_uris":{"android":"levelo://app?vid=ecc476b5-78e5-4ed0-88e6-b8666362792f","ios":"levelo://app?vid=ecc476b5-78e5-4ed0-88e6-b8666362792f"},"vehicle_type_id":"4","last_reported":1724188102,"current_range_meters":24400,"station_id":"ce4bh012rcd13ifvqcv0","pricing_plan_id":"cebpf4jnsgd1na2vs0mg"},{"bike_id":"cf4522d6-0535-48ba-9d4f-b0ff3630441f","system_id":"levelo_inurba_marseille","lat":43.308708,"lon":5.39652,"is_reserved":false,"is_disabled":false,"rental_uris":{"android":"levelo://app?vid=cf4522d6-0535-48ba-9d4f-b0ff3630441f","ios":"levelo://app?vid=cf4522d6-0535-48ba-9d4f-b0ff3630441f"},"vehicle_type_id":"4","last_reported":1724188102,"current_range_meters":17200,"station_id":"","pricing_plan_id":"cebpf4jnsgd1na2vs0mg"},{"bike_id":"6cf85575-8700-4e6a-913a-9d8d942ad76b","system_id":"levelo_inurba_marseille","lat":43.313291,"lon":5.396838,"is_reserved":false,"is_disabled":false,"rental_uris":{"android":"levelo://app?vid=6cf85575-8700-4e6a-913a-9d8d942ad76b","ios":"levelo://app?vid=6cf85575-8700-4e6a-913a-9d8d942ad76b"},"vehicle_type_id":"4","last_reported":1724188102,"current_range_meters":23600,"station_id":"ce4bgvp2rcd13ifvqcu0","pricing_plan_id":"cebpf4jnsgd1na2vs0mg"},{"bike_id":"1d8a87ff-6a62-45b4-866a-44e1d9e15f5e","system_id":"levelo_inurba_marseille","lat":43.30887,"lon":5.39659,"is_reserved":false,"is_disabled":false,"rental_uris":{"android":"levelo://app?vid=1d8a87ff-6a62-45b4-866a-44e1d9e15f5e","ios":"levelo://app?vid=1d8a87ff-6a62-45b4-866a-44e1d9e15f5e"},"vehicle_type_id":"4","last_reported":1724188102,"current_range_meters":28400,"station_id":"ce4bh012rcd13ifvqcv0","pricing_plan_id":"cebpf4jnsgd1na2vs0mg"},{"bike_id":"5d1999cc-af1f-4365-a9fc-017c4b56df5a","system_id":"levelo_inurba_marseille","lat":43.29529,"lon":5.385581,"is_reserved":false,"is_disabled":false,"rental_uris":{"android":"levelo://app?vid=5d1999cc-af1f-4365-a9fc-017c4b56df5a","ios":"levelo://app?vid=5d1999cc-af1f-4365-a9fc-017c4b56df5a"},"vehicle_type_id":"4","last_reported":1724188102,"current_range_meters":30800,"station_id":"ce4bgih2rcd13ifvqba0","pricing_plan_id":"cebpf4jnsgd1na2vs0mg"},{"bike_id":"1ecd1aeb-49c4-4f82-b096-8ab605c2768b","system_id":"levelo_inurba_marseille","lat":43.29539,"lon":5.38544,"is_reserved":false,"is_disabled":false,"rental_uris":{"android":"levelo://app?vid=1ecd1aeb-49c4-4f82-b096-8ab605c2768b","ios":"levelo://app?vid=1ecd1aeb-49c4-4f82-b096-8ab605c2768b"},"vehicle_type_id":"4","last_reported":1724188102,"current_range_meters":24800,"station_id":"ce4bgih2rcd13ifvqba0","pricing_plan_id":"cebpf4jnsgd1na2vs0mg"},{"bike_id":"11104bdc-e7cb-4967-a25b-9aa780dba493","system_id":"levelo_inurba_marseille","lat":43.29536,"lon":5.38539,"is_reserved":false,"is_disabled":false,"rental_uris":{"android":"levelo://app?vid=11104bdc-e7cb-4967-a25b-9aa780dba493","ios":"levelo://app?vid=11104bdc-e7cb-4967-a25b-9aa780dba493"},"vehicle_type_id":"4","last_reported":1724188102,"current_range_meters":14400,"station_id":"ce4bgih2rcd13ifvqba0","pricing_plan_id":"cebpf4jnsgd1na2vs0mg"},{"bike_id":"9e11f451-479c-417e-be0d-a57ad4651a37","system_id":"levelo_inurba_marseille","lat":43.295355,"lon":5.385385,"is_reserved":false,"is_disabled":false,"rental_uris":{"android":"levelo://app?vid=9e11f451-479c-417e-be0d-a57ad4651a37","ios":"levelo://app?vid=9e11f451-479c-417e-be0d-a57ad4651a37"},"vehicle_type_id":"4","last_reported":1724188102,"current_range_meters":31200,"station_id":"ce4bgih2rcd13ifvqba0","pricing_plan_id":"cebpf4jnsgd1na2vs0mg"},{"bike_id":"1f29d41f-fd57-49d1-a37a-e4e458e1dd36","system_id":"levelo_inurba_marseille","lat":43.309047,"lon":5.396551,"is_reserved":false,"is_disabled":false,"rental_uris":{"android":"levelo://app?vid=1f29d41f-fd57-49d1-a37a-e4e458e1dd36","ios":"levelo://app?vid=1f29d41f-fd57-49d1-a37a-e4e458e1dd36"},"vehicle_type_id":"4","last_reported":1724188102,"current_range_meters":12000,"station_id":"ce4bh012rcd13ifvqcv0","pricing_plan_id":"cebpf4jnsgd1na2vs0mg"},{"bike_id":"93fca5a7-e4c4-48ab-91bc-b388686b7391","system_id":"levelo_inurba_marseille","lat":43.29529,"lon":5.385581,"is_reserved":false,"is_disabled":false,"rental_uris":{"android":"levelo://app?vid=93fca5a7-e4c4-48ab-91bc-b388686b7391","ios":"levelo://app?vid=93fca5a7-e4c4-48ab-91bc-b388686b7391"},"vehicle_type_id":"4","last_reported":1724188102,"current_range_meters":31200,"station_id":"ce4bgih2rcd13ifvqba0","pricing_plan_id":"cebpf4jnsgd1na2vs0mg"},{"bike_id":"a2af4794-90f8-4e5d-bff5-13787dadde5d","system_id":"levelo_inurba_marseille","lat":43.29529,"lon":5.385581,"is_reserved":false,"is_disabled":false,"rental_uris":{"android":"levelo://app?vid=a2af4794-90f8-4e5d-bff5-13787dadde5d","ios":"levelo://app?vid=a2af4794-90f8-4e5d-bff5-13787dadde5d"},"vehicle_type_id":"4","last_reported":1724188102,"current_range_meters":32000,"station_id":"ce4bgih2rcd13ifvqba0","pricing_plan_id":"cebpf4jnsgd1na2vs0mg"},{"bike_id":"c2e40478-4b1e-46d5-acd9-4dbd0d0f4679","system_id":"levelo_inurba_marseille","lat":43.29529,"lon":5.385581,"is_reserved":false,"is_disabled":false,"rental_uris":{"android":"levelo://app?vid=c2e40478-4b1e-46d5-acd9-4dbd0d0f4679","ios":"levelo://app?vid=c2e40478-4b1e-46d5-acd9-4dbd0d0f4679"},"vehicle_type_id":"4","last_reported":1724188102,"current_range_meters":20400,"station_id":"ce4bgih2rcd13ifvqba0","pricing_plan_id":"cebpf4jnsgd1na2vs0mg"},{"bike_id":"910e0885-011a-46c5-9c2f-35badc29bbc4","system_id":"levelo_inurba_marseille","lat":43.29529,"lon":5.385581,"is_reserved":false,"is_disabled":false,"rental_uris":{"android":"levelo://app?vid=910e0885-011a-46c5-9c2f-35badc29bbc4","ios":"levelo://app?vid=910e0885-011a-46c5-9c2f-35badc29bbc4"},"vehicle_type_id":"4","last_reported":1724188102,"current_range_meters":31600,"station_id":"ce4bgih2rcd13ifvqba0","pricing_plan_id":"cebpf4jnsgd1na2vs0mg"},{"bike_id":"0675ab5e-0c31-488e-bb91-6aabd5941c49","system_id":"levelo_inurba_marseille","lat":43.29533,"lon":5.38544,"is_reserved":false,"is_disabled":false,"rental_uris":{"android":"levelo://app?vid=0675ab5e-0c31-488e-bb91-6aabd5941c49","ios":"levelo://app?vid=0675ab5e-0c31-488e-bb91-6aabd5941c49"},"vehicle_type_id":"4","last_reported":1724188102,"current_range_meters":21200,"station_id":"ce4bgih2rcd13ifvqba0","pricing_plan_id":"cebpf4jnsgd1na2vs0mg"},{"bike_id":"c68ca823-2bcb-4fa4-9c35-951a32c436fb","system_id":"levelo_inurba_marseille","lat":43.29535,"lon":5.38548,"is_reserved":false,"is_disabled":false,"rental_uris":{"android":"levelo://app?vid=c68ca823-2bcb-4fa4-9c35-951a32c436fb","ios":"levelo://app?vid=c68ca823-2bcb-4fa4-9c35-951a32c436fb"},"vehicle_type_id":"4","last_reported":1724188102,"current_range_meters":11600,"station_id":"ce4bgih2rcd13ifvqba0","pricing_plan_id":"cebpf4jnsgd1na2vs0mg"},{"bike_id":"02657829-8a0a-477e-9397-b0fb1df3ccd5","system_id":"levelo_inurba_marseille","lat":43.29529,"lon":5.385581,"is_reserved":false,"is_disabled":false,"rental_uris":{"android":"levelo://app?vid=02657829-8a0a-477e-9397-b0fb1df3ccd5","ios":"levelo://app?vid=02657829-8a0a-477e-9397-b0fb1df3ccd5"},"vehicle_type_id":"4","last_reported":1724188102,"current_range_meters":18000,"station_id":"ce4bgih2rcd13ifvqba0","pricing_plan_id":"cebpf4jnsgd1na2vs0mg"},{"bike_id":"c4d46c83-8b68-4902-82e0-7c92dc408eb7","system_id":"levelo_inurba_marseille","lat":43.29529,"lon":5.385581,"is_reserved":false,"is_disabled":false,"rental_uris":{"android":"levelo://app?vid=c4d46c83-8b68-4902-82e0-7c92dc408eb7","ios":"levelo://app?vid=c4d46c83-8b68-4902-82e0-7c92dc408eb7"},"vehicle_type_id":"4","last_reported":1724188102,"current_range_meters":26000,"station_id":"ce4bgih2rcd13ifvqba0","pricing_plan_id":"cebpf4jnsgd1na2vs0mg"},{"bike_id":"cba5894f-315c-4590-9ad1-0bf75b63b896","system_id":"levelo_inurba_marseille","lat":43.29531,"lon":5.38543,"is_reserved":false,"is_disabled":false,"rental_uris":{"android":"levelo://app?vid=cba5894f-315c-4590-9ad1-0bf75b63b896","ios":"levelo://app?vid=cba5894f-315c-4590-9ad1-0bf75b63b896"},"vehicle_type_id":"4","last_reported":1724188102,"current_range_meters":28400,"station_id":"ce4bgih2rcd13ifvqba0","pricing_plan_id":"cebpf4jnsgd1na2vs0mg"},{"bike_id":"eef31e06-ca7c-4677-9708-7157cc472d0d","system_id":"levelo_inurba_marseille","lat":43.29529,"lon":5.385581,"is_reserved":false,"is_disabled":false,"rental_uris":{"android":"levelo://app?vid=eef31e06-ca7c-4677-9708-7157cc472d0d","ios":"levelo://app?vid=eef31e06-ca7c-4677-9708-7157cc472d0d"},"vehicle_type_id":"4","last_reported":1724188102,"current_range_meters":29200,"station_id":"ce4bgih2rcd13ifvqba0","pricing_plan_id":"cebpf4jnsgd1na2vs0mg"},{"bike_id":"e1fbcf16-6514-4992-a935-9b9cbb4f8ce4","system_id":"levelo_inurba_marseille","lat":43.29529,"lon":5.385581,"is_reserved":false,"is_disabled":false,"rental_uris":{"android":"levelo://app?vid=e1fbcf16-6514-4992-a935-9b9cbb4f8ce4","ios":"levelo://app?vid=e1fbcf16-6514-4992-a935-9b9cbb4f8ce4"},"vehicle_type_id":"4","last_reported":1724188102,"current_range_meters":27200,"station_id":"ce4bgih2rcd13ifvqba0","pricing_plan_id":"cebpf4jnsgd1na2vs0mg"},{"bike_id":"40c1feac-6139-4b42-aad3-c510de972fad","system_id":"levelo_inurba_marseille","lat":43.29529,"lon":5.385581,"is_reserved":false,"is_disabled":false,"rental_uris":{"android":"levelo://app?vid=40c1feac-6139-4b42-aad3-c510de972fad","ios":"levelo://app?vid=40c1feac-6139-4b42-aad3-c510de972fad"},"vehicle_type_id":"4","last_reported":1724188102,"current_range_meters":31600,"station_id":"ce4bgih2rcd13ifvqba0","pricing_plan_id":"cebpf4jnsgd1na2vs0mg"},{"bike_id":"49f2a2ca-b026-4fd3-85f6-63c0ff1657fe","system_id":"levelo_inurba_marseille","lat":43.29529,"lon":5.38545,"is_reserved":false,"is_disabled":false,"rental_uris":{"android":"levelo://app?vid=49f2a2ca-b026-4fd3-85f6-63c0ff1657fe","ios":"levelo://app?vid=49f2a2ca-b026-4fd3-85f6-63c0ff1657fe"},"vehicle_type_id":"4","last_reported":1724188102,"current_range_meters":800,"station_id":"ce4bgih2rcd13ifvqba0","pricing_plan_id":"cebpf4jnsgd1na2vs0mg"},{"bike_id":"c3786d57-6644-4542-a6a8-6749d5ada35f","system_id":"levelo_inurba_marseille","lat":43.29529,"lon":5.385581,"is_reserved":false,"is_disabled":false,"rental_uris":{"android":"levelo://app?vid=c3786d57-6644-4542-a6a8-6749d5ada35f","ios":"levelo://app?vid=c3786d57-6644-4542-a6a8-6749d5ada35f"},"vehicle_type_id":"4","last_reported":1724188102,"current_range_meters":28800,"station_id":"ce4bgih2rcd13ifvqba0","pricing_plan_id":"cebpf4jnsgd1na2vs0mg"},{"bike_id":"d7ecf0d9-4b54-4124-9994-42fbceff89ff","system_id":"levelo_inurba_marseille","lat":43.29526,"lon":5.3854,"is_reserved":false,"is_disabled":false,"rental_uris":{"android":"levelo://app?vid=d7ecf0d9-4b54-4124-9994-42fbceff89ff","ios":"levelo://app?vid=d7ecf0d9-4b54-4124-9994-42fbceff89ff"},"vehicle_type_id":"4","last_reported":1724188102,"current_range_meters":20000,"station_id":"ce4bgih2rcd13ifvqba0","pricing_plan_id":"cebpf4jnsgd1na2vs0mg"},{"bike_id":"cbc8703f-863e-4d07-888e-9157e1b7cd37","system_id":"levelo_inurba_marseille","lat":43.29529,"lon":5.385455,"is_reserved":false,"is_disabled":false,"rental_uris":{"android":"levelo://app?vid=cbc8703f-863e-4d07-888e-9157e1b7cd37","ios":"levelo://app?vid=cbc8703f-863e-4d07-888e-9157e1b7cd37"},"vehicle_type_id":"4","last_reported":1724188102,"current_range_meters":10800,"station_id":"ce4bgih2rcd13ifvqba0","pricing_plan_id":"cebpf4jnsgd1na2vs0mg"},{"bike_id":"96c2a947-93c0-41a4-86d2-168c77b5f770","system_id":"levelo_inurba_marseille","lat":43.29529,"lon":5.38549,"is_reserved":false,"is_disabled":false,"rental_uris":{"android":"levelo://app?vid=96c2a947-93c0-41a4-86d2-168c77b5f770","ios":"levelo://app?vid=96c2a947-93c0-41a4-86d2-168c77b5f770"},"vehicle_type_id":"4","last_reported":1724188102,"current_range_meters":31200,"station_id":"ce4bgih2rcd13ifvqba0","pricing_plan_id":"cebpf4jnsgd1na2vs0mg"},{"bike_id":"f6518c9b-b76c-4ca7-8829-db11826d1e1f","system_id":"levelo_inurba_marseille","lat":43.29528,"lon":5.38554,"is_reserved":false,"is_disabled":false,"rental_uris":{"android":"levelo://app?vid=f6518c9b-b76c-4ca7-8829-db11826d1e1f","ios":"levelo://app?vid=f6518c9b-b76c-4ca7-8829-db11826d1e1f"},"vehicle_type_id":"4","last_reported":1724188102,"current_range_meters":3200,"station_id":"ce4bgih2rcd13ifvqba0","pricing_plan_id":"cebpf4jnsgd1na2vs0mg"},{"bike_id":"7868f60b-5a78-4528-973a-fe54386e1329","system_id":"levelo_inurba_marseille","lat":43.29528,"lon":5.38555,"is_reserved":false,"is_disabled":false,"rental_uris":{"android":"levelo://app?vid=7868f60b-5a78-4528-973a-fe54386e1329","ios":"levelo://app?vid=7868f60b-5a78-4528-973a-fe54386e1329"},"vehicle_type_id":"4","last_reported":1724188102,"current_range_meters":400,"station_id":"ce4bgih2rcd13ifvqba0","pricing_plan_id":"cebpf4jnsgd1na2vs0mg"},{"bike_id":"e00c30e1-b20c-48e8-9c87-9471b102ddb5","system_id":"levelo_inurba_marseille","lat":43.29526,"lon":5.38553,"is_reserved":false,"is_disabled":false,"rental_uris":{"android":"levelo://app?vid=e00c30e1-b20c-48e8-9c87-9471b102ddb5","ios":"levelo://app?vid=e00c30e1-b20c-48e8-9c87-9471b102ddb5"},"vehicle_type_id":"4","last_reported":1724188102,"current_range_meters":31200,"station_id":"ce4bgih2rcd13ifvqba0","pricing_plan_id":"cebpf4jnsgd1na2vs0mg"},{"bike_id":"e5f470d9-d6c5-41ad-b89b-76c36ef5c658","system_id":"levelo_inurba_marseille","lat":43.332458,"lon":5.380676,"is_reserved":false,"is_disabled":false,"rental_uris":{"android":"levelo://app?vid=e5f470d9-d6c5-41ad-b89b-76c36ef5c658","ios":"levelo://app?vid=e5f470d9-d6c5-41ad-b89b-76c36ef5c658"},"vehicle_type_id":"4","last_reported":1724188102,"current_range_meters":13200,"station_id":"","pricing_plan_id":"cebpf4jnsgd1na2vs0mg"},{"bike_id":"1c51c65b-bd17-4bdc-8551-98772ff50972","system_id":"levelo_inurba_marseille","lat":43.293116,"lon":5.381202,"is_reserved":false,"is_disabled":false,"rental_uris":{"android":"levelo://app?vid=1c51c65b-bd17-4bdc-8551-98772ff50972","ios":"levelo://app?vid=1c51c65b-bd17-4bdc-8551-98772ff50972"},"vehicle_type_id":"4","last_reported":1724188102,"current_range_meters":31200,"station_id":"","pricing_plan_id":"cebpf4jnsgd1na2vs0mg"},{"bike_id":"18963c77-a287-41ac-86f1-bdc9b77d232a","system_id":"levelo_inurba_marseille","lat":43.290779,"lon":5.371482,"is_reserved":false,"is_disabled":false,"rental_uris":{"android":"levelo://app?vid=18963c77-a287-41ac-86f1-bdc9b77d232a","ios":"levelo://app?vid=18963c77-a287-41ac-86f1-bdc9b77d232a"},"vehicle_type_id":"4","last_reported":1724188102,"current_range_meters":18000,"station_id":"ce4bh5p2rcd13ifvqe4g","pricing_plan_id":"cebpf4jnsgd1na2vs0mg"},{"bike_id":"54aab921-7693-43ca-ab1c-08ba598b55ac","system_id":"levelo_inurba_marseille","lat":43.302008,"lon":5.394694,"is_reserved":false,"is_disabled":false,"rental_uris":{"android":"levelo://app?vid=54aab921-7693-43ca-ab1c-08ba598b55ac","ios":"levelo://app?vid=54aab921-7693-43ca-ab1c-08ba598b55ac"},"vehicle_type_id":"4","last_reported":1724188102,"current_range_meters":28400,"station_id":"ce4bh0p2rcd13ifvqd70","pricing_plan_id":"cebpf4jnsgd1na2vs0mg"},{"bike_id":"739a4b9e-6166-4c9c-b52d-b4359f3d4c2b","system_id":"levelo_inurba_marseille","lat":43.302008,"lon":5.394694,"is_reserved":false,"is_disabled":false,"rental_uris":{"android":"levelo://app?vid=739a4b9e-6166-4c9c-b52d-b4359f3d4c2b","ios":"levelo://app?vid=739a4b9e-6166-4c9c-b52d-b4359f3d4c2b"},"vehicle_type_id":"4","last_reported":1724188102,"current_range_meters":0,"station_id":"ce4bh0p2rcd13ifvqd70","pricing_plan_id":"cebpf4jnsgd1na2vs0mg"},{"bike_id":"8199f0b2-ce54-4ff8-ae98-fe2f6e3f2f67","system_id":"levelo_inurba_marseille","lat":43.302008,"lon":5.394694,"is_reserved":false,"is_disabled":false,"rental_uris":{"android":"levelo://app?vid=8199f0b2-ce54-4ff8-ae98-fe2f6e3f2f67","ios":"levelo://app?vid=8199f0b2-ce54-4ff8-ae98-fe2f6e3f2f67"},"vehicle_type_id":"4","last_reported":1724188102,"current_range_meters":0,"station_id":"ce4bh0p2rcd13ifvqd70","pricing_plan_id":"cebpf4jnsgd1na2vs0mg"},{"bike_id":"960d8ef0-5215-44eb-98d5-5df88bf35eab","system_id":"levelo_inurba_marseille","lat":43.302008,"lon":5.394694,"is_reserved":false,"is_disabled":false,"rental_uris":{"android":"levelo://app?vid=960d8ef0-5215-44eb-98d5-5df88bf35eab","ios":"levelo://app?vid=960d8ef0-5215-44eb-98d5-5df88bf35eab"},"vehicle_type_id":"4","last_reported":1724188102,"current_range_meters":30000,"station_id":"ce4bh0p2rcd13ifvqd70","pricing_plan_id":"cebpf4jnsgd1na2vs0mg"},{"bike_id":"19e9cb83-8fe5-4795-a40d-e38e8401040e","system_id":"levelo_inurba_marseille","lat":43.29176,"lon":5.37949,"is_reserved":false,"is_disabled":false,"rental_uris":{"android":"levelo://app?vid=19e9cb83-8fe5-4795-a40d-e38e8401040e","ios":"levelo://app?vid=19e9cb83-8fe5-4795-a40d-e38e8401040e"},"vehicle_type_id":"4","last_reported":1724188102,"current_range_meters":4800,"station_id":"","pricing_plan_id":"cebpf4jnsgd1na2vs0mg"},{"bike_id":"7c066966-e641-48a6-976e-dcd9dd82b126","system_id":"levelo_inurba_marseille","lat":43.29113,"lon":5.35574,"is_reserved":false,"is_disabled":false,"rental_uris":{"android":"levelo://app?vid=7c066966-e641-48a6-976e-dcd9dd82b126","ios":"levelo://app?vid=7c066966-e641-48a6-976e-dcd9dd82b126"},"vehicle_type_id":"4","last_reported":1724188102,"current_range_meters":29600,"station_id":"","pricing_plan_id":"cebpf4jnsgd1na2vs0mg"},{"bike_id":"82452eac-9e0f-47c6-92e0-9426edeb49ec","system_id":"levelo_inurba_marseille","lat":43.294153,"lon":5.386305,"is_reserved":false,"is_disabled":false,"rental_uris":{"android":"levelo://app?vid=82452eac-9e0f-47c6-92e0-9426edeb49ec","ios":"levelo://app?vid=82452eac-9e0f-47c6-92e0-9426edeb49ec"},"vehicle_type_id":"4","last_reported":1724188102,"current_range_meters":28400,"station_id":"ce4bh2h2rcd13ifvqdh0","pricing_plan_id":"cebpf4jnsgd1na2vs0mg"},