{"last_updated":1751051297,"ttl":60,"version":"2.2","data":{"bikes":[{"bike_id":"3da29fb8-fc97-44c6-b9ac-31dd456b2fd4","system_id":"levelo_inurba_marseille","lat":43.33771,"lon":5.37424,"is_reserved":false,"is_disabled":true,"rental_uris":{"android":"levelo://app?vid=3da29fb8-fc97-44c6-b9ac-31dd456b2fd4","ios":"levelo://app?vid=3da29fb8-fc97-44c6-b9ac-31dd456b2fd4"},"vehicle_type_id":"4","last_reported":1751051297,"current_range_meters":0,"station_id":"","pricing_plan_id":"cebpf4jnsgd1na2vs0mg"},{"bike_id":"01861ad8-a8d7-4be6-816e-651927c87584","system_id":"levelo_inurba_marseille","lat":43.33751,"lon":5.37456,"is_reserved":false,"is_disabled":true,"rental_uris":{"android":"levelo://app?vid=01861ad8-a8d7-4be6-816e-651927c87584","ios":"levelo://app?vid=01861ad8-a8d7-4be6-816e-651927c87584"},"vehicle_type_id":"4","last_reported":1751051297,"current_range_meters":0,"station_id":"","pricing_plan_id":"cebpf4jnsgd1na2vs0mg"},{"bike_id":"a147e67d-e0b1-425e-bbda-ae9524df353e","system_id":"levelo_inurba_marseille","lat":43.337541,"lon":5.374577,"is_reserved":false,"is_disabled":true,"rental_uris":{"android":"levelo://app?vid=a147e67d-e0b1-425e-bbda-ae9524df353e","ios":"levelo://app?vid=a147e67d-e0b1-425e-bbda-ae9524df353e"},"vehicle_type_id":"4","last_reported":1751051297,"current_range_meters":0,"station_id":"","pricing_plan_id":"cebpf4jnsgd1na2vs0mg"},{"bike_id":"2c5ab5ef-6e3c-47bf-9405-4e96ff645858","system_id":"levelo_inurba_marseille","lat":43.34022,"lon":5.42917,"is_reserved":false,"is_disabled":true,"rental_uris":{"android":"levelo://app?vid=2c5ab5ef-6e3c-47bf-9405-4e96ff645858","ios":"levelo://app?vid=2c5ab5ef-6e3c-47bf-9405-4e96ff645858"},"vehicle_type_id":"4","last_reported":1751051297,"current_range_meters":0,"station_id":"","pricing_plan_id":"cebpf4jnsgd1na2vs0mg"},{"bike_id":"67a5051a-b32e-408a-8389-c22b54eb81f6","system_id":"levelo_inurba_marseille","lat":43.33044,"lon":5.45604,"is_reserved":false,"is_disabled":true,"rental_uris":{"android":"levelo://app?vid=67a5051a-b32e-408a-8389-c22b54eb81f6","ios":"levelo://app?vid=67a5051a-b32e-408a-8389-c22b54eb81f6"},"vehicle_type_id":"4","last_reported":1751051297,"current_range_meters":0,"station_id":"","pricing_plan_id":"cebpf4jnsgd1na2vs0mg"},{"bike_id":"4d064f95-6dcb-4234-9e98-7c70fbb74351","system_id":"levelo_inurba_marseille","lat":43.337444,"lon":5.374475,"is_reserved":false,"is_disabled":true,"rental_uris":{"android":"levelo://app?vid=4d064f95-6dcb-4234-9e98-7c70fbb74351","ios":"levelo://app?vid=4d064f95-6dcb-4234-9e98-7c70fbb74351"},"vehicle_type_id":"4","last_reported":1751051297,"current_range_meters":0,"station_id":"","pricing_plan_id":"cebpf4jnsgd1na2vs0mg"},{"bike_id":"446c66be-a677-44c2-9116-79a23398a824","system_id":"levelo_inurba_marseille","lat":43.27637,"lon":5.43162,"is_reserved":false,"is_disabled":true,"rental_uris":{"android":"levelo://app?vid=446c66be-a677-44c2-9116-79a23398a824","ios":"levelo://app?vid=446c66be-a677-44c2-9116-79a23398a824"},"vehicle_type_id":"4","last_reported":1751051297,"current_range_meters":0,"station_id":"","pricing_plan_id":"cebpf4jnsgd1na2vs0mg"},{"bike_id":"a86d2f9f-83d8-4f17-8422-d08e982c4a2a","system_id":"levelo_inurba_marseille","lat":43.29812,"lon":5.44816,"is_reserved":false,"is_disabled":true,"rental_uris":{"android":"levelo://app?vid=a86d2f9f-83d8-4f17-8422-d08e982c4a2a","ios":"levelo://app?vid=a86d2f9f-83d8-4f17-8422-d08e982c4a2a"},"vehicle_type_id":"4","last_reported":1751051297,"current_range_meters":0,"station_id":"","pricing_plan_id":"cebpf4jnsgd1na2vs0mg"},{"bike_id":"2315c627-494e-41a8-a12f-403d40de57ef","system_id":"levelo_inurba_marseille","lat":43.30143,"lon":5.40337,"is_reserved":false,"is_disabled":true,"rental_uris":{"android":"levelo://app?vid=2315c627-494e-41a8-a12f-403d40de57ef","ios":"levelo://app?vid=2315c627-494e-41a8-a12f-403d40de57ef"},"vehicle_type_id":"4","last_reported":1751051297,"current_range_meters":0,"station_id":"","pricing_plan_id":"cebpf4jnsgd1na2vs0mg"},{"bike_id":"a1ae4fee-cbeb-43dc-a969-5827f87e448d","system_id":"levelo_inurba_marseille","lat":43.38397,"lon":5.36541,"is_reserved":false,"is_disabled":true,"rental_uris":{"android":"levelo://app?vid=a1ae4fee-cbeb-43dc-a969-5827f87e448d","ios":"levelo://app?vid=a1ae4fee-cbeb-43dc-a969-5827f87e448d"},"vehicle_type_id":"4","last_reported":1751051297,"current_range_meters":0,"station_id":"","pricing_plan_id":"cebpf4jnsgd1na2vs0mg"},{"bike_id":"d6609b4f-333b-43c1-9ebe-8726f5e76e88","system_id":"levelo_inurba_marseille","lat":43.337444,"lon":5.374475,"is_reserved":false,"is_disabled":true,"rental_uris":{"android":"levelo://app?vid=d6609b4f-333b-43c1-9ebe-8726f5e76e88","ios":"levelo://app?vid=d6609b4f-333b-43c1-9ebe-8726f5e76e88"},"vehicle_type_id":"4","last_reported":1751051297,"current_range_meters":0,"station_id":"","pricing_plan_id":"cebpf4jnsgd1na2vs0mg"},{"bike_id":"bf027107-0fe5-47a2-8fef-6473f83bb647","system_id":"levelo_inurba_marseille","lat":43.3296,"lon":5.36422,"is_reserved":false,"is_disabled":true,"rental_uris":{"android":"levelo://app?vid=bf027107-0fe5-47a2-8fef-6473f83bb647","ios":"levelo://app?vid=bf027107-0fe5-47a2-8fef-6473f83bb647"},"vehicle_type_id":"4","last_reported":1751051297,"current_range_meters":0,"station_id":"","pricing_plan_id":"cebpf4jnsgd1na2vs0mg"},{"bike_id":"b17b6606-336a-4606-9b65-af139c49de26","system_id":"levelo_inurba_marseille","lat":43.25717,"lon":5.42699,"is_reserved":false,"is_disabled":true,"rental_uris":{"android":"levelo://app?vid=b17b6606-336a-4606-9b65-af139c49de26","ios":"levelo://app?vid=b17b6606-336a-4606-9b65-af139c49de26"},"vehicle_type_id":"4","last_reported":1751051297,"current_range_meters":0,"station_id":"","pricing_plan_id":"cebpf4jnsgd1na2vs0mg"},{"bike_id":"9d3724b1-0dc8-4689-9d6a-55005a9503cb","system_id":"levelo_inurba_marseille","lat":43.28632,"lon":5.42835,"is_reserved":false,"is_disabled":true,"rental_uris":{"android":"levelo://app?vid=9d3724b1-0dc8-4689-9d6a-55005a9503cb","ios":"levelo://app?vid=9d3724b1-0dc8-4689-9d6a-55005a9503cb"},"vehicle_type_id":"4","last_reported":1751051297,"current_range_meters":0,"station_id":"","pricing_plan_id":"cebpf4jnsgd1na2vs0mg"},{"bike_id":"ce774a04-a4be-4eca-a30f-78eb921955bd","system_id":"levelo_inurba_marseille","lat":43.32874,"lon":5.36702,"is_reserved":false,"is_disabled":true,"rental_uris":{"android":"levelo://app?vid=ce774a04-a4be-4eca-a30f-78eb921955bd","ios":"levelo://app?vid=ce774a04-a4be-4eca-a30f-78eb921955bd"},"vehicle_type_id":"4","last_reported":1751051297,"current_range_meters":0,"station_id":"","pricing_plan_id":"cebpf4jnsgd1na2vs0mg"},{"bike_id":"1ddbf4c9-66c0-4dff-93ff-70e33af0dd8e","system_id":"levelo_inurba_marseille","lat":43.30794,"lon":5.39608,"is_reserved":false,"is_disabled":true,"rental_uris":{"android":"levelo://app?vid=1ddbf4c9-66c0-4dff-93ff-70e33af0dd8e","ios":"levelo://app?vid=1ddbf4c9-66c0-4dff-93ff-70e33af0dd8e"},"vehicle_type_id":"4","last_reported":1751051297,"current_range_meters":0,"station_id":"","pricing_plan_id":"cebpf4jnsgd1na2vs0mg"},{"bike_id":"2506764c-8596-4f2d-86a9-456a7b9a1b48","system_id":"levelo_inurba_marseille","lat":43.30252,"lon":5.40071,"is_reserved":false,"is_disabled":true,"rental_uris":{"android":"levelo://app?vid=2506764c-8596-4f2d-86a9-456a7b9a1b48","ios":"levelo://app?vid=2506764c-8596-4f2d-86a9-456a7b9a1b48"},"vehicle_type_id":"4","last_reported":1751051297,"current_range_meters":0,"station_id":"ce4bgvh2rcd13ifvqcs0","pricing_plan_id":"cebpf4jnsgd1na2vs0mg"},{"bike_id":"3e9fb792-9b26-409c-ae06-87b5eed7b5a0","system_id":"levelo_inurba_marseille","lat":43.2835,"lon":5.38629,"is_reserved":false,"is_disabled":true,"rental_uris":{"android":"levelo://app?vid=3e9fb792-9b26-409c-ae06-87b5eed7b5a0","ios":"levelo://app?vid=3e9fb792-9b26-409c-ae06-87b5eed7b5a0"},"vehicle_type_id":"4","last_reported":1751051297,"current_range_meters":0,"station_id":"ce4bh492rcd13ifvqdvg","pricing_plan_id":"cebpf4jnsgd1na2vs0mg"},{"bike_id":"e92144f9-0315-4568-9d39-2d8596463394","system_id":"levelo_inurba_marseille","lat":43.28456,"lon":5.35884,"is_reserved":false,"is_disabled":true,"rental_uris":{"android":"levelo://app?vid=e92144f9-0315-4568-9d39-2d8596463394","ios":"levelo://app?vid=e92144f9-0315-4568-9d39-2d8596463394"},"vehicle_type_id":"4","last_reported":1751051297,"current_range_meters":0,"station_id":"ce4bhah2rcd13ifvqei0","pricing_plan_id":"cebpf4jnsgd1na2vs0mg"},{"bike_id":"0710b7fd-b1a1-4272-ba39-9134d9ead9d5","system_id":"levelo_inurba_marseille","lat":43.29195,"lon":5.35835,"is_reserved":false,"is_disabled":true,"rental_uris":{"android":"levelo://app?vid=0710b7fd-b1a1-4272-ba39-9134d9ead9d5","ios":"levelo://app?vid=0710b7fd-b1a1-4272-ba39-9134d9ead9d5"},"vehicle_type_id":"4","last_reported":1751051297,"current_range_meters":0,"station_id":"ce4bhb12rcd13ifvqel0","pricing_plan_id":"cebpf4jnsgd1na2vs0mg"},{"bike_id":"026c0836-bfe5-4e7c-b555-677658b6459b","system_id":"levelo_inurba_marseille","lat":43.27904,"lon":5.38005,"is_reserved":false,"is_disabled":true,"rental_uris":{"android":"levelo://app?vid=026c0836-bfe5-4e7c-b555-677658b6459b","ios":"levelo://app?vid=026c0836-bfe5-4e7c-b555-677658b6459b"},"vehicle_type_id":"4","last_reported":1751051297,"current_range_meters":0,"station_id":"ce4bhf92rcd13ifvqf50","pricing_plan_id":"cebpf4jnsgd1na2vs0mg"},{"bike_id":"271a5da5-4035-470a-ba7c-aa58268e9930","system_id":"levelo_inurba_marseille","lat":43.2178,"lon":5.34581,"is_reserved":false,"is_disabled":true,"rental_uris":{"android":"levelo://app?vid=271a5da5-4035-470a-ba7c-aa58268e9930","ios":"levelo://app?vid=271a5da5-4035-470a-ba7c-aa58268e9930"},"vehicle_type_id":"4","last_reported":1751051297,"current_range_meters":0,"station_id":"ce4bhgh2rcd13ifvqfb0","pricing_plan_id":"cebpf4jnsgd1na2vs0mg"},{"bike_id":"260d4361-4d64-4257-98d6-1bae3304a635","system_id":"levelo_inurba_marseille","lat":43.26204,"lon":5.3744,"is_reserved":false,"is_disabled":true,"rental_uris":{"android":"levelo://app?vid=260d4361-4d64-4257-98d6-1bae3304a635","ios":"levelo://app?vid=260d4361-4d64-4257-98d6-1bae3304a635"},"vehicle_type_id":"4","last_reported":1751051297,"current_range_meters":0,"station_id":"ce4bhgp2rcd13ifvqfc0","pricing_plan_id":"cebpf4jnsgd1na2vs0mg"},{"bike_id":"2393a268-880b-4d56-a59e-9f5198f29956","system_id":"levelo_inurba_marseille","lat":43.27546,"lon":5.3844,"is_reserved":false,"is_disabled":true,"rental_uris":{"android":"levelo://app?vid=2393a268-880b-4d56-a59e-9f5198f29956","ios":"levelo://app?vid=2393a268-880b-4d56-a59e-9f5198f29956"},"vehicle_type_id":"4","last_reported":1751051297,"current_range_meters":0,"station_id":"ce4bhh92rcd13ifvqfi0","pricing_plan_id":"cebpf4jnsgd1na2vs0mg"},{"bike_id":"777c9acf-62ba-4c88-9be7-19f6f7f4a4b8","system_id":"levelo_inurba_marseille","lat":43.26505,"lon":5.3952,"is_reserved":false,"is_disabled":true,"rental_uris":{"android":"levelo://app?vid=777c9acf-62ba-4c88-9be7-19f6f7f4a4b8","ios":"levelo://app?vid=777c9acf-62ba-4c88-9be7-19f6f7f4a4b8"},"vehicle_type_id":"4","last_reported":1751051297,"current_range_meters":0,"station_id":"ce4bhi12rcd13ifvqfq0","pricing_plan_id":"cebpf4jnsgd1na2vs0mg"},{"bike_id":"4d918db7-9f2a-4bc1-b30e-ba86304a0016","system_id":"levelo_inurba_marseille","lat":43.27944,"lon":5.41035,"is_reserved":false,"is_disabled":true,"rental_uris":{"android":"levelo://app?vid=4d918db7-9f2a-4bc1-b30e-ba86304a0016","ios":"levelo://app?vid=4d918db7-9f2a-4bc1-b30e-ba86304a0016"},"vehicle_type_id":"4","last_reported":1751051297,"current_range_meters":0,"station_id":"ce4bhnp2rcd13ifvqh0g","pricing_plan_id":"cebpf4jnsgd1na2vs0mg"},{"bike_id":"c84d9c24-9628-4be0-8379-599086d784e7","system_id":"levelo_inurba_marseille","lat":43.31729,"lon":5.42394,"is_reserved":false,"is_disabled":true,"rental_uris":{"android":"levelo://app?vid=c84d9c24-9628-4be0-8379-599086d784e7","ios":"levelo://app?vid=c84d9c24-9628-4be0-8379-599086d784e7"},"vehicle_type_id":"4","last_reported":1751051297,"current_range_meters":0,"station_id":"ce4bhp92rcd13ifvqhbg","pricing_plan_id":"cebpf4jnsgd1na2vs0mg"},{"bike_id":"29ec4185-f87e-45a2-91e6-759a1d934b1c","system_id":"levelo_inurba_marseille","lat":43.21747,"lon":5.34591,"is_reserved":false,"is_disabled":true,"rental_uris":{"android":"levelo://app?vid=29ec4185-f87e-45a2-91e6-759a1d934b1c","ios":"levelo://app?vid=29ec4185-f87e-45a2-91e6-759a1d934b1c"},"vehicle_type_id":"4","last_reported":1751051297,"current_range_meters":0,"station_id":"st_cvj6r9ubvosntc0bgbag","pricing_plan_id":"cebpf4jnsgd1na2vs0mg"},{"bike_id":"5369f095-e10d-49b7-afe8-43bcce782076","system_id":"levelo_inurba_marseille","lat":43.31176,"lon":5.38707,"is_reserved":false,"is_disabled":true,"rental_uris":{"android":"levelo://app?vid=5369f095-e10d-49b7-afe8-43bcce782076","ios":"levelo://app?vid=5369f095-e10d-49b7-afe8-43bcce782076"},"vehicle_type_id":"4","last_reported":1751051297,"current_range_meters":400,"station_id":"ce4bgv12rcd13ifvqcp0","pricing_plan_id":"cebpf4jnsgd1na2vs0mg"},{"bike_id":"116ee576-0cd1-44e0-a139-94ab887d7a93","system_id":"levelo_inurba_marseille","lat":43.29261,"lon":5.40894,"is_reserved":false,"is_disabled":true,"rental_uris":{"android":"levelo://app?vid=116ee576-0cd1-44e0-a139-94ab887d7a93","ios":"levelo://app?vid=116ee576-0cd1-44e0-a139-94ab887d7a93"},"vehicle_type_id":"4","last_reported":1751051297,"current_range_meters":800,"station_id":"ce4bh192rcd13ifvqdc0","pricing_plan_id":"cebpf4jnsgd1na2vs0mg"},{"bike_id":"93b9ae6f-a7b4-4bb9-982f-82f2eaba4336","system_id":"levelo_inurba_marseille","lat":43.29031,"lon":5.39967,"is_reserved":false,"is_disabled":true,"rental_uris":{"android":"levelo://app?vid=93b9ae6f-a7b4-4bb9-982f-82f2eaba4336","ios":"levelo://app?vid=93b9ae6f-a7b4-4bb9-982f-82f2eaba4336"},"vehicle_type_id":"4","last_reported":1751051297,"current_range_meters":800,"station_id":"ce4bh392rcd13ifvqdm0","pricing_plan_id":"cebpf4jnsgd1na2vs0mg"},{"bike_id":"7cbc1ca4-f809-4a4b-adf8-a188e0f872be","system_id":"levelo_inurba_marseille","lat":43.26209,"lon":5.37441,"is_reserved":false,"is_disabled":true,"rental_uris":{"android":"levelo://app?vid=7cbc1ca4-f809-4a4b-adf8-a188e0f872be","ios":"levelo://app?vid=7cbc1ca4-f809-4a4b-adf8-a188e0f872be"},"vehicle_type_id":"4","last_reported":1751051297,"current_range_meters":800,"station_id":"ce4bhgp2rcd13ifvqfc0","pricing_plan_id":"cebpf4jnsgd1na2vs0mg"},{"bike_id":"c29abaed-2b97-4a86-9b94-a615ac531a1a","system_id":"levelo_inurba_marseille","lat":43.30947,"lon":5.39024,"is_reserved":false,"is_disabled":true,"rental_uris":{"android":"levelo://app?vid=c29abaed-2b97-4a86-9b94-a615ac531a1a","ios":"levelo://app?vid=c29abaed-2b97-4a86-9b94-a615ac531a1a"},"vehicle_type_id":"4","last_reported":1751051297,"current_range_meters":1200,"station_id":"ce4bgup2rcd13ifvqco0","pricing_plan_id":"cebpf4jnsgd1na2vs0mg"},{"bike_id":"00652f93-dd55-4da7-892a-9b8831fe068b","system_id":"levelo_inurba_marseille","lat":43.31324,"lon":5.39691,"is_reserved":false,"is_disabled":true,"rental_uris":{"android":"levelo://app?vid=00652f93-dd55-4da7-892a-9b8831fe068b","ios":"levelo://app?vid=00652f93-dd55-4da7-892a-9b8831fe068b"},"vehicle_type_id":"4","last_reported":1751051297,"current_range_meters":1200,"station_id":"ce4bgvp2rcd13ifvqcu0","pricing_plan_id":"cebpf4jnsgd1na2vs0mg"},{"bike_id":"908c9b98-37ae-4c35-b27f-cecb61c5c951","system_id":"levelo_inurba_marseille","lat":43.285644,"lon":5.395019,"is_reserved":false,"is_disabled":true,"rental_uris":{"android":"levelo://app?vid=908c9b98-37ae-4c35-b27f-cecb61c5c951","ios":"levelo://app?vid=908c9b98-37ae-4c35-b27f-cecb61c5c951"},"vehicle_type_id":"4","last_reported":1751051297,"current_range_meters":1200,"station_id":"ce4bh292rcd13ifvqdg0","pricing_plan_id":"cebpf4jnsgd1na2vs0mg"},{"bike_id":"787823ad-e2ae-4ba9-abe9-0330f21faa87","system_id":"levelo_inurba_marseille","lat":43.29017,"lon":5.38122,"is_reserved":false,"is_disabled":true,"rental_uris":{"android":"levelo://app?vid=787823ad-e2ae-4ba9-abe9-0330f21faa87","ios":"levelo://app?vid=787823ad-e2ae-4ba9-abe9-0330f21faa87"},"vehicle_type_id":"4","last_reported":1751051297,"current_range_meters":1200,"station_id":"ce4bh4p2rcd13ifvqe1g","pricing_plan_id":"cebpf4jnsgd1na2vs0mg"},{"bike_id":"05c9280c-d054-447f-8b83-6cae851fa606","system_id":"levelo_inurba_marseille","lat":43.24803,"lon":5.37451,"is_reserved":false,"is_disabled":true,"rental_uris":{"android":"levelo://app?vid=05c9280c-d054-447f-8b83-6cae851fa606","ios":"levelo://app?vid=05c9280c-d054-447f-8b83-6cae851fa606"},"vehicle_type_id":"4","last_reported":1751051297,"current_range_meters":1200,"station_id":"ce4bhgh2rcd13ifvqfb0","pricing_plan_id":"cebpf4jnsgd1na2vs0mg"},{"bike_id":"1621b522-7cb1-4b03-8dfd-8b6a858e80e4","system_id":"levelo_inurba_marseille","lat":43.23163,"lon":5.43683,"is_reserved":false,"is_disabled":true,"rental_uris":{"android":"levelo://app?vid=1621b522-7cb1-4b03-8dfd-8b6a858e80e4","ios":"levelo://app?vid=1621b522-7cb1-4b03-8dfd-8b6a858e80e4"},"vehicle_type_id":"4","last_reported":1751051297,"current_range_meters":1200,"station_id":"ce4bhmp2rcd13ifvqgog","pricing_plan_id":"cebpf4jnsgd1na2vs0mg"},{"bike_id":"3e5d0ae7-bac3-40ea-95d2-50ef1aae7bc7","system_id":"levelo_inurba_marseille","lat":43.26845,"lon":5.41587,"is_reserved":false,"is_disabled":true,"rental_uris":{"android":"levelo://app?vid=3e5d0ae7-bac3-40ea-95d2-50ef1aae7bc7","ios":"levelo://app?vid=3e5d0ae7-bac3-40ea-95d2-50ef1aae7bc7"},"vehicle_type_id":"4","last_reported":1751051297,"current_range_meters":1600,"station_id":"","pricing_plan_id":"cebpf4jnsgd1na2vs0mg"},{"bike_id":"7837af31-d7ef-42e3-8f9b-99c766d99147","system_id":"levelo_inurba_marseille","lat":43.29521,"lon":5.38541,"is_reserved":false,"is_disabled":true,"rental_uris":{"android":"levelo://app?vid=7837af31-d7ef-42e3-8f9b-99c766d99147","ios":"levelo://app?vid=7837af31-d7ef-42e3-8f9b-99c766d99147"},"vehicle_type_id":"4","last_reported":1751051297,"current_range_meters":1600,"station_id":"ce4bgih2rcd13ifvqba0","pricing_plan_id":"cebpf4jnsgd1na2vs0mg"},{"bike_id":"c604f5e2-16df-4490-839f-adc23d58a6d6","system_id":"levelo_inurba_marseille","lat":43.30867,"lon":5.39636,"is_reserved":false,"is_disabled":true,"rental_uris":{"android":"levelo://app?vid=c604f5e2-16df-4490-839f-adc23d58a6d6","ios":"levelo://app?vid=c604f5e2-16df-4490-839f-adc23d58a6d6"},"vehicle_type_id":"4","last_reported":1751051297,"current_range_meters":1600,"station_id":"ce4bh012rcd13ifvqcv0","pricing_plan_id":"cebpf4jnsgd1na2vs0mg"},{"bike_id":"b71d1ec5-84e4-4b7b-91aa-101dd9152f7c","system_id":"levelo_inurba_marseille","lat":43.2861,"lon":5.35117,"is_reserved":false,"is_disabled":true,"rental_uris":{"android":"levelo://app?vid=b71d1ec5-84e4-4b7b-91aa-101dd9152f7c","ios":"levelo://app?vid=b71d1ec5-84e4-4b7b-91aa-101dd9152f7c"},"vehicle_type_id":"4","last_reported":1751051297,"current_range_meters":1600,"station_id":"ce4bhch2rcd13ifvqeug","pricing_plan_id":"cebpf4jnsgd1na2vs0mg"},{"bike_id":"37ffa4ef-6ac1-4c76-b248-d69ed2e118c7","system_id":"levelo_inurba_marseille","lat":43.28713,"lon":5.39976,"is_reserved":false,"is_disabled":true,"rental_uris":{"android":"levelo://app?vid=37ffa4ef-6ac1-4c76-b248-d69ed2e118c7","ios":"levelo://app?vid=37ffa4ef-6ac1-4c76-b248-d69ed2e118c7"},"vehicle_type_id":"4","last_reported":1751051297,"current_range_meters":1600,"station_id":"ce4bho92rcd13ifvqh3g","pricing_plan_id":"cebpf4jnsgd1na2vs0mg"},{"bike_id":"af112b62-19de-41d4-b8d7-e14d0172315d","system_id":"levelo_inurba_marseille","lat":43.32666,"lon":5.39259,"is_reserved":false,"is_disabled":true,"rental_uris":{"android":"levelo://app?vid=af112b62-19de-41d4-b8d7-e14d0172315d","ios":"levelo://app?vid=af112b62-19de-41d4-b8d7-e14d0172315d"},"vehicle_type_id":"4","last_reported":1751051297,"current_range_meters":2000,"station_id":"","pricing_plan_id":"cebpf4jnsgd1na2vs0mg"},{"bike_id":"1a756de2-0303-46a1-855b-119baea74bc2","system_id":"levelo_inurba_marseille","lat":43.30946,"lon":5.39045,"is_reserved":false,"is_disabled":true,"rental_uris":{"android":"levelo://app?vid=1a756de2-0303-46a1-855b-119baea74bc2","ios":"levelo://app?vid=1a756de2-0303-46a1-855b-119baea74bc2"},"vehicle_type_id":"4","last_reported":1751051297,"current_range_meters":2000,"station_id":"ce4bgup2rcd13ifvqco0","pricing_plan_id":"cebpf4jnsgd1na2vs0mg"},{"bike_id":"1d44ac4a-8f84-43aa-977a-ab08ae417b67","system_id":"levelo_inurba_marseille","lat":43.29263,"lon":5.40898,"is_reserved":false,"is_disabled":true,"rental_uris":{"android":"levelo://app?vid=1d44ac4a-8f84-43aa-977a-ab08ae417b67","ios":"levelo://app?vid=1d44ac4a-8f84-43aa-977a-ab08ae417b67"},"vehicle_type_id":"4","last_reported":1751051297,"current_range_meters":2000,"station_id":"ce4bh192rcd13ifvqdc0","pricing_plan_id":"cebpf4jnsgd1na2vs0mg"},{"bike_id":"768c0104-715f-4ae7-8bb0-ad9c0d98e622","system_id":"levelo_inurba_marseille","lat":43.28782,"lon":5.37379,"is_reserved":false,"is_disabled":false,"rental_uris":{"android":"levelo://app?vid=768c0104-715f-4ae7-8bb0-ad9c0d98e622","ios":"levelo://app?vid=768c0104-715f-4ae7-8bb0-ad9c0d98e622"},"vehicle_type_id":"4","last_reported":1751051297,"current_range_meters":2800,"station_id":"","pricing_plan_id":"cebpf4jnsgd1na2vs0mg"},{"bike_id":"d70eb35d-a7e5-41ed-a7e6-befa12ab9efb","system_id":"levelo_inurba_marseille","lat":43.29264,"lon":5.38437,"is_reserved":false,"is_disabled":false,"rental_uris":{"android":"levelo://app?vid=d70eb35d-a7e5-41ed-a7e6-befa12ab9efb","ios":"levelo://app?vid=d70eb35d-a7e5-41ed-a7e6-befa12ab9efb"},"vehicle_type_id":"4","last_reported":1751051297,"current_range_meters":2800,"station_id":"ce4bh692rcd13ifvqea0","pricing_plan_id":"cebpf4jnsgd1na2vs0mg"},{"bike_id":"0fe04772-0cd7-4772-9391-1dc9f95d564b","system_id":"levelo_inurba_marseille","lat":43.26563,"lon":5.3901,"is_reserved":false,"is_disabled":false,"rental_uris":{"android":"levelo://app?vid=0fe04772-0cd7-4772-9391-1dc9f95d564b","ios":"levelo://app?vid=0fe04772-0cd7-4772-9391-1dc9f95d564b"},"vehicle_type_id":"4","last_reported":1751051297,"current_range_meters":2800,"station_id":"ce4bhe12rcd13ifvqf30","pricing_plan_id":"cebpf4jnsgd1na2vs0mg"},{"bike_id":"938b3352-2729-4d51-84dd-8f4c9c6c6a09","system_id":"levelo_inurba_marseille","lat":43.27975,"lon":5.38741,"is_reserved":false,"is_disabled":false,"rental_uris":{"android":"levelo://app?vid=938b3352-2729-4d51-84dd-8f4c9c6c6a09","ios":"levelo://app?vid=938b3352-2729-4d51-84dd-8f4c9c6c6a09"},"vehicle_type_id":"4","last_reported":1751051297,"current_range_meters":2800,"station_id":"ce4bhg12rcd13ifvqf80","pricing_plan_id":"cebpf4jnsgd1na2vs0mg"},{"bike_id":"9ce852fe-9449-4c16-b29b-642a7abdbbbf","system_id":"levelo_inurba_marseille","lat":43.27409,"lon":5.3619,"is_reserved":false,"is_disabled":false,"rental_uris":{"android":"levelo://app?vid=9ce852fe-9449-4c16-b29b-642a7abdbbbf","ios":"levelo://app?vid=9ce852fe-9449-4c16-b29b-642a7abdbbbf"},"vehicle_type_id":"4","last_reported":1751051297,"current_range_meters":3200,"station_id":"","pricing_plan_id":"cebpf4jnsgd1na2vs0mg"},{"bike_id":"6362c68b-4695-4084-89bd-0907f3bea4ff","system_id":"levelo_inurba_marseille","lat":43.28364,"lon":5.38626,"is_reserved":false,"is_disabled":false,"rental_uris":{"android":"levelo://app?vid=6362c68b-4695-4084-89bd-0907f3bea4ff","ios":"levelo://app?vid=6362c68b-4695-4084-89bd-0907f3bea4ff"},"vehicle_type_id":"4","last_reported":1751051297,"current_range_meters":3200,"station_id":"ce4bh492rcd13ifvqdvg","pricing_plan_id":"cebpf4jnsgd1na2vs0mg"},{"bike_id":"2c30f408-3bfd-4e8b-8826-611fe20e5b5e","system_id":"levelo_inurba_marseille","lat":43.26548,"lon":5.37288,"is_reserved":false,"is_disabled":false,"rental_uris":{"android":"levelo://app?vid=2c30f408-3bfd-4e8b-8826-611fe20e5b5e","ios":"levelo://app?vid=2c30f408-3bfd-4e8b-8826-611fe20e5b5e"},"vehicle_type_id":"4","last_reported":1751051297,"current_range_meters":3200,"station_id":"ce4bhg12rcd13ifvqf70","pricing_plan_id":"cebpf4jnsgd1na2vs0mg"},{"bike_id":"c596656d-fb12-41af-ba1f-6e013a09d5ab","system_id":"levelo_inurba_marseille","lat":43.3026,"lon":5.40049,"is_reserved":false,"is_disabled":false,"rental_uris":{"android":"levelo://app?vid=c596656d-fb12-41af-ba1f-6e013a09d5ab","ios":"levelo://app?vid=c596656d-fb12-41af-ba1f-6e013a09d5ab"},"vehicle_type_id":"4","last_reported":1751051297,"current_range_meters":3600,"station_id":"ce4bgvh2rcd13ifvqcs0","pricing_plan_id":"cebpf4jnsgd1na2vs0mg"},{"bike_id":"04489a07-d2c9-427e-b12f-50ce7d19bf6a","system_id":"levelo_inurba_marseille","lat":43.30883,"lon":5.39645,"is_reserved":false,"is_disabled":false,"rental_uris":{"android":"levelo://app?vid=04489a07-d2c9-427e-b12f-50ce7d19bf6a","ios":"levelo://app?vid=04489a07-d2c9-427e-b12f-50ce7d19bf6a"},"vehicle_type_id":"4","last_reported":1751051297,"current_range_meters":4000,"station_id":"ce4bh012rcd13ifvqcv0","pricing_plan_id":"cebpf4jnsgd1na2vs0mg"},{"bike_id":"2693a668-9ab0-4811-adfe-3413d0a62b75","system_id":"levelo_inurba_marseille","lat":43.29259,"lon":5.38441,"is_reserved":false,"is_disabled":false,"rental_uris":{"android":"levelo://app?vid=2693a668-9ab0-4811-adfe-3413d0a62b75","ios":"levelo://app?vid=2693a668-9ab0-4811-adfe-3413d0a62b75"},"vehicle_type_id":"4","last_reported":1751051297,"current_range_meters":4000,"station_id":"ce4bh692rcd13ifvqea0","pricing_plan_id":"cebpf4jnsgd1na2vs0mg"},{"bike_id":"3710d973-2776-4402-86c9-c6afb5b91134","system_id":"levelo_inurba_marseille","lat":43.27963,"lon":5.41043,"is_reserved":false,"is_disabled":false,"rental_uris":{"android":"levelo://app?vid=3710d973-2776-4402-86c9-c6afb5b91134","ios":"levelo://app?vid=3710d973-2776-4402-86c9-c6afb5b91134"},"vehicle_type_id":"4","last_reported":1751051297,"current_range_meters":4000,"station_id":"ce4bhnp2rcd13ifvqh0g","pricing_plan_id":"cebpf4jnsgd1na2vs0mg"},{"bike_id":"e2f5b300-4a63-4778-aada-c29a8a0ea1e8","system_id":"levelo_inurba_marseille","lat":43.32795,"lon":5.39197,"is_reserved":false,"is_disabled":false,"rental_uris":{"android":"levelo://app?vid=e2f5b300-4a63-4778-aada-c29a8a0ea1e8","ios":"levelo://app?vid=e2f5b300-4a63-4778-aada-c29a8a0ea1e8"},"vehicle_type_id":"4","last_reported":1751051297,"current_range_meters":4800,"station_id":"","pricing_plan_id":"cebpf4jnsgd1na2vs0mg"},{"bike_id":"f595aa79-9adb-4add-a1f0-e806b8aaff1b","system_id":"levelo_inurba_marseille","lat":43.29259,"lon":5.40899,"is_reserved":false,"is_disabled":false,"rental_uris":{"android":"levelo://app?vid=f595aa79-9adb-4add-a1f0-e806b8aaff1b","ios":"levelo://app?vid=f595aa79-9adb-4add-a1f0-e806b8aaff1b"},"vehicle_type_id":"4","last_reported":1751051297,"current_range_meters":4800,"station_id":"ce4bh192rcd13ifvqdc0","pricing_plan_id":"cebpf4jnsgd1na2vs0mg"},{"bike_id":"c5d4ac77-bea5-4561-850b-e36339da2564","system_id":"levelo_inurba_marseille","lat":43.3043,"lon":5.388833,"is_reserved":false,"is_disabled":false,"rental_uris":{"android":"levelo://app?vid=c5d4ac77-bea5-4561-850b-e36339da2564","ios":"levelo://app?vid=c5d4ac77-bea5-4561-850b-e36339da2564"},"vehicle_type_id":"4","last_reported":1751051297,"current_range_meters":6000,"station_id":"ce4bgk12rcd13ifvqbi0","pricing_plan_id":"cebpf4jnsgd1na2vs0mg"},{"bike_id":"9362c4e6-13e4-4b83-9494-8f5bea719f09","system_id":"levelo_inurba_marseille","lat":43.302643,"lon":5.377064,"is_reserved":false,"is_disabled":false,"rental_uris":{"android":"levelo://app?vid=9362c4e6-13e4-4b83-9494-8f5bea719f09","ios":"levelo://app?vid=9362c4e6-13e4-4b83-9494-8f5bea719f09"},"vehicle_type_id":"4","last_reported":1751051297,"current_range_meters":6000,"station_id":"ce4bguh2rcd13ifvqcj0","pricing_plan_id":"cebpf4jnsgd1na2vs0mg"},{"bike_id":"55ff281d-5fdd-4a7d-9fb1-e8136c13b939","system_id":"levelo_inurba_marseille","lat":43.2872,"lon":5.37935,"is_reserved":false,"is_disabled":false,"rental_uris":{"android":"levelo://app?vid=55ff281d-5fdd-4a7d-9fb1-e8136c13b939","ios":"levelo://app?vid=55ff281d-5fdd-4a7d-9fb1-e8136c13b939"},"vehicle_type_id":"4","last_reported":1751051297,"current_range_meters":6000,"station_id":"ce4bh9p2rcd13ifvqec0","pricing_plan_id":"cebpf4jnsgd1na2vs0mg"},{"bike_id":"f64e035b-db0b-4657-8a15-2ae31c1ea0bf","system_id":"levelo_inurba_marseille","lat":43.28665,"lon":5.38494,"is_reserved":false,"is_disabled":false,"rental_uris":{"android":"levelo://app?vid=f64e035b-db0b-4657-8a15-2ae31c1ea0bf","ios":"levelo://app?vid=f64e035b-db0b-4657-8a15-2ae31c1ea0bf"},"vehicle_type_id":"4","last_reported":1751051297,"current_range_meters":6400,"station_id":"","pricing_plan_id":"cebpf4jnsgd1na2vs0mg"},{"bike_id":"a9d25cad-d480-4c75-aec5-3969f1a4e6c7","system_id":"levelo_inurba_marseille","lat":43.329368,"lon":5.390495,"is_reserved":false,"is_disabled":false,"rental_uris":{"android":"levelo://app?vid=a9d25cad-d480-4c75-aec5-3969f1a4e6c7","ios":"levelo://app?vid=a9d25cad-d480-4c75-aec5-3969f1a4e6c7"},"vehicle_type_id":"4","last_reported":1751051297,"current_range_meters":6400,"station_id":"","pricing_plan_id":"cebpf4jnsgd1na2vs0mg"},{"bike_id":"da8402ac-705f-4166-8d71-6db91c95faab","system_id":"levelo_inurba_marseille","lat":43.31117,"lon":5.37768,"is_reserved":false,"is_disabled":false,"rental_uris":{"android":"levelo://app?vid=da8402ac-705f-4166-8d71-6db91c95faab","ios":"levelo://app?vid=da8402ac-705f-4166-8d71-6db91c95faab"},"vehicle_type_id":"4","last_reported":1751051297,"current_range_meters":6400,"station_id":"ce4bgt92rcd13ifvqcg0","pricing_plan_id":"cebpf4jnsgd1na2vs0mg"},{"bike_id":"db858f2d-f587-479c-862b-738407e62d4e","system_id":"levelo_inurba_marseille","lat":43.30322,"lon":5.40433,"is_reserved":false,"is_disabled":false,"rental_uris":{"android":"levelo://app?vid=db858f2d-f587-479c-862b-738407e62d4e","ios":"levelo://app?vid=db858f2d-f587-479c-862b-738407e62d4e"},"vehicle_type_id":"4","last_reported":1751051297,"current_range_meters":6400,"station_id":"ce4bh012rcd13ifvqd10","pricing_plan_id":"cebpf4jnsgd1na2vs0mg"},{"bike_id":"02692c3b-ab51-49ae-97d2-462534f299dd","system_id":"levelo_inurba_marseille","lat":43.251264,"lon":5.403153,"is_reserved":false,"is_disabled":false,"rental_uris":{"android":"levelo://app?vid=02692c3b-ab51-49ae-97d2-462534f299dd","ios":"levelo://app?vid=02692c3b-ab51-49ae-97d2-462534f299dd"},"vehicle_type_id":"4","last_reported":1751051297,"current_range_meters":6400,"station_id":"ce4bhlh2rcd13ifvqgig","pricing_plan_id":"cebpf4jnsgd1na2vs0mg"},{"bike_id":"02cf6362-eb5b-4476-aedb-e9dd25f84c9c","system_id":"levelo_inurba_marseille","lat":43.24649,"lon":5.38897,"is_reserved":false,"is_disabled":false,"rental_uris":{"android":"levelo://app?vid=02cf6362-eb5b-4476-aedb-e9dd25f84c9c","ios":"levelo://app?vid=02cf6362-eb5b-4476-aedb-e9dd25f84c9c"},"vehicle_type_id":"4","last_reported":1751051297,"current_range_meters":6800,"station_id":"ce4bhg12rcd13ifvqf60","pricing_plan_id":"cebpf4jnsgd1na2vs0mg"},{"bike_id":"942d7c9a-31b9-40e4-bf42-da81b09ff54a","system_id":"levelo_inurba_marseille","lat":43.26673,"lon":5.38272,"is_reserved":false,"is_disabled":false,"rental_uris":{"android":"levelo://app?vid=942d7c9a-31b9-40e4-bf42-da81b09ff54a","ios":"levelo://app?vid=942d7c9a-31b9-40e4-bf42-da81b09ff54a"},"vehicle_type_id":"4","last_reported":1751051297,"current_range_meters":6800,"station_id":"ce4bhg92rcd13ifvqf90","pricing_plan_id":"cebpf4jnsgd1na2vs0mg"},{"bike_id":"b237780e-f118-490e-a333-886176ada90f","system_id":"levelo_inurba_marseille","lat":43.24411,"lon":5.37043,"is_reserved":false,"is_disabled":false,"rental_uris":{"android":"levelo://app?vid=b237780e-f118-490e-a333-886176ada90f","ios":"levelo://app?vid=b237780e-f118-490e-a333-886176ada90f"},"vehicle_type_id":"4","last_reported":1751051297,"current_range_meters":6800,"station_id":"ce4bhhh2rcd13ifvqfk0","pricing_plan_id":"cebpf4jnsgd1na2vs0mg"},{"bike_id":"675f7940-b502-4d15-8bba-8ff66359b99c","system_id":"levelo_inurba_marseille","lat":43.23181,"lon":5.35554,"is_reserved":false,"is_disabled":false,"rental_uris":{"android":"levelo://app?vid=675f7940-b502-4d15-8bba-8ff66359b99c","ios":"levelo://app?vid=675f7940-b502-4d15-8bba-8ff66359b99c"},"vehicle_type_id":"4","last_reported":1751051297,"current_range_meters":6800,"station_id":"ce4bhu92rcd13ifvqi70","pricing_plan_id":"cebpf4jnsgd1na2vs0mg"},{"bike_id":"94e84186-d780-461a-b647-8d1cf3f036ad","system_id":"levelo_inurba_marseille","lat":43.31739,"lon":5.37766,"is_reserved":false,"is_disabled":false,"rental_uris":{"android":"levelo://app?vid=94e84186-d780-461a-b647-8d1cf3f036ad","ios":"levelo://app?vid=94e84186-d780-461a-b647-8d1cf3f036ad"},"vehicle_type_id":"4","last_reported":1751051297,"current_range_meters":7200,"station_id":"ce4bgth2rcd13ifvqch0","pricing_plan_id":"cebpf4jnsgd1na2vs0mg"},{"bike_id":"60f73376-983d-4a7e-a1a5-f0fe669d409d","system_id":"levelo_inurba_marseille","lat":43.30947,"lon":5.39036,"is_reserved":false,"is_disabled":false,"rental_uris":{"android":"levelo://app?vid=60f73376-983d-4a7e-a1a5-f0fe669d409d","ios":"levelo://app?vid=60f73376-983d-4a7e-a1a5-f0fe669d409d"},"vehicle_type_id":"4","last_reported":1751051297,"current_range_meters":7200,"station_id":"ce4bgup2rcd13ifvqco0","pricing_plan_id":"cebpf4jnsgd1na2vs0mg"},{"bike_id":"6ad078ec-ad4a-4306-afc8-0cd9834f6b81","system_id":"levelo_inurba_marseille","lat":43.26202,"lon":5.3744,"is_reserved":false,"is_disabled":false,"rental_uris":{"android":"levelo://app?vid=6ad078ec-ad4a-4306-afc8-0cd9834f6b81","ios":"levelo://app?vid=6ad078ec-ad4a-4306-afc8-0cd9834f6b81"},"vehicle_type_id":"4","last_reported":1751051297,"current_range_meters":7200,"station_id":"ce4bhgp2rcd13ifvqfc0","pricing_plan_id":"cebpf4jnsgd1na2vs0mg"},{"bike_id":"7d96bab3-1980-4621-9f21-dea86ec8fb13","system_id":"levelo_inurba_marseille","lat":43.29561,"lon":5.37532,"is_reserved":false,"is_disabled":false,"rental_uris":{"android":"levelo://app?vid=7d96bab3-1980-4621-9f21-dea86ec8fb13","ios":"levelo://app?vid=7d96bab3-1980-4621-9f21-dea86ec8fb13"},"vehicle_type_id":"4","last_reported":1751051297,"current_range_meters":8000,"station_id":"ce4bgh92rcd13ifvqb50","pricing_plan_id":"cebpf4jnsgd1na2vs0mg"},{"bike_id":"fb7bb486-73bf-48ad-b0c2-269c811f64b7","system_id":"levelo_inurba_marseille","lat":43.30949,"lon":5.39034,"is_reserved":false,"is_disabled":false,"rental_uris":{"android":"levelo://app?vid=fb7bb486-73bf-48ad-b0c2-269c811f64b7","ios":"levelo://app?vid=fb7bb486-73bf-48ad-b0c2-269c811f64b7"},"vehicle_type_id":"4","last_reported":1751051297,"current_range_meters":8000,"station_id":"ce4bgup2rcd13ifvqco0","pricing_plan_id":"cebpf4jnsgd1na2vs0mg"},{"bike_id":"47042132-68c4-4d40-8505-4aafb6f19569","system_id":"levelo_inurba_marseille","lat":43.29798,"lon":5.40404,"is_reserved":false,"is_disabled":false,"rental_uris":{"android":"levelo://app?vid=47042132-68c4-4d40-8505-4aafb6f19569","ios":"levelo://app?vid=47042132-68c4-4d40-8505-4aafb6f19569"},"vehicle_type_id":"4","last_reported":1751051297,"current_range_meters":8000,"station_id":"ce4bh112rcd13ifvqd90","pricing_plan_id":"cebpf4jnsgd1na2vs0mg"},{"bike_id":"f47876d7-9c85-474e-92c5-7a242e08b67c","system_id":"levelo_inurba_marseille","lat":43.30558,"lon":5.37553,"is_reserved":false,"is_disabled":false,"rental_uris":{"android":"levelo://app?vid=f47876d7-9c85-474e-92c5-7a242e08b67c","ios":"levelo://app?vid=f47876d7-9c85-474e-92c5-7a242e08b67c"},"vehicle_type_id":"4","last_reported":1751051297,"current_range_meters":8400,"station_id":"","pricing_plan_id":"cebpf4jnsgd1na2vs0mg"},{"bike_id":"447a5c07-2605-49a1-ab80-decdc56f8c4f","system_id":"levelo_inurba_marseille","lat":43.27954,"lon":5.35323,"is_reserved":false,"is_disabled":false,"rental_uris":{"android":"levelo://app?vid=447a5c07-2605-49a1-ab80-decdc56f8c4f","ios":"levelo://app?vid=447a5c07-2605-49a1-ab80-decdc56f8c4f"},"vehicle_type_id":"4","last_reported":1751051297,"current_range_meters":8400,"station_id":"","pricing_plan_id":"cebpf4jnsgd1na2vs0mg"},{"bike_id":"73a03650-973e-42b0-bad4-545481e15f73","system_id":"levelo_inurba_marseille","lat":43.31224,"lon":5.39081,"is_reserved":false,"is_disabled":false,"rental_uris":{"android":"levelo://app?vid=73a03650-973e-42b0-bad4-545481e15f73","ios":"levelo://app?vid=73a03650-973e-42b0-bad4-545481e15f73"},"vehicle_type_id":"4","last_reported":1751051297,"current_range_meters":8400,"station_id":"","pricing_plan_id":"cebpf4jnsgd1na2vs0mg"},{"bike_id":"f0ef1ed4-c316-4aca-8b7d-c27820d53f14","system_id":"levelo_inurba_marseille","lat":43.268233,"lon":5.393796,"is_reserved":false,"is_disabled":false,"rental_uris":{"android":"levelo://app?vid=f0ef1ed4-c316-4aca-8b7d-c27820d53f14","ios":"levelo://app?vid=f0ef1ed4-c316-4aca-8b7d-c27820d53f14"},"vehicle_type_id":"4","last_reported":1751051297,"current_range_meters":8400,"station_id":"ce4bhh12rcd13ifvqfg0","pricing_plan_id":"cebpf4jnsgd1na2vs0mg"},{"bike_id":"4982a2cd-cb9c-48e7-b7c5-cb10d0e63947","system_id":"levelo_inurba_marseille","lat":43.3153,"lon":5.38037,"is_reserved":false,"is_disabled":false,"rental_uris":{"android":"levelo://app?vid=4982a2cd-cb9c-48e7-b7c5-cb10d0e63947","ios":"levelo://app?vid=4982a2cd-cb9c-48e7-b7c5-cb10d0e63947"},"vehicle_type_id":"4","last_reported":1751051297,"current_range_meters":8400,"station_id":"ce4bhsp2rcd13ifvqi50","pricing_plan_id":"cebpf4jnsgd1na2vs0mg"},{"bike_id":"0c7f4efc-17cd-4a14-aadd-dab54a773b96","system_id":"levelo_inurba_marseille","lat":43.29877,"lon":5.39731,"is_reserved":false,"is_disabled":false,"rental_uris":{"android":"levelo://app?vid=0c7f4efc-17cd-4a14-aadd-dab54a773b96","ios":"levelo://app?vid=0c7f4efc-17cd-4a14-aadd-dab54a773b96"},"vehicle_type_id":"4","last_reported":1751051297,"current_range_meters":8800,"station_id":"ce4bh0h2rcd13ifvqd50","pricing_plan_id":"cebpf4jnsgd1na2vs0mg"},{"bike_id":"a20d17a3-df4a-4fa5-9dbf-58476d464160","system_id":"levelo_inurba_marseille","lat":43.28693,"lon":5.38668,"is_reserved":false,"is_disabled":false,"rental_uris":{"android":"levelo://app?vid=a20d17a3-df4a-4fa5-9dbf-58476d464160","ios":"levelo://app?vid=a20d17a3-df4a-4fa5-9dbf-58476d464160"},"vehicle_type_id":"4","last_reported":1751051297,"current_range_meters":8800,"station_id":"ce4bh492rcd13ifvqdug","pricing_plan_id":"cebpf4jnsgd1na2vs0mg"},{"bike_id":"fae24d4a-6b20-4787-86fb-dc040c865cbb","system_id":"levelo_inurba_marseille","lat":43.29074,"lon":5.37153,"is_reserved":false,"is_disabled":false,"rental_uris":{"android":"levelo://app?vid=fae24d4a-6b20-4787-86fb-dc040c865cbb","ios":"levelo://app?vid=fae24d4a-6b20-4787-86fb-dc040c865cbb"},"vehicle_type_id":"4","last_reported":1751051297,"current_range_meters":8800,"station_id":"ce4bh5p2rcd13ifvqe4g","pricing_plan_id":"cebpf4jnsgd1na2vs0mg"},{"bike_id":"51c2bb9c-c6b3-43e0-8bf5-38d137059d30","system_id":"levelo_inurba_marseille","lat":43.322867,"lon":5.38272,"is_reserved":false,"is_disabled":false,"rental_uris":{"android":"levelo://app?vid=51c2bb9c-c6b3-43e0-8bf5-38d137059d30","ios":"levelo://app?vid=51c2bb9c-c6b3-43e0-8bf5-38d137059d30"},"vehicle_type_id":"4","last_reported":1751051297,"current_range_meters":8800,"station_id":"ce4bhr12rcd13ifvqhqg","pricing_plan_id":"cebpf4jnsgd1na2vs0mg"},{"bike_id":"c80df0ca-defb-4524-85b1-0cc8dcb714fa","system_id":"levelo_inurba_marseille","lat":43.33036,"lon":5.39032,"is_reserved":false,"is_disabled":false,"rental_uris":{"android":"levelo://app?vid=c80df0ca-defb-4524-85b1-0cc8dcb714fa","ios":"levelo://app?vid=c80df0ca-defb-4524-85b1-0cc8dcb714fa"},"vehicle_type_id":"4","last_reported":1751051297,"current_range_meters":8800,"station_id":"ce4bhr92rcd13ifvqhrg","pricing_plan_id":"cebpf4jnsgd1na2vs0mg"},{"bike_id":"4b8da722-ee9e-48a4-a5e5-3a8a10364708","system_id":"levelo_inurba_marseille","lat":43.31219,"lon":5.37827,"is_reserved":false,"is_disabled":false,"rental_uris":{"android":"levelo://app?vid=4b8da722-ee9e-48a4-a5e5-3a8a10364708","ios":"levelo://app?vid=4b8da722-ee9e-48a4-a5e5-3a8a10364708"},"vehicle_type_id":"4","last_reported":1751051297,"current_range_meters":9200,"station_id":"","pricing_plan_id":"cebpf4jnsgd1na2vs0mg"},{"bike_id":"049edae2-2434-44fe-8cda-477d5845b83b","system_id":"levelo_inurba_marseille","lat":43.28413,"lon":5.34981,"is_reserved":false,"is_disabled":false,"rental_uris":{"android":"levelo://app?vid=049edae2-2434-44fe-8cda-477d5845b83b","ios":"levelo://app?vid=049edae2-2434-44fe-8cda-477d5845b83b"},"vehicle_type_id":"4","last_reported":1751051297,"current_range_meters":9200,"station_id":"ce4bhbh2rcd13ifvqepg","pricing_plan_id":"cebpf4jnsgd1na2vs0mg"},{"bike_id":"215840b3-a34c-43e4-a88f-51478b439d85","system_id":"levelo_inurba_marseille","lat":43.28632,"lon":5.35065,"is_reserved":false,"is_disabled":false,"rental_uris":{"android":"levelo://app?vid=215840b3-a34c-43e4-a88f-51478b439d85","ios":"levelo://app?vid=215840b3-a34c-43e4-a88f-51478b439d85"},"vehicle_type_id":"4","last_reported":1751051297,"current_range_meters":9200,"station_id":"ce4bhch2rcd13ifvqeug","pricing_plan_id":"cebpf4jnsgd1na2vs0mg"},{"bike_id":"2507e381-b75e-4802-838b-d609dccdefae","system_id":"levelo_inurba_marseille","lat":43.27917,"lon":5.39577,"is_reserved":false,"is_disabled":false,"rental_uris":{"android":"levelo://app?vid=2507e381-b75e-4802-838b-d609dccdefae","ios":"levelo://app?vid=2507e381-b75e-4802-838b-d609dccdefae"},"vehicle_type_id":"4","last_reported":1751051297,"current_range_meters":9200,"station_id":"ce4bhf92rcd13ifvqf40","pricing_plan_id":"cebpf4jnsgd1na2vs0mg"},{"bike_id":"25c4304d-5a09-4082-b8d2-d22b50c5e99b","system_id":"levelo_inurba_marseille","lat":43.26198,"lon":5.37445,"is_reserved":false,"is_disabled":false,"rental_uris":{"android":"levelo://app?vid=25c4304d-5a09-4082-b8d2-d22b50c5e99b","ios":"levelo://app?vid=25c4304d-5a09-4082-b8d2-d22b50c5e99b"},"vehicle_type_id":"4","last_reported":1751051297,"current_range_meters":9200,"station_id":"ce4bhgp2rcd13ifvqfc0","pricing_plan_id":"cebpf4jnsgd1na2vs0mg"},{"bike_id":"ebebc1d7-f3aa-4e4d-8891-28a6bf9f9f3a","system_id":"levelo_inurba_marseille","lat":43.27946,"lon":5.41049,"is_reserved":false,"is_disabled":false,"rental_uris":{"android":"levelo://app?vid=ebebc1d7-f3aa-4e4d-8891-28a6bf9f9f3a","ios":"levelo://app?vid=ebebc1d7-f3aa-4e4d-8891-28a6bf9f9f3a"},"vehicle_type_id":"4","last_reported":1751051297,"current_range_meters":9200,"station_id":"ce4bhnp2rcd13ifvqh0g","pricing_plan_id":"cebpf4jnsgd1na2vs0mg"},{"bike_id":"9a8588cf-301f-40eb-89a3-804bbc46bc3b","system_id":"levelo_inurba_marseille","lat":43.29191,"lon":5.39318,"is_reserved":false,"is_disabled":false,"rental_uris":{"android":"levelo://app?vid=9a8588cf-301f-40eb-89a3-804bbc46bc3b","ios":"levelo://app?vid=9a8588cf-301f-40eb-89a3-804bbc46bc3b"},"vehicle_type_id":"4","last_reported":1751051297,"current_range_meters":9600,"station_id":"ce4bh192rcd13ifvqdd0","pricing_plan_id":"cebpf4jnsgd1na2vs0mg"},{"bike_id":"d02aa927-f70f-461f-a3cd-6aa2cb2ef16f","system_id":"levelo_inurba_marseille","lat":43.28413,"lon":5.34979,"is_reserved":false,"is_disabled":false,"rental_uris":{"android":"levelo://app?vid=d02aa927-f70f-461f-a3cd-6aa2cb2ef16f","ios":"levelo://app?vid=d02aa927-f70f-461f-a3cd-6aa2cb2ef16f"},"vehicle_type_id":"4","last_reported":1751051297,"current_range_meters":9600,"station_id":"ce4bhbh2rcd13ifvqepg","pricing_plan_id":"cebpf4jnsgd1na2vs0mg"},{"bike_id":"70849bcc-1264-4522-9f60-a5f973a99804","system_id":"levelo_inurba_marseille","lat":43.28141,"lon":5.426317,"is_reserved":false,"is_disabled":false,"rental_uris":{"android":"levelo://app?vid=70849bcc-1264-4522-9f60-a5f973a99804","ios":"levelo://app?vid=70849bcc-1264-4522-9f60-a5f973a99804"},"vehicle_type_id":"4","last_reported":1751051297,"current_range_meters":9600,"station_id":"ce4bhnh2rcd13ifvqgug","pricing_plan_id":"cebpf4jnsgd1na2vs0mg"},{"bike_id":"b644e4ca-4aaa-4220-a6b2-f15d96813b69","system_id":"levelo_inurba_marseille","lat":43.33739,"lon":5.39171,"is_reserved":false,"is_disabled":false,"rental_uris":{"android":"levelo://app?vid=b644e4ca-4aaa-4220-a6b2-f15d96813b69","ios":"levelo://app?vid=b644e4ca-4aaa-4220-a6b2-f15d96813b69"},"vehicle_type_id":"4","last_reported":1751051297,"current_range_meters":9600,"station_id":"ce4bhr92rcd13ifvqhsg","pricing_plan_id":"cebpf4jnsgd1na2vs0mg"},{"bike_id":"b7d0d8a1-c5dd-4278-8b3b-f5786872fe32","system_id":"levelo_inurba_marseille","lat":43.32123,"lon":5.36758,"is_reserved":false,"is_disabled":false,"rental_uris":{"android":"levelo://app?vid=b7d0d8a1-c5dd-4278-8b3b-f5786872fe32","ios":"levelo://app?vid=b7d0d8a1-c5dd-4278-8b3b-f5786872fe32"},"vehicle_type_id":"4","last_reported":1751051297,"current_range_meters":9600,"station_id":"ce4bhrh2rcd13ifvqhug","pricing_plan_id":"cebpf4jnsgd1na2vs0mg"},{"bike_id":"549e9a67-0c57-452d-b2df-11332c05c405","system_id":"levelo_inurba_marseille","lat":43.29305,"lon":5.37455,"is_reserved":false,"is_disabled":false,"rental_uris":{"android":"levelo://app?vid=549e9a67-0c57-452d-b2df-11332c05c405","ios":"levelo://app?vid=549e9a67-0c57-452d-b2df-11332c05c405"},"vehicle_type_id":"4","last_reported":1751051297,"current_range_meters":10000,"station_id":"ce4bgi12rcd13ifvqb70","pricing_plan_id":"cebpf4jnsgd1na2vs0mg"},{"bike_id":"f1299479-81e3-4dec-aa8e-bee1f5e5ecc7","system_id":"levelo_inurba_marseille","lat":43.28421,"lon":5.34988,"is_reserved":false,"is_disabled":false,"rental_uris":{"android":"levelo://app?vid=f1299479-81e3-4dec-aa8e-bee1f5e5ecc7","ios":"levelo://app?vid=f1299479-81e3-4dec-aa8e-bee1f5e5ecc7"},"vehicle_type_id":"4","last_reported":1751051297,"current_range_meters":10000,"station_id":"ce4bhbh2rcd13ifvqepg","pricing_plan_id":"cebpf4jnsgd1na2vs0mg"},{"bike_id":"df9d330a-cbd4-4597-b999-ed135ac2cc4e","system_id":"levelo_inurba_marseille","lat":43.286183,"lon":5.350961,"is_reserved":false,"is_disabled":false,"rental_uris":{"android":"levelo://app?vid=df9d330a-cbd4-4597-b999-ed135ac2cc4e","ios":"levelo://app?vid=df9d330a-cbd4-4597-b999-ed135ac2cc4e"},"vehicle_type_id":"4","last_reported":1751051297,"current_range_meters":10000,"station_id":"ce4bhch2rcd13ifvqeug","pricing_plan_id":"cebpf4jnsgd1na2vs0mg"},{"bike_id":"9f33d033-c934-4661-8502-ca615f4e91e9","system_id":"levelo_inurba_marseille","lat":43.2294,"lon":5.35363,"is_reserved":false,"is_disabled":false,"rental_uris":{"android":"levelo://app?vid=9f33d033-c934-4661-8502-ca615f4e91e9","ios":"levelo://app?vid=9f33d033-c934-4661-8502-ca615f4e91e9"},"vehicle_type_id":"4","last_reported":1751051297,"current_range_meters":10000,"station_id":"cpo3532slgdg3j2ikp40","pricing_plan_id":"cebpf4jnsgd1na2vs0mg"},{"bike_id":"21cd8269-0955-47fe-9cf9-c0c528270e6f","system_id":"levelo_inurba_marseille","lat":43.268343,"lon":5.402837,"is_reserved":false,"is_disabled":false,"rental_uris":{"android":"levelo://app?vid=21cd8269-0955-47fe-9cf9-c0c528270e6f","ios":"levelo://app?vid=21cd8269-0955-47fe-9cf9-c0c528270e6f"},"vehicle_type_id":"4","last_reported":1751051297,"current_range_meters":10800,"station_id":"","pricing_plan_id":"cebpf4jnsgd1na2vs0mg"},{"bike_id":"d93518a7-acea-49d1-8b1d-66917831e25a","system_id":"levelo_inurba_marseille","lat":43.283672,"lon":5.395868,"is_reserved":false,"is_disabled":false,"rental_uris":{"android":"levelo://app?vid=d93518a7-acea-49d1-8b1d-66917831e25a","ios":"levelo://app?vid=d93518a7-acea-49d1-8b1d-66917831e25a"},"vehicle_type_id":"4","last_reported":1751051297,"current_range_meters":10800,"station_id":"","pricing_plan_id":"cebpf4jnsgd1na2vs0mg"},{"bike_id":"3e6ddd3c-47c9-4057-bede-2b2d10eab3cb","system_id":"levelo_inurba_marseille","lat":43.28614,"lon":5.35101,"is_reserved":false,"is_disabled":false,"rental_uris":{"android":"levelo://app?vid=3e6ddd3c-47c9-4057-bede-2b2d10eab3cb","ios":"levelo://app?vid=3e6ddd3c-47c9-4057-bede-2b2d10eab3cb"},"vehicle_type_id":"4","last_reported":1751051297,"current_range_meters":10800,"station_id":"ce4bhch2rcd13ifvqeug","pricing_plan_id":"cebpf4jnsgd1na2vs0mg"},{"bike_id":"d062a28b-0035-4c1a-a3f5-0d54094d9fd6","system_id":"levelo_inurba_marseille","lat":43.28443,"lon":5.39202,"is_reserved":false,"is_disabled":false,"rental_uris":{"android":"levelo://app?vid=d062a28b-0035-4c1a-a3f5-0d54094d9fd6","ios":"levelo://app?vid=d062a28b-0035-4c1a-a3f5-0d54094d9fd6"},"vehicle_type_id":"4","last_reported":1751051297,"current_range_meters":10800,"station_id":"ce4bhoh2rcd13ifvqh5g","pricing_plan_id":"cebpf4jnsgd1na2vs0mg"},{"bike_id":"83379f8e-8a30-4b1e-b095-240fd49abfa1","system_id":"levelo_inurba_marseille","lat":43.31993,"lon":5.38167,"is_reserved":false,"is_disabled":false,"rental_uris":{"android":"levelo://app?vid=83379f8e-8a30-4b1e-b095-240fd49abfa1","ios":"levelo://app?vid=83379f8e-8a30-4b1e-b095-240fd49abfa1"},"vehicle_type_id":"4","last_reported":1751051297,"current_range_meters":10800,"station_id":"ce4bhr12rcd13ifvqhpg","pricing_plan_id":"cebpf4jnsgd1na2vs0mg"},{"bike_id":"1c8ab180-05fd-405f-9922-b2b2c2d5142f","system_id":"levelo_inurba_marseille","lat":43.32121,"lon":5.36802,"is_reserved":false,"is_disabled":false,"rental_uris":{"android":"levelo://app?vid=1c8ab180-05fd-405f-9922-b2b2c2d5142f","ios":"levelo://app?vid=1c8ab180-05fd-405f-9922-b2b2c2d5142f"},"vehicle_type_id":"4","last_reported":1751051297,"current_range_meters":10800,"station_id":"ce4bhrh2rcd13ifvqhug","pricing_plan_id":"cebpf4jnsgd1na2vs0mg"},{"bike_id":"a440f2f6-8cf8-4348-9ba1-e21002a18a07","system_id":"levelo_inurba_marseille","lat":43.32118,"lon":5.36775,"is_reserved":false,"is_disabled":false,"rental_uris":{"android":"levelo://app?vid=a440f2f6-8cf8-4348-9ba1-e21002a18a07","ios":"levelo://app?vid=a440f2f6-8cf8-4348-9ba1-e21002a18a07"},"vehicle_type_id":"4","last_reported":1751051297,"current_range_meters":10800,"station_id":"ce4bhrh2rcd13ifvqhug","pricing_plan_id":"cebpf4jnsgd1na2vs0mg"},{"bike_id":"3e82f598-9d1d-4257-8afa-a4dc7305de09","system_id":"levelo_inurba_marseille","lat":43.211904,"lon":5.35079,"is_reserved":false,"is_disabled":false,"rental_uris":{"android":"levelo://app?vid=3e82f598-9d1d-4257-8afa-a4dc7305de09","ios":"levelo://app?vid=3e82f598-9d1d-4257-8afa-a4dc7305de09"},"vehicle_type_id":"4","last_reported":1751051297,"current_range_meters":10800,"station_id":"st_cvj6sg6p6f1abm77japg","pricing_plan_id":"cebpf4jnsgd1na2vs0mg"},{"bike_id":"273afe46-2e39-4398-8338-8a4d25f54624","system_id":"levelo_inurba_marseille","lat":43.29782,"lon":5.38131,"is_reserved":false,"is_disabled":false,"rental_uris":{"android":"levelo://app?vid=273afe46-2e39-4398-8338-8a4d25f54624","ios":"levelo://app?vid=273afe46-2e39-4398-8338-8a4d25f54624"},"vehicle_type_id":"4","last_reported":1751051297,"current_range_meters":11200,"station_id":"ce4bgip2rcd13ifvqbb0","pricing_plan_id":"cebpf4jnsgd1na2vs0mg"},{"bike_id":"735fb3ec-51d3-42a0-b0e0-35a6ef148211","system_id":"levelo_inurba_marseille","lat":43.309052,"lon":5.368424,"is_reserved":false,"is_disabled":false,"rental_uris":{"android":"levelo://app?vid=735fb3ec-51d3-42a0-b0e0-35a6ef148211","ios":"levelo://app?vid=735fb3ec-51d3-42a0-b0e0-35a6ef148211"},"vehicle_type_id":"4","last_reported":1751051297,"current_range_meters":11200,"station_id":"ce4bgn92rcd13ifvqbvg","pricing_plan_id":"cebpf4jnsgd1na2vs0mg"},{"bike_id":"f8664446-a884-46e0-9c57-067d7bc8b2a1","system_id":"levelo_inurba_marseille","lat":43.29227,"lon":5.3607,"is_reserved":false,"is_disabled":false,"rental_uris":{"android":"levelo://app?vid=f8664446-a884-46e0-9c57-067d7bc8b2a1","ios":"levelo://app?vid=f8664446-a884-46e0-9c57-067d7bc8b2a1"},"vehicle_type_id":"4","last_reported":1751051297,"current_range_meters":11200,"station_id":"ce4bhbh2rcd13ifvqeqg","pricing_plan_id":"cebpf4jnsgd1na2vs0mg"},{"bike_id":"bb3c5cf5-f059-43c3-88bf-b44692ea106e","system_id":"levelo_inurba_marseille","lat":43.290746,"lon":5.371487,"is_reserved":false,"is_disabled":false,"rental_uris":{"android":"levelo://app?vid=bb3c5cf5-f059-43c3-88bf-b44692ea106e","ios":"levelo://app?vid=bb3c5cf5-f059-43c3-88bf-b44692ea106e"},"vehicle_type_id":"4","last_reported":1751051297,"current_range_meters":11600,"station_id":"ce4bh5p2rcd13ifvqe4g","pricing_plan_id":"cebpf4jnsgd1na2vs0mg"},{"bike_id":"93309bf0-af17-487d-80fc-fd81bf373fb9","system_id":"levelo_inurba_marseille","lat":43.28425,"lon":5.34985,"is_reserved":false,"is_disabled":false,"rental_uris":{"android":"levelo://app?vid=93309bf0-af17-487d-80fc-fd81bf373fb9","ios":"levelo://app?vid=93309bf0-af17-487d-80fc-fd81bf373fb9"},"vehicle_type_id":"4","last_reported":1751051297,"current_range_meters":11600,"station_id":"ce4bhbh2rcd13ifvqepg","pricing_plan_id":"cebpf4jnsgd1na2vs0mg"},{"bike_id":"576aff54-561c-4e1b-87a7-62b2d657e67d","system_id":"levelo_inurba_marseille","lat":43.23182,"lon":5.39978,"is_reserved":false,"is_disabled":false,"rental_uris":{"android":"levelo://app?vid=576aff54-561c-4e1b-87a7-62b2d657e67d","ios":"levelo://app?vid=576aff54-561c-4e1b-87a7-62b2d657e67d"},"vehicle_type_id":"4","last_reported":1751051297,"current_range_meters":11600,"station_id":"ce4bhn12rcd13ifvqgqg","pricing_plan_id":"cebpf4jnsgd1na2vs0mg"},{"bike_id":"5d5e13a4-10cc-485c-a362-06d02242e666","system_id":"levelo_inurba_marseille","lat":43.21193,"lon":5.35047,"is_reserved":false,"is_disabled":false,"rental_uris":{"android":"levelo://app?vid=5d5e13a4-10cc-485c-a362-06d02242e666","ios":"levelo://app?vid=5d5e13a4-10cc-485c-a362-06d02242e666"},"vehicle_type_id":"4","last_reported":1751051297,"current_range_meters":11600,"station_id":"st_cvj6sg6p6f1abm77japg","pricing_plan_id":"cebpf4jnsgd1na2vs0mg"},{"bike_id":"8937e58e-5703-49d9-b2d6-6f0a04b19c36","system_id":"levelo_inurba_marseille","lat":43.28611,"lon":5.35031,"is_reserved":false,"is_disabled":false,"rental_uris":{"android":"levelo://app?vid=8937e58e-5703-49d9-b2d6-6f0a04b19c36","ios":"levelo://app?vid=8937e58e-5703-49d9-b2d6-6f0a04b19c36"},"vehicle_type_id":"4","last_reported":1751051297,"current_range_meters":12000,"station_id":"","pricing_plan_id":"cebpf4jnsgd1na2vs0mg"},{"bike_id":"5a01ae6d-9064-484c-8d77-2d9e141e2313","system_id":"levelo_inurba_marseille","lat":43.24484,"lon":5.39009,"is_reserved":false,"is_disabled":false,"rental_uris":{"android":"levelo://app?vid=5a01ae6d-9064-484c-8d77-2d9e141e2313","ios":"levelo://app?vid=5a01ae6d-9064-484c-8d77-2d9e141e2313"},"vehicle_type_id":"4","last_reported":1751051297,"current_range_meters":12000,"station_id":"","pricing_plan_id":"cebpf4jnsgd1na2vs0mg"},{"bike_id":"934c0f1f-74e9-4dc3-964c-a90cf008b33b","system_id":"levelo_inurba_marseille","lat":43.29522,"lon":5.38523,"is_reserved":false,"is_disabled":false,"rental_uris":{"android":"levelo://app?vid=934c0f1f-74e9-4dc3-964c-a90cf008b33b","ios":"levelo://app?vid=934c0f1f-74e9-4dc3-964c-a90cf008b33b"},"vehicle_type_id":"4","last_reported":1751051297,"current_range_meters":12000,"station_id":"ce4bgih2rcd13ifvqba0","pricing_plan_id":"cebpf4jnsgd1na2vs0mg"},{"bike_id":"2af004a0-7691-4aa6-bf9d-d6d30bf12fe8","system_id":"levelo_inurba_marseille","lat":43.284596,"lon":5.380519,"is_reserved":false,"is_disabled":false,"rental_uris":{"android":"levelo://app?vid=2af004a0-7691-4aa6-bf9d-d6d30bf12fe8","ios":"levelo://app?vid=2af004a0-7691-4aa6-bf9d-d6d30bf12fe8"},"vehicle_type_id":"4","last_reported":1751051297,"current_range_meters":12000,"station_id":"ce4bh412rcd13ifvqdr0","pricing_plan_id":"cebpf4jnsgd1na2vs0mg"},{"bike_id":"56e5c993-1e34-44f3-bad9-e9eaa34d95e8","system_id":"levelo_inurba_marseille","lat":43.2804,"lon":5.36945,"is_reserved":false,"is_disabled":false,"rental_uris":{"android":"levelo://app?vid=56e5c993-1e34-44f3-bad9-e9eaa34d95e8","ios":"levelo://app?vid=56e5c993-1e34-44f3-bad9-e9eaa34d95e8"},"vehicle_type_id":"4","last_reported":1751051297,"current_range_meters":12000,"station_id":"ce4bha12rcd13ifvqef0","pricing_plan_id":"cebpf4jnsgd1na2vs0mg"},{"bike_id":"2d7f6ee9-c83b-47f6-bb55-313293547e1b","system_id":"levelo_inurba_marseille","lat":43.27372,"lon":5.36257,"is_reserved":false,"is_disabled":false,"rental_uris":{"android":"levelo://app?vid=2d7f6ee9-c83b-47f6-bb55-313293547e1b","ios":"levelo://app?vid=2d7f6ee9-c83b-47f6-bb55-313293547e1b"},"vehicle_type_id":"4","last_reported":1751051297,"current_range_meters":12000,"station_id":"ce4bhbh2rcd13ifvqeo0","pricing_plan_id":"cebpf4jnsgd1na2vs0mg"},{"bike_id":"e2e67432-2c3a-43f0-807b-c10b260bb9a2","system_id":"levelo_inurba_marseille","lat":43.2841,"lon":5.34991,"is_reserved":false,"is_disabled":false,"rental_uris":{"android":"levelo://app?vid=e2e67432-2c3a-43f0-807b-c10b260bb9a2","ios":"levelo://app?vid=e2e67432-2c3a-43f0-807b-c10b260bb9a2"},"vehicle_type_id":"4","last_reported":1751051297,"current_range_meters":12000,"station_id":"ce4bhbh2rcd13ifvqepg","pricing_plan_id":"cebpf4jnsgd1na2vs0mg"},{"bike_id":"72ffdb58-3df8-4fd2-ab54-dff183e60070","system_id":"levelo_inurba_marseille","lat":43.33041,"lon":5.39027,"is_reserved":false,"is_disabled":false,"rental_uris":{"android":"levelo://app?vid=72ffdb58-3df8-4fd2-ab54-dff183e60070","ios":"levelo://app?vid=72ffdb58-3df8-4fd2-ab54-dff183e60070"},"vehicle_type_id":"4","last_reported":1751051297,"current_range_meters":12000,"station_id":"ce4bhr92rcd13ifvqhrg","pricing_plan_id":"cebpf4jnsgd1na2vs0mg"},{"bike_id":"c5d43e49-0159-447d-9734-434956362b49","system_id":"levelo_inurba_marseille","lat":43.24173,"lon":5.36381,"is_reserved":false,"is_disabled":false,"rental_uris":{"android":"levelo://app?vid=c5d43e49-0159-447d-9734-434956362b49","ios":"levelo://app?vid=c5d43e49-0159-447d-9734-434956362b49"},"vehicle_type_id":"4","last_reported":1751051297,"current_range_meters":12000,"station_id":"cpo36qri1sfpv3e86is0","pricing_plan_id":"cebpf4jnsgd1na2vs0mg"},{"bike_id":"e5ae1fdd-ad1c-4e69-ac70-f715e6402e6b","system_id":"levelo_inurba_marseille","lat":43.27703,"lon":5.39822,"is_reserved":false,"is_disabled":false,"rental_uris":{"android":"levelo://app?vid=e5ae1fdd-ad1c-4e69-ac70-f715e6402e6b","ios":"levelo://app?vid=e5ae1fdd-ad1c-4e69-ac70-f715e6402e6b"},"vehicle_type_id":"4","last_reported":1751051297,"current_range_meters":12400,"station_id":"","pricing_plan_id":"cebpf4jnsgd1na2vs0mg"},{"bike_id":"54b3217b-94f3-457e-bc19-1b582b0521f2","system_id":"levelo_inurba_marseille","lat":43.284127,"lon":5.349921,"is_reserved":false,"is_disabled":false,"rental_uris":{"android":"levelo://app?vid=54b3217b-94f3-457e-bc19-1b582b0521f2","ios":"levelo://app?vid=54b3217b-94f3-457e-bc19-1b582b0521f2"},"vehicle_type_id":"4","last_reported":1751051297,"current_range_meters":12800,"station_id":"ce4bhbh2rcd13ifvqepg","pricing_plan_id":"cebpf4jnsgd1na2vs0mg"},{"bike_id":"80fa7491-189d-4ba2-9da0-d8b919a2df7d","system_id":"levelo_inurba_marseille","lat":43.31736,"lon":5.42389,"is_reserved":false,"is_disabled":false,"rental_uris":{"android":"levelo://app?vid=80fa7491-189d-4ba2-9da0-d8b919a2df7d","ios":"levelo://app?vid=80fa7491-189d-4ba2-9da0-d8b919a2df7d"},"vehicle_type_id":"4","last_reported":1751051297,"current_range_meters":12800,"station_id":"ce4bhp92rcd13ifvqhbg","pricing_plan_id":"cebpf4jnsgd1na2vs0mg"},{"bike_id":"5c73e4ed-0fb6-457d-8b8c-a058d3d12b2f","system_id":"levelo_inurba_marseille","lat":43.31708,"lon":5.43706,"is_reserved":false,"is_disabled":false,"rental_uris":{"android":"levelo://app?vid=5c73e4ed-0fb6-457d-8b8c-a058d3d12b2f","ios":"levelo://app?vid=5c73e4ed-0fb6-457d-8b8c-a058d3d12b2f"},"vehicle_type_id":"4","last_reported":1751051297,"current_range_meters":12800,"station_id":"ce4bhp92rcd13ifvqhcg","pricing_plan_id":"cebpf4jnsgd1na2vs0mg"},{"bike_id":"db87bbf7-9c69-44d5-bf18-e2ccd0733553","system_id":"levelo_inurba_marseille","lat":43.24177,"lon":5.36394,"is_reserved":false,"is_disabled":false,"rental_uris":{"android":"levelo://app?vid=db87bbf7-9c69-44d5-bf18-e2ccd0733553","ios":"levelo://app?vid=db87bbf7-9c69-44d5-bf18-e2ccd0733553"},"vehicle_type_id":"4","last_reported":1751051297,"current_range_meters":12800,"station_id":"cpo36qri1sfpv3e86is0","pricing_plan_id":"cebpf4jnsgd1na2vs0mg"},{"bike_id":"46fc1da8-b21e-49ec-9f51-bd3892d403d9","system_id":"levelo_inurba_marseille","lat":43.24188,"lon":5.36379,"is_reserved":false,"is_disabled":false,"rental_uris":{"android":"levelo://app?vid=46fc1da8-b21e-49ec-9f51-bd3892d403d9","ios":"levelo://app?vid=46fc1da8-b21e-49ec-9f51-bd3892d403d9"},"vehicle_type_id":"4","last_reported":1751051297,"current_range_meters":12800,"station_id":"cpo36qri1sfpv3e86is0","pricing_plan_id":"cebpf4jnsgd1na2vs0mg"},{"bike_id":"f0057ca2-de2d-4464-8902-068dc3677e00","system_id":"levelo_inurba_marseille","lat":43.21208,"lon":5.35063,"is_reserved":false,"is_disabled":false,"rental_uris":{"android":"levelo://app?vid=f0057ca2-de2d-4464-8902-068dc3677e00","ios":"levelo://app?vid=f0057ca2-de2d-4464-8902-068dc3677e00"},"vehicle_type_id":"4","last_reported":1751051297,"current_range_meters":12800,"station_id":"st_cvj6sg6p6f1abm77japg","pricing_plan_id":"cebpf4jnsgd1na2vs0mg"},{"bike_id":"bb69c1e1-7084-4be7-966a-57a7bcdfcb6c","system_id":"levelo_inurba_marseille","lat":43.24641,"lon":5.41577,"is_reserved":false,"is_disabled":false,"rental_uris":{"android":"levelo://app?vid=bb69c1e1-7084-4be7-966a-57a7bcdfcb6c","ios":"levelo://app?vid=bb69c1e1-7084-4be7-966a-57a7bcdfcb6c"},"vehicle_type_id":"4","last_reported":1751051297,"current_range_meters":13600,"station_id":"","pricing_plan_id":"cebpf4jnsgd1na2vs0mg"},{"bike_id":"22d18603-b0a4-4bea-afa3-5b5a0827b2c4","system_id":"levelo_inurba_marseille","lat":43.29575,"lon":5.3751,"is_reserved":false,"is_disabled":false,"rental_uris":{"android":"levelo://app?vid=22d18603-b0a4-4bea-afa3-5b5a0827b2c4","ios":"levelo://app?vid=22d18603-b0a4-4bea-afa3-5b5a0827b2c4"},"vehicle_type_id":"4","last_reported":1751051297,"current_range_meters":13600,"station_id":"ce4bgh92rcd13ifvqb50","pricing_plan_id":"cebpf4jnsgd1na2vs0mg"},{"bike_id":"3f40250d-de7a-433b-877d-5d5a1e295d35","system_id":"levelo_inurba_marseille","lat":43.29646,"lon":5.37175,"is_reserved":false,"is_disabled":false,"rental_uris":{"android":"levelo://app?vid=3f40250d-de7a-433b-877d-5d5a1e295d35","ios":"levelo://app?vid=3f40250d-de7a-433b-877d-5d5a1e295d35"},"vehicle_type_id":"4","last_reported":1751051297,"current_range_meters":13600,"station_id":"ce4bgnh2rcd13ifvqc0g","pricing_plan_id":"cebpf4jnsgd1na2vs0mg"},{"bike_id":"45034627-f617-46a0-9bac-7893386f4db0","system_id":"levelo_inurba_marseille","lat":43.29873,"lon":5.39732,"is_reserved":false,"is_disabled":false,"rental_uris":{"android":"levelo://app?vid=45034627-f617-46a0-9bac-7893386f4db0","ios":"levelo://app?vid=45034627-f617-46a0-9bac-7893386f4db0"},"vehicle_type_id":"4","last_reported":1751051297,"current_range_meters":13600,"station_id":"ce4bh0h2rcd13ifvqd50","pricing_plan_id":"cebpf4jnsgd1na2vs0mg"},{"bike_id":"cd158bdf-8d65-4aa4-a2a1-37b39065d25a","system_id":"levelo_inurba_marseille","lat":43.26542,"lon":5.37267,"is_reserved":false,"is_disabled":false,"rental_uris":{"android":"levelo://app?vid=cd158bdf-8d65-4aa4-a2a1-37b39065d25a","ios":"levelo://app?vid=cd158bdf-8d65-4aa4-a2a1-37b39065d25a"},"vehicle_type_id":"4","last_reported":1751051297,"current_range_meters":13600,"station_id":"ce4bhg12rcd13ifvqf70","pricing_plan_id":"cebpf4jnsgd1na2vs0mg"},{"bike_id":"005cfaea-0c89-4fd2-915d-b2577822bd10","system_id":"levelo_inurba_marseille","lat":43.25826,"lon":5.39434,"is_reserved":false,"is_disabled":false,"rental_uris":{"android":"levelo://app?vid=005cfaea-0c89-4fd2-915d-b2577822bd10","ios":"levelo://app?vid=005cfaea-0c89-4fd2-915d-b2577822bd10"},"vehicle_type_id":"4","last_reported":1751051297,"current_range_meters":13600,"station_id":"ce4bhip2rcd13ifvqft0","pricing_plan_id":"cebpf4jnsgd1na2vs0mg"},{"bike_id":"2a9a5366-8dad-42f1-bee6-ffb042c54776","system_id":"levelo_inurba_marseille","lat":43.211895,"lon":5.350739,"is_reserved":false,"is_disabled":false,"rental_uris":{"android":"levelo://app?vid=2a9a5366-8dad-42f1-bee6-ffb042c54776","ios":"levelo://app?vid=2a9a5366-8dad-42f1-bee6-ffb042c54776"},"vehicle_type_id":"4","last_reported":1751051297,"current_range_meters":13600,"station_id":"st_cvj6sg6p6f1abm77japg","pricing_plan_id":"cebpf4jnsgd1na2vs0mg"},{"bike_id":"b5c97de4-ebb6-49f8-943b-e80e95be2b6f","system_id":"levelo_inurba_marseille","lat":43.30267,"lon":5.3772,"is_reserved":false,"is_disabled":false,"rental_uris":{"android":"levelo://app?vid=b5c97de4-ebb6-49f8-943b-e80e95be2b6f","ios":"levelo://app?vid=b5c97de4-ebb6-49f8-943b-e80e95be2b6f"},"vehicle_type_id":"4","last_reported":1751051297,"current_range_meters":14000,"station_id":"ce4bguh2rcd13ifvqcj0","pricing_plan_id":"cebpf4jnsgd1na2vs0mg"},{"bike_id":"ee832b73-5af5-474f-a657-50bad234bc8a","system_id":"levelo_inurba_marseille","lat":43.28428,"lon":5.34985,"is_reserved":false,"is_disabled":false,"rental_uris":{"android":"levelo://app?vid=ee832b73-5af5-474f-a657-50bad234bc8a","ios":"levelo://app?vid=ee832b73-5af5-474f-a657-50bad234bc8a"},"vehicle_type_id":"4","last_reported":1751051297,"current_range_meters":14000,"station_id":"ce4bhbh2rcd13ifvqepg","pricing_plan_id":"cebpf4jnsgd1na2vs0mg"},{"bike_id":"fb2c5b4a-60db-46bb-800e-2abf8bdea4b9","system_id":"levelo_inurba_marseille","lat":43.28279,"lon":5.35034,"is_reserved":false,"is_disabled":false,"rental_uris":{"android":"levelo://app?vid=fb2c5b4a-60db-46bb-800e-2abf8bdea4b9","ios":"levelo://app?vid=fb2c5b4a-60db-46bb-800e-2abf8bdea4b9"},"vehicle_type_id":"4","last_reported":1751051297,"current_range_meters":14000,"station_id":"ce4bhbp2rcd13ifvqerg","pricing_plan_id":"cebpf4jnsgd1na2vs0mg"},{"bike_id":"6910b214-f4f8-4108-ba03-c3a5bc8e06b5","system_id":"levelo_inurba_marseille","lat":43.322883,"lon":5.382763,"is_reserved":false,"is_disabled":false,"rental_uris":{"android":"levelo://app?vid=6910b214-f4f8-4108-ba03-c3a5bc8e06b5","ios":"levelo://app?vid=6910b214-f4f8-4108-ba03-c3a5bc8e06b5"},"vehicle_type_id":"4","last_reported":1751051297,"current_range_meters":14000,"station_id":"ce4bhr12rcd13ifvqhqg","pricing_plan_id":"cebpf4jnsgd1na2vs0mg"},{"bike_id":"a0ff1511-f086-4386-bdb2-dec1141a206e","system_id":"levelo_inurba_marseille","lat":43.280388,"lon":5.369425,"is_reserved":false,"is_disabled":false,"rental_uris":{"android":"levelo://app?vid=a0ff1511-f086-4386-bdb2-dec1141a206e","ios":"levelo://app?vid=a0ff1511-f086-4386-bdb2-dec1141a206e"},"vehicle_type_id":"4","last_reported":1751051297,"current_range_meters":14400,"station_id":"ce4bha12rcd13ifvqef0","pricing_plan_id":"cebpf4jnsgd1na2vs0mg"},{"bike_id":"87dc51b1-7db4-46a7-b84f-5173edfa7491","system_id":"levelo_inurba_marseille","lat":43.273705,"lon":5.362545,"is_reserved":false,"is_disabled":false,"rental_uris":{"android":"levelo://app?vid=87dc51b1-7db4-46a7-b84f-5173edfa7491","ios":"levelo://app?vid=87dc51b1-7db4-46a7-b84f-5173edfa7491"},"vehicle_type_id":"4","last_reported":1751051297,"current_range_meters":14400,"station_id":"ce4bhbh2rcd13ifvqeo0","pricing_plan_id":"cebpf4jnsgd1na2vs0mg"},{"bike_id":"30612d5f-6de8-4bab-a745-6bf73f5af1dc","system_id":"levelo_inurba_marseille","lat":43.28422,"lon":5.349923,"is_reserved":false,"is_disabled":false,"rental_uris":{"android":"levelo://app?vid=30612d5f-6de8-4bab-a745-6bf73f5af1dc","ios":"levelo://app?vid=30612d5f-6de8-4bab-a745-6bf73f5af1dc"},"vehicle_type_id":"4","last_reported":1751051297,"current_range_meters":14400,"station_id":"ce4bhbh2rcd13ifvqepg","pricing_plan_id":"cebpf4jnsgd1na2vs0mg"},{"bike_id":"b68f667d-6589-4c00-806a-c74284cd581d","system_id":"levelo_inurba_marseille","lat":43.28257,"lon":5.35066,"is_reserved":false,"is_disabled":false,"rental_uris":{"android":"levelo://app?vid=b68f667d-6589-4c00-806a-c74284cd581d","ios":"levelo://app?vid=b68f667d-6589-4c00-806a-c74284cd581d"},"vehicle_type_id":"4","last_reported":1751051297,"current_range_meters":14400,"station_id":"ce4bhbp2rcd13ifvqerg","pricing_plan_id":"cebpf4jnsgd1na2vs0mg"},{"bike_id":"d5e70777-ad97-4594-91b6-43ede9611b14","system_id":"levelo_inurba_marseille","lat":43.3211,"lon":5.36774,"is_reserved":false,"is_disabled":false,"rental_uris":{"android":"levelo://app?vid=d5e70777-ad97-4594-91b6-43ede9611b14","ios":"levelo://app?vid=d5e70777-ad97-4594-91b6-43ede9611b14"},"vehicle_type_id":"4","last_reported":1751051297,"current_range_meters":14400,"station_id":"ce4bhrh2rcd13ifvqhug","pricing_plan_id":"cebpf4jnsgd1na2vs0mg"},{"bike_id":"7dfc5216-abd2-4eb0-aa98-27c7a95c769d","system_id":"levelo_inurba_marseille","lat":43.22933,"lon":5.35381,"is_reserved":false,"is_disabled":false,"rental_uris":{"android":"levelo://app?vid=7dfc5216-abd2-4eb0-aa98-27c7a95c769d","ios":"levelo://app?vid=7dfc5216-abd2-4eb0-aa98-27c7a95c769d"},"vehicle_type_id":"4","last_reported":1751051297,"current_range_meters":14400,"station_id":"cpo3532slgdg3j2ikp40","pricing_plan_id":"cebpf4jnsgd1na2vs0mg"},{"bike_id":"2c72c9b1-564b-478a-b039-4fb6c52967cc","system_id":"levelo_inurba_marseille","lat":43.27489,"lon":5.41053,"is_reserved":false,"is_disabled":false,"rental_uris":{"android":"levelo://app?vid=2c72c9b1-564b-478a-b039-4fb6c52967cc","ios":"levelo://app?vid=2c72c9b1-564b-478a-b039-4fb6c52967cc"},"vehicle_type_id":"4","last_reported":1751051297,"current_range_meters":14800,"station_id":"","pricing_plan_id":"cebpf4jnsgd1na2vs0mg"},{"bike_id":"89c95b8d-8736-4912-abf4-66cf157a310e","system_id":"levelo_inurba_marseille","lat":43.282745,"lon":5.350612,"is_reserved":false,"is_disabled":false,"rental_uris":{"android":"levelo://app?vid=89c95b8d-8736-4912-abf4-66cf157a310e","ios":"levelo://app?vid=89c95b8d-8736-4912-abf4-66cf157a310e"},"vehicle_type_id":"4","last_reported":1751051297,"current_range_meters":14800,"station_id":"ce4bhch2rcd13ifvqeug","pricing_plan_id":"cebpf4jnsgd1na2vs0mg"},{"bike_id":"dc4dd89a-3a8e-45e3-b0d9-2b97ae07c327","system_id":"levelo_inurba_marseille","lat":43.32042,"lon":5.41544,"is_reserved":false,"is_disabled":false,"rental_uris":{"android":"levelo://app?vid=dc4dd89a-3a8e-45e3-b0d9-2b97ae07c327","ios":"levelo://app?vid=dc4dd89a-3a8e-45e3-b0d9-2b97ae07c327"},"vehicle_type_id":"4","last_reported":1751051297,"current_range_meters":14800,"station_id":"ce4bhq92rcd13ifvqhkg","pricing_plan_id":"cebpf4jnsgd1na2vs0mg"},{"bike_id":"bbc4a376-bee7-4ad5-a49a-1022d27c1489","system_id":"levelo_inurba_marseille","lat":43.32107,"lon":5.36732,"is_reserved":false,"is_disabled":false,"rental_uris":{"android":"levelo://app?vid=bbc4a376-bee7-4ad5-a49a-1022d27c1489","ios":"levelo://app?vid=bbc4a376-bee7-4ad5-a49a-1022d27c1489"},"vehicle_type_id":"4","last_reported":1751051297,"current_range_meters":14800,"station_id":"ce4bhrh2rcd13ifvqhug","pricing_plan_id":"cebpf4jnsgd1na2vs0mg"},{"bike_id":"13726ea4-91b3-4b24-87ce-db653217d50c","system_id":"levelo_inurba_marseille","lat":43.32355,"lon":5.36753,"is_reserved":false,"is_disabled":false,"rental_uris":{"android":"levelo://app?vid=13726ea4-91b3-4b24-87ce-db653217d50c","ios":"levelo://app?vid=13726ea4-91b3-4b24-87ce-db653217d50c"},"vehicle_type_id":"4","last_reported":1751051297,"current_range_meters":14800,"station_id":"ce4bhsh2rcd13ifvqi2g","pricing_plan_id":"cebpf4jnsgd1na2vs0mg"},{"bike_id":"e6ce70f7-9138-485c-a4db-2c9174614cff","system_id":"levelo_inurba_marseille","lat":43.31765,"lon":5.36882,"is_reserved":false,"is_disabled":false,"rental_uris":{"android":"levelo://app?vid=e6ce70f7-9138-485c-a4db-2c9174614cff","ios":"levelo://app?vid=e6ce70f7-9138-485c-a4db-2c9174614cff"},"vehicle_type_id":"4","last_reported":1751051297,"current_range_meters":15200,"station_id":"","pricing_plan_id":"cebpf4jnsgd1na2vs0mg"},{"bike_id":"452cd9b2-8516-445f-b04c-d3c9d3c941a1","system_id":"levelo_inurba_marseille","lat":43.296934,"lon":5.376997,"is_reserved":false,"is_disabled":false,"rental_uris":{"android":"levelo://app?vid=452cd9b2-8516-445f-b04c-d3c9d3c941a1","ios":"levelo://app?vid=452cd9b2-8516-445f-b04c-d3c9d3c941a1"},"vehicle_type_id":"4","last_reported":1751051297,"current_range_meters":15200,"station_id":"ce4bgkh2rcd13ifvqbl0","pricing_plan_id":"cebpf4jnsgd1na2vs0mg"},{"bike_id":"815201a7-dbbe-4827-ab77-bd49f80ea5ee","system_id":"levelo_inurba_marseille","lat":43.29772,"lon":5.46004,"is_reserved":false,"is_disabled":false,"rental_uris":{"android":"levelo://app?vid=815201a7-dbbe-4827-ab77-bd49f80ea5ee","ios":"levelo://app?vid=815201a7-dbbe-4827-ab77-bd49f80ea5ee"},"vehicle_type_id":"4","last_reported":1751051297,"current_range_meters":16000,"station_id":"","pricing_plan_id":"cebpf4jnsgd1na2vs0mg"},{"bike_id":"ad6330cd-b430-4dc1-8339-19ea0cd02f61","system_id":"levelo_inurba_marseille","lat":43.28466,"lon":5.38427,"is_reserved":false,"is_disabled":false,"rental_uris":{"android":"levelo://app?vid=ad6330cd-b430-4dc1-8339-19ea0cd02f61","ios":"levelo://app?vid=ad6330cd-b430-4dc1-8339-19ea0cd02f61"},"vehicle_type_id":"4","last_reported":1751051297,"current_range_meters":16000,"station_id":"ce4bh512rcd13ifvqe3g","pricing_plan_id":"cebpf4jnsgd1na2vs0mg"},{"bike_id":"8735d558-13b5-4ed8-afb9-9b44de7e1f88","system_id":"levelo_inurba_marseille","lat":43.2917,"lon":5.37147,"is_reserved":false,"is_disabled":false,"rental_uris":{"android":"levelo://app?vid=8735d558-13b5-4ed8-afb9-9b44de7e1f88","ios":"levelo://app?vid=8735d558-13b5-4ed8-afb9-9b44de7e1f88"},"vehicle_type_id":"4","last_reported":1751051297,"current_range_meters":16000,"station_id":"ce4bha92rcd13ifvqeh0","pricing_plan_id":"cebpf4jnsgd1na2vs0mg"},{"bike_id":"7bfebeed-a687-45ba-924f-1a4f2c2b55bd","system_id":"levelo_inurba_marseille","lat":43.28439,"lon":5.34978,"is_reserved":false,"is_disabled":false,"rental_uris":{"android":"levelo://app?vid=7bfebeed-a687-45ba-924f-1a4f2c2b55bd","ios":"levelo://app?vid=7bfebeed-a687-45ba-924f-1a4f2c2b55bd"},"vehicle_type_id":"4","last_reported":1751051297,"current_range_meters":16000,"station_id":"ce4bhbh2rcd13ifvqepg","pricing_plan_id":"cebpf4jnsgd1na2vs0mg"},{"bike_id":"387e373c-f790-4076-bdab-f91e310425bf","system_id":"levelo_inurba_marseille","lat":43.28414,"lon":5.34975,"is_reserved":false,"is_disabled":false,"rental_uris":{"android":"levelo://app?vid=387e373c-f790-4076-bdab-f91e310425bf","ios":"levelo://app?vid=387e373c-f790-4076-bdab-f91e310425bf"},"vehicle_type_id":"4","last_reported":1751051297,"current_range_meters":16000,"station_id":"ce4bhbh2rcd13ifvqepg","pricing_plan_id":"cebpf4jnsgd1na2vs0mg"},{"bike_id":"d9d67dad-bdfd-4fa1-bcda-b7aeee3ee411","system_id":"levelo_inurba_marseille","lat":43.28071,"lon":5.39661,"is_reserved":false,"is_disabled":false,"rental_uris":{"android":"levelo://app?vid=d9d67dad-bdfd-4fa1-bcda-b7aeee3ee411","ios":"levelo://app?vid=d9d67dad-bdfd-4fa1-bcda-b7aeee3ee411"},"vehicle_type_id":"4","last_reported":1751051297,"current_range_meters":16000,"station_id":"ce4bho12rcd13ifvqh2g","pricing_plan_id":"cebpf4jnsgd1na2vs0mg"},{"bike_id":"7f1cb010-b1f9-4ff2-84a2-7918f380806d","system_id":"levelo_inurba_marseille","lat":43.23195,"lon":5.35554,"is_reserved":false,"is_disabled":false,"rental_uris":{"android":"levelo://app?vid=7f1cb010-b1f9-4ff2-84a2-7918f380806d","ios":"levelo://app?vid=7f1cb010-b1f9-4ff2-84a2-7918f380806d"},"vehicle_type_id":"4","last_reported":1751051297,"current_range_meters":16000,"station_id":"ce4bhu92rcd13ifvqi70","pricing_plan_id":"cebpf4jnsgd1na2vs0mg"},{"bike_id":"a38b54b0-c55c-4483-ae2a-eba75e3431da","system_id":"levelo_inurba_marseille","lat":43.29227,"lon":5.36083,"is_reserved":false,"is_disabled":false,"rental_uris":{"android":"levelo://app?vid=a38b54b0-c55c-4483-ae2a-eba75e3431da","ios":"levelo://app?vid=a38b54b0-c55c-4483-ae2a-eba75e3431da"},"vehicle_type_id":"4","last_reported":1751051297,"current_range_meters":16400,"station_id":"ce4bhbh2rcd13ifvqeqg","pricing_plan_id":"cebpf4jnsgd1na2vs0mg"},{"bike_id":"97f071b2-ac41-4544-8433-f0e3b0c28ccf","system_id":"levelo_inurba_marseille","lat":43.31716,"lon":5.42394,"is_reserved":false,"is_disabled":false,"rental_uris":{"android":"levelo://app?vid=97f071b2-ac41-4544-8433-f0e3b0c28ccf","ios":"levelo://app?vid=97f071b2-ac41-4544-8433-f0e3b0c28ccf"},"vehicle_type_id":"4","last_reported":1751051297,"current_range_meters":16400,"station_id":"ce4bhp92rcd13ifvqhbg","pricing_plan_id":"cebpf4jnsgd1na2vs0mg"},{"bike_id":"d74d7be5-ba54-4d68-9cdb-a520d677c267","system_id":"levelo_inurba_marseille","lat":43.23191,"lon":5.3554,"is_reserved":false,"is_disabled":false,"rental_uris":{"android":"levelo://app?vid=d74d7be5-ba54-4d68-9cdb-a520d677c267","ios":"levelo://app?vid=d74d7be5-ba54-4d68-9cdb-a520d677c267"},"vehicle_type_id":"4","last_reported":1751051297,"current_range_meters":16400,"station_id":"ce4bhu92rcd13ifvqi70","pricing_plan_id":"cebpf4jnsgd1na2vs0mg"},{"bike_id":"06053835-4a3b-421d-9906-d3866bfde971","system_id":"levelo_inurba_marseille","lat":43.28594,"lon":5.37063,"is_reserved":false,"is_disabled":false,"rental_uris":{"android":"levelo://app?vid=06053835-4a3b-421d-9906-d3866bfde971","ios":"levelo://app?vid=06053835-4a3b-421d-9906-d3866bfde971"},"vehicle_type_id":"4","last_reported":1751051297,"current_range_meters":16800,"station_id":"ce4bht12rcd13ifvqi60","pricing_plan_id":"cebpf4jnsgd1na2vs0mg"},{"bike_id":"721165c1-ef6f-40cc-8d33-af3a7999864b","system_id":"levelo_inurba_marseille","lat":43.32664,"lon":5.37858,"is_reserved":false,"is_disabled":false,"rental_uris":{"android":"levelo://app?vid=721165c1-ef6f-40cc-8d33-af3a7999864b","ios":"levelo://app?vid=721165c1-ef6f-40cc-8d33-af3a7999864b"},"vehicle_type_id":"4","last_reported":1751051297,"current_range_meters":17200,"station_id":"","pricing_plan_id":"cebpf4jnsgd1na2vs0mg"},{"bike_id":"805073ca-85b9-42b0-9e57-7e7428595d04","system_id":"levelo_inurba_marseille","lat":43.28851,"lon":5.38453,"is_reserved":false,"is_disabled":false,"rental_uris":{"android":"levelo://app?vid=805073ca-85b9-42b0-9e57-7e7428595d04","ios":"levelo://app?vid=805073ca-85b9-42b0-9e57-7e7428595d04"},"vehicle_type_id":"4","last_reported":1751051297,"current_range_meters":17200,"station_id":"","pricing_plan_id":"cebpf4jnsgd1na2vs0mg"},{"bike_id":"26fdff71-1303-4024-bb70-b38d945ba839","system_id":"levelo_inurba_marseille","lat":43.28576,"lon":5.39486,"is_reserved":false,"is_disabled":false,"rental_uris":{"android":"levelo://app?vid=26fdff71-1303-4024-bb70-b38d945ba839","ios":"levelo://app?vid=26fdff71-1303-4024-bb70-b38d945ba839"},"vehicle_type_id":"4","last_reported":1751051297,"current_range_meters":17200,"station_id":"ce4bh292rcd13ifvqdg0","pricing_plan_id":"cebpf4jnsgd1na2vs0mg"},{"bike_id":"13d0d740-423b-44ff-b22c-6d3de5c8a8d4","system_id":"levelo_inurba_marseille","lat":43.29275,"lon":5.4011,"is_reserved":false,"is_disabled":false,"rental_uris":{"android":"levelo://app?vid=13d0d740-423b-44ff-b22c-6d3de5c8a8d4","ios":"levelo://app?vid=13d0d740-423b-44ff-b22c-6d3de5c8a8d4"},"vehicle_type_id":"4","last_reported":1751051297,"current_range_meters":17200,"station_id":"ce4bh312rcd13ifvqdk0","pricing_plan_id":"cebpf4jnsgd1na2vs0mg"},{"bike_id":"ca1c2dc7-875a-4563-8b41-4aa30df4a6f8","system_id":"levelo_inurba_marseille","lat":43.28422,"lon":5.34972,"is_reserved":false,"is_disabled":false,"rental_uris":{"android":"levelo://app?vid=ca1c2dc7-875a-4563-8b41-4aa30df4a6f8","ios":"levelo://app?vid=ca1c2dc7-875a-4563-8b41-4aa30df4a6f8"},"vehicle_type_id":"4","last_reported":1751051297,"current_range_meters":17200,"station_id":"ce4bhbh2rcd13ifvqepg","pricing_plan_id":"cebpf4jnsgd1na2vs0mg"},{"bike_id":"81115363-d7ba-42ce-969b-a1d7ad97fa06","system_id":"levelo_inurba_marseille","lat":43.33737,"lon":5.3918,"is_reserved":false,"is_disabled":false,"rental_uris":{"android":"levelo://app?vid=81115363-d7ba-42ce-969b-a1d7ad97fa06","ios":"levelo://app?vid=81115363-d7ba-42ce-969b-a1d7ad97fa06"},"vehicle_type_id":"4","last_reported":1751051297,"current_range_meters":17200,"station_id":"ce4bhr92rcd13ifvqhsg","pricing_plan_id":"cebpf4jnsgd1na2vs0mg"},{"bike_id":"f1ff92a8-5c11-4ada-9288-1fbc0651bc7b","system_id":"levelo_inurba_marseille","lat":43.28838,"lon":5.43842,"is_reserved":false,"is_disabled":false,"rental_uris":{"android":"levelo://app?vid=f1ff92a8-5c11-4ada-9288-1fbc0651bc7b","ios":"levelo://app?vid=f1ff92a8-5c11-4ada-9288-1fbc0651bc7b"},"vehicle_type_id":"4","last_reported":1751051297,"current_range_meters":17600,"station_id":"","pricing_plan_id":"cebpf4jnsgd1na2vs0mg"},{"bike_id":"12c7fc9f-7c7b-4185-9b2f-badd0c17e36b","system_id":"levelo_inurba_marseille","lat":43.24739,"lon":5.37445,"is_reserved":false,"is_disabled":false,"rental_uris":{"android":"levelo://app?vid=12c7fc9f-7c7b-4185-9b2f-badd0c17e36b","ios":"levelo://app?vid=12c7fc9f-7c7b-4185-9b2f-badd0c17e36b"},"vehicle_type_id":"4","last_reported":1751051297,"current_range_meters":17600,"station_id":"","pricing_plan_id":"cebpf4jnsgd1na2vs0mg"},{"bike_id":"49a08beb-2a16-4d20-a05e-1a87c9d52f0a","system_id":"levelo_inurba_marseille","lat":43.29528,"lon":5.38545,"is_reserved":false,"is_disabled":false,"rental_uris":{"android":"levelo://app?vid=49a08beb-2a16-4d20-a05e-1a87c9d52f0a","ios":"levelo://app?vid=49a08beb-2a16-4d20-a05e-1a87c9d52f0a"},"vehicle_type_id":"4","last_reported":1751051297,"current_range_meters":17600,"station_id":"ce4bgih2rcd13ifvqba0","pricing_plan_id":"cebpf4jnsgd1na2vs0mg"},{"bike_id":"0cb82fe0-526d-4dc6-8a2c-e1dfc4f32b15","system_id":"levelo_inurba_marseille","lat":43.284115,"lon":5.349741,"is_reserved":false,"is_disabled":false,"rental_uris":{"android":"levelo://app?vid=0cb82fe0-526d-4dc6-8a2c-e1dfc4f32b15","ios":"levelo://app?vid=0cb82fe0-526d-4dc6-8a2c-e1dfc4f32b15"},"vehicle_type_id":"4","last_reported":1751051297,"current_range_meters":17600,"station_id":"ce4bgih2rcd13ifvqba0","pricing_plan_id":"cebpf4jnsgd1na2vs0mg"},{"bike_id":"b3c7bfcf-edf3-4dab-a0ea-0a80b120319e","system_id":"levelo_inurba_marseille","lat":43.28102,"lon":5.37842,"is_reserved":false,"is_disabled":false,"rental_uris":{"android":"levelo://app?vid=b3c7bfcf-edf3-4dab-a0ea-0a80b120319e","ios":"levelo://app?vid=b3c7bfcf-edf3-4dab-a0ea-0a80b120319e"},"vehicle_type_id":"4","last_reported":1751051297,"current_range_meters":17600,"station_id":"ce4bha12rcd13ifvqee0","pricing_plan_id":"cebpf4jnsgd1na2vs0mg"},{"bike_id":"d898dd8f-fd19-4cb1-88eb-1a966bfba7c7","system_id":"levelo_inurba_marseille","lat":43.28104,"lon":5.37847,"is_reserved":false,"is_disabled":false,"rental_uris":{"android":"levelo://app?vid=d898dd8f-fd19-4cb1-88eb-1a966bfba7c7","ios":"levelo://app?vid=d898dd8f-fd19-4cb1-88eb-1a966bfba7c7"},"vehicle_type_id":"4","last_reported":1751051297,"current_range_meters":17600,"station_id":"ce4bha12rcd13ifvqee0","pricing_plan_id":"cebpf4jnsgd1na2vs0mg"},{"bike_id":"0f8cacae-de93-4327-8d12-f3527018c82d","system_id":"levelo_inurba_marseille","lat":43.28426,"lon":5.34985,"is_reserved":false,"is_disabled":false,"rental_uris":{"android":"levelo://app?vid=0f8cacae-de93-4327-8d12-f3527018c82d","ios":"levelo://app?vid=0f8cacae-de93-4327-8d12-f3527018c82d"},"vehicle_type_id":"4","last_reported":1751051297,"current_range_meters":17600,"station_id":"ce4bhbh2rcd13ifvqepg","pricing_plan_id":"cebpf4jnsgd1na2vs0mg"},{"bike_id":"a7883090-0e10-4075-944b-a3cca54bc544","system_id":"levelo_inurba_marseille","lat":43.22503,"lon":5.34778,"is_reserved":false,"is_disabled":false,"rental_uris":{"android":"levelo://app?vid=a7883090-0e10-4075-944b-a3cca54bc544","ios":"levelo://app?vid=a7883090-0e10-4075-944b-a3cca54bc544"},"vehicle_type_id":"4","last_reported":1751051297,"current_range_meters":17600,"station_id":"st_cvj5dfep6f1abm77gieg","pricing_plan_id":"cebpf4jnsgd1na2vs0mg"},{"bike_id":"5a3dab73-c126-4de6-a97f-f9ca71f0b35f","system_id":"levelo_inurba_marseille","lat":43.21756,"lon":5.34604,"is_reserved":false,"is_disabled":false,"rental_uris":{"android":"levelo://app?vid=5a3dab73-c126-4de6-a97f-f9ca71f0b35f","ios":"levelo://app?vid=5a3dab73-c126-4de6-a97f-f9ca71f0b35f"},"vehicle_type_id":"4","last_reported":1751051297,"current_range_meters":17600,"station_id":"st_cvj6r9ubvosntc0bgbag","pricing_plan_id":"cebpf4jnsgd1na2vs0mg"},{"bike_id":"14e8ef37-e834-4d76-9946-e98f7a083a2f","system_id":"levelo_inurba_marseille","lat":43.21198,"lon":5.35057,"is_reserved":false,"is_disabled":false,"rental_uris":{"android":"levelo://app?vid=14e8ef37-e834-4d76-9946-e98f7a083a2f","ios":"levelo://app?vid=14e8ef37-e834-4d76-9946-e98f7a083a2f"},"vehicle_type_id":"4","last_reported":1751051297,"current_range_meters":17600,"station_id":"st_cvj6sg6p6f1abm77japg","pricing_plan_id":"cebpf4jnsgd1na2vs0mg"},{"bike_id":"6af79a00-84aa-4908-a347-34425e08c383","system_id":"levelo_inurba_marseille","lat":43.30332,"lon":5.37572,"is_reserved":false,"is_disabled":false,"rental_uris":{"android":"levelo://app?vid=6af79a00-84aa-4908-a347-34425e08c383","ios":"levelo://app?vid=6af79a00-84aa-4908-a347-34425e08c383"},"vehicle_type_id":"4","last_reported":1751051297,"current_range_meters":18000,"station_id":"","pricing_plan_id":"cebpf4jnsgd1na2vs0mg"},{"bike_id":"0c803610-f6e9-41d4-936d-0b433fa62796","system_id":"levelo_inurba_marseille","lat":43.30199,"lon":5.37811,"is_reserved":false,"is_disabled":false,"rental_uris":{"android":"levelo://app?vid=0c803610-f6e9-41d4-936d-0b433fa62796","ios":"levelo://app?vid=0c803610-f6e9-41d4-936d-0b433fa62796"},"vehicle_type_id":"4","last_reported":1751051297,"current_range_meters":18000,"station_id":"","pricing_plan_id":"cebpf4jnsgd1na2vs0mg"},{"bike_id":"d1584085-8b90-45fe-885b-706f77784096","system_id":"levelo_inurba_marseille","lat":43.284007,"lon":5.375094,"is_reserved":false,"is_disabled":false,"rental_uris":{"android":"levelo://app?vid=d1584085-8b90-45fe-885b-706f77784096","ios":"levelo://app?vid=d1584085-8b90-45fe-885b-706f77784096"},"vehicle_type_id":"4","last_reported":1751051297,"current_range_meters":18000,"station_id":"ce4bh412rcd13ifvqds0","pricing_plan_id":"cebpf4jnsgd1na2vs0mg"},{"bike_id":"0afe2a6e-41a8-4e21-b45e-d0414c7edb5b","system_id":"levelo_inurba_marseille","lat":43.27374,"lon":5.36255,"is_reserved":false,"is_disabled":false,"rental_uris":{"android":"levelo://app?vid=0afe2a6e-41a8-4e21-b45e-d0414c7edb5b","ios":"levelo://app?vid=0afe2a6e-41a8-4e21-b45e-d0414c7edb5b"},"vehicle_type_id":"4","last_reported":1751051297,"current_range_meters":18000,"station_id":"ce4bhbh2rcd13ifvqeo0","pricing_plan_id":"cebpf4jnsgd1na2vs0mg"},{"bike_id":"9b6e32b6-08e4-4fa8-869c-e4e89ca7485e","system_id":"levelo_inurba_marseille","lat":43.27377,"lon":5.36264,"is_reserved":false,"is_disabled":false,"rental_uris":{"android":"levelo://app?vid=9b6e32b6-08e4-4fa8-869c-e4e89ca7485e","ios":"levelo://app?vid=9b6e32b6-08e4-4fa8-869c-e4e89ca7485e"},"vehicle_type_id":"4","last_reported":1751051297,"current_range_meters":18000,"station_id":"ce4bhbh2rcd13ifvqeo0","pricing_plan_id":"cebpf4jnsgd1na2vs0mg"},{"bike_id":"3478f348-99db-49c4-b02b-48da2d01c2d0","system_id":"levelo_inurba_marseille","lat":43.26805,"lon":5.40261,"is_reserved":false,"is_disabled":false,"rental_uris":{"android":"levelo://app?vid=3478f348-99db-49c4-b02b-48da2d01c2d0","ios":"levelo://app?vid=3478f348-99db-49c4-b02b-48da2d01c2d0"},"vehicle_type_id":"4","last_reported":1751051297,"current_range_meters":18000,"station_id":"ce501612rcd8frsf0b60","pricing_plan_id":"cebpf4jnsgd1na2vs0mg"},{"bike_id":"43b90f66-d6f9-4e4e-a32f-49c531e37b2d","system_id":"levelo_inurba_marseille","lat":43.26262,"lon":5.40186,"is_reserved":false,"is_disabled":false,"rental_uris":{"android":"levelo://app?vid=43b90f66-d6f9-4e4e-a32f-49c531e37b2d","ios":"levelo://app?vid=43b90f66-d6f9-4e4e-a32f-49c531e37b2d"},"vehicle_type_id":"4","last_reported":1751051297,"current_range_meters":18800,"station_id":"","pricing_plan_id":"cebpf4jnsgd1na2vs0mg"},{"bike_id":"a8e170db-ddee-4a3e-b48b-3cb350f12866","system_id":"levelo_inurba_marseille","lat":43.28407,"lon":5.34987,"is_reserved":false,"is_disabled":false,"rental_uris":{"android":"levelo://app?vid=a8e170db-ddee-4a3e-b48b-3cb350f12866","ios":"levelo://app?vid=a8e170db-ddee-4a3e-b48b-3cb350f12866"},"vehicle_type_id":"4","last_reported":1751051297,"current_range_meters":18800,"station_id":"ce4bhbh2rcd13ifvqepg","pricing_plan_id":"cebpf4jnsgd1na2vs0mg"},{"bike_id":"8542862f-8f2a-433b-bd3c-d933f8bc5a14","system_id":"levelo_inurba_marseille","lat":43.28423,"lon":5.3498,"is_reserved":false,"is_disabled":false,"rental_uris":{"android":"levelo://app?vid=8542862f-8f2a-433b-bd3c-d933f8bc5a14","ios":"levelo://app?vid=8542862f-8f2a-433b-bd3c-d933f8bc5a14"},"vehicle_type_id":"4","last_reported":1751051297,"current_range_meters":18800,"station_id":"ce4bhbh2rcd13ifvqepg","pricing_plan_id":"cebpf4jnsgd1na2vs0mg"},{"bike_id":"52f94fdd-54cc-44bf-a1f4-7ffc04352af8","system_id":"levelo_inurba_marseille","lat":43.28422,"lon":5.3498,"is_reserved":false,"is_disabled":false,"rental_uris":{"android":"levelo://app?vid=52f94fdd-54cc-44bf-a1f4-7ffc04352af8","ios":"levelo://app?vid=52f94fdd-54cc-44bf-a1f4-7ffc04352af8"},"vehicle_type_id":"4","last_reported":1751051297,"current_range_meters":18800,"station_id":"ce4bhbh2rcd13ifvqepg","pricing_plan_id":"cebpf4jnsgd1na2vs0mg"},{"bike_id":"4043f5ed-1c71-456d-9c90-de5b8866cdaf","system_id":"levelo_inurba_marseille","lat":43.22933,"lon":5.35389,"is_reserved":false,"is_disabled":false,"rental_uris":{"android":"levelo://app?vid=4043f5ed-1c71-456d-9c90-de5b8866cdaf","ios":"levelo://app?vid=4043f5ed-1c71-456d-9c90-de5b8866cdaf"},"vehicle_type_id":"4","last_reported":1751051297,"current_range_meters":18800,"station_id":"cpo3532slgdg3j2ikp40","pricing_plan_id":"cebpf4jnsgd1na2vs0mg"},{"bike_id":"b13877a6-4825-4d82-b46b-67fa8ad66c5d","system_id":"levelo_inurba_marseille","lat":43.21226,"lon":5.3507,"is_reserved":false,"is_disabled":false,"rental_uris":{"android":"levelo://app?vid=b13877a6-4825-4d82-b46b-67fa8ad66c5d","ios":"levelo://app?vid=b13877a6-4825-4d82-b46b-67fa8ad66c5d"},"vehicle_type_id":"4","last_reported":1751051297,"current_range_meters":19200,"station_id":"","pricing_plan_id":"cebpf4jnsgd1na2vs0mg"},{"bike_id":"f810be2a-3c00-446f-9ba1-1f3840ce349d","system_id":"levelo_inurba_marseille","lat":43.32137,"lon":5.36751,"is_reserved":false,"is_disabled":false,"rental_uris":{"android":"levelo://app?vid=f810be2a-3c00-446f-9ba1-1f3840ce349d","ios":"levelo://app?vid=f810be2a-3c00-446f-9ba1-1f3840ce349d"},"vehicle_type_id":"4","last_reported":1751051297,"current_range_meters":19200,"station_id":"","pricing_plan_id":"cebpf4jnsgd1na2vs0mg"},{"bike_id":"870bfa3b-65a0-4599-b920-e378dc900687","system_id":"levelo_inurba_marseille","lat":43.29302,"lon":5.37461,"is_reserved":false,"is_disabled":false,"rental_uris":{"android":"levelo://app?vid=870bfa3b-65a0-4599-b920-e378dc900687","ios":"levelo://app?vid=870bfa3b-65a0-4599-b920-e378dc900687"},"vehicle_type_id":"4","last_reported":1751051297,"current_range_meters":19200,"station_id":"ce4bgi12rcd13ifvqb70","pricing_plan_id":"cebpf4jnsgd1na2vs0mg"},{"bike_id":"a66b4f1e-0ede-429c-bb89-81df1a70ff6f","system_id":"levelo_inurba_marseille","lat":43.27381,"lon":5.36251,"is_reserved":false,"is_disabled":false,"rental_uris":{"android":"levelo://app?vid=a66b4f1e-0ede-429c-bb89-81df1a70ff6f","ios":"levelo://app?vid=a66b4f1e-0ede-429c-bb89-81df1a70ff6f"},"vehicle_type_id":"4","last_reported":1751051297,"current_range_meters":19200,"station_id":"ce4bhbh2rcd13ifvqeo0","pricing_plan_id":"cebpf4jnsgd1na2vs0mg"},{"bike_id":"b334124c-c876-45e4-8b38-f47ede11b4b7","system_id":"levelo_inurba_marseille","lat":43.217532,"lon":5.345947,"is_reserved":false,"is_disabled":false,"rental_uris":{"android":"levelo://app?vid=b334124c-c876-45e4-8b38-f47ede11b4b7","ios":"levelo://app?vid=b334124c-c876-45e4-8b38-f47ede11b4b7"},"vehicle_type_id":"4","last_reported":1751051297,"current_range_meters":19200,"station_id":"st_cvj6r9ubvosntc0bgbag","pricing_plan_id":"cebpf4jnsgd1na2vs0mg"},{"bike_id":"0a55cf09-70e6-43a6-a6c7-9b62fee6763c","system_id":"levelo_inurba_marseille","lat":43.30092,"lon":5.39076,"is_reserved":false,"is_disabled":false,"rental_uris":{"android":"levelo://app?vid=0a55cf09-70e6-43a6-a6c7-9b62fee6763c","ios":"levelo://app?vid=0a55cf09-70e6-43a6-a6c7-9b62fee6763c"},"vehicle_type_id":"4","last_reported":1751051297,"current_range_meters":19600,"station_id":"ce4bh192rcd13ifvqdb0","pricing_plan_id":"cebpf4jnsgd1na2vs0mg"},{"bike_id":"19af8309-e4b0-45a6-ad27-88239110618c","system_id":"levelo_inurba_marseille","lat":43.27375,"lon":5.36252,"is_reserved":false,"is_disabled":false,"rental_uris":{"android":"levelo://app?vid=19af8309-e4b0-45a6-ad27-88239110618c","ios":"levelo://app?vid=19af8309-e4b0-45a6-ad27-88239110618c"},"vehicle_type_id":"4","last_reported":1751051297,"current_range_meters":19600,"station_id":"ce4bhbh2rcd13ifvqeo0","pricing_plan_id":"cebpf4jnsgd1na2vs0mg"},{"bike_id":"30f1e410-dc75-445d-8fc3-9911090e06f2","system_id":"levelo_inurba_marseille","lat":43.28425,"lon":5.3497,"is_reserved":false,"is_disabled":false,"rental_uris":{"android":"levelo://app?vid=30f1e410-dc75-445d-8fc3-9911090e06f2","ios":"levelo://app?vid=30f1e410-dc75-445d-8fc3-9911090e06f2"},"vehicle_type_id":"4","last_reported":1751051297,"current_range_meters":19600,"station_id":"ce4bhbh2rcd13ifvqepg","pricing_plan_id":"cebpf4jnsgd1na2vs0mg"},{"bike_id":"0084e003-ab1b-4236-aea8-b905e6efac39","system_id":"levelo_inurba_marseille","lat":43.28263,"lon":5.35065,"is_reserved":false,"is_disabled":false,"rental_uris":{"android":"levelo://app?vid=0084e003-ab1b-4236-aea8-b905e6efac39","ios":"levelo://app?vid=0084e003-ab1b-4236-aea8-b905e6efac39"},"vehicle_type_id":"4","last_reported":1751051297,"current_range_meters":19600,"station_id":"ce4bhbp2rcd13ifvqerg","pricing_plan_id":"cebpf4jnsgd1na2vs0mg"},{"bike_id":"89b60e8b-7181-4076-84a4-b08a50cc941c","system_id":"levelo_inurba_marseille","lat":43.28612,"lon":5.35107,"is_reserved":false,"is_disabled":false,"rental_uris":{"android":"levelo://app?vid=89b60e8b-7181-4076-84a4-b08a50cc941c","ios":"levelo://app?vid=89b60e8b-7181-4076-84a4-b08a50cc941c"},"vehicle_type_id":"4","last_reported":1751051297,"current_range_meters":19600,"station_id":"ce4bhch2rcd13ifvqeug","pricing_plan_id":"cebpf4jnsgd1na2vs0mg"},{"bike_id":"0046e6ac-9bd6-46eb-a50f-cbd92c52bd99","system_id":"levelo_inurba_marseille","lat":43.26216,"lon":5.37426,"is_reserved":false,"is_disabled":false,"rental_uris":{"android":"levelo://app?vid=0046e6ac-9bd6-46eb-a50f-cbd92c52bd99","ios":"levelo://app?vid=0046e6ac-9bd6-46eb-a50f-cbd92c52bd99"},"vehicle_type_id":"4","last_reported":1751051297,"current_range_meters":19600,"station_id":"ce4bhgp2rcd13ifvqfc0","pricing_plan_id":"cebpf4jnsgd1na2vs0mg"},{"bike_id":"73eae19d-5cc5-48fe-810c-85fc7175c6a0","system_id":"levelo_inurba_marseille","lat":43.23069,"lon":5.35469,"is_reserved":false,"is_disabled":false,"rental_uris":{"android":"levelo://app?vid=73eae19d-5cc5-48fe-810c-85fc7175c6a0","ios":"levelo://app?vid=73eae19d-5cc5-48fe-810c-85fc7175c6a0"},"vehicle_type_id":"4","last_reported":1751051297,"current_range_meters":19600,"station_id":"cpo3342slgdg3j2ifvpg","pricing_plan_id":"cebpf4jnsgd1na2vs0mg"},{"bike_id":"88bfaac2-defd-4219-99ee-23bffc813ba2","system_id":"levelo_inurba_marseille","lat":43.28408,"lon":5.34994,"is_reserved":false,"is_disabled":false,"rental_uris":{"android":"levelo://app?vid=88bfaac2-defd-4219-99ee-23bffc813ba2","ios":"levelo://app?vid=88bfaac2-defd-4219-99ee-23bffc813ba2"},"vehicle_type_id":"4","last_reported":1751051297,"current_range_meters":20000,"station_id":"ce4bhbh2rcd13ifvqepg","pricing_plan_id":"cebpf4jnsgd1na2vs0mg"},{"bike_id":"92308ef3-95e3-46b0-bd36-03b5c3ffa94b","system_id":"levelo_inurba_marseille","lat":43.29364,"lon":5.42823,"is_reserved":false,"is_disabled":false,"rental_uris":{"android":"levelo://app?vid=92308ef3-95e3-46b0-bd36-03b5c3ffa94b","ios":"levelo://app?vid=92308ef3-95e3-46b0-bd36-03b5c3ffa94b"},"vehicle_type_id":"4","last_reported":1751051297,"current_range_meters":20400,"station_id":"","pricing_plan_id":"cebpf4jnsgd1na2vs0mg"},{"bike_id":"d308c658-b19c-49c0-8014-5506ff26f69a","system_id":"levelo_inurba_marseille","lat":43.23098,"lon":5.40509,"is_reserved":false,"is_disabled":false,"rental_uris":{"android":"levelo://app?vid=d308c658-b19c-49c0-8014-5506ff26f69a","ios":"levelo://app?vid=d308c658-b19c-49c0-8014-5506ff26f69a"},"vehicle_type_id":"4","last_reported":1751051297,"current_range_meters":20400,"station_id":"","pricing_plan_id":"cebpf4jnsgd1na2vs0mg"},{"bike_id":"f92e92eb-5d27-4255-b648-8e4983b57767","system_id":"levelo_inurba_marseille","lat":43.2926,"lon":5.40908,"is_reserved":false,"is_disabled":false,"rental_uris":{"android":"levelo://app?vid=f92e92eb-5d27-4255-b648-8e4983b57767","ios":"levelo://app?vid=f92e92eb-5d27-4255-b648-8e4983b57767"},"vehicle_type_id":"4","last_reported":1751051297,"current_range_meters":20400,"station_id":"ce4bh192rcd13ifvqdc0","pricing_plan_id":"cebpf4jnsgd1na2vs0mg"},{"bike_id":"76c0a1a1-7e89-41b7-827b-463e59654079","system_id":"levelo_inurba_marseille","lat":43.29517,"lon":5.39041,"is_reserved":false,"is_disabled":false,"rental_uris":{"android":"levelo://app?vid=76c0a1a1-7e89-41b7-827b-463e59654079","ios":"levelo://app?vid=76c0a1a1-7e89-41b7-827b-463e59654079"},"vehicle_type_id":"4","last_reported":1751051297,"current_range_meters":20400,"station_id":"ce4bh3p2rcd13ifvqdp0","pricing_plan_id":"cebpf4jnsgd1na2vs0mg"},{"bike_id":"4c79f631-f511-491d-9a8f-d502bba1ec8c","system_id":"levelo_inurba_marseille","lat":43.32287,"lon":5.38275,"is_reserved":false,"is_disabled":false,"rental_uris":{"android":"levelo://app?vid=4c79f631-f511-491d-9a8f-d502bba1ec8c","ios":"levelo://app?vid=4c79f631-f511-491d-9a8f-d502bba1ec8c"},"vehicle_type_id":"4","last_reported":1751051297,"current_range_meters":20400,"station_id":"ce4bhr12rcd13ifvqhqg","pricing_plan_id":"cebpf4jnsgd1na2vs0mg"},{"bike_id":"dae1f0cb-48ef-4fb5-b6f0-61d10719f446","system_id":"levelo_inurba_marseille","lat":43.23198,"lon":5.35556,"is_reserved":false,"is_disabled":false,"rental_uris":{"android":"levelo://app?vid=dae1f0cb-48ef-4fb5-b6f0-61d10719f446","ios":"levelo://app?vid=dae1f0cb-48ef-4fb5-b6f0-61d10719f446"},"vehicle_type_id":"4","last_reported":1751051297,"current_range_meters":20400,"station_id":"ce4bhu92rcd13ifvqi70","pricing_plan_id":"cebpf4jnsgd1na2vs0mg"},{"bike_id":"c0a2de0a-20e3-4e62-848e-f0dbd6b2e588","system_id":"levelo_inurba_marseille","lat":43.225,"lon":5.34778,"is_reserved":false,"is_disabled":false,"rental_uris":{"android":"levelo://app?vid=c0a2de0a-20e3-4e62-848e-f0dbd6b2e588","ios":"levelo://app?vid=c0a2de0a-20e3-4e62-848e-f0dbd6b2e588"},"vehicle_type_id":"4","last_reported":1751051297,"current_range_meters":20400,"station_id":"st_cvj5dfep6f1abm77gieg","pricing_plan_id":"cebpf4jnsgd1na2vs0mg"},{"bike_id":"4f7da216-f811-4c57-9e64-cdee7467bddd","system_id":"levelo_inurba_marseille","lat":43.22519,"lon":5.34777,"is_reserved":false,"is_disabled":false,"rental_uris":{"android":"levelo://app?vid=4f7da216-f811-4c57-9e64-cdee7467bddd","ios":"levelo://app?vid=4f7da216-f811-4c57-9e64-cdee7467bddd"},"vehicle_type_id":"4","last_reported":1751051297,"current_range_meters":20400,"station_id":"st_cvj5dfep6f1abm77gieg","pricing_plan_id":"cebpf4jnsgd1na2vs0mg"},{"bike_id":"8938ae4b-572d-47fc-b025-02b05af60188","system_id":"levelo_inurba_marseille","lat":43.22564,"lon":5.348,"is_reserved":false,"is_disabled":false,"rental_uris":{"android":"levelo://app?vid=8938ae4b-572d-47fc-b025-02b05af60188","ios":"levelo://app?vid=8938ae4b-572d-47fc-b025-02b05af60188"},"vehicle_type_id":"4","last_reported":1751051297,"current_range_meters":20800,"station_id":"","pricing_plan_id":"cebpf4jnsgd1na2vs0mg"},{"bike_id":"32673dd7-02c3-43cc-8b24-92956b80f69d","system_id":"levelo_inurba_marseille","lat":43.28404,"lon":5.34978,"is_reserved":false,"is_disabled":false,"rental_uris":{"android":"levelo://app?vid=32673dd7-02c3-43cc-8b24-92956b80f69d","ios":"levelo://app?vid=32673dd7-02c3-43cc-8b24-92956b80f69d"},"vehicle_type_id":"4","last_reported":1751051297,"current_range_meters":20800,"station_id":"ce4bhbh2rcd13ifvqepg","pricing_plan_id":"cebpf4jnsgd1na2vs0mg"},{"bike_id":"3d1e4629-e288-4be5-81d1-eba7221554d4","system_id":"levelo_inurba_marseille","lat":43.28417,"lon":5.34997,"is_reserved":false,"is_disabled":false,"rental_uris":{"android":"levelo://app?vid=3d1e4629-e288-4be5-81d1-eba7221554d4","ios":"levelo://app?vid=3d1e4629-e288-4be5-81d1-eba7221554d4"},"vehicle_type_id":"4","last_reported":1751051297,"current_range_meters":20800,"station_id":"ce4bhbh2rcd13ifvqepg","pricing_plan_id":"cebpf4jnsgd1na2vs0mg"},{"bike_id":"ffad4808-4c74-4e82-8a9e-dadd0c806659","system_id":"levelo_inurba_marseille","lat":43.27989,"lon":5.40025,"is_reserved":false,"is_disabled":false,"rental_uris":{"android":"levelo://app?vid=ffad4808-4c74-4e82-8a9e-dadd0c806659","ios":"levelo://app?vid=ffad4808-4c74-4e82-8a9e-dadd0c806659"},"vehicle_type_id":"4","last_reported":1751051297,"current_range_meters":20800,"station_id":"ce4bho92rcd13ifvqh4g","pricing_plan_id":"cebpf4jnsgd1na2vs0mg"},{"bike_id":"d8d4ad29-cde7-4f07-8f43-3f56a79a94f8","system_id":"levelo_inurba_marseille","lat":43.31525,"lon":5.38036,"is_reserved":false,"is_disabled":false,"rental_uris":{"android":"levelo://app?vid=d8d4ad29-cde7-4f07-8f43-3f56a79a94f8","ios":"levelo://app?vid=d8d4ad29-cde7-4f07-8f43-3f56a79a94f8"},"vehicle_type_id":"4","last_reported":1751051297,"current_range_meters":20800,"station_id":"ce4bhsp2rcd13ifvqi50","pricing_plan_id":"cebpf4jnsgd1na2vs0mg"},