{"last_updated":1742314361,"ttl":60,"version":"2.2","data":{"bikes":[{"bike_id":"bc997e1f-f7f5-4a97-8bb1-6b526460b943","system_id":"levelo_inurba_marseille","lat":43.29033,"lon":5.38646,"is_reserved":false,"is_disabled":false,"rental_uris":{"android":"levelo://app?vid=bc997e1f-f7f5-4a97-8bb1-6b526460b943","ios":"levelo://app?vid=bc997e1f-f7f5-4a97-8bb1-6b526460b943"},"vehicle_type_id":"4","last_reported":1742314361,"current_range_meters":2800,"station_id":"ce4bh4p2rcd13ifvqe0g","pricing_plan_id":"cebpf4jnsgd1na2vs0mg"},{"bike_id":"d76ea4b9-306e-4765-8f5d-8b314d1d4b26","system_id":"levelo_inurba_marseille","lat":43.27661,"lon":5.38897,"is_reserved":false,"is_disabled":false,"rental_uris":{"android":"levelo://app?vid=d76ea4b9-306e-4765-8f5d-8b314d1d4b26","ios":"levelo://app?vid=d76ea4b9-306e-4765-8f5d-8b314d1d4b26"},"vehicle_type_id":"4","last_reported":1742314361,"current_range_meters":2800,"station_id":"ce4bhi12rcd13ifvqfo0","pricing_plan_id":"cebpf4jnsgd1na2vs0mg"},{"bike_id":"91109253-40b6-4071-bd40-c96317203c57","system_id":"levelo_inurba_marseille","lat":43.27991,"lon":5.4166,"is_reserved":false,"is_disabled":false,"rental_uris":{"android":"levelo://app?vid=91109253-40b6-4071-bd40-c96317203c57","ios":"levelo://app?vid=91109253-40b6-4071-bd40-c96317203c57"},"vehicle_type_id":"4","last_reported":1742314361,"current_range_meters":2800,"station_id":"ce4bho12rcd13ifvqh1g","pricing_plan_id":"cebpf4jnsgd1na2vs0mg"},{"bike_id":"c4bb856a-5036-4961-a316-05f5b82685a3","system_id":"levelo_inurba_marseille","lat":43.27215,"lon":5.39174,"is_reserved":false,"is_disabled":false,"rental_uris":{"android":"levelo://app?vid=c4bb856a-5036-4961-a316-05f5b82685a3","ios":"levelo://app?vid=c4bb856a-5036-4961-a316-05f5b82685a3"},"vehicle_type_id":"4","last_reported":1742314361,"current_range_meters":3200,"station_id":"ce4bhhp2rcd13ifvqfm0","pricing_plan_id":"cebpf4jnsgd1na2vs0mg"},{"bike_id":"babf033c-3184-44d3-ad3d-e253e13e4c61","system_id":"levelo_inurba_marseille","lat":43.32047,"lon":5.41549,"is_reserved":false,"is_disabled":false,"rental_uris":{"android":"levelo://app?vid=babf033c-3184-44d3-ad3d-e253e13e4c61","ios":"levelo://app?vid=babf033c-3184-44d3-ad3d-e253e13e4c61"},"vehicle_type_id":"4","last_reported":1742314361,"current_range_meters":3200,"station_id":"ce4bhq92rcd13ifvqhkg","pricing_plan_id":"cebpf4jnsgd1na2vs0mg"},{"bike_id":"3b67e6a0-031f-419f-8521-4936d8602e20","system_id":"levelo_inurba_marseille","lat":43.27188,"lon":5.40988,"is_reserved":false,"is_disabled":false,"rental_uris":{"android":"levelo://app?vid=3b67e6a0-031f-419f-8521-4936d8602e20","ios":"levelo://app?vid=3b67e6a0-031f-419f-8521-4936d8602e20"},"vehicle_type_id":"4","last_reported":1742314361,"current_range_meters":3200,"station_id":"ce4bhl12rcd13ifvqgf0","pricing_plan_id":"cebpf4jnsgd1na2vs0mg"},{"bike_id":"e6f7a3d8-dc1a-41d5-b7ea-1723df6aa9a1","system_id":"levelo_inurba_marseille","lat":43.30185,"lon":5.36643,"is_reserved":false,"is_disabled":false,"rental_uris":{"android":"levelo://app?vid=e6f7a3d8-dc1a-41d5-b7ea-1723df6aa9a1","ios":"levelo://app?vid=e6f7a3d8-dc1a-41d5-b7ea-1723df6aa9a1"},"vehicle_type_id":"4","last_reported":1742314361,"current_range_meters":3200,"station_id":"ce4bgrh2rcd13ifvqc8g","pricing_plan_id":"cebpf4jnsgd1na2vs0mg"},{"bike_id":"1d64029f-5fa6-4c38-9a0a-a4595d2e0ef3","system_id":"levelo_inurba_marseille","lat":43.255836,"lon":5.382288,"is_reserved":false,"is_disabled":false,"rental_uris":{"android":"levelo://app?vid=1d64029f-5fa6-4c38-9a0a-a4595d2e0ef3","ios":"levelo://app?vid=1d64029f-5fa6-4c38-9a0a-a4595d2e0ef3"},"vehicle_type_id":"4","last_reported":1742314361,"current_range_meters":3600,"station_id":"ce4bh2p2rcd13ifvqdi0","pricing_plan_id":"cebpf4jnsgd1na2vs0mg"},{"bike_id":"e687940f-3c9c-4a24-82d3-cc513234d0f2","system_id":"levelo_inurba_marseille","lat":43.26221,"lon":5.40459,"is_reserved":false,"is_disabled":true,"rental_uris":{"android":"levelo://app?vid=e687940f-3c9c-4a24-82d3-cc513234d0f2","ios":"levelo://app?vid=e687940f-3c9c-4a24-82d3-cc513234d0f2"},"vehicle_type_id":"4","last_reported":1742314361,"current_range_meters":3600,"station_id":"ce4bhmh2rcd13ifvqgmg","pricing_plan_id":"cebpf4jnsgd1na2vs0mg"},{"bike_id":"460cad94-7ea5-46a4-84bd-4b2efd0fadfb","system_id":"levelo_inurba_marseille","lat":43.32366,"lon":5.38882,"is_reserved":false,"is_disabled":false,"rental_uris":{"android":"levelo://app?vid=460cad94-7ea5-46a4-84bd-4b2efd0fadfb","ios":"levelo://app?vid=460cad94-7ea5-46a4-84bd-4b2efd0fadfb"},"vehicle_type_id":"4","last_reported":1742314361,"current_range_meters":3600,"station_id":"ce4bhqp2rcd13ifvqhog","pricing_plan_id":"cebpf4jnsgd1na2vs0mg"},{"bike_id":"a31c77d8-4378-47d6-8c3a-a5063f16fc9d","system_id":"levelo_inurba_marseille","lat":43.27812,"lon":5.40708,"is_reserved":false,"is_disabled":false,"rental_uris":{"android":"levelo://app?vid=a31c77d8-4378-47d6-8c3a-a5063f16fc9d","ios":"levelo://app?vid=a31c77d8-4378-47d6-8c3a-a5063f16fc9d"},"vehicle_type_id":"4","last_reported":1742314361,"current_range_meters":3600,"station_id":"ce4bhnh2rcd13ifvqgtg","pricing_plan_id":"cebpf4jnsgd1na2vs0mg"},{"bike_id":"4f04222a-07ae-4b57-8bc2-a90113f7ed74","system_id":"levelo_inurba_marseille","lat":43.29267,"lon":5.38443,"is_reserved":false,"is_disabled":false,"rental_uris":{"android":"levelo://app?vid=4f04222a-07ae-4b57-8bc2-a90113f7ed74","ios":"levelo://app?vid=4f04222a-07ae-4b57-8bc2-a90113f7ed74"},"vehicle_type_id":"4","last_reported":1742314361,"current_range_meters":3600,"station_id":"ce4bh692rcd13ifvqea0","pricing_plan_id":"cebpf4jnsgd1na2vs0mg"},{"bike_id":"b50893bc-c7dd-474a-98c6-0949eaf09e70","system_id":"levelo_inurba_marseille","lat":43.31716,"lon":5.42397,"is_reserved":false,"is_disabled":false,"rental_uris":{"android":"levelo://app?vid=b50893bc-c7dd-474a-98c6-0949eaf09e70","ios":"levelo://app?vid=b50893bc-c7dd-474a-98c6-0949eaf09e70"},"vehicle_type_id":"4","last_reported":1742314361,"current_range_meters":1200,"station_id":"ce4bhp92rcd13ifvqhbg","pricing_plan_id":"cebpf4jnsgd1na2vs0mg"},{"bike_id":"7a468343-f4dd-41a0-a975-2ba9a7b92de0","system_id":"levelo_inurba_marseille","lat":43.27377,"lon":5.36255,"is_reserved":false,"is_disabled":false,"rental_uris":{"android":"levelo://app?vid=7a468343-f4dd-41a0-a975-2ba9a7b92de0","ios":"levelo://app?vid=7a468343-f4dd-41a0-a975-2ba9a7b92de0"},"vehicle_type_id":"4","last_reported":1742314361,"current_range_meters":4000,"station_id":"ce4bhbh2rcd13ifvqeo0","pricing_plan_id":"cebpf4jnsgd1na2vs0mg"},{"bike_id":"672498a7-c4db-4945-9364-93ab74f594d1","system_id":"levelo_inurba_marseille","lat":43.29618,"lon":5.38103,"is_reserved":false,"is_disabled":false,"rental_uris":{"android":"levelo://app?vid=672498a7-c4db-4945-9364-93ab74f594d1","ios":"levelo://app?vid=672498a7-c4db-4945-9364-93ab74f594d1"},"vehicle_type_id":"4","last_reported":1742314361,"current_range_meters":4000,"station_id":"ce4bgl12rcd13ifvqbo0","pricing_plan_id":"cebpf4jnsgd1na2vs0mg"},{"bike_id":"c549332f-8dec-4b58-9dac-268b02531490","system_id":"levelo_inurba_marseille","lat":43.2987,"lon":5.39728,"is_reserved":false,"is_disabled":false,"rental_uris":{"android":"levelo://app?vid=c549332f-8dec-4b58-9dac-268b02531490","ios":"levelo://app?vid=c549332f-8dec-4b58-9dac-268b02531490"},"vehicle_type_id":"4","last_reported":1742314361,"current_range_meters":4000,"station_id":"ce4bh0h2rcd13ifvqd50","pricing_plan_id":"cebpf4jnsgd1na2vs0mg"},{"bike_id":"307c3dc1-37c5-452d-8d5a-e117b1248bbb","system_id":"levelo_inurba_marseille","lat":43.28108,"lon":5.37854,"is_reserved":false,"is_disabled":false,"rental_uris":{"android":"levelo://app?vid=307c3dc1-37c5-452d-8d5a-e117b1248bbb","ios":"levelo://app?vid=307c3dc1-37c5-452d-8d5a-e117b1248bbb"},"vehicle_type_id":"4","last_reported":1742314361,"current_range_meters":4000,"station_id":"ce4bha12rcd13ifvqee0","pricing_plan_id":"cebpf4jnsgd1na2vs0mg"},{"bike_id":"282501fa-b8c1-4280-bdaf-327c67bd3e01","system_id":"levelo_inurba_marseille","lat":43.30806,"lon":5.43528,"is_reserved":false,"is_disabled":false,"rental_uris":{"android":"levelo://app?vid=282501fa-b8c1-4280-bdaf-327c67bd3e01","ios":"levelo://app?vid=282501fa-b8c1-4280-bdaf-327c67bd3e01"},"vehicle_type_id":"4","last_reported":1742314361,"current_range_meters":3600,"station_id":"ce4bhph2rcd13ifvqheg","pricing_plan_id":"cebpf4jnsgd1na2vs0mg"},{"bike_id":"23dc714c-0bca-4fee-8dfb-0e39fe9fb177","system_id":"levelo_inurba_marseille","lat":43.26065,"lon":5.39398,"is_reserved":false,"is_disabled":false,"rental_uris":{"android":"levelo://app?vid=23dc714c-0bca-4fee-8dfb-0e39fe9fb177","ios":"levelo://app?vid=23dc714c-0bca-4fee-8dfb-0e39fe9fb177"},"vehicle_type_id":"4","last_reported":1742314361,"current_range_meters":4400,"station_id":"ce4bhh92rcd13ifvqfj0","pricing_plan_id":"cebpf4jnsgd1na2vs0mg"},{"bike_id":"24a82df6-744f-4dc5-a90d-dfbdf2e576e4","system_id":"levelo_inurba_marseille","lat":43.291996,"lon":5.393284,"is_reserved":false,"is_disabled":false,"rental_uris":{"android":"levelo://app?vid=24a82df6-744f-4dc5-a90d-dfbdf2e576e4","ios":"levelo://app?vid=24a82df6-744f-4dc5-a90d-dfbdf2e576e4"},"vehicle_type_id":"4","last_reported":1742314361,"current_range_meters":4800,"station_id":"ce4bhjp2rcd13ifvqga0","pricing_plan_id":"cebpf4jnsgd1na2vs0mg"},{"bike_id":"58b4643a-3850-45ee-b408-25aee485e073","system_id":"levelo_inurba_marseille","lat":43.25111,"lon":5.40326,"is_reserved":false,"is_disabled":false,"rental_uris":{"android":"levelo://app?vid=58b4643a-3850-45ee-b408-25aee485e073","ios":"levelo://app?vid=58b4643a-3850-45ee-b408-25aee485e073"},"vehicle_type_id":"4","last_reported":1742314361,"current_range_meters":4800,"station_id":"ce4bhlh2rcd13ifvqgig","pricing_plan_id":"cebpf4jnsgd1na2vs0mg"},{"bike_id":"4d693223-3ab7-4006-a72a-2ff959842767","system_id":"levelo_inurba_marseille","lat":43.27807,"lon":5.4072,"is_reserved":false,"is_disabled":false,"rental_uris":{"android":"levelo://app?vid=4d693223-3ab7-4006-a72a-2ff959842767","ios":"levelo://app?vid=4d693223-3ab7-4006-a72a-2ff959842767"},"vehicle_type_id":"4","last_reported":1742314361,"current_range_meters":4800,"station_id":"ce4bhnh2rcd13ifvqgtg","pricing_plan_id":"cebpf4jnsgd1na2vs0mg"},{"bike_id":"dd117a7c-a536-40a1-91af-43693b0b8fe5","system_id":"levelo_inurba_marseille","lat":43.25937,"lon":5.40895,"is_reserved":false,"is_disabled":false,"rental_uris":{"android":"levelo://app?vid=dd117a7c-a536-40a1-91af-43693b0b8fe5","ios":"levelo://app?vid=dd117a7c-a536-40a1-91af-43693b0b8fe5"},"vehicle_type_id":"4","last_reported":1742314361,"current_range_meters":4800,"station_id":"ce4bhm92rcd13ifvqglg","pricing_plan_id":"cebpf4jnsgd1na2vs0mg"},{"bike_id":"057c4299-c24d-4a02-8ede-b4bf9523726b","system_id":"levelo_inurba_marseille","lat":43.23163,"lon":5.43713,"is_reserved":false,"is_disabled":true,"rental_uris":{"android":"levelo://app?vid=057c4299-c24d-4a02-8ede-b4bf9523726b","ios":"levelo://app?vid=057c4299-c24d-4a02-8ede-b4bf9523726b"},"vehicle_type_id":"4","last_reported":1742314361,"current_range_meters":5600,"station_id":"ce4bhmp2rcd13ifvqgog","pricing_plan_id":"cebpf4jnsgd1na2vs0mg"},{"bike_id":"fa5f15ab-8994-45e1-84de-31aa4c8b3ced","system_id":"levelo_inurba_marseille","lat":43.23204,"lon":5.35549,"is_reserved":false,"is_disabled":false,"rental_uris":{"android":"levelo://app?vid=fa5f15ab-8994-45e1-84de-31aa4c8b3ced","ios":"levelo://app?vid=fa5f15ab-8994-45e1-84de-31aa4c8b3ced"},"vehicle_type_id":"4","last_reported":1742314361,"current_range_meters":5600,"station_id":"ce4bhu92rcd13ifvqi70","pricing_plan_id":"cebpf4jnsgd1na2vs0mg"},{"bike_id":"f6b873a9-7696-4059-8e95-419f8c92d2e6","system_id":"levelo_inurba_marseille","lat":43.2656,"lon":5.37288,"is_reserved":false,"is_disabled":false,"rental_uris":{"android":"levelo://app?vid=f6b873a9-7696-4059-8e95-419f8c92d2e6","ios":"levelo://app?vid=f6b873a9-7696-4059-8e95-419f8c92d2e6"},"vehicle_type_id":"4","last_reported":1742314361,"current_range_meters":5600,"station_id":"ce4bhg12rcd13ifvqf70","pricing_plan_id":"cebpf4jnsgd1na2vs0mg"},{"bike_id":"ce6eb2f9-6706-4ec9-963c-7eeb898d7ec2","system_id":"levelo_inurba_marseille","lat":43.28678,"lon":5.38667,"is_reserved":false,"is_disabled":false,"rental_uris":{"android":"levelo://app?vid=ce6eb2f9-6706-4ec9-963c-7eeb898d7ec2","ios":"levelo://app?vid=ce6eb2f9-6706-4ec9-963c-7eeb898d7ec2"},"vehicle_type_id":"4","last_reported":1742314361,"current_range_meters":5600,"station_id":"ce4bh492rcd13ifvqdug","pricing_plan_id":"cebpf4jnsgd1na2vs0mg"},{"bike_id":"bad1d8df-73f7-4be2-83c4-8a5bc15335b3","system_id":"levelo_inurba_marseille","lat":43.28407,"lon":5.39175,"is_reserved":false,"is_disabled":false,"rental_uris":{"android":"levelo://app?vid=bad1d8df-73f7-4be2-83c4-8a5bc15335b3","ios":"levelo://app?vid=bad1d8df-73f7-4be2-83c4-8a5bc15335b3"},"vehicle_type_id":"4","last_reported":1742314361,"current_range_meters":5600,"station_id":"","pricing_plan_id":"cebpf4jnsgd1na2vs0mg"},{"bike_id":"acc8cb64-5945-4798-ada0-e4616c75b8b3","system_id":"levelo_inurba_marseille","lat":43.27879,"lon":5.37993,"is_reserved":false,"is_disabled":false,"rental_uris":{"android":"levelo://app?vid=acc8cb64-5945-4798-ada0-e4616c75b8b3","ios":"levelo://app?vid=acc8cb64-5945-4798-ada0-e4616c75b8b3"},"vehicle_type_id":"4","last_reported":1742314361,"current_range_meters":5600,"station_id":"ce4bhf92rcd13ifvqf50","pricing_plan_id":"cebpf4jnsgd1na2vs0mg"},{"bike_id":"8500e02e-7dea-43d6-b065-d8d036a11c3e","system_id":"levelo_inurba_marseille","lat":43.30122,"lon":5.38053,"is_reserved":false,"is_disabled":false,"rental_uris":{"android":"levelo://app?vid=8500e02e-7dea-43d6-b065-d8d036a11c3e","ios":"levelo://app?vid=8500e02e-7dea-43d6-b065-d8d036a11c3e"},"vehicle_type_id":"4","last_reported":1742314361,"current_range_meters":5600,"station_id":"ce4bgjp2rcd13ifvqbh0","pricing_plan_id":"cebpf4jnsgd1na2vs0mg"},{"bike_id":"d1676c12-45d0-460a-ab7d-e6bd42a8628c","system_id":"levelo_inurba_marseille","lat":43.25937,"lon":5.40899,"is_reserved":false,"is_disabled":false,"rental_uris":{"android":"levelo://app?vid=d1676c12-45d0-460a-ab7d-e6bd42a8628c","ios":"levelo://app?vid=d1676c12-45d0-460a-ab7d-e6bd42a8628c"},"vehicle_type_id":"4","last_reported":1742314361,"current_range_meters":6000,"station_id":"ce4bhm92rcd13ifvqglg","pricing_plan_id":"cebpf4jnsgd1na2vs0mg"},{"bike_id":"886fc3b6-1e20-4da7-9131-ccfa2beeca1d","system_id":"levelo_inurba_marseille","lat":43.24805,"lon":5.37457,"is_reserved":false,"is_disabled":false,"rental_uris":{"android":"levelo://app?vid=886fc3b6-1e20-4da7-9131-ccfa2beeca1d","ios":"levelo://app?vid=886fc3b6-1e20-4da7-9131-ccfa2beeca1d"},"vehicle_type_id":"4","last_reported":1742314361,"current_range_meters":6000,"station_id":"ce4bhgh2rcd13ifvqfb0","pricing_plan_id":"cebpf4jnsgd1na2vs0mg"},{"bike_id":"b21cfa2c-947a-4e59-9b06-bfc89d15d6ce","system_id":"levelo_inurba_marseille","lat":43.28103,"lon":5.38346,"is_reserved":false,"is_disabled":false,"rental_uris":{"android":"levelo://app?vid=b21cfa2c-947a-4e59-9b06-bfc89d15d6ce","ios":"levelo://app?vid=b21cfa2c-947a-4e59-9b06-bfc89d15d6ce"},"vehicle_type_id":"4","last_reported":1742314361,"current_range_meters":6400,"station_id":"ce4bh412rcd13ifvqdr0","pricing_plan_id":"cebpf4jnsgd1na2vs0mg"},{"bike_id":"2665cc4b-07ed-4ae6-a66f-2b09983c709d","system_id":"levelo_inurba_marseille","lat":43.33761,"lon":5.37489,"is_reserved":false,"is_disabled":false,"rental_uris":{"android":"levelo://app?vid=2665cc4b-07ed-4ae6-a66f-2b09983c709d","ios":"levelo://app?vid=2665cc4b-07ed-4ae6-a66f-2b09983c709d"},"vehicle_type_id":"4","last_reported":1742314361,"current_range_meters":6400,"station_id":"","pricing_plan_id":"cebpf4jnsgd1na2vs0mg"},{"bike_id":"ff2a24dc-d06f-4ad0-875b-37b9079febeb","system_id":"levelo_inurba_marseille","lat":43.25585,"lon":5.38237,"is_reserved":false,"is_disabled":false,"rental_uris":{"android":"levelo://app?vid=ff2a24dc-d06f-4ad0-875b-37b9079febeb","ios":"levelo://app?vid=ff2a24dc-d06f-4ad0-875b-37b9079febeb"},"vehicle_type_id":"4","last_reported":1742314361,"current_range_meters":6400,"station_id":"ce4bhih2rcd13ifvqfs0","pricing_plan_id":"cebpf4jnsgd1na2vs0mg"},{"bike_id":"3f6ea791-b62f-4622-9819-7163e5f1e8cd","system_id":"levelo_inurba_marseille","lat":43.29564,"lon":5.37528,"is_reserved":false,"is_disabled":false,"rental_uris":{"android":"levelo://app?vid=3f6ea791-b62f-4622-9819-7163e5f1e8cd","ios":"levelo://app?vid=3f6ea791-b62f-4622-9819-7163e5f1e8cd"},"vehicle_type_id":"4","last_reported":1742314361,"current_range_meters":6400,"station_id":"ce4bgh92rcd13ifvqb50","pricing_plan_id":"cebpf4jnsgd1na2vs0mg"},{"bike_id":"c0b994da-9f3a-46d0-8438-0eb36158600e","system_id":"levelo_inurba_marseille","lat":43.28396,"lon":5.34978,"is_reserved":false,"is_disabled":false,"rental_uris":{"android":"levelo://app?vid=c0b994da-9f3a-46d0-8438-0eb36158600e","ios":"levelo://app?vid=c0b994da-9f3a-46d0-8438-0eb36158600e"},"vehicle_type_id":"4","last_reported":1742314361,"current_range_meters":6400,"station_id":"ce4bhbh2rcd13ifvqepg","pricing_plan_id":"cebpf4jnsgd1na2vs0mg"},{"bike_id":"b1b41327-66f3-4983-ac80-93a6af2a034d","system_id":"levelo_inurba_marseille","lat":43.23067,"lon":5.3552,"is_reserved":false,"is_disabled":false,"rental_uris":{"android":"levelo://app?vid=b1b41327-66f3-4983-ac80-93a6af2a034d","ios":"levelo://app?vid=b1b41327-66f3-4983-ac80-93a6af2a034d"},"vehicle_type_id":"4","last_reported":1742314361,"current_range_meters":6800,"station_id":"cpo3342slgdg3j2ifvpg","pricing_plan_id":"cebpf4jnsgd1na2vs0mg"},{"bike_id":"6d8e8090-a4c7-4966-a3f4-a833922b9e5a","system_id":"levelo_inurba_marseille","lat":43.2321,"lon":5.35518,"is_reserved":false,"is_disabled":false,"rental_uris":{"android":"levelo://app?vid=6d8e8090-a4c7-4966-a3f4-a833922b9e5a","ios":"levelo://app?vid=6d8e8090-a4c7-4966-a3f4-a833922b9e5a"},"vehicle_type_id":"4","last_reported":1742314361,"current_range_meters":6800,"station_id":"ce4bhu92rcd13ifvqi70","pricing_plan_id":"cebpf4jnsgd1na2vs0mg"},{"bike_id":"95738b57-08ed-44ff-b692-74becd45cca4","system_id":"levelo_inurba_marseille","lat":43.30923,"lon":5.40174,"is_reserved":false,"is_disabled":false,"rental_uris":{"android":"levelo://app?vid=95738b57-08ed-44ff-b692-74becd45cca4","ios":"levelo://app?vid=95738b57-08ed-44ff-b692-74becd45cca4"},"vehicle_type_id":"4","last_reported":1742314361,"current_range_meters":6800,"station_id":"ce4bgvp2rcd13ifvqct0","pricing_plan_id":"cebpf4jnsgd1na2vs0mg"},{"bike_id":"1c75c6b1-aadc-4645-8695-2aa87290e132","system_id":"levelo_inurba_marseille","lat":43.249997,"lon":5.38938,"is_reserved":false,"is_disabled":false,"rental_uris":{"android":"levelo://app?vid=1c75c6b1-aadc-4645-8695-2aa87290e132","ios":"levelo://app?vid=1c75c6b1-aadc-4645-8695-2aa87290e132"},"vehicle_type_id":"4","last_reported":1742314361,"current_range_meters":6800,"station_id":"ce4bhgp2rcd13ifvqfd0","pricing_plan_id":"cebpf4jnsgd1na2vs0mg"},{"bike_id":"6e98e9e8-4612-49ca-abb5-21c5a1cf7526","system_id":"levelo_inurba_marseille","lat":43.24809,"lon":5.37463,"is_reserved":false,"is_disabled":false,"rental_uris":{"android":"levelo://app?vid=6e98e9e8-4612-49ca-abb5-21c5a1cf7526","ios":"levelo://app?vid=6e98e9e8-4612-49ca-abb5-21c5a1cf7526"},"vehicle_type_id":"4","last_reported":1742314361,"current_range_meters":6800,"station_id":"ce4bhgh2rcd13ifvqfb0","pricing_plan_id":"cebpf4jnsgd1na2vs0mg"},{"bike_id":"ba8ab582-744a-4045-b49c-0f1a19184f53","system_id":"levelo_inurba_marseille","lat":43.28727,"lon":5.37947,"is_reserved":false,"is_disabled":false,"rental_uris":{"android":"levelo://app?vid=ba8ab582-744a-4045-b49c-0f1a19184f53","ios":"levelo://app?vid=ba8ab582-744a-4045-b49c-0f1a19184f53"},"vehicle_type_id":"4","last_reported":1742314361,"current_range_meters":6800,"station_id":"ce4bh9p2rcd13ifvqec0","pricing_plan_id":"cebpf4jnsgd1na2vs0mg"},{"bike_id":"8a4e1b2e-8fac-480b-a668-ef6a620a9814","system_id":"levelo_inurba_marseille","lat":43.27851,"lon":5.42445,"is_reserved":false,"is_disabled":false,"rental_uris":{"android":"levelo://app?vid=8a4e1b2e-8fac-480b-a668-ef6a620a9814","ios":"levelo://app?vid=8a4e1b2e-8fac-480b-a668-ef6a620a9814"},"vehicle_type_id":"4","last_reported":1742314361,"current_range_meters":6800,"station_id":"","pricing_plan_id":"cebpf4jnsgd1na2vs0mg"},{"bike_id":"551cc65b-fe42-4531-8213-651475bbd808","system_id":"levelo_inurba_marseille","lat":43.25007,"lon":5.38928,"is_reserved":false,"is_disabled":false,"rental_uris":{"android":"levelo://app?vid=551cc65b-fe42-4531-8213-651475bbd808","ios":"levelo://app?vid=551cc65b-fe42-4531-8213-651475bbd808"},"vehicle_type_id":"4","last_reported":1742314361,"current_range_meters":6800,"station_id":"ce4bhgp2rcd13ifvqfd0","pricing_plan_id":"cebpf4jnsgd1na2vs0mg"},{"bike_id":"0414c92c-7144-48ed-abc0-69cdccd9ea5d","system_id":"levelo_inurba_marseille","lat":43.24179,"lon":5.39731,"is_reserved":false,"is_disabled":false,"rental_uris":{"android":"levelo://app?vid=0414c92c-7144-48ed-abc0-69cdccd9ea5d","ios":"levelo://app?vid=0414c92c-7144-48ed-abc0-69cdccd9ea5d"},"vehicle_type_id":"4","last_reported":1742314361,"current_range_meters":7200,"station_id":"ce4bhn12rcd13ifvqgpg","pricing_plan_id":"cebpf4jnsgd1na2vs0mg"},{"bike_id":"35695dd4-791c-4486-b261-10bd7a9e52e9","system_id":"levelo_inurba_marseille","lat":43.26225,"lon":5.40448,"is_reserved":false,"is_disabled":true,"rental_uris":{"android":"levelo://app?vid=35695dd4-791c-4486-b261-10bd7a9e52e9","ios":"levelo://app?vid=35695dd4-791c-4486-b261-10bd7a9e52e9"},"vehicle_type_id":"4","last_reported":1742314361,"current_range_meters":7200,"station_id":"ce4bhmh2rcd13ifvqgmg","pricing_plan_id":"cebpf4jnsgd1na2vs0mg"},{"bike_id":"0d3accb9-853e-4df0-b9d8-4607b8048f46","system_id":"levelo_inurba_marseille","lat":43.2417,"lon":5.36393,"is_reserved":false,"is_disabled":false,"rental_uris":{"android":"levelo://app?vid=0d3accb9-853e-4df0-b9d8-4607b8048f46","ios":"levelo://app?vid=0d3accb9-853e-4df0-b9d8-4607b8048f46"},"vehicle_type_id":"4","last_reported":1742314361,"current_range_meters":7200,"station_id":"cpo36qri1sfpv3e86is0","pricing_plan_id":"cebpf4jnsgd1na2vs0mg"},{"bike_id":"c032c85a-c3a4-492c-8142-4ad8962a277f","system_id":"levelo_inurba_marseille","lat":43.2862,"lon":5.35107,"is_reserved":false,"is_disabled":false,"rental_uris":{"android":"levelo://app?vid=c032c85a-c3a4-492c-8142-4ad8962a277f","ios":"levelo://app?vid=c032c85a-c3a4-492c-8142-4ad8962a277f"},"vehicle_type_id":"4","last_reported":1742314361,"current_range_meters":7200,"station_id":"ce4bhch2rcd13ifvqeug","pricing_plan_id":"cebpf4jnsgd1na2vs0mg"},{"bike_id":"8fe7e33b-57fc-439c-ba02-015988635c80","system_id":"levelo_inurba_marseille","lat":43.27093,"lon":5.42292,"is_reserved":false,"is_disabled":true,"rental_uris":{"android":"levelo://app?vid=8fe7e33b-57fc-439c-ba02-015988635c80","ios":"levelo://app?vid=8fe7e33b-57fc-439c-ba02-015988635c80"},"vehicle_type_id":"4","last_reported":1742314361,"current_range_meters":7200,"station_id":"ce4bhk92rcd13ifvqgb0","pricing_plan_id":"cebpf4jnsgd1na2vs0mg"},{"bike_id":"8b47e242-36c2-4968-ba43-3579a3760cf7","system_id":"levelo_inurba_marseille","lat":43.26207,"lon":5.40448,"is_reserved":false,"is_disabled":false,"rental_uris":{"android":"levelo://app?vid=8b47e242-36c2-4968-ba43-3579a3760cf7","ios":"levelo://app?vid=8b47e242-36c2-4968-ba43-3579a3760cf7"},"vehicle_type_id":"4","last_reported":1742314361,"current_range_meters":7200,"station_id":"ce4bhmh2rcd13ifvqgmg","pricing_plan_id":"cebpf4jnsgd1na2vs0mg"},{"bike_id":"e94b1f20-3e0e-4dcb-9056-1e4af333e85a","system_id":"levelo_inurba_marseille","lat":43.29191,"lon":5.39311,"is_reserved":false,"is_disabled":true,"rental_uris":{"android":"levelo://app?vid=e94b1f20-3e0e-4dcb-9056-1e4af333e85a","ios":"levelo://app?vid=e94b1f20-3e0e-4dcb-9056-1e4af333e85a"},"vehicle_type_id":"4","last_reported":1742314361,"current_range_meters":7200,"station_id":"ce4bh192rcd13ifvqdd0","pricing_plan_id":"cebpf4jnsgd1na2vs0mg"},{"bike_id":"bf53558a-323c-40e3-9c37-ac64ba388e1c","system_id":"levelo_inurba_marseille","lat":43.23958,"lon":5.36637,"is_reserved":false,"is_disabled":false,"rental_uris":{"android":"levelo://app?vid=bf53558a-323c-40e3-9c37-ac64ba388e1c","ios":"levelo://app?vid=bf53558a-323c-40e3-9c37-ac64ba388e1c"},"vehicle_type_id":"4","last_reported":1742314361,"current_range_meters":7200,"station_id":"ce4bhi12rcd13ifvqfp0","pricing_plan_id":"cebpf4jnsgd1na2vs0mg"},{"bike_id":"5acfff0d-6883-40b9-90d2-621af333cea4","system_id":"levelo_inurba_marseille","lat":43.25929,"lon":5.40896,"is_reserved":false,"is_disabled":false,"rental_uris":{"android":"levelo://app?vid=5acfff0d-6883-40b9-90d2-621af333cea4","ios":"levelo://app?vid=5acfff0d-6883-40b9-90d2-621af333cea4"},"vehicle_type_id":"4","last_reported":1742314361,"current_range_meters":8000,"station_id":"ce4bhm92rcd13ifvqglg","pricing_plan_id":"cebpf4jnsgd1na2vs0mg"},{"bike_id":"97a1e633-c2b3-487e-8569-9036bf18d175","system_id":"levelo_inurba_marseille","lat":43.2418,"lon":5.36403,"is_reserved":false,"is_disabled":false,"rental_uris":{"android":"levelo://app?vid=97a1e633-c2b3-487e-8569-9036bf18d175","ios":"levelo://app?vid=97a1e633-c2b3-487e-8569-9036bf18d175"},"vehicle_type_id":"4","last_reported":1742314361,"current_range_meters":8000,"station_id":"cpo36qri1sfpv3e86is0","pricing_plan_id":"cebpf4jnsgd1na2vs0mg"},{"bike_id":"8fbb546d-d39d-4160-8dd3-cfba284240fe","system_id":"levelo_inurba_marseille","lat":43.3089,"lon":5.3719,"is_reserved":false,"is_disabled":false,"rental_uris":{"android":"levelo://app?vid=8fbb546d-d39d-4160-8dd3-cfba284240fe","ios":"levelo://app?vid=8fbb546d-d39d-4160-8dd3-cfba284240fe"},"vehicle_type_id":"4","last_reported":1742314361,"current_range_meters":8000,"station_id":"ce4bguh2rcd13ifvqckg","pricing_plan_id":"cebpf4jnsgd1na2vs0mg"},{"bike_id":"b6ed82ed-6cc5-42ba-803e-53ce8f49405d","system_id":"levelo_inurba_marseille","lat":43.24991,"lon":5.38918,"is_reserved":false,"is_disabled":false,"rental_uris":{"android":"levelo://app?vid=b6ed82ed-6cc5-42ba-803e-53ce8f49405d","ios":"levelo://app?vid=b6ed82ed-6cc5-42ba-803e-53ce8f49405d"},"vehicle_type_id":"4","last_reported":1742314361,"current_range_meters":8000,"station_id":"ce4bhgp2rcd13ifvqfd0","pricing_plan_id":"cebpf4jnsgd1na2vs0mg"},{"bike_id":"75e8bee3-0a10-4522-9d7e-72ece2846129","system_id":"levelo_inurba_marseille","lat":43.33029,"lon":5.3904,"is_reserved":false,"is_disabled":false,"rental_uris":{"android":"levelo://app?vid=75e8bee3-0a10-4522-9d7e-72ece2846129","ios":"levelo://app?vid=75e8bee3-0a10-4522-9d7e-72ece2846129"},"vehicle_type_id":"4","last_reported":1742314361,"current_range_meters":8000,"station_id":"ce4bhr92rcd13ifvqhrg","pricing_plan_id":"cebpf4jnsgd1na2vs0mg"},{"bike_id":"af3dcb1a-10b1-461f-ac23-5fed10c65e01","system_id":"levelo_inurba_marseille","lat":43.29353,"lon":5.37846,"is_reserved":false,"is_disabled":false,"rental_uris":{"android":"levelo://app?vid=af3dcb1a-10b1-461f-ac23-5fed10c65e01","ios":"levelo://app?vid=af3dcb1a-10b1-461f-ac23-5fed10c65e01"},"vehicle_type_id":"4","last_reported":1742314361,"current_range_meters":8000,"station_id":"ce4bgjh2rcd13ifvqbf0","pricing_plan_id":"cebpf4jnsgd1na2vs0mg"},{"bike_id":"4a0444b0-2801-4bcd-986d-a5319c19c27d","system_id":"levelo_inurba_marseille","lat":43.29022,"lon":5.35928,"is_reserved":false,"is_disabled":false,"rental_uris":{"android":"levelo://app?vid=4a0444b0-2801-4bcd-986d-a5319c19c27d","ios":"levelo://app?vid=4a0444b0-2801-4bcd-986d-a5319c19c27d"},"vehicle_type_id":"4","last_reported":1742314361,"current_range_meters":8400,"station_id":"ce4bha92rcd13ifvqeg0","pricing_plan_id":"cebpf4jnsgd1na2vs0mg"},{"bike_id":"eb11b094-bf47-43ab-bffd-d6c6fa0bddc2","system_id":"levelo_inurba_marseille","lat":43.24993,"lon":5.38937,"is_reserved":false,"is_disabled":false,"rental_uris":{"android":"levelo://app?vid=eb11b094-bf47-43ab-bffd-d6c6fa0bddc2","ios":"levelo://app?vid=eb11b094-bf47-43ab-bffd-d6c6fa0bddc2"},"vehicle_type_id":"4","last_reported":1742314361,"current_range_meters":8400,"station_id":"ce4bhgp2rcd13ifvqfd0","pricing_plan_id":"cebpf4jnsgd1na2vs0mg"},{"bike_id":"6b50eb37-3046-4ec7-ace7-3a733fdb84bb","system_id":"levelo_inurba_marseille","lat":43.301287,"lon":5.39866,"is_reserved":false,"is_disabled":false,"rental_uris":{"android":"levelo://app?vid=6b50eb37-3046-4ec7-ace7-3a733fdb84bb","ios":"levelo://app?vid=6b50eb37-3046-4ec7-ace7-3a733fdb84bb"},"vehicle_type_id":"4","last_reported":1742314361,"current_range_meters":8400,"station_id":"ce4bho92rcd13ifvqh4g","pricing_plan_id":"cebpf4jnsgd1na2vs0mg"},{"bike_id":"c7210302-a7fc-4dd4-8df3-138bbb26d5f3","system_id":"levelo_inurba_marseille","lat":43.24995,"lon":5.38942,"is_reserved":false,"is_disabled":false,"rental_uris":{"android":"levelo://app?vid=c7210302-a7fc-4dd4-8df3-138bbb26d5f3","ios":"levelo://app?vid=c7210302-a7fc-4dd4-8df3-138bbb26d5f3"},"vehicle_type_id":"4","last_reported":1742314361,"current_range_meters":8400,"station_id":"ce4bhgp2rcd13ifvqfd0","pricing_plan_id":"cebpf4jnsgd1na2vs0mg"},{"bike_id":"005d2d30-3c9d-4600-b36b-97a2629f3eaa","system_id":"levelo_inurba_marseille","lat":43.27813,"lon":5.40716,"is_reserved":false,"is_disabled":false,"rental_uris":{"android":"levelo://app?vid=005d2d30-3c9d-4600-b36b-97a2629f3eaa","ios":"levelo://app?vid=005d2d30-3c9d-4600-b36b-97a2629f3eaa"},"vehicle_type_id":"4","last_reported":1742314361,"current_range_meters":8400,"station_id":"ce4bhnh2rcd13ifvqgtg","pricing_plan_id":"cebpf4jnsgd1na2vs0mg"},{"bike_id":"2bf3a154-88c1-4244-a51a-9a3bf4253422","system_id":"levelo_inurba_marseille","lat":43.28006,"lon":5.40022,"is_reserved":false,"is_disabled":false,"rental_uris":{"android":"levelo://app?vid=2bf3a154-88c1-4244-a51a-9a3bf4253422","ios":"levelo://app?vid=2bf3a154-88c1-4244-a51a-9a3bf4253422"},"vehicle_type_id":"4","last_reported":1742314361,"current_range_meters":8400,"station_id":"ce4bho92rcd13ifvqh4g","pricing_plan_id":"cebpf4jnsgd1na2vs0mg"},{"bike_id":"5cb50b36-e6d7-48a2-bbaa-ca80319da783","system_id":"levelo_inurba_marseille","lat":43.29259,"lon":5.40904,"is_reserved":false,"is_disabled":false,"rental_uris":{"android":"levelo://app?vid=5cb50b36-e6d7-48a2-bbaa-ca80319da783","ios":"levelo://app?vid=5cb50b36-e6d7-48a2-bbaa-ca80319da783"},"vehicle_type_id":"4","last_reported":1742314361,"current_range_meters":8000,"station_id":"ce4bh192rcd13ifvqdc0","pricing_plan_id":"cebpf4jnsgd1na2vs0mg"},{"bike_id":"5a82ddea-7699-4fae-85d7-c3b7cf529773","system_id":"levelo_inurba_marseille","lat":43.27371,"lon":5.36263,"is_reserved":false,"is_disabled":false,"rental_uris":{"android":"levelo://app?vid=5a82ddea-7699-4fae-85d7-c3b7cf529773","ios":"levelo://app?vid=5a82ddea-7699-4fae-85d7-c3b7cf529773"},"vehicle_type_id":"4","last_reported":1742314361,"current_range_meters":8000,"station_id":"ce4bhbh2rcd13ifvqeo0","pricing_plan_id":"cebpf4jnsgd1na2vs0mg"},{"bike_id":"9cd6a946-d25c-4be8-bad7-797fa95f12c2","system_id":"levelo_inurba_marseille","lat":43.2993,"lon":5.3654,"is_reserved":false,"is_disabled":false,"rental_uris":{"android":"levelo://app?vid=9cd6a946-d25c-4be8-bad7-797fa95f12c2","ios":"levelo://app?vid=9cd6a946-d25c-4be8-bad7-797fa95f12c2"},"vehicle_type_id":"4","last_reported":1742314361,"current_range_meters":8800,"station_id":"ce4bgm92rcd13ifvqbr0","pricing_plan_id":"cebpf4jnsgd1na2vs0mg"},{"bike_id":"09be20b3-ccfa-43d5-8616-036d82fe33a0","system_id":"levelo_inurba_marseille","lat":43.25011,"lon":5.38953,"is_reserved":false,"is_disabled":false,"rental_uris":{"android":"levelo://app?vid=09be20b3-ccfa-43d5-8616-036d82fe33a0","ios":"levelo://app?vid=09be20b3-ccfa-43d5-8616-036d82fe33a0"},"vehicle_type_id":"4","last_reported":1742314361,"current_range_meters":8800,"station_id":"ce4bhgp2rcd13ifvqfd0","pricing_plan_id":"cebpf4jnsgd1na2vs0mg"},{"bike_id":"fbc0cf88-e636-444f-bc09-73ab69261ce5","system_id":"levelo_inurba_marseille","lat":43.31713,"lon":5.37756,"is_reserved":false,"is_disabled":false,"rental_uris":{"android":"levelo://app?vid=fbc0cf88-e636-444f-bc09-73ab69261ce5","ios":"levelo://app?vid=fbc0cf88-e636-444f-bc09-73ab69261ce5"},"vehicle_type_id":"4","last_reported":1742314361,"current_range_meters":8800,"station_id":"ce4bgth2rcd13ifvqch0","pricing_plan_id":"cebpf4jnsgd1na2vs0mg"},{"bike_id":"ca2aac3d-68e9-49c2-a6ce-55dc1000d56f","system_id":"levelo_inurba_marseille","lat":43.29031,"lon":5.38663,"is_reserved":false,"is_disabled":false,"rental_uris":{"android":"levelo://app?vid=ca2aac3d-68e9-49c2-a6ce-55dc1000d56f","ios":"levelo://app?vid=ca2aac3d-68e9-49c2-a6ce-55dc1000d56f"},"vehicle_type_id":"4","last_reported":1742314361,"current_range_meters":8800,"station_id":"ce4bh4p2rcd13ifvqe0g","pricing_plan_id":"cebpf4jnsgd1na2vs0mg"},{"bike_id":"0b60e72b-d8b1-4266-9b63-b94b87c1ad4b","system_id":"levelo_inurba_marseille","lat":43.23193,"lon":5.39991,"is_reserved":false,"is_disabled":false,"rental_uris":{"android":"levelo://app?vid=0b60e72b-d8b1-4266-9b63-b94b87c1ad4b","ios":"levelo://app?vid=0b60e72b-d8b1-4266-9b63-b94b87c1ad4b"},"vehicle_type_id":"4","last_reported":1742314361,"current_range_meters":9200,"station_id":"ce4bhn12rcd13ifvqgqg","pricing_plan_id":"cebpf4jnsgd1na2vs0mg"},{"bike_id":"9e540225-161e-4186-99e6-89a42eefd4ce","system_id":"levelo_inurba_marseille","lat":43.29264,"lon":5.38433,"is_reserved":false,"is_disabled":false,"rental_uris":{"android":"levelo://app?vid=9e540225-161e-4186-99e6-89a42eefd4ce","ios":"levelo://app?vid=9e540225-161e-4186-99e6-89a42eefd4ce"},"vehicle_type_id":"4","last_reported":1742314361,"current_range_meters":9200,"station_id":"ce4bh692rcd13ifvqea0","pricing_plan_id":"cebpf4jnsgd1na2vs0mg"},{"bike_id":"d0ecd06f-b344-485c-8550-9fa5bf448f53","system_id":"levelo_inurba_marseille","lat":43.25817,"lon":5.39444,"is_reserved":false,"is_disabled":false,"rental_uris":{"android":"levelo://app?vid=d0ecd06f-b344-485c-8550-9fa5bf448f53","ios":"levelo://app?vid=d0ecd06f-b344-485c-8550-9fa5bf448f53"},"vehicle_type_id":"4","last_reported":1742314361,"current_range_meters":9200,"station_id":"ce4bhip2rcd13ifvqft0","pricing_plan_id":"cebpf4jnsgd1na2vs0mg"},{"bike_id":"ab55dce4-a437-4fa8-aae5-3094a7c7913d","system_id":"levelo_inurba_marseille","lat":43.24807,"lon":5.3746,"is_reserved":false,"is_disabled":false,"rental_uris":{"android":"levelo://app?vid=ab55dce4-a437-4fa8-aae5-3094a7c7913d","ios":"levelo://app?vid=ab55dce4-a437-4fa8-aae5-3094a7c7913d"},"vehicle_type_id":"4","last_reported":1742314361,"current_range_meters":9200,"station_id":"ce4bhgh2rcd13ifvqfb0","pricing_plan_id":"cebpf4jnsgd1na2vs0mg"},{"bike_id":"b1281f26-9b2f-4548-befc-ab644d7da73f","system_id":"levelo_inurba_marseille","lat":43.27371,"lon":5.36259,"is_reserved":false,"is_disabled":false,"rental_uris":{"android":"levelo://app?vid=b1281f26-9b2f-4548-befc-ab644d7da73f","ios":"levelo://app?vid=b1281f26-9b2f-4548-befc-ab644d7da73f"},"vehicle_type_id":"4","last_reported":1742314361,"current_range_meters":9200,"station_id":"ce4bhbh2rcd13ifvqeo0","pricing_plan_id":"cebpf4jnsgd1na2vs0mg"},{"bike_id":"2db4dc7f-f814-4644-bab0-805bfa2d55bd","system_id":"levelo_inurba_marseille","lat":43.26564,"lon":5.37287,"is_reserved":false,"is_disabled":false,"rental_uris":{"android":"levelo://app?vid=2db4dc7f-f814-4644-bab0-805bfa2d55bd","ios":"levelo://app?vid=2db4dc7f-f814-4644-bab0-805bfa2d55bd"},"vehicle_type_id":"4","last_reported":1742314361,"current_range_meters":9200,"station_id":"ce4bhg12rcd13ifvqf70","pricing_plan_id":"cebpf4jnsgd1na2vs0mg"},{"bike_id":"4e950670-b096-4049-8c8c-3012830ea5a4","system_id":"levelo_inurba_marseille","lat":43.24399,"lon":5.37049,"is_reserved":false,"is_disabled":false,"rental_uris":{"android":"levelo://app?vid=4e950670-b096-4049-8c8c-3012830ea5a4","ios":"levelo://app?vid=4e950670-b096-4049-8c8c-3012830ea5a4"},"vehicle_type_id":"4","last_reported":1742314361,"current_range_meters":9200,"station_id":"ce4bhhh2rcd13ifvqfk0","pricing_plan_id":"cebpf4jnsgd1na2vs0mg"},{"bike_id":"9fc369da-f5a2-475f-9c5e-7c8d7d5cd355","system_id":"levelo_inurba_marseille","lat":43.28667,"lon":5.36354,"is_reserved":false,"is_disabled":false,"rental_uris":{"android":"levelo://app?vid=9fc369da-f5a2-475f-9c5e-7c8d7d5cd355","ios":"levelo://app?vid=9fc369da-f5a2-475f-9c5e-7c8d7d5cd355"},"vehicle_type_id":"4","last_reported":1742314361,"current_range_meters":9200,"station_id":"ce4bhah2rcd13ifvqej0","pricing_plan_id":"cebpf4jnsgd1na2vs0mg"},{"bike_id":"20efbc4d-8565-4296-ac8d-0caf846f8e72","system_id":"levelo_inurba_marseille","lat":43.29315,"lon":5.38671,"is_reserved":false,"is_disabled":false,"rental_uris":{"android":"levelo://app?vid=20efbc4d-8565-4296-ac8d-0caf846f8e72","ios":"levelo://app?vid=20efbc4d-8565-4296-ac8d-0caf846f8e72"},"vehicle_type_id":"4","last_reported":1742314361,"current_range_meters":9600,"station_id":"","pricing_plan_id":"cebpf4jnsgd1na2vs0mg"},{"bike_id":"6ab0acf1-1515-4f1a-adc3-106883cf7e6d","system_id":"levelo_inurba_marseille","lat":43.291665,"lon":5.371482,"is_reserved":false,"is_disabled":false,"rental_uris":{"android":"levelo://app?vid=6ab0acf1-1515-4f1a-adc3-106883cf7e6d","ios":"levelo://app?vid=6ab0acf1-1515-4f1a-adc3-106883cf7e6d"},"vehicle_type_id":"4","last_reported":1742314361,"current_range_meters":9600,"station_id":"ce4bha92rcd13ifvqeh0","pricing_plan_id":"cebpf4jnsgd1na2vs0mg"},{"bike_id":"519efbbc-7577-4063-8eac-658ef30e98a3","system_id":"levelo_inurba_marseille","lat":43.25001,"lon":5.38938,"is_reserved":false,"is_disabled":false,"rental_uris":{"android":"levelo://app?vid=519efbbc-7577-4063-8eac-658ef30e98a3","ios":"levelo://app?vid=519efbbc-7577-4063-8eac-658ef30e98a3"},"vehicle_type_id":"4","last_reported":1742314361,"current_range_meters":9600,"station_id":"ce4bhgp2rcd13ifvqfd0","pricing_plan_id":"cebpf4jnsgd1na2vs0mg"},{"bike_id":"e22545c2-84cf-42ea-81eb-6b2d2c7957d0","system_id":"levelo_inurba_marseille","lat":43.30334,"lon":5.40436,"is_reserved":false,"is_disabled":false,"rental_uris":{"android":"levelo://app?vid=e22545c2-84cf-42ea-81eb-6b2d2c7957d0","ios":"levelo://app?vid=e22545c2-84cf-42ea-81eb-6b2d2c7957d0"},"vehicle_type_id":"4","last_reported":1742314361,"current_range_meters":9600,"station_id":"ce4bh012rcd13ifvqd10","pricing_plan_id":"cebpf4jnsgd1na2vs0mg"},{"bike_id":"adffc0b0-8550-43a2-a64b-d727ff4ea905","system_id":"levelo_inurba_marseille","lat":43.23196,"lon":5.35557,"is_reserved":false,"is_disabled":false,"rental_uris":{"android":"levelo://app?vid=adffc0b0-8550-43a2-a64b-d727ff4ea905","ios":"levelo://app?vid=adffc0b0-8550-43a2-a64b-d727ff4ea905"},"vehicle_type_id":"4","last_reported":1742314361,"current_range_meters":9600,"station_id":"ce4bhu92rcd13ifvqi70","pricing_plan_id":"cebpf4jnsgd1na2vs0mg"},{"bike_id":"72cd9ff8-a564-4265-8725-d11956f5ae33","system_id":"levelo_inurba_marseille","lat":43.313639,"lon":5.384848,"is_reserved":false,"is_disabled":false,"rental_uris":{"android":"levelo://app?vid=72cd9ff8-a564-4265-8725-d11956f5ae33","ios":"levelo://app?vid=72cd9ff8-a564-4265-8725-d11956f5ae33"},"vehicle_type_id":"4","last_reported":1742314361,"current_range_meters":9600,"station_id":"ce4bgt92rcd13ifvqcf0","pricing_plan_id":"cebpf4jnsgd1na2vs0mg"},{"bike_id":"90e42f55-0033-4f5b-b6a0-b13f3f636ed4","system_id":"levelo_inurba_marseille","lat":43.28419,"lon":5.34985,"is_reserved":false,"is_disabled":false,"rental_uris":{"android":"levelo://app?vid=90e42f55-0033-4f5b-b6a0-b13f3f636ed4","ios":"levelo://app?vid=90e42f55-0033-4f5b-b6a0-b13f3f636ed4"},"vehicle_type_id":"4","last_reported":1742314361,"current_range_meters":9600,"station_id":"ce4bhbh2rcd13ifvqepg","pricing_plan_id":"cebpf4jnsgd1na2vs0mg"},{"bike_id":"2fc9495d-c829-4229-a4db-5c8674880d7a","system_id":"levelo_inurba_marseille","lat":43.23052,"lon":5.35496,"is_reserved":false,"is_disabled":false,"rental_uris":{"android":"levelo://app?vid=2fc9495d-c829-4229-a4db-5c8674880d7a","ios":"levelo://app?vid=2fc9495d-c829-4229-a4db-5c8674880d7a"},"vehicle_type_id":"4","last_reported":1742314361,"current_range_meters":9600,"station_id":"cpo3342slgdg3j2ifvpg","pricing_plan_id":"cebpf4jnsgd1na2vs0mg"},{"bike_id":"244972ac-6b8e-496c-8ff7-a07dcecb25e0","system_id":"levelo_inurba_marseille","lat":43.28074,"lon":5.39659,"is_reserved":false,"is_disabled":false,"rental_uris":{"android":"levelo://app?vid=244972ac-6b8e-496c-8ff7-a07dcecb25e0","ios":"levelo://app?vid=244972ac-6b8e-496c-8ff7-a07dcecb25e0"},"vehicle_type_id":"4","last_reported":1742314361,"current_range_meters":9600,"station_id":"ce4bho12rcd13ifvqh2g","pricing_plan_id":"cebpf4jnsgd1na2vs0mg"},{"bike_id":"55e8f23e-819a-44d1-a8ea-1af260788b3d","system_id":"levelo_inurba_marseille","lat":43.28873,"lon":5.35857,"is_reserved":false,"is_disabled":false,"rental_uris":{"android":"levelo://app?vid=55e8f23e-819a-44d1-a8ea-1af260788b3d","ios":"levelo://app?vid=55e8f23e-819a-44d1-a8ea-1af260788b3d"},"vehicle_type_id":"4","last_reported":1742314361,"current_range_meters":9600,"station_id":"ce4bhb12rcd13ifvqem0","pricing_plan_id":"cebpf4jnsgd1na2vs0mg"},{"bike_id":"d1cecdb0-0137-4836-99ec-a7dbfa3dc8b7","system_id":"levelo_inurba_marseille","lat":43.29551,"lon":5.39022,"is_reserved":false,"is_disabled":false,"rental_uris":{"android":"levelo://app?vid=d1cecdb0-0137-4836-99ec-a7dbfa3dc8b7","ios":"levelo://app?vid=d1cecdb0-0137-4836-99ec-a7dbfa3dc8b7"},"vehicle_type_id":"4","last_reported":1742314361,"current_range_meters":10000,"station_id":"ce4bh3p2rcd13ifvqdp0","pricing_plan_id":"cebpf4jnsgd1na2vs0mg"},{"bike_id":"6ae6f76c-6a01-4d75-9d3f-dfa610803a78","system_id":"levelo_inurba_marseille","lat":43.23066,"lon":5.35497,"is_reserved":false,"is_disabled":false,"rental_uris":{"android":"levelo://app?vid=6ae6f76c-6a01-4d75-9d3f-dfa610803a78","ios":"levelo://app?vid=6ae6f76c-6a01-4d75-9d3f-dfa610803a78"},"vehicle_type_id":"4","last_reported":1742314361,"current_range_meters":10000,"station_id":"cpo3342slgdg3j2ifvpg","pricing_plan_id":"cebpf4jnsgd1na2vs0mg"},{"bike_id":"e7fdb5ba-f87f-4c8b-9d6a-ea9dec176d3c","system_id":"levelo_inurba_marseille","lat":43.306492,"lon":5.393001,"is_reserved":false,"is_disabled":false,"rental_uris":{"android":"levelo://app?vid=e7fdb5ba-f87f-4c8b-9d6a-ea9dec176d3c","ios":"levelo://app?vid=e7fdb5ba-f87f-4c8b-9d6a-ea9dec176d3c"},"vehicle_type_id":"4","last_reported":1742314361,"current_range_meters":10000,"station_id":"ce4bhr12rcd13ifvqhqg","pricing_plan_id":"cebpf4jnsgd1na2vs0mg"},{"bike_id":"f158cb0f-0380-45cd-a82f-e7d941bda018","system_id":"levelo_inurba_marseille","lat":43.31711,"lon":5.4371,"is_reserved":false,"is_disabled":false,"rental_uris":{"android":"levelo://app?vid=f158cb0f-0380-45cd-a82f-e7d941bda018","ios":"levelo://app?vid=f158cb0f-0380-45cd-a82f-e7d941bda018"},"vehicle_type_id":"4","last_reported":1742314361,"current_range_meters":10000,"station_id":"ce4bhp92rcd13ifvqhcg","pricing_plan_id":"cebpf4jnsgd1na2vs0mg"},{"bike_id":"d740f9a8-8915-4113-905e-45a00c225c15","system_id":"levelo_inurba_marseille","lat":43.28455,"lon":5.35886,"is_reserved":false,"is_disabled":false,"rental_uris":{"android":"levelo://app?vid=d740f9a8-8915-4113-905e-45a00c225c15","ios":"levelo://app?vid=d740f9a8-8915-4113-905e-45a00c225c15"},"vehicle_type_id":"4","last_reported":1742314361,"current_range_meters":10000,"station_id":"ce4bhah2rcd13ifvqei0","pricing_plan_id":"cebpf4jnsgd1na2vs0mg"},{"bike_id":"b611c071-f0bb-41a2-aa25-420b921bc079","system_id":"levelo_inurba_marseille","lat":43.2309,"lon":5.355,"is_reserved":false,"is_disabled":false,"rental_uris":{"android":"levelo://app?vid=b611c071-f0bb-41a2-aa25-420b921bc079","ios":"levelo://app?vid=b611c071-f0bb-41a2-aa25-420b921bc079"},"vehicle_type_id":"4","last_reported":1742314361,"current_range_meters":10000,"station_id":"cpo3342slgdg3j2ifvpg","pricing_plan_id":"cebpf4jnsgd1na2vs0mg"},{"bike_id":"5fdd7e2f-54fd-4d56-b078-74f10d9865cd","system_id":"levelo_inurba_marseille","lat":43.26209,"lon":5.37441,"is_reserved":false,"is_disabled":false,"rental_uris":{"android":"levelo://app?vid=5fdd7e2f-54fd-4d56-b078-74f10d9865cd","ios":"levelo://app?vid=5fdd7e2f-54fd-4d56-b078-74f10d9865cd"},"vehicle_type_id":"4","last_reported":1742314361,"current_range_meters":10000,"station_id":"ce4bhgp2rcd13ifvqfc0","pricing_plan_id":"cebpf4jnsgd1na2vs0mg"},{"bike_id":"e650cff8-e577-4d99-a331-590751fa9ed9","system_id":"levelo_inurba_marseille","lat":43.24678,"lon":5.3815,"is_reserved":false,"is_disabled":false,"rental_uris":{"android":"levelo://app?vid=e650cff8-e577-4d99-a331-590751fa9ed9","ios":"levelo://app?vid=e650cff8-e577-4d99-a331-590751fa9ed9"},"vehicle_type_id":"4","last_reported":1742314361,"current_range_meters":10000,"station_id":"ce4bhih2rcd13ifvqfr0","pricing_plan_id":"cebpf4jnsgd1na2vs0mg"},{"bike_id":"d1069439-00e9-4aad-ad31-ab5b44b63348","system_id":"levelo_inurba_marseille","lat":43.31717,"lon":5.40471,"is_reserved":false,"is_disabled":true,"rental_uris":{"android":"levelo://app?vid=d1069439-00e9-4aad-ad31-ab5b44b63348","ios":"levelo://app?vid=d1069439-00e9-4aad-ad31-ab5b44b63348"},"vehicle_type_id":"4","last_reported":1742314361,"current_range_meters":10000,"station_id":"ce4bh012rcd13ifvqd00","pricing_plan_id":"cebpf4jnsgd1na2vs0mg"},{"bike_id":"59550beb-f893-4769-b188-a65889c2a736","system_id":"levelo_inurba_marseille","lat":43.2894,"lon":5.38387,"is_reserved":false,"is_disabled":false,"rental_uris":{"android":"levelo://app?vid=59550beb-f893-4769-b188-a65889c2a736","ios":"levelo://app?vid=59550beb-f893-4769-b188-a65889c2a736"},"vehicle_type_id":"4","last_reported":1742314361,"current_range_meters":10800,"station_id":"ce4bh612rcd13ifvqe6g","pricing_plan_id":"cebpf4jnsgd1na2vs0mg"},{"bike_id":"d00028dc-9b0d-47df-ad9d-778d21fb21b2","system_id":"levelo_inurba_marseille","lat":43.23191,"lon":5.35553,"is_reserved":false,"is_disabled":false,"rental_uris":{"android":"levelo://app?vid=d00028dc-9b0d-47df-ad9d-778d21fb21b2","ios":"levelo://app?vid=d00028dc-9b0d-47df-ad9d-778d21fb21b2"},"vehicle_type_id":"4","last_reported":1742314361,"current_range_meters":10800,"station_id":"ce4bhu92rcd13ifvqi70","pricing_plan_id":"cebpf4jnsgd1na2vs0mg"},{"bike_id":"539fc8c4-24e6-4af1-852f-0f9aae2257a1","system_id":"levelo_inurba_marseille","lat":43.23196,"lon":5.35549,"is_reserved":false,"is_disabled":false,"rental_uris":{"android":"levelo://app?vid=539fc8c4-24e6-4af1-852f-0f9aae2257a1","ios":"levelo://app?vid=539fc8c4-24e6-4af1-852f-0f9aae2257a1"},"vehicle_type_id":"4","last_reported":1742314361,"current_range_meters":10800,"station_id":"ce4bhu92rcd13ifvqi70","pricing_plan_id":"cebpf4jnsgd1na2vs0mg"},{"bike_id":"77beaae9-108d-46cb-a688-963e8bf31048","system_id":"levelo_inurba_marseille","lat":43.2862,"lon":5.35111,"is_reserved":false,"is_disabled":false,"rental_uris":{"android":"levelo://app?vid=77beaae9-108d-46cb-a688-963e8bf31048","ios":"levelo://app?vid=77beaae9-108d-46cb-a688-963e8bf31048"},"vehicle_type_id":"4","last_reported":1742314361,"current_range_meters":10800,"station_id":"ce4bhch2rcd13ifvqeug","pricing_plan_id":"cebpf4jnsgd1na2vs0mg"},{"bike_id":"5bead0f2-5ada-420f-bea0-acb8d2ad9da4","system_id":"levelo_inurba_marseille","lat":43.23192,"lon":5.39988,"is_reserved":false,"is_disabled":false,"rental_uris":{"android":"levelo://app?vid=5bead0f2-5ada-420f-bea0-acb8d2ad9da4","ios":"levelo://app?vid=5bead0f2-5ada-420f-bea0-acb8d2ad9da4"},"vehicle_type_id":"4","last_reported":1742314361,"current_range_meters":10800,"station_id":"ce4bhn12rcd13ifvqgqg","pricing_plan_id":"cebpf4jnsgd1na2vs0mg"},{"bike_id":"049b5602-ba3f-4a09-ad40-b8c54e6f1cb6","system_id":"levelo_inurba_marseille","lat":43.25007,"lon":5.38914,"is_reserved":false,"is_disabled":true,"rental_uris":{"android":"levelo://app?vid=049b5602-ba3f-4a09-ad40-b8c54e6f1cb6","ios":"levelo://app?vid=049b5602-ba3f-4a09-ad40-b8c54e6f1cb6"},"vehicle_type_id":"4","last_reported":1742314361,"current_range_meters":10800,"station_id":"ce4bhgp2rcd13ifvqfd0","pricing_plan_id":"cebpf4jnsgd1na2vs0mg"},{"bike_id":"9e9c2495-9473-40c9-b829-bb02ab558426","system_id":"levelo_inurba_marseille","lat":43.27958,"lon":5.41053,"is_reserved":false,"is_disabled":false,"rental_uris":{"android":"levelo://app?vid=9e9c2495-9473-40c9-b829-bb02ab558426","ios":"levelo://app?vid=9e9c2495-9473-40c9-b829-bb02ab558426"},"vehicle_type_id":"4","last_reported":1742314361,"current_range_meters":10800,"station_id":"ce4bhnp2rcd13ifvqh0g","pricing_plan_id":"cebpf4jnsgd1na2vs0mg"},{"bike_id":"69cfd3eb-5a2c-431b-9f12-adc221a0a5da","system_id":"levelo_inurba_marseille","lat":43.29105,"lon":5.3816,"is_reserved":false,"is_disabled":false,"rental_uris":{"android":"levelo://app?vid=69cfd3eb-5a2c-431b-9f12-adc221a0a5da","ios":"levelo://app?vid=69cfd3eb-5a2c-431b-9f12-adc221a0a5da"},"vehicle_type_id":"4","last_reported":1742314361,"current_range_meters":10000,"station_id":"ce4bh512rcd13ifvqe2g","pricing_plan_id":"cebpf4jnsgd1na2vs0mg"},{"bike_id":"6b162ed9-3599-4156-a34b-2df90433ae5c","system_id":"levelo_inurba_marseille","lat":43.24184,"lon":5.39739,"is_reserved":false,"is_disabled":false,"rental_uris":{"android":"levelo://app?vid=6b162ed9-3599-4156-a34b-2df90433ae5c","ios":"levelo://app?vid=6b162ed9-3599-4156-a34b-2df90433ae5c"},"vehicle_type_id":"4","last_reported":1742314361,"current_range_meters":10800,"station_id":"ce4bhn12rcd13ifvqgpg","pricing_plan_id":"cebpf4jnsgd1na2vs0mg"},{"bike_id":"4efc50b2-c352-4264-a793-04072db6f36e","system_id":"levelo_inurba_marseille","lat":43.24696,"lon":5.39437,"is_reserved":false,"is_disabled":false,"rental_uris":{"android":"levelo://app?vid=4efc50b2-c352-4264-a793-04072db6f36e","ios":"levelo://app?vid=4efc50b2-c352-4264-a793-04072db6f36e"},"vehicle_type_id":"4","last_reported":1742314361,"current_range_meters":10800,"station_id":"","pricing_plan_id":"cebpf4jnsgd1na2vs0mg"},{"bike_id":"ca1c0a28-8faf-435f-9d8b-370c3a07ff34","system_id":"levelo_inurba_marseille","lat":43.24142,"lon":5.36396,"is_reserved":false,"is_disabled":false,"rental_uris":{"android":"levelo://app?vid=ca1c0a28-8faf-435f-9d8b-370c3a07ff34","ios":"levelo://app?vid=ca1c0a28-8faf-435f-9d8b-370c3a07ff34"},"vehicle_type_id":"4","last_reported":1742314361,"current_range_meters":11200,"station_id":"cpo36qri1sfpv3e86is0","pricing_plan_id":"cebpf4jnsgd1na2vs0mg"},{"bike_id":"97671fc5-abde-41f7-ac3e-e67f808497b9","system_id":"levelo_inurba_marseille","lat":43.30423,"lon":5.41297,"is_reserved":false,"is_disabled":false,"rental_uris":{"android":"levelo://app?vid=97671fc5-abde-41f7-ac3e-e67f808497b9","ios":"levelo://app?vid=97671fc5-abde-41f7-ac3e-e67f808497b9"},"vehicle_type_id":"4","last_reported":1742314361,"current_range_meters":11200,"station_id":"ce4bhop2rcd13ifvqh8g","pricing_plan_id":"cebpf4jnsgd1na2vs0mg"},{"bike_id":"6b91c110-fb22-437e-88db-faab3b600d9b","system_id":"levelo_inurba_marseille","lat":43.29198,"lon":5.39314,"is_reserved":false,"is_disabled":false,"rental_uris":{"android":"levelo://app?vid=6b91c110-fb22-437e-88db-faab3b600d9b","ios":"levelo://app?vid=6b91c110-fb22-437e-88db-faab3b600d9b"},"vehicle_type_id":"4","last_reported":1742314361,"current_range_meters":11200,"station_id":"ce4bh192rcd13ifvqdd0","pricing_plan_id":"cebpf4jnsgd1na2vs0mg"},{"bike_id":"e5cb52c8-d833-41bc-b3a6-06d8699ae9ae","system_id":"levelo_inurba_marseille","lat":43.23148,"lon":5.43712,"is_reserved":false,"is_disabled":false,"rental_uris":{"android":"levelo://app?vid=e5cb52c8-d833-41bc-b3a6-06d8699ae9ae","ios":"levelo://app?vid=e5cb52c8-d833-41bc-b3a6-06d8699ae9ae"},"vehicle_type_id":"4","last_reported":1742314361,"current_range_meters":11200,"station_id":"ce4bhmp2rcd13ifvqgog","pricing_plan_id":"cebpf4jnsgd1na2vs0mg"},{"bike_id":"c0568062-38f2-4ff3-873c-dbf4a1f1d93a","system_id":"levelo_inurba_marseille","lat":43.30315,"lon":5.36915,"is_reserved":false,"is_disabled":false,"rental_uris":{"android":"levelo://app?vid=c0568062-38f2-4ff3-873c-dbf4a1f1d93a","ios":"levelo://app?vid=c0568062-38f2-4ff3-873c-dbf4a1f1d93a"},"vehicle_type_id":"4","last_reported":1742314361,"current_range_meters":13600,"station_id":"","pricing_plan_id":"cebpf4jnsgd1na2vs0mg"},{"bike_id":"c59ac89f-ce5b-4f9b-a1ee-6501b26faa63","system_id":"levelo_inurba_marseille","lat":43.28709,"lon":5.37388,"is_reserved":false,"is_disabled":false,"rental_uris":{"android":"levelo://app?vid=c59ac89f-ce5b-4f9b-a1ee-6501b26faa63","ios":"levelo://app?vid=c59ac89f-ce5b-4f9b-a1ee-6501b26faa63"},"vehicle_type_id":"4","last_reported":1742314361,"current_range_meters":11600,"station_id":"ce4bh3p2rcd13ifvqdq0","pricing_plan_id":"cebpf4jnsgd1na2vs0mg"},{"bike_id":"0cb439ba-c73c-4e00-a10d-d81c8bff11ec","system_id":"levelo_inurba_marseille","lat":43.32464,"lon":5.36554,"is_reserved":false,"is_disabled":false,"rental_uris":{"android":"levelo://app?vid=0cb439ba-c73c-4e00-a10d-d81c8bff11ec","ios":"levelo://app?vid=0cb439ba-c73c-4e00-a10d-d81c8bff11ec"},"vehicle_type_id":"4","last_reported":1742314361,"current_range_meters":11600,"station_id":"ce4bhs12rcd13ifvqhvg","pricing_plan_id":"cebpf4jnsgd1na2vs0mg"},{"bike_id":"4a3def17-103c-4791-ab07-8b9b514d1d8d","system_id":"levelo_inurba_marseille","lat":43.30639,"lon":5.40092,"is_reserved":false,"is_disabled":false,"rental_uris":{"android":"levelo://app?vid=4a3def17-103c-4791-ab07-8b9b514d1d8d","ios":"levelo://app?vid=4a3def17-103c-4791-ab07-8b9b514d1d8d"},"vehicle_type_id":"4","last_reported":1742314361,"current_range_meters":11600,"station_id":"ce4bh112rcd13ifvqda0","pricing_plan_id":"cebpf4jnsgd1na2vs0mg"},{"bike_id":"882d5b04-baa2-4dc9-9e53-64f01cb7663b","system_id":"levelo_inurba_marseille","lat":43.30143,"lon":5.37411,"is_reserved":false,"is_disabled":false,"rental_uris":{"android":"levelo://app?vid=882d5b04-baa2-4dc9-9e53-64f01cb7663b","ios":"levelo://app?vid=882d5b04-baa2-4dc9-9e53-64f01cb7663b"},"vehicle_type_id":"4","last_reported":1742314361,"current_range_meters":11600,"station_id":"ce4bgs92rcd13ifvqcc0","pricing_plan_id":"cebpf4jnsgd1na2vs0mg"},{"bike_id":"33cee87d-54df-4382-b486-e00c9953097c","system_id":"levelo_inurba_marseille","lat":43.25501,"lon":5.37661,"is_reserved":false,"is_disabled":false,"rental_uris":{"android":"levelo://app?vid=33cee87d-54df-4382-b486-e00c9953097c","ios":"levelo://app?vid=33cee87d-54df-4382-b486-e00c9953097c"},"vehicle_type_id":"4","last_reported":1742314361,"current_range_meters":11600,"station_id":"ce4bhh12rcd13ifvqff0","pricing_plan_id":"cebpf4jnsgd1na2vs0mg"},{"bike_id":"ab11fa9b-759f-447f-a4f1-b143e2360775","system_id":"levelo_inurba_marseille","lat":43.31349,"lon":5.39158,"is_reserved":false,"is_disabled":false,"rental_uris":{"android":"levelo://app?vid=ab11fa9b-759f-447f-a4f1-b143e2360775","ios":"levelo://app?vid=ab11fa9b-759f-447f-a4f1-b143e2360775"},"vehicle_type_id":"4","last_reported":1742314361,"current_range_meters":11600,"station_id":"","pricing_plan_id":"cebpf4jnsgd1na2vs0mg"},{"bike_id":"6cf7fab9-89ea-476e-890f-148e8523b7ff","system_id":"levelo_inurba_marseille","lat":43.28665,"lon":5.38681,"is_reserved":false,"is_disabled":false,"rental_uris":{"android":"levelo://app?vid=6cf7fab9-89ea-476e-890f-148e8523b7ff","ios":"levelo://app?vid=6cf7fab9-89ea-476e-890f-148e8523b7ff"},"vehicle_type_id":"4","last_reported":1742314361,"current_range_meters":11600,"station_id":"ce4bh492rcd13ifvqdug","pricing_plan_id":"cebpf4jnsgd1na2vs0mg"},{"bike_id":"5c9e64e9-7941-4260-bfe7-e2855bebea22","system_id":"levelo_inurba_marseille","lat":43.27197,"lon":5.40985,"is_reserved":false,"is_disabled":false,"rental_uris":{"android":"levelo://app?vid=5c9e64e9-7941-4260-bfe7-e2855bebea22","ios":"levelo://app?vid=5c9e64e9-7941-4260-bfe7-e2855bebea22"},"vehicle_type_id":"4","last_reported":1742314361,"current_range_meters":11600,"station_id":"ce4bhl12rcd13ifvqgf0","pricing_plan_id":"cebpf4jnsgd1na2vs0mg"},{"bike_id":"4921e327-d582-4618-843c-95614c60b53c","system_id":"levelo_inurba_marseille","lat":43.27308,"lon":5.39083,"is_reserved":false,"is_disabled":false,"rental_uris":{"android":"levelo://app?vid=4921e327-d582-4618-843c-95614c60b53c","ios":"levelo://app?vid=4921e327-d582-4618-843c-95614c60b53c"},"vehicle_type_id":"4","last_reported":1742314361,"current_range_meters":11600,"station_id":"ce4bhgp2rcd13ifvqfe0","pricing_plan_id":"cebpf4jnsgd1na2vs0mg"},{"bike_id":"b79606c9-00e2-4605-a678-e37453fb9df8","system_id":"levelo_inurba_marseille","lat":43.2397,"lon":5.36623,"is_reserved":false,"is_disabled":false,"rental_uris":{"android":"levelo://app?vid=b79606c9-00e2-4605-a678-e37453fb9df8","ios":"levelo://app?vid=b79606c9-00e2-4605-a678-e37453fb9df8"},"vehicle_type_id":"4","last_reported":1742314361,"current_range_meters":11200,"station_id":"ce4bhi12rcd13ifvqfp0","pricing_plan_id":"cebpf4jnsgd1na2vs0mg"},{"bike_id":"600cc878-7c2a-4cf4-9af6-86a428b733cc","system_id":"levelo_inurba_marseille","lat":43.302148,"lon":5.39464,"is_reserved":false,"is_disabled":true,"rental_uris":{"android":"levelo://app?vid=600cc878-7c2a-4cf4-9af6-86a428b733cc","ios":"levelo://app?vid=600cc878-7c2a-4cf4-9af6-86a428b733cc"},"vehicle_type_id":"4","last_reported":1742314361,"current_range_meters":12000,"station_id":"ce4bh0p2rcd13ifvqd70","pricing_plan_id":"cebpf4jnsgd1na2vs0mg"},{"bike_id":"b59dcec8-37cb-424d-a257-1df19beff6cb","system_id":"levelo_inurba_marseille","lat":43.30944,"lon":5.36846,"is_reserved":false,"is_disabled":false,"rental_uris":{"android":"levelo://app?vid=b59dcec8-37cb-424d-a257-1df19beff6cb","ios":"levelo://app?vid=b59dcec8-37cb-424d-a257-1df19beff6cb"},"vehicle_type_id":"4","last_reported":1742314361,"current_range_meters":12000,"station_id":"ce4bgn92rcd13ifvqbvg","pricing_plan_id":"cebpf4jnsgd1na2vs0mg"},{"bike_id":"18126f6d-bc81-4835-8118-ecc2758395d7","system_id":"levelo_inurba_marseille","lat":43.27002,"lon":5.398,"is_reserved":false,"is_disabled":false,"rental_uris":{"android":"levelo://app?vid=18126f6d-bc81-4835-8118-ecc2758395d7","ios":"levelo://app?vid=18126f6d-bc81-4835-8118-ecc2758395d7"},"vehicle_type_id":"4","last_reported":1742314361,"current_range_meters":12000,"station_id":"","pricing_plan_id":"cebpf4jnsgd1na2vs0mg"},{"bike_id":"d8fd6f66-694d-4465-a243-8c34cb38915b","system_id":"levelo_inurba_marseille","lat":43.26931,"lon":5.4026,"is_reserved":false,"is_disabled":false,"rental_uris":{"android":"levelo://app?vid=d8fd6f66-694d-4465-a243-8c34cb38915b","ios":"levelo://app?vid=d8fd6f66-694d-4465-a243-8c34cb38915b"},"vehicle_type_id":"4","last_reported":1742314361,"current_range_meters":11600,"station_id":"cjm6bp8fraef2m0cb0m0","pricing_plan_id":"cebpf4jnsgd1na2vs0mg"},{"bike_id":"c9a06908-3b9e-4de3-b685-f0628897a001","system_id":"levelo_inurba_marseille","lat":43.27213,"lon":5.39177,"is_reserved":false,"is_disabled":false,"rental_uris":{"android":"levelo://app?vid=c9a06908-3b9e-4de3-b685-f0628897a001","ios":"levelo://app?vid=c9a06908-3b9e-4de3-b685-f0628897a001"},"vehicle_type_id":"4","last_reported":1742314361,"current_range_meters":12000,"station_id":"ce4bhhp2rcd13ifvqfm0","pricing_plan_id":"cebpf4jnsgd1na2vs0mg"},{"bike_id":"6ae282b9-d978-41d7-9848-3239671b5019","system_id":"levelo_inurba_marseille","lat":43.23062,"lon":5.35493,"is_reserved":false,"is_disabled":false,"rental_uris":{"android":"levelo://app?vid=6ae282b9-d978-41d7-9848-3239671b5019","ios":"levelo://app?vid=6ae282b9-d978-41d7-9848-3239671b5019"},"vehicle_type_id":"4","last_reported":1742314361,"current_range_meters":12400,"station_id":"cpo3342slgdg3j2ifvpg","pricing_plan_id":"cebpf4jnsgd1na2vs0mg"},{"bike_id":"80b38ee3-3c1e-49eb-a7c4-058c74168484","system_id":"levelo_inurba_marseille","lat":43.29102,"lon":5.38144,"is_reserved":false,"is_disabled":false,"rental_uris":{"android":"levelo://app?vid=80b38ee3-3c1e-49eb-a7c4-058c74168484","ios":"levelo://app?vid=80b38ee3-3c1e-49eb-a7c4-058c74168484"},"vehicle_type_id":"4","last_reported":1742314361,"current_range_meters":12400,"station_id":"ce4bh512rcd13ifvqe2g","pricing_plan_id":"cebpf4jnsgd1na2vs0mg"},{"bike_id":"2e5ecf31-30b5-467e-9117-e49fe2c181fc","system_id":"levelo_inurba_marseille","lat":43.24665,"lon":5.38136,"is_reserved":false,"is_disabled":false,"rental_uris":{"android":"levelo://app?vid=2e5ecf31-30b5-467e-9117-e49fe2c181fc","ios":"levelo://app?vid=2e5ecf31-30b5-467e-9117-e49fe2c181fc"},"vehicle_type_id":"4","last_reported":1742314361,"current_range_meters":12400,"station_id":"ce4bhih2rcd13ifvqfr0","pricing_plan_id":"cebpf4jnsgd1na2vs0mg"},{"bike_id":"89cb3140-d211-4c4d-97ca-7e01c3c4da90","system_id":"levelo_inurba_marseille","lat":43.23191,"lon":5.35562,"is_reserved":false,"is_disabled":false,"rental_uris":{"android":"levelo://app?vid=89cb3140-d211-4c4d-97ca-7e01c3c4da90","ios":"levelo://app?vid=89cb3140-d211-4c4d-97ca-7e01c3c4da90"},"vehicle_type_id":"4","last_reported":1742314361,"current_range_meters":12400,"station_id":"ce4bhu92rcd13ifvqi70","pricing_plan_id":"cebpf4jnsgd1na2vs0mg"},{"bike_id":"f764c436-5dd2-4bca-adbd-5efd02e0f2d8","system_id":"levelo_inurba_marseille","lat":43.2511,"lon":5.40336,"is_reserved":false,"is_disabled":false,"rental_uris":{"android":"levelo://app?vid=f764c436-5dd2-4bca-adbd-5efd02e0f2d8","ios":"levelo://app?vid=f764c436-5dd2-4bca-adbd-5efd02e0f2d8"},"vehicle_type_id":"4","last_reported":1742314361,"current_range_meters":12400,"station_id":"ce4bhlh2rcd13ifvqgig","pricing_plan_id":"cebpf4jnsgd1na2vs0mg"},{"bike_id":"3cd0282f-732d-47e9-a746-a9c23b0a8b98","system_id":"levelo_inurba_marseille","lat":43.28437,"lon":5.39197,"is_reserved":false,"is_disabled":false,"rental_uris":{"android":"levelo://app?vid=3cd0282f-732d-47e9-a746-a9c23b0a8b98","ios":"levelo://app?vid=3cd0282f-732d-47e9-a746-a9c23b0a8b98"},"vehicle_type_id":"4","last_reported":1742314361,"current_range_meters":12800,"station_id":"ce4bhoh2rcd13ifvqh5g","pricing_plan_id":"cebpf4jnsgd1na2vs0mg"},{"bike_id":"58680025-6e2a-4282-b20b-09f83bbd0fe6","system_id":"levelo_inurba_marseille","lat":43.28871,"lon":5.35871,"is_reserved":false,"is_disabled":false,"rental_uris":{"android":"levelo://app?vid=58680025-6e2a-4282-b20b-09f83bbd0fe6","ios":"levelo://app?vid=58680025-6e2a-4282-b20b-09f83bbd0fe6"},"vehicle_type_id":"4","last_reported":1742314361,"current_range_meters":12800,"station_id":"ce4bhb12rcd13ifvqem0","pricing_plan_id":"cebpf4jnsgd1na2vs0mg"},{"bike_id":"a1ddd760-e04f-4cb9-85e1-86f179e2f865","system_id":"levelo_inurba_marseille","lat":43.28702,"lon":5.38668,"is_reserved":false,"is_disabled":false,"rental_uris":{"android":"levelo://app?vid=a1ddd760-e04f-4cb9-85e1-86f179e2f865","ios":"levelo://app?vid=a1ddd760-e04f-4cb9-85e1-86f179e2f865"},"vehicle_type_id":"4","last_reported":1742314361,"current_range_meters":12800,"station_id":"ce4bh492rcd13ifvqdug","pricing_plan_id":"cebpf4jnsgd1na2vs0mg"},{"bike_id":"bfa40974-876e-403f-8ee9-98898195442a","system_id":"levelo_inurba_marseille","lat":43.28469,"lon":5.35898,"is_reserved":false,"is_disabled":false,"rental_uris":{"android":"levelo://app?vid=bfa40974-876e-403f-8ee9-98898195442a","ios":"levelo://app?vid=bfa40974-876e-403f-8ee9-98898195442a"},"vehicle_type_id":"4","last_reported":1742314361,"current_range_meters":12800,"station_id":"ce4bhah2rcd13ifvqei0","pricing_plan_id":"cebpf4jnsgd1na2vs0mg"},{"bike_id":"f142dc05-f5d3-4cbc-afe5-c54cd3d760d6","system_id":"levelo_inurba_marseille","lat":43.28087,"lon":5.39668,"is_reserved":false,"is_disabled":false,"rental_uris":{"android":"levelo://app?vid=f142dc05-f5d3-4cbc-afe5-c54cd3d760d6","ios":"levelo://app?vid=f142dc05-f5d3-4cbc-afe5-c54cd3d760d6"},"vehicle_type_id":"4","last_reported":1742314361,"current_range_meters":12800,"station_id":"ce4bho12rcd13ifvqh2g","pricing_plan_id":"cebpf4jnsgd1na2vs0mg"},{"bike_id":"62f7539b-b047-479e-84e9-11e5c010431d","system_id":"levelo_inurba_marseille","lat":43.3002,"lon":5.40023,"is_reserved":false,"is_disabled":false,"rental_uris":{"android":"levelo://app?vid=62f7539b-b047-479e-84e9-11e5c010431d","ios":"levelo://app?vid=62f7539b-b047-479e-84e9-11e5c010431d"},"vehicle_type_id":"4","last_reported":1742314361,"current_range_meters":12800,"station_id":"","pricing_plan_id":"cebpf4jnsgd1na2vs0mg"},{"bike_id":"33d9406f-513b-45f3-a181-7ac4f13c484b","system_id":"levelo_inurba_marseille","lat":43.28919,"lon":5.38395,"is_reserved":false,"is_disabled":false,"rental_uris":{"android":"levelo://app?vid=33d9406f-513b-45f3-a181-7ac4f13c484b","ios":"levelo://app?vid=33d9406f-513b-45f3-a181-7ac4f13c484b"},"vehicle_type_id":"4","last_reported":1742314361,"current_range_meters":12800,"station_id":"ce4bh612rcd13ifvqe6g","pricing_plan_id":"cebpf4jnsgd1na2vs0mg"},{"bike_id":"7f61d7be-d227-44df-9b33-b8f4965e514f","system_id":"levelo_inurba_marseille","lat":43.23196,"lon":5.35557,"is_reserved":false,"is_disabled":false,"rental_uris":{"android":"levelo://app?vid=7f61d7be-d227-44df-9b33-b8f4965e514f","ios":"levelo://app?vid=7f61d7be-d227-44df-9b33-b8f4965e514f"},"vehicle_type_id":"4","last_reported":1742314361,"current_range_meters":13600,"station_id":"ce4bhu92rcd13ifvqi70","pricing_plan_id":"cebpf4jnsgd1na2vs0mg"},{"bike_id":"edc04137-2606-4c62-9d30-b658a97e6790","system_id":"levelo_inurba_marseille","lat":43.31087,"lon":5.42435,"is_reserved":false,"is_disabled":false,"rental_uris":{"android":"levelo://app?vid=edc04137-2606-4c62-9d30-b658a97e6790","ios":"levelo://app?vid=edc04137-2606-4c62-9d30-b658a97e6790"},"vehicle_type_id":"4","last_reported":1742314361,"current_range_meters":13600,"station_id":"ce4bhp92rcd13ifvqhag","pricing_plan_id":"cebpf4jnsgd1na2vs0mg"},{"bike_id":"1870058a-b523-4da0-b273-c1a2499265a2","system_id":"levelo_inurba_marseille","lat":43.29005,"lon":5.35619,"is_reserved":false,"is_disabled":false,"rental_uris":{"android":"levelo://app?vid=1870058a-b523-4da0-b273-c1a2499265a2","ios":"levelo://app?vid=1870058a-b523-4da0-b273-c1a2499265a2"},"vehicle_type_id":"4","last_reported":1742314361,"current_range_meters":13600,"station_id":"ce4bhb92rcd13ifvqen0","pricing_plan_id":"cebpf4jnsgd1na2vs0mg"},{"bike_id":"9ae9b629-e6e2-41f1-856f-3252f9ec9995","system_id":"levelo_inurba_marseille","lat":43.26548,"lon":5.3728,"is_reserved":false,"is_disabled":false,"rental_uris":{"android":"levelo://app?vid=9ae9b629-e6e2-41f1-856f-3252f9ec9995","ios":"levelo://app?vid=9ae9b629-e6e2-41f1-856f-3252f9ec9995"},"vehicle_type_id":"4","last_reported":1742314361,"current_range_meters":13600,"station_id":"ce4bhg12rcd13ifvqf70","pricing_plan_id":"cebpf4jnsgd1na2vs0mg"},{"bike_id":"3a1156d3-048e-460b-bcf2-3d0dcb364326","system_id":"levelo_inurba_marseille","lat":43.23949,"lon":5.36661,"is_reserved":false,"is_disabled":false,"rental_uris":{"android":"levelo://app?vid=3a1156d3-048e-460b-bcf2-3d0dcb364326","ios":"levelo://app?vid=3a1156d3-048e-460b-bcf2-3d0dcb364326"},"vehicle_type_id":"4","last_reported":1742314361,"current_range_meters":13600,"station_id":"ce4bhi12rcd13ifvqfp0","pricing_plan_id":"cebpf4jnsgd1na2vs0mg"},{"bike_id":"623b1d48-fe8c-4a6a-b45e-f5a8ef1ac996","system_id":"levelo_inurba_marseille","lat":43.30536,"lon":5.36537,"is_reserved":false,"is_disabled":false,"rental_uris":{"android":"levelo://app?vid=623b1d48-fe8c-4a6a-b45e-f5a8ef1ac996","ios":"levelo://app?vid=623b1d48-fe8c-4a6a-b45e-f5a8ef1ac996"},"vehicle_type_id":"4","last_reported":1742314361,"current_range_meters":13600,"station_id":"ce4bgs12rcd13ifvqcag","pricing_plan_id":"cebpf4jnsgd1na2vs0mg"},{"bike_id":"d8c1ae52-2a9e-4470-a363-aadad54f73dd","system_id":"levelo_inurba_marseille","lat":43.26224,"lon":5.40457,"is_reserved":false,"is_disabled":false,"rental_uris":{"android":"levelo://app?vid=d8c1ae52-2a9e-4470-a363-aadad54f73dd","ios":"levelo://app?vid=d8c1ae52-2a9e-4470-a363-aadad54f73dd"},"vehicle_type_id":"4","last_reported":1742314361,"current_range_meters":13600,"station_id":"ce4bhmh2rcd13ifvqgmg","pricing_plan_id":"cebpf4jnsgd1na2vs0mg"},{"bike_id":"987fcfe9-88a3-4d7e-a1c6-7b3b097377e2","system_id":"levelo_inurba_marseille","lat":43.294158,"lon":5.386309,"is_reserved":false,"is_disabled":false,"rental_uris":{"android":"levelo://app?vid=987fcfe9-88a3-4d7e-a1c6-7b3b097377e2","ios":"levelo://app?vid=987fcfe9-88a3-4d7e-a1c6-7b3b097377e2"},"vehicle_type_id":"4","last_reported":1742314361,"current_range_meters":14000,"station_id":"ce4bh0h2rcd13ifvqd50","pricing_plan_id":"cebpf4jnsgd1na2vs0mg"},{"bike_id":"ff037ac5-a7ea-45e6-93cf-7d394f2f7759","system_id":"levelo_inurba_marseille","lat":43.30529,"lon":5.36541,"is_reserved":false,"is_disabled":false,"rental_uris":{"android":"levelo://app?vid=ff037ac5-a7ea-45e6-93cf-7d394f2f7759","ios":"levelo://app?vid=ff037ac5-a7ea-45e6-93cf-7d394f2f7759"},"vehicle_type_id":"4","last_reported":1742314361,"current_range_meters":14000,"station_id":"ce4bgs12rcd13ifvqcag","pricing_plan_id":"cebpf4jnsgd1na2vs0mg"},{"bike_id":"76566c4d-ebfa-478c-bee9-4c4e1d9d8bbc","system_id":"levelo_inurba_marseille","lat":43.24686,"lon":5.38165,"is_reserved":false,"is_disabled":false,"rental_uris":{"android":"levelo://app?vid=76566c4d-ebfa-478c-bee9-4c4e1d9d8bbc","ios":"levelo://app?vid=76566c4d-ebfa-478c-bee9-4c4e1d9d8bbc"},"vehicle_type_id":"4","last_reported":1742314361,"current_range_meters":14000,"station_id":"ce4bhih2rcd13ifvqfr0","pricing_plan_id":"cebpf4jnsgd1na2vs0mg"},{"bike_id":"501f7fd9-069d-4c8f-b512-803a0a667daa","system_id":"levelo_inurba_marseille","lat":43.31712,"lon":5.43708,"is_reserved":false,"is_disabled":false,"rental_uris":{"android":"levelo://app?vid=501f7fd9-069d-4c8f-b512-803a0a667daa","ios":"levelo://app?vid=501f7fd9-069d-4c8f-b512-803a0a667daa"},"vehicle_type_id":"4","last_reported":1742314361,"current_range_meters":14000,"station_id":"ce4bhp92rcd13ifvqhcg","pricing_plan_id":"cebpf4jnsgd1na2vs0mg"},{"bike_id":"cf58057e-641c-44e7-bb7c-a88f1e9c5f69","system_id":"levelo_inurba_marseille","lat":43.26494,"lon":5.39538,"is_reserved":false,"is_disabled":false,"rental_uris":{"android":"levelo://app?vid=cf58057e-641c-44e7-bb7c-a88f1e9c5f69","ios":"levelo://app?vid=cf58057e-641c-44e7-bb7c-a88f1e9c5f69"},"vehicle_type_id":"4","last_reported":1742314361,"current_range_meters":14000,"station_id":"ce4bhi12rcd13ifvqfq0","pricing_plan_id":"cebpf4jnsgd1na2vs0mg"},{"bike_id":"e60c1153-ceb4-4f72-92cd-2dc1051b5e4c","system_id":"levelo_inurba_marseille","lat":43.26066,"lon":5.39392,"is_reserved":false,"is_disabled":true,"rental_uris":{"android":"levelo://app?vid=e60c1153-ceb4-4f72-92cd-2dc1051b5e4c","ios":"levelo://app?vid=e60c1153-ceb4-4f72-92cd-2dc1051b5e4c"},"vehicle_type_id":"4","last_reported":1742314361,"current_range_meters":14400,"station_id":"ce4bhh92rcd13ifvqfj0","pricing_plan_id":"cebpf4jnsgd1na2vs0mg"},{"bike_id":"daf49d6d-d37d-4465-a01f-e92e9deb21de","system_id":"levelo_inurba_marseille","lat":43.24666,"lon":5.38158,"is_reserved":false,"is_disabled":false,"rental_uris":{"android":"levelo://app?vid=daf49d6d-d37d-4465-a01f-e92e9deb21de","ios":"levelo://app?vid=daf49d6d-d37d-4465-a01f-e92e9deb21de"},"vehicle_type_id":"4","last_reported":1742314361,"current_range_meters":14400,"station_id":"ce4bhih2rcd13ifvqfr0","pricing_plan_id":"cebpf4jnsgd1na2vs0mg"},{"bike_id":"490f9d94-f4d7-4221-a388-d802506d885f","system_id":"levelo_inurba_marseille","lat":43.27171,"lon":5.40995,"is_reserved":false,"is_disabled":false,"rental_uris":{"android":"levelo://app?vid=490f9d94-f4d7-4221-a388-d802506d885f","ios":"levelo://app?vid=490f9d94-f4d7-4221-a388-d802506d885f"},"vehicle_type_id":"4","last_reported":1742314361,"current_range_meters":14400,"station_id":"ce4bhl12rcd13ifvqgf0","pricing_plan_id":"cebpf4jnsgd1na2vs0mg"},{"bike_id":"3455258b-4135-46b9-9a26-10bf95160e40","system_id":"levelo_inurba_marseille","lat":43.23198,"lon":5.35547,"is_reserved":false,"is_disabled":false,"rental_uris":{"android":"levelo://app?vid=3455258b-4135-46b9-9a26-10bf95160e40","ios":"levelo://app?vid=3455258b-4135-46b9-9a26-10bf95160e40"},"vehicle_type_id":"4","last_reported":1742314361,"current_range_meters":14400,"station_id":"ce4bhu92rcd13ifvqi70","pricing_plan_id":"cebpf4jnsgd1na2vs0mg"},{"bike_id":"4cc9b1ef-84db-4f89-ae15-b459717d80ae","system_id":"levelo_inurba_marseille","lat":43.32867,"lon":5.39088,"is_reserved":false,"is_disabled":false,"rental_uris":{"android":"levelo://app?vid=4cc9b1ef-84db-4f89-ae15-b459717d80ae","ios":"levelo://app?vid=4cc9b1ef-84db-4f89-ae15-b459717d80ae"},"vehicle_type_id":"4","last_reported":1742314361,"current_range_meters":17600,"station_id":"","pricing_plan_id":"cebpf4jnsgd1na2vs0mg"},{"bike_id":"c01fffc5-accb-4880-aa2b-a36c522791d2","system_id":"levelo_inurba_marseille","lat":43.25825,"lon":5.3943,"is_reserved":false,"is_disabled":false,"rental_uris":{"android":"levelo://app?vid=c01fffc5-accb-4880-aa2b-a36c522791d2","ios":"levelo://app?vid=c01fffc5-accb-4880-aa2b-a36c522791d2"},"vehicle_type_id":"4","last_reported":1742314361,"current_range_meters":14400,"station_id":"ce4bhip2rcd13ifvqft0","pricing_plan_id":"cebpf4jnsgd1na2vs0mg"},{"bike_id":"72af718f-c0c8-46b0-8443-dea9413b844d","system_id":"levelo_inurba_marseille","lat":43.29531,"lon":5.38544,"is_reserved":false,"is_disabled":false,"rental_uris":{"android":"levelo://app?vid=72af718f-c0c8-46b0-8443-dea9413b844d","ios":"levelo://app?vid=72af718f-c0c8-46b0-8443-dea9413b844d"},"vehicle_type_id":"4","last_reported":1742314361,"current_range_meters":14800,"station_id":"ce4bgih2rcd13ifvqba0","pricing_plan_id":"cebpf4jnsgd1na2vs0mg"},{"bike_id":"fb695cdf-db67-4354-a57a-d044ffeaac78","system_id":"levelo_inurba_marseille","lat":43.28154,"lon":5.42648,"is_reserved":false,"is_disabled":false,"rental_uris":{"android":"levelo://app?vid=fb695cdf-db67-4354-a57a-d044ffeaac78","ios":"levelo://app?vid=fb695cdf-db67-4354-a57a-d044ffeaac78"},"vehicle_type_id":"4","last_reported":1742314361,"current_range_meters":14800,"station_id":"ce4bhnh2rcd13ifvqgug","pricing_plan_id":"cebpf4jnsgd1na2vs0mg"},{"bike_id":"1f74a771-fae6-4279-89bf-08d467f0d405","system_id":"levelo_inurba_marseille","lat":43.31715,"lon":5.37745,"is_reserved":false,"is_disabled":false,"rental_uris":{"android":"levelo://app?vid=1f74a771-fae6-4279-89bf-08d467f0d405","ios":"levelo://app?vid=1f74a771-fae6-4279-89bf-08d467f0d405"},"vehicle_type_id":"4","last_reported":1742314361,"current_range_meters":14800,"station_id":"ce4bgth2rcd13ifvqch0","pricing_plan_id":"cebpf4jnsgd1na2vs0mg"},{"bike_id":"9c41a181-3953-45ab-97fd-16a6c77d6d87","system_id":"levelo_inurba_marseille","lat":43.30808,"lon":5.38172,"is_reserved":false,"is_disabled":true,"rental_uris":{"android":"levelo://app?vid=9c41a181-3953-45ab-97fd-16a6c77d6d87","ios":"levelo://app?vid=9c41a181-3953-45ab-97fd-16a6c77d6d87"},"vehicle_type_id":"4","last_reported":1742314361,"current_range_meters":14800,"station_id":"ce4bgt12rcd13ifvqce0","pricing_plan_id":"cebpf4jnsgd1na2vs0mg"},{"bike_id":"7c616bb0-690f-408d-ab4b-c8cd321a6075","system_id":"levelo_inurba_marseille","lat":43.29501,"lon":5.39034,"is_reserved":false,"is_disabled":false,"rental_uris":{"android":"levelo://app?vid=7c616bb0-690f-408d-ab4b-c8cd321a6075","ios":"levelo://app?vid=7c616bb0-690f-408d-ab4b-c8cd321a6075"},"vehicle_type_id":"4","last_reported":1742314361,"current_range_meters":14800,"station_id":"ce4bh3p2rcd13ifvqdp0","pricing_plan_id":"cebpf4jnsgd1na2vs0mg"},{"bike_id":"7da589eb-a0d1-4d3d-9b57-80ee9fe3e625","system_id":"levelo_inurba_marseille","lat":43.30881,"lon":5.39647,"is_reserved":false,"is_disabled":false,"rental_uris":{"android":"levelo://app?vid=7da589eb-a0d1-4d3d-9b57-80ee9fe3e625","ios":"levelo://app?vid=7da589eb-a0d1-4d3d-9b57-80ee9fe3e625"},"vehicle_type_id":"4","last_reported":1742314361,"current_range_meters":14800,"station_id":"ce4bh012rcd13ifvqcv0","pricing_plan_id":"cebpf4jnsgd1na2vs0mg"},{"bike_id":"77668ca9-f133-4889-9d6c-e2a5755b1cb2","system_id":"levelo_inurba_marseille","lat":43.26028,"lon":5.37551,"is_reserved":false,"is_disabled":false,"rental_uris":{"android":"levelo://app?vid=77668ca9-f133-4889-9d6c-e2a5755b1cb2","ios":"levelo://app?vid=77668ca9-f133-4889-9d6c-e2a5755b1cb2"},"vehicle_type_id":"4","last_reported":1742314361,"current_range_meters":14800,"station_id":"ce4bhgh2rcd13ifvqfa0","pricing_plan_id":"cebpf4jnsgd1na2vs0mg"},{"bike_id":"2ebdd665-45bc-41e4-ba36-29ebf27d9e85","system_id":"levelo_inurba_marseille","lat":43.25939,"lon":5.4088,"is_reserved":false,"is_disabled":false,"rental_uris":{"android":"levelo://app?vid=2ebdd665-45bc-41e4-ba36-29ebf27d9e85","ios":"levelo://app?vid=2ebdd665-45bc-41e4-ba36-29ebf27d9e85"},"vehicle_type_id":"4","last_reported":1742314361,"current_range_meters":14800,"station_id":"ce4bhm92rcd13ifvqglg","pricing_plan_id":"cebpf4jnsgd1na2vs0mg"},{"bike_id":"2273a99d-9ec8-40fd-b2df-0ca03bee13dd","system_id":"levelo_inurba_marseille","lat":43.27945,"lon":5.41038,"is_reserved":false,"is_disabled":false,"rental_uris":{"android":"levelo://app?vid=2273a99d-9ec8-40fd-b2df-0ca03bee13dd","ios":"levelo://app?vid=2273a99d-9ec8-40fd-b2df-0ca03bee13dd"},"vehicle_type_id":"4","last_reported":1742314361,"current_range_meters":14800,"station_id":"ce4bhnp2rcd13ifvqh0g","pricing_plan_id":"cebpf4jnsgd1na2vs0mg"},{"bike_id":"bbecf1e8-09e0-4c91-a76b-54c27a13124c","system_id":"levelo_inurba_marseille","lat":43.29546,"lon":5.37525,"is_reserved":false,"is_disabled":false,"rental_uris":{"android":"levelo://app?vid=bbecf1e8-09e0-4c91-a76b-54c27a13124c","ios":"levelo://app?vid=bbecf1e8-09e0-4c91-a76b-54c27a13124c"},"vehicle_type_id":"4","last_reported":1742314361,"current_range_meters":14800,"station_id":"ce4bgkp2rcd13ifvqbmg","pricing_plan_id":"cebpf4jnsgd1na2vs0mg"},{"bike_id":"78c7f344-224f-4ee1-abbd-94f4d94ef023","system_id":"levelo_inurba_marseille","lat":43.23957,"lon":5.36606,"is_reserved":false,"is_disabled":true,"rental_uris":{"android":"levelo://app?vid=78c7f344-224f-4ee1-abbd-94f4d94ef023","ios":"levelo://app?vid=78c7f344-224f-4ee1-abbd-94f4d94ef023"},"vehicle_type_id":"4","last_reported":1742314361,"current_range_meters":15200,"station_id":"ce4bhi12rcd13ifvqfp0","pricing_plan_id":"cebpf4jnsgd1na2vs0mg"},{"bike_id":"6c2b3d14-7ff6-42b7-8c47-aa6706f79ee7","system_id":"levelo_inurba_marseille","lat":43.26219,"lon":5.4045,"is_reserved":false,"is_disabled":false,"rental_uris":{"android":"levelo://app?vid=6c2b3d14-7ff6-42b7-8c47-aa6706f79ee7","ios":"levelo://app?vid=6c2b3d14-7ff6-42b7-8c47-aa6706f79ee7"},"vehicle_type_id":"4","last_reported":1742314361,"current_range_meters":15200,"station_id":"ce4bhmh2rcd13ifvqgmg","pricing_plan_id":"cebpf4jnsgd1na2vs0mg"},{"bike_id":"72f518e7-fcc9-4541-9804-e32cabf5e918","system_id":"levelo_inurba_marseille","lat":43.29602,"lon":5.38099,"is_reserved":false,"is_disabled":false,"rental_uris":{"android":"levelo://app?vid=72f518e7-fcc9-4541-9804-e32cabf5e918","ios":"levelo://app?vid=72f518e7-fcc9-4541-9804-e32cabf5e918"},"vehicle_type_id":"4","last_reported":1742314361,"current_range_meters":15200,"station_id":"ce4bgl12rcd13ifvqbo0","pricing_plan_id":"cebpf4jnsgd1na2vs0mg"},{"bike_id":"40519983-510e-4b9a-9562-e0995123f6e0","system_id":"levelo_inurba_marseille","lat":43.23197,"lon":5.35542,"is_reserved":false,"is_disabled":false,"rental_uris":{"android":"levelo://app?vid=40519983-510e-4b9a-9562-e0995123f6e0","ios":"levelo://app?vid=40519983-510e-4b9a-9562-e0995123f6e0"},"vehicle_type_id":"4","last_reported":1742314361,"current_range_meters":15200,"station_id":"ce4bhu92rcd13ifvqi70","pricing_plan_id":"cebpf4jnsgd1na2vs0mg"},{"bike_id":"6d7c3b5d-9891-4efb-8d65-43f91951ce1a","system_id":"levelo_inurba_marseille","lat":43.31379,"lon":5.38497,"is_reserved":false,"is_disabled":false,"rental_uris":{"android":"levelo://app?vid=6d7c3b5d-9891-4efb-8d65-43f91951ce1a","ios":"levelo://app?vid=6d7c3b5d-9891-4efb-8d65-43f91951ce1a"},"vehicle_type_id":"4","last_reported":1742314361,"current_range_meters":15200,"station_id":"ce4bgt92rcd13ifvqcf0","pricing_plan_id":"cebpf4jnsgd1na2vs0mg"},{"bike_id":"5654b2f7-cebd-46bf-a070-c166d905658d","system_id":"levelo_inurba_marseille","lat":43.29163,"lon":5.35643,"is_reserved":false,"is_disabled":false,"rental_uris":{"android":"levelo://app?vid=5654b2f7-cebd-46bf-a070-c166d905658d","ios":"levelo://app?vid=5654b2f7-cebd-46bf-a070-c166d905658d"},"vehicle_type_id":"4","last_reported":1742314361,"current_range_meters":15200,"station_id":"","pricing_plan_id":"cebpf4jnsgd1na2vs0mg"},{"bike_id":"0becba70-0295-4a16-bec0-946f27971970","system_id":"levelo_inurba_marseille","lat":43.29526,"lon":5.39031,"is_reserved":false,"is_disabled":false,"rental_uris":{"android":"levelo://app?vid=0becba70-0295-4a16-bec0-946f27971970","ios":"levelo://app?vid=0becba70-0295-4a16-bec0-946f27971970"},"vehicle_type_id":"4","last_reported":1742314361,"current_range_meters":15200,"station_id":"ce4bh3p2rcd13ifvqdp0","pricing_plan_id":"cebpf4jnsgd1na2vs0mg"},{"bike_id":"afb90813-a147-4c0e-b381-d0e1756a90f0","system_id":"levelo_inurba_marseille","lat":43.31282,"lon":5.40166,"is_reserved":false,"is_disabled":false,"rental_uris":{"android":"levelo://app?vid=afb90813-a147-4c0e-b381-d0e1756a90f0","ios":"levelo://app?vid=afb90813-a147-4c0e-b381-d0e1756a90f0"},"vehicle_type_id":"4","last_reported":1742314361,"current_range_meters":15200,"station_id":"ce4bh092rcd13ifvqd30","pricing_plan_id":"cebpf4jnsgd1na2vs0mg"},{"bike_id":"4e796c2b-0a84-488c-9312-fc7babc7012d","system_id":"levelo_inurba_marseille","lat":43.27799,"lon":5.40743,"is_reserved":false,"is_disabled":false,"rental_uris":{"android":"levelo://app?vid=4e796c2b-0a84-488c-9312-fc7babc7012d","ios":"levelo://app?vid=4e796c2b-0a84-488c-9312-fc7babc7012d"},"vehicle_type_id":"4","last_reported":1742314361,"current_range_meters":16000,"station_id":"ce4bhnh2rcd13ifvqgtg","pricing_plan_id":"cebpf4jnsgd1na2vs0mg"},{"bike_id":"a9e37662-e2a0-4e06-a7a5-09d3f55e57ea","system_id":"levelo_inurba_marseille","lat":43.2622,"lon":5.40444,"is_reserved":false,"is_disabled":false,"rental_uris":{"android":"levelo://app?vid=a9e37662-e2a0-4e06-a7a5-09d3f55e57ea","ios":"levelo://app?vid=a9e37662-e2a0-4e06-a7a5-09d3f55e57ea"},"vehicle_type_id":"4","last_reported":1742314361,"current_range_meters":16000,"station_id":"ce4bhmh2rcd13ifvqgmg","pricing_plan_id":"cebpf4jnsgd1na2vs0mg"},{"bike_id":"5d2132b6-134f-42d5-b560-3e0c3716193a","system_id":"levelo_inurba_marseille","lat":43.29723,"lon":5.36616,"is_reserved":false,"is_disabled":false,"rental_uris":{"android":"levelo://app?vid=5d2132b6-134f-42d5-b560-3e0c3716193a","ios":"levelo://app?vid=5d2132b6-134f-42d5-b560-3e0c3716193a"},"vehicle_type_id":"4","last_reported":1742314361,"current_range_meters":16000,"station_id":"ce4bgn12rcd13ifvqbt0","pricing_plan_id":"cebpf4jnsgd1na2vs0mg"},{"bike_id":"0da6bf62-c923-4400-ad44-10ba95bafd16","system_id":"levelo_inurba_marseille","lat":43.26034,"lon":5.37555,"is_reserved":false,"is_disabled":false,"rental_uris":{"android":"levelo://app?vid=0da6bf62-c923-4400-ad44-10ba95bafd16","ios":"levelo://app?vid=0da6bf62-c923-4400-ad44-10ba95bafd16"},"vehicle_type_id":"4","last_reported":1742314361,"current_range_meters":16000,"station_id":"ce4bhgh2rcd13ifvqfa0","pricing_plan_id":"cebpf4jnsgd1na2vs0mg"},{"bike_id":"14040204-5465-4db0-ab0e-41e91dfa7e0d","system_id":"levelo_inurba_marseille","lat":43.31413,"lon":5.37452,"is_reserved":false,"is_disabled":false,"rental_uris":{"android":"levelo://app?vid=14040204-5465-4db0-ab0e-41e91dfa7e0d","ios":"levelo://app?vid=14040204-5465-4db0-ab0e-41e91dfa7e0d"},"vehicle_type_id":"4","last_reported":1742314361,"current_range_meters":16400,"station_id":"","pricing_plan_id":"cebpf4jnsgd1na2vs0mg"},{"bike_id":"8e44546c-2ec3-46a3-93a1-7425838d2de5","system_id":"levelo_inurba_marseille","lat":43.2902,"lon":5.38642,"is_reserved":false,"is_disabled":false,"rental_uris":{"android":"levelo://app?vid=8e44546c-2ec3-46a3-93a1-7425838d2de5","ios":"levelo://app?vid=8e44546c-2ec3-46a3-93a1-7425838d2de5"},"vehicle_type_id":"4","last_reported":1742314361,"current_range_meters":16400,"station_id":"ce4bh4p2rcd13ifvqe0g","pricing_plan_id":"cebpf4jnsgd1na2vs0mg"},{"bike_id":"28520dac-e5d3-451c-9011-5dde5002fd19","system_id":"levelo_inurba_marseille","lat":43.26219,"lon":5.37438,"is_reserved":false,"is_disabled":false,"rental_uris":{"android":"levelo://app?vid=28520dac-e5d3-451c-9011-5dde5002fd19","ios":"levelo://app?vid=28520dac-e5d3-451c-9011-5dde5002fd19"},"vehicle_type_id":"4","last_reported":1742314361,"current_range_meters":16400,"station_id":"ce4bhgp2rcd13ifvqfc0","pricing_plan_id":"cebpf4jnsgd1na2vs0mg"},{"bike_id":"0bb665fc-dbcb-413c-9c27-9eae5703998c","system_id":"levelo_inurba_marseille","lat":43.29201,"lon":5.35808,"is_reserved":false,"is_disabled":false,"rental_uris":{"android":"levelo://app?vid=0bb665fc-dbcb-413c-9c27-9eae5703998c","ios":"levelo://app?vid=0bb665fc-dbcb-413c-9c27-9eae5703998c"},"vehicle_type_id":"4","last_reported":1742314361,"current_range_meters":16400,"station_id":"ce4bhb12rcd13ifvqel0","pricing_plan_id":"cebpf4jnsgd1na2vs0mg"},{"bike_id":"a78d84db-e020-4d6a-84d9-b400b1c6e0a2","system_id":"levelo_inurba_marseille","lat":43.29907,"lon":5.38139,"is_reserved":false,"is_disabled":false,"rental_uris":{"android":"levelo://app?vid=a78d84db-e020-4d6a-84d9-b400b1c6e0a2","ios":"levelo://app?vid=a78d84db-e020-4d6a-84d9-b400b1c6e0a2"},"vehicle_type_id":"4","last_reported":1742314361,"current_range_meters":16400,"station_id":"ce4bgj12rcd13ifvqbc0","pricing_plan_id":"cebpf4jnsgd1na2vs0mg"},{"bike_id":"434b88f5-05f0-4893-9c25-d204363d40f6","system_id":"levelo_inurba_marseille","lat":43.33024,"lon":5.39042,"is_reserved":false,"is_disabled":false,"rental_uris":{"android":"levelo://app?vid=434b88f5-05f0-4893-9c25-d204363d40f6","ios":"levelo://app?vid=434b88f5-05f0-4893-9c25-d204363d40f6"},"vehicle_type_id":"4","last_reported":1742314361,"current_range_meters":16400,"station_id":"ce4bhr92rcd13ifvqhrg","pricing_plan_id":"cebpf4jnsgd1na2vs0mg"},{"bike_id":"079a4904-eaed-4a1b-93ea-d6ccfe81b7a5","system_id":"levelo_inurba_marseille","lat":43.28078,"lon":5.39659,"is_reserved":false,"is_disabled":false,"rental_uris":{"android":"levelo://app?vid=079a4904-eaed-4a1b-93ea-d6ccfe81b7a5","ios":"levelo://app?vid=079a4904-eaed-4a1b-93ea-d6ccfe81b7a5"},"vehicle_type_id":"4","last_reported":1742314361,"current_range_meters":16400,"station_id":"ce4bho12rcd13ifvqh2g","pricing_plan_id":"cebpf4jnsgd1na2vs0mg"},{"bike_id":"b11d4923-c3ec-4c78-9fd2-556e7b15ee97","system_id":"levelo_inurba_marseille","lat":43.29279,"lon":5.40197,"is_reserved":false,"is_disabled":false,"rental_uris":{"android":"levelo://app?vid=b11d4923-c3ec-4c78-9fd2-556e7b15ee97","ios":"levelo://app?vid=b11d4923-c3ec-4c78-9fd2-556e7b15ee97"},"vehicle_type_id":"4","last_reported":1742314361,"current_range_meters":16400,"station_id":"ce4bh312rcd13ifvqdk0","pricing_plan_id":"cebpf4jnsgd1na2vs0mg"},{"bike_id":"52c15745-0277-47e2-8452-0f97e8a012af","system_id":"levelo_inurba_marseille","lat":43.30464,"lon":5.38893,"is_reserved":false,"is_disabled":false,"rental_uris":{"android":"levelo://app?vid=52c15745-0277-47e2-8452-0f97e8a012af","ios":"levelo://app?vid=52c15745-0277-47e2-8452-0f97e8a012af"},"vehicle_type_id":"4","last_reported":1742314361,"current_range_meters":16000,"station_id":"ce4bgk12rcd13ifvqbi0","pricing_plan_id":"cebpf4jnsgd1na2vs0mg"},{"bike_id":"340dcf23-0f08-462e-a058-71cab78dce26","system_id":"levelo_inurba_marseille","lat":43.30887,"lon":5.39663,"is_reserved":false,"is_disabled":false,"rental_uris":{"android":"levelo://app?vid=340dcf23-0f08-462e-a058-71cab78dce26","ios":"levelo://app?vid=340dcf23-0f08-462e-a058-71cab78dce26"},"vehicle_type_id":"4","last_reported":1742314361,"current_range_meters":16400,"station_id":"ce4bh012rcd13ifvqcv0","pricing_plan_id":"cebpf4jnsgd1na2vs0mg"},{"bike_id":"9a1e224b-de4a-4e97-b8b4-c81b6783015b","system_id":"levelo_inurba_marseille","lat":43.29783,"lon":5.3934,"is_reserved":false,"is_disabled":false,"rental_uris":{"android":"levelo://app?vid=9a1e224b-de4a-4e97-b8b4-c81b6783015b","ios":"levelo://app?vid=9a1e224b-de4a-4e97-b8b4-c81b6783015b"},"vehicle_type_id":"4","last_reported":1742314361,"current_range_meters":16800,"station_id":"chh1huq6cuj3fo74tm60","pricing_plan_id":"cebpf4jnsgd1na2vs0mg"},{"bike_id":"5cb5d24f-7715-45ca-995c-c61dcec20f4f","system_id":"levelo_inurba_marseille","lat":43.27955,"lon":5.41056,"is_reserved":false,"is_disabled":false,"rental_uris":{"android":"levelo://app?vid=5cb5d24f-7715-45ca-995c-c61dcec20f4f","ios":"levelo://app?vid=5cb5d24f-7715-45ca-995c-c61dcec20f4f"},"vehicle_type_id":"4","last_reported":1742314361,"current_range_meters":16800,"station_id":"ce4bhnp2rcd13ifvqh0g","pricing_plan_id":"cebpf4jnsgd1na2vs0mg"},{"bike_id":"3ff0421e-299a-4a36-bf23-ea3928805484","system_id":"levelo_inurba_marseille","lat":43.28858,"lon":5.35849,"is_reserved":false,"is_disabled":false,"rental_uris":{"android":"levelo://app?vid=3ff0421e-299a-4a36-bf23-ea3928805484","ios":"levelo://app?vid=3ff0421e-299a-4a36-bf23-ea3928805484"},"vehicle_type_id":"4","last_reported":1742314361,"current_range_meters":16800,"station_id":"ce4bhb12rcd13ifvqem0","pricing_plan_id":"cebpf4jnsgd1na2vs0mg"},{"bike_id":"948d306b-42e0-4ba6-93a8-a10bb3eef8e3","system_id":"levelo_inurba_marseille","lat":43.26225,"lon":5.40438,"is_reserved":false,"is_disabled":false,"rental_uris":{"android":"levelo://app?vid=948d306b-42e0-4ba6-93a8-a10bb3eef8e3","ios":"levelo://app?vid=948d306b-42e0-4ba6-93a8-a10bb3eef8e3"},"vehicle_type_id":"4","last_reported":1742314361,"current_range_meters":16800,"station_id":"ce4bhmh2rcd13ifvqgmg","pricing_plan_id":"cebpf4jnsgd1na2vs0mg"},{"bike_id":"93ab8583-ae65-477c-9bd2-4e24222aab00","system_id":"levelo_inurba_marseille","lat":43.32004,"lon":5.38139,"is_reserved":false,"is_disabled":false,"rental_uris":{"android":"levelo://app?vid=93ab8583-ae65-477c-9bd2-4e24222aab00","ios":"levelo://app?vid=93ab8583-ae65-477c-9bd2-4e24222aab00"},"vehicle_type_id":"4","last_reported":1742314361,"current_range_meters":16800,"station_id":"ce4bhr12rcd13ifvqhpg","pricing_plan_id":"cebpf4jnsgd1na2vs0mg"},{"bike_id":"328cd316-e590-4c21-93d7-4b66b641b254","system_id":"levelo_inurba_marseille","lat":43.25831,"lon":5.39442,"is_reserved":false,"is_disabled":false,"rental_uris":{"android":"levelo://app?vid=328cd316-e590-4c21-93d7-4b66b641b254","ios":"levelo://app?vid=328cd316-e590-4c21-93d7-4b66b641b254"},"vehicle_type_id":"4","last_reported":1742314361,"current_range_meters":16000,"station_id":"ce4bhip2rcd13ifvqft0","pricing_plan_id":"cebpf4jnsgd1na2vs0mg"},{"bike_id":"0facce62-ec8a-411a-a1e6-5d69c47fc333","system_id":"levelo_inurba_marseille","lat":43.30424,"lon":5.36692,"is_reserved":false,"is_disabled":false,"rental_uris":{"android":"levelo://app?vid=0facce62-ec8a-411a-a1e6-5d69c47fc333","ios":"levelo://app?vid=0facce62-ec8a-411a-a1e6-5d69c47fc333"},"vehicle_type_id":"4","last_reported":1742314361,"current_range_meters":16800,"station_id":"","pricing_plan_id":"cebpf4jnsgd1na2vs0mg"},{"bike_id":"c2d5a123-d09a-4b21-a2ef-a198ad54bfc2","system_id":"levelo_inurba_marseille","lat":43.23059,"lon":5.35493,"is_reserved":false,"is_disabled":false,"rental_uris":{"android":"levelo://app?vid=c2d5a123-d09a-4b21-a2ef-a198ad54bfc2","ios":"levelo://app?vid=c2d5a123-d09a-4b21-a2ef-a198ad54bfc2"},"vehicle_type_id":"4","last_reported":1742314361,"current_range_meters":17200,"station_id":"cpo3342slgdg3j2ifvpg","pricing_plan_id":"cebpf4jnsgd1na2vs0mg"},{"bike_id":"df4ddc97-b7c6-4c3b-a34f-7d652f0ae747","system_id":"levelo_inurba_marseille","lat":43.30533,"lon":5.36553,"is_reserved":false,"is_disabled":false,"rental_uris":{"android":"levelo://app?vid=df4ddc97-b7c6-4c3b-a34f-7d652f0ae747","ios":"levelo://app?vid=df4ddc97-b7c6-4c3b-a34f-7d652f0ae747"},"vehicle_type_id":"4","last_reported":1742314361,"current_range_meters":17200,"station_id":"ce4bgs12rcd13ifvqcag","pricing_plan_id":"cebpf4jnsgd1na2vs0mg"},{"bike_id":"2f5b5506-0d8e-4e2e-a077-5c558dd54b86","system_id":"levelo_inurba_marseille","lat":43.2961,"lon":5.36738,"is_reserved":false,"is_disabled":false,"rental_uris":{"android":"levelo://app?vid=2f5b5506-0d8e-4e2e-a077-5c558dd54b86","ios":"levelo://app?vid=2f5b5506-0d8e-4e2e-a077-5c558dd54b86"},"vehicle_type_id":"4","last_reported":1742314361,"current_range_meters":17200,"station_id":"ce4bgph2rcd13ifvqc2g","pricing_plan_id":"cebpf4jnsgd1na2vs0mg"},{"bike_id":"b0d2fd39-c5b7-4eb0-bbb9-af7d841ce0e3","system_id":"levelo_inurba_marseille","lat":43.24178,"lon":5.36415,"is_reserved":false,"is_disabled":true,"rental_uris":{"android":"levelo://app?vid=b0d2fd39-c5b7-4eb0-bbb9-af7d841ce0e3","ios":"levelo://app?vid=b0d2fd39-c5b7-4eb0-bbb9-af7d841ce0e3"},"vehicle_type_id":"4","last_reported":1742314361,"current_range_meters":17200,"station_id":"cpo36qri1sfpv3e86is0","pricing_plan_id":"cebpf4jnsgd1na2vs0mg"},{"bike_id":"308d9482-2ea5-474f-a039-beb909d1aca5","system_id":"levelo_inurba_marseille","lat":43.27961,"lon":5.41051,"is_reserved":false,"is_disabled":true,"rental_uris":{"android":"levelo://app?vid=308d9482-2ea5-474f-a039-beb909d1aca5","ios":"levelo://app?vid=308d9482-2ea5-474f-a039-beb909d1aca5"},"vehicle_type_id":"4","last_reported":1742314361,"current_range_meters":17200,"station_id":"ce4bhnp2rcd13ifvqh0g","pricing_plan_id":"cebpf4jnsgd1na2vs0mg"},{"bike_id":"89674686-004c-4e02-bd53-705bd4812d3a","system_id":"levelo_inurba_marseille","lat":43.28004,"lon":5.40009,"is_reserved":false,"is_disabled":false,"rental_uris":{"android":"levelo://app?vid=89674686-004c-4e02-bd53-705bd4812d3a","ios":"levelo://app?vid=89674686-004c-4e02-bd53-705bd4812d3a"},"vehicle_type_id":"4","last_reported":1742314361,"current_range_meters":17200,"station_id":"ce4bho92rcd13ifvqh4g","pricing_plan_id":"cebpf4jnsgd1na2vs0mg"},{"bike_id":"06917796-3f32-4db5-99ab-a3f0745ee722","system_id":"levelo_inurba_marseille","lat":43.28272,"lon":5.35071,"is_reserved":false,"is_disabled":false,"rental_uris":{"android":"levelo://app?vid=06917796-3f32-4db5-99ab-a3f0745ee722","ios":"levelo://app?vid=06917796-3f32-4db5-99ab-a3f0745ee722"},"vehicle_type_id":"4","last_reported":1742314361,"current_range_meters":17200,"station_id":"ce4bhbp2rcd13ifvqerg","pricing_plan_id":"cebpf4jnsgd1na2vs0mg"},{"bike_id":"9d26c008-8ec1-4269-9cd2-f45774f03ccb","system_id":"levelo_inurba_marseille","lat":43.27944,"lon":5.37949,"is_reserved":false,"is_disabled":false,"rental_uris":{"android":"levelo://app?vid=9d26c008-8ec1-4269-9cd2-f45774f03ccb","ios":"levelo://app?vid=9d26c008-8ec1-4269-9cd2-f45774f03ccb"},"vehicle_type_id":"4","last_reported":1742314361,"current_range_meters":17200,"station_id":"","pricing_plan_id":"cebpf4jnsgd1na2vs0mg"},{"bike_id":"aafb1953-d9f1-4c33-90a1-c24551e1144a","system_id":"levelo_inurba_marseille","lat":43.28679,"lon":5.38668,"is_reserved":false,"is_disabled":false,"rental_uris":{"android":"levelo://app?vid=aafb1953-d9f1-4c33-90a1-c24551e1144a","ios":"levelo://app?vid=aafb1953-d9f1-4c33-90a1-c24551e1144a"},"vehicle_type_id":"4","last_reported":1742314361,"current_range_meters":17200,"station_id":"ce4bh492rcd13ifvqdug","pricing_plan_id":"cebpf4jnsgd1na2vs0mg"},{"bike_id":"6d34c575-0752-46cf-a8b3-ddd4173accbb","system_id":"levelo_inurba_marseille","lat":43.28724,"lon":5.36096,"is_reserved":false,"is_disabled":false,"rental_uris":{"android":"levelo://app?vid=6d34c575-0752-46cf-a8b3-ddd4173accbb","ios":"levelo://app?vid=6d34c575-0752-46cf-a8b3-ddd4173accbb"},"vehicle_type_id":"4","last_reported":1742314361,"current_range_meters":17200,"station_id":"cki0cbj6b192h4jlfktg","pricing_plan_id":"cebpf4jnsgd1na2vs0mg"},{"bike_id":"8a6813d0-9871-4039-9c14-289ae754182d","system_id":"levelo_inurba_marseille","lat":43.27905,"lon":5.38014,"is_reserved":false,"is_disabled":false,"rental_uris":{"android":"levelo://app?vid=8a6813d0-9871-4039-9c14-289ae754182d","ios":"levelo://app?vid=8a6813d0-9871-4039-9c14-289ae754182d"},"vehicle_type_id":"4","last_reported":1742314361,"current_range_meters":17200,"station_id":"ce4bhf92rcd13ifvqf50","pricing_plan_id":"cebpf4jnsgd1na2vs0mg"},{"bike_id":"df3737b3-0ac3-489c-b368-b48e03213e26","system_id":"levelo_inurba_marseille","lat":43.28671,"lon":5.38676,"is_reserved":false,"is_disabled":false,"rental_uris":{"android":"levelo://app?vid=df3737b3-0ac3-489c-b368-b48e03213e26","ios":"levelo://app?vid=df3737b3-0ac3-489c-b368-b48e03213e26"},"vehicle_type_id":"4","last_reported":1742314361,"current_range_meters":17600,"station_id":"ce4bh492rcd13ifvqdug","pricing_plan_id":"cebpf4jnsgd1na2vs0mg"},{"bike_id":"7996051b-4c68-4e12-bede-fc5ea2196d06","system_id":"levelo_inurba_marseille","lat":43.27326,"lon":5.41019,"is_reserved":false,"is_disabled":false,"rental_uris":{"android":"levelo://app?vid=7996051b-4c68-4e12-bede-fc5ea2196d06","ios":"levelo://app?vid=7996051b-4c68-4e12-bede-fc5ea2196d06"},"vehicle_type_id":"4","last_reported":1742314361,"current_range_meters":17600,"station_id":"","pricing_plan_id":"cebpf4jnsgd1na2vs0mg"},{"bike_id":"19b89cbb-8a22-4128-bf9f-45eb1af9df7e","system_id":"levelo_inurba_marseille","lat":43.27565,"lon":5.38429,"is_reserved":false,"is_disabled":false,"rental_uris":{"android":"levelo://app?vid=19b89cbb-8a22-4128-bf9f-45eb1af9df7e","ios":"levelo://app?vid=19b89cbb-8a22-4128-bf9f-45eb1af9df7e"},"vehicle_type_id":"4","last_reported":1742314361,"current_range_meters":17600,"station_id":"ce4bhh92rcd13ifvqfi0","pricing_plan_id":"cebpf4jnsgd1na2vs0mg"},{"bike_id":"8e93be54-21ff-4bc7-a9f4-0ba1be0b6598","system_id":"levelo_inurba_marseille","lat":43.28453,"lon":5.35886,"is_reserved":false,"is_disabled":false,"rental_uris":{"android":"levelo://app?vid=8e93be54-21ff-4bc7-a9f4-0ba1be0b6598","ios":"levelo://app?vid=8e93be54-21ff-4bc7-a9f4-0ba1be0b6598"},"vehicle_type_id":"4","last_reported":1742314361,"current_range_meters":17600,"station_id":"ce4bhah2rcd13ifvqei0","pricing_plan_id":"cebpf4jnsgd1na2vs0mg"},{"bike_id":"b612eda1-88cd-4436-b0b1-38b7709f0c90","system_id":"levelo_inurba_marseille","lat":43.28474,"lon":5.35884,"is_reserved":false,"is_disabled":false,"rental_uris":{"android":"levelo://app?vid=b612eda1-88cd-4436-b0b1-38b7709f0c90","ios":"levelo://app?vid=b612eda1-88cd-4436-b0b1-38b7709f0c90"},"vehicle_type_id":"4","last_reported":1742314361,"current_range_meters":18000,"station_id":"ce4bhah2rcd13ifvqei0","pricing_plan_id":"cebpf4jnsgd1na2vs0mg"},{"bike_id":"2543f07c-384d-4d26-b96b-bdb27c2c83b4","system_id":"levelo_inurba_marseille","lat":43.27893,"lon":5.38019,"is_reserved":false,"is_disabled":false,"rental_uris":{"android":"levelo://app?vid=2543f07c-384d-4d26-b96b-bdb27c2c83b4","ios":"levelo://app?vid=2543f07c-384d-4d26-b96b-bdb27c2c83b4"},"vehicle_type_id":"4","last_reported":1742314361,"current_range_meters":18000,"station_id":"ce4bhf92rcd13ifvqf50","pricing_plan_id":"cebpf4jnsgd1na2vs0mg"},{"bike_id":"24e0df18-1ff5-4099-b49f-36e2fcce1d9a","system_id":"levelo_inurba_marseille","lat":43.25109,"lon":5.40338,"is_reserved":false,"is_disabled":false,"rental_uris":{"android":"levelo://app?vid=24e0df18-1ff5-4099-b49f-36e2fcce1d9a","ios":"levelo://app?vid=24e0df18-1ff5-4099-b49f-36e2fcce1d9a"},"vehicle_type_id":"4","last_reported":1742314361,"current_range_meters":18000,"station_id":"ce4bhlh2rcd13ifvqgig","pricing_plan_id":"cebpf4jnsgd1na2vs0mg"},{"bike_id":"7ddbfb6b-8efc-4d07-a86d-a23440d68a1e","system_id":"levelo_inurba_marseille","lat":43.26205,"lon":5.37439,"is_reserved":false,"is_disabled":false,"rental_uris":{"android":"levelo://app?vid=7ddbfb6b-8efc-4d07-a86d-a23440d68a1e","ios":"levelo://app?vid=7ddbfb6b-8efc-4d07-a86d-a23440d68a1e"},"vehicle_type_id":"4","last_reported":1742314361,"current_range_meters":18000,"station_id":"ce4bhgp2rcd13ifvqfc0","pricing_plan_id":"cebpf4jnsgd1na2vs0mg"},{"bike_id":"7861db33-fd64-4de3-beeb-a7cccd288405","system_id":"levelo_inurba_marseille","lat":43.29191,"lon":5.39317,"is_reserved":false,"is_disabled":false,"rental_uris":{"android":"levelo://app?vid=7861db33-fd64-4de3-beeb-a7cccd288405","ios":"levelo://app?vid=7861db33-fd64-4de3-beeb-a7cccd288405"},"vehicle_type_id":"4","last_reported":1742314361,"current_range_meters":18000,"station_id":"ce4bh192rcd13ifvqdd0","pricing_plan_id":"cebpf4jnsgd1na2vs0mg"},{"bike_id":"3170661e-2168-45fc-befd-d66cbba5c506","system_id":"levelo_inurba_marseille","lat":43.299512,"lon":5.371816,"is_reserved":false,"is_disabled":false,"rental_uris":{"android":"levelo://app?vid=3170661e-2168-45fc-befd-d66cbba5c506","ios":"levelo://app?vid=3170661e-2168-45fc-befd-d66cbba5c506"},"vehicle_type_id":"4","last_reported":1742314361,"current_range_meters":18000,"station_id":"ce4bh692rcd13ifvqea0","pricing_plan_id":"cebpf4jnsgd1na2vs0mg"},{"bike_id":"ec320371-942f-4c0e-8a7a-4cd57fb60b79","system_id":"levelo_inurba_marseille","lat":43.2903,"lon":5.38653,"is_reserved":false,"is_disabled":false,"rental_uris":{"android":"levelo://app?vid=ec320371-942f-4c0e-8a7a-4cd57fb60b79","ios":"levelo://app?vid=ec320371-942f-4c0e-8a7a-4cd57fb60b79"},"vehicle_type_id":"4","last_reported":1742314361,"current_range_meters":18000,"station_id":"ce4bh4p2rcd13ifvqe0g","pricing_plan_id":"cebpf4jnsgd1na2vs0mg"},