{"last_updated":1748110344,"ttl":60,"version":"2.2","data":{"bikes":[{"bike_id":"61af2828-0522-4d5c-8525-268dd3697305","system_id":"levelo_inurba_marseille","lat":43.24658,"lon":5.38161,"is_reserved":false,"is_disabled":false,"rental_uris":{"android":"levelo://app?vid=61af2828-0522-4d5c-8525-268dd3697305","ios":"levelo://app?vid=61af2828-0522-4d5c-8525-268dd3697305"},"vehicle_type_id":"4","last_reported":1748110344,"current_range_meters":2800,"station_id":"ce4bhih2rcd13ifvqfr0","pricing_plan_id":"cebpf4jnsgd1na2vs0mg"},{"bike_id":"7dfdfdc8-9c79-46b6-9a4b-924773b53f29","system_id":"levelo_inurba_marseille","lat":43.26874,"lon":5.39146,"is_reserved":false,"is_disabled":false,"rental_uris":{"android":"levelo://app?vid=7dfdfdc8-9c79-46b6-9a4b-924773b53f29","ios":"levelo://app?vid=7dfdfdc8-9c79-46b6-9a4b-924773b53f29"},"vehicle_type_id":"4","last_reported":1748110344,"current_range_meters":2800,"station_id":"","pricing_plan_id":"cebpf4jnsgd1na2vs0mg"},{"bike_id":"60b072cd-1059-4db2-9d8b-68188eb85a1c","system_id":"levelo_inurba_marseille","lat":43.283658,"lon":5.386316,"is_reserved":false,"is_disabled":false,"rental_uris":{"android":"levelo://app?vid=60b072cd-1059-4db2-9d8b-68188eb85a1c","ios":"levelo://app?vid=60b072cd-1059-4db2-9d8b-68188eb85a1c"},"vehicle_type_id":"4","last_reported":1748110344,"current_range_meters":2000,"station_id":"ce4bh492rcd13ifvqdvg","pricing_plan_id":"cebpf4jnsgd1na2vs0mg"},{"bike_id":"c2b16d07-480f-4183-94f3-a64a0bb3df26","system_id":"levelo_inurba_marseille","lat":43.24066,"lon":5.37734,"is_reserved":false,"is_disabled":false,"rental_uris":{"android":"levelo://app?vid=c2b16d07-480f-4183-94f3-a64a0bb3df26","ios":"levelo://app?vid=c2b16d07-480f-4183-94f3-a64a0bb3df26"},"vehicle_type_id":"4","last_reported":1748110344,"current_range_meters":2800,"station_id":"ce4bhnp2rcd13ifvqgvg","pricing_plan_id":"cebpf4jnsgd1na2vs0mg"},{"bike_id":"b9f5a924-7216-46a9-a955-48c0fa4108ed","system_id":"levelo_inurba_marseille","lat":43.27241,"lon":5.39189,"is_reserved":false,"is_disabled":false,"rental_uris":{"android":"levelo://app?vid=b9f5a924-7216-46a9-a955-48c0fa4108ed","ios":"levelo://app?vid=b9f5a924-7216-46a9-a955-48c0fa4108ed"},"vehicle_type_id":"4","last_reported":1748110344,"current_range_meters":3200,"station_id":"ce4bhhp2rcd13ifvqfm0","pricing_plan_id":"cebpf4jnsgd1na2vs0mg"},{"bike_id":"ed21dc64-9511-456f-8abf-0205212a1e54","system_id":"levelo_inurba_marseille","lat":43.29206,"lon":5.35799,"is_reserved":false,"is_disabled":false,"rental_uris":{"android":"levelo://app?vid=ed21dc64-9511-456f-8abf-0205212a1e54","ios":"levelo://app?vid=ed21dc64-9511-456f-8abf-0205212a1e54"},"vehicle_type_id":"4","last_reported":1748110344,"current_range_meters":3200,"station_id":"ce4bhb12rcd13ifvqel0","pricing_plan_id":"cebpf4jnsgd1na2vs0mg"},{"bike_id":"5a38fc2a-bb37-45d4-81ea-809c6efd8a30","system_id":"levelo_inurba_marseille","lat":43.24801,"lon":5.37455,"is_reserved":false,"is_disabled":false,"rental_uris":{"android":"levelo://app?vid=5a38fc2a-bb37-45d4-81ea-809c6efd8a30","ios":"levelo://app?vid=5a38fc2a-bb37-45d4-81ea-809c6efd8a30"},"vehicle_type_id":"4","last_reported":1748110344,"current_range_meters":3200,"station_id":"ce4bhgh2rcd13ifvqfb0","pricing_plan_id":"cebpf4jnsgd1na2vs0mg"},{"bike_id":"3bfaf9b8-c236-4519-9994-c61469dbbb77","system_id":"levelo_inurba_marseille","lat":43.26201,"lon":5.3744,"is_reserved":false,"is_disabled":false,"rental_uris":{"android":"levelo://app?vid=3bfaf9b8-c236-4519-9994-c61469dbbb77","ios":"levelo://app?vid=3bfaf9b8-c236-4519-9994-c61469dbbb77"},"vehicle_type_id":"4","last_reported":1748110344,"current_range_meters":3200,"station_id":"ce4bhgp2rcd13ifvqfc0","pricing_plan_id":"cebpf4jnsgd1na2vs0mg"},{"bike_id":"0ea5c52c-ca34-488f-ba5e-9360d8e35172","system_id":"levelo_inurba_marseille","lat":43.23194,"lon":5.35543,"is_reserved":false,"is_disabled":false,"rental_uris":{"android":"levelo://app?vid=0ea5c52c-ca34-488f-ba5e-9360d8e35172","ios":"levelo://app?vid=0ea5c52c-ca34-488f-ba5e-9360d8e35172"},"vehicle_type_id":"4","last_reported":1748110344,"current_range_meters":3200,"station_id":"ce4bhu92rcd13ifvqi70","pricing_plan_id":"cebpf4jnsgd1na2vs0mg"},{"bike_id":"18842439-8e63-4bf8-9c7e-12fc2727c891","system_id":"levelo_inurba_marseille","lat":43.28263,"lon":5.35059,"is_reserved":false,"is_disabled":false,"rental_uris":{"android":"levelo://app?vid=18842439-8e63-4bf8-9c7e-12fc2727c891","ios":"levelo://app?vid=18842439-8e63-4bf8-9c7e-12fc2727c891"},"vehicle_type_id":"4","last_reported":1748110344,"current_range_meters":3200,"station_id":"ce4bhbp2rcd13ifvqerg","pricing_plan_id":"cebpf4jnsgd1na2vs0mg"},{"bike_id":"e4b8da17-840b-4ce7-bd95-fe86b8710f78","system_id":"levelo_inurba_marseille","lat":43.28995,"lon":5.3562,"is_reserved":false,"is_disabled":true,"rental_uris":{"android":"levelo://app?vid=e4b8da17-840b-4ce7-bd95-fe86b8710f78","ios":"levelo://app?vid=e4b8da17-840b-4ce7-bd95-fe86b8710f78"},"vehicle_type_id":"4","last_reported":1748110344,"current_range_meters":3600,"station_id":"ce4bhb92rcd13ifvqen0","pricing_plan_id":"cebpf4jnsgd1na2vs0mg"},{"bike_id":"23f64a8c-a899-4e36-83c9-443463e62a16","system_id":"levelo_inurba_marseille","lat":43.28271,"lon":5.35053,"is_reserved":false,"is_disabled":false,"rental_uris":{"android":"levelo://app?vid=23f64a8c-a899-4e36-83c9-443463e62a16","ios":"levelo://app?vid=23f64a8c-a899-4e36-83c9-443463e62a16"},"vehicle_type_id":"4","last_reported":1748110344,"current_range_meters":3600,"station_id":"ce4bhbp2rcd13ifvqerg","pricing_plan_id":"cebpf4jnsgd1na2vs0mg"},{"bike_id":"26199c86-4871-49ed-bd12-ea6a6257868f","system_id":"levelo_inurba_marseille","lat":43.261947,"lon":5.374498,"is_reserved":false,"is_disabled":false,"rental_uris":{"android":"levelo://app?vid=26199c86-4871-49ed-bd12-ea6a6257868f","ios":"levelo://app?vid=26199c86-4871-49ed-bd12-ea6a6257868f"},"vehicle_type_id":"4","last_reported":1748110344,"current_range_meters":3600,"station_id":"ce4bhgp2rcd13ifvqfc0","pricing_plan_id":"cebpf4jnsgd1na2vs0mg"},{"bike_id":"40b849c9-b378-47ae-8ddb-919d95eee4b7","system_id":"levelo_inurba_marseille","lat":43.25825,"lon":5.39433,"is_reserved":false,"is_disabled":false,"rental_uris":{"android":"levelo://app?vid=40b849c9-b378-47ae-8ddb-919d95eee4b7","ios":"levelo://app?vid=40b849c9-b378-47ae-8ddb-919d95eee4b7"},"vehicle_type_id":"4","last_reported":1748110344,"current_range_meters":4000,"station_id":"ce4bhip2rcd13ifvqft0","pricing_plan_id":"cebpf4jnsgd1na2vs0mg"},{"bike_id":"2bed8ac0-d056-43d1-a065-869230d1fe4b","system_id":"levelo_inurba_marseille","lat":43.293,"lon":5.37466,"is_reserved":false,"is_disabled":false,"rental_uris":{"android":"levelo://app?vid=2bed8ac0-d056-43d1-a065-869230d1fe4b","ios":"levelo://app?vid=2bed8ac0-d056-43d1-a065-869230d1fe4b"},"vehicle_type_id":"4","last_reported":1748110344,"current_range_meters":3600,"station_id":"ce4bgi12rcd13ifvqb70","pricing_plan_id":"cebpf4jnsgd1na2vs0mg"},{"bike_id":"07f04ed8-aa4f-4664-9d53-a30a6ad35663","system_id":"levelo_inurba_marseille","lat":43.2558,"lon":5.38232,"is_reserved":false,"is_disabled":false,"rental_uris":{"android":"levelo://app?vid=07f04ed8-aa4f-4664-9d53-a30a6ad35663","ios":"levelo://app?vid=07f04ed8-aa4f-4664-9d53-a30a6ad35663"},"vehicle_type_id":"4","last_reported":1748110344,"current_range_meters":3600,"station_id":"ce4bhih2rcd13ifvqfs0","pricing_plan_id":"cebpf4jnsgd1na2vs0mg"},{"bike_id":"c400bfc8-20fc-4542-b6f6-4a481cda4d16","system_id":"levelo_inurba_marseille","lat":43.270718,"lon":5.422809,"is_reserved":false,"is_disabled":false,"rental_uris":{"android":"levelo://app?vid=c400bfc8-20fc-4542-b6f6-4a481cda4d16","ios":"levelo://app?vid=c400bfc8-20fc-4542-b6f6-4a481cda4d16"},"vehicle_type_id":"4","last_reported":1748110344,"current_range_meters":4000,"station_id":"ce4bhk92rcd13ifvqgb0","pricing_plan_id":"cebpf4jnsgd1na2vs0mg"},{"bike_id":"2c7ef2f8-55f3-4d00-af10-085f2486c2b7","system_id":"levelo_inurba_marseille","lat":43.229189,"lon":5.353649,"is_reserved":false,"is_disabled":false,"rental_uris":{"android":"levelo://app?vid=2c7ef2f8-55f3-4d00-af10-085f2486c2b7","ios":"levelo://app?vid=2c7ef2f8-55f3-4d00-af10-085f2486c2b7"},"vehicle_type_id":"4","last_reported":1748110344,"current_range_meters":4000,"station_id":"cpo3342slgdg3j2ifvpg","pricing_plan_id":"cebpf4jnsgd1na2vs0mg"},{"bike_id":"c139e568-30e4-4816-a4d0-47133acc2e30","system_id":"levelo_inurba_marseille","lat":43.312706,"lon":5.368396,"is_reserved":false,"is_disabled":false,"rental_uris":{"android":"levelo://app?vid=c139e568-30e4-4816-a4d0-47133acc2e30","ios":"levelo://app?vid=c139e568-30e4-4816-a4d0-47133acc2e30"},"vehicle_type_id":"4","last_reported":1748110344,"current_range_meters":4000,"station_id":"","pricing_plan_id":"cebpf4jnsgd1na2vs0mg"},{"bike_id":"e467aa1a-2e30-4959-92a4-83dd771286a0","system_id":"levelo_inurba_marseille","lat":43.24182,"lon":5.3973,"is_reserved":false,"is_disabled":false,"rental_uris":{"android":"levelo://app?vid=e467aa1a-2e30-4959-92a4-83dd771286a0","ios":"levelo://app?vid=e467aa1a-2e30-4959-92a4-83dd771286a0"},"vehicle_type_id":"4","last_reported":1748110344,"current_range_meters":4000,"station_id":"ce4bhn12rcd13ifvqgpg","pricing_plan_id":"cebpf4jnsgd1na2vs0mg"},{"bike_id":"7033f29b-2f82-40a9-922d-36b6315763bf","system_id":"levelo_inurba_marseille","lat":43.25109,"lon":5.40312,"is_reserved":false,"is_disabled":true,"rental_uris":{"android":"levelo://app?vid=7033f29b-2f82-40a9-922d-36b6315763bf","ios":"levelo://app?vid=7033f29b-2f82-40a9-922d-36b6315763bf"},"vehicle_type_id":"4","last_reported":1748110344,"current_range_meters":4000,"station_id":"ce4bhlh2rcd13ifvqgig","pricing_plan_id":"cebpf4jnsgd1na2vs0mg"},{"bike_id":"2a98325d-55d2-4017-a963-0a69b867f3ca","system_id":"levelo_inurba_marseille","lat":43.29311,"lon":5.37164,"is_reserved":false,"is_disabled":false,"rental_uris":{"android":"levelo://app?vid=2a98325d-55d2-4017-a963-0a69b867f3ca","ios":"levelo://app?vid=2a98325d-55d2-4017-a963-0a69b867f3ca"},"vehicle_type_id":"4","last_reported":1748110344,"current_range_meters":4000,"station_id":"ce4bgh92rcd13ifvqb40","pricing_plan_id":"cebpf4jnsgd1na2vs0mg"},{"bike_id":"f9315d3a-9532-456a-8621-844a89828053","system_id":"levelo_inurba_marseille","lat":43.26809,"lon":5.4027,"is_reserved":false,"is_disabled":false,"rental_uris":{"android":"levelo://app?vid=f9315d3a-9532-456a-8621-844a89828053","ios":"levelo://app?vid=f9315d3a-9532-456a-8621-844a89828053"},"vehicle_type_id":"4","last_reported":1748110344,"current_range_meters":4400,"station_id":"ce501612rcd8frsf0b60","pricing_plan_id":"cebpf4jnsgd1na2vs0mg"},{"bike_id":"f1c6d019-724a-4d8c-8800-518f39091386","system_id":"levelo_inurba_marseille","lat":43.26882,"lon":5.39382,"is_reserved":false,"is_disabled":false,"rental_uris":{"android":"levelo://app?vid=f1c6d019-724a-4d8c-8800-518f39091386","ios":"levelo://app?vid=f1c6d019-724a-4d8c-8800-518f39091386"},"vehicle_type_id":"4","last_reported":1748110344,"current_range_meters":4400,"station_id":"","pricing_plan_id":"cebpf4jnsgd1na2vs0mg"},{"bike_id":"40724574-8c17-4c19-a72e-b18e34ad3670","system_id":"levelo_inurba_marseille","lat":43.2621,"lon":5.37439,"is_reserved":false,"is_disabled":false,"rental_uris":{"android":"levelo://app?vid=40724574-8c17-4c19-a72e-b18e34ad3670","ios":"levelo://app?vid=40724574-8c17-4c19-a72e-b18e34ad3670"},"vehicle_type_id":"4","last_reported":1748110344,"current_range_meters":4400,"station_id":"ce4bhgp2rcd13ifvqfc0","pricing_plan_id":"cebpf4jnsgd1na2vs0mg"},{"bike_id":"a1933a36-f77f-4668-a08c-639a9bd1a1e8","system_id":"levelo_inurba_marseille","lat":43.23201,"lon":5.39971,"is_reserved":false,"is_disabled":true,"rental_uris":{"android":"levelo://app?vid=a1933a36-f77f-4668-a08c-639a9bd1a1e8","ios":"levelo://app?vid=a1933a36-f77f-4668-a08c-639a9bd1a1e8"},"vehicle_type_id":"4","last_reported":1748110344,"current_range_meters":4400,"station_id":"ce4bhn12rcd13ifvqgqg","pricing_plan_id":"cebpf4jnsgd1na2vs0mg"},{"bike_id":"cb8becc3-1fbd-406b-9cf1-52d66c7235ff","system_id":"levelo_inurba_marseille","lat":43.31719,"lon":5.37317,"is_reserved":false,"is_disabled":false,"rental_uris":{"android":"levelo://app?vid=cb8becc3-1fbd-406b-9cf1-52d66c7235ff","ios":"levelo://app?vid=cb8becc3-1fbd-406b-9cf1-52d66c7235ff"},"vehicle_type_id":"4","last_reported":1748110344,"current_range_meters":4400,"station_id":"","pricing_plan_id":"cebpf4jnsgd1na2vs0mg"},{"bike_id":"a8097292-bab1-4ef2-8d18-0345d2814002","system_id":"levelo_inurba_marseille","lat":43.26195,"lon":5.37445,"is_reserved":false,"is_disabled":false,"rental_uris":{"android":"levelo://app?vid=a8097292-bab1-4ef2-8d18-0345d2814002","ios":"levelo://app?vid=a8097292-bab1-4ef2-8d18-0345d2814002"},"vehicle_type_id":"4","last_reported":1748110344,"current_range_meters":4400,"station_id":"ce4bhgp2rcd13ifvqfc0","pricing_plan_id":"cebpf4jnsgd1na2vs0mg"},{"bike_id":"221b41ad-2320-4add-abb4-750bb95c61fe","system_id":"levelo_inurba_marseille","lat":43.27493,"lon":5.42451,"is_reserved":false,"is_disabled":false,"rental_uris":{"android":"levelo://app?vid=221b41ad-2320-4add-abb4-750bb95c61fe","ios":"levelo://app?vid=221b41ad-2320-4add-abb4-750bb95c61fe"},"vehicle_type_id":"4","last_reported":1748110344,"current_range_meters":4800,"station_id":"ce4bhn92rcd13ifvqgrg","pricing_plan_id":"cebpf4jnsgd1na2vs0mg"},{"bike_id":"d85c177f-4e83-49e4-8876-dcc28e03c14d","system_id":"levelo_inurba_marseille","lat":43.25939,"lon":5.40907,"is_reserved":false,"is_disabled":false,"rental_uris":{"android":"levelo://app?vid=d85c177f-4e83-49e4-8876-dcc28e03c14d","ios":"levelo://app?vid=d85c177f-4e83-49e4-8876-dcc28e03c14d"},"vehicle_type_id":"4","last_reported":1748110344,"current_range_meters":4800,"station_id":"ce4bhm92rcd13ifvqglg","pricing_plan_id":"cebpf4jnsgd1na2vs0mg"},{"bike_id":"164e60a4-05bc-4649-85d4-95b45cbfeab2","system_id":"levelo_inurba_marseille","lat":43.25743,"lon":5.41097,"is_reserved":false,"is_disabled":false,"rental_uris":{"android":"levelo://app?vid=164e60a4-05bc-4649-85d4-95b45cbfeab2","ios":"levelo://app?vid=164e60a4-05bc-4649-85d4-95b45cbfeab2"},"vehicle_type_id":"4","last_reported":1748110344,"current_range_meters":4800,"station_id":"ce4bhkp2rcd13ifvqgd0","pricing_plan_id":"cebpf4jnsgd1na2vs0mg"},{"bike_id":"161b9811-ad79-4c70-b7e6-1e13e2f0951d","system_id":"levelo_inurba_marseille","lat":43.29908,"lon":5.43672,"is_reserved":false,"is_disabled":false,"rental_uris":{"android":"levelo://app?vid=161b9811-ad79-4c70-b7e6-1e13e2f0951d","ios":"levelo://app?vid=161b9811-ad79-4c70-b7e6-1e13e2f0951d"},"vehicle_type_id":"4","last_reported":1748110344,"current_range_meters":4800,"station_id":"ce4bhpp2rcd13ifvqhfg","pricing_plan_id":"cebpf4jnsgd1na2vs0mg"},{"bike_id":"194666df-d60f-4dbf-918c-87098827f0fb","system_id":"levelo_inurba_marseille","lat":43.29403,"lon":5.37919,"is_reserved":false,"is_disabled":true,"rental_uris":{"android":"levelo://app?vid=194666df-d60f-4dbf-918c-87098827f0fb","ios":"levelo://app?vid=194666df-d60f-4dbf-918c-87098827f0fb"},"vehicle_type_id":"4","last_reported":1748110344,"current_range_meters":4800,"station_id":"","pricing_plan_id":"cebpf4jnsgd1na2vs0mg"},{"bike_id":"b327ae52-c564-438d-80e4-f520427b1f31","system_id":"levelo_inurba_marseille","lat":43.2845,"lon":5.35894,"is_reserved":false,"is_disabled":false,"rental_uris":{"android":"levelo://app?vid=b327ae52-c564-438d-80e4-f520427b1f31","ios":"levelo://app?vid=b327ae52-c564-438d-80e4-f520427b1f31"},"vehicle_type_id":"4","last_reported":1748110344,"current_range_meters":4800,"station_id":"ce4bhah2rcd13ifvqei0","pricing_plan_id":"cebpf4jnsgd1na2vs0mg"},{"bike_id":"8e4c510f-5b89-43ac-b195-fd2949983a5f","system_id":"levelo_inurba_marseille","lat":43.300027,"lon":5.386015,"is_reserved":false,"is_disabled":false,"rental_uris":{"android":"levelo://app?vid=8e4c510f-5b89-43ac-b195-fd2949983a5f","ios":"levelo://app?vid=8e4c510f-5b89-43ac-b195-fd2949983a5f"},"vehicle_type_id":"4","last_reported":1748110344,"current_range_meters":4800,"station_id":"ce4bh092rcd13ifvqd20","pricing_plan_id":"cebpf4jnsgd1na2vs0mg"},{"bike_id":"b8d7a318-f35e-4b21-8061-7105613ae633","system_id":"levelo_inurba_marseille","lat":43.24806,"lon":5.37456,"is_reserved":false,"is_disabled":false,"rental_uris":{"android":"levelo://app?vid=b8d7a318-f35e-4b21-8061-7105613ae633","ios":"levelo://app?vid=b8d7a318-f35e-4b21-8061-7105613ae633"},"vehicle_type_id":"4","last_reported":1748110344,"current_range_meters":4800,"station_id":"ce4bhgh2rcd13ifvqfb0","pricing_plan_id":"cebpf4jnsgd1na2vs0mg"},{"bike_id":"ebb48e9d-f6ce-4a2f-aa7b-f3ca3b4e5cba","system_id":"levelo_inurba_marseille","lat":43.29223,"lon":5.36069,"is_reserved":false,"is_disabled":false,"rental_uris":{"android":"levelo://app?vid=ebb48e9d-f6ce-4a2f-aa7b-f3ca3b4e5cba","ios":"levelo://app?vid=ebb48e9d-f6ce-4a2f-aa7b-f3ca3b4e5cba"},"vehicle_type_id":"4","last_reported":1748110344,"current_range_meters":4800,"station_id":"ce4bhbh2rcd13ifvqeqg","pricing_plan_id":"cebpf4jnsgd1na2vs0mg"},{"bike_id":"a2f1296c-e4fc-45d6-be73-b896b487012e","system_id":"levelo_inurba_marseille","lat":43.286056,"lon":5.350996,"is_reserved":false,"is_disabled":true,"rental_uris":{"android":"levelo://app?vid=a2f1296c-e4fc-45d6-be73-b896b487012e","ios":"levelo://app?vid=a2f1296c-e4fc-45d6-be73-b896b487012e"},"vehicle_type_id":"4","last_reported":1748110344,"current_range_meters":5600,"station_id":"ce4bhch2rcd13ifvqeug","pricing_plan_id":"cebpf4jnsgd1na2vs0mg"},{"bike_id":"df7bb070-bbdc-4319-8f8b-af2d5368d083","system_id":"levelo_inurba_marseille","lat":43.31366,"lon":5.38493,"is_reserved":false,"is_disabled":false,"rental_uris":{"android":"levelo://app?vid=df7bb070-bbdc-4319-8f8b-af2d5368d083","ios":"levelo://app?vid=df7bb070-bbdc-4319-8f8b-af2d5368d083"},"vehicle_type_id":"4","last_reported":1748110344,"current_range_meters":6000,"station_id":"ce4bgt92rcd13ifvqcf0","pricing_plan_id":"cebpf4jnsgd1na2vs0mg"},{"bike_id":"4c964f5d-e069-4f21-b01b-d956923b5719","system_id":"levelo_inurba_marseille","lat":43.23183,"lon":5.39978,"is_reserved":false,"is_disabled":false,"rental_uris":{"android":"levelo://app?vid=4c964f5d-e069-4f21-b01b-d956923b5719","ios":"levelo://app?vid=4c964f5d-e069-4f21-b01b-d956923b5719"},"vehicle_type_id":"4","last_reported":1748110344,"current_range_meters":5600,"station_id":"ce4bhn12rcd13ifvqgqg","pricing_plan_id":"cebpf4jnsgd1na2vs0mg"},{"bike_id":"ff29fada-048a-47b7-b4cf-e14dc4279567","system_id":"levelo_inurba_marseille","lat":43.27303,"lon":5.39098,"is_reserved":false,"is_disabled":false,"rental_uris":{"android":"levelo://app?vid=ff29fada-048a-47b7-b4cf-e14dc4279567","ios":"levelo://app?vid=ff29fada-048a-47b7-b4cf-e14dc4279567"},"vehicle_type_id":"4","last_reported":1748110344,"current_range_meters":5600,"station_id":"ce4bhgp2rcd13ifvqfe0","pricing_plan_id":"cebpf4jnsgd1na2vs0mg"},{"bike_id":"11fa9e88-eb14-4513-bec9-03f3a1b2637d","system_id":"levelo_inurba_marseille","lat":43.2319,"lon":5.3555,"is_reserved":false,"is_disabled":false,"rental_uris":{"android":"levelo://app?vid=11fa9e88-eb14-4513-bec9-03f3a1b2637d","ios":"levelo://app?vid=11fa9e88-eb14-4513-bec9-03f3a1b2637d"},"vehicle_type_id":"4","last_reported":1748110344,"current_range_meters":5600,"station_id":"ce4bhu92rcd13ifvqi70","pricing_plan_id":"cebpf4jnsgd1na2vs0mg"},{"bike_id":"e04cbddf-84a3-4550-a882-f39ef1eb3c3a","system_id":"levelo_inurba_marseille","lat":43.27299,"lon":5.39114,"is_reserved":false,"is_disabled":false,"rental_uris":{"android":"levelo://app?vid=e04cbddf-84a3-4550-a882-f39ef1eb3c3a","ios":"levelo://app?vid=e04cbddf-84a3-4550-a882-f39ef1eb3c3a"},"vehicle_type_id":"4","last_reported":1748110344,"current_range_meters":5600,"station_id":"ce4bhgp2rcd13ifvqfe0","pricing_plan_id":"cebpf4jnsgd1na2vs0mg"},{"bike_id":"767719b8-811b-4e70-a4a2-861671781331","system_id":"levelo_inurba_marseille","lat":43.29225,"lon":5.36064,"is_reserved":false,"is_disabled":false,"rental_uris":{"android":"levelo://app?vid=767719b8-811b-4e70-a4a2-861671781331","ios":"levelo://app?vid=767719b8-811b-4e70-a4a2-861671781331"},"vehicle_type_id":"4","last_reported":1748110344,"current_range_meters":6000,"station_id":"ce4bhbh2rcd13ifvqeqg","pricing_plan_id":"cebpf4jnsgd1na2vs0mg"},{"bike_id":"ecb0f8f9-ef32-4f08-8eea-3a5c505c1cd5","system_id":"levelo_inurba_marseille","lat":43.29973,"lon":5.3849,"is_reserved":false,"is_disabled":false,"rental_uris":{"android":"levelo://app?vid=ecb0f8f9-ef32-4f08-8eea-3a5c505c1cd5","ios":"levelo://app?vid=ecb0f8f9-ef32-4f08-8eea-3a5c505c1cd5"},"vehicle_type_id":"4","last_reported":1748110344,"current_range_meters":6000,"station_id":"ce4bgj92rcd13ifvqbd0","pricing_plan_id":"cebpf4jnsgd1na2vs0mg"},{"bike_id":"428d4047-1f30-41ce-9c55-8cbb66bc86f5","system_id":"levelo_inurba_marseille","lat":43.24997,"lon":5.38923,"is_reserved":false,"is_disabled":false,"rental_uris":{"android":"levelo://app?vid=428d4047-1f30-41ce-9c55-8cbb66bc86f5","ios":"levelo://app?vid=428d4047-1f30-41ce-9c55-8cbb66bc86f5"},"vehicle_type_id":"4","last_reported":1748110344,"current_range_meters":6000,"station_id":"ce4bhgp2rcd13ifvqfd0","pricing_plan_id":"cebpf4jnsgd1na2vs0mg"},{"bike_id":"7097370e-7a0d-4e71-be27-a879020555f9","system_id":"levelo_inurba_marseille","lat":43.28035,"lon":5.39725,"is_reserved":false,"is_disabled":false,"rental_uris":{"android":"levelo://app?vid=7097370e-7a0d-4e71-be27-a879020555f9","ios":"levelo://app?vid=7097370e-7a0d-4e71-be27-a879020555f9"},"vehicle_type_id":"4","last_reported":1748110344,"current_range_meters":6000,"station_id":"","pricing_plan_id":"cebpf4jnsgd1na2vs0mg"},{"bike_id":"f25110ff-5399-472d-8591-5e7fc75f44d1","system_id":"levelo_inurba_marseille","lat":43.27332,"lon":5.39118,"is_reserved":false,"is_disabled":false,"rental_uris":{"android":"levelo://app?vid=f25110ff-5399-472d-8591-5e7fc75f44d1","ios":"levelo://app?vid=f25110ff-5399-472d-8591-5e7fc75f44d1"},"vehicle_type_id":"4","last_reported":1748110344,"current_range_meters":6000,"station_id":"ce4bhgp2rcd13ifvqfe0","pricing_plan_id":"cebpf4jnsgd1na2vs0mg"},{"bike_id":"41189b57-05fe-4bf9-a2d7-2ff1f2d76268","system_id":"levelo_inurba_marseille","lat":43.29415,"lon":5.38615,"is_reserved":false,"is_disabled":false,"rental_uris":{"android":"levelo://app?vid=41189b57-05fe-4bf9-a2d7-2ff1f2d76268","ios":"levelo://app?vid=41189b57-05fe-4bf9-a2d7-2ff1f2d76268"},"vehicle_type_id":"4","last_reported":1748110344,"current_range_meters":6000,"station_id":"ce4bh2h2rcd13ifvqdh0","pricing_plan_id":"cebpf4jnsgd1na2vs0mg"},{"bike_id":"014a1465-0218-4f9a-bc37-0ae1401b3e89","system_id":"levelo_inurba_marseille","lat":43.2558,"lon":5.38229,"is_reserved":false,"is_disabled":false,"rental_uris":{"android":"levelo://app?vid=014a1465-0218-4f9a-bc37-0ae1401b3e89","ios":"levelo://app?vid=014a1465-0218-4f9a-bc37-0ae1401b3e89"},"vehicle_type_id":"4","last_reported":1748110344,"current_range_meters":6000,"station_id":"ce4bhih2rcd13ifvqfs0","pricing_plan_id":"cebpf4jnsgd1na2vs0mg"},{"bike_id":"dc0277c9-e1c6-4096-a10f-45fa5cd30535","system_id":"levelo_inurba_marseille","lat":43.27707,"lon":5.38925,"is_reserved":false,"is_disabled":false,"rental_uris":{"android":"levelo://app?vid=dc0277c9-e1c6-4096-a10f-45fa5cd30535","ios":"levelo://app?vid=dc0277c9-e1c6-4096-a10f-45fa5cd30535"},"vehicle_type_id":"4","last_reported":1748110344,"current_range_meters":6000,"station_id":"ce4bhi12rcd13ifvqfo0","pricing_plan_id":"cebpf4jnsgd1na2vs0mg"},{"bike_id":"398ac2c0-7185-42b7-b995-ea97c3f0a79d","system_id":"levelo_inurba_marseille","lat":43.23206,"lon":5.35551,"is_reserved":false,"is_disabled":false,"rental_uris":{"android":"levelo://app?vid=398ac2c0-7185-42b7-b995-ea97c3f0a79d","ios":"levelo://app?vid=398ac2c0-7185-42b7-b995-ea97c3f0a79d"},"vehicle_type_id":"4","last_reported":1748110344,"current_range_meters":6000,"station_id":"ce4bhu92rcd13ifvqi70","pricing_plan_id":"cebpf4jnsgd1na2vs0mg"},{"bike_id":"77a16159-0be4-4905-8fe3-97a296f16673","system_id":"levelo_inurba_marseille","lat":43.32377,"lon":5.36744,"is_reserved":false,"is_disabled":false,"rental_uris":{"android":"levelo://app?vid=77a16159-0be4-4905-8fe3-97a296f16673","ios":"levelo://app?vid=77a16159-0be4-4905-8fe3-97a296f16673"},"vehicle_type_id":"4","last_reported":1748110344,"current_range_meters":6000,"station_id":"ce4bhsh2rcd13ifvqi2g","pricing_plan_id":"cebpf4jnsgd1na2vs0mg"},{"bike_id":"a62979a0-0552-4914-a9d9-0b028143dcfb","system_id":"levelo_inurba_marseille","lat":43.25581,"lon":5.38245,"is_reserved":false,"is_disabled":false,"rental_uris":{"android":"levelo://app?vid=a62979a0-0552-4914-a9d9-0b028143dcfb","ios":"levelo://app?vid=a62979a0-0552-4914-a9d9-0b028143dcfb"},"vehicle_type_id":"4","last_reported":1748110344,"current_range_meters":6000,"station_id":"ce4bhih2rcd13ifvqfs0","pricing_plan_id":"cebpf4jnsgd1na2vs0mg"},{"bike_id":"dfc12ae8-1c26-45e1-8fd5-25609a6f4238","system_id":"levelo_inurba_marseille","lat":43.2708,"lon":5.42276,"is_reserved":false,"is_disabled":false,"rental_uris":{"android":"levelo://app?vid=dfc12ae8-1c26-45e1-8fd5-25609a6f4238","ios":"levelo://app?vid=dfc12ae8-1c26-45e1-8fd5-25609a6f4238"},"vehicle_type_id":"4","last_reported":1748110344,"current_range_meters":6000,"station_id":"ce4bhk92rcd13ifvqgb0","pricing_plan_id":"cebpf4jnsgd1na2vs0mg"},{"bike_id":"1b6833f8-3dde-4e3f-9ade-44fc116840f9","system_id":"levelo_inurba_marseille","lat":43.26813,"lon":5.40265,"is_reserved":false,"is_disabled":false,"rental_uris":{"android":"levelo://app?vid=1b6833f8-3dde-4e3f-9ade-44fc116840f9","ios":"levelo://app?vid=1b6833f8-3dde-4e3f-9ade-44fc116840f9"},"vehicle_type_id":"4","last_reported":1748110344,"current_range_meters":6000,"station_id":"ce501612rcd8frsf0b60","pricing_plan_id":"cebpf4jnsgd1na2vs0mg"},{"bike_id":"b5620a56-f85e-42b3-af93-c10badefecd8","system_id":"levelo_inurba_marseille","lat":43.27224,"lon":5.39149,"is_reserved":false,"is_disabled":false,"rental_uris":{"android":"levelo://app?vid=b5620a56-f85e-42b3-af93-c10badefecd8","ios":"levelo://app?vid=b5620a56-f85e-42b3-af93-c10badefecd8"},"vehicle_type_id":"4","last_reported":1748110344,"current_range_meters":6400,"station_id":"ce4bhhp2rcd13ifvqfm0","pricing_plan_id":"cebpf4jnsgd1na2vs0mg"},{"bike_id":"1453b4c9-dceb-4b1c-a5c8-bf5eb27837b1","system_id":"levelo_inurba_marseille","lat":43.27995,"lon":5.41663,"is_reserved":false,"is_disabled":false,"rental_uris":{"android":"levelo://app?vid=1453b4c9-dceb-4b1c-a5c8-bf5eb27837b1","ios":"levelo://app?vid=1453b4c9-dceb-4b1c-a5c8-bf5eb27837b1"},"vehicle_type_id":"4","last_reported":1748110344,"current_range_meters":6400,"station_id":"ce4bho12rcd13ifvqh1g","pricing_plan_id":"cebpf4jnsgd1na2vs0mg"},{"bike_id":"09ac1aac-8953-4e20-8e55-8b1e0cf88358","system_id":"levelo_inurba_marseille","lat":43.29227,"lon":5.36069,"is_reserved":false,"is_disabled":false,"rental_uris":{"android":"levelo://app?vid=09ac1aac-8953-4e20-8e55-8b1e0cf88358","ios":"levelo://app?vid=09ac1aac-8953-4e20-8e55-8b1e0cf88358"},"vehicle_type_id":"4","last_reported":1748110344,"current_range_meters":6400,"station_id":"ce4bhbh2rcd13ifvqeqg","pricing_plan_id":"cebpf4jnsgd1na2vs0mg"},{"bike_id":"a068e330-fe19-4a05-a16c-f8a9ed510ce6","system_id":"levelo_inurba_marseille","lat":43.23052,"lon":5.35491,"is_reserved":false,"is_disabled":false,"rental_uris":{"android":"levelo://app?vid=a068e330-fe19-4a05-a16c-f8a9ed510ce6","ios":"levelo://app?vid=a068e330-fe19-4a05-a16c-f8a9ed510ce6"},"vehicle_type_id":"4","last_reported":1748110344,"current_range_meters":6400,"station_id":"cpo3342slgdg3j2ifvpg","pricing_plan_id":"cebpf4jnsgd1na2vs0mg"},{"bike_id":"4469b689-de67-45bc-81b0-02fa9d5246f7","system_id":"levelo_inurba_marseille","lat":43.26197,"lon":5.37446,"is_reserved":false,"is_disabled":false,"rental_uris":{"android":"levelo://app?vid=4469b689-de67-45bc-81b0-02fa9d5246f7","ios":"levelo://app?vid=4469b689-de67-45bc-81b0-02fa9d5246f7"},"vehicle_type_id":"4","last_reported":1748110344,"current_range_meters":6400,"station_id":"ce4bhgp2rcd13ifvqfc0","pricing_plan_id":"cebpf4jnsgd1na2vs0mg"},{"bike_id":"f1337c2b-aa02-4bb8-a227-5214fe6649d1","system_id":"levelo_inurba_marseille","lat":43.30942,"lon":5.39049,"is_reserved":false,"is_disabled":false,"rental_uris":{"android":"levelo://app?vid=f1337c2b-aa02-4bb8-a227-5214fe6649d1","ios":"levelo://app?vid=f1337c2b-aa02-4bb8-a227-5214fe6649d1"},"vehicle_type_id":"4","last_reported":1748110344,"current_range_meters":6400,"station_id":"ce4bgup2rcd13ifvqco0","pricing_plan_id":"cebpf4jnsgd1na2vs0mg"},{"bike_id":"3a2244df-611f-4b6d-a778-36b52e274311","system_id":"levelo_inurba_marseille","lat":43.24659,"lon":5.38159,"is_reserved":false,"is_disabled":false,"rental_uris":{"android":"levelo://app?vid=3a2244df-611f-4b6d-a778-36b52e274311","ios":"levelo://app?vid=3a2244df-611f-4b6d-a778-36b52e274311"},"vehicle_type_id":"4","last_reported":1748110344,"current_range_meters":8400,"station_id":"ce4bhih2rcd13ifvqfr0","pricing_plan_id":"cebpf4jnsgd1na2vs0mg"},{"bike_id":"3b997ac5-fbf2-4785-aa51-1d1ca51a126f","system_id":"levelo_inurba_marseille","lat":43.293045,"lon":5.374563,"is_reserved":false,"is_disabled":true,"rental_uris":{"android":"levelo://app?vid=3b997ac5-fbf2-4785-aa51-1d1ca51a126f","ios":"levelo://app?vid=3b997ac5-fbf2-4785-aa51-1d1ca51a126f"},"vehicle_type_id":"4","last_reported":1748110344,"current_range_meters":6800,"station_id":"ce4bgi12rcd13ifvqb70","pricing_plan_id":"cebpf4jnsgd1na2vs0mg"},{"bike_id":"69aa7c0a-5012-412e-b6b1-6ff9b33318a4","system_id":"levelo_inurba_marseille","lat":43.27209,"lon":5.39182,"is_reserved":false,"is_disabled":false,"rental_uris":{"android":"levelo://app?vid=69aa7c0a-5012-412e-b6b1-6ff9b33318a4","ios":"levelo://app?vid=69aa7c0a-5012-412e-b6b1-6ff9b33318a4"},"vehicle_type_id":"4","last_reported":1748110344,"current_range_meters":6800,"station_id":"ce4bhhp2rcd13ifvqfm0","pricing_plan_id":"cebpf4jnsgd1na2vs0mg"},{"bike_id":"ad03f36d-8c31-469e-bd64-da4d56cf0507","system_id":"levelo_inurba_marseille","lat":43.26793,"lon":5.39413,"is_reserved":false,"is_disabled":false,"rental_uris":{"android":"levelo://app?vid=ad03f36d-8c31-469e-bd64-da4d56cf0507","ios":"levelo://app?vid=ad03f36d-8c31-469e-bd64-da4d56cf0507"},"vehicle_type_id":"4","last_reported":1748110344,"current_range_meters":6800,"station_id":"ce4bhh12rcd13ifvqfg0","pricing_plan_id":"cebpf4jnsgd1na2vs0mg"},{"bike_id":"e3ef8d09-fb6e-4966-af77-a8150816de25","system_id":"levelo_inurba_marseille","lat":43.29197,"lon":5.35802,"is_reserved":false,"is_disabled":false,"rental_uris":{"android":"levelo://app?vid=e3ef8d09-fb6e-4966-af77-a8150816de25","ios":"levelo://app?vid=e3ef8d09-fb6e-4966-af77-a8150816de25"},"vehicle_type_id":"4","last_reported":1748110344,"current_range_meters":8000,"station_id":"ce4bhb12rcd13ifvqel0","pricing_plan_id":"cebpf4jnsgd1na2vs0mg"},{"bike_id":"a78226f9-5021-4193-a3ea-b0c4a45459af","system_id":"levelo_inurba_marseille","lat":43.29223,"lon":5.36065,"is_reserved":false,"is_disabled":false,"rental_uris":{"android":"levelo://app?vid=a78226f9-5021-4193-a3ea-b0c4a45459af","ios":"levelo://app?vid=a78226f9-5021-4193-a3ea-b0c4a45459af"},"vehicle_type_id":"4","last_reported":1748110344,"current_range_meters":6800,"station_id":"ce4bhbh2rcd13ifvqeqg","pricing_plan_id":"cebpf4jnsgd1na2vs0mg"},{"bike_id":"5321672b-9d34-4953-a055-795d02cae2ad","system_id":"levelo_inurba_marseille","lat":43.26682,"lon":5.38262,"is_reserved":false,"is_disabled":false,"rental_uris":{"android":"levelo://app?vid=5321672b-9d34-4953-a055-795d02cae2ad","ios":"levelo://app?vid=5321672b-9d34-4953-a055-795d02cae2ad"},"vehicle_type_id":"4","last_reported":1748110344,"current_range_meters":6800,"station_id":"ce4bhg92rcd13ifvqf90","pricing_plan_id":"cebpf4jnsgd1na2vs0mg"},{"bike_id":"fad281b9-cbcc-4040-aafd-4858884bd501","system_id":"levelo_inurba_marseille","lat":43.27049,"lon":5.40262,"is_reserved":false,"is_disabled":false,"rental_uris":{"android":"levelo://app?vid=fad281b9-cbcc-4040-aafd-4858884bd501","ios":"levelo://app?vid=fad281b9-cbcc-4040-aafd-4858884bd501"},"vehicle_type_id":"4","last_reported":1748110344,"current_range_meters":6800,"station_id":"ce4bhk92rcd13ifvqgc0","pricing_plan_id":"cebpf4jnsgd1na2vs0mg"},{"bike_id":"423681a4-2937-4632-8d84-27deac1d7172","system_id":"levelo_inurba_marseille","lat":43.29531,"lon":5.38542,"is_reserved":false,"is_disabled":false,"rental_uris":{"android":"levelo://app?vid=423681a4-2937-4632-8d84-27deac1d7172","ios":"levelo://app?vid=423681a4-2937-4632-8d84-27deac1d7172"},"vehicle_type_id":"4","last_reported":1748110344,"current_range_meters":6800,"station_id":"ce4bgih2rcd13ifvqba0","pricing_plan_id":"cebpf4jnsgd1na2vs0mg"},{"bike_id":"8dd9a50d-80e7-4e55-9d67-f52c24bfab34","system_id":"levelo_inurba_marseille","lat":43.2582,"lon":5.39433,"is_reserved":false,"is_disabled":false,"rental_uris":{"android":"levelo://app?vid=8dd9a50d-80e7-4e55-9d67-f52c24bfab34","ios":"levelo://app?vid=8dd9a50d-80e7-4e55-9d67-f52c24bfab34"},"vehicle_type_id":"4","last_reported":1748110344,"current_range_meters":6800,"station_id":"ce4bhip2rcd13ifvqft0","pricing_plan_id":"cebpf4jnsgd1na2vs0mg"},{"bike_id":"fa529a29-8d21-4f13-9783-e1708a99c344","system_id":"levelo_inurba_marseille","lat":43.246516,"lon":5.388955,"is_reserved":false,"is_disabled":false,"rental_uris":{"android":"levelo://app?vid=fa529a29-8d21-4f13-9783-e1708a99c344","ios":"levelo://app?vid=fa529a29-8d21-4f13-9783-e1708a99c344"},"vehicle_type_id":"4","last_reported":1748110344,"current_range_meters":7200,"station_id":"ce4bhlh2rcd13ifvqgig","pricing_plan_id":"cebpf4jnsgd1na2vs0mg"},{"bike_id":"d256c6a4-d35b-4c32-b7db-2bac8ab63b70","system_id":"levelo_inurba_marseille","lat":43.23189,"lon":5.35536,"is_reserved":false,"is_disabled":false,"rental_uris":{"android":"levelo://app?vid=d256c6a4-d35b-4c32-b7db-2bac8ab63b70","ios":"levelo://app?vid=d256c6a4-d35b-4c32-b7db-2bac8ab63b70"},"vehicle_type_id":"4","last_reported":1748110344,"current_range_meters":7200,"station_id":"ce4bhu92rcd13ifvqi70","pricing_plan_id":"cebpf4jnsgd1na2vs0mg"},{"bike_id":"ebe4a89a-4122-42d1-90ee-9d24420e1b7b","system_id":"levelo_inurba_marseille","lat":43.24663,"lon":5.38165,"is_reserved":false,"is_disabled":false,"rental_uris":{"android":"levelo://app?vid=ebe4a89a-4122-42d1-90ee-9d24420e1b7b","ios":"levelo://app?vid=ebe4a89a-4122-42d1-90ee-9d24420e1b7b"},"vehicle_type_id":"4","last_reported":1748110344,"current_range_meters":7200,"station_id":"ce4bhih2rcd13ifvqfr0","pricing_plan_id":"cebpf4jnsgd1na2vs0mg"},{"bike_id":"3826f979-2a1f-4361-b0d5-7d11bfc688da","system_id":"levelo_inurba_marseille","lat":43.25118,"lon":5.4032,"is_reserved":false,"is_disabled":false,"rental_uris":{"android":"levelo://app?vid=3826f979-2a1f-4361-b0d5-7d11bfc688da","ios":"levelo://app?vid=3826f979-2a1f-4361-b0d5-7d11bfc688da"},"vehicle_type_id":"4","last_reported":1748110344,"current_range_meters":7200,"station_id":"ce4bhlh2rcd13ifvqgig","pricing_plan_id":"cebpf4jnsgd1na2vs0mg"},{"bike_id":"70dd2ac9-6ab7-4b8b-87d6-189cb43a5b1b","system_id":"levelo_inurba_marseille","lat":43.26948,"lon":5.40248,"is_reserved":false,"is_disabled":false,"rental_uris":{"android":"levelo://app?vid=70dd2ac9-6ab7-4b8b-87d6-189cb43a5b1b","ios":"levelo://app?vid=70dd2ac9-6ab7-4b8b-87d6-189cb43a5b1b"},"vehicle_type_id":"4","last_reported":1748110344,"current_range_meters":8000,"station_id":"cjm6bp8fraef2m0cb0m0","pricing_plan_id":"cebpf4jnsgd1na2vs0mg"},{"bike_id":"ea570874-0824-4a15-92c2-1bc9fb0a22da","system_id":"levelo_inurba_marseille","lat":43.3091,"lon":5.36841,"is_reserved":false,"is_disabled":false,"rental_uris":{"android":"levelo://app?vid=ea570874-0824-4a15-92c2-1bc9fb0a22da","ios":"levelo://app?vid=ea570874-0824-4a15-92c2-1bc9fb0a22da"},"vehicle_type_id":"4","last_reported":1748110344,"current_range_meters":7200,"station_id":"ce4bgn92rcd13ifvqbvg","pricing_plan_id":"cebpf4jnsgd1na2vs0mg"},{"bike_id":"f5aa9c28-1d79-48fe-9196-fed7c6bf92e6","system_id":"levelo_inurba_marseille","lat":43.26956,"lon":5.4024,"is_reserved":false,"is_disabled":false,"rental_uris":{"android":"levelo://app?vid=f5aa9c28-1d79-48fe-9196-fed7c6bf92e6","ios":"levelo://app?vid=f5aa9c28-1d79-48fe-9196-fed7c6bf92e6"},"vehicle_type_id":"4","last_reported":1748110344,"current_range_meters":7200,"station_id":"cjm6bp8fraef2m0cb0m0","pricing_plan_id":"cebpf4jnsgd1na2vs0mg"},{"bike_id":"1558526f-5739-49db-a8cb-43d331957259","system_id":"levelo_inurba_marseille","lat":43.323719,"lon":5.367632,"is_reserved":false,"is_disabled":false,"rental_uris":{"android":"levelo://app?vid=1558526f-5739-49db-a8cb-43d331957259","ios":"levelo://app?vid=1558526f-5739-49db-a8cb-43d331957259"},"vehicle_type_id":"4","last_reported":1748110344,"current_range_meters":7200,"station_id":"ce4bhsh2rcd13ifvqi2g","pricing_plan_id":"cebpf4jnsgd1na2vs0mg"},{"bike_id":"4baa24f1-d165-4342-b6d5-d4dab9595b1a","system_id":"levelo_inurba_marseille","lat":43.26778,"lon":5.39421,"is_reserved":false,"is_disabled":false,"rental_uris":{"android":"levelo://app?vid=4baa24f1-d165-4342-b6d5-d4dab9595b1a","ios":"levelo://app?vid=4baa24f1-d165-4342-b6d5-d4dab9595b1a"},"vehicle_type_id":"4","last_reported":1748110344,"current_range_meters":7200,"station_id":"ce4bhh12rcd13ifvqfg0","pricing_plan_id":"cebpf4jnsgd1na2vs0mg"},{"bike_id":"d9971296-1624-46da-9c4b-bebe91c1462b","system_id":"levelo_inurba_marseille","lat":43.26219,"lon":5.3744,"is_reserved":false,"is_disabled":false,"rental_uris":{"android":"levelo://app?vid=d9971296-1624-46da-9c4b-bebe91c1462b","ios":"levelo://app?vid=d9971296-1624-46da-9c4b-bebe91c1462b"},"vehicle_type_id":"4","last_reported":1748110344,"current_range_meters":7200,"station_id":"ce4bhgp2rcd13ifvqfc0","pricing_plan_id":"cebpf4jnsgd1na2vs0mg"},{"bike_id":"64cc35b1-e93a-4021-ab08-82e2b5985978","system_id":"levelo_inurba_marseille","lat":43.32045,"lon":5.41541,"is_reserved":false,"is_disabled":false,"rental_uris":{"android":"levelo://app?vid=64cc35b1-e93a-4021-ab08-82e2b5985978","ios":"levelo://app?vid=64cc35b1-e93a-4021-ab08-82e2b5985978"},"vehicle_type_id":"4","last_reported":1748110344,"current_range_meters":7200,"station_id":"ce4bhq92rcd13ifvqhkg","pricing_plan_id":"cebpf4jnsgd1na2vs0mg"},{"bike_id":"fe192ecc-f824-4058-9209-47e13459c8be","system_id":"levelo_inurba_marseille","lat":43.27213,"lon":5.39182,"is_reserved":false,"is_disabled":false,"rental_uris":{"android":"levelo://app?vid=fe192ecc-f824-4058-9209-47e13459c8be","ios":"levelo://app?vid=fe192ecc-f824-4058-9209-47e13459c8be"},"vehicle_type_id":"4","last_reported":1748110344,"current_range_meters":7200,"station_id":"ce4bhhp2rcd13ifvqfm0","pricing_plan_id":"cebpf4jnsgd1na2vs0mg"},{"bike_id":"d562ae30-b1e7-4a7a-94ad-92b7cc645da1","system_id":"levelo_inurba_marseille","lat":43.27657,"lon":5.38902,"is_reserved":false,"is_disabled":true,"rental_uris":{"android":"levelo://app?vid=d562ae30-b1e7-4a7a-94ad-92b7cc645da1","ios":"levelo://app?vid=d562ae30-b1e7-4a7a-94ad-92b7cc645da1"},"vehicle_type_id":"4","last_reported":1748110344,"current_range_meters":8000,"station_id":"ce4bhi12rcd13ifvqfo0","pricing_plan_id":"cebpf4jnsgd1na2vs0mg"},{"bike_id":"a55bd1ee-f126-4b97-90d2-530075e666e2","system_id":"levelo_inurba_marseille","lat":43.27438,"lon":5.39406,"is_reserved":false,"is_disabled":false,"rental_uris":{"android":"levelo://app?vid=a55bd1ee-f126-4b97-90d2-530075e666e2","ios":"levelo://app?vid=a55bd1ee-f126-4b97-90d2-530075e666e2"},"vehicle_type_id":"4","last_reported":1748110344,"current_range_meters":7200,"station_id":"ce4bhdp2rcd13ifvqf20","pricing_plan_id":"cebpf4jnsgd1na2vs0mg"},{"bike_id":"9a1ebc18-6a7a-402b-abd4-b292faede8e0","system_id":"levelo_inurba_marseille","lat":43.28937,"lon":5.36636,"is_reserved":false,"is_disabled":false,"rental_uris":{"android":"levelo://app?vid=9a1ebc18-6a7a-402b-abd4-b292faede8e0","ios":"levelo://app?vid=9a1ebc18-6a7a-402b-abd4-b292faede8e0"},"vehicle_type_id":"4","last_reported":1748110344,"current_range_meters":8000,"station_id":"ce4bhap2rcd13ifvqek0","pricing_plan_id":"cebpf4jnsgd1na2vs0mg"},{"bike_id":"4121a7b4-5b66-4be6-b308-d174e07d8de1","system_id":"levelo_inurba_marseille","lat":43.27301,"lon":5.39078,"is_reserved":false,"is_disabled":false,"rental_uris":{"android":"levelo://app?vid=4121a7b4-5b66-4be6-b308-d174e07d8de1","ios":"levelo://app?vid=4121a7b4-5b66-4be6-b308-d174e07d8de1"},"vehicle_type_id":"4","last_reported":1748110344,"current_range_meters":8000,"station_id":"ce4bhgp2rcd13ifvqfe0","pricing_plan_id":"cebpf4jnsgd1na2vs0mg"},{"bike_id":"42567f8b-b6ac-499b-bf80-af93fc3cc58f","system_id":"levelo_inurba_marseille","lat":43.2972,"lon":5.37635,"is_reserved":false,"is_disabled":true,"rental_uris":{"android":"levelo://app?vid=42567f8b-b6ac-499b-bf80-af93fc3cc58f","ios":"levelo://app?vid=42567f8b-b6ac-499b-bf80-af93fc3cc58f"},"vehicle_type_id":"4","last_reported":1748110344,"current_range_meters":8000,"station_id":"ce4bgkh2rcd13ifvqbl0","pricing_plan_id":"cebpf4jnsgd1na2vs0mg"},{"bike_id":"86a78661-86c1-4928-b756-250d3c6e8dc5","system_id":"levelo_inurba_marseille","lat":43.28863,"lon":5.35846,"is_reserved":false,"is_disabled":false,"rental_uris":{"android":"levelo://app?vid=86a78661-86c1-4928-b756-250d3c6e8dc5","ios":"levelo://app?vid=86a78661-86c1-4928-b756-250d3c6e8dc5"},"vehicle_type_id":"4","last_reported":1748110344,"current_range_meters":8000,"station_id":"ce4bhb12rcd13ifvqem0","pricing_plan_id":"cebpf4jnsgd1na2vs0mg"},{"bike_id":"2f57ac83-c007-4424-ad24-0527ef2a3bf6","system_id":"levelo_inurba_marseille","lat":43.2407,"lon":5.37765,"is_reserved":false,"is_disabled":false,"rental_uris":{"android":"levelo://app?vid=2f57ac83-c007-4424-ad24-0527ef2a3bf6","ios":"levelo://app?vid=2f57ac83-c007-4424-ad24-0527ef2a3bf6"},"vehicle_type_id":"4","last_reported":1748110344,"current_range_meters":8000,"station_id":"ce4bhnp2rcd13ifvqgvg","pricing_plan_id":"cebpf4jnsgd1na2vs0mg"},{"bike_id":"09a76abc-58bc-449b-ada3-bfe181f9de4d","system_id":"levelo_inurba_marseille","lat":43.27315,"lon":5.39092,"is_reserved":false,"is_disabled":false,"rental_uris":{"android":"levelo://app?vid=09a76abc-58bc-449b-ada3-bfe181f9de4d","ios":"levelo://app?vid=09a76abc-58bc-449b-ada3-bfe181f9de4d"},"vehicle_type_id":"4","last_reported":1748110344,"current_range_meters":8400,"station_id":"ce4bhgp2rcd13ifvqfe0","pricing_plan_id":"cebpf4jnsgd1na2vs0mg"},{"bike_id":"7ed4c58b-c8be-4a19-bc42-000a14e3ec67","system_id":"levelo_inurba_marseille","lat":43.29304,"lon":5.37447,"is_reserved":false,"is_disabled":false,"rental_uris":{"android":"levelo://app?vid=7ed4c58b-c8be-4a19-bc42-000a14e3ec67","ios":"levelo://app?vid=7ed4c58b-c8be-4a19-bc42-000a14e3ec67"},"vehicle_type_id":"4","last_reported":1748110344,"current_range_meters":8400,"station_id":"ce4bgi12rcd13ifvqb70","pricing_plan_id":"cebpf4jnsgd1na2vs0mg"},{"bike_id":"a95e9942-17dc-4f45-9378-a08e5f833662","system_id":"levelo_inurba_marseille","lat":43.26194,"lon":5.37448,"is_reserved":false,"is_disabled":false,"rental_uris":{"android":"levelo://app?vid=a95e9942-17dc-4f45-9378-a08e5f833662","ios":"levelo://app?vid=a95e9942-17dc-4f45-9378-a08e5f833662"},"vehicle_type_id":"4","last_reported":1748110344,"current_range_meters":8400,"station_id":"ce4bhgp2rcd13ifvqfc0","pricing_plan_id":"cebpf4jnsgd1na2vs0mg"},{"bike_id":"b1c921d9-4f89-40be-8cc2-2d74f3307c2a","system_id":"levelo_inurba_marseille","lat":43.30423,"lon":5.41285,"is_reserved":false,"is_disabled":false,"rental_uris":{"android":"levelo://app?vid=b1c921d9-4f89-40be-8cc2-2d74f3307c2a","ios":"levelo://app?vid=b1c921d9-4f89-40be-8cc2-2d74f3307c2a"},"vehicle_type_id":"4","last_reported":1748110344,"current_range_meters":8400,"station_id":"ce4bhop2rcd13ifvqh8g","pricing_plan_id":"cebpf4jnsgd1na2vs0mg"},{"bike_id":"064fe6d0-fadb-4f33-8b99-6e18d25532e6","system_id":"levelo_inurba_marseille","lat":43.24389,"lon":5.37063,"is_reserved":false,"is_disabled":false,"rental_uris":{"android":"levelo://app?vid=064fe6d0-fadb-4f33-8b99-6e18d25532e6","ios":"levelo://app?vid=064fe6d0-fadb-4f33-8b99-6e18d25532e6"},"vehicle_type_id":"4","last_reported":1748110344,"current_range_meters":8400,"station_id":"ce4bhhh2rcd13ifvqfk0","pricing_plan_id":"cebpf4jnsgd1na2vs0mg"},{"bike_id":"ccf8f055-3943-4d1f-8422-80c8d7e361da","system_id":"levelo_inurba_marseille","lat":43.25844,"lon":5.39403,"is_reserved":false,"is_disabled":false,"rental_uris":{"android":"levelo://app?vid=ccf8f055-3943-4d1f-8422-80c8d7e361da","ios":"levelo://app?vid=ccf8f055-3943-4d1f-8422-80c8d7e361da"},"vehicle_type_id":"4","last_reported":1748110344,"current_range_meters":8400,"station_id":"ce4bhip2rcd13ifvqft0","pricing_plan_id":"cebpf4jnsgd1na2vs0mg"},{"bike_id":"67587c21-29ea-4c08-b28e-827ed5f864c2","system_id":"levelo_inurba_marseille","lat":43.28229,"lon":5.39066,"is_reserved":false,"is_disabled":false,"rental_uris":{"android":"levelo://app?vid=67587c21-29ea-4c08-b28e-827ed5f864c2","ios":"levelo://app?vid=67587c21-29ea-4c08-b28e-827ed5f864c2"},"vehicle_type_id":"4","last_reported":1748110344,"current_range_meters":8400,"station_id":"","pricing_plan_id":"cebpf4jnsgd1na2vs0mg"},{"bike_id":"a2e21d4c-cd20-4682-81d3-7dfcef8f9a89","system_id":"levelo_inurba_marseille","lat":43.246532,"lon":5.388935,"is_reserved":false,"is_disabled":false,"rental_uris":{"android":"levelo://app?vid=a2e21d4c-cd20-4682-81d3-7dfcef8f9a89","ios":"levelo://app?vid=a2e21d4c-cd20-4682-81d3-7dfcef8f9a89"},"vehicle_type_id":"4","last_reported":1748110344,"current_range_meters":8400,"station_id":"ce4bhg12rcd13ifvqf60","pricing_plan_id":"cebpf4jnsgd1na2vs0mg"},{"bike_id":"a17a842f-ba04-4d0e-9f38-09b9d8144085","system_id":"levelo_inurba_marseille","lat":43.26946,"lon":5.40261,"is_reserved":false,"is_disabled":true,"rental_uris":{"android":"levelo://app?vid=a17a842f-ba04-4d0e-9f38-09b9d8144085","ios":"levelo://app?vid=a17a842f-ba04-4d0e-9f38-09b9d8144085"},"vehicle_type_id":"4","last_reported":1748110344,"current_range_meters":8400,"station_id":"cjm6bp8fraef2m0cb0m0","pricing_plan_id":"cebpf4jnsgd1na2vs0mg"},{"bike_id":"1491cbd9-1206-4cb4-902e-37ef727e577b","system_id":"levelo_inurba_marseille","lat":43.23198,"lon":5.35551,"is_reserved":false,"is_disabled":false,"rental_uris":{"android":"levelo://app?vid=1491cbd9-1206-4cb4-902e-37ef727e577b","ios":"levelo://app?vid=1491cbd9-1206-4cb4-902e-37ef727e577b"},"vehicle_type_id":"4","last_reported":1748110344,"current_range_meters":8400,"station_id":"ce4bhu92rcd13ifvqi70","pricing_plan_id":"cebpf4jnsgd1na2vs0mg"},{"bike_id":"c16413fd-5d65-4ca2-8681-abb95bdf2d2a","system_id":"levelo_inurba_marseille","lat":43.30959,"lon":5.37137,"is_reserved":false,"is_disabled":false,"rental_uris":{"android":"levelo://app?vid=c16413fd-5d65-4ca2-8681-abb95bdf2d2a","ios":"levelo://app?vid=c16413fd-5d65-4ca2-8681-abb95bdf2d2a"},"vehicle_type_id":"4","last_reported":1748110344,"current_range_meters":8400,"station_id":"","pricing_plan_id":"cebpf4jnsgd1na2vs0mg"},{"bike_id":"bffaa52c-7481-4a2b-b6e0-8a1cb7a69c73","system_id":"levelo_inurba_marseille","lat":43.24821,"lon":5.37457,"is_reserved":false,"is_disabled":false,"rental_uris":{"android":"levelo://app?vid=bffaa52c-7481-4a2b-b6e0-8a1cb7a69c73","ios":"levelo://app?vid=bffaa52c-7481-4a2b-b6e0-8a1cb7a69c73"},"vehicle_type_id":"4","last_reported":1748110344,"current_range_meters":8800,"station_id":"ce4bhgh2rcd13ifvqfb0","pricing_plan_id":"cebpf4jnsgd1na2vs0mg"},{"bike_id":"e9c5aebf-4937-4b4d-8e86-697aaba43c9c","system_id":"levelo_inurba_marseille","lat":43.26944,"lon":5.40245,"is_reserved":false,"is_disabled":false,"rental_uris":{"android":"levelo://app?vid=e9c5aebf-4937-4b4d-8e86-697aaba43c9c","ios":"levelo://app?vid=e9c5aebf-4937-4b4d-8e86-697aaba43c9c"},"vehicle_type_id":"4","last_reported":1748110344,"current_range_meters":8800,"station_id":"cjm6bp8fraef2m0cb0m0","pricing_plan_id":"cebpf4jnsgd1na2vs0mg"},{"bike_id":"09a465a7-ac91-4cce-925e-7ee5c79c6819","system_id":"levelo_inurba_marseille","lat":43.2732,"lon":5.3911,"is_reserved":false,"is_disabled":false,"rental_uris":{"android":"levelo://app?vid=09a465a7-ac91-4cce-925e-7ee5c79c6819","ios":"levelo://app?vid=09a465a7-ac91-4cce-925e-7ee5c79c6819"},"vehicle_type_id":"4","last_reported":1748110344,"current_range_meters":8800,"station_id":"ce4bhgp2rcd13ifvqfe0","pricing_plan_id":"cebpf4jnsgd1na2vs0mg"},{"bike_id":"14fd8039-418e-4d0a-9e55-017ab81c1a19","system_id":"levelo_inurba_marseille","lat":43.295541,"lon":5.37495,"is_reserved":false,"is_disabled":false,"rental_uris":{"android":"levelo://app?vid=14fd8039-418e-4d0a-9e55-017ab81c1a19","ios":"levelo://app?vid=14fd8039-418e-4d0a-9e55-017ab81c1a19"},"vehicle_type_id":"4","last_reported":1748110344,"current_range_meters":8400,"station_id":"ce4bgph2rcd13ifvqc2g","pricing_plan_id":"cebpf4jnsgd1na2vs0mg"},{"bike_id":"72270482-a714-494d-986f-563ee83b8ef7","system_id":"levelo_inurba_marseille","lat":43.287,"lon":5.37384,"is_reserved":false,"is_disabled":false,"rental_uris":{"android":"levelo://app?vid=72270482-a714-494d-986f-563ee83b8ef7","ios":"levelo://app?vid=72270482-a714-494d-986f-563ee83b8ef7"},"vehicle_type_id":"4","last_reported":1748110344,"current_range_meters":9200,"station_id":"ce4bh3p2rcd13ifvqdq0","pricing_plan_id":"cebpf4jnsgd1na2vs0mg"},{"bike_id":"57d3f697-0606-47c6-bf97-482d6a1b5410","system_id":"levelo_inurba_marseille","lat":43.24662,"lon":5.38168,"is_reserved":false,"is_disabled":false,"rental_uris":{"android":"levelo://app?vid=57d3f697-0606-47c6-bf97-482d6a1b5410","ios":"levelo://app?vid=57d3f697-0606-47c6-bf97-482d6a1b5410"},"vehicle_type_id":"4","last_reported":1748110344,"current_range_meters":8800,"station_id":"ce4bhih2rcd13ifvqfr0","pricing_plan_id":"cebpf4jnsgd1na2vs0mg"},{"bike_id":"40d5f5df-f4a7-41a4-b16d-63484ff0379d","system_id":"levelo_inurba_marseille","lat":43.30914,"lon":5.40166,"is_reserved":false,"is_disabled":true,"rental_uris":{"android":"levelo://app?vid=40d5f5df-f4a7-41a4-b16d-63484ff0379d","ios":"levelo://app?vid=40d5f5df-f4a7-41a4-b16d-63484ff0379d"},"vehicle_type_id":"4","last_reported":1748110344,"current_range_meters":8800,"station_id":"ce4bgvp2rcd13ifvqct0","pricing_plan_id":"cebpf4jnsgd1na2vs0mg"},{"bike_id":"49ccdfe4-faac-416b-9940-7ab4cd22ed1c","system_id":"levelo_inurba_marseille","lat":43.26936,"lon":5.402483,"is_reserved":false,"is_disabled":false,"rental_uris":{"android":"levelo://app?vid=49ccdfe4-faac-416b-9940-7ab4cd22ed1c","ios":"levelo://app?vid=49ccdfe4-faac-416b-9940-7ab4cd22ed1c"},"vehicle_type_id":"4","last_reported":1748110344,"current_range_meters":8800,"station_id":"cjm6bp8fraef2m0cb0m0","pricing_plan_id":"cebpf4jnsgd1na2vs0mg"},{"bike_id":"a5423f4f-4f14-4a68-9cf4-6752ff0c031e","system_id":"levelo_inurba_marseille","lat":43.27218,"lon":5.39198,"is_reserved":false,"is_disabled":false,"rental_uris":{"android":"levelo://app?vid=a5423f4f-4f14-4a68-9cf4-6752ff0c031e","ios":"levelo://app?vid=a5423f4f-4f14-4a68-9cf4-6752ff0c031e"},"vehicle_type_id":"4","last_reported":1748110344,"current_range_meters":9200,"station_id":"ce4bhhp2rcd13ifvqfm0","pricing_plan_id":"cebpf4jnsgd1na2vs0mg"},{"bike_id":"9210ff53-6c6a-4c6e-8a73-c7288ea771ae","system_id":"levelo_inurba_marseille","lat":43.24664,"lon":5.38163,"is_reserved":false,"is_disabled":false,"rental_uris":{"android":"levelo://app?vid=9210ff53-6c6a-4c6e-8a73-c7288ea771ae","ios":"levelo://app?vid=9210ff53-6c6a-4c6e-8a73-c7288ea771ae"},"vehicle_type_id":"4","last_reported":1748110344,"current_range_meters":9200,"station_id":"ce4bhih2rcd13ifvqfr0","pricing_plan_id":"cebpf4jnsgd1na2vs0mg"},{"bike_id":"956a5acc-12ac-46a5-8287-686092c1108b","system_id":"levelo_inurba_marseille","lat":43.24802,"lon":5.37452,"is_reserved":false,"is_disabled":false,"rental_uris":{"android":"levelo://app?vid=956a5acc-12ac-46a5-8287-686092c1108b","ios":"levelo://app?vid=956a5acc-12ac-46a5-8287-686092c1108b"},"vehicle_type_id":"4","last_reported":1748110344,"current_range_meters":9200,"station_id":"ce4bhgh2rcd13ifvqfb0","pricing_plan_id":"cebpf4jnsgd1na2vs0mg"},{"bike_id":"8a0258dd-003e-46c0-9fd4-9184547411ba","system_id":"levelo_inurba_marseille","lat":43.27213,"lon":5.39179,"is_reserved":false,"is_disabled":false,"rental_uris":{"android":"levelo://app?vid=8a0258dd-003e-46c0-9fd4-9184547411ba","ios":"levelo://app?vid=8a0258dd-003e-46c0-9fd4-9184547411ba"},"vehicle_type_id":"4","last_reported":1748110344,"current_range_meters":9200,"station_id":"ce4bhhp2rcd13ifvqfm0","pricing_plan_id":"cebpf4jnsgd1na2vs0mg"},{"bike_id":"d72f9e25-93cf-4944-8268-d7d71c95cfed","system_id":"levelo_inurba_marseille","lat":43.282995,"lon":5.36166,"is_reserved":false,"is_disabled":false,"rental_uris":{"android":"levelo://app?vid=d72f9e25-93cf-4944-8268-d7d71c95cfed","ios":"levelo://app?vid=d72f9e25-93cf-4944-8268-d7d71c95cfed"},"vehicle_type_id":"4","last_reported":1748110344,"current_range_meters":800,"station_id":"ce4bhbh2rcd13ifvqeo0","pricing_plan_id":"cebpf4jnsgd1na2vs0mg"},{"bike_id":"432873ff-18d3-4764-be60-76afcc5f68d7","system_id":"levelo_inurba_marseille","lat":43.27433,"lon":5.39409,"is_reserved":false,"is_disabled":false,"rental_uris":{"android":"levelo://app?vid=432873ff-18d3-4764-be60-76afcc5f68d7","ios":"levelo://app?vid=432873ff-18d3-4764-be60-76afcc5f68d7"},"vehicle_type_id":"4","last_reported":1748110344,"current_range_meters":9200,"station_id":"ce4bhdp2rcd13ifvqf20","pricing_plan_id":"cebpf4jnsgd1na2vs0mg"},{"bike_id":"a0266583-7b56-4b29-9caa-498cb983b63a","system_id":"levelo_inurba_marseille","lat":43.26487,"lon":5.3956,"is_reserved":false,"is_disabled":false,"rental_uris":{"android":"levelo://app?vid=a0266583-7b56-4b29-9caa-498cb983b63a","ios":"levelo://app?vid=a0266583-7b56-4b29-9caa-498cb983b63a"},"vehicle_type_id":"4","last_reported":1748110344,"current_range_meters":9200,"station_id":"ce4bhi12rcd13ifvqfq0","pricing_plan_id":"cebpf4jnsgd1na2vs0mg"},{"bike_id":"e1d4dcce-22ad-4d90-8a4c-be76222366c1","system_id":"levelo_inurba_marseille","lat":43.27204,"lon":5.39162,"is_reserved":false,"is_disabled":false,"rental_uris":{"android":"levelo://app?vid=e1d4dcce-22ad-4d90-8a4c-be76222366c1","ios":"levelo://app?vid=e1d4dcce-22ad-4d90-8a4c-be76222366c1"},"vehicle_type_id":"4","last_reported":1748110344,"current_range_meters":9200,"station_id":"ce4bhhp2rcd13ifvqfm0","pricing_plan_id":"cebpf4jnsgd1na2vs0mg"},{"bike_id":"914f5f25-2db6-4404-8d34-36b00b1a8cc7","system_id":"levelo_inurba_marseille","lat":43.30889,"lon":5.39655,"is_reserved":false,"is_disabled":false,"rental_uris":{"android":"levelo://app?vid=914f5f25-2db6-4404-8d34-36b00b1a8cc7","ios":"levelo://app?vid=914f5f25-2db6-4404-8d34-36b00b1a8cc7"},"vehicle_type_id":"4","last_reported":1748110344,"current_range_meters":9200,"station_id":"ce4bh012rcd13ifvqcv0","pricing_plan_id":"cebpf4jnsgd1na2vs0mg"},{"bike_id":"c1b324cb-517c-4e16-b640-09d54aad7693","system_id":"levelo_inurba_marseille","lat":43.25002,"lon":5.38926,"is_reserved":false,"is_disabled":false,"rental_uris":{"android":"levelo://app?vid=c1b324cb-517c-4e16-b640-09d54aad7693","ios":"levelo://app?vid=c1b324cb-517c-4e16-b640-09d54aad7693"},"vehicle_type_id":"4","last_reported":1748110344,"current_range_meters":8800,"station_id":"ce4bhgp2rcd13ifvqfd0","pricing_plan_id":"cebpf4jnsgd1na2vs0mg"},{"bike_id":"3581c28c-41f2-4cb7-b494-0448776c0438","system_id":"levelo_inurba_marseille","lat":43.2964,"lon":5.36062,"is_reserved":false,"is_disabled":false,"rental_uris":{"android":"levelo://app?vid=3581c28c-41f2-4cb7-b494-0448776c0438","ios":"levelo://app?vid=3581c28c-41f2-4cb7-b494-0448776c0438"},"vehicle_type_id":"4","last_reported":1748110344,"current_range_meters":9600,"station_id":"","pricing_plan_id":"cebpf4jnsgd1na2vs0mg"},{"bike_id":"9c04471d-65f9-4e9d-8e05-8598293aa050","system_id":"levelo_inurba_marseille","lat":43.26559,"lon":5.39011,"is_reserved":false,"is_disabled":false,"rental_uris":{"android":"levelo://app?vid=9c04471d-65f9-4e9d-8e05-8598293aa050","ios":"levelo://app?vid=9c04471d-65f9-4e9d-8e05-8598293aa050"},"vehicle_type_id":"4","last_reported":1748110344,"current_range_meters":9600,"station_id":"ce4bhe12rcd13ifvqf30","pricing_plan_id":"cebpf4jnsgd1na2vs0mg"},{"bike_id":"52269cbf-94f1-4b3a-a7ea-52e773ac04c5","system_id":"levelo_inurba_marseille","lat":43.25543,"lon":5.38228,"is_reserved":false,"is_disabled":false,"rental_uris":{"android":"levelo://app?vid=52269cbf-94f1-4b3a-a7ea-52e773ac04c5","ios":"levelo://app?vid=52269cbf-94f1-4b3a-a7ea-52e773ac04c5"},"vehicle_type_id":"4","last_reported":1748110344,"current_range_meters":9600,"station_id":"ce4bhih2rcd13ifvqfs0","pricing_plan_id":"cebpf4jnsgd1na2vs0mg"},{"bike_id":"21cb2ebd-edd5-4e19-abb9-7b7886c531e7","system_id":"levelo_inurba_marseille","lat":43.27564,"lon":5.38425,"is_reserved":false,"is_disabled":false,"rental_uris":{"android":"levelo://app?vid=21cb2ebd-edd5-4e19-abb9-7b7886c531e7","ios":"levelo://app?vid=21cb2ebd-edd5-4e19-abb9-7b7886c531e7"},"vehicle_type_id":"4","last_reported":1748110344,"current_range_meters":9600,"station_id":"ce4bhh92rcd13ifvqfi0","pricing_plan_id":"cebpf4jnsgd1na2vs0mg"},{"bike_id":"3e9caa85-ac18-4d8f-ba64-999ec8d54998","system_id":"levelo_inurba_marseille","lat":43.29051,"lon":5.35915,"is_reserved":false,"is_disabled":false,"rental_uris":{"android":"levelo://app?vid=3e9caa85-ac18-4d8f-ba64-999ec8d54998","ios":"levelo://app?vid=3e9caa85-ac18-4d8f-ba64-999ec8d54998"},"vehicle_type_id":"4","last_reported":1748110344,"current_range_meters":9200,"station_id":"ce4bha92rcd13ifvqeg0","pricing_plan_id":"cebpf4jnsgd1na2vs0mg"},{"bike_id":"e7cc1d05-6ad1-42ca-9c56-beae9b9e973f","system_id":"levelo_inurba_marseille","lat":43.260284,"lon":5.375482,"is_reserved":false,"is_disabled":false,"rental_uris":{"android":"levelo://app?vid=e7cc1d05-6ad1-42ca-9c56-beae9b9e973f","ios":"levelo://app?vid=e7cc1d05-6ad1-42ca-9c56-beae9b9e973f"},"vehicle_type_id":"4","last_reported":1748110344,"current_range_meters":9600,"station_id":"ce4bhgh2rcd13ifvqfa0","pricing_plan_id":"cebpf4jnsgd1na2vs0mg"},{"bike_id":"94477d1e-6ec7-4a30-8a29-b13313f486bb","system_id":"levelo_inurba_marseille","lat":43.24388,"lon":5.37058,"is_reserved":false,"is_disabled":false,"rental_uris":{"android":"levelo://app?vid=94477d1e-6ec7-4a30-8a29-b13313f486bb","ios":"levelo://app?vid=94477d1e-6ec7-4a30-8a29-b13313f486bb"},"vehicle_type_id":"4","last_reported":1748110344,"current_range_meters":9200,"station_id":"ce4bhhh2rcd13ifvqfk0","pricing_plan_id":"cebpf4jnsgd1na2vs0mg"},{"bike_id":"45735141-3bc1-48e7-8de4-4ffafc20e572","system_id":"levelo_inurba_marseille","lat":43.28857,"lon":5.35857,"is_reserved":false,"is_disabled":false,"rental_uris":{"android":"levelo://app?vid=45735141-3bc1-48e7-8de4-4ffafc20e572","ios":"levelo://app?vid=45735141-3bc1-48e7-8de4-4ffafc20e572"},"vehicle_type_id":"4","last_reported":1748110344,"current_range_meters":9200,"station_id":"ce4bhb12rcd13ifvqem0","pricing_plan_id":"cebpf4jnsgd1na2vs0mg"},{"bike_id":"7c7681ca-6b6f-44d0-b646-bff553a2c6f1","system_id":"levelo_inurba_marseille","lat":43.29536,"lon":5.38537,"is_reserved":false,"is_disabled":false,"rental_uris":{"android":"levelo://app?vid=7c7681ca-6b6f-44d0-b646-bff553a2c6f1","ios":"levelo://app?vid=7c7681ca-6b6f-44d0-b646-bff553a2c6f1"},"vehicle_type_id":"4","last_reported":1748110344,"current_range_meters":9600,"station_id":"ce4bgih2rcd13ifvqba0","pricing_plan_id":"cebpf4jnsgd1na2vs0mg"},{"bike_id":"1f3fa031-37bb-44a3-b071-fbfce6244287","system_id":"levelo_inurba_marseille","lat":43.27061,"lon":5.40251,"is_reserved":false,"is_disabled":false,"rental_uris":{"android":"levelo://app?vid=1f3fa031-37bb-44a3-b071-fbfce6244287","ios":"levelo://app?vid=1f3fa031-37bb-44a3-b071-fbfce6244287"},"vehicle_type_id":"4","last_reported":1748110344,"current_range_meters":9600,"station_id":"ce4bhk92rcd13ifvqgc0","pricing_plan_id":"cebpf4jnsgd1na2vs0mg"},{"bike_id":"feba3523-f394-4f15-9af9-470014fa7483","system_id":"levelo_inurba_marseille","lat":43.27041,"lon":5.40273,"is_reserved":false,"is_disabled":false,"rental_uris":{"android":"levelo://app?vid=feba3523-f394-4f15-9af9-470014fa7483","ios":"levelo://app?vid=feba3523-f394-4f15-9af9-470014fa7483"},"vehicle_type_id":"4","last_reported":1748110344,"current_range_meters":9600,"station_id":"ce4bhk92rcd13ifvqgc0","pricing_plan_id":"cebpf4jnsgd1na2vs0mg"},{"bike_id":"9e10a5b8-5080-4f7e-8499-b14ca29da876","system_id":"levelo_inurba_marseille","lat":43.29006,"lon":5.356153,"is_reserved":false,"is_disabled":true,"rental_uris":{"android":"levelo://app?vid=9e10a5b8-5080-4f7e-8499-b14ca29da876","ios":"levelo://app?vid=9e10a5b8-5080-4f7e-8499-b14ca29da876"},"vehicle_type_id":"4","last_reported":1748110344,"current_range_meters":10000,"station_id":"ce4bhb92rcd13ifvqen0","pricing_plan_id":"cebpf4jnsgd1na2vs0mg"},{"bike_id":"fc8c72ad-ca61-42c6-ae90-f61b57e45328","system_id":"levelo_inurba_marseille","lat":43.27902,"lon":5.41872,"is_reserved":false,"is_disabled":false,"rental_uris":{"android":"levelo://app?vid=fc8c72ad-ca61-42c6-ae90-f61b57e45328","ios":"levelo://app?vid=fc8c72ad-ca61-42c6-ae90-f61b57e45328"},"vehicle_type_id":"4","last_reported":1748110344,"current_range_meters":10000,"station_id":"","pricing_plan_id":"cebpf4jnsgd1na2vs0mg"},{"bike_id":"3f6e0c63-7532-4344-a7c3-77443d0e02fb","system_id":"levelo_inurba_marseille","lat":43.25839,"lon":5.39907,"is_reserved":false,"is_disabled":true,"rental_uris":{"android":"levelo://app?vid=3f6e0c63-7532-4344-a7c3-77443d0e02fb","ios":"levelo://app?vid=3f6e0c63-7532-4344-a7c3-77443d0e02fb"},"vehicle_type_id":"4","last_reported":1748110344,"current_range_meters":10000,"station_id":"ce4bhl92rcd13ifvqghg","pricing_plan_id":"cebpf4jnsgd1na2vs0mg"},{"bike_id":"d233e8c8-39f0-4ad7-b9ae-c0a68e5c8718","system_id":"levelo_inurba_marseille","lat":43.26939,"lon":5.40248,"is_reserved":false,"is_disabled":false,"rental_uris":{"android":"levelo://app?vid=d233e8c8-39f0-4ad7-b9ae-c0a68e5c8718","ios":"levelo://app?vid=d233e8c8-39f0-4ad7-b9ae-c0a68e5c8718"},"vehicle_type_id":"4","last_reported":1748110344,"current_range_meters":10000,"station_id":"cjm6bp8fraef2m0cb0m0","pricing_plan_id":"cebpf4jnsgd1na2vs0mg"},{"bike_id":"bb324967-99d9-4176-a819-28d8c39bb5be","system_id":"levelo_inurba_marseille","lat":43.29313,"lon":5.37178,"is_reserved":false,"is_disabled":false,"rental_uris":{"android":"levelo://app?vid=bb324967-99d9-4176-a819-28d8c39bb5be","ios":"levelo://app?vid=bb324967-99d9-4176-a819-28d8c39bb5be"},"vehicle_type_id":"4","last_reported":1748110344,"current_range_meters":10800,"station_id":"ce4bgh92rcd13ifvqb40","pricing_plan_id":"cebpf4jnsgd1na2vs0mg"},{"bike_id":"8abbfd48-bdba-4a06-b83b-d2640fa479f2","system_id":"levelo_inurba_marseille","lat":43.262,"lon":5.374448,"is_reserved":false,"is_disabled":false,"rental_uris":{"android":"levelo://app?vid=8abbfd48-bdba-4a06-b83b-d2640fa479f2","ios":"levelo://app?vid=8abbfd48-bdba-4a06-b83b-d2640fa479f2"},"vehicle_type_id":"4","last_reported":1748110344,"current_range_meters":10000,"station_id":"ce4bhgp2rcd13ifvqfc0","pricing_plan_id":"cebpf4jnsgd1na2vs0mg"},{"bike_id":"40572cad-a796-4f87-a02c-44bcfdb01f65","system_id":"levelo_inurba_marseille","lat":43.273422,"lon":5.361547,"is_reserved":false,"is_disabled":false,"rental_uris":{"android":"levelo://app?vid=40572cad-a796-4f87-a02c-44bcfdb01f65","ios":"levelo://app?vid=40572cad-a796-4f87-a02c-44bcfdb01f65"},"vehicle_type_id":"4","last_reported":1748110344,"current_range_meters":10000,"station_id":"","pricing_plan_id":"cebpf4jnsgd1na2vs0mg"},{"bike_id":"5928a86c-ab14-4082-9502-09d229eb4970","system_id":"levelo_inurba_marseille","lat":43.26029,"lon":5.37549,"is_reserved":false,"is_disabled":false,"rental_uris":{"android":"levelo://app?vid=5928a86c-ab14-4082-9502-09d229eb4970","ios":"levelo://app?vid=5928a86c-ab14-4082-9502-09d229eb4970"},"vehicle_type_id":"4","last_reported":1748110344,"current_range_meters":9600,"station_id":"ce4bhgh2rcd13ifvqfa0","pricing_plan_id":"cebpf4jnsgd1na2vs0mg"},{"bike_id":"1817a2fe-910c-42b5-86a9-1233a73f9b3c","system_id":"levelo_inurba_marseille","lat":43.25835,"lon":5.39441,"is_reserved":false,"is_disabled":false,"rental_uris":{"android":"levelo://app?vid=1817a2fe-910c-42b5-86a9-1233a73f9b3c","ios":"levelo://app?vid=1817a2fe-910c-42b5-86a9-1233a73f9b3c"},"vehicle_type_id":"4","last_reported":1748110344,"current_range_meters":9600,"station_id":"ce4bhip2rcd13ifvqft0","pricing_plan_id":"cebpf4jnsgd1na2vs0mg"},{"bike_id":"5afb7f4c-a02f-4c8d-a66a-2469997e971f","system_id":"levelo_inurba_marseille","lat":43.28999,"lon":5.3562,"is_reserved":false,"is_disabled":false,"rental_uris":{"android":"levelo://app?vid=5afb7f4c-a02f-4c8d-a66a-2469997e971f","ios":"levelo://app?vid=5afb7f4c-a02f-4c8d-a66a-2469997e971f"},"vehicle_type_id":"4","last_reported":1748110344,"current_range_meters":10000,"station_id":"ce4bhb92rcd13ifvqen0","pricing_plan_id":"cebpf4jnsgd1na2vs0mg"},{"bike_id":"bc8ec999-f411-4caa-830d-f6a2d5caf3cb","system_id":"levelo_inurba_marseille","lat":43.26482,"lon":5.39562,"is_reserved":false,"is_disabled":false,"rental_uris":{"android":"levelo://app?vid=bc8ec999-f411-4caa-830d-f6a2d5caf3cb","ios":"levelo://app?vid=bc8ec999-f411-4caa-830d-f6a2d5caf3cb"},"vehicle_type_id":"4","last_reported":1748110344,"current_range_meters":10000,"station_id":"ce4bhi12rcd13ifvqfq0","pricing_plan_id":"cebpf4jnsgd1na2vs0mg"},{"bike_id":"66757b66-fe71-4178-8fb6-0e2baa0c8743","system_id":"levelo_inurba_marseille","lat":43.26779,"lon":5.39419,"is_reserved":false,"is_disabled":false,"rental_uris":{"android":"levelo://app?vid=66757b66-fe71-4178-8fb6-0e2baa0c8743","ios":"levelo://app?vid=66757b66-fe71-4178-8fb6-0e2baa0c8743"},"vehicle_type_id":"4","last_reported":1748110344,"current_range_meters":10800,"station_id":"ce4bhh12rcd13ifvqfg0","pricing_plan_id":"cebpf4jnsgd1na2vs0mg"},{"bike_id":"801d22cc-eff0-42bf-bde2-e2afb73ff53e","system_id":"levelo_inurba_marseille","lat":43.30545,"lon":5.36558,"is_reserved":false,"is_disabled":false,"rental_uris":{"android":"levelo://app?vid=801d22cc-eff0-42bf-bde2-e2afb73ff53e","ios":"levelo://app?vid=801d22cc-eff0-42bf-bde2-e2afb73ff53e"},"vehicle_type_id":"4","last_reported":1748110344,"current_range_meters":10800,"station_id":"ce4bgs12rcd13ifvqcag","pricing_plan_id":"cebpf4jnsgd1na2vs0mg"},{"bike_id":"87b8832c-df79-41dd-927d-c8f335a755c3","system_id":"levelo_inurba_marseille","lat":43.25573,"lon":5.38221,"is_reserved":false,"is_disabled":false,"rental_uris":{"android":"levelo://app?vid=87b8832c-df79-41dd-927d-c8f335a755c3","ios":"levelo://app?vid=87b8832c-df79-41dd-927d-c8f335a755c3"},"vehicle_type_id":"4","last_reported":1748110344,"current_range_meters":10800,"station_id":"ce4bhih2rcd13ifvqfs0","pricing_plan_id":"cebpf4jnsgd1na2vs0mg"},{"bike_id":"aa2aee6c-d5a2-4b33-bb06-2abf49f421ae","system_id":"levelo_inurba_marseille","lat":43.28471,"lon":5.38417,"is_reserved":false,"is_disabled":true,"rental_uris":{"android":"levelo://app?vid=aa2aee6c-d5a2-4b33-bb06-2abf49f421ae","ios":"levelo://app?vid=aa2aee6c-d5a2-4b33-bb06-2abf49f421ae"},"vehicle_type_id":"4","last_reported":1748110344,"current_range_meters":10800,"station_id":"ce4bh512rcd13ifvqe3g","pricing_plan_id":"cebpf4jnsgd1na2vs0mg"},{"bike_id":"631364b9-4f5e-4cc8-8e04-6ec26ba24d61","system_id":"levelo_inurba_marseille","lat":43.30134,"lon":5.38783,"is_reserved":false,"is_disabled":true,"rental_uris":{"android":"levelo://app?vid=631364b9-4f5e-4cc8-8e04-6ec26ba24d61","ios":"levelo://app?vid=631364b9-4f5e-4cc8-8e04-6ec26ba24d61"},"vehicle_type_id":"4","last_reported":1748110344,"current_range_meters":10800,"station_id":"ce4bghh2rcd13ifvqb60","pricing_plan_id":"cebpf4jnsgd1na2vs0mg"},{"bike_id":"59c0f53e-2435-4973-b338-4d5ad79c7d38","system_id":"levelo_inurba_marseille","lat":43.27298,"lon":5.39104,"is_reserved":false,"is_disabled":false,"rental_uris":{"android":"levelo://app?vid=59c0f53e-2435-4973-b338-4d5ad79c7d38","ios":"levelo://app?vid=59c0f53e-2435-4973-b338-4d5ad79c7d38"},"vehicle_type_id":"4","last_reported":1748110344,"current_range_meters":10800,"station_id":"ce4bhgp2rcd13ifvqfe0","pricing_plan_id":"cebpf4jnsgd1na2vs0mg"},{"bike_id":"76e24c60-9ebe-4c30-a78d-4593316042ba","system_id":"levelo_inurba_marseille","lat":43.296251,"lon":5.377002,"is_reserved":false,"is_disabled":false,"rental_uris":{"android":"levelo://app?vid=76e24c60-9ebe-4c30-a78d-4593316042ba","ios":"levelo://app?vid=76e24c60-9ebe-4c30-a78d-4593316042ba"},"vehicle_type_id":"4","last_reported":1748110344,"current_range_meters":10800,"station_id":"","pricing_plan_id":"cebpf4jnsgd1na2vs0mg"},{"bike_id":"c0b51b19-5a3c-47b6-a728-20e9b0d3fca2","system_id":"levelo_inurba_marseille","lat":43.21755,"lon":5.34601,"is_reserved":false,"is_disabled":true,"rental_uris":{"android":"levelo://app?vid=c0b51b19-5a3c-47b6-a728-20e9b0d3fca2","ios":"levelo://app?vid=c0b51b19-5a3c-47b6-a728-20e9b0d3fca2"},"vehicle_type_id":"4","last_reported":1748110344,"current_range_meters":10800,"station_id":"st_cvj6r9ubvosntc0bgbag","pricing_plan_id":"cebpf4jnsgd1na2vs0mg"},{"bike_id":"88341afe-613c-4311-9e81-9e9b5ae9584d","system_id":"levelo_inurba_marseille","lat":43.24391,"lon":5.37059,"is_reserved":false,"is_disabled":false,"rental_uris":{"android":"levelo://app?vid=88341afe-613c-4311-9e81-9e9b5ae9584d","ios":"levelo://app?vid=88341afe-613c-4311-9e81-9e9b5ae9584d"},"vehicle_type_id":"4","last_reported":1748110344,"current_range_meters":11200,"station_id":"ce4bhhh2rcd13ifvqfk0","pricing_plan_id":"cebpf4jnsgd1na2vs0mg"},{"bike_id":"9546d1ab-1ccb-4fe0-8b3b-7ffc67927051","system_id":"levelo_inurba_marseille","lat":43.28936,"lon":5.3664,"is_reserved":false,"is_disabled":true,"rental_uris":{"android":"levelo://app?vid=9546d1ab-1ccb-4fe0-8b3b-7ffc67927051","ios":"levelo://app?vid=9546d1ab-1ccb-4fe0-8b3b-7ffc67927051"},"vehicle_type_id":"4","last_reported":1748110344,"current_range_meters":11200,"station_id":"ce4bhap2rcd13ifvqek0","pricing_plan_id":"cebpf4jnsgd1na2vs0mg"},{"bike_id":"2d46f1f9-d507-4478-b340-8ab8fbc08da6","system_id":"levelo_inurba_marseille","lat":43.27193,"lon":5.39176,"is_reserved":false,"is_disabled":false,"rental_uris":{"android":"levelo://app?vid=2d46f1f9-d507-4478-b340-8ab8fbc08da6","ios":"levelo://app?vid=2d46f1f9-d507-4478-b340-8ab8fbc08da6"},"vehicle_type_id":"4","last_reported":1748110344,"current_range_meters":11200,"station_id":"ce4bhhp2rcd13ifvqfm0","pricing_plan_id":"cebpf4jnsgd1na2vs0mg"},{"bike_id":"4d108f30-1442-43b8-9a32-d682553fa3d9","system_id":"levelo_inurba_marseille","lat":43.301706,"lon":5.369763,"is_reserved":false,"is_disabled":false,"rental_uris":{"android":"levelo://app?vid=4d108f30-1442-43b8-9a32-d682553fa3d9","ios":"levelo://app?vid=4d108f30-1442-43b8-9a32-d682553fa3d9"},"vehicle_type_id":"4","last_reported":1748110344,"current_range_meters":11200,"station_id":"ce4bgn92rcd13ifvqbvg","pricing_plan_id":"cebpf4jnsgd1na2vs0mg"},{"bike_id":"87985f4d-64ef-4af9-87d6-b355cd19a5b3","system_id":"levelo_inurba_marseille","lat":43.24173,"lon":5.36399,"is_reserved":false,"is_disabled":false,"rental_uris":{"android":"levelo://app?vid=87985f4d-64ef-4af9-87d6-b355cd19a5b3","ios":"levelo://app?vid=87985f4d-64ef-4af9-87d6-b355cd19a5b3"},"vehicle_type_id":"4","last_reported":1748110344,"current_range_meters":11200,"station_id":"cpo36qri1sfpv3e86is0","pricing_plan_id":"cebpf4jnsgd1na2vs0mg"},{"bike_id":"9e9eaedf-7a17-4996-aadf-ebd2c90aa2e8","system_id":"levelo_inurba_marseille","lat":43.27055,"lon":5.40257,"is_reserved":false,"is_disabled":false,"rental_uris":{"android":"levelo://app?vid=9e9eaedf-7a17-4996-aadf-ebd2c90aa2e8","ios":"levelo://app?vid=9e9eaedf-7a17-4996-aadf-ebd2c90aa2e8"},"vehicle_type_id":"4","last_reported":1748110344,"current_range_meters":11200,"station_id":"ce4bhk92rcd13ifvqgc0","pricing_plan_id":"cebpf4jnsgd1na2vs0mg"},{"bike_id":"300e2256-46f0-4679-9a9a-4795f5309c2e","system_id":"levelo_inurba_marseille","lat":43.29853,"lon":5.36284,"is_reserved":false,"is_disabled":false,"rental_uris":{"android":"levelo://app?vid=300e2256-46f0-4679-9a9a-4795f5309c2e","ios":"levelo://app?vid=300e2256-46f0-4679-9a9a-4795f5309c2e"},"vehicle_type_id":"4","last_reported":1748110344,"current_range_meters":11200,"station_id":"ce4bgpp2rcd13ifvqc3g","pricing_plan_id":"cebpf4jnsgd1na2vs0mg"},{"bike_id":"91a058ef-8850-45e4-8182-0cd9e6d972b9","system_id":"levelo_inurba_marseille","lat":43.30434,"lon":5.39745,"is_reserved":false,"is_disabled":false,"rental_uris":{"android":"levelo://app?vid=91a058ef-8850-45e4-8182-0cd9e6d972b9","ios":"levelo://app?vid=91a058ef-8850-45e4-8182-0cd9e6d972b9"},"vehicle_type_id":"4","last_reported":1748110344,"current_range_meters":11600,"station_id":"ce4bh092rcd13ifvqd20","pricing_plan_id":"cebpf4jnsgd1na2vs0mg"},{"bike_id":"3e91385a-815a-42c3-ab6e-ab8e007adafe","system_id":"levelo_inurba_marseille","lat":43.25875,"lon":5.39895,"is_reserved":false,"is_disabled":false,"rental_uris":{"android":"levelo://app?vid=3e91385a-815a-42c3-ab6e-ab8e007adafe","ios":"levelo://app?vid=3e91385a-815a-42c3-ab6e-ab8e007adafe"},"vehicle_type_id":"4","last_reported":1748110344,"current_range_meters":11600,"station_id":"ce4bhl92rcd13ifvqghg","pricing_plan_id":"cebpf4jnsgd1na2vs0mg"},{"bike_id":"41e8aa44-92d2-486b-a6d4-64aef19385db","system_id":"levelo_inurba_marseille","lat":43.255799,"lon":5.382382,"is_reserved":false,"is_disabled":false,"rental_uris":{"android":"levelo://app?vid=41e8aa44-92d2-486b-a6d4-64aef19385db","ios":"levelo://app?vid=41e8aa44-92d2-486b-a6d4-64aef19385db"},"vehicle_type_id":"4","last_reported":1748110344,"current_range_meters":11600,"station_id":"ce4bhih2rcd13ifvqfs0","pricing_plan_id":"cebpf4jnsgd1na2vs0mg"},{"bike_id":"88ac5a91-56d3-4573-b0f2-5c6bbb7d986b","system_id":"levelo_inurba_marseille","lat":43.26068,"lon":5.39609,"is_reserved":false,"is_disabled":false,"rental_uris":{"android":"levelo://app?vid=88ac5a91-56d3-4573-b0f2-5c6bbb7d986b","ios":"levelo://app?vid=88ac5a91-56d3-4573-b0f2-5c6bbb7d986b"},"vehicle_type_id":"4","last_reported":1748110344,"current_range_meters":11600,"station_id":"","pricing_plan_id":"cebpf4jnsgd1na2vs0mg"},{"bike_id":"4ab53763-cad2-42da-8cb9-bbc469ba2a37","system_id":"levelo_inurba_marseille","lat":43.24666,"lon":5.38164,"is_reserved":false,"is_disabled":false,"rental_uris":{"android":"levelo://app?vid=4ab53763-cad2-42da-8cb9-bbc469ba2a37","ios":"levelo://app?vid=4ab53763-cad2-42da-8cb9-bbc469ba2a37"},"vehicle_type_id":"4","last_reported":1748110344,"current_range_meters":11600,"station_id":"ce4bhih2rcd13ifvqfr0","pricing_plan_id":"cebpf4jnsgd1na2vs0mg"},{"bike_id":"47129963-fcf1-4c9c-ba90-196862da8cd8","system_id":"levelo_inurba_marseille","lat":43.30252,"lon":5.40079,"is_reserved":false,"is_disabled":false,"rental_uris":{"android":"levelo://app?vid=47129963-fcf1-4c9c-ba90-196862da8cd8","ios":"levelo://app?vid=47129963-fcf1-4c9c-ba90-196862da8cd8"},"vehicle_type_id":"4","last_reported":1748110344,"current_range_meters":11600,"station_id":"ce4bgvh2rcd13ifvqcs0","pricing_plan_id":"cebpf4jnsgd1na2vs0mg"},{"bike_id":"08f2c94c-595a-4892-832c-a2b353e4b108","system_id":"levelo_inurba_marseille","lat":43.27496,"lon":5.42455,"is_reserved":false,"is_disabled":false,"rental_uris":{"android":"levelo://app?vid=08f2c94c-595a-4892-832c-a2b353e4b108","ios":"levelo://app?vid=08f2c94c-595a-4892-832c-a2b353e4b108"},"vehicle_type_id":"4","last_reported":1748110344,"current_range_meters":11600,"station_id":"ce4bhn92rcd13ifvqgrg","pricing_plan_id":"cebpf4jnsgd1na2vs0mg"},{"bike_id":"0ee4abd8-31f5-4b2f-b0b9-318d7620d615","system_id":"levelo_inurba_marseille","lat":43.26942,"lon":5.40254,"is_reserved":false,"is_disabled":false,"rental_uris":{"android":"levelo://app?vid=0ee4abd8-31f5-4b2f-b0b9-318d7620d615","ios":"levelo://app?vid=0ee4abd8-31f5-4b2f-b0b9-318d7620d615"},"vehicle_type_id":"4","last_reported":1748110344,"current_range_meters":11600,"station_id":"cjm6bp8fraef2m0cb0m0","pricing_plan_id":"cebpf4jnsgd1na2vs0mg"},{"bike_id":"a4826ba8-9c69-431b-b3ca-49de8b15cf70","system_id":"levelo_inurba_marseille","lat":43.31692,"lon":5.40471,"is_reserved":false,"is_disabled":false,"rental_uris":{"android":"levelo://app?vid=a4826ba8-9c69-431b-b3ca-49de8b15cf70","ios":"levelo://app?vid=a4826ba8-9c69-431b-b3ca-49de8b15cf70"},"vehicle_type_id":"4","last_reported":1748110344,"current_range_meters":11200,"station_id":"ce4bh012rcd13ifvqd00","pricing_plan_id":"cebpf4jnsgd1na2vs0mg"},{"bike_id":"d88570f3-2641-4dc7-8369-b3a0e3333d38","system_id":"levelo_inurba_marseille","lat":43.295427,"lon":5.385317,"is_reserved":false,"is_disabled":false,"rental_uris":{"android":"levelo://app?vid=d88570f3-2641-4dc7-8369-b3a0e3333d38","ios":"levelo://app?vid=d88570f3-2641-4dc7-8369-b3a0e3333d38"},"vehicle_type_id":"4","last_reported":1748110344,"current_range_meters":12000,"station_id":"ce4bgih2rcd13ifvqba0","pricing_plan_id":"cebpf4jnsgd1na2vs0mg"},{"bike_id":"58436c7b-a8bf-4595-8413-7814d96fe18a","system_id":"levelo_inurba_marseille","lat":43.29219,"lon":5.36073,"is_reserved":false,"is_disabled":false,"rental_uris":{"android":"levelo://app?vid=58436c7b-a8bf-4595-8413-7814d96fe18a","ios":"levelo://app?vid=58436c7b-a8bf-4595-8413-7814d96fe18a"},"vehicle_type_id":"4","last_reported":1748110344,"current_range_meters":12000,"station_id":"ce4bhbh2rcd13ifvqeqg","pricing_plan_id":"cebpf4jnsgd1na2vs0mg"},{"bike_id":"d623052d-a8d7-456d-afd9-3a5c59cb789a","system_id":"levelo_inurba_marseille","lat":43.26212,"lon":5.37438,"is_reserved":false,"is_disabled":false,"rental_uris":{"android":"levelo://app?vid=d623052d-a8d7-456d-afd9-3a5c59cb789a","ios":"levelo://app?vid=d623052d-a8d7-456d-afd9-3a5c59cb789a"},"vehicle_type_id":"4","last_reported":1748110344,"current_range_meters":12000,"station_id":"ce4bhgp2rcd13ifvqfc0","pricing_plan_id":"cebpf4jnsgd1na2vs0mg"},{"bike_id":"171061b3-1094-4aed-8832-5f0762273240","system_id":"levelo_inurba_marseille","lat":43.29227,"lon":5.36065,"is_reserved":false,"is_disabled":true,"rental_uris":{"android":"levelo://app?vid=171061b3-1094-4aed-8832-5f0762273240","ios":"levelo://app?vid=171061b3-1094-4aed-8832-5f0762273240"},"vehicle_type_id":"4","last_reported":1748110344,"current_range_meters":12000,"station_id":"ce4bhbh2rcd13ifvqeqg","pricing_plan_id":"cebpf4jnsgd1na2vs0mg"},{"bike_id":"53a8fa51-7b73-4bc7-923d-43aea42f7a23","system_id":"levelo_inurba_marseille","lat":43.27317,"lon":5.39119,"is_reserved":false,"is_disabled":false,"rental_uris":{"android":"levelo://app?vid=53a8fa51-7b73-4bc7-923d-43aea42f7a23","ios":"levelo://app?vid=53a8fa51-7b73-4bc7-923d-43aea42f7a23"},"vehicle_type_id":"4","last_reported":1748110344,"current_range_meters":12000,"station_id":"ce4bhgp2rcd13ifvqfe0","pricing_plan_id":"cebpf4jnsgd1na2vs0mg"},{"bike_id":"5fa4d087-4685-4f1f-aa5a-3ecc48e1b186","system_id":"levelo_inurba_marseille","lat":43.25005,"lon":5.38929,"is_reserved":false,"is_disabled":false,"rental_uris":{"android":"levelo://app?vid=5fa4d087-4685-4f1f-aa5a-3ecc48e1b186","ios":"levelo://app?vid=5fa4d087-4685-4f1f-aa5a-3ecc48e1b186"},"vehicle_type_id":"4","last_reported":1748110344,"current_range_meters":12000,"station_id":"ce4bhgp2rcd13ifvqfd0","pricing_plan_id":"cebpf4jnsgd1na2vs0mg"},{"bike_id":"6abb9ab4-3976-4e3e-b994-f2f72ee02055","system_id":"levelo_inurba_marseille","lat":43.31554,"lon":5.36571,"is_reserved":false,"is_disabled":false,"rental_uris":{"android":"levelo://app?vid=6abb9ab4-3976-4e3e-b994-f2f72ee02055","ios":"levelo://app?vid=6abb9ab4-3976-4e3e-b994-f2f72ee02055"},"vehicle_type_id":"4","last_reported":1748110344,"current_range_meters":12000,"station_id":"","pricing_plan_id":"cebpf4jnsgd1na2vs0mg"},{"bike_id":"ec2b1caa-7d1e-4c72-b7b5-8f7ea6b1c2de","system_id":"levelo_inurba_marseille","lat":43.26934,"lon":5.4025,"is_reserved":false,"is_disabled":false,"rental_uris":{"android":"levelo://app?vid=ec2b1caa-7d1e-4c72-b7b5-8f7ea6b1c2de","ios":"levelo://app?vid=ec2b1caa-7d1e-4c72-b7b5-8f7ea6b1c2de"},"vehicle_type_id":"4","last_reported":1748110344,"current_range_meters":12000,"station_id":"cjm6bp8fraef2m0cb0m0","pricing_plan_id":"cebpf4jnsgd1na2vs0mg"},{"bike_id":"59a2509b-6a2e-4bc8-aff6-823bbf48f3a1","system_id":"levelo_inurba_marseille","lat":43.26805,"lon":5.40272,"is_reserved":false,"is_disabled":false,"rental_uris":{"android":"levelo://app?vid=59a2509b-6a2e-4bc8-aff6-823bbf48f3a1","ios":"levelo://app?vid=59a2509b-6a2e-4bc8-aff6-823bbf48f3a1"},"vehicle_type_id":"4","last_reported":1748110344,"current_range_meters":12000,"station_id":"ce501612rcd8frsf0b60","pricing_plan_id":"cebpf4jnsgd1na2vs0mg"},{"bike_id":"a6c5e982-82b5-4d93-90aa-e4e0304b0614","system_id":"levelo_inurba_marseille","lat":43.2972,"lon":5.36602,"is_reserved":false,"is_disabled":false,"rental_uris":{"android":"levelo://app?vid=a6c5e982-82b5-4d93-90aa-e4e0304b0614","ios":"levelo://app?vid=a6c5e982-82b5-4d93-90aa-e4e0304b0614"},"vehicle_type_id":"4","last_reported":1748110344,"current_range_meters":12000,"station_id":"ce4bgn12rcd13ifvqbt0","pricing_plan_id":"cebpf4jnsgd1na2vs0mg"},{"bike_id":"b72ccfd1-35cf-4b02-9c1a-90aef7c74e5f","system_id":"levelo_inurba_marseille","lat":43.2486,"lon":5.44195,"is_reserved":false,"is_disabled":false,"rental_uris":{"android":"levelo://app?vid=b72ccfd1-35cf-4b02-9c1a-90aef7c74e5f","ios":"levelo://app?vid=b72ccfd1-35cf-4b02-9c1a-90aef7c74e5f"},"vehicle_type_id":"4","last_reported":1748110344,"current_range_meters":12000,"station_id":"","pricing_plan_id":"cebpf4jnsgd1na2vs0mg"},{"bike_id":"1c2c834d-d7e3-42e2-ace9-3a0546d8f3c0","system_id":"levelo_inurba_marseille","lat":43.27055,"lon":5.40249,"is_reserved":false,"is_disabled":false,"rental_uris":{"android":"levelo://app?vid=1c2c834d-d7e3-42e2-ace9-3a0546d8f3c0","ios":"levelo://app?vid=1c2c834d-d7e3-42e2-ace9-3a0546d8f3c0"},"vehicle_type_id":"4","last_reported":1748110344,"current_range_meters":12000,"station_id":"ce4bhk92rcd13ifvqgc0","pricing_plan_id":"cebpf4jnsgd1na2vs0mg"},{"bike_id":"7bb277c8-8548-47e1-8e29-697ca300a8c0","system_id":"levelo_inurba_marseille","lat":43.230584,"lon":5.354927,"is_reserved":false,"is_disabled":false,"rental_uris":{"android":"levelo://app?vid=7bb277c8-8548-47e1-8e29-697ca300a8c0","ios":"levelo://app?vid=7bb277c8-8548-47e1-8e29-697ca300a8c0"},"vehicle_type_id":"4","last_reported":1748110344,"current_range_meters":12000,"station_id":"cpo3342slgdg3j2ifvpg","pricing_plan_id":"cebpf4jnsgd1na2vs0mg"},{"bike_id":"36d64796-4345-4781-8cc8-70ae0c1a7c68","system_id":"levelo_inurba_marseille","lat":43.27201,"lon":5.39153,"is_reserved":false,"is_disabled":false,"rental_uris":{"android":"levelo://app?vid=36d64796-4345-4781-8cc8-70ae0c1a7c68","ios":"levelo://app?vid=36d64796-4345-4781-8cc8-70ae0c1a7c68"},"vehicle_type_id":"4","last_reported":1748110344,"current_range_meters":12400,"station_id":"ce4bhhp2rcd13ifvqfm0","pricing_plan_id":"cebpf4jnsgd1na2vs0mg"},{"bike_id":"4358211a-66ba-44b2-8377-44f42f066c57","system_id":"levelo_inurba_marseille","lat":43.28716,"lon":5.3999,"is_reserved":false,"is_disabled":false,"rental_uris":{"android":"levelo://app?vid=4358211a-66ba-44b2-8377-44f42f066c57","ios":"levelo://app?vid=4358211a-66ba-44b2-8377-44f42f066c57"},"vehicle_type_id":"4","last_reported":1748110344,"current_range_meters":12400,"station_id":"ce4bho92rcd13ifvqh3g","pricing_plan_id":"cebpf4jnsgd1na2vs0mg"},{"bike_id":"31fd3b90-ecfd-4612-a4af-36fe08f19acd","system_id":"levelo_inurba_marseille","lat":43.25505,"lon":5.37649,"is_reserved":false,"is_disabled":false,"rental_uris":{"android":"levelo://app?vid=31fd3b90-ecfd-4612-a4af-36fe08f19acd","ios":"levelo://app?vid=31fd3b90-ecfd-4612-a4af-36fe08f19acd"},"vehicle_type_id":"4","last_reported":1748110344,"current_range_meters":12400,"station_id":"ce4bhh12rcd13ifvqff0","pricing_plan_id":"cebpf4jnsgd1na2vs0mg"},{"bike_id":"a22d5007-eee9-431a-abd7-039bddc21044","system_id":"levelo_inurba_marseille","lat":43.295331,"lon":5.385524,"is_reserved":false,"is_disabled":false,"rental_uris":{"android":"levelo://app?vid=a22d5007-eee9-431a-abd7-039bddc21044","ios":"levelo://app?vid=a22d5007-eee9-431a-abd7-039bddc21044"},"vehicle_type_id":"4","last_reported":1748110344,"current_range_meters":12000,"station_id":"ce4bgih2rcd13ifvqba0","pricing_plan_id":"cebpf4jnsgd1na2vs0mg"},{"bike_id":"c14595c7-b3d1-40b3-857c-24ea375daf6c","system_id":"levelo_inurba_marseille","lat":43.3089,"lon":5.37193,"is_reserved":false,"is_disabled":false,"rental_uris":{"android":"levelo://app?vid=c14595c7-b3d1-40b3-857c-24ea375daf6c","ios":"levelo://app?vid=c14595c7-b3d1-40b3-857c-24ea375daf6c"},"vehicle_type_id":"4","last_reported":1748110344,"current_range_meters":12400,"station_id":"ce4bguh2rcd13ifvqckg","pricing_plan_id":"cebpf4jnsgd1na2vs0mg"},{"bike_id":"9f4f3904-bfeb-475e-8ff2-bc1228be55ce","system_id":"levelo_inurba_marseille","lat":43.28454,"lon":5.35883,"is_reserved":false,"is_disabled":false,"rental_uris":{"android":"levelo://app?vid=9f4f3904-bfeb-475e-8ff2-bc1228be55ce","ios":"levelo://app?vid=9f4f3904-bfeb-475e-8ff2-bc1228be55ce"},"vehicle_type_id":"4","last_reported":1748110344,"current_range_meters":12400,"station_id":"ce4bhah2rcd13ifvqei0","pricing_plan_id":"cebpf4jnsgd1na2vs0mg"},{"bike_id":"84f19172-b7d3-47ff-b382-6d044072fcf0","system_id":"levelo_inurba_marseille","lat":43.23191,"lon":5.3555,"is_reserved":false,"is_disabled":false,"rental_uris":{"android":"levelo://app?vid=84f19172-b7d3-47ff-b382-6d044072fcf0","ios":"levelo://app?vid=84f19172-b7d3-47ff-b382-6d044072fcf0"},"vehicle_type_id":"4","last_reported":1748110344,"current_range_meters":12800,"station_id":"ce4bhu92rcd13ifvqi70","pricing_plan_id":"cebpf4jnsgd1na2vs0mg"},{"bike_id":"da453a88-f81b-4e0f-9781-5a7f6c1d364c","system_id":"levelo_inurba_marseille","lat":43.337499,"lon":5.374469,"is_reserved":false,"is_disabled":false,"rental_uris":{"android":"levelo://app?vid=da453a88-f81b-4e0f-9781-5a7f6c1d364c","ios":"levelo://app?vid=da453a88-f81b-4e0f-9781-5a7f6c1d364c"},"vehicle_type_id":"4","last_reported":1748110344,"current_range_meters":12800,"station_id":"","pricing_plan_id":"cebpf4jnsgd1na2vs0mg"},{"bike_id":"3016a58e-9ed0-40d4-baa2-11add3a9d9c0","system_id":"levelo_inurba_marseille","lat":43.26962,"lon":5.40232,"is_reserved":false,"is_disabled":false,"rental_uris":{"android":"levelo://app?vid=3016a58e-9ed0-40d4-baa2-11add3a9d9c0","ios":"levelo://app?vid=3016a58e-9ed0-40d4-baa2-11add3a9d9c0"},"vehicle_type_id":"4","last_reported":1748110344,"current_range_meters":13600,"station_id":"cjm6bp8fraef2m0cb0m0","pricing_plan_id":"cebpf4jnsgd1na2vs0mg"},{"bike_id":"577a808f-39a8-4f40-a4e4-10c04de30db3","system_id":"levelo_inurba_marseille","lat":43.27427,"lon":5.39412,"is_reserved":false,"is_disabled":false,"rental_uris":{"android":"levelo://app?vid=577a808f-39a8-4f40-a4e4-10c04de30db3","ios":"levelo://app?vid=577a808f-39a8-4f40-a4e4-10c04de30db3"},"vehicle_type_id":"4","last_reported":1748110344,"current_range_meters":12800,"station_id":"ce4bhdp2rcd13ifvqf20","pricing_plan_id":"cebpf4jnsgd1na2vs0mg"},{"bike_id":"37c8c075-8f82-4272-989a-84f131b3479b","system_id":"levelo_inurba_marseille","lat":43.29222,"lon":5.36052,"is_reserved":false,"is_disabled":true,"rental_uris":{"android":"levelo://app?vid=37c8c075-8f82-4272-989a-84f131b3479b","ios":"levelo://app?vid=37c8c075-8f82-4272-989a-84f131b3479b"},"vehicle_type_id":"4","last_reported":1748110344,"current_range_meters":12800,"station_id":"ce4bhbh2rcd13ifvqeqg","pricing_plan_id":"cebpf4jnsgd1na2vs0mg"},{"bike_id":"7f2eb35f-8f16-41e3-9dfb-a51dcf8305b1","system_id":"levelo_inurba_marseille","lat":43.28438,"lon":5.39208,"is_reserved":false,"is_disabled":false,"rental_uris":{"android":"levelo://app?vid=7f2eb35f-8f16-41e3-9dfb-a51dcf8305b1","ios":"levelo://app?vid=7f2eb35f-8f16-41e3-9dfb-a51dcf8305b1"},"vehicle_type_id":"4","last_reported":1748110344,"current_range_meters":12400,"station_id":"ce4bhoh2rcd13ifvqh5g","pricing_plan_id":"cebpf4jnsgd1na2vs0mg"},{"bike_id":"ab6df683-1137-4426-af19-57646e805307","system_id":"levelo_inurba_marseille","lat":43.29059,"lon":5.35851,"is_reserved":false,"is_disabled":false,"rental_uris":{"android":"levelo://app?vid=ab6df683-1137-4426-af19-57646e805307","ios":"levelo://app?vid=ab6df683-1137-4426-af19-57646e805307"},"vehicle_type_id":"4","last_reported":1748110344,"current_range_meters":12800,"station_id":"ce4bha92rcd13ifvqeg0","pricing_plan_id":"cebpf4jnsgd1na2vs0mg"},{"bike_id":"e61b71a8-498e-40b2-b424-7cf0d55e284c","system_id":"levelo_inurba_marseille","lat":43.26806,"lon":5.40271,"is_reserved":false,"is_disabled":false,"rental_uris":{"android":"levelo://app?vid=e61b71a8-498e-40b2-b424-7cf0d55e284c","ios":"levelo://app?vid=e61b71a8-498e-40b2-b424-7cf0d55e284c"},"vehicle_type_id":"4","last_reported":1748110344,"current_range_meters":12800,"station_id":"ce501612rcd8frsf0b60","pricing_plan_id":"cebpf4jnsgd1na2vs0mg"},{"bike_id":"a7fd2216-18ee-4ee6-b9d4-de939c2a58b7","system_id":"levelo_inurba_marseille","lat":43.232056,"lon":5.35545,"is_reserved":false,"is_disabled":false,"rental_uris":{"android":"levelo://app?vid=a7fd2216-18ee-4ee6-b9d4-de939c2a58b7","ios":"levelo://app?vid=a7fd2216-18ee-4ee6-b9d4-de939c2a58b7"},"vehicle_type_id":"4","last_reported":1748110344,"current_range_meters":12800,"station_id":"ce4bhu92rcd13ifvqi70","pricing_plan_id":"cebpf4jnsgd1na2vs0mg"},{"bike_id":"33bdca6c-643c-4f42-92fa-6d1fe1fe071a","system_id":"levelo_inurba_marseille","lat":43.23207,"lon":5.35554,"is_reserved":false,"is_disabled":false,"rental_uris":{"android":"levelo://app?vid=33bdca6c-643c-4f42-92fa-6d1fe1fe071a","ios":"levelo://app?vid=33bdca6c-643c-4f42-92fa-6d1fe1fe071a"},"vehicle_type_id":"4","last_reported":1748110344,"current_range_meters":12800,"station_id":"ce4bhu92rcd13ifvqi70","pricing_plan_id":"cebpf4jnsgd1na2vs0mg"},{"bike_id":"e3d2058f-64cb-42c2-a995-c306767ff02a","system_id":"levelo_inurba_marseille","lat":43.272111,"lon":5.391953,"is_reserved":false,"is_disabled":false,"rental_uris":{"android":"levelo://app?vid=e3d2058f-64cb-42c2-a995-c306767ff02a","ios":"levelo://app?vid=e3d2058f-64cb-42c2-a995-c306767ff02a"},"vehicle_type_id":"4","last_reported":1748110344,"current_range_meters":13600,"station_id":"","pricing_plan_id":"cebpf4jnsgd1na2vs0mg"},{"bike_id":"620cf62b-e00d-4f88-ad99-1c008b47bc76","system_id":"levelo_inurba_marseille","lat":43.26497,"lon":5.39537,"is_reserved":false,"is_disabled":false,"rental_uris":{"android":"levelo://app?vid=620cf62b-e00d-4f88-ad99-1c008b47bc76","ios":"levelo://app?vid=620cf62b-e00d-4f88-ad99-1c008b47bc76"},"vehicle_type_id":"4","last_reported":1748110344,"current_range_meters":13600,"station_id":"ce4bhi12rcd13ifvqfq0","pricing_plan_id":"cebpf4jnsgd1na2vs0mg"},{"bike_id":"21c39b09-7e3d-4eef-bf04-949b1e05141f","system_id":"levelo_inurba_marseille","lat":43.30801,"lon":5.43532,"is_reserved":false,"is_disabled":false,"rental_uris":{"android":"levelo://app?vid=21c39b09-7e3d-4eef-bf04-949b1e05141f","ios":"levelo://app?vid=21c39b09-7e3d-4eef-bf04-949b1e05141f"},"vehicle_type_id":"4","last_reported":1748110344,"current_range_meters":14000,"station_id":"ce4bhph2rcd13ifvqheg","pricing_plan_id":"cebpf4jnsgd1na2vs0mg"},{"bike_id":"13b92eee-6627-48d8-8768-704108ef81f9","system_id":"levelo_inurba_marseille","lat":43.30422,"lon":5.41273,"is_reserved":false,"is_disabled":false,"rental_uris":{"android":"levelo://app?vid=13b92eee-6627-48d8-8768-704108ef81f9","ios":"levelo://app?vid=13b92eee-6627-48d8-8768-704108ef81f9"},"vehicle_type_id":"4","last_reported":1748110344,"current_range_meters":13600,"station_id":"ce4bhop2rcd13ifvqh8g","pricing_plan_id":"cebpf4jnsgd1na2vs0mg"},{"bike_id":"4f0adb5e-fcbf-4d9c-9091-a2bbf83763a0","system_id":"levelo_inurba_marseille","lat":43.27071,"lon":5.42286,"is_reserved":false,"is_disabled":false,"rental_uris":{"android":"levelo://app?vid=4f0adb5e-fcbf-4d9c-9091-a2bbf83763a0","ios":"levelo://app?vid=4f0adb5e-fcbf-4d9c-9091-a2bbf83763a0"},"vehicle_type_id":"4","last_reported":1748110344,"current_range_meters":14000,"station_id":"ce4bhk92rcd13ifvqgb0","pricing_plan_id":"cebpf4jnsgd1na2vs0mg"},{"bike_id":"adda7448-f342-4b81-9e8c-4e5211b53b6f","system_id":"levelo_inurba_marseille","lat":43.26784,"lon":5.39437,"is_reserved":false,"is_disabled":false,"rental_uris":{"android":"levelo://app?vid=adda7448-f342-4b81-9e8c-4e5211b53b6f","ios":"levelo://app?vid=adda7448-f342-4b81-9e8c-4e5211b53b6f"},"vehicle_type_id":"4","last_reported":1748110344,"current_range_meters":14400,"station_id":"ce4bhh12rcd13ifvqfg0","pricing_plan_id":"cebpf4jnsgd1na2vs0mg"},{"bike_id":"6acca252-0fc7-49ea-b75c-09884a94f9de","system_id":"levelo_inurba_marseille","lat":43.26226,"lon":5.37439,"is_reserved":false,"is_disabled":false,"rental_uris":{"android":"levelo://app?vid=6acca252-0fc7-49ea-b75c-09884a94f9de","ios":"levelo://app?vid=6acca252-0fc7-49ea-b75c-09884a94f9de"},"vehicle_type_id":"4","last_reported":1748110344,"current_range_meters":14400,"station_id":"ce4bhgp2rcd13ifvqfc0","pricing_plan_id":"cebpf4jnsgd1na2vs0mg"},{"bike_id":"9053f4e0-3003-484a-939a-ef5cda835549","system_id":"levelo_inurba_marseille","lat":43.26962,"lon":5.40246,"is_reserved":false,"is_disabled":false,"rental_uris":{"android":"levelo://app?vid=9053f4e0-3003-484a-939a-ef5cda835549","ios":"levelo://app?vid=9053f4e0-3003-484a-939a-ef5cda835549"},"vehicle_type_id":"4","last_reported":1748110344,"current_range_meters":14400,"station_id":"cjm6bp8fraef2m0cb0m0","pricing_plan_id":"cebpf4jnsgd1na2vs0mg"},{"bike_id":"5abb8a77-fbf0-4d21-805b-29790cff0e49","system_id":"levelo_inurba_marseille","lat":43.3109,"lon":5.424479,"is_reserved":false,"is_disabled":false,"rental_uris":{"android":"levelo://app?vid=5abb8a77-fbf0-4d21-805b-29790cff0e49","ios":"levelo://app?vid=5abb8a77-fbf0-4d21-805b-29790cff0e49"},"vehicle_type_id":"4","last_reported":1748110344,"current_range_meters":14400,"station_id":"ce4bhp92rcd13ifvqhag","pricing_plan_id":"cebpf4jnsgd1na2vs0mg"},{"bike_id":"4f6d5ec8-0936-4577-addd-5aa2bb4b21a1","system_id":"levelo_inurba_marseille","lat":43.30303,"lon":5.36463,"is_reserved":false,"is_disabled":false,"rental_uris":{"android":"levelo://app?vid=4f6d5ec8-0936-4577-addd-5aa2bb4b21a1","ios":"levelo://app?vid=4f6d5ec8-0936-4577-addd-5aa2bb4b21a1"},"vehicle_type_id":"4","last_reported":1748110344,"current_range_meters":14400,"station_id":"","pricing_plan_id":"cebpf4jnsgd1na2vs0mg"},{"bike_id":"ca5e1939-0f71-483e-8b6a-c1c707a140bf","system_id":"levelo_inurba_marseille","lat":43.30425,"lon":5.39754,"is_reserved":false,"is_disabled":false,"rental_uris":{"android":"levelo://app?vid=ca5e1939-0f71-483e-8b6a-c1c707a140bf","ios":"levelo://app?vid=ca5e1939-0f71-483e-8b6a-c1c707a140bf"},"vehicle_type_id":"4","last_reported":1748110344,"current_range_meters":14400,"station_id":"ce4bh092rcd13ifvqd20","pricing_plan_id":"cebpf4jnsgd1na2vs0mg"},{"bike_id":"7d87ddb8-431a-405c-8887-dd4d4daf05e4","system_id":"levelo_inurba_marseille","lat":43.26791,"lon":5.39411,"is_reserved":false,"is_disabled":false,"rental_uris":{"android":"levelo://app?vid=7d87ddb8-431a-405c-8887-dd4d4daf05e4","ios":"levelo://app?vid=7d87ddb8-431a-405c-8887-dd4d4daf05e4"},"vehicle_type_id":"4","last_reported":1748110344,"current_range_meters":14000,"station_id":"ce4bhh12rcd13ifvqfg0","pricing_plan_id":"cebpf4jnsgd1na2vs0mg"},{"bike_id":"26cb3d7b-2e1d-46ba-b100-e088d0cb8b09","system_id":"levelo_inurba_marseille","lat":43.29851,"lon":5.36284,"is_reserved":false,"is_disabled":false,"rental_uris":{"android":"levelo://app?vid=26cb3d7b-2e1d-46ba-b100-e088d0cb8b09","ios":"levelo://app?vid=26cb3d7b-2e1d-46ba-b100-e088d0cb8b09"},"vehicle_type_id":"4","last_reported":1748110344,"current_range_meters":14400,"station_id":"ce4bgpp2rcd13ifvqc3g","pricing_plan_id":"cebpf4jnsgd1na2vs0mg"},{"bike_id":"13340bbf-dd2d-459e-8b9c-dd666286b553","system_id":"levelo_inurba_marseille","lat":43.23182,"lon":5.39983,"is_reserved":false,"is_disabled":false,"rental_uris":{"android":"levelo://app?vid=13340bbf-dd2d-459e-8b9c-dd666286b553","ios":"levelo://app?vid=13340bbf-dd2d-459e-8b9c-dd666286b553"},"vehicle_type_id":"4","last_reported":1748110344,"current_range_meters":14400,"station_id":"ce4bhn12rcd13ifvqgqg","pricing_plan_id":"cebpf4jnsgd1na2vs0mg"},{"bike_id":"6c6cc075-f777-4168-9f2f-9e2f1224a78b","system_id":"levelo_inurba_marseille","lat":43.26023,"lon":5.37552,"is_reserved":false,"is_disabled":false,"rental_uris":{"android":"levelo://app?vid=6c6cc075-f777-4168-9f2f-9e2f1224a78b","ios":"levelo://app?vid=6c6cc075-f777-4168-9f2f-9e2f1224a78b"},"vehicle_type_id":"4","last_reported":1748110344,"current_range_meters":14800,"station_id":"ce4bhgh2rcd13ifvqfa0","pricing_plan_id":"cebpf4jnsgd1na2vs0mg"},{"bike_id":"1d4a447a-6c34-4270-8c98-22bed3019ea1","system_id":"levelo_inurba_marseille","lat":43.23205,"lon":5.355622,"is_reserved":false,"is_disabled":false,"rental_uris":{"android":"levelo://app?vid=1d4a447a-6c34-4270-8c98-22bed3019ea1","ios":"levelo://app?vid=1d4a447a-6c34-4270-8c98-22bed3019ea1"},"vehicle_type_id":"4","last_reported":1748110344,"current_range_meters":15200,"station_id":"ce4bhu92rcd13ifvqi70","pricing_plan_id":"cebpf4jnsgd1na2vs0mg"},{"bike_id":"6436c382-86a6-4e4d-b5f0-04637ba54867","system_id":"levelo_inurba_marseille","lat":43.23209,"lon":5.35543,"is_reserved":false,"is_disabled":false,"rental_uris":{"android":"levelo://app?vid=6436c382-86a6-4e4d-b5f0-04637ba54867","ios":"levelo://app?vid=6436c382-86a6-4e4d-b5f0-04637ba54867"},"vehicle_type_id":"4","last_reported":1748110344,"current_range_meters":15200,"station_id":"ce4bhu92rcd13ifvqi70","pricing_plan_id":"cebpf4jnsgd1na2vs0mg"},{"bike_id":"6de4748d-6c59-4ccb-9f4a-be83ee4bad06","system_id":"levelo_inurba_marseille","lat":43.28956,"lon":5.36616,"is_reserved":false,"is_disabled":false,"rental_uris":{"android":"levelo://app?vid=6de4748d-6c59-4ccb-9f4a-be83ee4bad06","ios":"levelo://app?vid=6de4748d-6c59-4ccb-9f4a-be83ee4bad06"},"vehicle_type_id":"4","last_reported":1748110344,"current_range_meters":15200,"station_id":"ce4bhap2rcd13ifvqek0","pricing_plan_id":"cebpf4jnsgd1na2vs0mg"},{"bike_id":"d99f07af-f652-4042-a408-cccadb709d16","system_id":"levelo_inurba_marseille","lat":43.26781,"lon":5.39473,"is_reserved":false,"is_disabled":false,"rental_uris":{"android":"levelo://app?vid=d99f07af-f652-4042-a408-cccadb709d16","ios":"levelo://app?vid=d99f07af-f652-4042-a408-cccadb709d16"},"vehicle_type_id":"4","last_reported":1748110344,"current_range_meters":15200,"station_id":"","pricing_plan_id":"cebpf4jnsgd1na2vs0mg"},{"bike_id":"3c37f3f1-1ebe-4c0e-96fb-c4d7db86630e","system_id":"levelo_inurba_marseille","lat":43.26943,"lon":5.40253,"is_reserved":false,"is_disabled":false,"rental_uris":{"android":"levelo://app?vid=3c37f3f1-1ebe-4c0e-96fb-c4d7db86630e","ios":"levelo://app?vid=3c37f3f1-1ebe-4c0e-96fb-c4d7db86630e"},"vehicle_type_id":"4","last_reported":1748110344,"current_range_meters":15200,"station_id":"cjm6bp8fraef2m0cb0m0","pricing_plan_id":"cebpf4jnsgd1na2vs0mg"},{"bike_id":"91aff10d-2431-44ab-ab03-4cc433a46588","system_id":"levelo_inurba_marseille","lat":43.26495,"lon":5.3955,"is_reserved":false,"is_disabled":false,"rental_uris":{"android":"levelo://app?vid=91aff10d-2431-44ab-ab03-4cc433a46588","ios":"levelo://app?vid=91aff10d-2431-44ab-ab03-4cc433a46588"},"vehicle_type_id":"4","last_reported":1748110344,"current_range_meters":15200,"station_id":"ce4bhi12rcd13ifvqfq0","pricing_plan_id":"cebpf4jnsgd1na2vs0mg"},{"bike_id":"7c320c1b-fb02-4806-9e80-37a7ccc7f401","system_id":"levelo_inurba_marseille","lat":43.23195,"lon":5.355542,"is_reserved":false,"is_disabled":false,"rental_uris":{"android":"levelo://app?vid=7c320c1b-fb02-4806-9e80-37a7ccc7f401","ios":"levelo://app?vid=7c320c1b-fb02-4806-9e80-37a7ccc7f401"},"vehicle_type_id":"4","last_reported":1748110344,"current_range_meters":15200,"station_id":"ce4bhu92rcd13ifvqi70","pricing_plan_id":"cebpf4jnsgd1na2vs0mg"},{"bike_id":"503e77ba-d207-4c9b-9afd-725500ea3736","system_id":"levelo_inurba_marseille","lat":43.282609,"lon":5.350579,"is_reserved":false,"is_disabled":false,"rental_uris":{"android":"levelo://app?vid=503e77ba-d207-4c9b-9afd-725500ea3736","ios":"levelo://app?vid=503e77ba-d207-4c9b-9afd-725500ea3736"},"vehicle_type_id":"4","last_reported":1748110344,"current_range_meters":15200,"station_id":"ce4bhbp2rcd13ifvqerg","pricing_plan_id":"cebpf4jnsgd1na2vs0mg"},{"bike_id":"21267833-a060-4119-b74a-8fe124de07c6","system_id":"levelo_inurba_marseille","lat":43.2697,"lon":5.40242,"is_reserved":false,"is_disabled":false,"rental_uris":{"android":"levelo://app?vid=21267833-a060-4119-b74a-8fe124de07c6","ios":"levelo://app?vid=21267833-a060-4119-b74a-8fe124de07c6"},"vehicle_type_id":"4","last_reported":1748110344,"current_range_meters":16000,"station_id":"cjm6bp8fraef2m0cb0m0","pricing_plan_id":"cebpf4jnsgd1na2vs0mg"},{"bike_id":"86216938-a713-4f81-b0d6-77b6c7471a5f","system_id":"levelo_inurba_marseille","lat":43.24997,"lon":5.38922,"is_reserved":false,"is_disabled":false,"rental_uris":{"android":"levelo://app?vid=86216938-a713-4f81-b0d6-77b6c7471a5f","ios":"levelo://app?vid=86216938-a713-4f81-b0d6-77b6c7471a5f"},