{"last_updated":1751152184,"ttl":60,"version":"2.2","data":{"bikes":[{"bike_id":"3da29fb8-fc97-44c6-b9ac-31dd456b2fd4","system_id":"levelo_inurba_marseille","lat":43.33771,"lon":5.37424,"is_reserved":false,"is_disabled":true,"rental_uris":{"android":"levelo://app?vid=3da29fb8-fc97-44c6-b9ac-31dd456b2fd4","ios":"levelo://app?vid=3da29fb8-fc97-44c6-b9ac-31dd456b2fd4"},"vehicle_type_id":"4","last_reported":1751152184,"current_range_meters":0,"station_id":"","pricing_plan_id":"cebpf4jnsgd1na2vs0mg"},{"bike_id":"01861ad8-a8d7-4be6-816e-651927c87584","system_id":"levelo_inurba_marseille","lat":43.33751,"lon":5.37456,"is_reserved":false,"is_disabled":true,"rental_uris":{"android":"levelo://app?vid=01861ad8-a8d7-4be6-816e-651927c87584","ios":"levelo://app?vid=01861ad8-a8d7-4be6-816e-651927c87584"},"vehicle_type_id":"4","last_reported":1751152184,"current_range_meters":0,"station_id":"","pricing_plan_id":"cebpf4jnsgd1na2vs0mg"},{"bike_id":"612b34ed-ddf1-4f6a-96bb-08fc82d7d35a","system_id":"levelo_inurba_marseille","lat":43.27152,"lon":5.40893,"is_reserved":false,"is_disabled":true,"rental_uris":{"android":"levelo://app?vid=612b34ed-ddf1-4f6a-96bb-08fc82d7d35a","ios":"levelo://app?vid=612b34ed-ddf1-4f6a-96bb-08fc82d7d35a"},"vehicle_type_id":"4","last_reported":1751152184,"current_range_meters":0,"station_id":"","pricing_plan_id":"cebpf4jnsgd1na2vs0mg"},{"bike_id":"7aac647a-260b-423f-ae41-874b82472ad9","system_id":"levelo_inurba_marseille","lat":43.232046,"lon":5.351662,"is_reserved":false,"is_disabled":true,"rental_uris":{"android":"levelo://app?vid=7aac647a-260b-423f-ae41-874b82472ad9","ios":"levelo://app?vid=7aac647a-260b-423f-ae41-874b82472ad9"},"vehicle_type_id":"4","last_reported":1751152184,"current_range_meters":0,"station_id":"","pricing_plan_id":"cebpf4jnsgd1na2vs0mg"},{"bike_id":"499114bb-646f-4618-a3ce-ee7c9ab2a1c4","system_id":"levelo_inurba_marseille","lat":43.33007,"lon":5.39098,"is_reserved":false,"is_disabled":true,"rental_uris":{"android":"levelo://app?vid=499114bb-646f-4618-a3ce-ee7c9ab2a1c4","ios":"levelo://app?vid=499114bb-646f-4618-a3ce-ee7c9ab2a1c4"},"vehicle_type_id":"4","last_reported":1751152184,"current_range_meters":0,"station_id":"","pricing_plan_id":"cebpf4jnsgd1na2vs0mg"},{"bike_id":"d166e6b0-d12b-463c-ab82-d5d42034aba7","system_id":"levelo_inurba_marseille","lat":43.30819,"lon":5.36921,"is_reserved":false,"is_disabled":true,"rental_uris":{"android":"levelo://app?vid=d166e6b0-d12b-463c-ab82-d5d42034aba7","ios":"levelo://app?vid=d166e6b0-d12b-463c-ab82-d5d42034aba7"},"vehicle_type_id":"4","last_reported":1751152184,"current_range_meters":0,"station_id":"","pricing_plan_id":"cebpf4jnsgd1na2vs0mg"},{"bike_id":"e9a7f2ce-f5b2-41e5-b572-5533013492a4","system_id":"levelo_inurba_marseille","lat":43.337444,"lon":5.374475,"is_reserved":false,"is_disabled":true,"rental_uris":{"android":"levelo://app?vid=e9a7f2ce-f5b2-41e5-b572-5533013492a4","ios":"levelo://app?vid=e9a7f2ce-f5b2-41e5-b572-5533013492a4"},"vehicle_type_id":"4","last_reported":1751152184,"current_range_meters":0,"station_id":"","pricing_plan_id":"cebpf4jnsgd1na2vs0mg"},{"bike_id":"666ef40e-8142-4330-a1bf-355f72ca0910","system_id":"levelo_inurba_marseille","lat":43.2633,"lon":5.40098,"is_reserved":false,"is_disabled":true,"rental_uris":{"android":"levelo://app?vid=666ef40e-8142-4330-a1bf-355f72ca0910","ios":"levelo://app?vid=666ef40e-8142-4330-a1bf-355f72ca0910"},"vehicle_type_id":"4","last_reported":1751152184,"current_range_meters":0,"station_id":"","pricing_plan_id":"cebpf4jnsgd1na2vs0mg"},{"bike_id":"c5e81761-e268-463f-b4fa-6ef7ce09e62f","system_id":"levelo_inurba_marseille","lat":43.30131,"lon":5.38773,"is_reserved":false,"is_disabled":true,"rental_uris":{"android":"levelo://app?vid=c5e81761-e268-463f-b4fa-6ef7ce09e62f","ios":"levelo://app?vid=c5e81761-e268-463f-b4fa-6ef7ce09e62f"},"vehicle_type_id":"4","last_reported":1751152184,"current_range_meters":0,"station_id":"ce4bghh2rcd13ifvqb60","pricing_plan_id":"cebpf4jnsgd1na2vs0mg"},{"bike_id":"645f2130-74cd-405b-bd16-d879211d9792","system_id":"levelo_inurba_marseille","lat":43.30107,"lon":5.387943,"is_reserved":false,"is_disabled":true,"rental_uris":{"android":"levelo://app?vid=645f2130-74cd-405b-bd16-d879211d9792","ios":"levelo://app?vid=645f2130-74cd-405b-bd16-d879211d9792"},"vehicle_type_id":"4","last_reported":1751152184,"current_range_meters":0,"station_id":"ce4bghh2rcd13ifvqb60","pricing_plan_id":"cebpf4jnsgd1na2vs0mg"},{"bike_id":"b647af9c-04cd-4854-b53b-1fa69ac10c85","system_id":"levelo_inurba_marseille","lat":43.2997,"lon":5.38491,"is_reserved":false,"is_disabled":true,"rental_uris":{"android":"levelo://app?vid=b647af9c-04cd-4854-b53b-1fa69ac10c85","ios":"levelo://app?vid=b647af9c-04cd-4854-b53b-1fa69ac10c85"},"vehicle_type_id":"4","last_reported":1751152184,"current_range_meters":0,"station_id":"ce4bgj92rcd13ifvqbd0","pricing_plan_id":"cebpf4jnsgd1na2vs0mg"},{"bike_id":"71c8b497-f522-4a36-ad5f-4889b241b65f","system_id":"levelo_inurba_marseille","lat":43.30426,"lon":5.38895,"is_reserved":false,"is_disabled":true,"rental_uris":{"android":"levelo://app?vid=71c8b497-f522-4a36-ad5f-4889b241b65f","ios":"levelo://app?vid=71c8b497-f522-4a36-ad5f-4889b241b65f"},"vehicle_type_id":"4","last_reported":1751152184,"current_range_meters":0,"station_id":"ce4bgk12rcd13ifvqbi0","pricing_plan_id":"cebpf4jnsgd1na2vs0mg"},{"bike_id":"1b57e34d-1b7d-46b7-b69e-1d11a47ad78b","system_id":"levelo_inurba_marseille","lat":43.31702,"lon":5.40452,"is_reserved":false,"is_disabled":true,"rental_uris":{"android":"levelo://app?vid=1b57e34d-1b7d-46b7-b69e-1d11a47ad78b","ios":"levelo://app?vid=1b57e34d-1b7d-46b7-b69e-1d11a47ad78b"},"vehicle_type_id":"4","last_reported":1751152184,"current_range_meters":0,"station_id":"ce4bh012rcd13ifvqd00","pricing_plan_id":"cebpf4jnsgd1na2vs0mg"},{"bike_id":"6d276112-029b-40d9-8bde-8b46266eb638","system_id":"levelo_inurba_marseille","lat":43.306454,"lon":5.400756,"is_reserved":false,"is_disabled":true,"rental_uris":{"android":"levelo://app?vid=6d276112-029b-40d9-8bde-8b46266eb638","ios":"levelo://app?vid=6d276112-029b-40d9-8bde-8b46266eb638"},"vehicle_type_id":"4","last_reported":1751152184,"current_range_meters":0,"station_id":"ce4bh112rcd13ifvqda0","pricing_plan_id":"cebpf4jnsgd1na2vs0mg"},{"bike_id":"9831ca21-f54e-41c1-88ae-5dcdc3621878","system_id":"levelo_inurba_marseille","lat":43.29012,"lon":5.37118,"is_reserved":false,"is_disabled":true,"rental_uris":{"android":"levelo://app?vid=9831ca21-f54e-41c1-88ae-5dcdc3621878","ios":"levelo://app?vid=9831ca21-f54e-41c1-88ae-5dcdc3621878"},"vehicle_type_id":"4","last_reported":1751152184,"current_range_meters":0,"station_id":"ce4bh692rcd13ifvqe90","pricing_plan_id":"cebpf4jnsgd1na2vs0mg"},{"bike_id":"30436f15-3780-4d5c-8b5e-ab87fc03cb9b","system_id":"levelo_inurba_marseille","lat":43.23962,"lon":5.36633,"is_reserved":false,"is_disabled":true,"rental_uris":{"android":"levelo://app?vid=30436f15-3780-4d5c-8b5e-ab87fc03cb9b","ios":"levelo://app?vid=30436f15-3780-4d5c-8b5e-ab87fc03cb9b"},"vehicle_type_id":"4","last_reported":1751152184,"current_range_meters":0,"station_id":"ce4bhi12rcd13ifvqfp0","pricing_plan_id":"cebpf4jnsgd1na2vs0mg"},{"bike_id":"ddf7ea66-efd0-456b-a139-fcb3ce0f5444","system_id":"levelo_inurba_marseille","lat":43.27056,"lon":5.402654,"is_reserved":false,"is_disabled":true,"rental_uris":{"android":"levelo://app?vid=ddf7ea66-efd0-456b-a139-fcb3ce0f5444","ios":"levelo://app?vid=ddf7ea66-efd0-456b-a139-fcb3ce0f5444"},"vehicle_type_id":"4","last_reported":1751152184,"current_range_meters":0,"station_id":"ce4bhk92rcd13ifvqgc0","pricing_plan_id":"cebpf4jnsgd1na2vs0mg"},{"bike_id":"986afbb8-b615-4de2-baa0-d2e83572a784","system_id":"levelo_inurba_marseille","lat":43.33613,"lon":5.41034,"is_reserved":false,"is_disabled":true,"rental_uris":{"android":"levelo://app?vid=986afbb8-b615-4de2-baa0-d2e83572a784","ios":"levelo://app?vid=986afbb8-b615-4de2-baa0-d2e83572a784"},"vehicle_type_id":"4","last_reported":1751152184,"current_range_meters":0,"station_id":"ce4bhqh2rcd13ifvqhmg","pricing_plan_id":"cebpf4jnsgd1na2vs0mg"},{"bike_id":"d32a3f97-8071-4493-9a6c-433c1e87682c","system_id":"levelo_inurba_marseille","lat":43.26936,"lon":5.40244,"is_reserved":false,"is_disabled":true,"rental_uris":{"android":"levelo://app?vid=d32a3f97-8071-4493-9a6c-433c1e87682c","ios":"levelo://app?vid=d32a3f97-8071-4493-9a6c-433c1e87682c"},"vehicle_type_id":"4","last_reported":1751152184,"current_range_meters":0,"station_id":"cjm6bp8fraef2m0cb0m0","pricing_plan_id":"cebpf4jnsgd1na2vs0mg"},{"bike_id":"38d01765-5414-4f3d-b96c-a482eae367ca","system_id":"levelo_inurba_marseille","lat":43.21755,"lon":5.34628,"is_reserved":false,"is_disabled":true,"rental_uris":{"android":"levelo://app?vid=38d01765-5414-4f3d-b96c-a482eae367ca","ios":"levelo://app?vid=38d01765-5414-4f3d-b96c-a482eae367ca"},"vehicle_type_id":"4","last_reported":1751152184,"current_range_meters":0,"station_id":"st_cvj6r9ubvosntc0bgbag","pricing_plan_id":"cebpf4jnsgd1na2vs0mg"},{"bike_id":"53f760d9-2926-4c0b-9078-ae8706c81b5c","system_id":"levelo_inurba_marseille","lat":43.21734,"lon":5.3462,"is_reserved":false,"is_disabled":true,"rental_uris":{"android":"levelo://app?vid=53f760d9-2926-4c0b-9078-ae8706c81b5c","ios":"levelo://app?vid=53f760d9-2926-4c0b-9078-ae8706c81b5c"},"vehicle_type_id":"4","last_reported":1751152184,"current_range_meters":0,"station_id":"st_cvj6r9ubvosntc0bgbag","pricing_plan_id":"cebpf4jnsgd1na2vs0mg"},{"bike_id":"070a5204-3e73-4cf5-9fda-520c8795969f","system_id":"levelo_inurba_marseille","lat":43.21749,"lon":5.3461,"is_reserved":false,"is_disabled":true,"rental_uris":{"android":"levelo://app?vid=070a5204-3e73-4cf5-9fda-520c8795969f","ios":"levelo://app?vid=070a5204-3e73-4cf5-9fda-520c8795969f"},"vehicle_type_id":"4","last_reported":1751152184,"current_range_meters":0,"station_id":"st_cvj6r9ubvosntc0bgbag","pricing_plan_id":"cebpf4jnsgd1na2vs0mg"},{"bike_id":"3ed97791-4fd1-4beb-9e6b-4998740d59d9","system_id":"levelo_inurba_marseille","lat":43.271719,"lon":5.410008,"is_reserved":false,"is_disabled":true,"rental_uris":{"android":"levelo://app?vid=3ed97791-4fd1-4beb-9e6b-4998740d59d9","ios":"levelo://app?vid=3ed97791-4fd1-4beb-9e6b-4998740d59d9"},"vehicle_type_id":"4","last_reported":1751152184,"current_range_meters":400,"station_id":"","pricing_plan_id":"cebpf4jnsgd1na2vs0mg"},{"bike_id":"3823112c-da03-44d2-8f89-6e256520cb61","system_id":"levelo_inurba_marseille","lat":43.2847,"lon":5.38441,"is_reserved":false,"is_disabled":true,"rental_uris":{"android":"levelo://app?vid=3823112c-da03-44d2-8f89-6e256520cb61","ios":"levelo://app?vid=3823112c-da03-44d2-8f89-6e256520cb61"},"vehicle_type_id":"4","last_reported":1751152184,"current_range_meters":400,"station_id":"ce4bh512rcd13ifvqe3g","pricing_plan_id":"cebpf4jnsgd1na2vs0mg"},{"bike_id":"2c46231f-30e3-45b8-8635-fce34d62eb47","system_id":"levelo_inurba_marseille","lat":43.27421,"lon":5.3943,"is_reserved":false,"is_disabled":true,"rental_uris":{"android":"levelo://app?vid=2c46231f-30e3-45b8-8635-fce34d62eb47","ios":"levelo://app?vid=2c46231f-30e3-45b8-8635-fce34d62eb47"},"vehicle_type_id":"4","last_reported":1751152184,"current_range_meters":400,"station_id":"ce4bhdp2rcd13ifvqf20","pricing_plan_id":"cebpf4jnsgd1na2vs0mg"},{"bike_id":"30428c3c-6c1e-4ce4-8e0a-d633937e9efb","system_id":"levelo_inurba_marseille","lat":43.29635,"lon":5.37773,"is_reserved":false,"is_disabled":true,"rental_uris":{"android":"levelo://app?vid=30428c3c-6c1e-4ce4-8e0a-d633937e9efb","ios":"levelo://app?vid=30428c3c-6c1e-4ce4-8e0a-d633937e9efb"},"vehicle_type_id":"4","last_reported":1751152184,"current_range_meters":800,"station_id":"","pricing_plan_id":"cebpf4jnsgd1na2vs0mg"},{"bike_id":"490c175e-a2d6-414d-9432-0081eb60a84a","system_id":"levelo_inurba_marseille","lat":43.279057,"lon":5.38011,"is_reserved":false,"is_disabled":true,"rental_uris":{"android":"levelo://app?vid=490c175e-a2d6-414d-9432-0081eb60a84a","ios":"levelo://app?vid=490c175e-a2d6-414d-9432-0081eb60a84a"},"vehicle_type_id":"4","last_reported":1751152184,"current_range_meters":800,"station_id":"ce4bhf92rcd13ifvqf50","pricing_plan_id":"cebpf4jnsgd1na2vs0mg"},{"bike_id":"89d8c4e1-d89a-4210-8dad-30c864fee95c","system_id":"levelo_inurba_marseille","lat":43.30632,"lon":5.40092,"is_reserved":false,"is_disabled":true,"rental_uris":{"android":"levelo://app?vid=89d8c4e1-d89a-4210-8dad-30c864fee95c","ios":"levelo://app?vid=89d8c4e1-d89a-4210-8dad-30c864fee95c"},"vehicle_type_id":"4","last_reported":1751152184,"current_range_meters":1200,"station_id":"ce4bh112rcd13ifvqda0","pricing_plan_id":"cebpf4jnsgd1na2vs0mg"},{"bike_id":"e0468daf-aee8-4af5-ab49-120ed42fc504","system_id":"levelo_inurba_marseille","lat":43.28068,"lon":5.39644,"is_reserved":false,"is_disabled":true,"rental_uris":{"android":"levelo://app?vid=e0468daf-aee8-4af5-ab49-120ed42fc504","ios":"levelo://app?vid=e0468daf-aee8-4af5-ab49-120ed42fc504"},"vehicle_type_id":"4","last_reported":1751152184,"current_range_meters":1200,"station_id":"ce4bho12rcd13ifvqh2g","pricing_plan_id":"cebpf4jnsgd1na2vs0mg"},{"bike_id":"6c06b00f-bc5d-4d10-8c24-28ca495d74ec","system_id":"levelo_inurba_marseille","lat":43.29628,"lon":5.40603,"is_reserved":false,"is_disabled":true,"rental_uris":{"android":"levelo://app?vid=6c06b00f-bc5d-4d10-8c24-28ca495d74ec","ios":"levelo://app?vid=6c06b00f-bc5d-4d10-8c24-28ca495d74ec"},"vehicle_type_id":"4","last_reported":1751152184,"current_range_meters":1600,"station_id":"ce4bh0h2rcd13ifvqd60","pricing_plan_id":"cebpf4jnsgd1na2vs0mg"},{"bike_id":"d91e7bb0-a291-4df0-86ce-38afac617fd6","system_id":"levelo_inurba_marseille","lat":43.31364,"lon":5.367248,"is_reserved":false,"is_disabled":true,"rental_uris":{"android":"levelo://app?vid=d91e7bb0-a291-4df0-86ce-38afac617fd6","ios":"levelo://app?vid=d91e7bb0-a291-4df0-86ce-38afac617fd6"},"vehicle_type_id":"4","last_reported":1751152184,"current_range_meters":2000,"station_id":"ce4bgr92rcd13ifvqc6g","pricing_plan_id":"cebpf4jnsgd1na2vs0mg"},{"bike_id":"c8fd7d73-b32a-46c5-a01c-8c0cf58ea96b","system_id":"levelo_inurba_marseille","lat":43.29397,"lon":5.38624,"is_reserved":false,"is_disabled":true,"rental_uris":{"android":"levelo://app?vid=c8fd7d73-b32a-46c5-a01c-8c0cf58ea96b","ios":"levelo://app?vid=c8fd7d73-b32a-46c5-a01c-8c0cf58ea96b"},"vehicle_type_id":"4","last_reported":1751152184,"current_range_meters":2000,"station_id":"ce4bh2h2rcd13ifvqdh0","pricing_plan_id":"cebpf4jnsgd1na2vs0mg"},{"bike_id":"95a7322f-e3dc-41e1-b5ec-b24d627b37a3","system_id":"levelo_inurba_marseille","lat":43.29595,"lon":5.38189,"is_reserved":false,"is_disabled":false,"rental_uris":{"android":"levelo://app?vid=95a7322f-e3dc-41e1-b5ec-b24d627b37a3","ios":"levelo://app?vid=95a7322f-e3dc-41e1-b5ec-b24d627b37a3"},"vehicle_type_id":"4","last_reported":1751152184,"current_range_meters":2800,"station_id":"","pricing_plan_id":"cebpf4jnsgd1na2vs0mg"},{"bike_id":"f32567f4-6511-4ed4-b6c9-48354be25a93","system_id":"levelo_inurba_marseille","lat":43.30419,"lon":5.38891,"is_reserved":false,"is_disabled":false,"rental_uris":{"android":"levelo://app?vid=f32567f4-6511-4ed4-b6c9-48354be25a93","ios":"levelo://app?vid=f32567f4-6511-4ed4-b6c9-48354be25a93"},"vehicle_type_id":"4","last_reported":1751152184,"current_range_meters":2800,"station_id":"ce4bgk12rcd13ifvqbi0","pricing_plan_id":"cebpf4jnsgd1na2vs0mg"},{"bike_id":"2d6a83db-53e6-4367-8772-7f2c1d42c5f8","system_id":"levelo_inurba_marseille","lat":43.2946,"lon":5.38894,"is_reserved":false,"is_disabled":false,"rental_uris":{"android":"levelo://app?vid=2d6a83db-53e6-4367-8772-7f2c1d42c5f8","ios":"levelo://app?vid=2d6a83db-53e6-4367-8772-7f2c1d42c5f8"},"vehicle_type_id":"4","last_reported":1751152184,"current_range_meters":3200,"station_id":"","pricing_plan_id":"cebpf4jnsgd1na2vs0mg"},{"bike_id":"67c308fc-5814-49c3-90c3-2ee3c07cadc9","system_id":"levelo_inurba_marseille","lat":43.320006,"lon":5.381592,"is_reserved":false,"is_disabled":false,"rental_uris":{"android":"levelo://app?vid=67c308fc-5814-49c3-90c3-2ee3c07cadc9","ios":"levelo://app?vid=67c308fc-5814-49c3-90c3-2ee3c07cadc9"},"vehicle_type_id":"4","last_reported":1751152184,"current_range_meters":3200,"station_id":"","pricing_plan_id":"cebpf4jnsgd1na2vs0mg"},{"bike_id":"e12f9914-5bfd-4a9c-885b-917afc580682","system_id":"levelo_inurba_marseille","lat":43.30887,"lon":5.372,"is_reserved":false,"is_disabled":false,"rental_uris":{"android":"levelo://app?vid=e12f9914-5bfd-4a9c-885b-917afc580682","ios":"levelo://app?vid=e12f9914-5bfd-4a9c-885b-917afc580682"},"vehicle_type_id":"4","last_reported":1751152184,"current_range_meters":3200,"station_id":"ce4bguh2rcd13ifvqckg","pricing_plan_id":"cebpf4jnsgd1na2vs0mg"},{"bike_id":"73a03650-973e-42b0-bad4-545481e15f73","system_id":"levelo_inurba_marseille","lat":43.312348,"lon":5.390588,"is_reserved":false,"is_disabled":false,"rental_uris":{"android":"levelo://app?vid=73a03650-973e-42b0-bad4-545481e15f73","ios":"levelo://app?vid=73a03650-973e-42b0-bad4-545481e15f73"},"vehicle_type_id":"4","last_reported":1751152184,"current_range_meters":4000,"station_id":"","pricing_plan_id":"cebpf4jnsgd1na2vs0mg"},{"bike_id":"66959159-75b5-40c7-b0a9-d4ae1a90047c","system_id":"levelo_inurba_marseille","lat":43.29974,"lon":5.38492,"is_reserved":false,"is_disabled":false,"rental_uris":{"android":"levelo://app?vid=66959159-75b5-40c7-b0a9-d4ae1a90047c","ios":"levelo://app?vid=66959159-75b5-40c7-b0a9-d4ae1a90047c"},"vehicle_type_id":"4","last_reported":1751152184,"current_range_meters":4000,"station_id":"ce4bgj92rcd13ifvqbd0","pricing_plan_id":"cebpf4jnsgd1na2vs0mg"},{"bike_id":"01452a6d-f827-4876-ad03-de0c62de7719","system_id":"levelo_inurba_marseille","lat":43.25819,"lon":5.39438,"is_reserved":false,"is_disabled":false,"rental_uris":{"android":"levelo://app?vid=01452a6d-f827-4876-ad03-de0c62de7719","ios":"levelo://app?vid=01452a6d-f827-4876-ad03-de0c62de7719"},"vehicle_type_id":"4","last_reported":1751152184,"current_range_meters":4000,"station_id":"ce4bhip2rcd13ifvqft0","pricing_plan_id":"cebpf4jnsgd1na2vs0mg"},{"bike_id":"173bb649-9569-47d5-8ac1-52f537a2489d","system_id":"levelo_inurba_marseille","lat":43.29591,"lon":5.38123,"is_reserved":false,"is_disabled":false,"rental_uris":{"android":"levelo://app?vid=173bb649-9569-47d5-8ac1-52f537a2489d","ios":"levelo://app?vid=173bb649-9569-47d5-8ac1-52f537a2489d"},"vehicle_type_id":"4","last_reported":1751152184,"current_range_meters":4400,"station_id":"ce4bgl12rcd13ifvqbo0","pricing_plan_id":"cebpf4jnsgd1na2vs0mg"},{"bike_id":"f50b0241-c2ff-4971-9ff5-a4e1b5c35291","system_id":"levelo_inurba_marseille","lat":43.31351,"lon":5.38496,"is_reserved":false,"is_disabled":false,"rental_uris":{"android":"levelo://app?vid=f50b0241-c2ff-4971-9ff5-a4e1b5c35291","ios":"levelo://app?vid=f50b0241-c2ff-4971-9ff5-a4e1b5c35291"},"vehicle_type_id":"4","last_reported":1751152184,"current_range_meters":4400,"station_id":"ce4bgt92rcd13ifvqcf0","pricing_plan_id":"cebpf4jnsgd1na2vs0mg"},{"bike_id":"c855d841-69e7-4434-860c-385077ff8e3f","system_id":"levelo_inurba_marseille","lat":43.295,"lon":5.39057,"is_reserved":false,"is_disabled":false,"rental_uris":{"android":"levelo://app?vid=c855d841-69e7-4434-860c-385077ff8e3f","ios":"levelo://app?vid=c855d841-69e7-4434-860c-385077ff8e3f"},"vehicle_type_id":"4","last_reported":1751152184,"current_range_meters":4400,"station_id":"ce4bh3p2rcd13ifvqdp0","pricing_plan_id":"cebpf4jnsgd1na2vs0mg"},{"bike_id":"f3bcefac-fe8a-4695-9c94-8f9d1e2650d4","system_id":"levelo_inurba_marseille","lat":43.32115,"lon":5.3677,"is_reserved":false,"is_disabled":false,"rental_uris":{"android":"levelo://app?vid=f3bcefac-fe8a-4695-9c94-8f9d1e2650d4","ios":"levelo://app?vid=f3bcefac-fe8a-4695-9c94-8f9d1e2650d4"},"vehicle_type_id":"4","last_reported":1751152184,"current_range_meters":4400,"station_id":"ce4bhrh2rcd13ifvqhug","pricing_plan_id":"cebpf4jnsgd1na2vs0mg"},{"bike_id":"a440f2f6-8cf8-4348-9ba1-e21002a18a07","system_id":"levelo_inurba_marseille","lat":43.32091,"lon":5.368,"is_reserved":false,"is_disabled":false,"rental_uris":{"android":"levelo://app?vid=a440f2f6-8cf8-4348-9ba1-e21002a18a07","ios":"levelo://app?vid=a440f2f6-8cf8-4348-9ba1-e21002a18a07"},"vehicle_type_id":"4","last_reported":1751152184,"current_range_meters":4400,"station_id":"ce4bhrh2rcd13ifvqhug","pricing_plan_id":"cebpf4jnsgd1na2vs0mg"},{"bike_id":"e3bc5b82-2173-4e05-a592-df8d2140dbdb","system_id":"levelo_inurba_marseille","lat":43.306433,"lon":5.400822,"is_reserved":false,"is_disabled":false,"rental_uris":{"android":"levelo://app?vid=e3bc5b82-2173-4e05-a592-df8d2140dbdb","ios":"levelo://app?vid=e3bc5b82-2173-4e05-a592-df8d2140dbdb"},"vehicle_type_id":"4","last_reported":1751152184,"current_range_meters":4800,"station_id":"ce4bh112rcd13ifvqda0","pricing_plan_id":"cebpf4jnsgd1na2vs0mg"},{"bike_id":"5664b309-6410-4feb-9c27-e0b7302fcdae","system_id":"levelo_inurba_marseille","lat":43.28698,"lon":5.37376,"is_reserved":false,"is_disabled":false,"rental_uris":{"android":"levelo://app?vid=5664b309-6410-4feb-9c27-e0b7302fcdae","ios":"levelo://app?vid=5664b309-6410-4feb-9c27-e0b7302fcdae"},"vehicle_type_id":"4","last_reported":1751152184,"current_range_meters":5600,"station_id":"ce4bh3p2rcd13ifvqdq0","pricing_plan_id":"cebpf4jnsgd1na2vs0mg"},{"bike_id":"e9e3558d-0d97-4789-abf5-a6c9fa2a024b","system_id":"levelo_inurba_marseille","lat":43.2902,"lon":5.3865,"is_reserved":false,"is_disabled":false,"rental_uris":{"android":"levelo://app?vid=e9e3558d-0d97-4789-abf5-a6c9fa2a024b","ios":"levelo://app?vid=e9e3558d-0d97-4789-abf5-a6c9fa2a024b"},"vehicle_type_id":"4","last_reported":1751152184,"current_range_meters":5600,"station_id":"ce4bh4p2rcd13ifvqe0g","pricing_plan_id":"cebpf4jnsgd1na2vs0mg"},{"bike_id":"d93518a7-acea-49d1-8b1d-66917831e25a","system_id":"levelo_inurba_marseille","lat":43.2836,"lon":5.39571,"is_reserved":false,"is_disabled":false,"rental_uris":{"android":"levelo://app?vid=d93518a7-acea-49d1-8b1d-66917831e25a","ios":"levelo://app?vid=d93518a7-acea-49d1-8b1d-66917831e25a"},"vehicle_type_id":"4","last_reported":1751152184,"current_range_meters":6000,"station_id":"","pricing_plan_id":"cebpf4jnsgd1na2vs0mg"},{"bike_id":"2d322d04-3a5c-45c8-8c18-fa22d60ab82d","system_id":"levelo_inurba_marseille","lat":43.29273,"lon":5.40162,"is_reserved":false,"is_disabled":false,"rental_uris":{"android":"levelo://app?vid=2d322d04-3a5c-45c8-8c18-fa22d60ab82d","ios":"levelo://app?vid=2d322d04-3a5c-45c8-8c18-fa22d60ab82d"},"vehicle_type_id":"4","last_reported":1751152184,"current_range_meters":6000,"station_id":"ce4bh312rcd13ifvqdk0","pricing_plan_id":"cebpf4jnsgd1na2vs0mg"},{"bike_id":"86173dfb-5439-4d56-94c3-9da5e16a88b3","system_id":"levelo_inurba_marseille","lat":43.31388,"lon":5.38483,"is_reserved":false,"is_disabled":false,"rental_uris":{"android":"levelo://app?vid=86173dfb-5439-4d56-94c3-9da5e16a88b3","ios":"levelo://app?vid=86173dfb-5439-4d56-94c3-9da5e16a88b3"},"vehicle_type_id":"4","last_reported":1751152184,"current_range_meters":6400,"station_id":"ce4bgt92rcd13ifvqcf0","pricing_plan_id":"cebpf4jnsgd1na2vs0mg"},{"bike_id":"9526d948-1a01-4ce4-aae8-dc35d754e698","system_id":"levelo_inurba_marseille","lat":43.30325,"lon":5.40445,"is_reserved":false,"is_disabled":false,"rental_uris":{"android":"levelo://app?vid=9526d948-1a01-4ce4-aae8-dc35d754e698","ios":"levelo://app?vid=9526d948-1a01-4ce4-aae8-dc35d754e698"},"vehicle_type_id":"4","last_reported":1751152184,"current_range_meters":6400,"station_id":"ce4bh012rcd13ifvqd10","pricing_plan_id":"cebpf4jnsgd1na2vs0mg"},{"bike_id":"8c6a0de7-605a-452b-93fc-e1f29555feb5","system_id":"levelo_inurba_marseille","lat":43.29857,"lon":5.39746,"is_reserved":false,"is_disabled":false,"rental_uris":{"android":"levelo://app?vid=8c6a0de7-605a-452b-93fc-e1f29555feb5","ios":"levelo://app?vid=8c6a0de7-605a-452b-93fc-e1f29555feb5"},"vehicle_type_id":"4","last_reported":1751152184,"current_range_meters":6400,"station_id":"ce4bh0h2rcd13ifvqd50","pricing_plan_id":"cebpf4jnsgd1na2vs0mg"},{"bike_id":"7c4b24a6-74e0-4139-a951-20f07aa1b949","system_id":"levelo_inurba_marseille","lat":43.30653,"lon":5.4006,"is_reserved":false,"is_disabled":false,"rental_uris":{"android":"levelo://app?vid=7c4b24a6-74e0-4139-a951-20f07aa1b949","ios":"levelo://app?vid=7c4b24a6-74e0-4139-a951-20f07aa1b949"},"vehicle_type_id":"4","last_reported":1751152184,"current_range_meters":6400,"station_id":"ce4bh112rcd13ifvqda0","pricing_plan_id":"cebpf4jnsgd1na2vs0mg"},{"bike_id":"6a1f47d4-a5ee-4a3a-8767-cd2c9d9d7486","system_id":"levelo_inurba_marseille","lat":43.29022,"lon":5.38645,"is_reserved":false,"is_disabled":false,"rental_uris":{"android":"levelo://app?vid=6a1f47d4-a5ee-4a3a-8767-cd2c9d9d7486","ios":"levelo://app?vid=6a1f47d4-a5ee-4a3a-8767-cd2c9d9d7486"},"vehicle_type_id":"4","last_reported":1751152184,"current_range_meters":6400,"station_id":"ce4bh4p2rcd13ifvqe0g","pricing_plan_id":"cebpf4jnsgd1na2vs0mg"},{"bike_id":"5ad79233-441e-424b-ac1f-24ee654010ad","system_id":"levelo_inurba_marseille","lat":43.29965,"lon":5.37165,"is_reserved":false,"is_disabled":false,"rental_uris":{"android":"levelo://app?vid=5ad79233-441e-424b-ac1f-24ee654010ad","ios":"levelo://app?vid=5ad79233-441e-424b-ac1f-24ee654010ad"},"vehicle_type_id":"4","last_reported":1751152184,"current_range_meters":6800,"station_id":"ce4bgr92rcd13ifvqc7g","pricing_plan_id":"cebpf4jnsgd1na2vs0mg"},{"bike_id":"a90872bf-8f0b-420d-b8ed-7655f378653c","system_id":"levelo_inurba_marseille","lat":43.30929,"lon":5.40145,"is_reserved":false,"is_disabled":false,"rental_uris":{"android":"levelo://app?vid=a90872bf-8f0b-420d-b8ed-7655f378653c","ios":"levelo://app?vid=a90872bf-8f0b-420d-b8ed-7655f378653c"},"vehicle_type_id":"4","last_reported":1751152184,"current_range_meters":6800,"station_id":"ce4bgvp2rcd13ifvqct0","pricing_plan_id":"cebpf4jnsgd1na2vs0mg"},{"bike_id":"97c6ad65-2772-478f-b275-f6be678c0384","system_id":"levelo_inurba_marseille","lat":43.295685,"lon":5.398901,"is_reserved":false,"is_disabled":false,"rental_uris":{"android":"levelo://app?vid=97c6ad65-2772-478f-b275-f6be678c0384","ios":"levelo://app?vid=97c6ad65-2772-478f-b275-f6be678c0384"},"vehicle_type_id":"4","last_reported":1751152184,"current_range_meters":6800,"station_id":"ce4bh312rcd13ifvqdj0","pricing_plan_id":"cebpf4jnsgd1na2vs0mg"},{"bike_id":"5aedb656-1b62-4ae8-82aa-8919c6951ce6","system_id":"levelo_inurba_marseille","lat":43.28464,"lon":5.35879,"is_reserved":false,"is_disabled":false,"rental_uris":{"android":"levelo://app?vid=5aedb656-1b62-4ae8-82aa-8919c6951ce6","ios":"levelo://app?vid=5aedb656-1b62-4ae8-82aa-8919c6951ce6"},"vehicle_type_id":"4","last_reported":1751152184,"current_range_meters":6800,"station_id":"ce4bhah2rcd13ifvqei0","pricing_plan_id":"cebpf4jnsgd1na2vs0mg"},{"bike_id":"afd36876-c0d7-44eb-b502-b545784ea8b0","system_id":"levelo_inurba_marseille","lat":43.27808,"lon":5.40721,"is_reserved":false,"is_disabled":false,"rental_uris":{"android":"levelo://app?vid=afd36876-c0d7-44eb-b502-b545784ea8b0","ios":"levelo://app?vid=afd36876-c0d7-44eb-b502-b545784ea8b0"},"vehicle_type_id":"4","last_reported":1751152184,"current_range_meters":6800,"station_id":"ce4bhnh2rcd13ifvqgtg","pricing_plan_id":"cebpf4jnsgd1na2vs0mg"},{"bike_id":"ddd51e35-1441-4859-bc19-a128acf558e1","system_id":"levelo_inurba_marseille","lat":43.31756,"lon":5.39021,"is_reserved":false,"is_disabled":false,"rental_uris":{"android":"levelo://app?vid=ddd51e35-1441-4859-bc19-a128acf558e1","ios":"levelo://app?vid=ddd51e35-1441-4859-bc19-a128acf558e1"},"vehicle_type_id":"4","last_reported":1751152184,"current_range_meters":6800,"station_id":"ce4bhqp2rcd13ifvqhng","pricing_plan_id":"cebpf4jnsgd1na2vs0mg"},{"bike_id":"e3ec5952-926b-4b24-962b-9016195e3547","system_id":"levelo_inurba_marseille","lat":43.32365,"lon":5.38904,"is_reserved":false,"is_disabled":false,"rental_uris":{"android":"levelo://app?vid=e3ec5952-926b-4b24-962b-9016195e3547","ios":"levelo://app?vid=e3ec5952-926b-4b24-962b-9016195e3547"},"vehicle_type_id":"4","last_reported":1751152184,"current_range_meters":6800,"station_id":"ce4bhqp2rcd13ifvqhog","pricing_plan_id":"cebpf4jnsgd1na2vs0mg"},{"bike_id":"1c8ab180-05fd-405f-9922-b2b2c2d5142f","system_id":"levelo_inurba_marseille","lat":43.32123,"lon":5.36793,"is_reserved":false,"is_disabled":false,"rental_uris":{"android":"levelo://app?vid=1c8ab180-05fd-405f-9922-b2b2c2d5142f","ios":"levelo://app?vid=1c8ab180-05fd-405f-9922-b2b2c2d5142f"},"vehicle_type_id":"4","last_reported":1751152184,"current_range_meters":6800,"station_id":"ce4bhrh2rcd13ifvqhug","pricing_plan_id":"cebpf4jnsgd1na2vs0mg"},{"bike_id":"10fcf38b-eb86-48e6-8406-2476cce8732a","system_id":"levelo_inurba_marseille","lat":43.29713,"lon":5.37702,"is_reserved":false,"is_disabled":false,"rental_uris":{"android":"levelo://app?vid=10fcf38b-eb86-48e6-8406-2476cce8732a","ios":"levelo://app?vid=10fcf38b-eb86-48e6-8406-2476cce8732a"},"vehicle_type_id":"4","last_reported":1751152184,"current_range_meters":8000,"station_id":"ce4bgkh2rcd13ifvqbl0","pricing_plan_id":"cebpf4jnsgd1na2vs0mg"},{"bike_id":"8b56c97b-e0de-4600-bb88-e49d71241164","system_id":"levelo_inurba_marseille","lat":43.28038,"lon":5.36953,"is_reserved":false,"is_disabled":false,"rental_uris":{"android":"levelo://app?vid=8b56c97b-e0de-4600-bb88-e49d71241164","ios":"levelo://app?vid=8b56c97b-e0de-4600-bb88-e49d71241164"},"vehicle_type_id":"4","last_reported":1751152184,"current_range_meters":8000,"station_id":"ce4bha12rcd13ifvqef0","pricing_plan_id":"cebpf4jnsgd1na2vs0mg"},{"bike_id":"ff7b050d-8f96-47e0-9ee4-ee887945ed8e","system_id":"levelo_inurba_marseille","lat":43.31108,"lon":5.38464,"is_reserved":false,"is_disabled":false,"rental_uris":{"android":"levelo://app?vid=ff7b050d-8f96-47e0-9ee4-ee887945ed8e","ios":"levelo://app?vid=ff7b050d-8f96-47e0-9ee4-ee887945ed8e"},"vehicle_type_id":"4","last_reported":1751152184,"current_range_meters":8400,"station_id":"","pricing_plan_id":"cebpf4jnsgd1na2vs0mg"},{"bike_id":"6ba3c878-96df-47b8-a9d1-e6780e7e3171","system_id":"levelo_inurba_marseille","lat":43.3112,"lon":5.37785,"is_reserved":false,"is_disabled":false,"rental_uris":{"android":"levelo://app?vid=6ba3c878-96df-47b8-a9d1-e6780e7e3171","ios":"levelo://app?vid=6ba3c878-96df-47b8-a9d1-e6780e7e3171"},"vehicle_type_id":"4","last_reported":1751152184,"current_range_meters":8400,"station_id":"ce4bgt92rcd13ifvqcg0","pricing_plan_id":"cebpf4jnsgd1na2vs0mg"},{"bike_id":"ae0e961d-13e9-455e-8d8f-aa970877754e","system_id":"levelo_inurba_marseille","lat":43.2885,"lon":5.39335,"is_reserved":false,"is_disabled":false,"rental_uris":{"android":"levelo://app?vid=ae0e961d-13e9-455e-8d8f-aa970877754e","ios":"levelo://app?vid=ae0e961d-13e9-455e-8d8f-aa970877754e"},"vehicle_type_id":"4","last_reported":1751152184,"current_range_meters":8400,"station_id":"ce4bh2p2rcd13ifvqdi0","pricing_plan_id":"cebpf4jnsgd1na2vs0mg"},{"bike_id":"7d74ccb8-d180-443b-856b-aab2d1900d70","system_id":"levelo_inurba_marseille","lat":43.28463,"lon":5.35887,"is_reserved":false,"is_disabled":false,"rental_uris":{"android":"levelo://app?vid=7d74ccb8-d180-443b-856b-aab2d1900d70","ios":"levelo://app?vid=7d74ccb8-d180-443b-856b-aab2d1900d70"},"vehicle_type_id":"4","last_reported":1751152184,"current_range_meters":8400,"station_id":"ce4bhah2rcd13ifvqei0","pricing_plan_id":"cebpf4jnsgd1na2vs0mg"},{"bike_id":"5285971f-a60d-4bb6-a928-38856b3aa436","system_id":"levelo_inurba_marseille","lat":43.27515,"lon":5.42467,"is_reserved":false,"is_disabled":false,"rental_uris":{"android":"levelo://app?vid=5285971f-a60d-4bb6-a928-38856b3aa436","ios":"levelo://app?vid=5285971f-a60d-4bb6-a928-38856b3aa436"},"vehicle_type_id":"4","last_reported":1751152184,"current_range_meters":8400,"station_id":"ce4bhn92rcd13ifvqgrg","pricing_plan_id":"cebpf4jnsgd1na2vs0mg"},{"bike_id":"d8a97814-f7b2-4fe8-89cc-19b809e7e23f","system_id":"levelo_inurba_marseille","lat":43.317614,"lon":5.390065,"is_reserved":false,"is_disabled":false,"rental_uris":{"android":"levelo://app?vid=d8a97814-f7b2-4fe8-89cc-19b809e7e23f","ios":"levelo://app?vid=d8a97814-f7b2-4fe8-89cc-19b809e7e23f"},"vehicle_type_id":"4","last_reported":1751152184,"current_range_meters":8400,"station_id":"ce4bhqp2rcd13ifvqhng","pricing_plan_id":"cebpf4jnsgd1na2vs0mg"},{"bike_id":"94b3972c-2152-456b-9059-c64e54c96492","system_id":"levelo_inurba_marseille","lat":43.32483,"lon":5.36568,"is_reserved":false,"is_disabled":false,"rental_uris":{"android":"levelo://app?vid=94b3972c-2152-456b-9059-c64e54c96492","ios":"levelo://app?vid=94b3972c-2152-456b-9059-c64e54c96492"},"vehicle_type_id":"4","last_reported":1751152184,"current_range_meters":8400,"station_id":"ce4bhs12rcd13ifvqhvg","pricing_plan_id":"cebpf4jnsgd1na2vs0mg"},{"bike_id":"863e84db-9603-4f15-9b07-8e1d0f9a7f6b","system_id":"levelo_inurba_marseille","lat":43.25104,"lon":5.40331,"is_reserved":false,"is_disabled":false,"rental_uris":{"android":"levelo://app?vid=863e84db-9603-4f15-9b07-8e1d0f9a7f6b","ios":"levelo://app?vid=863e84db-9603-4f15-9b07-8e1d0f9a7f6b"},"vehicle_type_id":"4","last_reported":1751152184,"current_range_meters":8800,"station_id":"ce4bhlh2rcd13ifvqgig","pricing_plan_id":"cebpf4jnsgd1na2vs0mg"},{"bike_id":"01d55084-1fb9-4fe6-abc8-8e45dd0f4f14","system_id":"levelo_inurba_marseille","lat":43.284377,"lon":5.392007,"is_reserved":false,"is_disabled":false,"rental_uris":{"android":"levelo://app?vid=01d55084-1fb9-4fe6-abc8-8e45dd0f4f14","ios":"levelo://app?vid=01d55084-1fb9-4fe6-abc8-8e45dd0f4f14"},"vehicle_type_id":"4","last_reported":1751152184,"current_range_meters":8800,"station_id":"ce4bhoh2rcd13ifvqh5g","pricing_plan_id":"cebpf4jnsgd1na2vs0mg"},{"bike_id":"d5e70777-ad97-4594-91b6-43ede9611b14","system_id":"levelo_inurba_marseille","lat":43.32134,"lon":5.36778,"is_reserved":false,"is_disabled":false,"rental_uris":{"android":"levelo://app?vid=d5e70777-ad97-4594-91b6-43ede9611b14","ios":"levelo://app?vid=d5e70777-ad97-4594-91b6-43ede9611b14"},"vehicle_type_id":"4","last_reported":1751152184,"current_range_meters":8800,"station_id":"ce4bhrh2rcd13ifvqhug","pricing_plan_id":"cebpf4jnsgd1na2vs0mg"},{"bike_id":"b9c284bb-85a3-4e0e-893b-566989df9f45","system_id":"levelo_inurba_marseille","lat":43.32468,"lon":5.36563,"is_reserved":false,"is_disabled":false,"rental_uris":{"android":"levelo://app?vid=b9c284bb-85a3-4e0e-893b-566989df9f45","ios":"levelo://app?vid=b9c284bb-85a3-4e0e-893b-566989df9f45"},"vehicle_type_id":"4","last_reported":1751152184,"current_range_meters":8800,"station_id":"ce4bhs12rcd13ifvqhvg","pricing_plan_id":"cebpf4jnsgd1na2vs0mg"},{"bike_id":"d41c9e50-b89b-42d9-8f7a-a95470ede763","system_id":"levelo_inurba_marseille","lat":43.258746,"lon":5.399028,"is_reserved":false,"is_disabled":false,"rental_uris":{"android":"levelo://app?vid=d41c9e50-b89b-42d9-8f7a-a95470ede763","ios":"levelo://app?vid=d41c9e50-b89b-42d9-8f7a-a95470ede763"},"vehicle_type_id":"4","last_reported":1751152184,"current_range_meters":9200,"station_id":"ce4bhl92rcd13ifvqghg","pricing_plan_id":"cebpf4jnsgd1na2vs0mg"},{"bike_id":"fa223700-22e1-48a8-9bb2-13dbc1b4ff95","system_id":"levelo_inurba_marseille","lat":43.336107,"lon":5.391946,"is_reserved":false,"is_disabled":false,"rental_uris":{"android":"levelo://app?vid=fa223700-22e1-48a8-9bb2-13dbc1b4ff95","ios":"levelo://app?vid=fa223700-22e1-48a8-9bb2-13dbc1b4ff95"},"vehicle_type_id":"4","last_reported":1751152184,"current_range_meters":9200,"station_id":"ce4bhr92rcd13ifvqhsg","pricing_plan_id":"cebpf4jnsgd1na2vs0mg"},{"bike_id":"fa05065a-ec51-4aa6-98f6-495d2a8a7726","system_id":"levelo_inurba_marseille","lat":43.32474,"lon":5.36578,"is_reserved":false,"is_disabled":false,"rental_uris":{"android":"levelo://app?vid=fa05065a-ec51-4aa6-98f6-495d2a8a7726","ios":"levelo://app?vid=fa05065a-ec51-4aa6-98f6-495d2a8a7726"},"vehicle_type_id":"4","last_reported":1751152184,"current_range_meters":9200,"station_id":"ce4bhs12rcd13ifvqhvg","pricing_plan_id":"cebpf4jnsgd1na2vs0mg"},{"bike_id":"9cef0975-2240-4a7a-a4c4-e7aa5fce9408","system_id":"levelo_inurba_marseille","lat":43.32489,"lon":5.36564,"is_reserved":false,"is_disabled":false,"rental_uris":{"android":"levelo://app?vid=9cef0975-2240-4a7a-a4c4-e7aa5fce9408","ios":"levelo://app?vid=9cef0975-2240-4a7a-a4c4-e7aa5fce9408"},"vehicle_type_id":"4","last_reported":1751152184,"current_range_meters":9200,"station_id":"ce4bhs12rcd13ifvqhvg","pricing_plan_id":"cebpf4jnsgd1na2vs0mg"},{"bike_id":"e6ce70f7-9138-485c-a4db-2c9174614cff","system_id":"levelo_inurba_marseille","lat":43.31751,"lon":5.36847,"is_reserved":false,"is_disabled":false,"rental_uris":{"android":"levelo://app?vid=e6ce70f7-9138-485c-a4db-2c9174614cff","ios":"levelo://app?vid=e6ce70f7-9138-485c-a4db-2c9174614cff"},"vehicle_type_id":"4","last_reported":1751152184,"current_range_meters":9600,"station_id":"","pricing_plan_id":"cebpf4jnsgd1na2vs0mg"},{"bike_id":"2d8eb678-af31-4555-b255-0cb62b669fa7","system_id":"levelo_inurba_marseille","lat":43.25087,"lon":5.39527,"is_reserved":false,"is_disabled":false,"rental_uris":{"android":"levelo://app?vid=2d8eb678-af31-4555-b255-0cb62b669fa7","ios":"levelo://app?vid=2d8eb678-af31-4555-b255-0cb62b669fa7"},"vehicle_type_id":"4","last_reported":1751152184,"current_range_meters":9600,"station_id":"ce4bhm12rcd13ifvqgkg","pricing_plan_id":"cebpf4jnsgd1na2vs0mg"},{"bike_id":"13726ea4-91b3-4b24-87ce-db653217d50c","system_id":"levelo_inurba_marseille","lat":43.321192,"lon":5.367619,"is_reserved":false,"is_disabled":false,"rental_uris":{"android":"levelo://app?vid=13726ea4-91b3-4b24-87ce-db653217d50c","ios":"levelo://app?vid=13726ea4-91b3-4b24-87ce-db653217d50c"},"vehicle_type_id":"4","last_reported":1751152184,"current_range_meters":9600,"station_id":"ce4bhrh2rcd13ifvqhug","pricing_plan_id":"cebpf4jnsgd1na2vs0mg"},{"bike_id":"bbc4a376-bee7-4ad5-a49a-1022d27c1489","system_id":"levelo_inurba_marseille","lat":43.321,"lon":5.36796,"is_reserved":false,"is_disabled":false,"rental_uris":{"android":"levelo://app?vid=bbc4a376-bee7-4ad5-a49a-1022d27c1489","ios":"levelo://app?vid=bbc4a376-bee7-4ad5-a49a-1022d27c1489"},"vehicle_type_id":"4","last_reported":1751152184,"current_range_meters":9600,"station_id":"ce4bhrh2rcd13ifvqhug","pricing_plan_id":"cebpf4jnsgd1na2vs0mg"},{"bike_id":"44b677c8-76ed-4eac-8888-58151f9d5d6e","system_id":"levelo_inurba_marseille","lat":43.31946,"lon":5.36798,"is_reserved":false,"is_disabled":false,"rental_uris":{"android":"levelo://app?vid=44b677c8-76ed-4eac-8888-58151f9d5d6e","ios":"levelo://app?vid=44b677c8-76ed-4eac-8888-58151f9d5d6e"},"vehicle_type_id":"4","last_reported":1751152184,"current_range_meters":10000,"station_id":"","pricing_plan_id":"cebpf4jnsgd1na2vs0mg"},{"bike_id":"f82c321e-3e4b-4eb7-8ee9-46d477b5be87","system_id":"levelo_inurba_marseille","lat":43.31355,"lon":5.38492,"is_reserved":false,"is_disabled":false,"rental_uris":{"android":"levelo://app?vid=f82c321e-3e4b-4eb7-8ee9-46d477b5be87","ios":"levelo://app?vid=f82c321e-3e4b-4eb7-8ee9-46d477b5be87"},"vehicle_type_id":"4","last_reported":1751152184,"current_range_meters":10000,"station_id":"ce4bgt92rcd13ifvqcf0","pricing_plan_id":"cebpf4jnsgd1na2vs0mg"},{"bike_id":"ee1ba1f3-8101-45d3-a694-5fc9983a8b5c","system_id":"levelo_inurba_marseille","lat":43.29625,"lon":5.40592,"is_reserved":false,"is_disabled":false,"rental_uris":{"android":"levelo://app?vid=ee1ba1f3-8101-45d3-a694-5fc9983a8b5c","ios":"levelo://app?vid=ee1ba1f3-8101-45d3-a694-5fc9983a8b5c"},"vehicle_type_id":"4","last_reported":1751152184,"current_range_meters":10000,"station_id":"ce4bh0h2rcd13ifvqd60","pricing_plan_id":"cebpf4jnsgd1na2vs0mg"},{"bike_id":"9ad3f34f-2bd3-40cd-9294-9c3e7709438b","system_id":"levelo_inurba_marseille","lat":43.28095,"lon":5.37843,"is_reserved":false,"is_disabled":false,"rental_uris":{"android":"levelo://app?vid=9ad3f34f-2bd3-40cd-9294-9c3e7709438b","ios":"levelo://app?vid=9ad3f34f-2bd3-40cd-9294-9c3e7709438b"},"vehicle_type_id":"4","last_reported":1751152184,"current_range_meters":10000,"station_id":"ce4bha12rcd13ifvqee0","pricing_plan_id":"cebpf4jnsgd1na2vs0mg"},{"bike_id":"873256bf-030f-48f2-9da5-60f4daab0bef","system_id":"levelo_inurba_marseille","lat":43.25102,"lon":5.40336,"is_reserved":false,"is_disabled":false,"rental_uris":{"android":"levelo://app?vid=873256bf-030f-48f2-9da5-60f4daab0bef","ios":"levelo://app?vid=873256bf-030f-48f2-9da5-60f4daab0bef"},"vehicle_type_id":"4","last_reported":1751152184,"current_range_meters":10000,"station_id":"ce4bhlh2rcd13ifvqgig","pricing_plan_id":"cebpf4jnsgd1na2vs0mg"},{"bike_id":"9f297130-0204-45c6-8b69-8a33f1225339","system_id":"levelo_inurba_marseille","lat":43.31354,"lon":5.38498,"is_reserved":false,"is_disabled":false,"rental_uris":{"android":"levelo://app?vid=9f297130-0204-45c6-8b69-8a33f1225339","ios":"levelo://app?vid=9f297130-0204-45c6-8b69-8a33f1225339"},"vehicle_type_id":"4","last_reported":1751152184,"current_range_meters":10800,"station_id":"ce4bgt92rcd13ifvqcf0","pricing_plan_id":"cebpf4jnsgd1na2vs0mg"},{"bike_id":"fbc7a420-26b5-4a64-b4c0-a8a33ef666e5","system_id":"levelo_inurba_marseille","lat":43.30785,"lon":5.37661,"is_reserved":false,"is_disabled":false,"rental_uris":{"android":"levelo://app?vid=fbc7a420-26b5-4a64-b4c0-a8a33ef666e5","ios":"levelo://app?vid=fbc7a420-26b5-4a64-b4c0-a8a33ef666e5"},"vehicle_type_id":"4","last_reported":1751152184,"current_range_meters":10800,"station_id":"ce4bgv92rcd13ifvqcq0","pricing_plan_id":"cebpf4jnsgd1na2vs0mg"},{"bike_id":"afd6e774-29f8-4928-9b0e-b3dcf4448abd","system_id":"levelo_inurba_marseille","lat":43.24549,"lon":5.39544,"is_reserved":false,"is_disabled":false,"rental_uris":{"android":"levelo://app?vid=afd6e774-29f8-4928-9b0e-b3dcf4448abd","ios":"levelo://app?vid=afd6e774-29f8-4928-9b0e-b3dcf4448abd"},"vehicle_type_id":"4","last_reported":1751152184,"current_range_meters":10800,"station_id":"ce4bhlp2rcd13ifvqgjg","pricing_plan_id":"cebpf4jnsgd1na2vs0mg"},{"bike_id":"5ca85093-e1df-48ec-8995-f2e77b82b5ad","system_id":"levelo_inurba_marseille","lat":43.31757,"lon":5.39022,"is_reserved":false,"is_disabled":false,"rental_uris":{"android":"levelo://app?vid=5ca85093-e1df-48ec-8995-f2e77b82b5ad","ios":"levelo://app?vid=5ca85093-e1df-48ec-8995-f2e77b82b5ad"},"vehicle_type_id":"4","last_reported":1751152184,"current_range_meters":10800,"station_id":"ce4bhqp2rcd13ifvqhng","pricing_plan_id":"cebpf4jnsgd1na2vs0mg"},{"bike_id":"873ce198-d36d-4815-8778-b72bd2ca0116","system_id":"levelo_inurba_marseille","lat":43.32111,"lon":5.36778,"is_reserved":false,"is_disabled":false,"rental_uris":{"android":"levelo://app?vid=873ce198-d36d-4815-8778-b72bd2ca0116","ios":"levelo://app?vid=873ce198-d36d-4815-8778-b72bd2ca0116"},"vehicle_type_id":"4","last_reported":1751152184,"current_range_meters":10800,"station_id":"ce4bhrh2rcd13ifvqhug","pricing_plan_id":"cebpf4jnsgd1na2vs0mg"},{"bike_id":"13fabc0f-5bfd-4dc8-9136-84b1659cd66b","system_id":"levelo_inurba_marseille","lat":43.21198,"lon":5.35087,"is_reserved":false,"is_disabled":false,"rental_uris":{"android":"levelo://app?vid=13fabc0f-5bfd-4dc8-9136-84b1659cd66b","ios":"levelo://app?vid=13fabc0f-5bfd-4dc8-9136-84b1659cd66b"},"vehicle_type_id":"4","last_reported":1751152184,"current_range_meters":10800,"station_id":"st_cvj6sg6p6f1abm77japg","pricing_plan_id":"cebpf4jnsgd1na2vs0mg"},{"bike_id":"12c7fc9f-7c7b-4185-9b2f-badd0c17e36b","system_id":"levelo_inurba_marseille","lat":43.24724,"lon":5.37466,"is_reserved":false,"is_disabled":false,"rental_uris":{"android":"levelo://app?vid=12c7fc9f-7c7b-4185-9b2f-badd0c17e36b","ios":"levelo://app?vid=12c7fc9f-7c7b-4185-9b2f-badd0c17e36b"},"vehicle_type_id":"4","last_reported":1751152184,"current_range_meters":11200,"station_id":"","pricing_plan_id":"cebpf4jnsgd1na2vs0mg"},{"bike_id":"721165c1-ef6f-40cc-8d33-af3a7999864b","system_id":"levelo_inurba_marseille","lat":43.32586,"lon":5.37883,"is_reserved":false,"is_disabled":false,"rental_uris":{"android":"levelo://app?vid=721165c1-ef6f-40cc-8d33-af3a7999864b","ios":"levelo://app?vid=721165c1-ef6f-40cc-8d33-af3a7999864b"},"vehicle_type_id":"4","last_reported":1751152184,"current_range_meters":11200,"station_id":"","pricing_plan_id":"cebpf4jnsgd1na2vs0mg"},{"bike_id":"01d2f5b3-2f17-44fd-9669-93ec1516361a","system_id":"levelo_inurba_marseille","lat":43.294409,"lon":5.39752,"is_reserved":false,"is_disabled":false,"rental_uris":{"android":"levelo://app?vid=01d2f5b3-2f17-44fd-9669-93ec1516361a","ios":"levelo://app?vid=01d2f5b3-2f17-44fd-9669-93ec1516361a"},"vehicle_type_id":"4","last_reported":1751152184,"current_range_meters":11200,"station_id":"ce4bh3h2rcd13ifvqdo0","pricing_plan_id":"cebpf4jnsgd1na2vs0mg"},{"bike_id":"a7883090-0e10-4075-944b-a3cca54bc544","system_id":"levelo_inurba_marseille","lat":43.22498,"lon":5.34788,"is_reserved":false,"is_disabled":false,"rental_uris":{"android":"levelo://app?vid=a7883090-0e10-4075-944b-a3cca54bc544","ios":"levelo://app?vid=a7883090-0e10-4075-944b-a3cca54bc544"},"vehicle_type_id":"4","last_reported":1751152184,"current_range_meters":11200,"station_id":"st_cvj5dfep6f1abm77gieg","pricing_plan_id":"cebpf4jnsgd1na2vs0mg"},{"bike_id":"071d9ad8-79e9-447b-b25c-0a0463116df8","system_id":"levelo_inurba_marseille","lat":43.23863,"lon":5.36529,"is_reserved":false,"is_disabled":false,"rental_uris":{"android":"levelo://app?vid=071d9ad8-79e9-447b-b25c-0a0463116df8","ios":"levelo://app?vid=071d9ad8-79e9-447b-b25c-0a0463116df8"},"vehicle_type_id":"4","last_reported":1751152184,"current_range_meters":11600,"station_id":"","pricing_plan_id":"cebpf4jnsgd1na2vs0mg"},{"bike_id":"a63f8bfa-3fba-4d8c-bbb0-738faae29dff","system_id":"levelo_inurba_marseille","lat":43.29417,"lon":5.38624,"is_reserved":false,"is_disabled":false,"rental_uris":{"android":"levelo://app?vid=a63f8bfa-3fba-4d8c-bbb0-738faae29dff","ios":"levelo://app?vid=a63f8bfa-3fba-4d8c-bbb0-738faae29dff"},"vehicle_type_id":"4","last_reported":1751152184,"current_range_meters":11600,"station_id":"ce4bh2h2rcd13ifvqdh0","pricing_plan_id":"cebpf4jnsgd1na2vs0mg"},{"bike_id":"85292756-af92-4bee-bebf-5472260850f9","system_id":"levelo_inurba_marseille","lat":43.2902,"lon":5.40002,"is_reserved":false,"is_disabled":false,"rental_uris":{"android":"levelo://app?vid=85292756-af92-4bee-bebf-5472260850f9","ios":"levelo://app?vid=85292756-af92-4bee-bebf-5472260850f9"},"vehicle_type_id":"4","last_reported":1751152184,"current_range_meters":11600,"station_id":"ce4bh392rcd13ifvqdm0","pricing_plan_id":"cebpf4jnsgd1na2vs0mg"},{"bike_id":"0811f159-3469-4901-a72c-cd1802c079d4","system_id":"levelo_inurba_marseille","lat":43.29528,"lon":5.39044,"is_reserved":false,"is_disabled":false,"rental_uris":{"android":"levelo://app?vid=0811f159-3469-4901-a72c-cd1802c079d4","ios":"levelo://app?vid=0811f159-3469-4901-a72c-cd1802c079d4"},"vehicle_type_id":"4","last_reported":1751152184,"current_range_meters":11600,"station_id":"ce4bh3p2rcd13ifvqdp0","pricing_plan_id":"cebpf4jnsgd1na2vs0mg"},{"bike_id":"0a2f8406-6c2a-4def-8bc2-12205b037e9f","system_id":"levelo_inurba_marseille","lat":43.30528,"lon":5.38436,"is_reserved":false,"is_disabled":false,"rental_uris":{"android":"levelo://app?vid=0a2f8406-6c2a-4def-8bc2-12205b037e9f","ios":"levelo://app?vid=0a2f8406-6c2a-4def-8bc2-12205b037e9f"},"vehicle_type_id":"4","last_reported":1751152184,"current_range_meters":12000,"station_id":"ce4bgg92rcd13ifvqb30","pricing_plan_id":"cebpf4jnsgd1na2vs0mg"},{"bike_id":"4d937ec3-61c4-4993-9925-008936e51a09","system_id":"levelo_inurba_marseille","lat":43.27975,"lon":5.3875,"is_reserved":false,"is_disabled":false,"rental_uris":{"android":"levelo://app?vid=4d937ec3-61c4-4993-9925-008936e51a09","ios":"levelo://app?vid=4d937ec3-61c4-4993-9925-008936e51a09"},"vehicle_type_id":"4","last_reported":1751152184,"current_range_meters":12000,"station_id":"ce4bhg12rcd13ifvqf80","pricing_plan_id":"cebpf4jnsgd1na2vs0mg"},{"bike_id":"762acdc5-9b99-47a0-bda1-ee8060271245","system_id":"levelo_inurba_marseille","lat":43.21194,"lon":5.35073,"is_reserved":false,"is_disabled":false,"rental_uris":{"android":"levelo://app?vid=762acdc5-9b99-47a0-bda1-ee8060271245","ios":"levelo://app?vid=762acdc5-9b99-47a0-bda1-ee8060271245"},"vehicle_type_id":"4","last_reported":1751152184,"current_range_meters":12000,"station_id":"st_cvj6sg6p6f1abm77japg","pricing_plan_id":"cebpf4jnsgd1na2vs0mg"},{"bike_id":"cffacff1-9d5d-47a5-8701-7f50bdcda5ee","system_id":"levelo_inurba_marseille","lat":43.296829,"lon":5.373042,"is_reserved":false,"is_disabled":false,"rental_uris":{"android":"levelo://app?vid=cffacff1-9d5d-47a5-8701-7f50bdcda5ee","ios":"levelo://app?vid=cffacff1-9d5d-47a5-8701-7f50bdcda5ee"},"vehicle_type_id":"4","last_reported":1751152184,"current_range_meters":12400,"station_id":"","pricing_plan_id":"cebpf4jnsgd1na2vs0mg"},{"bike_id":"bcf09066-1d3a-42c7-8585-479bae04277c","system_id":"levelo_inurba_marseille","lat":43.30634,"lon":5.401,"is_reserved":false,"is_disabled":false,"rental_uris":{"android":"levelo://app?vid=bcf09066-1d3a-42c7-8585-479bae04277c","ios":"levelo://app?vid=bcf09066-1d3a-42c7-8585-479bae04277c"},"vehicle_type_id":"4","last_reported":1751152184,"current_range_meters":12400,"station_id":"ce4bh112rcd13ifvqda0","pricing_plan_id":"cebpf4jnsgd1na2vs0mg"},{"bike_id":"da623dfa-bb54-47f1-8422-dd74995cfe45","system_id":"levelo_inurba_marseille","lat":43.29077,"lon":5.371583,"is_reserved":false,"is_disabled":false,"rental_uris":{"android":"levelo://app?vid=da623dfa-bb54-47f1-8422-dd74995cfe45","ios":"levelo://app?vid=da623dfa-bb54-47f1-8422-dd74995cfe45"},"vehicle_type_id":"4","last_reported":1751152184,"current_range_meters":12400,"station_id":"ce4bh5p2rcd13ifvqe4g","pricing_plan_id":"cebpf4jnsgd1na2vs0mg"},{"bike_id":"d5071514-86f2-4b33-ac02-0c595bd5412f","system_id":"levelo_inurba_marseille","lat":43.28605,"lon":5.37067,"is_reserved":false,"is_disabled":false,"rental_uris":{"android":"levelo://app?vid=d5071514-86f2-4b33-ac02-0c595bd5412f","ios":"levelo://app?vid=d5071514-86f2-4b33-ac02-0c595bd5412f"},"vehicle_type_id":"4","last_reported":1751152184,"current_range_meters":12400,"station_id":"ce4bht12rcd13ifvqi60","pricing_plan_id":"cebpf4jnsgd1na2vs0mg"},{"bike_id":"91b65e10-0e4e-418a-bcf7-105b8872a5de","system_id":"levelo_inurba_marseille","lat":43.23096,"lon":5.35449,"is_reserved":false,"is_disabled":false,"rental_uris":{"android":"levelo://app?vid=91b65e10-0e4e-418a-bcf7-105b8872a5de","ios":"levelo://app?vid=91b65e10-0e4e-418a-bcf7-105b8872a5de"},"vehicle_type_id":"4","last_reported":1751152184,"current_range_meters":12800,"station_id":"","pricing_plan_id":"cebpf4jnsgd1na2vs0mg"},{"bike_id":"a94edd01-8810-4929-842c-692ebb8d2503","system_id":"levelo_inurba_marseille","lat":43.29534,"lon":5.3856,"is_reserved":false,"is_disabled":false,"rental_uris":{"android":"levelo://app?vid=a94edd01-8810-4929-842c-692ebb8d2503","ios":"levelo://app?vid=a94edd01-8810-4929-842c-692ebb8d2503"},"vehicle_type_id":"4","last_reported":1751152184,"current_range_meters":12800,"station_id":"ce4bgih2rcd13ifvqba0","pricing_plan_id":"cebpf4jnsgd1na2vs0mg"},{"bike_id":"bc6ff6df-9aa7-4f21-a3e3-3288d6259e9d","system_id":"levelo_inurba_marseille","lat":43.29981,"lon":5.37174,"is_reserved":false,"is_disabled":false,"rental_uris":{"android":"levelo://app?vid=bc6ff6df-9aa7-4f21-a3e3-3288d6259e9d","ios":"levelo://app?vid=bc6ff6df-9aa7-4f21-a3e3-3288d6259e9d"},"vehicle_type_id":"4","last_reported":1751152184,"current_range_meters":12800,"station_id":"ce4bgr92rcd13ifvqc7g","pricing_plan_id":"cebpf4jnsgd1na2vs0mg"},{"bike_id":"2d93a0d2-fb07-4354-a771-5e409a51d11d","system_id":"levelo_inurba_marseille","lat":43.29561,"lon":5.39977,"is_reserved":false,"is_disabled":false,"rental_uris":{"android":"levelo://app?vid=2d93a0d2-fb07-4354-a771-5e409a51d11d","ios":"levelo://app?vid=2d93a0d2-fb07-4354-a771-5e409a51d11d"},"vehicle_type_id":"4","last_reported":1751152184,"current_range_meters":12800,"station_id":"ce4bh312rcd13ifvqdj0","pricing_plan_id":"cebpf4jnsgd1na2vs0mg"},{"bike_id":"c4e23027-fb76-4e12-a17a-e866f2d0c4a5","system_id":"levelo_inurba_marseille","lat":43.26061,"lon":5.37562,"is_reserved":false,"is_disabled":false,"rental_uris":{"android":"levelo://app?vid=c4e23027-fb76-4e12-a17a-e866f2d0c4a5","ios":"levelo://app?vid=c4e23027-fb76-4e12-a17a-e866f2d0c4a5"},"vehicle_type_id":"4","last_reported":1751152184,"current_range_meters":12800,"station_id":"ce4bhgh2rcd13ifvqfa0","pricing_plan_id":"cebpf4jnsgd1na2vs0mg"},{"bike_id":"5d06bbc2-bdb1-47c0-a157-ebfbff8278b5","system_id":"levelo_inurba_marseille","lat":43.31068,"lon":5.38358,"is_reserved":false,"is_disabled":false,"rental_uris":{"android":"levelo://app?vid=5d06bbc2-bdb1-47c0-a157-ebfbff8278b5","ios":"levelo://app?vid=5d06bbc2-bdb1-47c0-a157-ebfbff8278b5"},"vehicle_type_id":"4","last_reported":1751152184,"current_range_meters":13600,"station_id":"ce4bgv92rcd13ifvqcr0","pricing_plan_id":"cebpf4jnsgd1na2vs0mg"},{"bike_id":"bdb9866c-7cf3-44e4-aef4-efe6b2a74adf","system_id":"levelo_inurba_marseille","lat":43.29065,"lon":5.3716,"is_reserved":false,"is_disabled":false,"rental_uris":{"android":"levelo://app?vid=bdb9866c-7cf3-44e4-aef4-efe6b2a74adf","ios":"levelo://app?vid=bdb9866c-7cf3-44e4-aef4-efe6b2a74adf"},"vehicle_type_id":"4","last_reported":1751152184,"current_range_meters":13600,"station_id":"ce4bh5p2rcd13ifvqe4g","pricing_plan_id":"cebpf4jnsgd1na2vs0mg"},{"bike_id":"c0a2de0a-20e3-4e62-848e-f0dbd6b2e588","system_id":"levelo_inurba_marseille","lat":43.22504,"lon":5.34824,"is_reserved":false,"is_disabled":false,"rental_uris":{"android":"levelo://app?vid=c0a2de0a-20e3-4e62-848e-f0dbd6b2e588","ios":"levelo://app?vid=c0a2de0a-20e3-4e62-848e-f0dbd6b2e588"},"vehicle_type_id":"4","last_reported":1751152184,"current_range_meters":13600,"station_id":"st_cvj5dfep6f1abm77gieg","pricing_plan_id":"cebpf4jnsgd1na2vs0mg"},{"bike_id":"2c96280c-20e4-4f24-8d01-9c44c7558d89","system_id":"levelo_inurba_marseille","lat":43.31272,"lon":5.4018,"is_reserved":false,"is_disabled":false,"rental_uris":{"android":"levelo://app?vid=2c96280c-20e4-4f24-8d01-9c44c7558d89","ios":"levelo://app?vid=2c96280c-20e4-4f24-8d01-9c44c7558d89"},"vehicle_type_id":"4","last_reported":1751152184,"current_range_meters":14000,"station_id":"ce4bh092rcd13ifvqd30","pricing_plan_id":"cebpf4jnsgd1na2vs0mg"},{"bike_id":"29a831bc-f3e2-4316-978e-5abfbb6f9509","system_id":"levelo_inurba_marseille","lat":43.294373,"lon":5.39747,"is_reserved":false,"is_disabled":false,"rental_uris":{"android":"levelo://app?vid=29a831bc-f3e2-4316-978e-5abfbb6f9509","ios":"levelo://app?vid=29a831bc-f3e2-4316-978e-5abfbb6f9509"},"vehicle_type_id":"4","last_reported":1751152184,"current_range_meters":14000,"station_id":"ce4bh3h2rcd13ifvqdo0","pricing_plan_id":"cebpf4jnsgd1na2vs0mg"},{"bike_id":"f2df2cd9-5e20-49bd-abe0-d8a190344980","system_id":"levelo_inurba_marseille","lat":43.2794,"lon":5.41051,"is_reserved":false,"is_disabled":false,"rental_uris":{"android":"levelo://app?vid=f2df2cd9-5e20-49bd-abe0-d8a190344980","ios":"levelo://app?vid=f2df2cd9-5e20-49bd-abe0-d8a190344980"},"vehicle_type_id":"4","last_reported":1751152184,"current_range_meters":14000,"station_id":"ce4bhnp2rcd13ifvqh0g","pricing_plan_id":"cebpf4jnsgd1na2vs0mg"},{"bike_id":"f810be2a-3c00-446f-9ba1-1f3840ce349d","system_id":"levelo_inurba_marseille","lat":43.32102,"lon":5.36795,"is_reserved":false,"is_disabled":false,"rental_uris":{"android":"levelo://app?vid=f810be2a-3c00-446f-9ba1-1f3840ce349d","ios":"levelo://app?vid=f810be2a-3c00-446f-9ba1-1f3840ce349d"},"vehicle_type_id":"4","last_reported":1751152184,"current_range_meters":14000,"station_id":"ce4bhrh2rcd13ifvqhug","pricing_plan_id":"cebpf4jnsgd1na2vs0mg"},{"bike_id":"bdb53073-0c98-452a-965a-959937fafcc5","system_id":"levelo_inurba_marseille","lat":43.32478,"lon":5.36565,"is_reserved":false,"is_disabled":false,"rental_uris":{"android":"levelo://app?vid=bdb53073-0c98-452a-965a-959937fafcc5","ios":"levelo://app?vid=bdb53073-0c98-452a-965a-959937fafcc5"},"vehicle_type_id":"4","last_reported":1751152184,"current_range_meters":14000,"station_id":"ce4bhs12rcd13ifvqhvg","pricing_plan_id":"cebpf4jnsgd1na2vs0mg"},{"bike_id":"2a9a5366-8dad-42f1-bee6-ffb042c54776","system_id":"levelo_inurba_marseille","lat":43.211916,"lon":5.350773,"is_reserved":false,"is_disabled":false,"rental_uris":{"android":"levelo://app?vid=2a9a5366-8dad-42f1-bee6-ffb042c54776","ios":"levelo://app?vid=2a9a5366-8dad-42f1-bee6-ffb042c54776"},"vehicle_type_id":"4","last_reported":1751152184,"current_range_meters":14000,"station_id":"st_cvj6sg6p6f1abm77japg","pricing_plan_id":"cebpf4jnsgd1na2vs0mg"},{"bike_id":"f1743b68-4478-4b4d-ab07-e975431e3097","system_id":"levelo_inurba_marseille","lat":43.29794,"lon":5.40407,"is_reserved":false,"is_disabled":false,"rental_uris":{"android":"levelo://app?vid=f1743b68-4478-4b4d-ab07-e975431e3097","ios":"levelo://app?vid=f1743b68-4478-4b4d-ab07-e975431e3097"},"vehicle_type_id":"4","last_reported":1751152184,"current_range_meters":14400,"station_id":"ce4bh112rcd13ifvqd90","pricing_plan_id":"cebpf4jnsgd1na2vs0mg"},{"bike_id":"7940f31e-7cf3-4205-9d54-f48d5300eb5a","system_id":"levelo_inurba_marseille","lat":43.28722,"lon":5.36091,"is_reserved":false,"is_disabled":false,"rental_uris":{"android":"levelo://app?vid=7940f31e-7cf3-4205-9d54-f48d5300eb5a","ios":"levelo://app?vid=7940f31e-7cf3-4205-9d54-f48d5300eb5a"},"vehicle_type_id":"4","last_reported":1751152184,"current_range_meters":14400,"station_id":"cki0cbj6b192h4jlfktg","pricing_plan_id":"cebpf4jnsgd1na2vs0mg"},{"bike_id":"e5e9e78b-4730-43b1-8651-5c571c638bbb","system_id":"levelo_inurba_marseille","lat":43.21209,"lon":5.35078,"is_reserved":false,"is_disabled":false,"rental_uris":{"android":"levelo://app?vid=e5e9e78b-4730-43b1-8651-5c571c638bbb","ios":"levelo://app?vid=e5e9e78b-4730-43b1-8651-5c571c638bbb"},"vehicle_type_id":"4","last_reported":1751152184,"current_range_meters":14400,"station_id":"st_cvj6sg6p6f1abm77japg","pricing_plan_id":"cebpf4jnsgd1na2vs0mg"},{"bike_id":"735fb3ec-51d3-42a0-b0e0-35a6ef148211","system_id":"levelo_inurba_marseille","lat":43.31292,"lon":5.37325,"is_reserved":false,"is_disabled":false,"rental_uris":{"android":"levelo://app?vid=735fb3ec-51d3-42a0-b0e0-35a6ef148211","ios":"levelo://app?vid=735fb3ec-51d3-42a0-b0e0-35a6ef148211"},"vehicle_type_id":"4","last_reported":1751152184,"current_range_meters":14800,"station_id":"","pricing_plan_id":"cebpf4jnsgd1na2vs0mg"},{"bike_id":"5ce69dd2-d017-41fb-9193-ab3e097b4e8d","system_id":"levelo_inurba_marseille","lat":43.2954,"lon":5.38536,"is_reserved":false,"is_disabled":false,"rental_uris":{"android":"levelo://app?vid=5ce69dd2-d017-41fb-9193-ab3e097b4e8d","ios":"levelo://app?vid=5ce69dd2-d017-41fb-9193-ab3e097b4e8d"},"vehicle_type_id":"4","last_reported":1751152184,"current_range_meters":14800,"station_id":"ce4bgih2rcd13ifvqba0","pricing_plan_id":"cebpf4jnsgd1na2vs0mg"},{"bike_id":"4f1d3660-1cb6-45ed-a18f-37e5b7010bd2","system_id":"levelo_inurba_marseille","lat":43.31073,"lon":5.38361,"is_reserved":false,"is_disabled":false,"rental_uris":{"android":"levelo://app?vid=4f1d3660-1cb6-45ed-a18f-37e5b7010bd2","ios":"levelo://app?vid=4f1d3660-1cb6-45ed-a18f-37e5b7010bd2"},"vehicle_type_id":"4","last_reported":1751152184,"current_range_meters":14800,"station_id":"ce4bgv92rcd13ifvqcr0","pricing_plan_id":"cebpf4jnsgd1na2vs0mg"},{"bike_id":"7ed1995d-bbd8-4a1c-be2d-7dad4d62cc5e","system_id":"levelo_inurba_marseille","lat":43.29193,"lon":5.39322,"is_reserved":false,"is_disabled":false,"rental_uris":{"android":"levelo://app?vid=7ed1995d-bbd8-4a1c-be2d-7dad4d62cc5e","ios":"levelo://app?vid=7ed1995d-bbd8-4a1c-be2d-7dad4d62cc5e"},"vehicle_type_id":"4","last_reported":1751152184,"current_range_meters":14800,"station_id":"ce4bh192rcd13ifvqdd0","pricing_plan_id":"cebpf4jnsgd1na2vs0mg"},{"bike_id":"ccc0ae42-50e0-4e3f-97b9-5c6383587979","system_id":"levelo_inurba_marseille","lat":43.29279,"lon":5.40121,"is_reserved":false,"is_disabled":false,"rental_uris":{"android":"levelo://app?vid=ccc0ae42-50e0-4e3f-97b9-5c6383587979","ios":"levelo://app?vid=ccc0ae42-50e0-4e3f-97b9-5c6383587979"},"vehicle_type_id":"4","last_reported":1751152184,"current_range_meters":14800,"station_id":"ce4bh312rcd13ifvqdk0","pricing_plan_id":"cebpf4jnsgd1na2vs0mg"},{"bike_id":"9949c62d-1b51-4d0e-965f-69b6f4f3a3ed","system_id":"levelo_inurba_marseille","lat":43.29555,"lon":5.42294,"is_reserved":false,"is_disabled":false,"rental_uris":{"android":"levelo://app?vid=9949c62d-1b51-4d0e-965f-69b6f4f3a3ed","ios":"levelo://app?vid=9949c62d-1b51-4d0e-965f-69b6f4f3a3ed"},"vehicle_type_id":"4","last_reported":1751152184,"current_range_meters":14800,"station_id":"ce4bhph2rcd13ifvqhdg","pricing_plan_id":"cebpf4jnsgd1na2vs0mg"},{"bike_id":"4f7da216-f811-4c57-9e64-cdee7467bddd","system_id":"levelo_inurba_marseille","lat":43.22525,"lon":5.3478,"is_reserved":false,"is_disabled":false,"rental_uris":{"android":"levelo://app?vid=4f7da216-f811-4c57-9e64-cdee7467bddd","ios":"levelo://app?vid=4f7da216-f811-4c57-9e64-cdee7467bddd"},"vehicle_type_id":"4","last_reported":1751152184,"current_range_meters":14800,"station_id":"st_cvj5dfep6f1abm77gieg","pricing_plan_id":"cebpf4jnsgd1na2vs0mg"},{"bike_id":"576cb815-1d92-486e-a138-f51c6724c88a","system_id":"levelo_inurba_marseille","lat":43.306437,"lon":5.400767,"is_reserved":false,"is_disabled":false,"rental_uris":{"android":"levelo://app?vid=576cb815-1d92-486e-a138-f51c6724c88a","ios":"levelo://app?vid=576cb815-1d92-486e-a138-f51c6724c88a"},"vehicle_type_id":"4","last_reported":1751152184,"current_range_meters":15200,"station_id":"ce4bh112rcd13ifvqda0","pricing_plan_id":"cebpf4jnsgd1na2vs0mg"},{"bike_id":"f2197e66-1e33-4014-ae0d-5f0c6df35cd1","system_id":"levelo_inurba_marseille","lat":43.24645,"lon":5.38892,"is_reserved":false,"is_disabled":false,"rental_uris":{"android":"levelo://app?vid=f2197e66-1e33-4014-ae0d-5f0c6df35cd1","ios":"levelo://app?vid=f2197e66-1e33-4014-ae0d-5f0c6df35cd1"},"vehicle_type_id":"4","last_reported":1751152184,"current_range_meters":15200,"station_id":"ce4bhg12rcd13ifvqf60","pricing_plan_id":"cebpf4jnsgd1na2vs0mg"},{"bike_id":"064e1b75-6456-473b-9a83-8a42db06b827","system_id":"levelo_inurba_marseille","lat":43.262299,"lon":5.404496,"is_reserved":false,"is_disabled":false,"rental_uris":{"android":"levelo://app?vid=064e1b75-6456-473b-9a83-8a42db06b827","ios":"levelo://app?vid=064e1b75-6456-473b-9a83-8a42db06b827"},"vehicle_type_id":"4","last_reported":1751152184,"current_range_meters":15200,"station_id":"ce4bhmh2rcd13ifvqgmg","pricing_plan_id":"cebpf4jnsgd1na2vs0mg"},{"bike_id":"b636965d-7db1-47cd-adbf-cfced905006a","system_id":"levelo_inurba_marseille","lat":43.21191,"lon":5.35074,"is_reserved":false,"is_disabled":false,"rental_uris":{"android":"levelo://app?vid=b636965d-7db1-47cd-adbf-cfced905006a","ios":"levelo://app?vid=b636965d-7db1-47cd-adbf-cfced905006a"},"vehicle_type_id":"4","last_reported":1751152184,"current_range_meters":15200,"station_id":"st_cvj6sg6p6f1abm77japg","pricing_plan_id":"cebpf4jnsgd1na2vs0mg"},{"bike_id":"5d5e13a4-10cc-485c-a362-06d02242e666","system_id":"levelo_inurba_marseille","lat":43.21194,"lon":5.35096,"is_reserved":false,"is_disabled":false,"rental_uris":{"android":"levelo://app?vid=5d5e13a4-10cc-485c-a362-06d02242e666","ios":"levelo://app?vid=5d5e13a4-10cc-485c-a362-06d02242e666"},"vehicle_type_id":"4","last_reported":1751152184,"current_range_meters":15200,"station_id":"st_cvj6sg6p6f1abm77japg","pricing_plan_id":"cebpf4jnsgd1na2vs0mg"},{"bike_id":"b13877a6-4825-4d82-b46b-67fa8ad66c5d","system_id":"levelo_inurba_marseille","lat":43.211899,"lon":5.350761,"is_reserved":false,"is_disabled":false,"rental_uris":{"android":"levelo://app?vid=b13877a6-4825-4d82-b46b-67fa8ad66c5d","ios":"levelo://app?vid=b13877a6-4825-4d82-b46b-67fa8ad66c5d"},"vehicle_type_id":"4","last_reported":1751152184,"current_range_meters":15200,"station_id":"st_cvj6sg6p6f1abm77japg","pricing_plan_id":"cebpf4jnsgd1na2vs0mg"},{"bike_id":"66abb35b-0e37-4ddd-bf66-70dc62e8f63c","system_id":"levelo_inurba_marseille","lat":43.22849,"lon":5.35125,"is_reserved":false,"is_disabled":false,"rental_uris":{"android":"levelo://app?vid=66abb35b-0e37-4ddd-bf66-70dc62e8f63c","ios":"levelo://app?vid=66abb35b-0e37-4ddd-bf66-70dc62e8f63c"},"vehicle_type_id":"4","last_reported":1751152184,"current_range_meters":16000,"station_id":"","pricing_plan_id":"cebpf4jnsgd1na2vs0mg"},{"bike_id":"0aa10f60-d15a-4059-97e2-0a69cf539127","system_id":"levelo_inurba_marseille","lat":43.28124,"lon":5.35195,"is_reserved":false,"is_disabled":false,"rental_uris":{"android":"levelo://app?vid=0aa10f60-d15a-4059-97e2-0a69cf539127","ios":"levelo://app?vid=0aa10f60-d15a-4059-97e2-0a69cf539127"},"vehicle_type_id":"4","last_reported":1751152184,"current_range_meters":16000,"station_id":"","pricing_plan_id":"cebpf4jnsgd1na2vs0mg"},{"bike_id":"07ca4d32-f8d4-4205-8a35-c7ff63def9dc","system_id":"levelo_inurba_marseille","lat":43.22497,"lon":5.34784,"is_reserved":false,"is_disabled":false,"rental_uris":{"android":"levelo://app?vid=07ca4d32-f8d4-4205-8a35-c7ff63def9dc","ios":"levelo://app?vid=07ca4d32-f8d4-4205-8a35-c7ff63def9dc"},"vehicle_type_id":"4","last_reported":1751152184,"current_range_meters":16000,"station_id":"","pricing_plan_id":"cebpf4jnsgd1na2vs0mg"},{"bike_id":"d308c658-b19c-49c0-8014-5506ff26f69a","system_id":"levelo_inurba_marseille","lat":43.23065,"lon":5.40502,"is_reserved":false,"is_disabled":false,"rental_uris":{"android":"levelo://app?vid=d308c658-b19c-49c0-8014-5506ff26f69a","ios":"levelo://app?vid=d308c658-b19c-49c0-8014-5506ff26f69a"},"vehicle_type_id":"4","last_reported":1751152184,"current_range_meters":16000,"station_id":"","pricing_plan_id":"cebpf4jnsgd1na2vs0mg"},{"bike_id":"1ccd3157-b206-42b7-8e98-7dcc7b4fd5b3","system_id":"levelo_inurba_marseille","lat":43.27823,"lon":5.37453,"is_reserved":false,"is_disabled":false,"rental_uris":{"android":"levelo://app?vid=1ccd3157-b206-42b7-8e98-7dcc7b4fd5b3","ios":"levelo://app?vid=1ccd3157-b206-42b7-8e98-7dcc7b4fd5b3"},"vehicle_type_id":"4","last_reported":1751152184,"current_range_meters":16000,"station_id":"","pricing_plan_id":"cebpf4jnsgd1na2vs0mg"},{"bike_id":"4d483f07-e4ab-4614-9ca4-92d41bc5cd78","system_id":"levelo_inurba_marseille","lat":43.30782,"lon":5.37655,"is_reserved":false,"is_disabled":false,"rental_uris":{"android":"levelo://app?vid=4d483f07-e4ab-4614-9ca4-92d41bc5cd78","ios":"levelo://app?vid=4d483f07-e4ab-4614-9ca4-92d41bc5cd78"},"vehicle_type_id":"4","last_reported":1751152184,"current_range_meters":16000,"station_id":"ce4bgv92rcd13ifvqcq0","pricing_plan_id":"cebpf4jnsgd1na2vs0mg"},{"bike_id":"e934a84d-46b6-4c35-8ff1-af1cfdbd5790","system_id":"levelo_inurba_marseille","lat":43.31696,"lon":5.40462,"is_reserved":false,"is_disabled":false,"rental_uris":{"android":"levelo://app?vid=e934a84d-46b6-4c35-8ff1-af1cfdbd5790","ios":"levelo://app?vid=e934a84d-46b6-4c35-8ff1-af1cfdbd5790"},"vehicle_type_id":"4","last_reported":1751152184,"current_range_meters":16000,"station_id":"ce4bh012rcd13ifvqd00","pricing_plan_id":"cebpf4jnsgd1na2vs0mg"},{"bike_id":"dc52be52-60b5-448c-b8e7-30f1c07b993e","system_id":"levelo_inurba_marseille","lat":43.251035,"lon":5.403292,"is_reserved":false,"is_disabled":false,"rental_uris":{"android":"levelo://app?vid=dc52be52-60b5-448c-b8e7-30f1c07b993e","ios":"levelo://app?vid=dc52be52-60b5-448c-b8e7-30f1c07b993e"},"vehicle_type_id":"4","last_reported":1751152184,"current_range_meters":16000,"station_id":"ce4bhlh2rcd13ifvqgig","pricing_plan_id":"cebpf4jnsgd1na2vs0mg"},{"bike_id":"a589a0ed-854e-4a3a-8bf5-6576bfc17531","system_id":"levelo_inurba_marseille","lat":43.281565,"lon":5.426353,"is_reserved":false,"is_disabled":false,"rental_uris":{"android":"levelo://app?vid=a589a0ed-854e-4a3a-8bf5-6576bfc17531","ios":"levelo://app?vid=a589a0ed-854e-4a3a-8bf5-6576bfc17531"},"vehicle_type_id":"4","last_reported":1751152184,"current_range_meters":16000,"station_id":"ce4bhnh2rcd13ifvqgug","pricing_plan_id":"cebpf4jnsgd1na2vs0mg"},{"bike_id":"8d1e10f3-20fd-463c-a408-0a21083b0c6f","system_id":"levelo_inurba_marseille","lat":43.21182,"lon":5.35077,"is_reserved":false,"is_disabled":false,"rental_uris":{"android":"levelo://app?vid=8d1e10f3-20fd-463c-a408-0a21083b0c6f","ios":"levelo://app?vid=8d1e10f3-20fd-463c-a408-0a21083b0c6f"},"vehicle_type_id":"4","last_reported":1751152184,"current_range_meters":16000,"station_id":"st_cvj6sg6p6f1abm77japg","pricing_plan_id":"cebpf4jnsgd1na2vs0mg"},{"bike_id":"d83be15c-239d-410c-9374-2954b9783857","system_id":"levelo_inurba_marseille","lat":43.21201,"lon":5.35087,"is_reserved":false,"is_disabled":false,"rental_uris":{"android":"levelo://app?vid=d83be15c-239d-410c-9374-2954b9783857","ios":"levelo://app?vid=d83be15c-239d-410c-9374-2954b9783857"},"vehicle_type_id":"4","last_reported":1751152184,"current_range_meters":16000,"station_id":"st_cvj6sg6p6f1abm77japg","pricing_plan_id":"cebpf4jnsgd1na2vs0mg"},{"bike_id":"9fc6b39a-5532-40ac-8f58-975bced56a19","system_id":"levelo_inurba_marseille","lat":43.32605,"lon":5.40457,"is_reserved":false,"is_disabled":false,"rental_uris":{"android":"levelo://app?vid=9fc6b39a-5532-40ac-8f58-975bced56a19","ios":"levelo://app?vid=9fc6b39a-5532-40ac-8f58-975bced56a19"},"vehicle_type_id":"4","last_reported":1751152184,"current_range_meters":16400,"station_id":"","pricing_plan_id":"cebpf4jnsgd1na2vs0mg"},{"bike_id":"bca121d6-7dac-4f14-a296-ce2249d7aad2","system_id":"levelo_inurba_marseille","lat":43.28137,"lon":5.44338,"is_reserved":false,"is_disabled":false,"rental_uris":{"android":"levelo://app?vid=bca121d6-7dac-4f14-a296-ce2249d7aad2","ios":"levelo://app?vid=bca121d6-7dac-4f14-a296-ce2249d7aad2"},"vehicle_type_id":"4","last_reported":1751152184,"current_range_meters":16400,"station_id":"","pricing_plan_id":"cebpf4jnsgd1na2vs0mg"},{"bike_id":"c595d0e1-c778-4abe-9c79-a9dd74f54e27","system_id":"levelo_inurba_marseille","lat":43.24478,"lon":5.3721,"is_reserved":false,"is_disabled":false,"rental_uris":{"android":"levelo://app?vid=c595d0e1-c778-4abe-9c79-a9dd74f54e27","ios":"levelo://app?vid=c595d0e1-c778-4abe-9c79-a9dd74f54e27"},"vehicle_type_id":"4","last_reported":1751152184,"current_range_meters":16400,"station_id":"","pricing_plan_id":"cebpf4jnsgd1na2vs0mg"},{"bike_id":"6a6be138-bd03-4fad-9889-1f9945979b29","system_id":"levelo_inurba_marseille","lat":43.29922,"lon":5.37468,"is_reserved":false,"is_disabled":false,"rental_uris":{"android":"levelo://app?vid=6a6be138-bd03-4fad-9889-1f9945979b29","ios":"levelo://app?vid=6a6be138-bd03-4fad-9889-1f9945979b29"},"vehicle_type_id":"4","last_reported":1751152184,"current_range_meters":16400,"station_id":"ce4bgjh2rcd13ifvqbg0","pricing_plan_id":"cebpf4jnsgd1na2vs0mg"},{"bike_id":"dad0292d-04b4-41e5-ae62-05cbee3c38b1","system_id":"levelo_inurba_marseille","lat":43.29563,"lon":5.39981,"is_reserved":false,"is_disabled":false,"rental_uris":{"android":"levelo://app?vid=dad0292d-04b4-41e5-ae62-05cbee3c38b1","ios":"levelo://app?vid=dad0292d-04b4-41e5-ae62-05cbee3c38b1"},"vehicle_type_id":"4","last_reported":1751152184,"current_range_meters":16400,"station_id":"ce4bh312rcd13ifvqdj0","pricing_plan_id":"cebpf4jnsgd1na2vs0mg"},{"bike_id":"8fdf1621-0401-4476-b14f-cffbd362f0e2","system_id":"levelo_inurba_marseille","lat":43.28468,"lon":5.38431,"is_reserved":false,"is_disabled":false,"rental_uris":{"android":"levelo://app?vid=8fdf1621-0401-4476-b14f-cffbd362f0e2","ios":"levelo://app?vid=8fdf1621-0401-4476-b14f-cffbd362f0e2"},"vehicle_type_id":"4","last_reported":1751152184,"current_range_meters":16400,"station_id":"ce4bh512rcd13ifvqe3g","pricing_plan_id":"cebpf4jnsgd1na2vs0mg"},{"bike_id":"58a657a7-30a8-4b03-b9d1-6d599be5b6e3","system_id":"levelo_inurba_marseille","lat":43.28429,"lon":5.39216,"is_reserved":false,"is_disabled":false,"rental_uris":{"android":"levelo://app?vid=58a657a7-30a8-4b03-b9d1-6d599be5b6e3","ios":"levelo://app?vid=58a657a7-30a8-4b03-b9d1-6d599be5b6e3"},"vehicle_type_id":"4","last_reported":1751152184,"current_range_meters":16400,"station_id":"ce4bhoh2rcd13ifvqh5g","pricing_plan_id":"cebpf4jnsgd1na2vs0mg"},{"bike_id":"706791be-79ff-4961-85f9-10b00214ce8a","system_id":"levelo_inurba_marseille","lat":43.32995,"lon":5.39219,"is_reserved":false,"is_disabled":false,"rental_uris":{"android":"levelo://app?vid=706791be-79ff-4961-85f9-10b00214ce8a","ios":"levelo://app?vid=706791be-79ff-4961-85f9-10b00214ce8a"},"vehicle_type_id":"4","last_reported":1751152184,"current_range_meters":16800,"station_id":"","pricing_plan_id":"cebpf4jnsgd1na2vs0mg"},{"bike_id":"a9811df1-1126-4952-a3a7-fdf1d53a863e","system_id":"levelo_inurba_marseille","lat":43.31273,"lon":5.40185,"is_reserved":false,"is_disabled":false,"rental_uris":{"android":"levelo://app?vid=a9811df1-1126-4952-a3a7-fdf1d53a863e","ios":"levelo://app?vid=a9811df1-1126-4952-a3a7-fdf1d53a863e"},"vehicle_type_id":"4","last_reported":1751152184,"current_range_meters":16800,"station_id":"ce4bh092rcd13ifvqd30","pricing_plan_id":"cebpf4jnsgd1na2vs0mg"},{"bike_id":"847e85f5-fa18-4a4b-82f7-1fd9b390683b","system_id":"levelo_inurba_marseille","lat":43.2901,"lon":5.38139,"is_reserved":false,"is_disabled":false,"rental_uris":{"android":"levelo://app?vid=847e85f5-fa18-4a4b-82f7-1fd9b390683b","ios":"levelo://app?vid=847e85f5-fa18-4a4b-82f7-1fd9b390683b"},"vehicle_type_id":"4","last_reported":1751152184,"current_range_meters":16800,"station_id":"ce4bh4p2rcd13ifvqe1g","pricing_plan_id":"cebpf4jnsgd1na2vs0mg"},{"bike_id":"84ea752f-5d83-4711-a69f-85207ef28e15","system_id":"levelo_inurba_marseille","lat":43.27067,"lon":5.42284,"is_reserved":false,"is_disabled":false,"rental_uris":{"android":"levelo://app?vid=84ea752f-5d83-4711-a69f-85207ef28e15","ios":"levelo://app?vid=84ea752f-5d83-4711-a69f-85207ef28e15"},"vehicle_type_id":"4","last_reported":1751152184,"current_range_meters":16800,"station_id":"ce4bhk92rcd13ifvqgb0","pricing_plan_id":"cebpf4jnsgd1na2vs0mg"},{"bike_id":"75a16a25-4ed2-4239-bad3-dfe38397e0e9","system_id":"levelo_inurba_marseille","lat":43.28441,"lon":5.39199,"is_reserved":false,"is_disabled":false,"rental_uris":{"android":"levelo://app?vid=75a16a25-4ed2-4239-bad3-dfe38397e0e9","ios":"levelo://app?vid=75a16a25-4ed2-4239-bad3-dfe38397e0e9"},"vehicle_type_id":"4","last_reported":1751152184,"current_range_meters":16800,"station_id":"ce4bhoh2rcd13ifvqh5g","pricing_plan_id":"cebpf4jnsgd1na2vs0mg"},{"bike_id":"179cd352-be56-4dfe-b2d2-cd8be8f3394b","system_id":"levelo_inurba_marseille","lat":43.29794,"lon":5.40407,"is_reserved":false,"is_disabled":false,"rental_uris":{"android":"levelo://app?vid=179cd352-be56-4dfe-b2d2-cd8be8f3394b","ios":"levelo://app?vid=179cd352-be56-4dfe-b2d2-cd8be8f3394b"},"vehicle_type_id":"4","last_reported":1751152184,"current_range_meters":17200,"station_id":"ce4bh112rcd13ifvqd90","pricing_plan_id":"cebpf4jnsgd1na2vs0mg"},{"bike_id":"8396458f-c5e8-43e6-bdb1-56999b8de8d6","system_id":"levelo_inurba_marseille","lat":43.295365,"lon":5.385448,"is_reserved":false,"is_disabled":false,"rental_uris":{"android":"levelo://app?vid=8396458f-c5e8-43e6-bdb1-56999b8de8d6","ios":"levelo://app?vid=8396458f-c5e8-43e6-bdb1-56999b8de8d6"},"vehicle_type_id":"4","last_reported":1751152184,"current_range_meters":17600,"station_id":"ce4bgih2rcd13ifvqba0","pricing_plan_id":"cebpf4jnsgd1na2vs0mg"},{"bike_id":"97c755b0-37aa-414a-97bf-c16e3c0543fd","system_id":"levelo_inurba_marseille","lat":43.30432,"lon":5.38887,"is_reserved":false,"is_disabled":false,"rental_uris":{"android":"levelo://app?vid=97c755b0-37aa-414a-97bf-c16e3c0543fd","ios":"levelo://app?vid=97c755b0-37aa-414a-97bf-c16e3c0543fd"},"vehicle_type_id":"4","last_reported":1751152184,"current_range_meters":17600,"station_id":"ce4bgk12rcd13ifvqbi0","pricing_plan_id":"cebpf4jnsgd1na2vs0mg"},{"bike_id":"4c309075-9091-4e60-b036-6dad1c6e377a","system_id":"levelo_inurba_marseille","lat":43.30884,"lon":5.39658,"is_reserved":false,"is_disabled":false,"rental_uris":{"android":"levelo://app?vid=4c309075-9091-4e60-b036-6dad1c6e377a","ios":"levelo://app?vid=4c309075-9091-4e60-b036-6dad1c6e377a"},"vehicle_type_id":"4","last_reported":1751152184,"current_range_meters":17600,"station_id":"ce4bh012rcd13ifvqcv0","pricing_plan_id":"cebpf4jnsgd1na2vs0mg"},{"bike_id":"7b7da01a-51f5-4d6b-9a57-4897c71c5693","system_id":"levelo_inurba_marseille","lat":43.32112,"lon":5.36779,"is_reserved":false,"is_disabled":false,"rental_uris":{"android":"levelo://app?vid=7b7da01a-51f5-4d6b-9a57-4897c71c5693","ios":"levelo://app?vid=7b7da01a-51f5-4d6b-9a57-4897c71c5693"},"vehicle_type_id":"4","last_reported":1751152184,"current_range_meters":17600,"station_id":"ce4bhrh2rcd13ifvqhug","pricing_plan_id":"cebpf4jnsgd1na2vs0mg"},{"bike_id":"7cd73daf-6410-4b72-a872-e5224e9d29ff","system_id":"levelo_inurba_marseille","lat":43.27399,"lon":5.41172,"is_reserved":false,"is_disabled":false,"rental_uris":{"android":"levelo://app?vid=7cd73daf-6410-4b72-a872-e5224e9d29ff","ios":"levelo://app?vid=7cd73daf-6410-4b72-a872-e5224e9d29ff"},"vehicle_type_id":"4","last_reported":1751152184,"current_range_meters":18000,"station_id":"","pricing_plan_id":"cebpf4jnsgd1na2vs0mg"},{"bike_id":"6e53ad1f-d4f5-4de6-9418-67b290ec993f","system_id":"levelo_inurba_marseille","lat":43.30941,"lon":5.4103,"is_reserved":false,"is_disabled":false,"rental_uris":{"android":"levelo://app?vid=6e53ad1f-d4f5-4de6-9418-67b290ec993f","ios":"levelo://app?vid=6e53ad1f-d4f5-4de6-9418-67b290ec993f"},"vehicle_type_id":"4","last_reported":1751152184,"current_range_meters":18000,"station_id":"","pricing_plan_id":"cebpf4jnsgd1na2vs0mg"},{"bike_id":"48b96c76-923a-4239-8b31-f81d99951f58","system_id":"levelo_inurba_marseille","lat":43.29887,"lon":5.38402,"is_reserved":false,"is_disabled":false,"rental_uris":{"android":"levelo://app?vid=48b96c76-923a-4239-8b31-f81d99951f58","ios":"levelo://app?vid=48b96c76-923a-4239-8b31-f81d99951f58"},"vehicle_type_id":"4","last_reported":1751152184,"current_range_meters":18000,"station_id":"","pricing_plan_id":"cebpf4jnsgd1na2vs0mg"},{"bike_id":"beba7688-de3b-4fec-be3c-29d5eb8ab3e5","system_id":"levelo_inurba_marseille","lat":43.29521,"lon":5.385415,"is_reserved":false,"is_disabled":false,"rental_uris":{"android":"levelo://app?vid=beba7688-de3b-4fec-be3c-29d5eb8ab3e5","ios":"levelo://app?vid=beba7688-de3b-4fec-be3c-29d5eb8ab3e5"},"vehicle_type_id":"4","last_reported":1751152184,"current_range_meters":18000,"station_id":"ce4bgih2rcd13ifvqba0","pricing_plan_id":"cebpf4jnsgd1na2vs0mg"},{"bike_id":"d3c9b58a-0601-4bdc-8b60-17db1be697ff","system_id":"levelo_inurba_marseille","lat":43.292736,"lon":5.408766,"is_reserved":false,"is_disabled":false,"rental_uris":{"android":"levelo://app?vid=d3c9b58a-0601-4bdc-8b60-17db1be697ff","ios":"levelo://app?vid=d3c9b58a-0601-4bdc-8b60-17db1be697ff"},"vehicle_type_id":"4","last_reported":1751152184,"current_range_meters":18000,"station_id":"ce4bh192rcd13ifvqdc0","pricing_plan_id":"cebpf4jnsgd1na2vs0mg"},{"bike_id":"81fcccba-75ab-4058-8b78-4513f3d7d1b5","system_id":"levelo_inurba_marseille","lat":43.32355,"lon":5.3665,"is_reserved":false,"is_disabled":false,"rental_uris":{"android":"levelo://app?vid=81fcccba-75ab-4058-8b78-4513f3d7d1b5","ios":"levelo://app?vid=81fcccba-75ab-4058-8b78-4513f3d7d1b5"},"vehicle_type_id":"4","last_reported":1751152184,"current_range_meters":18000,"station_id":"ce4bhsh2rcd13ifvqi2g","pricing_plan_id":"cebpf4jnsgd1na2vs0mg"},{"bike_id":"3e82f598-9d1d-4257-8afa-a4dc7305de09","system_id":"levelo_inurba_marseille","lat":43.21192,"lon":5.35078,"is_reserved":false,"is_disabled":false,"rental_uris":{"android":"levelo://app?vid=3e82f598-9d1d-4257-8afa-a4dc7305de09","ios":"levelo://app?vid=3e82f598-9d1d-4257-8afa-a4dc7305de09"},"vehicle_type_id":"4","last_reported":1751152184,"current_range_meters":18000,"station_id":"st_cvj6sg6p6f1abm77japg","pricing_plan_id":"cebpf4jnsgd1na2vs0mg"},{"bike_id":"bf24b26e-7f51-4120-9a48-54c87edaa2f7","system_id":"levelo_inurba_marseille","lat":43.21192,"lon":5.35078,"is_reserved":false,"is_disabled":false,"rental_uris":{"android":"levelo://app?vid=bf24b26e-7f51-4120-9a48-54c87edaa2f7","ios":"levelo://app?vid=bf24b26e-7f51-4120-9a48-54c87edaa2f7"},"vehicle_type_id":"4","last_reported":1751152184,"current_range_meters":18000,"station_id":"st_cvj6sg6p6f1abm77japg","pricing_plan_id":"cebpf4jnsgd1na2vs0mg"},{"bike_id":"b5ec8e1d-b17c-4609-bf04-418f0419bfd4","system_id":"levelo_inurba_marseille","lat":43.31219,"lon":5.36857,"is_reserved":false,"is_disabled":false,"rental_uris":{"android":"levelo://app?vid=b5ec8e1d-b17c-4609-bf04-418f0419bfd4","ios":"levelo://app?vid=b5ec8e1d-b17c-4609-bf04-418f0419bfd4"},"vehicle_type_id":"4","last_reported":1751152184,"current_range_meters":18800,"station_id":"ce4bgl92rcd13ifvqbq0","pricing_plan_id":"cebpf4jnsgd1na2vs0mg"},{"bike_id":"df6b8d76-a7f4-4217-bead-18ab05422cd5","system_id":"levelo_inurba_marseille","lat":43.30796,"lon":5.38179,"is_reserved":false,"is_disabled":false,"rental_uris":{"android":"levelo://app?vid=df6b8d76-a7f4-4217-bead-18ab05422cd5","ios":"levelo://app?vid=df6b8d76-a7f4-4217-bead-18ab05422cd5"},"vehicle_type_id":"4","last_reported":1751152184,"current_range_meters":18800,"station_id":"ce4bgt12rcd13ifvqce0","pricing_plan_id":"cebpf4jnsgd1na2vs0mg"},{"bike_id":"14ca1c4e-0d9c-448e-91a7-e62119e8bae9","system_id":"levelo_inurba_marseille","lat":43.30795,"lon":5.3815,"is_reserved":false,"is_disabled":false,"rental_uris":{"android":"levelo://app?vid=14ca1c4e-0d9c-448e-91a7-e62119e8bae9","ios":"levelo://app?vid=14ca1c4e-0d9c-448e-91a7-e62119e8bae9"},"vehicle_type_id":"4","last_reported":1751152184,"current_range_meters":18800,"station_id":"ce4bgt12rcd13ifvqce0","pricing_plan_id":"cebpf4jnsgd1na2vs0mg"},{"bike_id":"45ccb7a4-a3fb-4b57-bc48-8b56463b935b","system_id":"levelo_inurba_marseille","lat":43.31067,"lon":5.38355,"is_reserved":false,"is_disabled":false,"rental_uris":{"android":"levelo://app?vid=45ccb7a4-a3fb-4b57-bc48-8b56463b935b","ios":"levelo://app?vid=45ccb7a4-a3fb-4b57-bc48-8b56463b935b"},"vehicle_type_id":"4","last_reported":1751152184,"current_range_meters":18800,"station_id":"ce4bgv92rcd13ifvqcr0","pricing_plan_id":"cebpf4jnsgd1na2vs0mg"},{"bike_id":"a7818f38-61a6-40b6-96ea-47839257c5c9","system_id":"levelo_inurba_marseille","lat":43.29866,"lon":5.3974,"is_reserved":false,"is_disabled":false,"rental_uris":{"android":"levelo://app?vid=a7818f38-61a6-40b6-96ea-47839257c5c9","ios":"levelo://app?vid=a7818f38-61a6-40b6-96ea-47839257c5c9"},"vehicle_type_id":"4","last_reported":1751152184,"current_range_meters":18800,"station_id":"ce4bh0h2rcd13ifvqd50","pricing_plan_id":"cebpf4jnsgd1na2vs0mg"},{"bike_id":"3b9ece1d-7198-4632-8e2f-12ebf93377c0","system_id":"levelo_inurba_marseille","lat":43.296,"lon":5.40594,"is_reserved":false,"is_disabled":false,"rental_uris":{"android":"levelo://app?vid=3b9ece1d-7198-4632-8e2f-12ebf93377c0","ios":"levelo://app?vid=3b9ece1d-7198-4632-8e2f-12ebf93377c0"},"vehicle_type_id":"4","last_reported":1751152184,"current_range_meters":18800,"station_id":"ce4bh0h2rcd13ifvqd60","pricing_plan_id":"cebpf4jnsgd1na2vs0mg"},{"bike_id":"4c9d88fd-6956-4445-af10-a59c837ad802","system_id":"levelo_inurba_marseille","lat":43.28436,"lon":5.39201,"is_reserved":false,"is_disabled":false,"rental_uris":{"android":"levelo://app?vid=4c9d88fd-6956-4445-af10-a59c837ad802","ios":"levelo://app?vid=4c9d88fd-6956-4445-af10-a59c837ad802"},"vehicle_type_id":"4","last_reported":1751152184,"current_range_meters":18800,"station_id":"ce4bhoh2rcd13ifvqh5g","pricing_plan_id":"cebpf4jnsgd1na2vs0mg"},{"bike_id":"9d776620-2d0c-49e2-9e7a-8265ab4705fd","system_id":"levelo_inurba_marseille","lat":43.31159,"lon":5.38724,"is_reserved":false,"is_disabled":false,"rental_uris":{"android":"levelo://app?vid=9d776620-2d0c-49e2-9e7a-8265ab4705fd","ios":"levelo://app?vid=9d776620-2d0c-49e2-9e7a-8265ab4705fd"},"vehicle_type_id":"4","last_reported":1751152184,"current_range_meters":19200,"station_id":"ce4bgv12rcd13ifvqcp0","pricing_plan_id":"cebpf4jnsgd1na2vs0mg"},{"bike_id":"c2c028ca-c96d-4670-b9c4-7af56e5133ef","system_id":"levelo_inurba_marseille","lat":43.28566,"lon":5.39497,"is_reserved":false,"is_disabled":false,"rental_uris":{"android":"levelo://app?vid=c2c028ca-c96d-4670-b9c4-7af56e5133ef","ios":"levelo://app?vid=c2c028ca-c96d-4670-b9c4-7af56e5133ef"},"vehicle_type_id":"4","last_reported":1751152184,"current_range_meters":19200,"station_id":"ce4bh292rcd13ifvqdg0","pricing_plan_id":"cebpf4jnsgd1na2vs0mg"},{"bike_id":"be5b9a58-c53d-4da0-9859-e8fc00e79486","system_id":"levelo_inurba_marseille","lat":43.29399,"lon":5.38646,"is_reserved":false,"is_disabled":false,"rental_uris":{"android":"levelo://app?vid=be5b9a58-c53d-4da0-9859-e8fc00e79486","ios":"levelo://app?vid=be5b9a58-c53d-4da0-9859-e8fc00e79486"},"vehicle_type_id":"4","last_reported":1751152184,"current_range_meters":19200,"station_id":"ce4bh2h2rcd13ifvqdh0","pricing_plan_id":"cebpf4jnsgd1na2vs0mg"},{"bike_id":"23100b8f-96ba-48de-b814-d02d28fdf970","system_id":"levelo_inurba_marseille","lat":43.29544,"lon":5.42297,"is_reserved":false,"is_disabled":false,"rental_uris":{"android":"levelo://app?vid=23100b8f-96ba-48de-b814-d02d28fdf970","ios":"levelo://app?vid=23100b8f-96ba-48de-b814-d02d28fdf970"},"vehicle_type_id":"4","last_reported":1751152184,"current_range_meters":19200,"station_id":"ce4bhph2rcd13ifvqhdg","pricing_plan_id":"cebpf4jnsgd1na2vs0mg"},{"bike_id":"e7641e58-176f-485d-9342-129003cdc52b","system_id":"levelo_inurba_marseille","lat":43.321156,"lon":5.367726,"is_reserved":false,"is_disabled":false,"rental_uris":{"android":"levelo://app?vid=e7641e58-176f-485d-9342-129003cdc52b","ios":"levelo://app?vid=e7641e58-176f-485d-9342-129003cdc52b"},"vehicle_type_id":"4","last_reported":1751152184,"current_range_meters":19200,"station_id":"ce4bhrh2rcd13ifvqhug","pricing_plan_id":"cebpf4jnsgd1na2vs0mg"},{"bike_id":"c703786b-2305-445e-8bc8-df2ea8c99b59","system_id":"levelo_inurba_marseille","lat":43.29725,"lon":5.37675,"is_reserved":false,"is_disabled":false,"rental_uris":{"android":"levelo://app?vid=c703786b-2305-445e-8bc8-df2ea8c99b59","ios":"levelo://app?vid=c703786b-2305-445e-8bc8-df2ea8c99b59"},"vehicle_type_id":"4","last_reported":1751152184,"current_range_meters":19600,"station_id":"ce4bgkh2rcd13ifvqbl0","pricing_plan_id":"cebpf4jnsgd1na2vs0mg"},{"bike_id":"e7a65ff9-ec20-4983-a538-6e8ee7ae91f8","system_id":"levelo_inurba_marseille","lat":43.308027,"lon":5.381614,"is_reserved":false,"is_disabled":false,"rental_uris":{"android":"levelo://app?vid=e7a65ff9-ec20-4983-a538-6e8ee7ae91f8","ios":"levelo://app?vid=e7a65ff9-ec20-4983-a538-6e8ee7ae91f8"},"vehicle_type_id":"4","last_reported":1751152184,"current_range_meters":19600,"station_id":"ce4bgt12rcd13ifvqce0","pricing_plan_id":"cebpf4jnsgd1na2vs0mg"},{"bike_id":"dbafef98-c28e-4e1c-b5cc-db925b1f334d","system_id":"levelo_inurba_marseille","lat":43.30631,"lon":5.40103,"is_reserved":false,"is_disabled":false,"rental_uris":{"android":"levelo://app?vid=dbafef98-c28e-4e1c-b5cc-db925b1f334d","ios":"levelo://app?vid=dbafef98-c28e-4e1c-b5cc-db925b1f334d"},"vehicle_type_id":"4","last_reported":1751152184,"current_range_meters":19600,"station_id":"ce4bh112rcd13ifvqda0","pricing_plan_id":"cebpf4jnsgd1na2vs0mg"},{"bike_id":"00aa786c-2660-42db-b96f-6143ee2d5494","system_id":"levelo_inurba_marseille","lat":43.29438,"lon":5.39796,"is_reserved":false,"is_disabled":false,"rental_uris":{"android":"levelo://app?vid=00aa786c-2660-42db-b96f-6143ee2d5494","ios":"levelo://app?vid=00aa786c-2660-42db-b96f-6143ee2d5494"},"vehicle_type_id":"4","last_reported":1751152184,"current_range_meters":19600,"station_id":"ce4bh3h2rcd13ifvqdo0","pricing_plan_id":"cebpf4jnsgd1na2vs0mg"},{"bike_id":"7e66c8ff-dc08-491b-acb3-dc9380f653ac","system_id":"levelo_inurba_marseille","lat":43.27812,"lon":5.40715,"is_reserved":false,"is_disabled":false,"rental_uris":{"android":"levelo://app?vid=7e66c8ff-dc08-491b-acb3-dc9380f653ac","ios":"levelo://app?vid=7e66c8ff-dc08-491b-acb3-dc9380f653ac"},"vehicle_type_id":"4","last_reported":1751152184,"current_range_meters":19600,"station_id":"ce4bhnh2rcd13ifvqgtg","pricing_plan_id":"cebpf4jnsgd1na2vs0mg"},{"bike_id":"e673dc05-c442-49dd-ba5f-5f85af7e5a15","system_id":"levelo_inurba_marseille","lat":43.28713,"lon":5.39971,"is_reserved":false,"is_disabled":false,"rental_uris":{"android":"levelo://app?vid=e673dc05-c442-49dd-ba5f-5f85af7e5a15","ios":"levelo://app?vid=e673dc05-c442-49dd-ba5f-5f85af7e5a15"},"vehicle_type_id":"4","last_reported":1751152184,"current_range_meters":19600,"station_id":"ce4bho92rcd13ifvqh3g","pricing_plan_id":"cebpf4jnsgd1na2vs0mg"},{"bike_id":"54e6c144-89e2-4352-bee4-0bc5a4da8819","system_id":"levelo_inurba_marseille","lat":43.32662,"lon":5.409863,"is_reserved":false,"is_disabled":false,"rental_uris":{"android":"levelo://app?vid=54e6c144-89e2-4352-bee4-0bc5a4da8819","ios":"levelo://app?vid=54e6c144-89e2-4352-bee4-0bc5a4da8819"},"vehicle_type_id":"4","last_reported":1751152184,"current_range_meters":19600,"station_id":"ce4bhpp2rcd13ifvqhgg","pricing_plan_id":"cebpf4jnsgd1na2vs0mg"},{"bike_id":"9dc29fb8-e3fb-41f8-a3ad-c2c6c5e7fe8f","system_id":"levelo_inurba_marseille","lat":43.326598,"lon":5.409863,"is_reserved":false,"is_disabled":false,"rental_uris":{"android":"levelo://app?vid=9dc29fb8-e3fb-41f8-a3ad-c2c6c5e7fe8f","ios":"levelo://app?vid=9dc29fb8-e3fb-41f8-a3ad-c2c6c5e7fe8f"},"vehicle_type_id":"4","last_reported":1751152184,"current_range_meters":19600,"station_id":"ce4bhpp2rcd13ifvqhgg","pricing_plan_id":"cebpf4jnsgd1na2vs0mg"},{"bike_id":"6a7f6007-ebd0-4e5d-b32e-5fbe1638ed13","system_id":"levelo_inurba_marseille","lat":43.31526,"lon":5.38036,"is_reserved":false,"is_disabled":false,"rental_uris":{"android":"levelo://app?vid=6a7f6007-ebd0-4e5d-b32e-5fbe1638ed13","ios":"levelo://app?vid=6a7f6007-ebd0-4e5d-b32e-5fbe1638ed13"},"vehicle_type_id":"4","last_reported":1751152184,"current_range_meters":19600,"station_id":"ce4bhsp2rcd13ifvqi50","pricing_plan_id":"cebpf4jnsgd1na2vs0mg"},{"bike_id":"7a9ed77c-f1cd-4001-9e41-61ecd996cfdf","system_id":"levelo_inurba_marseille","lat":43.21183,"lon":5.35076,"is_reserved":false,"is_disabled":false,"rental_uris":{"android":"levelo://app?vid=7a9ed77c-f1cd-4001-9e41-61ecd996cfdf","ios":"levelo://app?vid=7a9ed77c-f1cd-4001-9e41-61ecd996cfdf"},"vehicle_type_id":"4","last_reported":1751152184,"current_range_meters":19600,"station_id":"st_cvj6sg6p6f1abm77japg","pricing_plan_id":"cebpf4jnsgd1na2vs0mg"},{"bike_id":"2a7d4522-b0dd-48c1-8653-7a6d0e58cc43","system_id":"levelo_inurba_marseille","lat":43.320883,"lon":5.401191,"is_reserved":false,"is_disabled":false,"rental_uris":{"android":"levelo://app?vid=2a7d4522-b0dd-48c1-8653-7a6d0e58cc43","ios":"levelo://app?vid=2a7d4522-b0dd-48c1-8653-7a6d0e58cc43"},"vehicle_type_id":"4","last_reported":1751152184,"current_range_meters":20000,"station_id":"","pricing_plan_id":"cebpf4jnsgd1na2vs0mg"},{"bike_id":"7e091221-4229-4112-a379-c44d616917f7","system_id":"levelo_inurba_marseille","lat":43.29529,"lon":5.38569,"is_reserved":false,"is_disabled":false,"rental_uris":{"android":"levelo://app?vid=7e091221-4229-4112-a379-c44d616917f7","ios":"levelo://app?vid=7e091221-4229-4112-a379-c44d616917f7"},"vehicle_type_id":"4","last_reported":1751152184,"current_range_meters":20000,"station_id":"ce4bgih2rcd13ifvqba0","pricing_plan_id":"cebpf4jnsgd1na2vs0mg"},{"bike_id":"de7a54b4-82b8-432b-a93e-d77ea0ac1c74","system_id":"levelo_inurba_marseille","lat":43.31078,"lon":5.38348,"is_reserved":false,"is_disabled":false,"rental_uris":{"android":"levelo://app?vid=de7a54b4-82b8-432b-a93e-d77ea0ac1c74","ios":"levelo://app?vid=de7a54b4-82b8-432b-a93e-d77ea0ac1c74"},"vehicle_type_id":"4","last_reported":1751152184,"current_range_meters":20000,"station_id":"ce4bgv92rcd13ifvqcr0","pricing_plan_id":"cebpf4jnsgd1na2vs0mg"},{"bike_id":"5b4ec90a-985f-4c14-8b0e-608a472b360f","system_id":"levelo_inurba_marseille","lat":43.27955,"lon":5.41041,"is_reserved":false,"is_disabled":false,"rental_uris":{"android":"levelo://app?vid=5b4ec90a-985f-4c14-8b0e-608a472b360f","ios":"levelo://app?vid=5b4ec90a-985f-4c14-8b0e-608a472b360f"},"vehicle_type_id":"4","last_reported":1751152184,"current_range_meters":20000,"station_id":"ce4bhnp2rcd13ifvqh0g","pricing_plan_id":"cebpf4jnsgd1na2vs0mg"},{"bike_id":"d8ae6db3-089e-490b-9e5f-449f98ad2865","system_id":"levelo_inurba_marseille","lat":43.28707,"lon":5.39992,"is_reserved":false,"is_disabled":false,"rental_uris":{"android":"levelo://app?vid=d8ae6db3-089e-490b-9e5f-449f98ad2865","ios":"levelo://app?vid=d8ae6db3-089e-490b-9e5f-449f98ad2865"},"vehicle_type_id":"4","last_reported":1751152184,"current_range_meters":20000,"station_id":"ce4bho92rcd13ifvqh3g","pricing_plan_id":"cebpf4jnsgd1na2vs0mg"},{"bike_id":"452e8211-4f44-45d0-814a-3e9e25b8c44e","system_id":"levelo_inurba_marseille","lat":43.211921,"lon":5.350687,"is_reserved":false,"is_disabled":false,"rental_uris":{"android":"levelo://app?vid=452e8211-4f44-45d0-814a-3e9e25b8c44e","ios":"levelo://app?vid=452e8211-4f44-45d0-814a-3e9e25b8c44e"},"vehicle_type_id":"4","last_reported":1751152184,"current_range_meters":20000,"station_id":"st_cvj6sg6p6f1abm77japg","pricing_plan_id":"cebpf4jnsgd1na2vs0mg"},{"bike_id":"e47d63f5-1f59-4881-9223-c151ce64d2fd","system_id":"levelo_inurba_marseille","lat":43.3105,"lon":5.38359,"is_reserved":false,"is_disabled":false,"rental_uris":{"android":"levelo://app?vid=e47d63f5-1f59-4881-9223-c151ce64d2fd","ios":"levelo://app?vid=e47d63f5-1f59-4881-9223-c151ce64d2fd"},"vehicle_type_id":"4","last_reported":1751152184,"current_range_meters":20400,"station_id":"ce4bgv92rcd13ifvqcr0","pricing_plan_id":"cebpf4jnsgd1na2vs0mg"},{"bike_id":"a42e5fd1-a769-4eee-b5ea-077b0dc53cb1","system_id":"levelo_inurba_marseille","lat":43.29037,"lon":5.39948,"is_reserved":false,"is_disabled":false,"rental_uris":{"android":"levelo://app?vid=a42e5fd1-a769-4eee-b5ea-077b0dc53cb1","ios":"levelo://app?vid=a42e5fd1-a769-4eee-b5ea-077b0dc53cb1"},"vehicle_type_id":"4","last_reported":1751152184,"current_range_meters":20400,"station_id":"ce4bh392rcd13ifvqdm0","pricing_plan_id":"cebpf4jnsgd1na2vs0mg"},{"bike_id":"3eabe1e2-f9f5-41cb-a4ed-73ca7f909c5c","system_id":"levelo_inurba_marseille","lat":43.21177,"lon":5.35088,"is_reserved":false,"is_disabled":false,"rental_uris":{"android":"levelo://app?vid=3eabe1e2-f9f5-41cb-a4ed-73ca7f909c5c","ios":"levelo://app?vid=3eabe1e2-f9f5-41cb-a4ed-73ca7f909c5c"},"vehicle_type_id":"4","last_reported":1751152184,"current_range_meters":20400,"station_id":"st_cvj6sg6p6f1abm77japg","pricing_plan_id":"cebpf4jnsgd1na2vs0mg"},{"bike_id":"ba926bfc-9632-4680-b0ed-32a040d6fb83","system_id":"levelo_inurba_marseille","lat":43.21203,"lon":5.35069,"is_reserved":false,"is_disabled":false,"rental_uris":{"android":"levelo://app?vid=ba926bfc-9632-4680-b0ed-32a040d6fb83","ios":"levelo://app?vid=ba926bfc-9632-4680-b0ed-32a040d6fb83"},"vehicle_type_id":"4","last_reported":1751152184,"current_range_meters":20400,"station_id":"st_cvj6sg6p6f1abm77japg","pricing_plan_id":"cebpf4jnsgd1na2vs0mg"},{"bike_id":"1ac664aa-f2a4-4b75-879f-dcb93272d133","system_id":"levelo_inurba_marseille","lat":43.32005,"lon":5.40982,"is_reserved":false,"is_disabled":false,"rental_uris":{"android":"levelo://app?vid=1ac664aa-f2a4-4b75-879f-dcb93272d133","ios":"levelo://app?vid=1ac664aa-f2a4-4b75-879f-dcb93272d133"},"vehicle_type_id":"4","last_reported":1751152184,"current_range_meters":20800,"station_id":"","pricing_plan_id":"cebpf4jnsgd1na2vs0mg"},{"bike_id":"4b4944f9-2685-4030-af5e-96c830fc545f","system_id":"levelo_inurba_marseille","lat":43.317133,"lon":5.377585,"is_reserved":false,"is_disabled":false,"rental_uris":{"android":"levelo://app?vid=4b4944f9-2685-4030-af5e-96c830fc545f","ios":"levelo://app?vid=4b4944f9-2685-4030-af5e-96c830fc545f"},"vehicle_type_id":"4","last_reported":1751152184,"current_range_meters":20800,"station_id":"ce4bgth2rcd13ifvqch0","pricing_plan_id":"cebpf4jnsgd1na2vs0mg"},{"bike_id":"a8f3c0b1-f2ae-4c6a-a60c-7ed066610deb","system_id":"levelo_inurba_marseille","lat":43.251,"lon":5.4035,"is_reserved":false,"is_disabled":false,"rental_uris":{"android":"levelo://app?vid=a8f3c0b1-f2ae-4c6a-a60c-7ed066610deb","ios":"levelo://app?vid=a8f3c0b1-f2ae-4c6a-a60c-7ed066610deb"},"vehicle_type_id":"4","last_reported":1751152184,"current_range_meters":20800,"station_id":"ce4bhlh2rcd13ifvqgig","pricing_plan_id":"cebpf4jnsgd1na2vs0mg"},{"bike_id":"f80ff587-1a90-425c-9e83-902d476a826a","system_id":"levelo_inurba_marseille","lat":43.24178,"lon":5.3973,"is_reserved":false,"is_disabled":false,"rental_uris":{"android":"levelo://app?vid=f80ff587-1a90-425c-9e83-902d476a826a","ios":"levelo://app?vid=f80ff587-1a90-425c-9e83-902d476a826a"},"vehicle_type_id":"4","last_reported":1751152184,"current_range_meters":20800,"station_id":"ce4bhn12rcd13ifvqgpg","pricing_plan_id":"cebpf4jnsgd1na2vs0mg"},{"bike_id":"6c7acf8b-2671-4491-9c3c-fa99910f0446","system_id":"levelo_inurba_marseille","lat":43.323691,"lon":5.388853,"is_reserved":false,"is_disabled":false,"rental_uris":{"android":"levelo://app?vid=6c7acf8b-2671-4491-9c3c-fa99910f0446","ios":"levelo://app?vid=6c7acf8b-2671-4491-9c3c-fa99910f0446"},"vehicle_type_id":"4","last_reported":1751152184,"current_range_meters":20800,"station_id":"ce4bhqp2rcd13ifvqhog","pricing_plan_id":"cebpf4jnsgd1na2vs0mg"},{"bike_id":"a211cd9f-5b21-4de6-8c08-426b2e8d7de1","system_id":"levelo_inurba_marseille","lat":43.21182,"lon":5.35082,"is_reserved":false,"is_disabled":false,"rental_uris":{"android":"levelo://app?vid=a211cd9f-5b21-4de6-8c08-426b2e8d7de1","ios":"levelo://app?vid=a211cd9f-5b21-4de6-8c08-426b2e8d7de1"},"vehicle_type_id":"4","last_reported":1751152184,"current_range_meters":20800,"station_id":"st_cvj6sg6p6f1abm77japg","pricing_plan_id":"cebpf4jnsgd1na2vs0mg"},{"bike_id":"452c6f96-de9d-446d-bf16-dd00300b57f2","system_id":"levelo_inurba_marseille","lat":43.2944,"lon":5.39752,"is_reserved":false,"is_disabled":false,"rental_uris":{"android":"levelo://app?vid=452c6f96-de9d-446d-bf16-dd00300b57f2","ios":"levelo://app?vid=452c6f96-de9d-446d-bf16-dd00300b57f2"},"vehicle_type_id":"4","last_reported":1751152184,"current_range_meters":21600,"station_id":"ce4bh3h2rcd13ifvqdo0","pricing_plan_id":"cebpf4jnsgd1na2vs0mg"},{"bike_id":"9ce469cc-8f97-4dac-9542-1ead9e37b78b","system_id":"levelo_inurba_marseille","lat":43.31762,"lon":5.3902,"is_reserved":false,"is_disabled":false,"rental_uris":{"android":"levelo://app?vid=9ce469cc-8f97-4dac-9542-1ead9e37b78b","ios":"levelo://app?vid=9ce469cc-8f97-4dac-9542-1ead9e37b78b"},"vehicle_type_id":"4","last_reported":1751152184,"current_range_meters":21600,"station_id":"ce4bhqp2rcd13ifvqhng","pricing_plan_id":"cebpf4jnsgd1na2vs0mg"},{"bike_id":"cc04118e-9312-4bf8-9106-d64e829afbaa","system_id":"levelo_inurba_marseille","lat":43.21186,"lon":5.35086,"is_reserved":false,"is_disabled":false,"rental_uris":{"android":"levelo://app?vid=cc04118e-9312-4bf8-9106-d64e829afbaa","ios":"levelo://app?vid=cc04118e-9312-4bf8-9106-d64e829afbaa"},"vehicle_type_id":"4","last_reported":1751152184,"current_range_meters":21600,"station_id":"st_cvj6sg6p6f1abm77japg","pricing_plan_id":"cebpf4jnsgd1na2vs0mg"},{"bike_id":"0d054cba-b150-4a2b-b377-62e26039f378","system_id":"levelo_inurba_marseille","lat":43.31702,"lon":5.37759,"is_reserved":false,"is_disabled":false,"rental_uris":{"android":"levelo://app?vid=0d054cba-b150-4a2b-b377-62e26039f378","ios":"levelo://app?vid=0d054cba-b150-4a2b-b377-62e26039f378"},"vehicle_type_id":"4","last_reported":1751152184,"current_range_meters":22000,"station_id":"ce4bgth2rcd13ifvqch0","pricing_plan_id":"cebpf4jnsgd1na2vs0mg"},{"bike_id":"2a6e68f3-d106-4792-8ac8-fc20f2530dee","system_id":"levelo_inurba_marseille","lat":43.3089,"lon":5.37193,"is_reserved":false,"is_disabled":false,"rental_uris":{"android":"levelo://app?vid=2a6e68f3-d106-4792-8ac8-fc20f2530dee","ios":"levelo://app?vid=2a6e68f3-d106-4792-8ac8-fc20f2530dee"},"vehicle_type_id":"4","last_reported":1751152184,"current_range_meters":22000,"station_id":"ce4bguh2rcd13ifvqckg","pricing_plan_id":"cebpf4jnsgd1na2vs0mg"},{"bike_id":"b20f3df2-b1db-410d-a86d-8fb9314512a9","system_id":"levelo_inurba_marseille","lat":43.29197,"lon":5.39327,"is_reserved":false,"is_disabled":false,"rental_uris":{"android":"levelo://app?vid=b20f3df2-b1db-410d-a86d-8fb9314512a9","ios":"levelo://app?vid=b20f3df2-b1db-410d-a86d-8fb9314512a9"},"vehicle_type_id":"4","last_reported":1751152184,"current_range_meters":22000,"station_id":"ce4bh192rcd13ifvqdd0","pricing_plan_id":"cebpf4jnsgd1na2vs0mg"},