{"last_updated":1735474496,"ttl":60,"version":"2.2","data":{"bikes":[{"bike_id":"bf54438e-5c35-4ef8-898b-03d82f5e5fad","system_id":"levelo_inurba_marseille","lat":43.28074,"lon":5.3967,"is_reserved":false,"is_disabled":false,"rental_uris":{"android":"levelo://app?vid=bf54438e-5c35-4ef8-898b-03d82f5e5fad","ios":"levelo://app?vid=bf54438e-5c35-4ef8-898b-03d82f5e5fad"},"vehicle_type_id":"4","last_reported":1735474497,"current_range_meters":28000,"station_id":"ce4bho12rcd13ifvqh2g","pricing_plan_id":"cebpf4jnsgd1na2vs0mg"},{"bike_id":"1ed0b79b-94a5-43ce-a19b-ce6172504605","system_id":"levelo_inurba_marseille","lat":43.30544,"lon":5.36546,"is_reserved":false,"is_disabled":false,"rental_uris":{"android":"levelo://app?vid=1ed0b79b-94a5-43ce-a19b-ce6172504605","ios":"levelo://app?vid=1ed0b79b-94a5-43ce-a19b-ce6172504605"},"vehicle_type_id":"4","last_reported":1735474497,"current_range_meters":35600,"station_id":"ce4bgs12rcd13ifvqcag","pricing_plan_id":"cebpf4jnsgd1na2vs0mg"},{"bike_id":"6b42328f-1854-4a25-97f7-efe92120b1ca","system_id":"levelo_inurba_marseille","lat":43.31711,"lon":5.43706,"is_reserved":false,"is_disabled":false,"rental_uris":{"android":"levelo://app?vid=6b42328f-1854-4a25-97f7-efe92120b1ca","ios":"levelo://app?vid=6b42328f-1854-4a25-97f7-efe92120b1ca"},"vehicle_type_id":"4","last_reported":1735474497,"current_range_meters":28400,"station_id":"ce4bhp92rcd13ifvqhcg","pricing_plan_id":"cebpf4jnsgd1na2vs0mg"},{"bike_id":"bd42610e-08d9-4de0-8ba7-b52d2a985af1","system_id":"levelo_inurba_marseille","lat":43.28484,"lon":5.38407,"is_reserved":false,"is_disabled":false,"rental_uris":{"android":"levelo://app?vid=bd42610e-08d9-4de0-8ba7-b52d2a985af1","ios":"levelo://app?vid=bd42610e-08d9-4de0-8ba7-b52d2a985af1"},"vehicle_type_id":"4","last_reported":1735474497,"current_range_meters":12000,"station_id":"ce4bh512rcd13ifvqe3g","pricing_plan_id":"cebpf4jnsgd1na2vs0mg"},{"bike_id":"ee11eff8-c0de-4e4f-9617-a06b78716dcb","system_id":"levelo_inurba_marseille","lat":43.262027,"lon":5.379345,"is_reserved":false,"is_disabled":false,"rental_uris":{"android":"levelo://app?vid=ee11eff8-c0de-4e4f-9617-a06b78716dcb","ios":"levelo://app?vid=ee11eff8-c0de-4e4f-9617-a06b78716dcb"},"vehicle_type_id":"4","last_reported":1735474497,"current_range_meters":28000,"station_id":"ce4bhjp2rcd13ifvqg90","pricing_plan_id":"cebpf4jnsgd1na2vs0mg"},{"bike_id":"17467958-a151-40f2-98e4-bb65ea00e49d","system_id":"levelo_inurba_marseille","lat":43.2795,"lon":5.41053,"is_reserved":false,"is_disabled":false,"rental_uris":{"android":"levelo://app?vid=17467958-a151-40f2-98e4-bb65ea00e49d","ios":"levelo://app?vid=17467958-a151-40f2-98e4-bb65ea00e49d"},"vehicle_type_id":"4","last_reported":1735474497,"current_range_meters":32800,"station_id":"ce4bhnp2rcd13ifvqh0g","pricing_plan_id":"cebpf4jnsgd1na2vs0mg"},{"bike_id":"8e3501de-0fdd-4c51-8a37-aa32b9990297","system_id":"levelo_inurba_marseille","lat":43.285695,"lon":5.394968,"is_reserved":false,"is_disabled":false,"rental_uris":{"android":"levelo://app?vid=8e3501de-0fdd-4c51-8a37-aa32b9990297","ios":"levelo://app?vid=8e3501de-0fdd-4c51-8a37-aa32b9990297"},"vehicle_type_id":"4","last_reported":1735474497,"current_range_meters":39200,"station_id":"ce4bh292rcd13ifvqdg0","pricing_plan_id":"cebpf4jnsgd1na2vs0mg"},{"bike_id":"3991aac2-ec7f-43c8-801f-23e11845f2d6","system_id":"levelo_inurba_marseille","lat":43.2815,"lon":5.426487,"is_reserved":false,"is_disabled":false,"rental_uris":{"android":"levelo://app?vid=3991aac2-ec7f-43c8-801f-23e11845f2d6","ios":"levelo://app?vid=3991aac2-ec7f-43c8-801f-23e11845f2d6"},"vehicle_type_id":"4","last_reported":1735474497,"current_range_meters":38800,"station_id":"ce4bhnh2rcd13ifvqgug","pricing_plan_id":"cebpf4jnsgd1na2vs0mg"},{"bike_id":"2ea68e01-0790-4008-9d7e-16a85bf4d316","system_id":"levelo_inurba_marseille","lat":43.32057,"lon":5.4153,"is_reserved":false,"is_disabled":false,"rental_uris":{"android":"levelo://app?vid=2ea68e01-0790-4008-9d7e-16a85bf4d316","ios":"levelo://app?vid=2ea68e01-0790-4008-9d7e-16a85bf4d316"},"vehicle_type_id":"4","last_reported":1735474497,"current_range_meters":37600,"station_id":"ce4bhq92rcd13ifvqhkg","pricing_plan_id":"cebpf4jnsgd1na2vs0mg"},{"bike_id":"6a7f4062-1ef7-4669-90bb-74085051c932","system_id":"levelo_inurba_marseille","lat":43.30776,"lon":5.37651,"is_reserved":false,"is_disabled":false,"rental_uris":{"android":"levelo://app?vid=6a7f4062-1ef7-4669-90bb-74085051c932","ios":"levelo://app?vid=6a7f4062-1ef7-4669-90bb-74085051c932"},"vehicle_type_id":"4","last_reported":1735474497,"current_range_meters":32000,"station_id":"ce4bgv92rcd13ifvqcq0","pricing_plan_id":"cebpf4jnsgd1na2vs0mg"},{"bike_id":"cd8677a4-9692-4ecc-96ac-e8d6c69c3590","system_id":"levelo_inurba_marseille","lat":43.27291,"lon":5.39149,"is_reserved":false,"is_disabled":false,"rental_uris":{"android":"levelo://app?vid=cd8677a4-9692-4ecc-96ac-e8d6c69c3590","ios":"levelo://app?vid=cd8677a4-9692-4ecc-96ac-e8d6c69c3590"},"vehicle_type_id":"4","last_reported":1735474497,"current_range_meters":38800,"station_id":"ce4bhgp2rcd13ifvqfe0","pricing_plan_id":"cebpf4jnsgd1na2vs0mg"},{"bike_id":"2da0e36b-1a04-4e16-910d-70939a3cc892","system_id":"levelo_inurba_marseille","lat":43.2737,"lon":5.36258,"is_reserved":false,"is_disabled":false,"rental_uris":{"android":"levelo://app?vid=2da0e36b-1a04-4e16-910d-70939a3cc892","ios":"levelo://app?vid=2da0e36b-1a04-4e16-910d-70939a3cc892"},"vehicle_type_id":"4","last_reported":1735474497,"current_range_meters":24000,"station_id":"ce4bhbh2rcd13ifvqeo0","pricing_plan_id":"cebpf4jnsgd1na2vs0mg"},{"bike_id":"3b3d2c75-4195-4f81-af35-afa13ebc8eea","system_id":"levelo_inurba_marseille","lat":43.27378,"lon":5.36251,"is_reserved":false,"is_disabled":true,"rental_uris":{"android":"levelo://app?vid=3b3d2c75-4195-4f81-af35-afa13ebc8eea","ios":"levelo://app?vid=3b3d2c75-4195-4f81-af35-afa13ebc8eea"},"vehicle_type_id":"4","last_reported":1735474497,"current_range_meters":27200,"station_id":"ce4bhbh2rcd13ifvqeo0","pricing_plan_id":"cebpf4jnsgd1na2vs0mg"},{"bike_id":"11850572-7aeb-42b1-a1ef-fd7764614105","system_id":"levelo_inurba_marseille","lat":43.23195,"lon":5.35553,"is_reserved":false,"is_disabled":false,"rental_uris":{"android":"levelo://app?vid=11850572-7aeb-42b1-a1ef-fd7764614105","ios":"levelo://app?vid=11850572-7aeb-42b1-a1ef-fd7764614105"},"vehicle_type_id":"4","last_reported":1735474497,"current_range_meters":28400,"station_id":"ce4bhu92rcd13ifvqi70","pricing_plan_id":"cebpf4jnsgd1na2vs0mg"},{"bike_id":"350b38e2-bdb8-463d-a5c0-b63752aa6a30","system_id":"levelo_inurba_marseille","lat":43.28417,"lon":5.3498,"is_reserved":false,"is_disabled":false,"rental_uris":{"android":"levelo://app?vid=350b38e2-bdb8-463d-a5c0-b63752aa6a30","ios":"levelo://app?vid=350b38e2-bdb8-463d-a5c0-b63752aa6a30"},"vehicle_type_id":"4","last_reported":1735474497,"current_range_meters":27600,"station_id":"ce4bhbh2rcd13ifvqepg","pricing_plan_id":"cebpf4jnsgd1na2vs0mg"},{"bike_id":"71ca0ec7-4f8c-4ae2-b587-1dca9d733aa5","system_id":"levelo_inurba_marseille","lat":43.2985,"lon":5.36287,"is_reserved":false,"is_disabled":false,"rental_uris":{"android":"levelo://app?vid=71ca0ec7-4f8c-4ae2-b587-1dca9d733aa5","ios":"levelo://app?vid=71ca0ec7-4f8c-4ae2-b587-1dca9d733aa5"},"vehicle_type_id":"4","last_reported":1735474497,"current_range_meters":17200,"station_id":"ce4bgpp2rcd13ifvqc3g","pricing_plan_id":"cebpf4jnsgd1na2vs0mg"},{"bike_id":"4afaa01d-2154-4233-8360-224b59b51008","system_id":"levelo_inurba_marseille","lat":43.31484,"lon":5.37331,"is_reserved":false,"is_disabled":false,"rental_uris":{"android":"levelo://app?vid=4afaa01d-2154-4233-8360-224b59b51008","ios":"levelo://app?vid=4afaa01d-2154-4233-8360-224b59b51008"},"vehicle_type_id":"4","last_reported":1735474497,"current_range_meters":38000,"station_id":"ce4bgt12rcd13ifvqcd0","pricing_plan_id":"cebpf4jnsgd1na2vs0mg"},{"bike_id":"d18d8ab8-b8eb-4c67-b59c-442dbc890a17","system_id":"levelo_inurba_marseille","lat":43.32539,"lon":5.41422,"is_reserved":false,"is_disabled":false,"rental_uris":{"android":"levelo://app?vid=d18d8ab8-b8eb-4c67-b59c-442dbc890a17","ios":"levelo://app?vid=d18d8ab8-b8eb-4c67-b59c-442dbc890a17"},"vehicle_type_id":"4","last_reported":1735474497,"current_range_meters":28000,"station_id":"ce4bhq12rcd13ifvqhhg","pricing_plan_id":"cebpf4jnsgd1na2vs0mg"},{"bike_id":"678407a6-1e00-48ee-9313-9dfab5bc6d8d","system_id":"levelo_inurba_marseille","lat":43.23962,"lon":5.36634,"is_reserved":false,"is_disabled":false,"rental_uris":{"android":"levelo://app?vid=678407a6-1e00-48ee-9313-9dfab5bc6d8d","ios":"levelo://app?vid=678407a6-1e00-48ee-9313-9dfab5bc6d8d"},"vehicle_type_id":"4","last_reported":1735474497,"current_range_meters":28000,"station_id":"ce4bhi12rcd13ifvqfp0","pricing_plan_id":"cebpf4jnsgd1na2vs0mg"},{"bike_id":"c22bbf32-8fa7-4c11-aec0-e06228310adf","system_id":"levelo_inurba_marseille","lat":43.31721,"lon":5.37412,"is_reserved":false,"is_disabled":false,"rental_uris":{"android":"levelo://app?vid=c22bbf32-8fa7-4c11-aec0-e06228310adf","ios":"levelo://app?vid=c22bbf32-8fa7-4c11-aec0-e06228310adf"},"vehicle_type_id":"4","last_reported":1735474497,"current_range_meters":32400,"station_id":"","pricing_plan_id":"cebpf4jnsgd1na2vs0mg"},{"bike_id":"dde23100-284b-476d-b6ea-b936ad5ae2e8","system_id":"levelo_inurba_marseille","lat":43.29606,"lon":5.381,"is_reserved":false,"is_disabled":false,"rental_uris":{"android":"levelo://app?vid=dde23100-284b-476d-b6ea-b936ad5ae2e8","ios":"levelo://app?vid=dde23100-284b-476d-b6ea-b936ad5ae2e8"},"vehicle_type_id":"4","last_reported":1735474497,"current_range_meters":38800,"station_id":"ce4bgl12rcd13ifvqbo0","pricing_plan_id":"cebpf4jnsgd1na2vs0mg"},{"bike_id":"857344dd-6be1-4d34-90e7-6f62afbbef2e","system_id":"levelo_inurba_marseille","lat":43.32104,"lon":5.36779,"is_reserved":false,"is_disabled":false,"rental_uris":{"android":"levelo://app?vid=857344dd-6be1-4d34-90e7-6f62afbbef2e","ios":"levelo://app?vid=857344dd-6be1-4d34-90e7-6f62afbbef2e"},"vehicle_type_id":"4","last_reported":1735474497,"current_range_meters":28400,"station_id":"ce4bhrh2rcd13ifvqhug","pricing_plan_id":"cebpf4jnsgd1na2vs0mg"},{"bike_id":"7eb7fe80-af77-47e8-b4dc-da63e7d840f1","system_id":"levelo_inurba_marseille","lat":43.3014,"lon":5.37413,"is_reserved":false,"is_disabled":false,"rental_uris":{"android":"levelo://app?vid=7eb7fe80-af77-47e8-b4dc-da63e7d840f1","ios":"levelo://app?vid=7eb7fe80-af77-47e8-b4dc-da63e7d840f1"},"vehicle_type_id":"4","last_reported":1735474497,"current_range_meters":38800,"station_id":"ce4bgs92rcd13ifvqcc0","pricing_plan_id":"cebpf4jnsgd1na2vs0mg"},{"bike_id":"f48cad58-1966-4a6e-b843-5f53e79a898e","system_id":"levelo_inurba_marseille","lat":43.27368,"lon":5.36257,"is_reserved":false,"is_disabled":false,"rental_uris":{"android":"levelo://app?vid=f48cad58-1966-4a6e-b843-5f53e79a898e","ios":"levelo://app?vid=f48cad58-1966-4a6e-b843-5f53e79a898e"},"vehicle_type_id":"4","last_reported":1735474497,"current_range_meters":14000,"station_id":"ce4bhbh2rcd13ifvqeo0","pricing_plan_id":"cebpf4jnsgd1na2vs0mg"},{"bike_id":"1533d15a-47b9-4fbc-8e1c-11ff2fd4cbf0","system_id":"levelo_inurba_marseille","lat":43.28418,"lon":5.35001,"is_reserved":false,"is_disabled":false,"rental_uris":{"android":"levelo://app?vid=1533d15a-47b9-4fbc-8e1c-11ff2fd4cbf0","ios":"levelo://app?vid=1533d15a-47b9-4fbc-8e1c-11ff2fd4cbf0"},"vehicle_type_id":"4","last_reported":1735474497,"current_range_meters":38400,"station_id":"ce4bhbh2rcd13ifvqepg","pricing_plan_id":"cebpf4jnsgd1na2vs0mg"},{"bike_id":"353a11f9-7601-454c-8af2-e5ea93e8a34d","system_id":"levelo_inurba_marseille","lat":43.27488,"lon":5.42469,"is_reserved":false,"is_disabled":false,"rental_uris":{"android":"levelo://app?vid=353a11f9-7601-454c-8af2-e5ea93e8a34d","ios":"levelo://app?vid=353a11f9-7601-454c-8af2-e5ea93e8a34d"},"vehicle_type_id":"4","last_reported":1735474497,"current_range_meters":38800,"station_id":"ce4bhn92rcd13ifvqgrg","pricing_plan_id":"cebpf4jnsgd1na2vs0mg"},{"bike_id":"2748eac1-d8f6-4c83-af0a-70c64a891d35","system_id":"levelo_inurba_marseille","lat":43.27559,"lon":5.38424,"is_reserved":false,"is_disabled":false,"rental_uris":{"android":"levelo://app?vid=2748eac1-d8f6-4c83-af0a-70c64a891d35","ios":"levelo://app?vid=2748eac1-d8f6-4c83-af0a-70c64a891d35"},"vehicle_type_id":"4","last_reported":1735474497,"current_range_meters":30000,"station_id":"ce4bhh92rcd13ifvqfi0","pricing_plan_id":"cebpf4jnsgd1na2vs0mg"},{"bike_id":"b4d130c6-4fa7-4fa3-83b8-3ae416781279","system_id":"levelo_inurba_marseille","lat":43.27445,"lon":5.39287,"is_reserved":false,"is_disabled":false,"rental_uris":{"android":"levelo://app?vid=b4d130c6-4fa7-4fa3-83b8-3ae416781279","ios":"levelo://app?vid=b4d130c6-4fa7-4fa3-83b8-3ae416781279"},"vehicle_type_id":"4","last_reported":1735474497,"current_range_meters":16400,"station_id":"","pricing_plan_id":"cebpf4jnsgd1na2vs0mg"},{"bike_id":"a8f15554-11d4-4eb2-a675-202d9b492aeb","system_id":"levelo_inurba_marseille","lat":43.23967,"lon":5.36632,"is_reserved":false,"is_disabled":false,"rental_uris":{"android":"levelo://app?vid=a8f15554-11d4-4eb2-a675-202d9b492aeb","ios":"levelo://app?vid=a8f15554-11d4-4eb2-a675-202d9b492aeb"},"vehicle_type_id":"4","last_reported":1735474497,"current_range_meters":16400,"station_id":"ce4bhi12rcd13ifvqfp0","pricing_plan_id":"cebpf4jnsgd1na2vs0mg"},{"bike_id":"1e26afe9-c92a-479f-abb9-286cc207ef1a","system_id":"levelo_inurba_marseille","lat":43.25498,"lon":5.37652,"is_reserved":false,"is_disabled":false,"rental_uris":{"android":"levelo://app?vid=1e26afe9-c92a-479f-abb9-286cc207ef1a","ios":"levelo://app?vid=1e26afe9-c92a-479f-abb9-286cc207ef1a"},"vehicle_type_id":"4","last_reported":1735474497,"current_range_meters":38000,"station_id":"ce4bhh12rcd13ifvqff0","pricing_plan_id":"cebpf4jnsgd1na2vs0mg"},{"bike_id":"4e6a6b09-c29d-4572-bd03-ffe64c36b39b","system_id":"levelo_inurba_marseille","lat":43.24074,"lon":5.37766,"is_reserved":false,"is_disabled":false,"rental_uris":{"android":"levelo://app?vid=4e6a6b09-c29d-4572-bd03-ffe64c36b39b","ios":"levelo://app?vid=4e6a6b09-c29d-4572-bd03-ffe64c36b39b"},"vehicle_type_id":"4","last_reported":1735474497,"current_range_meters":38800,"station_id":"ce4bhnp2rcd13ifvqgvg","pricing_plan_id":"cebpf4jnsgd1na2vs0mg"},{"bike_id":"cefa4e99-d23a-4f3e-a55c-511f406d8c11","system_id":"levelo_inurba_marseille","lat":43.2619,"lon":5.3745,"is_reserved":false,"is_disabled":false,"rental_uris":{"android":"levelo://app?vid=cefa4e99-d23a-4f3e-a55c-511f406d8c11","ios":"levelo://app?vid=cefa4e99-d23a-4f3e-a55c-511f406d8c11"},"vehicle_type_id":"4","last_reported":1735474497,"current_range_meters":38000,"station_id":"ce4bhgp2rcd13ifvqfc0","pricing_plan_id":"cebpf4jnsgd1na2vs0mg"},{"bike_id":"753fe1a2-6ec1-4d51-9513-13144401ea46","system_id":"levelo_inurba_marseille","lat":43.29182,"lon":5.37136,"is_reserved":false,"is_disabled":false,"rental_uris":{"android":"levelo://app?vid=753fe1a2-6ec1-4d51-9513-13144401ea46","ios":"levelo://app?vid=753fe1a2-6ec1-4d51-9513-13144401ea46"},"vehicle_type_id":"4","last_reported":1735474497,"current_range_meters":30400,"station_id":"ce4bha92rcd13ifvqeh0","pricing_plan_id":"cebpf4jnsgd1na2vs0mg"},{"bike_id":"1f4b2932-3998-4e2c-a4c7-9039ca3e2533","system_id":"levelo_inurba_marseille","lat":43.27208,"lon":5.39185,"is_reserved":false,"is_disabled":false,"rental_uris":{"android":"levelo://app?vid=1f4b2932-3998-4e2c-a4c7-9039ca3e2533","ios":"levelo://app?vid=1f4b2932-3998-4e2c-a4c7-9039ca3e2533"},"vehicle_type_id":"4","last_reported":1735474497,"current_range_meters":38000,"station_id":"ce4bhhp2rcd13ifvqfm0","pricing_plan_id":"cebpf4jnsgd1na2vs0mg"},{"bike_id":"d0533ccb-11ce-46dc-9cca-daa9f7a4985a","system_id":"levelo_inurba_marseille","lat":43.29538,"lon":5.42288,"is_reserved":false,"is_disabled":false,"rental_uris":{"android":"levelo://app?vid=d0533ccb-11ce-46dc-9cca-daa9f7a4985a","ios":"levelo://app?vid=d0533ccb-11ce-46dc-9cca-daa9f7a4985a"},"vehicle_type_id":"4","last_reported":1735474497,"current_range_meters":36000,"station_id":"ce4bhph2rcd13ifvqhdg","pricing_plan_id":"cebpf4jnsgd1na2vs0mg"},{"bike_id":"18ed169b-f8e6-48ff-8d23-5f83e81eb63f","system_id":"levelo_inurba_marseille","lat":43.3171,"lon":5.37777,"is_reserved":false,"is_disabled":false,"rental_uris":{"android":"levelo://app?vid=18ed169b-f8e6-48ff-8d23-5f83e81eb63f","ios":"levelo://app?vid=18ed169b-f8e6-48ff-8d23-5f83e81eb63f"},"vehicle_type_id":"4","last_reported":1735474497,"current_range_meters":38400,"station_id":"ce4bgth2rcd13ifvqch0","pricing_plan_id":"cebpf4jnsgd1na2vs0mg"},{"bike_id":"a598dd5c-e430-49bd-abe8-2deb7a7e0874","system_id":"levelo_inurba_marseille","lat":43.27374,"lon":5.36259,"is_reserved":false,"is_disabled":true,"rental_uris":{"android":"levelo://app?vid=a598dd5c-e430-49bd-abe8-2deb7a7e0874","ios":"levelo://app?vid=a598dd5c-e430-49bd-abe8-2deb7a7e0874"},"vehicle_type_id":"4","last_reported":1735474497,"current_range_meters":1200,"station_id":"ce4bhbh2rcd13ifvqeo0","pricing_plan_id":"cebpf4jnsgd1na2vs0mg"},{"bike_id":"d7b1b637-ae47-4614-8941-866ca369a43d","system_id":"levelo_inurba_marseille","lat":43.26556,"lon":5.37294,"is_reserved":false,"is_disabled":true,"rental_uris":{"android":"levelo://app?vid=d7b1b637-ae47-4614-8941-866ca369a43d","ios":"levelo://app?vid=d7b1b637-ae47-4614-8941-866ca369a43d"},"vehicle_type_id":"4","last_reported":1735474497,"current_range_meters":0,"station_id":"ce4bhg12rcd13ifvqf70","pricing_plan_id":"cebpf4jnsgd1na2vs0mg"},{"bike_id":"98b900d2-5218-4f34-9619-a21e902d182b","system_id":"levelo_inurba_marseille","lat":43.2843,"lon":5.34992,"is_reserved":false,"is_disabled":false,"rental_uris":{"android":"levelo://app?vid=98b900d2-5218-4f34-9619-a21e902d182b","ios":"levelo://app?vid=98b900d2-5218-4f34-9619-a21e902d182b"},"vehicle_type_id":"4","last_reported":1735474497,"current_range_meters":19200,"station_id":"ce4bhbh2rcd13ifvqepg","pricing_plan_id":"cebpf4jnsgd1na2vs0mg"},{"bike_id":"13f84696-4405-43e0-b0f5-1a61d67abe32","system_id":"levelo_inurba_marseille","lat":43.278388,"lon":5.392049,"is_reserved":false,"is_disabled":false,"rental_uris":{"android":"levelo://app?vid=13f84696-4405-43e0-b0f5-1a61d67abe32","ios":"levelo://app?vid=13f84696-4405-43e0-b0f5-1a61d67abe32"},"vehicle_type_id":"4","last_reported":1735474497,"current_range_meters":24400,"station_id":"ce4bhjp2rcd13ifvqga0","pricing_plan_id":"cebpf4jnsgd1na2vs0mg"},{"bike_id":"894dd1e4-8739-49d4-a291-c4d91751ebfa","system_id":"levelo_inurba_marseille","lat":43.24803,"lon":5.3746,"is_reserved":false,"is_disabled":false,"rental_uris":{"android":"levelo://app?vid=894dd1e4-8739-49d4-a291-c4d91751ebfa","ios":"levelo://app?vid=894dd1e4-8739-49d4-a291-c4d91751ebfa"},"vehicle_type_id":"4","last_reported":1735474497,"current_range_meters":28400,"station_id":"ce4bhgh2rcd13ifvqfb0","pricing_plan_id":"cebpf4jnsgd1na2vs0mg"},{"bike_id":"caab34a4-5264-4b72-a12f-e55159fe93b6","system_id":"levelo_inurba_marseille","lat":43.27067,"lon":5.42303,"is_reserved":false,"is_disabled":false,"rental_uris":{"android":"levelo://app?vid=caab34a4-5264-4b72-a12f-e55159fe93b6","ios":"levelo://app?vid=caab34a4-5264-4b72-a12f-e55159fe93b6"},"vehicle_type_id":"4","last_reported":1735474497,"current_range_meters":25200,"station_id":"ce4bhk92rcd13ifvqgb0","pricing_plan_id":"cebpf4jnsgd1na2vs0mg"},{"bike_id":"63786f9b-3b0e-4771-967d-d7b493198cdd","system_id":"levelo_inurba_marseille","lat":43.2418,"lon":5.39732,"is_reserved":false,"is_disabled":false,"rental_uris":{"android":"levelo://app?vid=63786f9b-3b0e-4771-967d-d7b493198cdd","ios":"levelo://app?vid=63786f9b-3b0e-4771-967d-d7b493198cdd"},"vehicle_type_id":"4","last_reported":1735474497,"current_range_meters":10800,"station_id":"ce4bhn12rcd13ifvqgpg","pricing_plan_id":"cebpf4jnsgd1na2vs0mg"},{"bike_id":"e511b03b-ff60-4f6d-b09f-9e7885ba5bf3","system_id":"levelo_inurba_marseille","lat":43.24069,"lon":5.37766,"is_reserved":false,"is_disabled":false,"rental_uris":{"android":"levelo://app?vid=e511b03b-ff60-4f6d-b09f-9e7885ba5bf3","ios":"levelo://app?vid=e511b03b-ff60-4f6d-b09f-9e7885ba5bf3"},"vehicle_type_id":"4","last_reported":1735474497,"current_range_meters":16800,"station_id":"ce4bhnp2rcd13ifvqgvg","pricing_plan_id":"cebpf4jnsgd1na2vs0mg"},{"bike_id":"f3f9533f-9b20-4085-9f18-a07559421abb","system_id":"levelo_inurba_marseille","lat":43.2952,"lon":5.37508,"is_reserved":false,"is_disabled":false,"rental_uris":{"android":"levelo://app?vid=f3f9533f-9b20-4085-9f18-a07559421abb","ios":"levelo://app?vid=f3f9533f-9b20-4085-9f18-a07559421abb"},"vehicle_type_id":"4","last_reported":1735474497,"current_range_meters":36800,"station_id":"ce4bgkp2rcd13ifvqbmg","pricing_plan_id":"cebpf4jnsgd1na2vs0mg"},{"bike_id":"deca8431-a5b2-4fcd-b4ef-fe8f136722a6","system_id":"levelo_inurba_marseille","lat":43.28147,"lon":5.42647,"is_reserved":false,"is_disabled":false,"rental_uris":{"android":"levelo://app?vid=deca8431-a5b2-4fcd-b4ef-fe8f136722a6","ios":"levelo://app?vid=deca8431-a5b2-4fcd-b4ef-fe8f136722a6"},"vehicle_type_id":"4","last_reported":1735474497,"current_range_meters":28800,"station_id":"ce4bhnh2rcd13ifvqgug","pricing_plan_id":"cebpf4jnsgd1na2vs0mg"},{"bike_id":"2eaf5aab-e12e-4e93-a20d-88a34894165c","system_id":"levelo_inurba_marseille","lat":43.28458,"lon":5.35896,"is_reserved":false,"is_disabled":true,"rental_uris":{"android":"levelo://app?vid=2eaf5aab-e12e-4e93-a20d-88a34894165c","ios":"levelo://app?vid=2eaf5aab-e12e-4e93-a20d-88a34894165c"},"vehicle_type_id":"4","last_reported":1735474497,"current_range_meters":0,"station_id":"ce4bhah2rcd13ifvqei0","pricing_plan_id":"cebpf4jnsgd1na2vs0mg"},{"bike_id":"edf0b663-1d49-48b0-9482-86766f1b112c","system_id":"levelo_inurba_marseille","lat":43.28659,"lon":5.3635,"is_reserved":false,"is_disabled":false,"rental_uris":{"android":"levelo://app?vid=edf0b663-1d49-48b0-9482-86766f1b112c","ios":"levelo://app?vid=edf0b663-1d49-48b0-9482-86766f1b112c"},"vehicle_type_id":"4","last_reported":1735474497,"current_range_meters":31200,"station_id":"ce4bhah2rcd13ifvqej0","pricing_plan_id":"cebpf4jnsgd1na2vs0mg"},{"bike_id":"d07ac0e3-849c-44fe-ab38-0273add2ad10","system_id":"levelo_inurba_marseille","lat":43.3089,"lon":5.37209,"is_reserved":false,"is_disabled":true,"rental_uris":{"android":"levelo://app?vid=d07ac0e3-849c-44fe-ab38-0273add2ad10","ios":"levelo://app?vid=d07ac0e3-849c-44fe-ab38-0273add2ad10"},"vehicle_type_id":"4","last_reported":1735474497,"current_range_meters":9200,"station_id":"ce4bguh2rcd13ifvqckg","pricing_plan_id":"cebpf4jnsgd1na2vs0mg"},{"bike_id":"51e5c6f1-6e1e-4a64-b4d7-2cbdf6f2f381","system_id":"levelo_inurba_marseille","lat":43.29039,"lon":5.3995,"is_reserved":false,"is_disabled":false,"rental_uris":{"android":"levelo://app?vid=51e5c6f1-6e1e-4a64-b4d7-2cbdf6f2f381","ios":"levelo://app?vid=51e5c6f1-6e1e-4a64-b4d7-2cbdf6f2f381"},"vehicle_type_id":"4","last_reported":1735474497,"current_range_meters":38800,"station_id":"ce4bh392rcd13ifvqdm0","pricing_plan_id":"cebpf4jnsgd1na2vs0mg"},{"bike_id":"b8310779-a1ed-43b8-93c2-4d2a1cabb080","system_id":"levelo_inurba_marseille","lat":43.26527,"lon":5.39514,"is_reserved":false,"is_disabled":false,"rental_uris":{"android":"levelo://app?vid=b8310779-a1ed-43b8-93c2-4d2a1cabb080","ios":"levelo://app?vid=b8310779-a1ed-43b8-93c2-4d2a1cabb080"},"vehicle_type_id":"4","last_reported":1735474497,"current_range_meters":36800,"station_id":"ce4bhi12rcd13ifvqfq0","pricing_plan_id":"cebpf4jnsgd1na2vs0mg"},{"bike_id":"63e292a4-7211-4399-b573-131fa3cc14cf","system_id":"levelo_inurba_marseille","lat":43.34154,"lon":5.40912,"is_reserved":false,"is_disabled":false,"rental_uris":{"android":"levelo://app?vid=63e292a4-7211-4399-b573-131fa3cc14cf","ios":"levelo://app?vid=63e292a4-7211-4399-b573-131fa3cc14cf"},"vehicle_type_id":"4","last_reported":1735474497,"current_range_meters":37600,"station_id":"ce4bhqh2rcd13ifvqhlg","pricing_plan_id":"cebpf4jnsgd1na2vs0mg"},{"bike_id":"f7ea23f6-e168-4049-af9c-3d18c33b42e1","system_id":"levelo_inurba_marseille","lat":43.27369,"lon":5.36226,"is_reserved":false,"is_disabled":false,"rental_uris":{"android":"levelo://app?vid=f7ea23f6-e168-4049-af9c-3d18c33b42e1","ios":"levelo://app?vid=f7ea23f6-e168-4049-af9c-3d18c33b42e1"},"vehicle_type_id":"4","last_reported":1735474497,"current_range_meters":27200,"station_id":"ce4bhbh2rcd13ifvqeo0","pricing_plan_id":"cebpf4jnsgd1na2vs0mg"},{"bike_id":"5773e918-ca73-493b-8b64-a7a626410a09","system_id":"levelo_inurba_marseille","lat":43.29219,"lon":5.36058,"is_reserved":false,"is_disabled":false,"rental_uris":{"android":"levelo://app?vid=5773e918-ca73-493b-8b64-a7a626410a09","ios":"levelo://app?vid=5773e918-ca73-493b-8b64-a7a626410a09"},"vehicle_type_id":"4","last_reported":1735474497,"current_range_meters":38800,"station_id":"ce4bhbh2rcd13ifvqeqg","pricing_plan_id":"cebpf4jnsgd1na2vs0mg"},{"bike_id":"eccfad66-c267-470e-be27-7e3cd3a0d1c8","system_id":"levelo_inurba_marseille","lat":43.26497,"lon":5.39555,"is_reserved":false,"is_disabled":false,"rental_uris":{"android":"levelo://app?vid=eccfad66-c267-470e-be27-7e3cd3a0d1c8","ios":"levelo://app?vid=eccfad66-c267-470e-be27-7e3cd3a0d1c8"},"vehicle_type_id":"4","last_reported":1735474497,"current_range_meters":38800,"station_id":"ce4bhi12rcd13ifvqfq0","pricing_plan_id":"cebpf4jnsgd1na2vs0mg"},{"bike_id":"d225e49f-de10-470b-90af-648b3c15cce7","system_id":"levelo_inurba_marseille","lat":43.2572,"lon":5.41128,"is_reserved":false,"is_disabled":false,"rental_uris":{"android":"levelo://app?vid=d225e49f-de10-470b-90af-648b3c15cce7","ios":"levelo://app?vid=d225e49f-de10-470b-90af-648b3c15cce7"},"vehicle_type_id":"4","last_reported":1735474497,"current_range_meters":37600,"station_id":"ce4bhkp2rcd13ifvqgd0","pricing_plan_id":"cebpf4jnsgd1na2vs0mg"},{"bike_id":"2ad96645-53b8-4b57-b8b9-898b5d0758ec","system_id":"levelo_inurba_marseille","lat":43.27317,"lon":5.36271,"is_reserved":false,"is_disabled":false,"rental_uris":{"android":"levelo://app?vid=2ad96645-53b8-4b57-b8b9-898b5d0758ec","ios":"levelo://app?vid=2ad96645-53b8-4b57-b8b9-898b5d0758ec"},"vehicle_type_id":"4","last_reported":1735474497,"current_range_meters":24800,"station_id":"ce4bhbh2rcd13ifvqeo0","pricing_plan_id":"cebpf4jnsgd1na2vs0mg"},{"bike_id":"9bf75947-f75d-4481-bd1d-6697b4c68583","system_id":"levelo_inurba_marseille","lat":43.28071,"lon":5.39655,"is_reserved":false,"is_disabled":false,"rental_uris":{"android":"levelo://app?vid=9bf75947-f75d-4481-bd1d-6697b4c68583","ios":"levelo://app?vid=9bf75947-f75d-4481-bd1d-6697b4c68583"},"vehicle_type_id":"4","last_reported":1735474497,"current_range_meters":36800,"station_id":"ce4bho12rcd13ifvqh2g","pricing_plan_id":"cebpf4jnsgd1na2vs0mg"},{"bike_id":"05fb7452-2e75-415b-85e8-66f72f2a1cf5","system_id":"levelo_inurba_marseille","lat":43.31345,"lon":5.39169,"is_reserved":false,"is_disabled":false,"rental_uris":{"android":"levelo://app?vid=05fb7452-2e75-415b-85e8-66f72f2a1cf5","ios":"levelo://app?vid=05fb7452-2e75-415b-85e8-66f72f2a1cf5"},"vehicle_type_id":"4","last_reported":1735474497,"current_range_meters":19200,"station_id":"","pricing_plan_id":"cebpf4jnsgd1na2vs0mg"},{"bike_id":"158e017f-4a76-4ad7-a5e3-1ca7daceabea","system_id":"levelo_inurba_marseille","lat":43.27495,"lon":5.42455,"is_reserved":false,"is_disabled":false,"rental_uris":{"android":"levelo://app?vid=158e017f-4a76-4ad7-a5e3-1ca7daceabea","ios":"levelo://app?vid=158e017f-4a76-4ad7-a5e3-1ca7daceabea"},"vehicle_type_id":"4","last_reported":1735474497,"current_range_meters":17200,"station_id":"ce4bhn92rcd13ifvqgrg","pricing_plan_id":"cebpf4jnsgd1na2vs0mg"},{"bike_id":"d6144803-d96b-4980-90a1-d59f6d11564c","system_id":"levelo_inurba_marseille","lat":43.28151,"lon":5.42649,"is_reserved":false,"is_disabled":false,"rental_uris":{"android":"levelo://app?vid=d6144803-d96b-4980-90a1-d59f6d11564c","ios":"levelo://app?vid=d6144803-d96b-4980-90a1-d59f6d11564c"},"vehicle_type_id":"4","last_reported":1735474497,"current_range_meters":38800,"station_id":"ce4bhnh2rcd13ifvqgug","pricing_plan_id":"cebpf4jnsgd1na2vs0mg"},{"bike_id":"8ed5a1f5-589e-42ed-8f11-2d154ce6b9eb","system_id":"levelo_inurba_marseille","lat":43.23963,"lon":5.36635,"is_reserved":false,"is_disabled":false,"rental_uris":{"android":"levelo://app?vid=8ed5a1f5-589e-42ed-8f11-2d154ce6b9eb","ios":"levelo://app?vid=8ed5a1f5-589e-42ed-8f11-2d154ce6b9eb"},"vehicle_type_id":"4","last_reported":1735474497,"current_range_meters":36400,"station_id":"ce4bhi12rcd13ifvqfp0","pricing_plan_id":"cebpf4jnsgd1na2vs0mg"},{"bike_id":"6d0ac80e-75eb-4e3d-abf2-6a7c425b7c07","system_id":"levelo_inurba_marseille","lat":43.30217,"lon":5.39475,"is_reserved":false,"is_disabled":false,"rental_uris":{"android":"levelo://app?vid=6d0ac80e-75eb-4e3d-abf2-6a7c425b7c07","ios":"levelo://app?vid=6d0ac80e-75eb-4e3d-abf2-6a7c425b7c07"},"vehicle_type_id":"4","last_reported":1735474497,"current_range_meters":26800,"station_id":"ce4bh0p2rcd13ifvqd70","pricing_plan_id":"cebpf4jnsgd1na2vs0mg"},{"bike_id":"7923dd58-eb80-4700-ad25-706d37353b55","system_id":"levelo_inurba_marseille","lat":43.29304,"lon":5.3717,"is_reserved":false,"is_disabled":false,"rental_uris":{"android":"levelo://app?vid=7923dd58-eb80-4700-ad25-706d37353b55","ios":"levelo://app?vid=7923dd58-eb80-4700-ad25-706d37353b55"},"vehicle_type_id":"4","last_reported":1735474497,"current_range_meters":12400,"station_id":"ce4bgh92rcd13ifvqb40","pricing_plan_id":"cebpf4jnsgd1na2vs0mg"},{"bike_id":"b5c4aac1-6bf9-4e99-8be1-e03a341118f7","system_id":"levelo_inurba_marseille","lat":43.29072,"lon":5.38156,"is_reserved":false,"is_disabled":false,"rental_uris":{"android":"levelo://app?vid=b5c4aac1-6bf9-4e99-8be1-e03a341118f7","ios":"levelo://app?vid=b5c4aac1-6bf9-4e99-8be1-e03a341118f7"},"vehicle_type_id":"4","last_reported":1735474497,"current_range_meters":30000,"station_id":"ce4bh512rcd13ifvqe2g","pricing_plan_id":"cebpf4jnsgd1na2vs0mg"},{"bike_id":"fbd37606-7491-40eb-a6f2-fedf079ad396","system_id":"levelo_inurba_marseille","lat":43.28263,"lon":5.3506,"is_reserved":false,"is_disabled":false,"rental_uris":{"android":"levelo://app?vid=fbd37606-7491-40eb-a6f2-fedf079ad396","ios":"levelo://app?vid=fbd37606-7491-40eb-a6f2-fedf079ad396"},"vehicle_type_id":"4","last_reported":1735474497,"current_range_meters":27200,"station_id":"ce4bhbp2rcd13ifvqerg","pricing_plan_id":"cebpf4jnsgd1na2vs0mg"},{"bike_id":"75586ade-f7a4-41b5-afef-c1e2f4499a7d","system_id":"levelo_inurba_marseille","lat":43.30889,"lon":5.3719,"is_reserved":false,"is_disabled":false,"rental_uris":{"android":"levelo://app?vid=75586ade-f7a4-41b5-afef-c1e2f4499a7d","ios":"levelo://app?vid=75586ade-f7a4-41b5-afef-c1e2f4499a7d"},"vehicle_type_id":"4","last_reported":1735474497,"current_range_meters":36400,"station_id":"ce4bguh2rcd13ifvqckg","pricing_plan_id":"cebpf4jnsgd1na2vs0mg"},{"bike_id":"0ca2648b-2914-486f-b628-4bc01801bfcc","system_id":"levelo_inurba_marseille","lat":43.29927,"lon":5.36543,"is_reserved":false,"is_disabled":false,"rental_uris":{"android":"levelo://app?vid=0ca2648b-2914-486f-b628-4bc01801bfcc","ios":"levelo://app?vid=0ca2648b-2914-486f-b628-4bc01801bfcc"},"vehicle_type_id":"4","last_reported":1735474497,"current_range_meters":34800,"station_id":"ce4bgm92rcd13ifvqbr0","pricing_plan_id":"cebpf4jnsgd1na2vs0mg"},{"bike_id":"ade8f6ef-b3ee-4321-b0e3-fa2122109c5d","system_id":"levelo_inurba_marseille","lat":43.25008,"lon":5.3892,"is_reserved":false,"is_disabled":false,"rental_uris":{"android":"levelo://app?vid=ade8f6ef-b3ee-4321-b0e3-fa2122109c5d","ios":"levelo://app?vid=ade8f6ef-b3ee-4321-b0e3-fa2122109c5d"},"vehicle_type_id":"4","last_reported":1735474497,"current_range_meters":20000,"station_id":"ce4bhgp2rcd13ifvqfd0","pricing_plan_id":"cebpf4jnsgd1na2vs0mg"},{"bike_id":"22fd7190-4a48-4311-a205-02e98d2bbea1","system_id":"levelo_inurba_marseille","lat":43.3374,"lon":5.39199,"is_reserved":false,"is_disabled":false,"rental_uris":{"android":"levelo://app?vid=22fd7190-4a48-4311-a205-02e98d2bbea1","ios":"levelo://app?vid=22fd7190-4a48-4311-a205-02e98d2bbea1"},"vehicle_type_id":"4","last_reported":1735474497,"current_range_meters":36800,"station_id":"ce4bhr92rcd13ifvqhsg","pricing_plan_id":"cebpf4jnsgd1na2vs0mg"},{"bike_id":"0b3c5557-0e10-4d5a-875c-52150c207581","system_id":"levelo_inurba_marseille","lat":43.28917,"lon":5.39636,"is_reserved":false,"is_disabled":false,"rental_uris":{"android":"levelo://app?vid=0b3c5557-0e10-4d5a-875c-52150c207581","ios":"levelo://app?vid=0b3c5557-0e10-4d5a-875c-52150c207581"},"vehicle_type_id":"4","last_reported":1735474497,"current_range_meters":25200,"station_id":"ce4bh3h2rcd13ifvqdn0","pricing_plan_id":"cebpf4jnsgd1na2vs0mg"},{"bike_id":"67072b37-a662-476c-b02a-f3dae6f7d8e8","system_id":"levelo_inurba_marseille","lat":43.31983,"lon":5.38157,"is_reserved":false,"is_disabled":false,"rental_uris":{"android":"levelo://app?vid=67072b37-a662-476c-b02a-f3dae6f7d8e8","ios":"levelo://app?vid=67072b37-a662-476c-b02a-f3dae6f7d8e8"},"vehicle_type_id":"4","last_reported":1735474497,"current_range_meters":39200,"station_id":"ce4bhr12rcd13ifvqhpg","pricing_plan_id":"cebpf4jnsgd1na2vs0mg"},{"bike_id":"b51899bf-eb59-4427-b974-726780043f14","system_id":"levelo_inurba_marseille","lat":43.279398,"lon":5.410421,"is_reserved":false,"is_disabled":false,"rental_uris":{"android":"levelo://app?vid=b51899bf-eb59-4427-b974-726780043f14","ios":"levelo://app?vid=b51899bf-eb59-4427-b974-726780043f14"},"vehicle_type_id":"4","last_reported":1735474497,"current_range_meters":35200,"station_id":"ce4bhnp2rcd13ifvqh0g","pricing_plan_id":"cebpf4jnsgd1na2vs0mg"},{"bike_id":"ebad73eb-ddf1-4716-985c-2447b376c89e","system_id":"levelo_inurba_marseille","lat":43.27208,"lon":5.39188,"is_reserved":false,"is_disabled":false,"rental_uris":{"android":"levelo://app?vid=ebad73eb-ddf1-4716-985c-2447b376c89e","ios":"levelo://app?vid=ebad73eb-ddf1-4716-985c-2447b376c89e"},"vehicle_type_id":"4","last_reported":1735474497,"current_range_meters":38800,"station_id":"ce4bhhp2rcd13ifvqfm0","pricing_plan_id":"cebpf4jnsgd1na2vs0mg"},{"bike_id":"2fdeab75-c3c7-44e1-8744-5eb7e97729bb","system_id":"levelo_inurba_marseille","lat":43.32107,"lon":5.36788,"is_reserved":false,"is_disabled":false,"rental_uris":{"android":"levelo://app?vid=2fdeab75-c3c7-44e1-8744-5eb7e97729bb","ios":"levelo://app?vid=2fdeab75-c3c7-44e1-8744-5eb7e97729bb"},"vehicle_type_id":"4","last_reported":1735474497,"current_range_meters":9600,"station_id":"ce4bhrh2rcd13ifvqhug","pricing_plan_id":"cebpf4jnsgd1na2vs0mg"},{"bike_id":"6d4eab58-ccf4-4dd3-8505-c69a51c3b2d7","system_id":"levelo_inurba_marseille","lat":43.29274,"lon":5.40119,"is_reserved":false,"is_disabled":false,"rental_uris":{"android":"levelo://app?vid=6d4eab58-ccf4-4dd3-8505-c69a51c3b2d7","ios":"levelo://app?vid=6d4eab58-ccf4-4dd3-8505-c69a51c3b2d7"},"vehicle_type_id":"4","last_reported":1735474497,"current_range_meters":35600,"station_id":"ce4bh312rcd13ifvqdk0","pricing_plan_id":"cebpf4jnsgd1na2vs0mg"},{"bike_id":"7061b452-6de4-4de7-8c4e-e80c8067d5f8","system_id":"levelo_inurba_marseille","lat":43.30469,"lon":5.37914,"is_reserved":false,"is_disabled":false,"rental_uris":{"android":"levelo://app?vid=7061b452-6de4-4de7-8c4e-e80c8067d5f8","ios":"levelo://app?vid=7061b452-6de4-4de7-8c4e-e80c8067d5f8"},"vehicle_type_id":"4","last_reported":1735474497,"current_range_meters":26800,"station_id":"ce4bgup2rcd13ifvqcn0","pricing_plan_id":"cebpf4jnsgd1na2vs0mg"},{"bike_id":"9e6d9495-e6fc-46af-bf3a-7dc282e2ba92","system_id":"levelo_inurba_marseille","lat":43.2707,"lon":5.42278,"is_reserved":false,"is_disabled":false,"rental_uris":{"android":"levelo://app?vid=9e6d9495-e6fc-46af-bf3a-7dc282e2ba92","ios":"levelo://app?vid=9e6d9495-e6fc-46af-bf3a-7dc282e2ba92"},"vehicle_type_id":"4","last_reported":1735474497,"current_range_meters":32800,"station_id":"ce4bhk92rcd13ifvqgb0","pricing_plan_id":"cebpf4jnsgd1na2vs0mg"},{"bike_id":"57103b12-06fc-494b-9a1a-1903f8f245d5","system_id":"levelo_inurba_marseille","lat":43.27976,"lon":5.41652,"is_reserved":false,"is_disabled":false,"rental_uris":{"android":"levelo://app?vid=57103b12-06fc-494b-9a1a-1903f8f245d5","ios":"levelo://app?vid=57103b12-06fc-494b-9a1a-1903f8f245d5"},"vehicle_type_id":"4","last_reported":1735474497,"current_range_meters":17600,"station_id":"ce4bho12rcd13ifvqh1g","pricing_plan_id":"cebpf4jnsgd1na2vs0mg"},{"bike_id":"9c190374-01bb-42bf-8134-b1b2e72f4531","system_id":"levelo_inurba_marseille","lat":43.27368,"lon":5.36253,"is_reserved":false,"is_disabled":false,"rental_uris":{"android":"levelo://app?vid=9c190374-01bb-42bf-8134-b1b2e72f4531","ios":"levelo://app?vid=9c190374-01bb-42bf-8134-b1b2e72f4531"},"vehicle_type_id":"4","last_reported":1735474497,"current_range_meters":37600,"station_id":"ce4bhbh2rcd13ifvqeo0","pricing_plan_id":"cebpf4jnsgd1na2vs0mg"},{"bike_id":"3db05973-cc08-4299-9c9c-1e95f6ad1810","system_id":"levelo_inurba_marseille","lat":43.30798,"lon":5.38152,"is_reserved":false,"is_disabled":false,"rental_uris":{"android":"levelo://app?vid=3db05973-cc08-4299-9c9c-1e95f6ad1810","ios":"levelo://app?vid=3db05973-cc08-4299-9c9c-1e95f6ad1810"},"vehicle_type_id":"4","last_reported":1735474497,"current_range_meters":26000,"station_id":"ce4bgt12rcd13ifvqce0","pricing_plan_id":"cebpf4jnsgd1na2vs0mg"},{"bike_id":"d9d97985-8792-47a3-ab8c-09980f6a9900","system_id":"levelo_inurba_marseille","lat":43.29519,"lon":5.3752,"is_reserved":false,"is_disabled":true,"rental_uris":{"android":"levelo://app?vid=d9d97985-8792-47a3-ab8c-09980f6a9900","ios":"levelo://app?vid=d9d97985-8792-47a3-ab8c-09980f6a9900"},"vehicle_type_id":"4","last_reported":1735474497,"current_range_meters":6800,"station_id":"ce4bgkp2rcd13ifvqbmg","pricing_plan_id":"cebpf4jnsgd1na2vs0mg"},{"bike_id":"e4e94395-f68d-4cbe-b89a-bf414ed7cf77","system_id":"levelo_inurba_marseille","lat":43.25503,"lon":5.37654,"is_reserved":false,"is_disabled":false,"rental_uris":{"android":"levelo://app?vid=e4e94395-f68d-4cbe-b89a-bf414ed7cf77","ios":"levelo://app?vid=e4e94395-f68d-4cbe-b89a-bf414ed7cf77"},"vehicle_type_id":"4","last_reported":1735474497,"current_range_meters":33200,"station_id":"ce4bhh12rcd13ifvqff0","pricing_plan_id":"cebpf4jnsgd1na2vs0mg"},{"bike_id":"81b7dbd4-2034-4c75-9f95-f800613fb5e7","system_id":"levelo_inurba_marseille","lat":43.28152,"lon":5.42637,"is_reserved":false,"is_disabled":false,"rental_uris":{"android":"levelo://app?vid=81b7dbd4-2034-4c75-9f95-f800613fb5e7","ios":"levelo://app?vid=81b7dbd4-2034-4c75-9f95-f800613fb5e7"},"vehicle_type_id":"4","last_reported":1735474497,"current_range_meters":12000,"station_id":"ce4bhnh2rcd13ifvqgug","pricing_plan_id":"cebpf4jnsgd1na2vs0mg"},{"bike_id":"02bebb66-a635-415b-9ff5-a143c8ab53d6","system_id":"levelo_inurba_marseille","lat":43.29019,"lon":5.38154,"is_reserved":false,"is_disabled":false,"rental_uris":{"android":"levelo://app?vid=02bebb66-a635-415b-9ff5-a143c8ab53d6","ios":"levelo://app?vid=02bebb66-a635-415b-9ff5-a143c8ab53d6"},"vehicle_type_id":"4","last_reported":1735474497,"current_range_meters":37600,"station_id":"ce4bh4p2rcd13ifvqe1g","pricing_plan_id":"cebpf4jnsgd1na2vs0mg"},{"bike_id":"51145a9f-1dd5-49ff-b0a8-9d0e3c399b7d","system_id":"levelo_inurba_marseille","lat":43.290649,"lon":5.371682,"is_reserved":false,"is_disabled":false,"rental_uris":{"android":"levelo://app?vid=51145a9f-1dd5-49ff-b0a8-9d0e3c399b7d","ios":"levelo://app?vid=51145a9f-1dd5-49ff-b0a8-9d0e3c399b7d"},"vehicle_type_id":"4","last_reported":1735474497,"current_range_meters":17200,"station_id":"ce4bh5p2rcd13ifvqe4g","pricing_plan_id":"cebpf4jnsgd1na2vs0mg"},{"bike_id":"482b0b80-c53d-4d05-aa82-218b22575b6c","system_id":"levelo_inurba_marseille","lat":43.23148,"lon":5.43721,"is_reserved":false,"is_disabled":true,"rental_uris":{"android":"levelo://app?vid=482b0b80-c53d-4d05-aa82-218b22575b6c","ios":"levelo://app?vid=482b0b80-c53d-4d05-aa82-218b22575b6c"},"vehicle_type_id":"4","last_reported":1735474497,"current_range_meters":38400,"station_id":"ce4bhmp2rcd13ifvqgog","pricing_plan_id":"cebpf4jnsgd1na2vs0mg"},{"bike_id":"8bebdfdd-5ee2-4107-b5ca-6ba344b6cb51","system_id":"levelo_inurba_marseille","lat":43.29976,"lon":5.38493,"is_reserved":false,"is_disabled":false,"rental_uris":{"android":"levelo://app?vid=8bebdfdd-5ee2-4107-b5ca-6ba344b6cb51","ios":"levelo://app?vid=8bebdfdd-5ee2-4107-b5ca-6ba344b6cb51"},"vehicle_type_id":"4","last_reported":1735474497,"current_range_meters":38800,"station_id":"ce4bgj92rcd13ifvqbd0","pricing_plan_id":"cebpf4jnsgd1na2vs0mg"},{"bike_id":"cb0d02f4-613e-4027-9f67-1bb49f28195e","system_id":"levelo_inurba_marseille","lat":43.29256,"lon":5.36859,"is_reserved":false,"is_disabled":false,"rental_uris":{"android":"levelo://app?vid=cb0d02f4-613e-4027-9f67-1bb49f28195e","ios":"levelo://app?vid=cb0d02f4-613e-4027-9f67-1bb49f28195e"},"vehicle_type_id":"4","last_reported":1735474497,"current_range_meters":33200,"station_id":"ce4bhbp2rcd13ifvqesg","pricing_plan_id":"cebpf4jnsgd1na2vs0mg"},{"bike_id":"59107023-2d99-4df4-a929-e6a135a59413","system_id":"levelo_inurba_marseille","lat":43.29004,"lon":5.35615,"is_reserved":false,"is_disabled":false,"rental_uris":{"android":"levelo://app?vid=59107023-2d99-4df4-a929-e6a135a59413","ios":"levelo://app?vid=59107023-2d99-4df4-a929-e6a135a59413"},"vehicle_type_id":"4","last_reported":1735474497,"current_range_meters":13600,"station_id":"ce4bhb92rcd13ifvqen0","pricing_plan_id":"cebpf4jnsgd1na2vs0mg"},{"bike_id":"c33f4286-aba0-493b-a84b-cccc50a4fb8c","system_id":"levelo_inurba_marseille","lat":43.2761,"lon":5.36118,"is_reserved":false,"is_disabled":false,"rental_uris":{"android":"levelo://app?vid=c33f4286-aba0-493b-a84b-cccc50a4fb8c","ios":"levelo://app?vid=c33f4286-aba0-493b-a84b-cccc50a4fb8c"},"vehicle_type_id":"4","last_reported":1735474497,"current_range_meters":10800,"station_id":"ce4bgj92rcd13ifvqbe0","pricing_plan_id":"cebpf4jnsgd1na2vs0mg"},{"bike_id":"e0c74737-2055-4e52-90a7-07c5fbe7a27e","system_id":"levelo_inurba_marseille","lat":43.25496,"lon":5.37653,"is_reserved":false,"is_disabled":false,"rental_uris":{"android":"levelo://app?vid=e0c74737-2055-4e52-90a7-07c5fbe7a27e","ios":"levelo://app?vid=e0c74737-2055-4e52-90a7-07c5fbe7a27e"},"vehicle_type_id":"4","last_reported":1735474497,"current_range_meters":22400,"station_id":"ce4bhh12rcd13ifvqff0","pricing_plan_id":"cebpf4jnsgd1na2vs0mg"},{"bike_id":"869fc1e6-58d8-4942-b994-e668b7cc85e1","system_id":"levelo_inurba_marseille","lat":43.23189,"lon":5.35574,"is_reserved":false,"is_disabled":false,"rental_uris":{"android":"levelo://app?vid=869fc1e6-58d8-4942-b994-e668b7cc85e1","ios":"levelo://app?vid=869fc1e6-58d8-4942-b994-e668b7cc85e1"},"vehicle_type_id":"4","last_reported":1735474497,"current_range_meters":38800,"station_id":"ce4bhu92rcd13ifvqi70","pricing_plan_id":"cebpf4jnsgd1na2vs0mg"},{"bike_id":"54b574ae-5ef4-4c88-9677-f7f426f7a7cc","system_id":"levelo_inurba_marseille","lat":43.29223,"lon":5.36067,"is_reserved":false,"is_disabled":false,"rental_uris":{"android":"levelo://app?vid=54b574ae-5ef4-4c88-9677-f7f426f7a7cc","ios":"levelo://app?vid=54b574ae-5ef4-4c88-9677-f7f426f7a7cc"},"vehicle_type_id":"4","last_reported":1735474497,"current_range_meters":38000,"station_id":"ce4bhbh2rcd13ifvqeqg","pricing_plan_id":"cebpf4jnsgd1na2vs0mg"},{"bike_id":"139ba5af-cd52-4f53-9b4f-5ca42e118791","system_id":"levelo_inurba_marseille","lat":43.30589,"lon":5.37233,"is_reserved":false,"is_disabled":false,"rental_uris":{"android":"levelo://app?vid=139ba5af-cd52-4f53-9b4f-5ca42e118791","ios":"levelo://app?vid=139ba5af-cd52-4f53-9b4f-5ca42e118791"},"vehicle_type_id":"4","last_reported":1735474497,"current_range_meters":38800,"station_id":"ce4bgqh2rcd13ifvqc4g","pricing_plan_id":"cebpf4jnsgd1na2vs0mg"},{"bike_id":"f6a398ba-af8e-4fe3-a6c0-f28cb0077f88","system_id":"levelo_inurba_marseille","lat":43.28147,"lon":5.42661,"is_reserved":false,"is_disabled":false,"rental_uris":{"android":"levelo://app?vid=f6a398ba-af8e-4fe3-a6c0-f28cb0077f88","ios":"levelo://app?vid=f6a398ba-af8e-4fe3-a6c0-f28cb0077f88"},"vehicle_type_id":"4","last_reported":1735474497,"current_range_meters":21600,"station_id":"ce4bhnh2rcd13ifvqgug","pricing_plan_id":"cebpf4jnsgd1na2vs0mg"},{"bike_id":"0bcec2f5-0203-436b-a80c-c30c50ac99f3","system_id":"levelo_inurba_marseille","lat":43.25869,"lon":5.39912,"is_reserved":false,"is_disabled":false,"rental_uris":{"android":"levelo://app?vid=0bcec2f5-0203-436b-a80c-c30c50ac99f3","ios":"levelo://app?vid=0bcec2f5-0203-436b-a80c-c30c50ac99f3"},"vehicle_type_id":"4","last_reported":1735474497,"current_range_meters":38000,"station_id":"ce4bhl92rcd13ifvqghg","pricing_plan_id":"cebpf4jnsgd1na2vs0mg"},{"bike_id":"7bd44d09-e872-4291-b548-1cbe40f16cac","system_id":"levelo_inurba_marseille","lat":43.28164,"lon":5.42632,"is_reserved":false,"is_disabled":false,"rental_uris":{"android":"levelo://app?vid=7bd44d09-e872-4291-b548-1cbe40f16cac","ios":"levelo://app?vid=7bd44d09-e872-4291-b548-1cbe40f16cac"},"vehicle_type_id":"4","last_reported":1735474497,"current_range_meters":24800,"station_id":"ce4bhnh2rcd13ifvqgug","pricing_plan_id":"cebpf4jnsgd1na2vs0mg"},{"bike_id":"d648ed32-95e8-4506-9861-c5c50b60ec2c","system_id":"levelo_inurba_marseille","lat":43.3108,"lon":5.42429,"is_reserved":false,"is_disabled":false,"rental_uris":{"android":"levelo://app?vid=d648ed32-95e8-4506-9861-c5c50b60ec2c","ios":"levelo://app?vid=d648ed32-95e8-4506-9861-c5c50b60ec2c"},"vehicle_type_id":"4","last_reported":1735474497,"current_range_meters":32800,"station_id":"ce4bhp92rcd13ifvqhag","pricing_plan_id":"cebpf4jnsgd1na2vs0mg"},{"bike_id":"d124b3fa-f3a5-4c6d-bebc-2f7ad1a1004e","system_id":"levelo_inurba_marseille","lat":43.26945,"lon":5.38646,"is_reserved":false,"is_disabled":false,"rental_uris":{"android":"levelo://app?vid=d124b3fa-f3a5-4c6d-bebc-2f7ad1a1004e","ios":"levelo://app?vid=d124b3fa-f3a5-4c6d-bebc-2f7ad1a1004e"},"vehicle_type_id":"4","last_reported":1735474497,"current_range_meters":38800,"station_id":"ce4bhh92rcd13ifvqfh0","pricing_plan_id":"cebpf4jnsgd1na2vs0mg"},{"bike_id":"6af912ad-1f52-41b9-b582-7a44c161a5c5","system_id":"levelo_inurba_marseille","lat":43.29031,"lon":5.37565,"is_reserved":false,"is_disabled":false,"rental_uris":{"android":"levelo://app?vid=6af912ad-1f52-41b9-b582-7a44c161a5c5","ios":"levelo://app?vid=6af912ad-1f52-41b9-b582-7a44c161a5c5"},"vehicle_type_id":"4","last_reported":1735474497,"current_range_meters":6000,"station_id":"ce4bh692rcd13ifvqe90","pricing_plan_id":"cebpf4jnsgd1na2vs0mg"},{"bike_id":"2b99ea0b-95a4-4d80-b75c-af1f2e5707ad","system_id":"levelo_inurba_marseille","lat":43.29584,"lon":5.36739,"is_reserved":false,"is_disabled":false,"rental_uris":{"android":"levelo://app?vid=2b99ea0b-95a4-4d80-b75c-af1f2e5707ad","ios":"levelo://app?vid=2b99ea0b-95a4-4d80-b75c-af1f2e5707ad"},"vehicle_type_id":"4","last_reported":1735474497,"current_range_meters":39200,"station_id":"ce4bgph2rcd13ifvqc2g","pricing_plan_id":"cebpf4jnsgd1na2vs0mg"},{"bike_id":"84e9960c-5d51-43ec-a5af-2b8f0882416c","system_id":"levelo_inurba_marseille","lat":43.24086,"lon":5.3777,"is_reserved":false,"is_disabled":false,"rental_uris":{"android":"levelo://app?vid=84e9960c-5d51-43ec-a5af-2b8f0882416c","ios":"levelo://app?vid=84e9960c-5d51-43ec-a5af-2b8f0882416c"},"vehicle_type_id":"4","last_reported":1735474497,"current_range_meters":27600,"station_id":"ce4bhnp2rcd13ifvqgvg","pricing_plan_id":"cebpf4jnsgd1na2vs0mg"},{"bike_id":"359ddae0-5d3f-4b29-8d32-daa2bb9138da","system_id":"levelo_inurba_marseille","lat":43.29736,"lon":5.37687,"is_reserved":false,"is_disabled":false,"rental_uris":{"android":"levelo://app?vid=359ddae0-5d3f-4b29-8d32-daa2bb9138da","ios":"levelo://app?vid=359ddae0-5d3f-4b29-8d32-daa2bb9138da"},"vehicle_type_id":"4","last_reported":1735474497,"current_range_meters":30000,"station_id":"ce4bgkh2rcd13ifvqbl0","pricing_plan_id":"cebpf4jnsgd1na2vs0mg"},{"bike_id":"1107b56a-98a5-4a01-8449-9eba086fee5a","system_id":"levelo_inurba_marseille","lat":43.29073,"lon":5.39883,"is_reserved":false,"is_disabled":true,"rental_uris":{"android":"levelo://app?vid=1107b56a-98a5-4a01-8449-9eba086fee5a","ios":"levelo://app?vid=1107b56a-98a5-4a01-8449-9eba086fee5a"},"vehicle_type_id":"4","last_reported":1735474497,"current_range_meters":16400,"station_id":"","pricing_plan_id":"cebpf4jnsgd1na2vs0mg"},{"bike_id":"145efe5c-ec17-4657-a9be-65b3b73e2f3d","system_id":"levelo_inurba_marseille","lat":43.29624,"lon":5.37152,"is_reserved":false,"is_disabled":false,"rental_uris":{"android":"levelo://app?vid=145efe5c-ec17-4657-a9be-65b3b73e2f3d","ios":"levelo://app?vid=145efe5c-ec17-4657-a9be-65b3b73e2f3d"},"vehicle_type_id":"4","last_reported":1735474497,"current_range_meters":38800,"station_id":"ce4bgnh2rcd13ifvqc0g","pricing_plan_id":"cebpf4jnsgd1na2vs0mg"},{"bike_id":"f98f86cd-bd12-4a77-a017-bbfdfb0a17cc","system_id":"levelo_inurba_marseille","lat":43.26493,"lon":5.39553,"is_reserved":false,"is_disabled":false,"rental_uris":{"android":"levelo://app?vid=f98f86cd-bd12-4a77-a017-bbfdfb0a17cc","ios":"levelo://app?vid=f98f86cd-bd12-4a77-a017-bbfdfb0a17cc"},"vehicle_type_id":"4","last_reported":1735474497,"current_range_meters":37600,"station_id":"ce4bhi12rcd13ifvqfq0","pricing_plan_id":"cebpf4jnsgd1na2vs0mg"},{"bike_id":"c9b97fb7-b709-4c26-ae01-dabf637bc152","system_id":"levelo_inurba_marseille","lat":43.27813,"lon":5.40728,"is_reserved":false,"is_disabled":false,"rental_uris":{"android":"levelo://app?vid=c9b97fb7-b709-4c26-ae01-dabf637bc152","ios":"levelo://app?vid=c9b97fb7-b709-4c26-ae01-dabf637bc152"},"vehicle_type_id":"4","last_reported":1735474497,"current_range_meters":24400,"station_id":"ce4bhnh2rcd13ifvqgtg","pricing_plan_id":"cebpf4jnsgd1na2vs0mg"},{"bike_id":"8d5af813-b00e-4aed-8d13-e6a45a692526","system_id":"levelo_inurba_marseille","lat":43.24803,"lon":5.37466,"is_reserved":false,"is_disabled":false,"rental_uris":{"android":"levelo://app?vid=8d5af813-b00e-4aed-8d13-e6a45a692526","ios":"levelo://app?vid=8d5af813-b00e-4aed-8d13-e6a45a692526"},"vehicle_type_id":"4","last_reported":1735474497,"current_range_meters":26800,"station_id":"ce4bhgh2rcd13ifvqfb0","pricing_plan_id":"cebpf4jnsgd1na2vs0mg"},{"bike_id":"8c265605-84f9-4d39-92bd-998a7850a564","system_id":"levelo_inurba_marseille","lat":43.23059,"lon":5.35491,"is_reserved":false,"is_disabled":false,"rental_uris":{"android":"levelo://app?vid=8c265605-84f9-4d39-92bd-998a7850a564","ios":"levelo://app?vid=8c265605-84f9-4d39-92bd-998a7850a564"},"vehicle_type_id":"4","last_reported":1735474497,"current_range_meters":18000,"station_id":"cpo3342slgdg3j2ifvpg","pricing_plan_id":"cebpf4jnsgd1na2vs0mg"},{"bike_id":"8a613f5a-5979-4022-a092-2888a966fd1d","system_id":"levelo_inurba_marseille","lat":43.30593,"lon":5.37242,"is_reserved":false,"is_disabled":false,"rental_uris":{"android":"levelo://app?vid=8a613f5a-5979-4022-a092-2888a966fd1d","ios":"levelo://app?vid=8a613f5a-5979-4022-a092-2888a966fd1d"},"vehicle_type_id":"4","last_reported":1735474497,"current_range_meters":39200,"station_id":"ce4bgqh2rcd13ifvqc4g","pricing_plan_id":"cebpf4jnsgd1na2vs0mg"},{"bike_id":"ed49c6a3-5e64-485a-beb0-24d7970e5e6b","system_id":"levelo_inurba_marseille","lat":43.26495,"lon":5.39548,"is_reserved":false,"is_disabled":false,"rental_uris":{"android":"levelo://app?vid=ed49c6a3-5e64-485a-beb0-24d7970e5e6b","ios":"levelo://app?vid=ed49c6a3-5e64-485a-beb0-24d7970e5e6b"},"vehicle_type_id":"4","last_reported":1735474497,"current_range_meters":39200,"station_id":"ce4bhi12rcd13ifvqfq0","pricing_plan_id":"cebpf4jnsgd1na2vs0mg"},{"bike_id":"7a8d39fc-f385-4cc2-bc46-a909e71408e4","system_id":"levelo_inurba_marseille","lat":43.30154,"lon":5.38095,"is_reserved":false,"is_disabled":false,"rental_uris":{"android":"levelo://app?vid=7a8d39fc-f385-4cc2-bc46-a909e71408e4","ios":"levelo://app?vid=7a8d39fc-f385-4cc2-bc46-a909e71408e4"},"vehicle_type_id":"4","last_reported":1735474497,"current_range_meters":16800,"station_id":"ce4bgjp2rcd13ifvqbh0","pricing_plan_id":"cebpf4jnsgd1na2vs0mg"},{"bike_id":"fd9dccc3-920a-4f08-931a-e49fee0b5433","system_id":"levelo_inurba_marseille","lat":43.29257,"lon":5.40915,"is_reserved":false,"is_disabled":false,"rental_uris":{"android":"levelo://app?vid=fd9dccc3-920a-4f08-931a-e49fee0b5433","ios":"levelo://app?vid=fd9dccc3-920a-4f08-931a-e49fee0b5433"},"vehicle_type_id":"4","last_reported":1735474497,"current_range_meters":38800,"station_id":"ce4bh192rcd13ifvqdc0","pricing_plan_id":"cebpf4jnsgd1na2vs0mg"},{"bike_id":"e56a5aaf-50c3-4775-a06f-8f7c009f81a1","system_id":"levelo_inurba_marseille","lat":43.28663,"lon":5.36344,"is_reserved":false,"is_disabled":false,"rental_uris":{"android":"levelo://app?vid=e56a5aaf-50c3-4775-a06f-8f7c009f81a1","ios":"levelo://app?vid=e56a5aaf-50c3-4775-a06f-8f7c009f81a1"},"vehicle_type_id":"4","last_reported":1735474497,"current_range_meters":25200,"station_id":"ce4bhah2rcd13ifvqej0","pricing_plan_id":"cebpf4jnsgd1na2vs0mg"},{"bike_id":"41e441a8-4ad2-4bf0-81ba-96c35feaf6d8","system_id":"levelo_inurba_marseille","lat":43.28154,"lon":5.42651,"is_reserved":false,"is_disabled":false,"rental_uris":{"android":"levelo://app?vid=41e441a8-4ad2-4bf0-81ba-96c35feaf6d8","ios":"levelo://app?vid=41e441a8-4ad2-4bf0-81ba-96c35feaf6d8"},"vehicle_type_id":"4","last_reported":1735474497,"current_range_meters":28800,"station_id":"ce4bhnh2rcd13ifvqgug","pricing_plan_id":"cebpf4jnsgd1na2vs0mg"},{"bike_id":"091cdfd1-6541-495c-bf3b-265bdbfb9fbf","system_id":"levelo_inurba_marseille","lat":43.22933,"lon":5.35384,"is_reserved":false,"is_disabled":false,"rental_uris":{"android":"levelo://app?vid=091cdfd1-6541-495c-bf3b-265bdbfb9fbf","ios":"levelo://app?vid=091cdfd1-6541-495c-bf3b-265bdbfb9fbf"},"vehicle_type_id":"4","last_reported":1735474497,"current_range_meters":38800,"station_id":"cpo3532slgdg3j2ikp40","pricing_plan_id":"cebpf4jnsgd1na2vs0mg"},{"bike_id":"0cfa0846-db27-4c5a-b233-3bf9fb29600a","system_id":"levelo_inurba_marseille","lat":43.24804,"lon":5.37459,"is_reserved":false,"is_disabled":false,"rental_uris":{"android":"levelo://app?vid=0cfa0846-db27-4c5a-b233-3bf9fb29600a","ios":"levelo://app?vid=0cfa0846-db27-4c5a-b233-3bf9fb29600a"},"vehicle_type_id":"4","last_reported":1735474497,"current_range_meters":34800,"station_id":"ce4bhgh2rcd13ifvqfb0","pricing_plan_id":"cebpf4jnsgd1na2vs0mg"},{"bike_id":"b0d45b52-6895-4f7d-b544-51d0d9d0ee35","system_id":"levelo_inurba_marseille","lat":43.30548,"lon":5.36714,"is_reserved":false,"is_disabled":true,"rental_uris":{"android":"levelo://app?vid=b0d45b52-6895-4f7d-b544-51d0d9d0ee35","ios":"levelo://app?vid=b0d45b52-6895-4f7d-b544-51d0d9d0ee35"},"vehicle_type_id":"4","last_reported":1735474497,"current_range_meters":0,"station_id":"ce4bgrp2rcd13ifvqc9g","pricing_plan_id":"cebpf4jnsgd1na2vs0mg"},{"bike_id":"9cbeea91-6305-4ee1-ad7f-82772e35ad52","system_id":"levelo_inurba_marseille","lat":43.285657,"lon":5.402352,"is_reserved":false,"is_disabled":false,"rental_uris":{"android":"levelo://app?vid=9cbeea91-6305-4ee1-ad7f-82772e35ad52","ios":"levelo://app?vid=9cbeea91-6305-4ee1-ad7f-82772e35ad52"},"vehicle_type_id":"4","last_reported":1735474497,"current_range_meters":27200,"station_id":"","pricing_plan_id":"cebpf4jnsgd1na2vs0mg"},{"bike_id":"5639f52b-1196-4558-b062-4f7891cec443","system_id":"levelo_inurba_marseille","lat":43.28408,"lon":5.375185,"is_reserved":false,"is_disabled":true,"rental_uris":{"android":"levelo://app?vid=5639f52b-1196-4558-b062-4f7891cec443","ios":"levelo://app?vid=5639f52b-1196-4558-b062-4f7891cec443"},"vehicle_type_id":"4","last_reported":1735474497,"current_range_meters":25600,"station_id":"ce4bh412rcd13ifvqds0","pricing_plan_id":"cebpf4jnsgd1na2vs0mg"},{"bike_id":"1727a0bf-5c41-4aa7-be74-58dfcc6e8f12","system_id":"levelo_inurba_marseille","lat":43.31497,"lon":5.37319,"is_reserved":false,"is_disabled":false,"rental_uris":{"android":"levelo://app?vid=1727a0bf-5c41-4aa7-be74-58dfcc6e8f12","ios":"levelo://app?vid=1727a0bf-5c41-4aa7-be74-58dfcc6e8f12"},"vehicle_type_id":"4","last_reported":1735474497,"current_range_meters":38800,"station_id":"ce4bgt12rcd13ifvqcd0","pricing_plan_id":"cebpf4jnsgd1na2vs0mg"},{"bike_id":"c4464463-92cc-48b8-b950-7ed437f91335","system_id":"levelo_inurba_marseille","lat":43.29218,"lon":5.3605,"is_reserved":false,"is_disabled":false,"rental_uris":{"android":"levelo://app?vid=c4464463-92cc-48b8-b950-7ed437f91335","ios":"levelo://app?vid=c4464463-92cc-48b8-b950-7ed437f91335"},"vehicle_type_id":"4","last_reported":1735474497,"current_range_meters":35200,"station_id":"ce4bhbh2rcd13ifvqeqg","pricing_plan_id":"cebpf4jnsgd1na2vs0mg"},{"bike_id":"5573d228-47c9-4b5c-85ff-3a9d24c44c69","system_id":"levelo_inurba_marseille","lat":43.28608,"lon":5.35107,"is_reserved":false,"is_disabled":false,"rental_uris":{"android":"levelo://app?vid=5573d228-47c9-4b5c-85ff-3a9d24c44c69","ios":"levelo://app?vid=5573d228-47c9-4b5c-85ff-3a9d24c44c69"},"vehicle_type_id":"4","last_reported":1735474497,"current_range_meters":22400,"station_id":"ce4bhch2rcd13ifvqeug","pricing_plan_id":"cebpf4jnsgd1na2vs0mg"},{"bike_id":"b561c8dd-38e0-48e4-a326-a9f947862345","system_id":"levelo_inurba_marseille","lat":43.25723,"lon":5.41113,"is_reserved":false,"is_disabled":false,"rental_uris":{"android":"levelo://app?vid=b561c8dd-38e0-48e4-a326-a9f947862345","ios":"levelo://app?vid=b561c8dd-38e0-48e4-a326-a9f947862345"},"vehicle_type_id":"4","last_reported":1735474497,"current_range_meters":38800,"station_id":"ce4bhkp2rcd13ifvqgd0","pricing_plan_id":"cebpf4jnsgd1na2vs0mg"},{"bike_id":"356fd92d-e963-40e6-b40e-58fc72ac9553","system_id":"levelo_inurba_marseille","lat":43.32104,"lon":5.36778,"is_reserved":false,"is_disabled":false,"rental_uris":{"android":"levelo://app?vid=356fd92d-e963-40e6-b40e-58fc72ac9553","ios":"levelo://app?vid=356fd92d-e963-40e6-b40e-58fc72ac9553"},"vehicle_type_id":"4","last_reported":1735474497,"current_range_meters":37600,"station_id":"ce4bhrh2rcd13ifvqhug","pricing_plan_id":"cebpf4jnsgd1na2vs0mg"},{"bike_id":"12b64bf2-4ce1-4146-af5b-eb3b72f8d5ae","system_id":"levelo_inurba_marseille","lat":43.25727,"lon":5.41112,"is_reserved":false,"is_disabled":false,"rental_uris":{"android":"levelo://app?vid=12b64bf2-4ce1-4146-af5b-eb3b72f8d5ae","ios":"levelo://app?vid=12b64bf2-4ce1-4146-af5b-eb3b72f8d5ae"},"vehicle_type_id":"4","last_reported":1735474497,"current_range_meters":38800,"station_id":"ce4bhkp2rcd13ifvqgd0","pricing_plan_id":"cebpf4jnsgd1na2vs0mg"},{"bike_id":"9770401d-5463-4881-9ebc-62b5a357bb46","system_id":"levelo_inurba_marseille","lat":43.27618,"lon":5.36117,"is_reserved":false,"is_disabled":false,"rental_uris":{"android":"levelo://app?vid=9770401d-5463-4881-9ebc-62b5a357bb46","ios":"levelo://app?vid=9770401d-5463-4881-9ebc-62b5a357bb46"},"vehicle_type_id":"4","last_reported":1735474497,"current_range_meters":19600,"station_id":"ce4bgj92rcd13ifvqbe0","pricing_plan_id":"cebpf4jnsgd1na2vs0mg"},{"bike_id":"a0a23f3e-a7a3-4649-a9f6-4d7c21f4f9e5","system_id":"levelo_inurba_marseille","lat":43.29694,"lon":5.37282,"is_reserved":false,"is_disabled":false,"rental_uris":{"android":"levelo://app?vid=a0a23f3e-a7a3-4649-a9f6-4d7c21f4f9e5","ios":"levelo://app?vid=a0a23f3e-a7a3-4649-a9f6-4d7c21f4f9e5"},"vehicle_type_id":"4","last_reported":1735474497,"current_range_meters":38800,"station_id":"ce4bgk12rcd13ifvqbj0","pricing_plan_id":"cebpf4jnsgd1na2vs0mg"},{"bike_id":"4ff07c24-5f71-48e2-ae35-b8ed4c8088e4","system_id":"levelo_inurba_marseille","lat":43.29228,"lon":5.36077,"is_reserved":false,"is_disabled":false,"rental_uris":{"android":"levelo://app?vid=4ff07c24-5f71-48e2-ae35-b8ed4c8088e4","ios":"levelo://app?vid=4ff07c24-5f71-48e2-ae35-b8ed4c8088e4"},"vehicle_type_id":"4","last_reported":1735474497,"current_range_meters":32000,"station_id":"ce4bhbh2rcd13ifvqeqg","pricing_plan_id":"cebpf4jnsgd1na2vs0mg"},{"bike_id":"7e1dc608-a820-41f3-8381-31f3794c2504","system_id":"levelo_inurba_marseille","lat":43.27988,"lon":5.41669,"is_reserved":false,"is_disabled":false,"rental_uris":{"android":"levelo://app?vid=7e1dc608-a820-41f3-8381-31f3794c2504","ios":"levelo://app?vid=7e1dc608-a820-41f3-8381-31f3794c2504"},"vehicle_type_id":"4","last_reported":1735474497,"current_range_meters":37600,"station_id":"ce4bho12rcd13ifvqh1g","pricing_plan_id":"cebpf4jnsgd1na2vs0mg"},{"bike_id":"a7322e7d-fa1c-435c-b4da-98cb797fb06e","system_id":"levelo_inurba_marseille","lat":43.30573,"lon":5.3723,"is_reserved":false,"is_disabled":false,"rental_uris":{"android":"levelo://app?vid=a7322e7d-fa1c-435c-b4da-98cb797fb06e","ios":"levelo://app?vid=a7322e7d-fa1c-435c-b4da-98cb797fb06e"},"vehicle_type_id":"4","last_reported":1735474497,"current_range_meters":39200,"station_id":"ce4bgqh2rcd13ifvqc4g","pricing_plan_id":"cebpf4jnsgd1na2vs0mg"},{"bike_id":"673ed0fe-3027-4e1f-9efc-2804b0e32190","system_id":"levelo_inurba_marseille","lat":43.2669,"lon":5.3827,"is_reserved":false,"is_disabled":false,"rental_uris":{"android":"levelo://app?vid=673ed0fe-3027-4e1f-9efc-2804b0e32190","ios":"levelo://app?vid=673ed0fe-3027-4e1f-9efc-2804b0e32190"},"vehicle_type_id":"4","last_reported":1735474497,"current_range_meters":8000,"station_id":"ce4bhg92rcd13ifvqf90","pricing_plan_id":"cebpf4jnsgd1na2vs0mg"},{"bike_id":"c2b38636-82b3-4c3a-88d2-48449d43e7b0","system_id":"levelo_inurba_marseille","lat":43.30541,"lon":5.38423,"is_reserved":false,"is_disabled":false,"rental_uris":{"android":"levelo://app?vid=c2b38636-82b3-4c3a-88d2-48449d43e7b0","ios":"levelo://app?vid=c2b38636-82b3-4c3a-88d2-48449d43e7b0"},"vehicle_type_id":"4","last_reported":1735474497,"current_range_meters":38400,"station_id":"ce4bgg92rcd13ifvqb30","pricing_plan_id":"cebpf4jnsgd1na2vs0mg"},{"bike_id":"839d9add-f6be-4f14-b54d-e253e7d94bc5","system_id":"levelo_inurba_marseille","lat":43.31127,"lon":5.37766,"is_reserved":false,"is_disabled":false,"rental_uris":{"android":"levelo://app?vid=839d9add-f6be-4f14-b54d-e253e7d94bc5","ios":"levelo://app?vid=839d9add-f6be-4f14-b54d-e253e7d94bc5"},"vehicle_type_id":"4","last_reported":1735474497,"current_range_meters":34000,"station_id":"ce4bgt92rcd13ifvqcg0","pricing_plan_id":"cebpf4jnsgd1na2vs0mg"},{"bike_id":"17281b94-d9ee-4de2-b86b-bf8a41fceb2b","system_id":"levelo_inurba_marseille","lat":43.24999,"lon":5.38916,"is_reserved":false,"is_disabled":false,"rental_uris":{"android":"levelo://app?vid=17281b94-d9ee-4de2-b86b-bf8a41fceb2b","ios":"levelo://app?vid=17281b94-d9ee-4de2-b86b-bf8a41fceb2b"},"vehicle_type_id":"4","last_reported":1735474497,"current_range_meters":21600,"station_id":"ce4bhgp2rcd13ifvqfd0","pricing_plan_id":"cebpf4jnsgd1na2vs0mg"},{"bike_id":"e70ce8bb-674e-436b-ab6d-79ca756c291a","system_id":"levelo_inurba_marseille","lat":43.25727,"lon":5.41113,"is_reserved":false,"is_disabled":false,"rental_uris":{"android":"levelo://app?vid=e70ce8bb-674e-436b-ab6d-79ca756c291a","ios":"levelo://app?vid=e70ce8bb-674e-436b-ab6d-79ca756c291a"},"vehicle_type_id":"4","last_reported":1735474497,"current_range_meters":32000,"station_id":"ce4bhkp2rcd13ifvqgd0","pricing_plan_id":"cebpf4jnsgd1na2vs0mg"},{"bike_id":"c8d1c33c-78e9-42be-a881-5b72ffd6d815","system_id":"levelo_inurba_marseille","lat":43.299103,"lon":5.374696,"is_reserved":false,"is_disabled":false,"rental_uris":{"android":"levelo://app?vid=c8d1c33c-78e9-42be-a881-5b72ffd6d815","ios":"levelo://app?vid=c8d1c33c-78e9-42be-a881-5b72ffd6d815"},"vehicle_type_id":"4","last_reported":1735474497,"current_range_meters":38800,"station_id":"ce4bgjh2rcd13ifvqbg0","pricing_plan_id":"cebpf4jnsgd1na2vs0mg"},{"bike_id":"c3281149-e4d3-4072-88ff-8dd28a808ac8","system_id":"levelo_inurba_marseille","lat":43.309096,"lon":5.374682,"is_reserved":false,"is_disabled":false,"rental_uris":{"android":"levelo://app?vid=c3281149-e4d3-4072-88ff-8dd28a808ac8","ios":"levelo://app?vid=c3281149-e4d3-4072-88ff-8dd28a808ac8"},"vehicle_type_id":"4","last_reported":1735474497,"current_range_meters":33600,"station_id":"","pricing_plan_id":"cebpf4jnsgd1na2vs0mg"},{"bike_id":"182697cb-2219-4e08-8291-846687f91a97","system_id":"levelo_inurba_marseille","lat":43.28154,"lon":5.42644,"is_reserved":false,"is_disabled":false,"rental_uris":{"android":"levelo://app?vid=182697cb-2219-4e08-8291-846687f91a97","ios":"levelo://app?vid=182697cb-2219-4e08-8291-846687f91a97"},"vehicle_type_id":"4","last_reported":1735474497,"current_range_meters":36800,"station_id":"ce4bhnh2rcd13ifvqgug","pricing_plan_id":"cebpf4jnsgd1na2vs0mg"},{"bike_id":"f119d51a-5c20-447e-8a4a-b026c7a23c3c","system_id":"levelo_inurba_marseille","lat":43.29089,"lon":5.37121,"is_reserved":false,"is_disabled":false,"rental_uris":{"android":"levelo://app?vid=f119d51a-5c20-447e-8a4a-b026c7a23c3c","ios":"levelo://app?vid=f119d51a-5c20-447e-8a4a-b026c7a23c3c"},"vehicle_type_id":"4","last_reported":1735474497,"current_range_meters":18000,"station_id":"ce4bh5p2rcd13ifvqe4g","pricing_plan_id":"cebpf4jnsgd1na2vs0mg"},{"bike_id":"35142cb1-da84-4465-a902-1b70f5829b31","system_id":"levelo_inurba_marseille","lat":43.25727,"lon":5.41112,"is_reserved":false,"is_disabled":false,"rental_uris":{"android":"levelo://app?vid=35142cb1-da84-4465-a902-1b70f5829b31","ios":"levelo://app?vid=35142cb1-da84-4465-a902-1b70f5829b31"},"vehicle_type_id":"4","last_reported":1735474497,"current_range_meters":37600,"station_id":"ce4bhkp2rcd13ifvqgd0","pricing_plan_id":"cebpf4jnsgd1na2vs0mg"},{"bike_id":"84e4073a-d8bb-4ef1-89f6-95c8b39d48ee","system_id":"levelo_inurba_marseille","lat":43.24074,"lon":5.37761,"is_reserved":false,"is_disabled":false,"rental_uris":{"android":"levelo://app?vid=84e4073a-d8bb-4ef1-89f6-95c8b39d48ee","ios":"levelo://app?vid=84e4073a-d8bb-4ef1-89f6-95c8b39d48ee"},"vehicle_type_id":"4","last_reported":1735474497,"current_range_meters":30400,"station_id":"ce4bhnp2rcd13ifvqgvg","pricing_plan_id":"cebpf4jnsgd1na2vs0mg"},{"bike_id":"df0eb88d-fd2c-4e51-b29b-0b4e96cdb399","system_id":"levelo_inurba_marseille","lat":43.2815,"lon":5.42637,"is_reserved":false,"is_disabled":false,"rental_uris":{"android":"levelo://app?vid=df0eb88d-fd2c-4e51-b29b-0b4e96cdb399","ios":"levelo://app?vid=df0eb88d-fd2c-4e51-b29b-0b4e96cdb399"},"vehicle_type_id":"4","last_reported":1735474497,"current_range_meters":32400,"station_id":"ce4bhnh2rcd13ifvqgug","pricing_plan_id":"cebpf4jnsgd1na2vs0mg"},{"bike_id":"f32cca47-ddd8-4ccd-b197-1c4f0f381420","system_id":"levelo_inurba_marseille","lat":43.29939,"lon":5.37463,"is_reserved":false,"is_disabled":false,"rental_uris":{"android":"levelo://app?vid=f32cca47-ddd8-4ccd-b197-1c4f0f381420","ios":"levelo://app?vid=f32cca47-ddd8-4ccd-b197-1c4f0f381420"},"vehicle_type_id":"4","last_reported":1735474497,"current_range_meters":36000,"station_id":"ce4bgjh2rcd13ifvqbg0","pricing_plan_id":"cebpf4jnsgd1na2vs0mg"},{"bike_id":"34ca6115-eb13-4792-b105-c66a8b20435b","system_id":"levelo_inurba_marseille","lat":43.2781,"lon":5.40718,"is_reserved":false,"is_disabled":false,"rental_uris":{"android":"levelo://app?vid=34ca6115-eb13-4792-b105-c66a8b20435b","ios":"levelo://app?vid=34ca6115-eb13-4792-b105-c66a8b20435b"},"vehicle_type_id":"4","last_reported":1735474497,"current_range_meters":37600,"station_id":"ce4bhnh2rcd13ifvqgtg","pricing_plan_id":"cebpf4jnsgd1na2vs0mg"},{"bike_id":"585de49c-4b3d-4a09-97c5-0ee13dcc1b7c","system_id":"levelo_inurba_marseille","lat":43.29554,"lon":5.42294,"is_reserved":false,"is_disabled":false,"rental_uris":{"android":"levelo://app?vid=585de49c-4b3d-4a09-97c5-0ee13dcc1b7c","ios":"levelo://app?vid=585de49c-4b3d-4a09-97c5-0ee13dcc1b7c"},"vehicle_type_id":"4","last_reported":1735474497,"current_range_meters":12400,"station_id":"ce4bhph2rcd13ifvqhdg","pricing_plan_id":"cebpf4jnsgd1na2vs0mg"},{"bike_id":"800f6e04-ce8a-47f4-854c-107a31ec46b1","system_id":"levelo_inurba_marseille","lat":43.27892,"lon":5.38024,"is_reserved":false,"is_disabled":false,"rental_uris":{"android":"levelo://app?vid=800f6e04-ce8a-47f4-854c-107a31ec46b1","ios":"levelo://app?vid=800f6e04-ce8a-47f4-854c-107a31ec46b1"},"vehicle_type_id":"4","last_reported":1735474497,"current_range_meters":35600,"station_id":"ce4bhf92rcd13ifvqf50","pricing_plan_id":"cebpf4jnsgd1na2vs0mg"},{"bike_id":"309a9554-13e3-4a27-8da4-4d931614d914","system_id":"levelo_inurba_marseille","lat":43.29017,"lon":5.38149,"is_reserved":false,"is_disabled":true,"rental_uris":{"android":"levelo://app?vid=309a9554-13e3-4a27-8da4-4d931614d914","ios":"levelo://app?vid=309a9554-13e3-4a27-8da4-4d931614d914"},"vehicle_type_id":"4","last_reported":1735474497,"current_range_meters":4000,"station_id":"ce4bh4p2rcd13ifvqe1g","pricing_plan_id":"cebpf4jnsgd1na2vs0mg"},{"bike_id":"661db2d5-e28b-4307-b130-bd69e3d3aa66","system_id":"levelo_inurba_marseille","lat":43.28651,"lon":5.36368,"is_reserved":false,"is_disabled":false,"rental_uris":{"android":"levelo://app?vid=661db2d5-e28b-4307-b130-bd69e3d3aa66","ios":"levelo://app?vid=661db2d5-e28b-4307-b130-bd69e3d3aa66"},"vehicle_type_id":"4","last_reported":1735474497,"current_range_meters":38800,"station_id":"ce4bhah2rcd13ifvqej0","pricing_plan_id":"cebpf4jnsgd1na2vs0mg"},{"bike_id":"1107af61-e211-41cf-b98e-f5d9cce08783","system_id":"levelo_inurba_marseille","lat":43.308774,"lon":5.371901,"is_reserved":false,"is_disabled":false,"rental_uris":{"android":"levelo://app?vid=1107af61-e211-41cf-b98e-f5d9cce08783","ios":"levelo://app?vid=1107af61-e211-41cf-b98e-f5d9cce08783"},"vehicle_type_id":"4","last_reported":1735474497,"current_range_meters":28800,"station_id":"ce4bguh2rcd13ifvqckg","pricing_plan_id":"cebpf4jnsgd1na2vs0mg"},{"bike_id":"2598d78b-c5cd-4ad1-8306-8c58913fa9c2","system_id":"levelo_inurba_marseille","lat":43.26535,"lon":5.42262,"is_reserved":false,"is_disabled":false,"rental_uris":{"android":"levelo://app?vid=2598d78b-c5cd-4ad1-8306-8c58913fa9c2","ios":"levelo://app?vid=2598d78b-c5cd-4ad1-8306-8c58913fa9c2"},"vehicle_type_id":"4","last_reported":1735474497,"current_range_meters":30000,"station_id":"","pricing_plan_id":"cebpf4jnsgd1na2vs0mg"},{"bike_id":"2d76d9f4-5ac3-420c-b7d3-8710df44025b","system_id":"levelo_inurba_marseille","lat":43.29554,"lon":5.42287,"is_reserved":false,"is_disabled":false,"rental_uris":{"android":"levelo://app?vid=2d76d9f4-5ac3-420c-b7d3-8710df44025b","ios":"levelo://app?vid=2d76d9f4-5ac3-420c-b7d3-8710df44025b"},"vehicle_type_id":"4","last_reported":1735474497,"current_range_meters":9600,"station_id":"ce4bhph2rcd13ifvqhdg","pricing_plan_id":"cebpf4jnsgd1na2vs0mg"},{"bike_id":"5477d212-35e2-4622-b27a-bfe5ff434d03","system_id":"levelo_inurba_marseille","lat":43.337603,"lon":5.374424,"is_reserved":false,"is_disabled":false,"rental_uris":{"android":"levelo://app?vid=5477d212-35e2-4622-b27a-bfe5ff434d03","ios":"levelo://app?vid=5477d212-35e2-4622-b27a-bfe5ff434d03"},"vehicle_type_id":"4","last_reported":1735474497,"current_range_meters":20800,"station_id":"","pricing_plan_id":"cebpf4jnsgd1na2vs0mg"},{"bike_id":"ae8c5d73-c32e-4966-86fa-fa7824db4018","system_id":"levelo_inurba_marseille","lat":43.29526,"lon":5.37544,"is_reserved":false,"is_disabled":false,"rental_uris":{"android":"levelo://app?vid=ae8c5d73-c32e-4966-86fa-fa7824db4018","ios":"levelo://app?vid=ae8c5d73-c32e-4966-86fa-fa7824db4018"},"vehicle_type_id":"4","last_reported":1735474497,"current_range_meters":26000,"station_id":"ce4bgkp2rcd13ifvqbmg","pricing_plan_id":"cebpf4jnsgd1na2vs0mg"},{"bike_id":"ee8cf5f1-3afc-4c7b-8ed3-ddb81b6ed983","system_id":"levelo_inurba_marseille","lat":43.29936,"lon":5.36552,"is_reserved":false,"is_disabled":false,"rental_uris":{"android":"levelo://app?vid=ee8cf5f1-3afc-4c7b-8ed3-ddb81b6ed983","ios":"levelo://app?vid=ee8cf5f1-3afc-4c7b-8ed3-ddb81b6ed983"},"vehicle_type_id":"4","last_reported":1735474497,"current_range_meters":38800,"station_id":"ce4bgm92rcd13ifvqbr0","pricing_plan_id":"cebpf4jnsgd1na2vs0mg"},{"bike_id":"7aab2ffc-cec0-4dd6-981d-6bd7c8cbfd0b","system_id":"levelo_inurba_marseille","lat":43.26046,"lon":5.39385,"is_reserved":false,"is_disabled":true,"rental_uris":{"android":"levelo://app?vid=7aab2ffc-cec0-4dd6-981d-6bd7c8cbfd0b","ios":"levelo://app?vid=7aab2ffc-cec0-4dd6-981d-6bd7c8cbfd0b"},"vehicle_type_id":"4","last_reported":1735474497,"current_range_meters":38800,"station_id":"ce4bhh92rcd13ifvqfj0","pricing_plan_id":"cebpf4jnsgd1na2vs0mg"},{"bike_id":"fe941581-6db5-41a8-b522-767d05b59e14","system_id":"levelo_inurba_marseille","lat":43.30605,"lon":5.37225,"is_reserved":false,"is_disabled":false,"rental_uris":{"android":"levelo://app?vid=fe941581-6db5-41a8-b522-767d05b59e14","ios":"levelo://app?vid=fe941581-6db5-41a8-b522-767d05b59e14"},"vehicle_type_id":"4","last_reported":1735474497,"current_range_meters":19600,"station_id":"ce4bgqh2rcd13ifvqc4g","pricing_plan_id":"cebpf4jnsgd1na2vs0mg"},{"bike_id":"b6d4824c-6dae-4a62-9254-1fb16b5135f5","system_id":"levelo_inurba_marseille","lat":43.30473,"lon":5.37908,"is_reserved":false,"is_disabled":false,"rental_uris":{"android":"levelo://app?vid=b6d4824c-6dae-4a62-9254-1fb16b5135f5","ios":"levelo://app?vid=b6d4824c-6dae-4a62-9254-1fb16b5135f5"},"vehicle_type_id":"4","last_reported":1735474497,"current_range_meters":37600,"station_id":"ce4bgup2rcd13ifvqcn0","pricing_plan_id":"cebpf4jnsgd1na2vs0mg"},{"bike_id":"b56176fa-a412-4c63-8350-10c3499a370b","system_id":"levelo_inurba_marseille","lat":43.23192,"lon":5.3556,"is_reserved":false,"is_disabled":false,"rental_uris":{"android":"levelo://app?vid=b56176fa-a412-4c63-8350-10c3499a370b","ios":"levelo://app?vid=b56176fa-a412-4c63-8350-10c3499a370b"},"vehicle_type_id":"4","last_reported":1735474497,"current_range_meters":26800,"station_id":"ce4bhu92rcd13ifvqi70","pricing_plan_id":"cebpf4jnsgd1na2vs0mg"},{"bike_id":"b4cd22d0-64b9-4d59-b9da-35929e23693a","system_id":"levelo_inurba_marseille","lat":43.30553,"lon":5.38434,"is_reserved":false,"is_disabled":false,"rental_uris":{"android":"levelo://app?vid=b4cd22d0-64b9-4d59-b9da-35929e23693a","ios":"levelo://app?vid=b4cd22d0-64b9-4d59-b9da-35929e23693a"},"vehicle_type_id":"4","last_reported":1735474497,"current_range_meters":37600,"station_id":"ce4bgg92rcd13ifvqb30","pricing_plan_id":"cebpf4jnsgd1na2vs0mg"},{"bike_id":"bbe4e711-3e45-461b-b5f6-f6d4e22b6274","system_id":"levelo_inurba_marseille","lat":43.27905,"lon":5.39587,"is_reserved":false,"is_disabled":true,"rental_uris":{"android":"levelo://app?vid=bbe4e711-3e45-461b-b5f6-f6d4e22b6274","ios":"levelo://app?vid=bbe4e711-3e45-461b-b5f6-f6d4e22b6274"},"vehicle_type_id":"4","last_reported":1735474497,"current_range_meters":36000,"station_id":"ce4bhf92rcd13ifvqf40","pricing_plan_id":"cebpf4jnsgd1na2vs0mg"},{"bike_id":"b1c0ee8d-93e8-4cc8-82d6-c539d877336e","system_id":"levelo_inurba_marseille","lat":43.24401,"lon":5.37048,"is_reserved":false,"is_disabled":false,"rental_uris":{"android":"levelo://app?vid=b1c0ee8d-93e8-4cc8-82d6-c539d877336e","ios":"levelo://app?vid=b1c0ee8d-93e8-4cc8-82d6-c539d877336e"},"vehicle_type_id":"4","last_reported":1735474497,"current_range_meters":39200,"station_id":"ce4bhhh2rcd13ifvqfk0","pricing_plan_id":"cebpf4jnsgd1na2vs0mg"},{"bike_id":"b59c2b9b-2b70-4d18-a0f4-0864f501dcb7","system_id":"levelo_inurba_marseille","lat":43.311089,"lon":5.377748,"is_reserved":false,"is_disabled":false,"rental_uris":{"android":"levelo://app?vid=b59c2b9b-2b70-4d18-a0f4-0864f501dcb7","ios":"levelo://app?vid=b59c2b9b-2b70-4d18-a0f4-0864f501dcb7"},"vehicle_type_id":"4","last_reported":1735474497,"current_range_meters":22400,"station_id":"ce4bgt92rcd13ifvqcg0","pricing_plan_id":"cebpf4jnsgd1na2vs0mg"},{"bike_id":"ffee1acd-67fd-46c8-9d8e-d3d42484b023","system_id":"levelo_inurba_marseille","lat":43.28996,"lon":5.35612,"is_reserved":false,"is_disabled":false,"rental_uris":{"android":"levelo://app?vid=ffee1acd-67fd-46c8-9d8e-d3d42484b023","ios":"levelo://app?vid=ffee1acd-67fd-46c8-9d8e-d3d42484b023"},"vehicle_type_id":"4","last_reported":1735474497,"current_range_meters":26800,"station_id":"ce4bhb92rcd13ifvqen0","pricing_plan_id":"cebpf4jnsgd1na2vs0mg"},{"bike_id":"b1c233e5-706f-45e5-9465-ea01d85f3853","system_id":"levelo_inurba_marseille","lat":43.29218,"lon":5.36062,"is_reserved":false,"is_disabled":false,"rental_uris":{"android":"levelo://app?vid=b1c233e5-706f-45e5-9465-ea01d85f3853","ios":"levelo://app?vid=b1c233e5-706f-45e5-9465-ea01d85f3853"},"vehicle_type_id":"4","last_reported":1735474497,"current_range_meters":35200,"station_id":"ce4bhbh2rcd13ifvqeqg","pricing_plan_id":"cebpf4jnsgd1na2vs0mg"},{"bike_id":"dd708212-6c95-4591-b555-43b33b8da7f5","system_id":"levelo_inurba_marseille","lat":43.25715,"lon":5.41088,"is_reserved":false,"is_disabled":false,"rental_uris":{"android":"levelo://app?vid=dd708212-6c95-4591-b555-43b33b8da7f5","ios":"levelo://app?vid=dd708212-6c95-4591-b555-43b33b8da7f5"},"vehicle_type_id":"4","last_reported":1735474497,"current_range_meters":38000,"station_id":"ce4bhkp2rcd13ifvqgd0","pricing_plan_id":"cebpf4jnsgd1na2vs0mg"},{"bike_id":"5e2e67f6-8855-4a1a-a193-10c8e793ffd7","system_id":"levelo_inurba_marseille","lat":43.240816,"lon":5.37768,"is_reserved":false,"is_disabled":false,"rental_uris":{"android":"levelo://app?vid=5e2e67f6-8855-4a1a-a193-10c8e793ffd7","ios":"levelo://app?vid=5e2e67f6-8855-4a1a-a193-10c8e793ffd7"},"vehicle_type_id":"4","last_reported":1735474497,"current_range_meters":38800,"station_id":"ce4bhnp2rcd13ifvqgvg","pricing_plan_id":"cebpf4jnsgd1na2vs0mg"},{"bike_id":"2684cc53-111b-4876-947a-c7160d75aae8","system_id":"levelo_inurba_marseille","lat":43.29424,"lon":5.38623,"is_reserved":false,"is_disabled":false,"rental_uris":{"android":"levelo://app?vid=2684cc53-111b-4876-947a-c7160d75aae8","ios":"levelo://app?vid=2684cc53-111b-4876-947a-c7160d75aae8"},"vehicle_type_id":"4","last_reported":1735474497,"current_range_meters":2800,"station_id":"ce4bh2h2rcd13ifvqdh0","pricing_plan_id":"cebpf4jnsgd1na2vs0mg"},{"bike_id":"ae9b6908-7454-4899-a4fc-b8e9335bda92","system_id":"levelo_inurba_marseille","lat":43.31756,"lon":5.39034,"is_reserved":false,"is_disabled":false,"rental_uris":{"android":"levelo://app?vid=ae9b6908-7454-4899-a4fc-b8e9335bda92","ios":"levelo://app?vid=ae9b6908-7454-4899-a4fc-b8e9335bda92"},"vehicle_type_id":"4","last_reported":1735474497,"current_range_meters":38400,"station_id":"ce4bhqp2rcd13ifvqhng","pricing_plan_id":"cebpf4jnsgd1na2vs0mg"},{"bike_id":"27001726-4b0a-4ba0-8261-5a303bdee373","system_id":"levelo_inurba_marseille","lat":43.27567,"lon":5.38432,"is_reserved":false,"is_disabled":false,"rental_uris":{"android":"levelo://app?vid=27001726-4b0a-4ba0-8261-5a303bdee373","ios":"levelo://app?vid=27001726-4b0a-4ba0-8261-5a303bdee373"},"vehicle_type_id":"4","last_reported":1735474497,"current_range_meters":38800,"station_id":"ce4bhh92rcd13ifvqfi0","pricing_plan_id":"cebpf4jnsgd1na2vs0mg"},{"bike_id":"5f8ee9c5-4e33-43ee-b8aa-ac908ba0aac5","system_id":"levelo_inurba_marseille","lat":43.27488,"lon":5.42456,"is_reserved":false,"is_disabled":false,"rental_uris":{"android":"levelo://app?vid=5f8ee9c5-4e33-43ee-b8aa-ac908ba0aac5","ios":"levelo://app?vid=5f8ee9c5-4e33-43ee-b8aa-ac908ba0aac5"},"vehicle_type_id":"4","last_reported":1735474497,"current_range_meters":25600,"station_id":"ce4bhn92rcd13ifvqgrg","pricing_plan_id":"cebpf4jnsgd1na2vs0mg"},{"bike_id":"f6eaced9-ca89-417f-a01d-b87955fe3119","system_id":"levelo_inurba_marseille","lat":43.28421,"lon":5.34987,"is_reserved":false,"is_disabled":true,"rental_uris":{"android":"levelo://app?vid=f6eaced9-ca89-417f-a01d-b87955fe3119","ios":"levelo://app?vid=f6eaced9-ca89-417f-a01d-b87955fe3119"},"vehicle_type_id":"4","last_reported":1735474497,"current_range_meters":4000,"station_id":"ce4bhbh2rcd13ifvqepg","pricing_plan_id":"cebpf4jnsgd1na2vs0mg"},{"bike_id":"1352858a-a749-4923-98fd-62aa7f0b3279","system_id":"levelo_inurba_marseille","lat":43.28265,"lon":5.35059,"is_reserved":false,"is_disabled":false,"rental_uris":{"android":"levelo://app?vid=1352858a-a749-4923-98fd-62aa7f0b3279","ios":"levelo://app?vid=1352858a-a749-4923-98fd-62aa7f0b3279"},"vehicle_type_id":"4","last_reported":1735474497,"current_range_meters":32400,"station_id":"ce4bhbp2rcd13ifvqerg","pricing_plan_id":"cebpf4jnsgd1na2vs0mg"},{"bike_id":"1560d899-203a-414b-9dd8-6d05efff7eee","system_id":"levelo_inurba_marseille","lat":43.27649,"lon":5.38934,"is_reserved":false,"is_disabled":false,"rental_uris":{"android":"levelo://app?vid=1560d899-203a-414b-9dd8-6d05efff7eee","ios":"levelo://app?vid=1560d899-203a-414b-9dd8-6d05efff7eee"},"vehicle_type_id":"4","last_reported":1735474497,"current_range_meters":6400,"station_id":"ce4bhi12rcd13ifvqfo0","pricing_plan_id":"cebpf4jnsgd1na2vs0mg"},{"bike_id":"c4fd707c-d047-48ec-b77f-f5859c2695cf","system_id":"levelo_inurba_marseille","lat":43.29271,"lon":5.40889,"is_reserved":false,"is_disabled":false,"rental_uris":{"android":"levelo://app?vid=c4fd707c-d047-48ec-b77f-f5859c2695cf","ios":"levelo://app?vid=c4fd707c-d047-48ec-b77f-f5859c2695cf"},"vehicle_type_id":"4","last_reported":1735474497,"current_range_meters":38800,"station_id":"ce4bh192rcd13ifvqdc0","pricing_plan_id":"cebpf4jnsgd1na2vs0mg"},{"bike_id":"cd6ee202-caa6-4f2d-ba6a-d84637b6a878","system_id":"levelo_inurba_marseille","lat":43.292,"lon":5.35803,"is_reserved":false,"is_disabled":false,"rental_uris":{"android":"levelo://app?vid=cd6ee202-caa6-4f2d-ba6a-d84637b6a878","ios":"levelo://app?vid=cd6ee202-caa6-4f2d-ba6a-d84637b6a878"},"vehicle_type_id":"4","last_reported":1735474497,"current_range_meters":33600,"station_id":"ce4bhb12rcd13ifvqel0","pricing_plan_id":"cebpf4jnsgd1na2vs0mg"},{"bike_id":"c9e5d6c6-5601-4769-be5c-20fef93ca121","system_id":"levelo_inurba_marseille","lat":43.24159,"lon":5.36397,"is_reserved":false,"is_disabled":false,"rental_uris":{"android":"levelo://app?vid=c9e5d6c6-5601-4769-be5c-20fef93ca121","ios":"levelo://app?vid=c9e5d6c6-5601-4769-be5c-20fef93ca121"},"vehicle_type_id":"4","last_reported":1735474497,"current_range_meters":12400,"station_id":"cpo36qri1sfpv3e86is0","pricing_plan_id":"cebpf4jnsgd1na2vs0mg"},{"bike_id":"e23a7d55-7ce1-4f20-a71a-26c06c907d82","system_id":"levelo_inurba_marseille","lat":43.27945,"lon":5.41043,"is_reserved":false,"is_disabled":false,"rental_uris":{"android":"levelo://app?vid=e23a7d55-7ce1-4f20-a71a-26c06c907d82","ios":"levelo://app?vid=e23a7d55-7ce1-4f20-a71a-26c06c907d82"},"vehicle_type_id":"4","last_reported":1735474497,"current_range_meters":36800,"station_id":"ce4bhnp2rcd13ifvqh0g","pricing_plan_id":"cebpf4jnsgd1na2vs0mg"},{"bike_id":"b0c4d0d6-5451-4daa-af56-54957229db80","system_id":"levelo_inurba_marseille","lat":43.323643,"lon":5.367564,"is_reserved":false,"is_disabled":false,"rental_uris":{"android":"levelo://app?vid=b0c4d0d6-5451-4daa-af56-54957229db80","ios":"levelo://app?vid=b0c4d0d6-5451-4daa-af56-54957229db80"},"vehicle_type_id":"4","last_reported":1735474497,"current_range_meters":35600,"station_id":"ce4bhsh2rcd13ifvqi2g","pricing_plan_id":"cebpf4jnsgd1na2vs0mg"},{"bike_id":"5367a292-5564-4681-91cd-97babb89fc00","system_id":"levelo_inurba_marseille","lat":43.2292,"lon":5.3539,"is_reserved":false,"is_disabled":false,"rental_uris":{"android":"levelo://app?vid=5367a292-5564-4681-91cd-97babb89fc00","ios":"levelo://app?vid=5367a292-5564-4681-91cd-97babb89fc00"},"vehicle_type_id":"4","last_reported":1735474497,"current_range_meters":36400,"station_id":"cpo3532slgdg3j2ikp40","pricing_plan_id":"cebpf4jnsgd1na2vs0mg"},{"bike_id":"c032b476-131e-414a-b08a-3c2ad0be0a95","system_id":"levelo_inurba_marseille","lat":43.29575,"lon":5.3674,"is_reserved":false,"is_disabled":false,"rental_uris":{"android":"levelo://app?vid=c032b476-131e-414a-b08a-3c2ad0be0a95","ios":"levelo://app?vid=c032b476-131e-414a-b08a-3c2ad0be0a95"},"vehicle_type_id":"4","last_reported":1735474497,"current_range_meters":39200,"station_id":"ce4bgph2rcd13ifvqc2g","pricing_plan_id":"cebpf4jnsgd1na2vs0mg"},{"bike_id":"0697d9ee-5646-4e7d-ae19-7b58cc8a3872","system_id":"levelo_inurba_marseille","lat":43.28152,"lon":5.4264,"is_reserved":false,"is_disabled":false,"rental_uris":{"android":"levelo://app?vid=0697d9ee-5646-4e7d-ae19-7b58cc8a3872","ios":"levelo://app?vid=0697d9ee-5646-4e7d-ae19-7b58cc8a3872"},"vehicle_type_id":"4","last_reported":1735474497,"current_range_meters":36800,"station_id":"ce4bhnh2rcd13ifvqgug","pricing_plan_id":"cebpf4jnsgd1na2vs0mg"},{"bike_id":"d8274614-f8fc-4d32-90df-72343babb865","system_id":"levelo_inurba_marseille","lat":43.24802,"lon":5.37456,"is_reserved":false,"is_disabled":false,"rental_uris":{"android":"levelo://app?vid=d8274614-f8fc-4d32-90df-72343babb865","ios":"levelo://app?vid=d8274614-f8fc-4d32-90df-72343babb865"},"vehicle_type_id":"4","last_reported":1735474497,"current_range_meters":36800,"station_id":"ce4bhgh2rcd13ifvqfb0","pricing_plan_id":"cebpf4jnsgd1na2vs0mg"},{"bike_id":"290de035-1e36-4401-af2c-ae516b173c5d","system_id":"levelo_inurba_marseille","lat":43.29728,"lon":5.37691,"is_reserved":false,"is_disabled":false,"rental_uris":{"android":"levelo://app?vid=290de035-1e36-4401-af2c-ae516b173c5d","ios":"levelo://app?vid=290de035-1e36-4401-af2c-ae516b173c5d"},"vehicle_type_id":"4","last_reported":1735474497,"current_range_meters":34000,"station_id":"ce4bgkh2rcd13ifvqbl0","pricing_plan_id":"cebpf4jnsgd1na2vs0mg"},{"bike_id":"4deb8ba8-63e0-494e-8fa5-729467c13a3d","system_id":"levelo_inurba_marseille","lat":43.29729,"lon":5.37686,"is_reserved":false,"is_disabled":false,"rental_uris":{"android":"levelo://app?vid=4deb8ba8-63e0-494e-8fa5-729467c13a3d","ios":"levelo://app?vid=4deb8ba8-63e0-494e-8fa5-729467c13a3d"},"vehicle_type_id":"4","last_reported":1735474497,"current_range_meters":38800,"station_id":"ce4bgkh2rcd13ifvqbl0","pricing_plan_id":"cebpf4jnsgd1na2vs0mg"},{"bike_id":"b247e7bf-18df-4a02-a468-6ab311a11234","system_id":"levelo_inurba_marseille","lat":43.28479,"lon":5.38403,"is_reserved":false,"is_disabled":false,"rental_uris":{"android":"levelo://app?vid=b247e7bf-18df-4a02-a468-6ab311a11234","ios":"levelo://app?vid=b247e7bf-18df-4a02-a468-6ab311a11234"},"vehicle_type_id":"4","last_reported":1735474497,"current_range_meters":38800,"station_id":"ce4bh512rcd13ifvqe3g","pricing_plan_id":"cebpf4jnsgd1na2vs0mg"},{"bike_id":"e8dd34c9-6e3b-4bd0-a4ea-a3dc8a2f5c17","system_id":"levelo_inurba_marseille","lat":43.31511,"lon":5.37252,"is_reserved":false,"is_disabled":false,"rental_uris":{"android":"levelo://app?vid=e8dd34c9-6e3b-4bd0-a4ea-a3dc8a2f5c17","ios":"levelo://app?vid=e8dd34c9-6e3b-4bd0-a4ea-a3dc8a2f5c17"},"vehicle_type_id":"4","last_reported":1735474497,"current_range_meters":38800,"station_id":"ce4bgt12rcd13ifvqcd0","pricing_plan_id":"cebpf4jnsgd1na2vs0mg"},{"bike_id":"3bb6c0a3-c27d-4867-bf76-4190ca2b375a","system_id":"levelo_inurba_marseille","lat":43.26189,"lon":5.37458,"is_reserved":false,"is_disabled":false,"rental_uris":{"android":"levelo://app?vid=3bb6c0a3-c27d-4867-bf76-4190ca2b375a","ios":"levelo://app?vid=3bb6c0a3-c27d-4867-bf76-4190ca2b375a"},"vehicle_type_id":"4","last_reported":1735474497,"current_range_meters":26000,"station_id":"ce4bhgp2rcd13ifvqfc0","pricing_plan_id":"cebpf4jnsgd1na2vs0mg"},{"bike_id":"364f00a5-74b9-4fd1-aef7-1a7dcb71cf72","system_id":"levelo_inurba_marseille","lat":43.28856,"lon":5.39283,"is_reserved":false,"is_disabled":false,"rental_uris":{"android":"levelo://app?vid=364f00a5-74b9-4fd1-aef7-1a7dcb71cf72","ios":"levelo://app?vid=364f00a5-74b9-4fd1-aef7-1a7dcb71cf72"},"vehicle_type_id":"4","last_reported":1735474497,"current_range_meters":28000,"station_id":"ce4bh2p2rcd13ifvqdi0","pricing_plan_id":"cebpf4jnsgd1na2vs0mg"},{"bike_id":"b912dcc3-5cc2-4a84-8af8-9203c047ffff","system_id":"levelo_inurba_marseille","lat":43.25121,"lon":5.40313,"is_reserved":false,"is_disabled":true,"rental_uris":{"android":"levelo://app?vid=b912dcc3-5cc2-4a84-8af8-9203c047ffff","ios":"levelo://app?vid=b912dcc3-5cc2-4a84-8af8-9203c047ffff"},"vehicle_type_id":"4","last_reported":1735474497,"current_range_meters":2000,"station_id":"ce4bhlh2rcd13ifvqgig","pricing_plan_id":"cebpf4jnsgd1na2vs0mg"},{"bike_id":"7ea8fded-d9c4-4454-8a02-171e0453f582","system_id":"levelo_inurba_marseille","lat":43.28266,"lon":5.35077,"is_reserved":false,"is_disabled":false,"rental_uris":{"android":"levelo://app?vid=7ea8fded-d9c4-4454-8a02-171e0453f582","ios":"levelo://app?vid=7ea8fded-d9c4-4454-8a02-171e0453f582"},"vehicle_type_id":"4","last_reported":1735474497,"current_range_meters":28400,"station_id":"ce4bhbp2rcd13ifvqerg","pricing_plan_id":"cebpf4jnsgd1na2vs0mg"},{"bike_id":"0c5f3383-9c9f-458e-9687-b474733c7b51","system_id":"levelo_inurba_marseille","lat":43.29583,"lon":5.36737,"is_reserved":false,"is_disabled":false,"rental_uris":{"android":"levelo://app?vid=0c5f3383-9c9f-458e-9687-b474733c7b51","ios":"levelo://app?vid=0c5f3383-9c9f-458e-9687-b474733c7b51"},"vehicle_type_id":"4","last_reported":1735474497,"current_range_meters":39200,"station_id":"ce4bgph2rcd13ifvqc2g","pricing_plan_id":"cebpf4jnsgd1na2vs0mg"},{"bike_id":"b8431f89-4bf5-439f-bbba-01646afb3ae5","system_id":"levelo_inurba_marseille","lat":43.29275,"lon":5.38429,"is_reserved":false,"is_disabled":false,"rental_uris":{"android":"levelo://app?vid=b8431f89-4bf5-439f-bbba-01646afb3ae5","ios":"levelo://app?vid=b8431f89-4bf5-439f-bbba-01646afb3ae5"},"vehicle_type_id":"4","last_reported":1735474497,"current_range_meters":25200,"station_id":"ce4bh692rcd13ifvqea0","pricing_plan_id":"cebpf4jnsgd1na2vs0mg"},{"bike_id":"ca471db4-078d-4366-a60c-488b75f21d01","system_id":"levelo_inurba_marseille","lat":43.3151,"lon":5.37317,"is_reserved":false,"is_disabled":false,"rental_uris":{"android":"levelo://app?vid=ca471db4-078d-4366-a60c-488b75f21d01","ios":"levelo://app?vid=ca471db4-078d-4366-a60c-488b75f21d01"},"vehicle_type_id":"4","last_reported":1735474497,"current_range_meters":36400,"station_id":"ce4bgt12rcd13ifvqcd0","pricing_plan_id":"cebpf4jnsgd1na2vs0mg"},{"bike_id":"574ce535-169c-43f7-8a6b-14998257215a","system_id":"levelo_inurba_marseille","lat":43.24181,"lon":5.39739,"is_reserved":false,"is_disabled":false,"rental_uris":{"android":"levelo://app?vid=574ce535-169c-43f7-8a6b-14998257215a","ios":"levelo://app?vid=574ce535-169c-43f7-8a6b-14998257215a"},"vehicle_type_id":"4","last_reported":1735474497,"current_range_meters":30400,"station_id":"ce4bhn12rcd13ifvqgpg","pricing_plan_id":"cebpf4jnsgd1na2vs0mg"},{"bike_id":"dac94ecf-3203-4c89-acc0-21c14e979588","system_id":"levelo_inurba_marseille","lat":43.26693,"lon":5.38304,"is_reserved":false,"is_disabled":false,"rental_uris":{"android":"levelo://app?vid=dac94ecf-3203-4c89-acc0-21c14e979588","ios":"levelo://app?vid=dac94ecf-3203-4c89-acc0-21c14e979588"},"vehicle_type_id":"4","last_reported":1735474497,"current_range_meters":26800,"station_id":"ce4bhg92rcd13ifvqf90","pricing_plan_id":"cebpf4jnsgd1na2vs0mg"},{"bike_id":"a79b7af7-122b-4816-9af7-43ab92fd3a76","system_id":"levelo_inurba_marseille","lat":43.30601,"lon":5.39358,"is_reserved":false,"is_disabled":false,"rental_uris":{"android":"levelo://app?vid=a79b7af7-122b-4816-9af7-43ab92fd3a76","ios":"levelo://app?vid=a79b7af7-122b-4816-9af7-43ab92fd3a76"},"vehicle_type_id":"4","last_reported":1735474497,"current_range_meters":38800,"station_id":"ce4bh0p2rcd13ifvqd80","pricing_plan_id":"cebpf4jnsgd1na2vs0mg"},{"bike_id":"fb9d93db-7b6d-4d4a-b303-fe1c71b9f241","system_id":"levelo_inurba_marseille","lat":43.24804,"lon":5.37461,"is_reserved":false,"is_disabled":false,"rental_uris":{"android":"levelo://app?vid=fb9d93db-7b6d-4d4a-b303-fe1c71b9f241","ios":"levelo://app?vid=fb9d93db-7b6d-4d4a-b303-fe1c71b9f241"},"vehicle_type_id":"4","last_reported":1735474497,"current_range_meters":35200,"station_id":"ce4bhgh2rcd13ifvqfb0","pricing_plan_id":"cebpf4jnsgd1na2vs0mg"},{"bike_id":"d787e330-e288-4e1c-926a-5bcb7a236ca2","system_id":"levelo_inurba_marseille","lat":43.28156,"lon":5.42647,"is_reserved":false,"is_disabled":false,"rental_uris":{"android":"levelo://app?vid=d787e330-e288-4e1c-926a-5bcb7a236ca2","ios":"levelo://app?vid=d787e330-e288-4e1c-926a-5bcb7a236ca2"},"vehicle_type_id":"4","last_reported":1735474497,"current_range_meters":24400,"station_id":"ce4bhnh2rcd13ifvqgug","pricing_plan_id":"cebpf4jnsgd1na2vs0mg"},{"bike_id":"a97c8903-940e-43da-9537-fb051b09d366","system_id":"levelo_inurba_marseille","lat":43.30787,"lon":5.3815,"is_reserved":false,"is_disabled":false,"rental_uris":{"android":"levelo://app?vid=a97c8903-940e-43da-9537-fb051b09d366","ios":"levelo://app?vid=a97c8903-940e-43da-9537-fb051b09d366"},"vehicle_type_id":"4","last_reported":1735474497,"current_range_meters":34000,"station_id":"ce4bgt12rcd13ifvqce0","pricing_plan_id":"cebpf4jnsgd1na2vs0mg"},{"bike_id":"ca42594c-4c0a-4080-98d3-9312d00d8df7","system_id":"levelo_inurba_marseille","lat":43.23061,"lon":5.35497,"is_reserved":false,"is_disabled":false,"rental_uris":{"android":"levelo://app?vid=ca42594c-4c0a-4080-98d3-9312d00d8df7","ios":"levelo://app?vid=ca42594c-4c0a-4080-98d3-9312d00d8df7"},"vehicle_type_id":"4","last_reported":1735474497,"current_range_meters":38800,"station_id":"cpo3342slgdg3j2ifvpg","pricing_plan_id":"cebpf4jnsgd1na2vs0mg"},{"bike_id":"c1669ea3-4e3c-4dbb-809e-0a29c4971d25","system_id":"levelo_inurba_marseille","lat":43.29004,"lon":5.35606,"is_reserved":false,"is_disabled":false,"rental_uris":{"android":"levelo://app?vid=c1669ea3-4e3c-4dbb-809e-0a29c4971d25","ios":"levelo://app?vid=c1669ea3-4e3c-4dbb-809e-0a29c4971d25"},"vehicle_type_id":"4","last_reported":1735474497,"current_range_meters":30000,"station_id":"ce4bhb92rcd13ifvqen0","pricing_plan_id":"cebpf4jnsgd1na2vs0mg"},{"bike_id":"494d9e5b-e33f-4bbf-988e-4ba7f5a0bf5d","system_id":"levelo_inurba_marseille","lat":43.23153,"lon":5.43702,"is_reserved":false,"is_disabled":false,"rental_uris":{"android":"levelo://app?vid=494d9e5b-e33f-4bbf-988e-4ba7f5a0bf5d","ios":"levelo://app?vid=494d9e5b-e33f-4bbf-988e-4ba7f5a0bf5d"},"vehicle_type_id":"4","last_reported":1735474497,"current_range_meters":29600,"station_id":"ce4bhmp2rcd13ifvqgog","pricing_plan_id":"cebpf4jnsgd1na2vs0mg"},{"bike_id":"25d3980c-c4bb-4552-b28a-a703e6e340e5","system_id":"levelo_inurba_marseille","lat":43.33615,"lon":5.41032,"is_reserved":false,"is_disabled":false,"rental_uris":{"android":"levelo://app?vid=25d3980c-c4bb-4552-b28a-a703e6e340e5","ios":"levelo://app?vid=25d3980c-c4bb-4552-b28a-a703e6e340e5"},"vehicle_type_id":"4","last_reported":1735474497,"current_range_meters":38800,"station_id":"ce4bhqh2rcd13ifvqhmg","pricing_plan_id":"cebpf4jnsgd1na2vs0mg"},{"bike_id":"5a3e8b45-e3e9-43c4-9e92-760144bae04a","system_id":"levelo_inurba_marseille","lat":43.29301,"lon":5.37155,"is_reserved":false,"is_disabled":false,"rental_uris":{"android":"levelo://app?vid=5a3e8b45-e3e9-43c4-9e92-760144bae04a","ios":"levelo://app?vid=5a3e8b45-e3e9-43c4-9e92-760144bae04a"},"vehicle_type_id":"4","last_reported":1735474497,"current_range_meters":32800,"station_id":"ce4bgh92rcd13ifvqb40","pricing_plan_id":"cebpf4jnsgd1na2vs0mg"},{"bike_id":"9c5bca43-a233-42d3-afe6-7aaa0033f973","system_id":"levelo_inurba_marseille","lat":43.317088,"lon":5.377617,"is_reserved":false,"is_disabled":false,"rental_uris":{"android":"levelo://app?vid=9c5bca43-a233-42d3-afe6-7aaa0033f973","ios":"levelo://app?vid=9c5bca43-a233-42d3-afe6-7aaa0033f973"},"vehicle_type_id":"4","last_reported":1735474497,"current_range_meters":12800,"station_id":"ce4bgth2rcd13ifvqch0","pricing_plan_id":"cebpf4jnsgd1na2vs0mg"},{"bike_id":"fc55ee07-cb79-4880-8466-c9fe9e754cca","system_id":"levelo_inurba_marseille","lat":43.3249,"lon":5.36683,"is_reserved":false,"is_disabled":false,"rental_uris":{"android":"levelo://app?vid=fc55ee07-cb79-4880-8466-c9fe9e754cca","ios":"levelo://app?vid=fc55ee07-cb79-4880-8466-c9fe9e754cca"},"vehicle_type_id":"4","last_reported":1735474497,"current_range_meters":17200,"station_id":"","pricing_plan_id":"cebpf4jnsgd1na2vs0mg"},{"bike_id":"54d6e866-278e-420d-98d6-ccb9d5a2b8b8","system_id":"levelo_inurba_marseille","lat":43.27949,"lon":5.38739,"is_reserved":false,"is_disabled":false,"rental_uris":{"android":"levelo://app?vid=54d6e866-278e-420d-98d6-ccb9d5a2b8b8","ios":"levelo://app?vid=54d6e866-278e-420d-98d6-ccb9d5a2b8b8"},"vehicle_type_id":"4","last_reported":1735474497,"current_range_meters":37600,"station_id":"ce4bhg12rcd13ifvqf80","pricing_plan_id":"cebpf4jnsgd1na2vs0mg"},{"bike_id":"30bbe92b-d46a-41e8-9ad9-650c11592b16","system_id":"levelo_inurba_marseille","lat":43.25717,"lon":5.41117,"is_reserved":false,"is_disabled":false,"rental_uris":{"android":"levelo://app?vid=30bbe92b-d46a-41e8-9ad9-650c11592b16","ios":"levelo://app?vid=30bbe92b-d46a-41e8-9ad9-650c11592b16"},"vehicle_type_id":"4","last_reported":1735474497,"current_range_meters":7200,"station_id":"ce4bhkp2rcd13ifvqgd0","pricing_plan_id":"cebpf4jnsgd1na2vs0mg"},{"bike_id":"80d2c35c-9b14-4074-961b-376fc7d2156d","system_id":"levelo_inurba_marseille","lat":43.31109,"lon":5.37767,"is_reserved":false,"is_disabled":false,"rental_uris":{"android":"levelo://app?vid=80d2c35c-9b14-4074-961b-376fc7d2156d","ios":"levelo://app?vid=80d2c35c-9b14-4074-961b-376fc7d2156d"},"vehicle_type_id":"4","last_reported":1735474497,"current_range_meters":30800,"station_id":"ce4bgt92rcd13ifvqcg0","pricing_plan_id":"cebpf4jnsgd1na2vs0mg"},{"bike_id":"fd5bffcc-934d-4a5b-abe1-37ba321ae7af","system_id":"levelo_inurba_marseille","lat":43.23058,"lon":5.35505,"is_reserved":false,"is_disabled":false,"rental_uris":{"android":"levelo://app?vid=fd5bffcc-934d-4a5b-abe1-37ba321ae7af","ios":"levelo://app?vid=fd5bffcc-934d-4a5b-abe1-37ba321ae7af"},"vehicle_type_id":"4","last_reported":1735474497,"current_range_meters":36400,"station_id":"cpo3342slgdg3j2ifvpg","pricing_plan_id":"cebpf4jnsgd1na2vs0mg"},{"bike_id":"184ef224-5d38-4d06-b107-367a6b6cfadc","system_id":"levelo_inurba_marseille","lat":43.29846,"lon":5.36277,"is_reserved":false,"is_disabled":false,"rental_uris":{"android":"levelo://app?vid=184ef224-5d38-4d06-b107-367a6b6cfadc","ios":"levelo://app?vid=184ef224-5d38-4d06-b107-367a6b6cfadc"},"vehicle_type_id":"4","last_reported":1735474497,"current_range_meters":24400,"station_id":"ce4bgpp2rcd13ifvqc3g","pricing_plan_id":"cebpf4jnsgd1na2vs0mg"},{"bike_id":"2f85db58-cb28-4dbd-b3e8-5a226484bde9","system_id":"levelo_inurba_marseille","lat":43.28568,"lon":5.39496,"is_reserved":false,"is_disabled":false,"rental_uris":{"android":"levelo://app?vid=2f85db58-cb28-4dbd-b3e8-5a226484bde9","ios":"levelo://app?vid=2f85db58-cb28-4dbd-b3e8-5a226484bde9"},"vehicle_type_id":"4","last_reported":1735474497,"current_range_meters":38800,"station_id":"ce4bh292rcd13ifvqdg0","pricing_plan_id":"cebpf4jnsgd1na2vs0mg"},{"bike_id":"30a125ea-1c42-46b6-9baa-f49909f6c1a7","system_id":"levelo_inurba_marseille","lat":43.28417,"lon":5.34994,"is_reserved":false,"is_disabled":false,"rental_uris":{"android":"levelo://app?vid=30a125ea-1c42-46b6-9baa-f49909f6c1a7","ios":"levelo://app?vid=30a125ea-1c42-46b6-9baa-f49909f6c1a7"},"vehicle_type_id":"4","last_reported":1735474497,"current_range_meters":34000,"station_id":"ce4bhbh2rcd13ifvqepg","pricing_plan_id":"cebpf4jnsgd1na2vs0mg"},{"bike_id":"b193a302-c749-4637-8735-a2a74f50ec47","system_id":"levelo_inurba_marseille","lat":43.27939,"lon":5.41061,"is_reserved":false,"is_disabled":false,"rental_uris":{"android":"levelo://app?vid=b193a302-c749-4637-8735-a2a74f50ec47","ios":"levelo://app?vid=b193a302-c749-4637-8735-a2a74f50ec47"},"vehicle_type_id":"4","last_reported":1735474497,"current_range_meters":21600,"station_id":"ce4bhnp2rcd13ifvqh0g","pricing_plan_id":"cebpf4jnsgd1na2vs0mg"},{"bike_id":"852e783a-fd91-4f79-8f2d-cb9921fbc74b","system_id":"levelo_inurba_marseille","lat":43.29303,"lon":5.37421,"is_reserved":false,"is_disabled":false,"rental_uris":{"android":"levelo://app?vid=852e783a-fd91-4f79-8f2d-cb9921fbc74b","ios":"levelo://app?vid=852e783a-fd91-4f79-8f2d-cb9921fbc74b"},"vehicle_type_id":"4","last_reported":1735474497,"current_range_meters":27600,"station_id":"ce4bgi12rcd13ifvqb70","pricing_plan_id":"cebpf4jnsgd1na2vs0mg"},{"bike_id":"178dd4d4-7f45-41c2-b04a-4b77ce9d626e","system_id":"levelo_inurba_marseille","lat":43.2721,"lon":5.39182,"is_reserved":false,"is_disabled":false,"rental_uris":{"android":"levelo://app?vid=178dd4d4-7f45-41c2-b04a-4b77ce9d626e","ios":"levelo://app?vid=178dd4d4-7f45-41c2-b04a-4b77ce9d626e"},"vehicle_type_id":"4","last_reported":1735474497,"current_range_meters":36400,"station_id":"ce4bhhp2rcd13ifvqfm0","pricing_plan_id":"cebpf4jnsgd1na2vs0mg"},{"bike_id":"425aa9e2-9db9-4fb1-8de2-821e1a5d81d5","system_id":"levelo_inurba_marseille","lat":43.24807,"lon":5.37456,"is_reserved":false,"is_disabled":false,"rental_uris":{"android":"levelo://app?vid=425aa9e2-9db9-4fb1-8de2-821e1a5d81d5","ios":"levelo://app?vid=425aa9e2-9db9-4fb1-8de2-821e1a5d81d5"},"vehicle_type_id":"4","last_reported":1735474497,"current_range_meters":38000,"station_id":"ce4bhgh2rcd13ifvqfb0","pricing_plan_id":"cebpf4jnsgd1na2vs0mg"},