{"last_updated":1774435094,"ttl":60,"version":"2.2","data":{"bikes":[{"bike_id":"c23fe9a8-1ab1-4e75-92da-fb0b8e1ca98b","system_id":"levelo_inurba_marseille","lat":43.232,"lon":5.3554,"is_reserved":false,"is_disabled":false,"rental_uris":{"android":"levelo://app?vid=c23fe9a8-1ab1-4e75-92da-fb0b8e1ca98b","ios":"levelo://app?vid=c23fe9a8-1ab1-4e75-92da-fb0b8e1ca98b"},"vehicle_type_id":"4","last_reported":1774435095,"current_range_meters":1600,"station_id":"ce4bhu92rcd13ifvqi70","pricing_plan_id":"cebpf4jnsgd1na2vs0mg"},{"bike_id":"3c913227-2897-49aa-99f8-e27f1ca98294","system_id":"levelo_inurba_marseille","lat":43.24056,"lon":5.37748,"is_reserved":false,"is_disabled":false,"rental_uris":{"android":"levelo://app?vid=3c913227-2897-49aa-99f8-e27f1ca98294","ios":"levelo://app?vid=3c913227-2897-49aa-99f8-e27f1ca98294"},"vehicle_type_id":"4","last_reported":1774435095,"current_range_meters":2800,"station_id":"ce4bhnp2rcd13ifvqgvg","pricing_plan_id":"cebpf4jnsgd1na2vs0mg"},{"bike_id":"54c317b1-1948-4c7f-90cf-f2b4024a9555","system_id":"levelo_inurba_marseille","lat":43.27373,"lon":5.3626,"is_reserved":false,"is_disabled":false,"rental_uris":{"android":"levelo://app?vid=54c317b1-1948-4c7f-90cf-f2b4024a9555","ios":"levelo://app?vid=54c317b1-1948-4c7f-90cf-f2b4024a9555"},"vehicle_type_id":"4","last_reported":1774435095,"current_range_meters":2800,"station_id":"ce4bhbh2rcd13ifvqeo0","pricing_plan_id":"cebpf4jnsgd1na2vs0mg"},{"bike_id":"35e9bf41-b7ea-4615-a74e-4778fe867e2f","system_id":"levelo_inurba_marseille","lat":43.29713,"lon":5.37701,"is_reserved":false,"is_disabled":false,"rental_uris":{"android":"levelo://app?vid=35e9bf41-b7ea-4615-a74e-4778fe867e2f","ios":"levelo://app?vid=35e9bf41-b7ea-4615-a74e-4778fe867e2f"},"vehicle_type_id":"4","last_reported":1774435095,"current_range_meters":2800,"station_id":"ce4bgkh2rcd13ifvqbl0","pricing_plan_id":"cebpf4jnsgd1na2vs0mg"},{"bike_id":"c7c0d1a3-c2c3-4962-a7cc-3f65dbd082a8","system_id":"levelo_inurba_marseille","lat":43.26687,"lon":5.38269,"is_reserved":false,"is_disabled":false,"rental_uris":{"android":"levelo://app?vid=c7c0d1a3-c2c3-4962-a7cc-3f65dbd082a8","ios":"levelo://app?vid=c7c0d1a3-c2c3-4962-a7cc-3f65dbd082a8"},"vehicle_type_id":"4","last_reported":1774435095,"current_range_meters":2800,"station_id":"ce4bhg92rcd13ifvqf90","pricing_plan_id":"cebpf4jnsgd1na2vs0mg"},{"bike_id":"e9b07658-a8f0-465c-b976-645cd41e5970","system_id":"levelo_inurba_marseille","lat":43.27173,"lon":5.41,"is_reserved":false,"is_disabled":false,"rental_uris":{"android":"levelo://app?vid=e9b07658-a8f0-465c-b976-645cd41e5970","ios":"levelo://app?vid=e9b07658-a8f0-465c-b976-645cd41e5970"},"vehicle_type_id":"4","last_reported":1774435095,"current_range_meters":2800,"station_id":"ce4bhl12rcd13ifvqgf0","pricing_plan_id":"cebpf4jnsgd1na2vs0mg"},{"bike_id":"aeeed65a-8238-48ff-abba-94078d3b830e","system_id":"levelo_inurba_marseille","lat":43.31427,"lon":5.40297,"is_reserved":false,"is_disabled":false,"rental_uris":{"android":"levelo://app?vid=aeeed65a-8238-48ff-abba-94078d3b830e","ios":"levelo://app?vid=aeeed65a-8238-48ff-abba-94078d3b830e"},"vehicle_type_id":"4","last_reported":1774435095,"current_range_meters":2800,"station_id":"","pricing_plan_id":"cebpf4jnsgd1na2vs0mg"},{"bike_id":"75161d83-ba86-49c2-8971-d29c29fcdbc3","system_id":"levelo_inurba_marseille","lat":43.266687,"lon":5.382806,"is_reserved":false,"is_disabled":false,"rental_uris":{"android":"levelo://app?vid=75161d83-ba86-49c2-8971-d29c29fcdbc3","ios":"levelo://app?vid=75161d83-ba86-49c2-8971-d29c29fcdbc3"},"vehicle_type_id":"4","last_reported":1774435095,"current_range_meters":2800,"station_id":"ce4bhg92rcd13ifvqf90","pricing_plan_id":"cebpf4jnsgd1na2vs0mg"},{"bike_id":"0e2f4137-e82a-401c-945f-6a1c7c098239","system_id":"levelo_inurba_marseille","lat":43.29618,"lon":5.37142,"is_reserved":false,"is_disabled":true,"rental_uris":{"android":"levelo://app?vid=0e2f4137-e82a-401c-945f-6a1c7c098239","ios":"levelo://app?vid=0e2f4137-e82a-401c-945f-6a1c7c098239"},"vehicle_type_id":"4","last_reported":1774435095,"current_range_meters":3200,"station_id":"ce4bgnh2rcd13ifvqc0g","pricing_plan_id":"cebpf4jnsgd1na2vs0mg"},{"bike_id":"b75036ac-d81d-4bfd-a9c8-a051a6ff39fe","system_id":"levelo_inurba_marseille","lat":43.28529,"lon":5.44126,"is_reserved":false,"is_disabled":false,"rental_uris":{"android":"levelo://app?vid=b75036ac-d81d-4bfd-a9c8-a051a6ff39fe","ios":"levelo://app?vid=b75036ac-d81d-4bfd-a9c8-a051a6ff39fe"},"vehicle_type_id":"4","last_reported":1774435095,"current_range_meters":3200,"station_id":"st_d3j3df2ikq2c7380ej80","pricing_plan_id":"cebpf4jnsgd1na2vs0mg"},{"bike_id":"f9566020-4e3b-404b-a21f-da597dff6354","system_id":"levelo_inurba_marseille","lat":43.23894,"lon":5.37461,"is_reserved":false,"is_disabled":false,"rental_uris":{"android":"levelo://app?vid=f9566020-4e3b-404b-a21f-da597dff6354","ios":"levelo://app?vid=f9566020-4e3b-404b-a21f-da597dff6354"},"vehicle_type_id":"4","last_reported":1774435095,"current_range_meters":3200,"station_id":"st_d6sm7csbq4hs73f8fpjg","pricing_plan_id":"cebpf4jnsgd1na2vs0mg"},{"bike_id":"f910acab-e234-4475-91c9-ec3fea6d1bf3","system_id":"levelo_inurba_marseille","lat":43.29897,"lon":5.43655,"is_reserved":false,"is_disabled":false,"rental_uris":{"android":"levelo://app?vid=f910acab-e234-4475-91c9-ec3fea6d1bf3","ios":"levelo://app?vid=f910acab-e234-4475-91c9-ec3fea6d1bf3"},"vehicle_type_id":"4","last_reported":1774435095,"current_range_meters":3200,"station_id":"ce4bhpp2rcd13ifvqhfg","pricing_plan_id":"cebpf4jnsgd1na2vs0mg"},{"bike_id":"8e331d09-f777-47e4-a327-164db2e188a9","system_id":"levelo_inurba_marseille","lat":43.26568,"lon":5.40321,"is_reserved":false,"is_disabled":true,"rental_uris":{"android":"levelo://app?vid=8e331d09-f777-47e4-a327-164db2e188a9","ios":"levelo://app?vid=8e331d09-f777-47e4-a327-164db2e188a9"},"vehicle_type_id":"4","last_reported":1774435095,"current_range_meters":3200,"station_id":"ce4bhmp2rcd13ifvqgng","pricing_plan_id":"cebpf4jnsgd1na2vs0mg"},{"bike_id":"5ce1e7fc-4e44-4cbe-afce-45a223a91e76","system_id":"levelo_inurba_marseille","lat":43.24085,"lon":5.37745,"is_reserved":false,"is_disabled":false,"rental_uris":{"android":"levelo://app?vid=5ce1e7fc-4e44-4cbe-afce-45a223a91e76","ios":"levelo://app?vid=5ce1e7fc-4e44-4cbe-afce-45a223a91e76"},"vehicle_type_id":"4","last_reported":1774435095,"current_range_meters":3200,"station_id":"ce4bhnp2rcd13ifvqgvg","pricing_plan_id":"cebpf4jnsgd1na2vs0mg"},{"bike_id":"0b786319-6d9f-4d1c-890a-5150198e272a","system_id":"levelo_inurba_marseille","lat":43.28475,"lon":5.48406,"is_reserved":false,"is_disabled":false,"rental_uris":{"android":"levelo://app?vid=0b786319-6d9f-4d1c-890a-5150198e272a","ios":"levelo://app?vid=0b786319-6d9f-4d1c-890a-5150198e272a"},"vehicle_type_id":"4","last_reported":1774435095,"current_range_meters":3200,"station_id":"st_d3svhcjqgbts73a3dn0g","pricing_plan_id":"cebpf4jnsgd1na2vs0mg"},{"bike_id":"09552e42-387f-408b-9cb9-dcffd4c5f44e","system_id":"levelo_inurba_marseille","lat":43.28937,"lon":5.39628,"is_reserved":false,"is_disabled":false,"rental_uris":{"android":"levelo://app?vid=09552e42-387f-408b-9cb9-dcffd4c5f44e","ios":"levelo://app?vid=09552e42-387f-408b-9cb9-dcffd4c5f44e"},"vehicle_type_id":"4","last_reported":1774435095,"current_range_meters":3200,"station_id":"ce4bh3h2rcd13ifvqdn0","pricing_plan_id":"cebpf4jnsgd1na2vs0mg"},{"bike_id":"7e03e45c-d69c-4371-8267-aa26cde43729","system_id":"levelo_inurba_marseille","lat":43.25584,"lon":5.3823,"is_reserved":false,"is_disabled":false,"rental_uris":{"android":"levelo://app?vid=7e03e45c-d69c-4371-8267-aa26cde43729","ios":"levelo://app?vid=7e03e45c-d69c-4371-8267-aa26cde43729"},"vehicle_type_id":"4","last_reported":1774435095,"current_range_meters":3200,"station_id":"ce4bhih2rcd13ifvqfs0","pricing_plan_id":"cebpf4jnsgd1na2vs0mg"},{"bike_id":"1d8f446c-f1af-4a84-857e-6d472cf0b4a6","system_id":"levelo_inurba_marseille","lat":43.32075,"lon":5.41564,"is_reserved":false,"is_disabled":false,"rental_uris":{"android":"levelo://app?vid=1d8f446c-f1af-4a84-857e-6d472cf0b4a6","ios":"levelo://app?vid=1d8f446c-f1af-4a84-857e-6d472cf0b4a6"},"vehicle_type_id":"4","last_reported":1774435095,"current_range_meters":3200,"station_id":"ce4bhq92rcd13ifvqhkg","pricing_plan_id":"cebpf4jnsgd1na2vs0mg"},{"bike_id":"285db872-787a-4613-a1fe-da7e0b0c9ea6","system_id":"levelo_inurba_marseille","lat":43.26676,"lon":5.38265,"is_reserved":false,"is_disabled":false,"rental_uris":{"android":"levelo://app?vid=285db872-787a-4613-a1fe-da7e0b0c9ea6","ios":"levelo://app?vid=285db872-787a-4613-a1fe-da7e0b0c9ea6"},"vehicle_type_id":"4","last_reported":1774435095,"current_range_meters":3200,"station_id":"ce4bhg92rcd13ifvqf90","pricing_plan_id":"cebpf4jnsgd1na2vs0mg"},{"bike_id":"b1ceaa1d-f7d5-4f1b-b74b-3e9a13f9efeb","system_id":"levelo_inurba_marseille","lat":43.23967,"lon":5.36631,"is_reserved":false,"is_disabled":false,"rental_uris":{"android":"levelo://app?vid=b1ceaa1d-f7d5-4f1b-b74b-3e9a13f9efeb","ios":"levelo://app?vid=b1ceaa1d-f7d5-4f1b-b74b-3e9a13f9efeb"},"vehicle_type_id":"4","last_reported":1774435095,"current_range_meters":3200,"station_id":"ce4bhi12rcd13ifvqfp0","pricing_plan_id":"cebpf4jnsgd1na2vs0mg"},{"bike_id":"c0983efc-685b-4c2f-8dd2-bd2101596452","system_id":"levelo_inurba_marseille","lat":43.28942,"lon":5.3663,"is_reserved":false,"is_disabled":false,"rental_uris":{"android":"levelo://app?vid=c0983efc-685b-4c2f-8dd2-bd2101596452","ios":"levelo://app?vid=c0983efc-685b-4c2f-8dd2-bd2101596452"},"vehicle_type_id":"4","last_reported":1774435095,"current_range_meters":3600,"station_id":"ce4bhap2rcd13ifvqek0","pricing_plan_id":"cebpf4jnsgd1na2vs0mg"},{"bike_id":"a9b0556e-e257-4c86-baec-32c674fd9499","system_id":"levelo_inurba_marseille","lat":43.30224,"lon":5.39437,"is_reserved":false,"is_disabled":false,"rental_uris":{"android":"levelo://app?vid=a9b0556e-e257-4c86-baec-32c674fd9499","ios":"levelo://app?vid=a9b0556e-e257-4c86-baec-32c674fd9499"},"vehicle_type_id":"4","last_reported":1774435095,"current_range_meters":3600,"station_id":"ce4bh0p2rcd13ifvqd70","pricing_plan_id":"cebpf4jnsgd1na2vs0mg"},{"bike_id":"a738e86d-0de3-47ef-a6ab-51f555655c3f","system_id":"levelo_inurba_marseille","lat":43.31116,"lon":5.37761,"is_reserved":false,"is_disabled":false,"rental_uris":{"android":"levelo://app?vid=a738e86d-0de3-47ef-a6ab-51f555655c3f","ios":"levelo://app?vid=a738e86d-0de3-47ef-a6ab-51f555655c3f"},"vehicle_type_id":"4","last_reported":1774435095,"current_range_meters":3600,"station_id":"ce4bgt92rcd13ifvqcg0","pricing_plan_id":"cebpf4jnsgd1na2vs0mg"},{"bike_id":"8f3165ca-8806-4892-8bb2-03d94441531c","system_id":"levelo_inurba_marseille","lat":43.23896,"lon":5.37451,"is_reserved":false,"is_disabled":false,"rental_uris":{"android":"levelo://app?vid=8f3165ca-8806-4892-8bb2-03d94441531c","ios":"levelo://app?vid=8f3165ca-8806-4892-8bb2-03d94441531c"},"vehicle_type_id":"4","last_reported":1774435095,"current_range_meters":3600,"station_id":"st_d6sm7csbq4hs73f8fpjg","pricing_plan_id":"cebpf4jnsgd1na2vs0mg"},{"bike_id":"f35a9644-f102-427c-8b00-579a35988db3","system_id":"levelo_inurba_marseille","lat":43.21186,"lon":5.35086,"is_reserved":false,"is_disabled":false,"rental_uris":{"android":"levelo://app?vid=f35a9644-f102-427c-8b00-579a35988db3","ios":"levelo://app?vid=f35a9644-f102-427c-8b00-579a35988db3"},"vehicle_type_id":"4","last_reported":1774435095,"current_range_meters":3600,"station_id":"st_cvj6sg6p6f1abm77japg","pricing_plan_id":"cebpf4jnsgd1na2vs0mg"},{"bike_id":"e0efd0d4-6278-4d4a-9798-ccbdaee289cd","system_id":"levelo_inurba_marseille","lat":43.30952,"lon":5.39033,"is_reserved":false,"is_disabled":false,"rental_uris":{"android":"levelo://app?vid=e0efd0d4-6278-4d4a-9798-ccbdaee289cd","ios":"levelo://app?vid=e0efd0d4-6278-4d4a-9798-ccbdaee289cd"},"vehicle_type_id":"4","last_reported":1774435095,"current_range_meters":3600,"station_id":"ce4bgup2rcd13ifvqco0","pricing_plan_id":"cebpf4jnsgd1na2vs0mg"},{"bike_id":"1a4e441f-0e1e-4cbb-8241-228332a4ccda","system_id":"levelo_inurba_marseille","lat":43.23892,"lon":5.37462,"is_reserved":false,"is_disabled":false,"rental_uris":{"android":"levelo://app?vid=1a4e441f-0e1e-4cbb-8241-228332a4ccda","ios":"levelo://app?vid=1a4e441f-0e1e-4cbb-8241-228332a4ccda"},"vehicle_type_id":"4","last_reported":1774435095,"current_range_meters":3600,"station_id":"st_d6sm7csbq4hs73f8fpjg","pricing_plan_id":"cebpf4jnsgd1na2vs0mg"},{"bike_id":"a32b3d77-5ebe-47e1-aa5f-3f3168f28436","system_id":"levelo_inurba_marseille","lat":43.25876,"lon":5.39902,"is_reserved":false,"is_disabled":false,"rental_uris":{"android":"levelo://app?vid=a32b3d77-5ebe-47e1-aa5f-3f3168f28436","ios":"levelo://app?vid=a32b3d77-5ebe-47e1-aa5f-3f3168f28436"},"vehicle_type_id":"4","last_reported":1774435095,"current_range_meters":4000,"station_id":"ce4bhl92rcd13ifvqghg","pricing_plan_id":"cebpf4jnsgd1na2vs0mg"},{"bike_id":"9f0b1bc2-7aeb-4898-94e0-08016eea2725","system_id":"levelo_inurba_marseille","lat":43.30255,"lon":5.40063,"is_reserved":false,"is_disabled":true,"rental_uris":{"android":"levelo://app?vid=9f0b1bc2-7aeb-4898-94e0-08016eea2725","ios":"levelo://app?vid=9f0b1bc2-7aeb-4898-94e0-08016eea2725"},"vehicle_type_id":"4","last_reported":1774435095,"current_range_meters":4000,"station_id":"ce4bgvh2rcd13ifvqcs0","pricing_plan_id":"cebpf4jnsgd1na2vs0mg"},{"bike_id":"066cfe81-714d-4a28-ba8d-e13baf5bbb1b","system_id":"levelo_inurba_marseille","lat":43.27266,"lon":5.41147,"is_reserved":false,"is_disabled":false,"rental_uris":{"android":"levelo://app?vid=066cfe81-714d-4a28-ba8d-e13baf5bbb1b","ios":"levelo://app?vid=066cfe81-714d-4a28-ba8d-e13baf5bbb1b"},"vehicle_type_id":"4","last_reported":1774435095,"current_range_meters":4000,"station_id":"","pricing_plan_id":"cebpf4jnsgd1na2vs0mg"},{"bike_id":"e51f3b8f-2277-4636-88c7-d4fed1c89dba","system_id":"levelo_inurba_marseille","lat":43.29857,"lon":5.40935,"is_reserved":false,"is_disabled":false,"rental_uris":{"android":"levelo://app?vid=e51f3b8f-2277-4636-88c7-d4fed1c89dba","ios":"levelo://app?vid=e51f3b8f-2277-4636-88c7-d4fed1c89dba"},"vehicle_type_id":"4","last_reported":1774435095,"current_range_meters":4000,"station_id":"","pricing_plan_id":"cebpf4jnsgd1na2vs0mg"},{"bike_id":"faff53f4-badb-45e9-8618-3961fd1c849a","system_id":"levelo_inurba_marseille","lat":43.24082,"lon":5.37745,"is_reserved":false,"is_disabled":false,"rental_uris":{"android":"levelo://app?vid=faff53f4-badb-45e9-8618-3961fd1c849a","ios":"levelo://app?vid=faff53f4-badb-45e9-8618-3961fd1c849a"},"vehicle_type_id":"4","last_reported":1774435095,"current_range_meters":4000,"station_id":"ce4bhnp2rcd13ifvqgvg","pricing_plan_id":"cebpf4jnsgd1na2vs0mg"},{"bike_id":"3d1a651c-3600-49e3-8895-2e8d96feff0e","system_id":"levelo_inurba_marseille","lat":43.29023,"lon":5.38645,"is_reserved":false,"is_disabled":false,"rental_uris":{"android":"levelo://app?vid=3d1a651c-3600-49e3-8895-2e8d96feff0e","ios":"levelo://app?vid=3d1a651c-3600-49e3-8895-2e8d96feff0e"},"vehicle_type_id":"4","last_reported":1774435095,"current_range_meters":4000,"station_id":"ce4bh4p2rcd13ifvqe0g","pricing_plan_id":"cebpf4jnsgd1na2vs0mg"},{"bike_id":"d38972dd-5d6b-4a4a-aaeb-bf25d83b0ff4","system_id":"levelo_inurba_marseille","lat":43.24073,"lon":5.37756,"is_reserved":false,"is_disabled":false,"rental_uris":{"android":"levelo://app?vid=d38972dd-5d6b-4a4a-aaeb-bf25d83b0ff4","ios":"levelo://app?vid=d38972dd-5d6b-4a4a-aaeb-bf25d83b0ff4"},"vehicle_type_id":"4","last_reported":1774435095,"current_range_meters":4400,"station_id":"ce4bhnp2rcd13ifvqgvg","pricing_plan_id":"cebpf4jnsgd1na2vs0mg"},{"bike_id":"fe332a28-7761-474f-ad2d-b84cd0257740","system_id":"levelo_inurba_marseille","lat":43.2378,"lon":5.36635,"is_reserved":false,"is_disabled":false,"rental_uris":{"android":"levelo://app?vid=fe332a28-7761-474f-ad2d-b84cd0257740","ios":"levelo://app?vid=fe332a28-7761-474f-ad2d-b84cd0257740"},"vehicle_type_id":"4","last_reported":1774435095,"current_range_meters":4400,"station_id":"st_d3nk18o9ro0c73en2l3g","pricing_plan_id":"cebpf4jnsgd1na2vs0mg"},{"bike_id":"e94d83da-a52c-4009-83db-8b37093608a6","system_id":"levelo_inurba_marseille","lat":43.22559,"lon":5.41609,"is_reserved":false,"is_disabled":false,"rental_uris":{"android":"levelo://app?vid=e94d83da-a52c-4009-83db-8b37093608a6","ios":"levelo://app?vid=e94d83da-a52c-4009-83db-8b37093608a6"},"vehicle_type_id":"4","last_reported":1774435095,"current_range_meters":4400,"station_id":"st_d2o4gvlbi1j2169b742g","pricing_plan_id":"cebpf4jnsgd1na2vs0mg"},{"bike_id":"9ca4b1da-0df4-426d-b237-eed2d4351450","system_id":"levelo_inurba_marseille","lat":43.23169,"lon":5.40055,"is_reserved":false,"is_disabled":false,"rental_uris":{"android":"levelo://app?vid=9ca4b1da-0df4-426d-b237-eed2d4351450","ios":"levelo://app?vid=9ca4b1da-0df4-426d-b237-eed2d4351450"},"vehicle_type_id":"4","last_reported":1774435095,"current_range_meters":4400,"station_id":"ce4bhn12rcd13ifvqgqg","pricing_plan_id":"cebpf4jnsgd1na2vs0mg"},{"bike_id":"ba1e580e-2080-4d73-a63b-c42fbb3f0b26","system_id":"levelo_inurba_marseille","lat":43.23166,"lon":5.43702,"is_reserved":false,"is_disabled":false,"rental_uris":{"android":"levelo://app?vid=ba1e580e-2080-4d73-a63b-c42fbb3f0b26","ios":"levelo://app?vid=ba1e580e-2080-4d73-a63b-c42fbb3f0b26"},"vehicle_type_id":"4","last_reported":1774435095,"current_range_meters":4400,"station_id":"ce4bhmp2rcd13ifvqgog","pricing_plan_id":"cebpf4jnsgd1na2vs0mg"},{"bike_id":"44adc4e3-0cf7-4a1c-a930-a86d7c41decd","system_id":"levelo_inurba_marseille","lat":43.29626,"lon":5.37711,"is_reserved":false,"is_disabled":false,"rental_uris":{"android":"levelo://app?vid=44adc4e3-0cf7-4a1c-a930-a86d7c41decd","ios":"levelo://app?vid=44adc4e3-0cf7-4a1c-a930-a86d7c41decd"},"vehicle_type_id":"4","last_reported":1774435095,"current_range_meters":4400,"station_id":"ce4bgi92rcd13ifvqb90","pricing_plan_id":"cebpf4jnsgd1na2vs0mg"},{"bike_id":"1cdbb1e3-64ef-4120-acbe-28772d9b2165","system_id":"levelo_inurba_marseille","lat":43.27216,"lon":5.39187,"is_reserved":false,"is_disabled":false,"rental_uris":{"android":"levelo://app?vid=1cdbb1e3-64ef-4120-acbe-28772d9b2165","ios":"levelo://app?vid=1cdbb1e3-64ef-4120-acbe-28772d9b2165"},"vehicle_type_id":"4","last_reported":1774435095,"current_range_meters":4400,"station_id":"ce4bhhp2rcd13ifvqfm0","pricing_plan_id":"cebpf4jnsgd1na2vs0mg"},{"bike_id":"51a9cb16-8dd8-4e8d-9618-237dcd69d497","system_id":"levelo_inurba_marseille","lat":43.24947,"lon":5.40485,"is_reserved":false,"is_disabled":false,"rental_uris":{"android":"levelo://app?vid=51a9cb16-8dd8-4e8d-9618-237dcd69d497","ios":"levelo://app?vid=51a9cb16-8dd8-4e8d-9618-237dcd69d497"},"vehicle_type_id":"4","last_reported":1774435095,"current_range_meters":4400,"station_id":"st_d2ngiaodas8pm72gd1h0","pricing_plan_id":"cebpf4jnsgd1na2vs0mg"},{"bike_id":"0c905920-39a3-4df9-a2cd-efad93fa0b7e","system_id":"levelo_inurba_marseille","lat":43.287,"lon":5.46674,"is_reserved":false,"is_disabled":false,"rental_uris":{"android":"levelo://app?vid=0c905920-39a3-4df9-a2cd-efad93fa0b7e","ios":"levelo://app?vid=0c905920-39a3-4df9-a2cd-efad93fa0b7e"},"vehicle_type_id":"4","last_reported":1774435095,"current_range_meters":4400,"station_id":"st_d6tc3vkotcvc738tfjhg","pricing_plan_id":"cebpf4jnsgd1na2vs0mg"},{"bike_id":"f2522a16-8fa2-4104-b60c-00156d54dbd6","system_id":"levelo_inurba_marseille","lat":43.23769,"lon":5.36615,"is_reserved":false,"is_disabled":false,"rental_uris":{"android":"levelo://app?vid=f2522a16-8fa2-4104-b60c-00156d54dbd6","ios":"levelo://app?vid=f2522a16-8fa2-4104-b60c-00156d54dbd6"},"vehicle_type_id":"4","last_reported":1774435095,"current_range_meters":4800,"station_id":"st_d3nk18o9ro0c73en2l3g","pricing_plan_id":"cebpf4jnsgd1na2vs0mg"},{"bike_id":"f7e664bc-8cfe-465d-9dbe-128ca982aa9c","system_id":"levelo_inurba_marseille","lat":43.2501,"lon":5.38931,"is_reserved":false,"is_disabled":false,"rental_uris":{"android":"levelo://app?vid=f7e664bc-8cfe-465d-9dbe-128ca982aa9c","ios":"levelo://app?vid=f7e664bc-8cfe-465d-9dbe-128ca982aa9c"},"vehicle_type_id":"4","last_reported":1774435095,"current_range_meters":4800,"station_id":"ce4bhgp2rcd13ifvqfd0","pricing_plan_id":"cebpf4jnsgd1na2vs0mg"},{"bike_id":"eb7f051c-07f1-41d2-9450-33cd5a984ca1","system_id":"levelo_inurba_marseille","lat":43.2307,"lon":5.35485,"is_reserved":false,"is_disabled":false,"rental_uris":{"android":"levelo://app?vid=eb7f051c-07f1-41d2-9450-33cd5a984ca1","ios":"levelo://app?vid=eb7f051c-07f1-41d2-9450-33cd5a984ca1"},"vehicle_type_id":"4","last_reported":1774435095,"current_range_meters":4800,"station_id":"cpo3342slgdg3j2ifvpg","pricing_plan_id":"cebpf4jnsgd1na2vs0mg"},{"bike_id":"5436ae21-40b7-42d7-b176-db2ddf8cc4ab","system_id":"levelo_inurba_marseille","lat":43.23146,"lon":5.43689,"is_reserved":false,"is_disabled":false,"rental_uris":{"android":"levelo://app?vid=5436ae21-40b7-42d7-b176-db2ddf8cc4ab","ios":"levelo://app?vid=5436ae21-40b7-42d7-b176-db2ddf8cc4ab"},"vehicle_type_id":"4","last_reported":1774435095,"current_range_meters":4800,"station_id":"ce4bhmp2rcd13ifvqgog","pricing_plan_id":"cebpf4jnsgd1na2vs0mg"},{"bike_id":"6711ca2b-9a4e-46b1-892e-1007cc2a656e","system_id":"levelo_inurba_marseille","lat":43.28505,"lon":5.4419,"is_reserved":false,"is_disabled":false,"rental_uris":{"android":"levelo://app?vid=6711ca2b-9a4e-46b1-892e-1007cc2a656e","ios":"levelo://app?vid=6711ca2b-9a4e-46b1-892e-1007cc2a656e"},"vehicle_type_id":"4","last_reported":1774435095,"current_range_meters":4800,"station_id":"","pricing_plan_id":"cebpf4jnsgd1na2vs0mg"},{"bike_id":"cbe143e8-3e8d-46c8-8239-3389a4661d28","system_id":"levelo_inurba_marseille","lat":43.30305,"lon":5.36925,"is_reserved":false,"is_disabled":false,"rental_uris":{"android":"levelo://app?vid=cbe143e8-3e8d-46c8-8239-3389a4661d28","ios":"levelo://app?vid=cbe143e8-3e8d-46c8-8239-3389a4661d28"},"vehicle_type_id":"4","last_reported":1774435095,"current_range_meters":4800,"station_id":"ce4bgqh2rcd13ifvqc5g","pricing_plan_id":"cebpf4jnsgd1na2vs0mg"},{"bike_id":"70214f46-b448-478a-8e3a-0a5578a95784","system_id":"levelo_inurba_marseille","lat":43.31631,"lon":5.39361,"is_reserved":false,"is_disabled":false,"rental_uris":{"android":"levelo://app?vid=70214f46-b448-478a-8e3a-0a5578a95784","ios":"levelo://app?vid=70214f46-b448-478a-8e3a-0a5578a95784"},"vehicle_type_id":"4","last_reported":1774435095,"current_range_meters":4800,"station_id":"","pricing_plan_id":"cebpf4jnsgd1na2vs0mg"},{"bike_id":"69c7dedb-e831-42c1-9502-923d17edb3d6","system_id":"levelo_inurba_marseille","lat":43.31045,"lon":5.37152,"is_reserved":false,"is_disabled":false,"rental_uris":{"android":"levelo://app?vid=69c7dedb-e831-42c1-9502-923d17edb3d6","ios":"levelo://app?vid=69c7dedb-e831-42c1-9502-923d17edb3d6"},"vehicle_type_id":"4","last_reported":1774435095,"current_range_meters":5600,"station_id":"st_d4kl2rp97mjs73e7tdfg","pricing_plan_id":"cebpf4jnsgd1na2vs0mg"},{"bike_id":"76d67dcd-ff47-49e9-b2cd-6c2e7176615e","system_id":"levelo_inurba_marseille","lat":43.26034,"lon":5.37543,"is_reserved":false,"is_disabled":false,"rental_uris":{"android":"levelo://app?vid=76d67dcd-ff47-49e9-b2cd-6c2e7176615e","ios":"levelo://app?vid=76d67dcd-ff47-49e9-b2cd-6c2e7176615e"},"vehicle_type_id":"4","last_reported":1774435095,"current_range_meters":5600,"station_id":"ce4bhgh2rcd13ifvqfa0","pricing_plan_id":"cebpf4jnsgd1na2vs0mg"},{"bike_id":"445a363e-6635-4c6f-9d9b-6ed1d223c4e8","system_id":"levelo_inurba_marseille","lat":43.29559,"lon":5.43887,"is_reserved":false,"is_disabled":false,"rental_uris":{"android":"levelo://app?vid=445a363e-6635-4c6f-9d9b-6ed1d223c4e8","ios":"levelo://app?vid=445a363e-6635-4c6f-9d9b-6ed1d223c4e8"},"vehicle_type_id":"4","last_reported":1774435095,"current_range_meters":5600,"station_id":"","pricing_plan_id":"cebpf4jnsgd1na2vs0mg"},{"bike_id":"3d0236ca-aef4-4966-9dcb-08a2cba2f7d7","system_id":"levelo_inurba_marseille","lat":43.28416,"lon":5.34996,"is_reserved":false,"is_disabled":false,"rental_uris":{"android":"levelo://app?vid=3d0236ca-aef4-4966-9dcb-08a2cba2f7d7","ios":"levelo://app?vid=3d0236ca-aef4-4966-9dcb-08a2cba2f7d7"},"vehicle_type_id":"4","last_reported":1774435095,"current_range_meters":5600,"station_id":"ce4bhbh2rcd13ifvqepg","pricing_plan_id":"cebpf4jnsgd1na2vs0mg"},{"bike_id":"c0b689e5-350b-4835-a209-95a8604ec264","system_id":"levelo_inurba_marseille","lat":43.27395,"lon":5.39428,"is_reserved":false,"is_disabled":true,"rental_uris":{"android":"levelo://app?vid=c0b689e5-350b-4835-a209-95a8604ec264","ios":"levelo://app?vid=c0b689e5-350b-4835-a209-95a8604ec264"},"vehicle_type_id":"4","last_reported":1774435095,"current_range_meters":5600,"station_id":"ce4bhdp2rcd13ifvqf20","pricing_plan_id":"cebpf4jnsgd1na2vs0mg"},{"bike_id":"73bd0893-7d64-4760-b226-087f6d9f7865","system_id":"levelo_inurba_marseille","lat":43.29574,"lon":5.3674,"is_reserved":false,"is_disabled":false,"rental_uris":{"android":"levelo://app?vid=73bd0893-7d64-4760-b226-087f6d9f7865","ios":"levelo://app?vid=73bd0893-7d64-4760-b226-087f6d9f7865"},"vehicle_type_id":"4","last_reported":1774435095,"current_range_meters":5600,"station_id":"ce4bgph2rcd13ifvqc2g","pricing_plan_id":"cebpf4jnsgd1na2vs0mg"},{"bike_id":"8ba21890-7d18-4d86-9267-31e7661dcb9b","system_id":"levelo_inurba_marseille","lat":43.27045,"lon":5.42288,"is_reserved":false,"is_disabled":false,"rental_uris":{"android":"levelo://app?vid=8ba21890-7d18-4d86-9267-31e7661dcb9b","ios":"levelo://app?vid=8ba21890-7d18-4d86-9267-31e7661dcb9b"},"vehicle_type_id":"4","last_reported":1774435095,"current_range_meters":5600,"station_id":"ce4bhk92rcd13ifvqgb0","pricing_plan_id":"cebpf4jnsgd1na2vs0mg"},{"bike_id":"4d2089ba-a348-41d7-b4d0-0ffb275e50b7","system_id":"levelo_inurba_marseille","lat":43.23152,"lon":5.43697,"is_reserved":false,"is_disabled":false,"rental_uris":{"android":"levelo://app?vid=4d2089ba-a348-41d7-b4d0-0ffb275e50b7","ios":"levelo://app?vid=4d2089ba-a348-41d7-b4d0-0ffb275e50b7"},"vehicle_type_id":"4","last_reported":1774435095,"current_range_meters":5600,"station_id":"ce4bhmp2rcd13ifvqgog","pricing_plan_id":"cebpf4jnsgd1na2vs0mg"},{"bike_id":"c36686c7-fda3-4355-93ee-75f0b70eaf28","system_id":"levelo_inurba_marseille","lat":43.25871,"lon":5.39898,"is_reserved":false,"is_disabled":false,"rental_uris":{"android":"levelo://app?vid=c36686c7-fda3-4355-93ee-75f0b70eaf28","ios":"levelo://app?vid=c36686c7-fda3-4355-93ee-75f0b70eaf28"},"vehicle_type_id":"4","last_reported":1774435095,"current_range_meters":5600,"station_id":"ce4bhl92rcd13ifvqghg","pricing_plan_id":"cebpf4jnsgd1na2vs0mg"},{"bike_id":"087e83a7-0672-4ff0-b699-f54ed107fffe","system_id":"levelo_inurba_marseille","lat":43.28917,"lon":5.38397,"is_reserved":false,"is_disabled":false,"rental_uris":{"android":"levelo://app?vid=087e83a7-0672-4ff0-b699-f54ed107fffe","ios":"levelo://app?vid=087e83a7-0672-4ff0-b699-f54ed107fffe"},"vehicle_type_id":"4","last_reported":1774435095,"current_range_meters":5600,"station_id":"ce4bh612rcd13ifvqe6g","pricing_plan_id":"cebpf4jnsgd1na2vs0mg"},{"bike_id":"1bfe3958-2503-48b6-bc3f-6b6785e2e225","system_id":"levelo_inurba_marseille","lat":43.296454,"lon":5.375145,"is_reserved":false,"is_disabled":true,"rental_uris":{"android":"levelo://app?vid=1bfe3958-2503-48b6-bc3f-6b6785e2e225","ios":"levelo://app?vid=1bfe3958-2503-48b6-bc3f-6b6785e2e225"},"vehicle_type_id":"4","last_reported":1774435095,"current_range_meters":5600,"station_id":"ce4bhap2rcd13ifvqek0","pricing_plan_id":"cebpf4jnsgd1na2vs0mg"},{"bike_id":"c7698c18-df0a-47a1-8bcb-6f82cf36805e","system_id":"levelo_inurba_marseille","lat":43.26565,"lon":5.39,"is_reserved":false,"is_disabled":false,"rental_uris":{"android":"levelo://app?vid=c7698c18-df0a-47a1-8bcb-6f82cf36805e","ios":"levelo://app?vid=c7698c18-df0a-47a1-8bcb-6f82cf36805e"},"vehicle_type_id":"4","last_reported":1774435095,"current_range_meters":5600,"station_id":"ce4bhe12rcd13ifvqf30","pricing_plan_id":"cebpf4jnsgd1na2vs0mg"},{"bike_id":"13639e07-2b1d-4da9-8f46-07bec979ccd4","system_id":"levelo_inurba_marseille","lat":43.25337,"lon":5.42181,"is_reserved":false,"is_disabled":false,"rental_uris":{"android":"levelo://app?vid=13639e07-2b1d-4da9-8f46-07bec979ccd4","ios":"levelo://app?vid=13639e07-2b1d-4da9-8f46-07bec979ccd4"},"vehicle_type_id":"4","last_reported":1774435095,"current_range_meters":5600,"station_id":"st_d2m65c5bi1j21697t3ng","pricing_plan_id":"cebpf4jnsgd1na2vs0mg"},{"bike_id":"23e51c48-0d29-46f8-b9a2-4ebe076d545e","system_id":"levelo_inurba_marseille","lat":43.2902,"lon":5.38112,"is_reserved":false,"is_disabled":false,"rental_uris":{"android":"levelo://app?vid=23e51c48-0d29-46f8-b9a2-4ebe076d545e","ios":"levelo://app?vid=23e51c48-0d29-46f8-b9a2-4ebe076d545e"},"vehicle_type_id":"4","last_reported":1774435095,"current_range_meters":6000,"station_id":"ce4bh4p2rcd13ifvqe1g","pricing_plan_id":"cebpf4jnsgd1na2vs0mg"},{"bike_id":"83732a6c-ebed-473c-9b13-eb7d63194259","system_id":"levelo_inurba_marseille","lat":43.21185,"lon":5.35064,"is_reserved":false,"is_disabled":false,"rental_uris":{"android":"levelo://app?vid=83732a6c-ebed-473c-9b13-eb7d63194259","ios":"levelo://app?vid=83732a6c-ebed-473c-9b13-eb7d63194259"},"vehicle_type_id":"4","last_reported":1774435095,"current_range_meters":6000,"station_id":"st_cvj6sg6p6f1abm77japg","pricing_plan_id":"cebpf4jnsgd1na2vs0mg"},{"bike_id":"22a24422-8367-44e3-afc2-fd1672c2c7f5","system_id":"levelo_inurba_marseille","lat":43.28481,"lon":5.48395,"is_reserved":false,"is_disabled":false,"rental_uris":{"android":"levelo://app?vid=22a24422-8367-44e3-afc2-fd1672c2c7f5","ios":"levelo://app?vid=22a24422-8367-44e3-afc2-fd1672c2c7f5"},"vehicle_type_id":"4","last_reported":1774435095,"current_range_meters":6000,"station_id":"","pricing_plan_id":"cebpf4jnsgd1na2vs0mg"},{"bike_id":"62c0eda8-c666-40c1-b62d-71242266f316","system_id":"levelo_inurba_marseille","lat":43.28449,"lon":5.39174,"is_reserved":false,"is_disabled":false,"rental_uris":{"android":"levelo://app?vid=62c0eda8-c666-40c1-b62d-71242266f316","ios":"levelo://app?vid=62c0eda8-c666-40c1-b62d-71242266f316"},"vehicle_type_id":"4","last_reported":1774435095,"current_range_meters":6000,"station_id":"ce4bhoh2rcd13ifvqh5g","pricing_plan_id":"cebpf4jnsgd1na2vs0mg"},{"bike_id":"d6cedfd7-f851-4154-be58-5e7ef2f2c136","system_id":"levelo_inurba_marseille","lat":43.24941,"lon":5.40499,"is_reserved":false,"is_disabled":false,"rental_uris":{"android":"levelo://app?vid=d6cedfd7-f851-4154-be58-5e7ef2f2c136","ios":"levelo://app?vid=d6cedfd7-f851-4154-be58-5e7ef2f2c136"},"vehicle_type_id":"4","last_reported":1774435095,"current_range_meters":6000,"station_id":"st_d2ngiaodas8pm72gd1h0","pricing_plan_id":"cebpf4jnsgd1na2vs0mg"},{"bike_id":"04685f0d-e951-469e-b7ed-e6555c5bd036","system_id":"levelo_inurba_marseille","lat":43.309473,"lon":5.390255,"is_reserved":false,"is_disabled":false,"rental_uris":{"android":"levelo://app?vid=04685f0d-e951-469e-b7ed-e6555c5bd036","ios":"levelo://app?vid=04685f0d-e951-469e-b7ed-e6555c5bd036"},"vehicle_type_id":"4","last_reported":1774435095,"current_range_meters":6000,"station_id":"ce4bgup2rcd13ifvqco0","pricing_plan_id":"cebpf4jnsgd1na2vs0mg"},{"bike_id":"fb70ab8c-8410-4e25-833b-afc440104614","system_id":"levelo_inurba_marseille","lat":43.27338,"lon":5.3909,"is_reserved":false,"is_disabled":false,"rental_uris":{"android":"levelo://app?vid=fb70ab8c-8410-4e25-833b-afc440104614","ios":"levelo://app?vid=fb70ab8c-8410-4e25-833b-afc440104614"},"vehicle_type_id":"4","last_reported":1774435095,"current_range_meters":6000,"station_id":"ce4bhgp2rcd13ifvqfe0","pricing_plan_id":"cebpf4jnsgd1na2vs0mg"},{"bike_id":"5f75fc59-ca0f-4412-acdb-852e0b310194","system_id":"levelo_inurba_marseille","lat":43.23152,"lon":5.437153,"is_reserved":false,"is_disabled":false,"rental_uris":{"android":"levelo://app?vid=5f75fc59-ca0f-4412-acdb-852e0b310194","ios":"levelo://app?vid=5f75fc59-ca0f-4412-acdb-852e0b310194"},"vehicle_type_id":"4","last_reported":1774435095,"current_range_meters":6000,"station_id":"ce4bhmp2rcd13ifvqgog","pricing_plan_id":"cebpf4jnsgd1na2vs0mg"},{"bike_id":"92bbf4bb-8523-4849-8605-919c145be412","system_id":"levelo_inurba_marseille","lat":43.30151,"lon":5.37421,"is_reserved":false,"is_disabled":false,"rental_uris":{"android":"levelo://app?vid=92bbf4bb-8523-4849-8605-919c145be412","ios":"levelo://app?vid=92bbf4bb-8523-4849-8605-919c145be412"},"vehicle_type_id":"4","last_reported":1774435095,"current_range_meters":6000,"station_id":"ce4bgs92rcd13ifvqcc0","pricing_plan_id":"cebpf4jnsgd1na2vs0mg"},{"bike_id":"a925be4f-af4d-4c6c-804d-cf6aef5dd66c","system_id":"levelo_inurba_marseille","lat":43.31107,"lon":5.3778,"is_reserved":false,"is_disabled":false,"rental_uris":{"android":"levelo://app?vid=a925be4f-af4d-4c6c-804d-cf6aef5dd66c","ios":"levelo://app?vid=a925be4f-af4d-4c6c-804d-cf6aef5dd66c"},"vehicle_type_id":"4","last_reported":1774435095,"current_range_meters":6400,"station_id":"ce4bgt92rcd13ifvqcg0","pricing_plan_id":"cebpf4jnsgd1na2vs0mg"},{"bike_id":"fbe5bfea-dbdd-42c2-908b-8c935a9fcf5e","system_id":"levelo_inurba_marseille","lat":43.22572,"lon":5.41612,"is_reserved":false,"is_disabled":false,"rental_uris":{"android":"levelo://app?vid=fbe5bfea-dbdd-42c2-908b-8c935a9fcf5e","ios":"levelo://app?vid=fbe5bfea-dbdd-42c2-908b-8c935a9fcf5e"},"vehicle_type_id":"4","last_reported":1774435095,"current_range_meters":6400,"station_id":"st_d2o4gvlbi1j2169b742g","pricing_plan_id":"cebpf4jnsgd1na2vs0mg"},{"bike_id":"4cb2ccef-678b-4532-81df-4f2781dabfb7","system_id":"levelo_inurba_marseille","lat":43.28536,"lon":5.44092,"is_reserved":false,"is_disabled":false,"rental_uris":{"android":"levelo://app?vid=4cb2ccef-678b-4532-81df-4f2781dabfb7","ios":"levelo://app?vid=4cb2ccef-678b-4532-81df-4f2781dabfb7"},"vehicle_type_id":"4","last_reported":1774435095,"current_range_meters":6400,"station_id":"st_d3j3df2ikq2c7380ej80","pricing_plan_id":"cebpf4jnsgd1na2vs0mg"},{"bike_id":"715aaeb5-0d16-47e0-ba84-f56328a24f5b","system_id":"levelo_inurba_marseille","lat":43.29895,"lon":5.43661,"is_reserved":false,"is_disabled":false,"rental_uris":{"android":"levelo://app?vid=715aaeb5-0d16-47e0-ba84-f56328a24f5b","ios":"levelo://app?vid=715aaeb5-0d16-47e0-ba84-f56328a24f5b"},"vehicle_type_id":"4","last_reported":1774435095,"current_range_meters":6800,"station_id":"ce4bhpp2rcd13ifvqhfg","pricing_plan_id":"cebpf4jnsgd1na2vs0mg"},{"bike_id":"ac3e0d98-fbe7-4fb4-ac62-e36d8710e9ef","system_id":"levelo_inurba_marseille","lat":43.3014,"lon":5.38066,"is_reserved":false,"is_disabled":false,"rental_uris":{"android":"levelo://app?vid=ac3e0d98-fbe7-4fb4-ac62-e36d8710e9ef","ios":"levelo://app?vid=ac3e0d98-fbe7-4fb4-ac62-e36d8710e9ef"},"vehicle_type_id":"4","last_reported":1774435095,"current_range_meters":6800,"station_id":"ce4bgjp2rcd13ifvqbh0","pricing_plan_id":"cebpf4jnsgd1na2vs0mg"},{"bike_id":"f4e12de3-12ee-449c-bb7b-82b4b799a0fa","system_id":"levelo_inurba_marseille","lat":43.246511,"lon":5.388933,"is_reserved":false,"is_disabled":true,"rental_uris":{"android":"levelo://app?vid=f4e12de3-12ee-449c-bb7b-82b4b799a0fa","ios":"levelo://app?vid=f4e12de3-12ee-449c-bb7b-82b4b799a0fa"},"vehicle_type_id":"4","last_reported":1774435095,"current_range_meters":6800,"station_id":"ce4bgg92rcd13ifvqb30","pricing_plan_id":"cebpf4jnsgd1na2vs0mg"},{"bike_id":"3e359a89-6259-43ce-94e2-6783f3c71446","system_id":"levelo_inurba_marseille","lat":43.30964,"lon":5.39042,"is_reserved":false,"is_disabled":false,"rental_uris":{"android":"levelo://app?vid=3e359a89-6259-43ce-94e2-6783f3c71446","ios":"levelo://app?vid=3e359a89-6259-43ce-94e2-6783f3c71446"},"vehicle_type_id":"4","last_reported":1774435095,"current_range_meters":6800,"station_id":"ce4bgup2rcd13ifvqco0","pricing_plan_id":"cebpf4jnsgd1na2vs0mg"},{"bike_id":"13f9f031-67ea-407a-a66e-c4b749576cd4","system_id":"levelo_inurba_marseille","lat":43.23947,"lon":5.36631,"is_reserved":false,"is_disabled":false,"rental_uris":{"android":"levelo://app?vid=13f9f031-67ea-407a-a66e-c4b749576cd4","ios":"levelo://app?vid=13f9f031-67ea-407a-a66e-c4b749576cd4"},"vehicle_type_id":"4","last_reported":1774435095,"current_range_meters":6800,"station_id":"ce4bhi12rcd13ifvqfp0","pricing_plan_id":"cebpf4jnsgd1na2vs0mg"},{"bike_id":"7212c6ba-6dfd-4545-9588-72b468573d82","system_id":"levelo_inurba_marseille","lat":43.2495,"lon":5.40495,"is_reserved":false,"is_disabled":false,"rental_uris":{"android":"levelo://app?vid=7212c6ba-6dfd-4545-9588-72b468573d82","ios":"levelo://app?vid=7212c6ba-6dfd-4545-9588-72b468573d82"},"vehicle_type_id":"4","last_reported":1774435095,"current_range_meters":6800,"station_id":"st_d2ngiaodas8pm72gd1h0","pricing_plan_id":"cebpf4jnsgd1na2vs0mg"},{"bike_id":"5487f2c1-c4a8-4daf-8490-88d7b84744cf","system_id":"levelo_inurba_marseille","lat":43.30302,"lon":5.36914,"is_reserved":false,"is_disabled":false,"rental_uris":{"android":"levelo://app?vid=5487f2c1-c4a8-4daf-8490-88d7b84744cf","ios":"levelo://app?vid=5487f2c1-c4a8-4daf-8490-88d7b84744cf"},"vehicle_type_id":"4","last_reported":1774435095,"current_range_meters":6800,"station_id":"ce4bgqh2rcd13ifvqc5g","pricing_plan_id":"cebpf4jnsgd1na2vs0mg"},{"bike_id":"184fae72-6b8f-4e2a-b6b3-743e92a240cb","system_id":"levelo_inurba_marseille","lat":43.25331,"lon":5.42175,"is_reserved":false,"is_disabled":false,"rental_uris":{"android":"levelo://app?vid=184fae72-6b8f-4e2a-b6b3-743e92a240cb","ios":"levelo://app?vid=184fae72-6b8f-4e2a-b6b3-743e92a240cb"},"vehicle_type_id":"4","last_reported":1774435095,"current_range_meters":6800,"station_id":"st_d2m65c5bi1j21697t3ng","pricing_plan_id":"cebpf4jnsgd1na2vs0mg"},{"bike_id":"21a45244-c1c4-423b-9d37-4deb92a4a9b7","system_id":"levelo_inurba_marseille","lat":43.31051,"lon":5.37193,"is_reserved":false,"is_disabled":false,"rental_uris":{"android":"levelo://app?vid=21a45244-c1c4-423b-9d37-4deb92a4a9b7","ios":"levelo://app?vid=21a45244-c1c4-423b-9d37-4deb92a4a9b7"},"vehicle_type_id":"4","last_reported":1774435095,"current_range_meters":6800,"station_id":"st_d4kl2rp97mjs73e7tdfg","pricing_plan_id":"cebpf4jnsgd1na2vs0mg"},{"bike_id":"ebc876da-4f21-4c21-baf3-3ac16bfccd97","system_id":"levelo_inurba_marseille","lat":43.29024,"lon":5.40008,"is_reserved":false,"is_disabled":false,"rental_uris":{"android":"levelo://app?vid=ebc876da-4f21-4c21-baf3-3ac16bfccd97","ios":"levelo://app?vid=ebc876da-4f21-4c21-baf3-3ac16bfccd97"},"vehicle_type_id":"4","last_reported":1774435095,"current_range_meters":6800,"station_id":"ce4bh392rcd13ifvqdm0","pricing_plan_id":"cebpf4jnsgd1na2vs0mg"},{"bike_id":"0054f337-d193-45e8-a395-56845f1fff96","system_id":"levelo_inurba_marseille","lat":43.23811,"lon":5.36637,"is_reserved":false,"is_disabled":false,"rental_uris":{"android":"levelo://app?vid=0054f337-d193-45e8-a395-56845f1fff96","ios":"levelo://app?vid=0054f337-d193-45e8-a395-56845f1fff96"},"vehicle_type_id":"4","last_reported":1774435095,"current_range_meters":6800,"station_id":"st_d3nk18o9ro0c73en2l3g","pricing_plan_id":"cebpf4jnsgd1na2vs0mg"},{"bike_id":"aae792bd-1c8a-454d-ba57-45007311d229","system_id":"levelo_inurba_marseille","lat":43.22556,"lon":5.4163,"is_reserved":false,"is_disabled":false,"rental_uris":{"android":"levelo://app?vid=aae792bd-1c8a-454d-ba57-45007311d229","ios":"levelo://app?vid=aae792bd-1c8a-454d-ba57-45007311d229"},"vehicle_type_id":"4","last_reported":1774435095,"current_range_meters":6800,"station_id":"st_d2o4gvlbi1j2169b742g","pricing_plan_id":"cebpf4jnsgd1na2vs0mg"},{"bike_id":"10da4574-f2d9-4ae1-91ba-9a914cc4e851","system_id":"levelo_inurba_marseille","lat":43.23881,"lon":5.37476,"is_reserved":false,"is_disabled":false,"rental_uris":{"android":"levelo://app?vid=10da4574-f2d9-4ae1-91ba-9a914cc4e851","ios":"levelo://app?vid=10da4574-f2d9-4ae1-91ba-9a914cc4e851"},"vehicle_type_id":"4","last_reported":1774435095,"current_range_meters":6800,"station_id":"st_d6sm7csbq4hs73f8fpjg","pricing_plan_id":"cebpf4jnsgd1na2vs0mg"},{"bike_id":"3d6b74bf-0dd6-4dac-86ad-507ab2608c12","system_id":"levelo_inurba_marseille","lat":43.30143,"lon":5.38063,"is_reserved":false,"is_disabled":false,"rental_uris":{"android":"levelo://app?vid=3d6b74bf-0dd6-4dac-86ad-507ab2608c12","ios":"levelo://app?vid=3d6b74bf-0dd6-4dac-86ad-507ab2608c12"},"vehicle_type_id":"4","last_reported":1774435095,"current_range_meters":6800,"station_id":"ce4bgjp2rcd13ifvqbh0","pricing_plan_id":"cebpf4jnsgd1na2vs0mg"},{"bike_id":"41765925-c912-4b9e-8534-d733626e14d3","system_id":"levelo_inurba_marseille","lat":43.29286,"lon":5.38029,"is_reserved":false,"is_disabled":false,"rental_uris":{"android":"levelo://app?vid=41765925-c912-4b9e-8534-d733626e14d3","ios":"levelo://app?vid=41765925-c912-4b9e-8534-d733626e14d3"},"vehicle_type_id":"4","last_reported":1774435095,"current_range_meters":6800,"station_id":"","pricing_plan_id":"cebpf4jnsgd1na2vs0mg"},{"bike_id":"21212254-e5a0-4af6-a45f-ed4c631ca773","system_id":"levelo_inurba_marseille","lat":43.25518,"lon":5.37659,"is_reserved":false,"is_disabled":false,"rental_uris":{"android":"levelo://app?vid=21212254-e5a0-4af6-a45f-ed4c631ca773","ios":"levelo://app?vid=21212254-e5a0-4af6-a45f-ed4c631ca773"},"vehicle_type_id":"4","last_reported":1774435095,"current_range_meters":7200,"station_id":"ce4bhh12rcd13ifvqff0","pricing_plan_id":"cebpf4jnsgd1na2vs0mg"},{"bike_id":"c26e2a49-390a-4852-aeea-993ad1a06398","system_id":"levelo_inurba_marseille","lat":43.31892,"lon":5.36805,"is_reserved":false,"is_disabled":false,"rental_uris":{"android":"levelo://app?vid=c26e2a49-390a-4852-aeea-993ad1a06398","ios":"levelo://app?vid=c26e2a49-390a-4852-aeea-993ad1a06398"},"vehicle_type_id":"4","last_reported":1774435095,"current_range_meters":7200,"station_id":"st_d6o2h0d0559c73evc1b0","pricing_plan_id":"cebpf4jnsgd1na2vs0mg"},{"bike_id":"8e77315d-88e4-4eb1-8071-0e263b7fc688","system_id":"levelo_inurba_marseille","lat":43.23882,"lon":5.37472,"is_reserved":false,"is_disabled":false,"rental_uris":{"android":"levelo://app?vid=8e77315d-88e4-4eb1-8071-0e263b7fc688","ios":"levelo://app?vid=8e77315d-88e4-4eb1-8071-0e263b7fc688"},"vehicle_type_id":"4","last_reported":1774435095,"current_range_meters":7200,"station_id":"st_d6sm7csbq4hs73f8fpjg","pricing_plan_id":"cebpf4jnsgd1na2vs0mg"},{"bike_id":"adaf8e00-ca2c-49b5-9b35-6749da32aa87","system_id":"levelo_inurba_marseille","lat":43.33544,"lon":5.37459,"is_reserved":false,"is_disabled":false,"rental_uris":{"android":"levelo://app?vid=adaf8e00-ca2c-49b5-9b35-6749da32aa87","ios":"levelo://app?vid=adaf8e00-ca2c-49b5-9b35-6749da32aa87"},"vehicle_type_id":"4","last_reported":1774435095,"current_range_meters":7200,"station_id":"st_d46tts09ee8s73dlu43g","pricing_plan_id":"cebpf4jnsgd1na2vs0mg"},{"bike_id":"61d5109e-e9d2-457a-bf42-8fd667b83cd3","system_id":"levelo_inurba_marseille","lat":43.30376,"lon":5.42492,"is_reserved":false,"is_disabled":false,"rental_uris":{"android":"levelo://app?vid=61d5109e-e9d2-457a-bf42-8fd667b83cd3","ios":"levelo://app?vid=61d5109e-e9d2-457a-bf42-8fd667b83cd3"},"vehicle_type_id":"4","last_reported":1774435095,"current_range_meters":7200,"station_id":"ce4bhoh2rcd13ifvqh6g","pricing_plan_id":"cebpf4jnsgd1na2vs0mg"},{"bike_id":"e8ba5069-6ba5-4607-ba76-37a602e090e0","system_id":"levelo_inurba_marseille","lat":43.26359,"lon":5.4108,"is_reserved":false,"is_disabled":false,"rental_uris":{"android":"levelo://app?vid=e8ba5069-6ba5-4607-ba76-37a602e090e0","ios":"levelo://app?vid=e8ba5069-6ba5-4607-ba76-37a602e090e0"},"vehicle_type_id":"4","last_reported":1774435095,"current_range_meters":7200,"station_id":"st_d4e5ca6na9uc73bfl5fg","pricing_plan_id":"cebpf4jnsgd1na2vs0mg"},{"bike_id":"5d98c87b-0235-454b-83ae-9eb45b9b238a","system_id":"levelo_inurba_marseille","lat":43.28043,"lon":5.36941,"is_reserved":false,"is_disabled":false,"rental_uris":{"android":"levelo://app?vid=5d98c87b-0235-454b-83ae-9eb45b9b238a","ios":"levelo://app?vid=5d98c87b-0235-454b-83ae-9eb45b9b238a"},"vehicle_type_id":"4","last_reported":1774435095,"current_range_meters":7200,"station_id":"ce4bha12rcd13ifvqef0","pricing_plan_id":"cebpf4jnsgd1na2vs0mg"},{"bike_id":"5c39f7cf-c7f7-4747-b217-e778a50c0011","system_id":"levelo_inurba_marseille","lat":43.29964,"lon":5.37619,"is_reserved":false,"is_disabled":false,"rental_uris":{"android":"levelo://app?vid=5c39f7cf-c7f7-4747-b217-e778a50c0011","ios":"levelo://app?vid=5c39f7cf-c7f7-4747-b217-e778a50c0011"},"vehicle_type_id":"4","last_reported":1774435095,"current_range_meters":7200,"station_id":"","pricing_plan_id":"cebpf4jnsgd1na2vs0mg"},{"bike_id":"1262b9fc-c9ee-49ce-9eb0-515026dcf393","system_id":"levelo_inurba_marseille","lat":43.23891,"lon":5.37477,"is_reserved":false,"is_disabled":false,"rental_uris":{"android":"levelo://app?vid=1262b9fc-c9ee-49ce-9eb0-515026dcf393","ios":"levelo://app?vid=1262b9fc-c9ee-49ce-9eb0-515026dcf393"},"vehicle_type_id":"4","last_reported":1774435095,"current_range_meters":7200,"station_id":"st_d6sm7csbq4hs73f8fpjg","pricing_plan_id":"cebpf4jnsgd1na2vs0mg"},{"bike_id":"c1e92c70-aede-452c-8e8c-6914c0324e0c","system_id":"levelo_inurba_marseille","lat":43.29027,"lon":5.35912,"is_reserved":false,"is_disabled":false,"rental_uris":{"android":"levelo://app?vid=c1e92c70-aede-452c-8e8c-6914c0324e0c","ios":"levelo://app?vid=c1e92c70-aede-452c-8e8c-6914c0324e0c"},"vehicle_type_id":"4","last_reported":1774435095,"current_range_meters":7200,"station_id":"ce4bha92rcd13ifvqeg0","pricing_plan_id":"cebpf4jnsgd1na2vs0mg"},{"bike_id":"f244068a-97ac-4865-b07d-50ca501f7033","system_id":"levelo_inurba_marseille","lat":43.22928,"lon":5.35372,"is_reserved":false,"is_disabled":false,"rental_uris":{"android":"levelo://app?vid=f244068a-97ac-4865-b07d-50ca501f7033","ios":"levelo://app?vid=f244068a-97ac-4865-b07d-50ca501f7033"},"vehicle_type_id":"4","last_reported":1774435095,"current_range_meters":7200,"station_id":"cpo3532slgdg3j2ikp40","pricing_plan_id":"cebpf4jnsgd1na2vs0mg"},{"bike_id":"5ece89f7-1d14-49b1-bf0b-557411e0fe9a","system_id":"levelo_inurba_marseille","lat":43.31043,"lon":5.37181,"is_reserved":false,"is_disabled":false,"rental_uris":{"android":"levelo://app?vid=5ece89f7-1d14-49b1-bf0b-557411e0fe9a","ios":"levelo://app?vid=5ece89f7-1d14-49b1-bf0b-557411e0fe9a"},"vehicle_type_id":"4","last_reported":1774435095,"current_range_meters":7200,"station_id":"st_d4kl2rp97mjs73e7tdfg","pricing_plan_id":"cebpf4jnsgd1na2vs0mg"},{"bike_id":"19553c20-209c-48bf-8083-1a4fbe2efe04","system_id":"levelo_inurba_marseille","lat":43.30155,"lon":5.38087,"is_reserved":false,"is_disabled":false,"rental_uris":{"android":"levelo://app?vid=19553c20-209c-48bf-8083-1a4fbe2efe04","ios":"levelo://app?vid=19553c20-209c-48bf-8083-1a4fbe2efe04"},"vehicle_type_id":"4","last_reported":1774435095,"current_range_meters":7200,"station_id":"ce4bgjp2rcd13ifvqbh0","pricing_plan_id":"cebpf4jnsgd1na2vs0mg"},{"bike_id":"fa1abd5e-94a8-4b5b-b2da-981c29f0e7e8","system_id":"levelo_inurba_marseille","lat":43.29227,"lon":5.36047,"is_reserved":false,"is_disabled":false,"rental_uris":{"android":"levelo://app?vid=fa1abd5e-94a8-4b5b-b2da-981c29f0e7e8","ios":"levelo://app?vid=fa1abd5e-94a8-4b5b-b2da-981c29f0e7e8"},"vehicle_type_id":"4","last_reported":1774435095,"current_range_meters":7200,"station_id":"ce4bhbh2rcd13ifvqeqg","pricing_plan_id":"cebpf4jnsgd1na2vs0mg"},{"bike_id":"d594e935-ec7a-4a10-af1c-e7aeb3a4a3cc","system_id":"levelo_inurba_marseille","lat":43.25352,"lon":5.42165,"is_reserved":false,"is_disabled":false,"rental_uris":{"android":"levelo://app?vid=d594e935-ec7a-4a10-af1c-e7aeb3a4a3cc","ios":"levelo://app?vid=d594e935-ec7a-4a10-af1c-e7aeb3a4a3cc"},"vehicle_type_id":"4","last_reported":1774435095,"current_range_meters":7200,"station_id":"st_d2m65c5bi1j21697t3ng","pricing_plan_id":"cebpf4jnsgd1na2vs0mg"},{"bike_id":"390642d5-ebc3-4bda-abf8-55b0c8070dc5","system_id":"levelo_inurba_marseille","lat":43.26687,"lon":5.38275,"is_reserved":false,"is_disabled":true,"rental_uris":{"android":"levelo://app?vid=390642d5-ebc3-4bda-abf8-55b0c8070dc5","ios":"levelo://app?vid=390642d5-ebc3-4bda-abf8-55b0c8070dc5"},"vehicle_type_id":"4","last_reported":1774435095,"current_range_meters":8000,"station_id":"ce4bhg92rcd13ifvqf90","pricing_plan_id":"cebpf4jnsgd1na2vs0mg"},{"bike_id":"89673b48-b93e-49b1-91bc-4a5460ed425e","system_id":"levelo_inurba_marseille","lat":43.29893,"lon":5.43674,"is_reserved":false,"is_disabled":false,"rental_uris":{"android":"levelo://app?vid=89673b48-b93e-49b1-91bc-4a5460ed425e","ios":"levelo://app?vid=89673b48-b93e-49b1-91bc-4a5460ed425e"},"vehicle_type_id":"4","last_reported":1774435095,"current_range_meters":8000,"station_id":"ce4bhpp2rcd13ifvqhfg","pricing_plan_id":"cebpf4jnsgd1na2vs0mg"},{"bike_id":"484f2abe-81d9-4c3a-92bb-99d4e164fc66","system_id":"levelo_inurba_marseille","lat":43.27506,"lon":5.41601,"is_reserved":false,"is_disabled":false,"rental_uris":{"android":"levelo://app?vid=484f2abe-81d9-4c3a-92bb-99d4e164fc66","ios":"levelo://app?vid=484f2abe-81d9-4c3a-92bb-99d4e164fc66"},"vehicle_type_id":"4","last_reported":1774435095,"current_range_meters":8000,"station_id":"st_d6im8g6chgec73a5pndg","pricing_plan_id":"cebpf4jnsgd1na2vs0mg"},{"bike_id":"1329922b-2eac-4b94-9a1e-78982731407d","system_id":"levelo_inurba_marseille","lat":43.24386,"lon":5.37063,"is_reserved":false,"is_disabled":false,"rental_uris":{"android":"levelo://app?vid=1329922b-2eac-4b94-9a1e-78982731407d","ios":"levelo://app?vid=1329922b-2eac-4b94-9a1e-78982731407d"},"vehicle_type_id":"4","last_reported":1774435095,"current_range_meters":8000,"station_id":"ce4bhhh2rcd13ifvqfk0","pricing_plan_id":"cebpf4jnsgd1na2vs0mg"},{"bike_id":"165a6e23-b51b-494f-8311-42921e9991e2","system_id":"levelo_inurba_marseille","lat":43.24803,"lon":5.37457,"is_reserved":false,"is_disabled":false,"rental_uris":{"android":"levelo://app?vid=165a6e23-b51b-494f-8311-42921e9991e2","ios":"levelo://app?vid=165a6e23-b51b-494f-8311-42921e9991e2"},"vehicle_type_id":"4","last_reported":1774435095,"current_range_meters":8000,"station_id":"ce4bhgh2rcd13ifvqfb0","pricing_plan_id":"cebpf4jnsgd1na2vs0mg"},{"bike_id":"caf99c90-512b-4068-ace7-e50485e87cdf","system_id":"levelo_inurba_marseille","lat":43.29268,"lon":5.36853,"is_reserved":false,"is_disabled":false,"rental_uris":{"android":"levelo://app?vid=caf99c90-512b-4068-ace7-e50485e87cdf","ios":"levelo://app?vid=caf99c90-512b-4068-ace7-e50485e87cdf"},"vehicle_type_id":"4","last_reported":1774435095,"current_range_meters":8000,"station_id":"ce4bhbp2rcd13ifvqesg","pricing_plan_id":"cebpf4jnsgd1na2vs0mg"},{"bike_id":"18adfd8d-4070-4d1a-8a22-a62bbb566b9b","system_id":"levelo_inurba_marseille","lat":43.3095,"lon":5.39039,"is_reserved":false,"is_disabled":false,"rental_uris":{"android":"levelo://app?vid=18adfd8d-4070-4d1a-8a22-a62bbb566b9b","ios":"levelo://app?vid=18adfd8d-4070-4d1a-8a22-a62bbb566b9b"},"vehicle_type_id":"4","last_reported":1774435095,"current_range_meters":8000,"station_id":"ce4bgup2rcd13ifvqco0","pricing_plan_id":"cebpf4jnsgd1na2vs0mg"},{"bike_id":"01b617dc-b934-4c19-9308-d4e08d966e93","system_id":"levelo_inurba_marseille","lat":43.25869,"lon":5.399,"is_reserved":false,"is_disabled":false,"rental_uris":{"android":"levelo://app?vid=01b617dc-b934-4c19-9308-d4e08d966e93","ios":"levelo://app?vid=01b617dc-b934-4c19-9308-d4e08d966e93"},"vehicle_type_id":"4","last_reported":1774435095,"current_range_meters":8000,"station_id":"ce4bhl92rcd13ifvqghg","pricing_plan_id":"cebpf4jnsgd1na2vs0mg"},{"bike_id":"e73aa5c4-587d-43ed-8ac6-1108384813a2","system_id":"levelo_inurba_marseille","lat":43.27915,"lon":5.39561,"is_reserved":false,"is_disabled":true,"rental_uris":{"android":"levelo://app?vid=e73aa5c4-587d-43ed-8ac6-1108384813a2","ios":"levelo://app?vid=e73aa5c4-587d-43ed-8ac6-1108384813a2"},"vehicle_type_id":"4","last_reported":1774435095,"current_range_meters":8000,"station_id":"ce4bhf92rcd13ifvqf40","pricing_plan_id":"cebpf4jnsgd1na2vs0mg"},{"bike_id":"55f38c8e-1f2a-4c56-a950-839284d0263b","system_id":"levelo_inurba_marseille","lat":43.26681,"lon":5.38265,"is_reserved":false,"is_disabled":false,"rental_uris":{"android":"levelo://app?vid=55f38c8e-1f2a-4c56-a950-839284d0263b","ios":"levelo://app?vid=55f38c8e-1f2a-4c56-a950-839284d0263b"},"vehicle_type_id":"4","last_reported":1774435095,"current_range_meters":8000,"station_id":"ce4bhhp2rcd13ifvqfm0","pricing_plan_id":"cebpf4jnsgd1na2vs0mg"},{"bike_id":"7304ae5a-0589-4c83-a07f-dc821a35d7a1","system_id":"levelo_inurba_marseille","lat":43.30183,"lon":5.3808,"is_reserved":false,"is_disabled":true,"rental_uris":{"android":"levelo://app?vid=7304ae5a-0589-4c83-a07f-dc821a35d7a1","ios":"levelo://app?vid=7304ae5a-0589-4c83-a07f-dc821a35d7a1"},"vehicle_type_id":"4","last_reported":1774435095,"current_range_meters":8000,"station_id":"ce4bgjp2rcd13ifvqbh0","pricing_plan_id":"cebpf4jnsgd1na2vs0mg"},{"bike_id":"81afbade-9b61-4865-965d-d9c81a599521","system_id":"levelo_inurba_marseille","lat":43.23781,"lon":5.36626,"is_reserved":false,"is_disabled":false,"rental_uris":{"android":"levelo://app?vid=81afbade-9b61-4865-965d-d9c81a599521","ios":"levelo://app?vid=81afbade-9b61-4865-965d-d9c81a599521"},"vehicle_type_id":"4","last_reported":1774435095,"current_range_meters":8000,"station_id":"st_d3nk18o9ro0c73en2l3g","pricing_plan_id":"cebpf4jnsgd1na2vs0mg"},{"bike_id":"acaf303b-3d1f-4ac8-8ccd-91b406f198fa","system_id":"levelo_inurba_marseille","lat":43.24073,"lon":5.37766,"is_reserved":false,"is_disabled":false,"rental_uris":{"android":"levelo://app?vid=acaf303b-3d1f-4ac8-8ccd-91b406f198fa","ios":"levelo://app?vid=acaf303b-3d1f-4ac8-8ccd-91b406f198fa"},"vehicle_type_id":"4","last_reported":1774435095,"current_range_meters":8000,"station_id":"ce4bhnp2rcd13ifvqgvg","pricing_plan_id":"cebpf4jnsgd1na2vs0mg"},{"bike_id":"2f430c62-15bb-430c-969c-56b5339d66a3","system_id":"levelo_inurba_marseille","lat":43.2855,"lon":5.44081,"is_reserved":false,"is_disabled":false,"rental_uris":{"android":"levelo://app?vid=2f430c62-15bb-430c-969c-56b5339d66a3","ios":"levelo://app?vid=2f430c62-15bb-430c-969c-56b5339d66a3"},"vehicle_type_id":"4","last_reported":1774435095,"current_range_meters":8000,"station_id":"st_d3j3df2ikq2c7380ej80","pricing_plan_id":"cebpf4jnsgd1na2vs0mg"},{"bike_id":"0df6d16f-36d4-42c1-8335-b8a697e6bb13","system_id":"levelo_inurba_marseille","lat":43.29563,"lon":5.3753,"is_reserved":false,"is_disabled":false,"rental_uris":{"android":"levelo://app?vid=0df6d16f-36d4-42c1-8335-b8a697e6bb13","ios":"levelo://app?vid=0df6d16f-36d4-42c1-8335-b8a697e6bb13"},"vehicle_type_id":"4","last_reported":1774435095,"current_range_meters":8400,"station_id":"ce4bgh92rcd13ifvqb50","pricing_plan_id":"cebpf4jnsgd1na2vs0mg"},{"bike_id":"7bd56366-368c-4244-8c16-7c2a34fab141","system_id":"levelo_inurba_marseille","lat":43.26197,"lon":5.37479,"is_reserved":false,"is_disabled":false,"rental_uris":{"android":"levelo://app?vid=7bd56366-368c-4244-8c16-7c2a34fab141","ios":"levelo://app?vid=7bd56366-368c-4244-8c16-7c2a34fab141"},"vehicle_type_id":"4","last_reported":1774435095,"current_range_meters":8400,"station_id":"ce4bhgp2rcd13ifvqfc0","pricing_plan_id":"cebpf4jnsgd1na2vs0mg"},{"bike_id":"417a4fbc-81bf-4aeb-be94-9de2d5d83e46","system_id":"levelo_inurba_marseille","lat":43.27318,"lon":5.39088,"is_reserved":false,"is_disabled":false,"rental_uris":{"android":"levelo://app?vid=417a4fbc-81bf-4aeb-be94-9de2d5d83e46","ios":"levelo://app?vid=417a4fbc-81bf-4aeb-be94-9de2d5d83e46"},"vehicle_type_id":"4","last_reported":1774435095,"current_range_meters":8400,"station_id":"ce4bhgp2rcd13ifvqfe0","pricing_plan_id":"cebpf4jnsgd1na2vs0mg"},{"bike_id":"f5482640-f0e8-4788-b049-15ff903f9080","system_id":"levelo_inurba_marseille","lat":43.30542,"lon":5.3655,"is_reserved":false,"is_disabled":false,"rental_uris":{"android":"levelo://app?vid=f5482640-f0e8-4788-b049-15ff903f9080","ios":"levelo://app?vid=f5482640-f0e8-4788-b049-15ff903f9080"},"vehicle_type_id":"4","last_reported":1774435095,"current_range_meters":8400,"station_id":"ce4bgs12rcd13ifvqcag","pricing_plan_id":"cebpf4jnsgd1na2vs0mg"},{"bike_id":"db8e1c36-1d9c-44d2-bc2d-f91041c6fca2","system_id":"levelo_inurba_marseille","lat":43.28442,"lon":5.45783,"is_reserved":false,"is_disabled":false,"rental_uris":{"android":"levelo://app?vid=db8e1c36-1d9c-44d2-bc2d-f91041c6fca2","ios":"levelo://app?vid=db8e1c36-1d9c-44d2-bc2d-f91041c6fca2"},"vehicle_type_id":"4","last_reported":1774435095,"current_range_meters":8400,"station_id":"","pricing_plan_id":"cebpf4jnsgd1na2vs0mg"},{"bike_id":"aa929685-e4dd-4a31-a1c6-979463fa81a3","system_id":"levelo_inurba_marseille","lat":43.28483,"lon":5.48414,"is_reserved":false,"is_disabled":false,"rental_uris":{"android":"levelo://app?vid=aa929685-e4dd-4a31-a1c6-979463fa81a3","ios":"levelo://app?vid=aa929685-e4dd-4a31-a1c6-979463fa81a3"},"vehicle_type_id":"4","last_reported":1774435095,"current_range_meters":8400,"station_id":"st_d3svhcjqgbts73a3dn0g","pricing_plan_id":"cebpf4jnsgd1na2vs0mg"},{"bike_id":"76874935-a550-4b44-90a3-28eb485c749a","system_id":"levelo_inurba_marseille","lat":43.29621,"lon":5.37146,"is_reserved":false,"is_disabled":true,"rental_uris":{"android":"levelo://app?vid=76874935-a550-4b44-90a3-28eb485c749a","ios":"levelo://app?vid=76874935-a550-4b44-90a3-28eb485c749a"},"vehicle_type_id":"4","last_reported":1774435095,"current_range_meters":8400,"station_id":"ce4bgnh2rcd13ifvqc0g","pricing_plan_id":"cebpf4jnsgd1na2vs0mg"},{"bike_id":"b9a275c9-d51f-4f11-a776-e728aae18c62","system_id":"levelo_inurba_marseille","lat":43.25357,"lon":5.4216,"is_reserved":false,"is_disabled":false,"rental_uris":{"android":"levelo://app?vid=b9a275c9-d51f-4f11-a776-e728aae18c62","ios":"levelo://app?vid=b9a275c9-d51f-4f11-a776-e728aae18c62"},"vehicle_type_id":"4","last_reported":1774435095,"current_range_meters":8400,"station_id":"st_d2m65c5bi1j21697t3ng","pricing_plan_id":"cebpf4jnsgd1na2vs0mg"},{"bike_id":"9204ae08-1e25-4ebc-8994-1ec59cf28c4b","system_id":"levelo_inurba_marseille","lat":43.27412,"lon":5.39404,"is_reserved":false,"is_disabled":false,"rental_uris":{"android":"levelo://app?vid=9204ae08-1e25-4ebc-8994-1ec59cf28c4b","ios":"levelo://app?vid=9204ae08-1e25-4ebc-8994-1ec59cf28c4b"},"vehicle_type_id":"4","last_reported":1774435095,"current_range_meters":8400,"station_id":"ce4bhdp2rcd13ifvqf20","pricing_plan_id":"cebpf4jnsgd1na2vs0mg"},{"bike_id":"0b833aa7-7a63-4dd9-828e-9739b1e8aae7","system_id":"levelo_inurba_marseille","lat":43.30953,"lon":5.39023,"is_reserved":false,"is_disabled":false,"rental_uris":{"android":"levelo://app?vid=0b833aa7-7a63-4dd9-828e-9739b1e8aae7","ios":"levelo://app?vid=0b833aa7-7a63-4dd9-828e-9739b1e8aae7"},"vehicle_type_id":"4","last_reported":1774435095,"current_range_meters":8400,"station_id":"ce4bgup2rcd13ifvqco0","pricing_plan_id":"cebpf4jnsgd1na2vs0mg"},{"bike_id":"39945977-9066-43d3-a185-a18f02027ae1","system_id":"levelo_inurba_marseille","lat":43.29792,"lon":5.38098,"is_reserved":false,"is_disabled":false,"rental_uris":{"android":"levelo://app?vid=39945977-9066-43d3-a185-a18f02027ae1","ios":"levelo://app?vid=39945977-9066-43d3-a185-a18f02027ae1"},"vehicle_type_id":"4","last_reported":1774435095,"current_range_meters":8400,"station_id":"ce4bgip2rcd13ifvqbb0","pricing_plan_id":"cebpf4jnsgd1na2vs0mg"},{"bike_id":"d8b60c7c-b53e-45d1-8c9f-c33181d289d2","system_id":"levelo_inurba_marseille","lat":43.29255,"lon":5.40905,"is_reserved":false,"is_disabled":false,"rental_uris":{"android":"levelo://app?vid=d8b60c7c-b53e-45d1-8c9f-c33181d289d2","ios":"levelo://app?vid=d8b60c7c-b53e-45d1-8c9f-c33181d289d2"},"vehicle_type_id":"4","last_reported":1774435095,"current_range_meters":8400,"station_id":"ce4bh192rcd13ifvqdc0","pricing_plan_id":"cebpf4jnsgd1na2vs0mg"},{"bike_id":"5a281350-5b94-4f34-bcb3-e1e195bb43d3","system_id":"levelo_inurba_marseille","lat":43.25865,"lon":5.39906,"is_reserved":false,"is_disabled":false,"rental_uris":{"android":"levelo://app?vid=5a281350-5b94-4f34-bcb3-e1e195bb43d3","ios":"levelo://app?vid=5a281350-5b94-4f34-bcb3-e1e195bb43d3"},"vehicle_type_id":"4","last_reported":1774435095,"current_range_meters":8400,"station_id":"ce4bhl92rcd13ifvqghg","pricing_plan_id":"cebpf4jnsgd1na2vs0mg"},{"bike_id":"451e822b-d17c-41b3-aa86-e9da4e66ded2","system_id":"levelo_inurba_marseille","lat":43.23966,"lon":5.3663,"is_reserved":false,"is_disabled":false,"rental_uris":{"android":"levelo://app?vid=451e822b-d17c-41b3-aa86-e9da4e66ded2","ios":"levelo://app?vid=451e822b-d17c-41b3-aa86-e9da4e66ded2"},"vehicle_type_id":"4","last_reported":1774435095,"current_range_meters":8400,"station_id":"ce4bhi12rcd13ifvqfp0","pricing_plan_id":"cebpf4jnsgd1na2vs0mg"},{"bike_id":"a262f43d-85a2-4a30-93dd-8651921757f5","system_id":"levelo_inurba_marseille","lat":43.23153,"lon":5.43709,"is_reserved":false,"is_disabled":false,"rental_uris":{"android":"levelo://app?vid=a262f43d-85a2-4a30-93dd-8651921757f5","ios":"levelo://app?vid=a262f43d-85a2-4a30-93dd-8651921757f5"},"vehicle_type_id":"4","last_reported":1774435095,"current_range_meters":8400,"station_id":"ce4bhmp2rcd13ifvqgog","pricing_plan_id":"cebpf4jnsgd1na2vs0mg"},{"bike_id":"b236ba0f-68b9-4f75-96e1-de33848f6431","system_id":"levelo_inurba_marseille","lat":43.30911,"lon":5.36851,"is_reserved":false,"is_disabled":false,"rental_uris":{"android":"levelo://app?vid=b236ba0f-68b9-4f75-96e1-de33848f6431","ios":"levelo://app?vid=b236ba0f-68b9-4f75-96e1-de33848f6431"},"vehicle_type_id":"4","last_reported":1774435095,"current_range_meters":8400,"station_id":"ce4bgn92rcd13ifvqbvg","pricing_plan_id":"cebpf4jnsgd1na2vs0mg"},{"bike_id":"5a6569a3-b120-40a4-b494-6115b5767341","system_id":"levelo_inurba_marseille","lat":43.290446,"lon":5.399637,"is_reserved":false,"is_disabled":false,"rental_uris":{"android":"levelo://app?vid=5a6569a3-b120-40a4-b494-6115b5767341","ios":"levelo://app?vid=5a6569a3-b120-40a4-b494-6115b5767341"},"vehicle_type_id":"4","last_reported":1774435095,"current_range_meters":8400,"station_id":"ce4bh392rcd13ifvqdm0","pricing_plan_id":"cebpf4jnsgd1na2vs0mg"},{"bike_id":"d6527e0c-15f1-405e-861a-1fda8ef2b0da","system_id":"levelo_inurba_marseille","lat":43.27484,"lon":5.42459,"is_reserved":false,"is_disabled":false,"rental_uris":{"android":"levelo://app?vid=d6527e0c-15f1-405e-861a-1fda8ef2b0da","ios":"levelo://app?vid=d6527e0c-15f1-405e-861a-1fda8ef2b0da"},"vehicle_type_id":"4","last_reported":1774435095,"current_range_meters":8400,"station_id":"","pricing_plan_id":"cebpf4jnsgd1na2vs0mg"},{"bike_id":"03b19331-36bc-44f5-a415-732e42b858c6","system_id":"levelo_inurba_marseille","lat":43.24947,"lon":5.40499,"is_reserved":false,"is_disabled":false,"rental_uris":{"android":"levelo://app?vid=03b19331-36bc-44f5-a415-732e42b858c6","ios":"levelo://app?vid=03b19331-36bc-44f5-a415-732e42b858c6"},"vehicle_type_id":"4","last_reported":1774435095,"current_range_meters":8400,"station_id":"st_d2ngiaodas8pm72gd1h0","pricing_plan_id":"cebpf4jnsgd1na2vs0mg"},{"bike_id":"5ec79b4e-9893-4c40-8854-29e1fdef2ce2","system_id":"levelo_inurba_marseille","lat":43.31895,"lon":5.36812,"is_reserved":false,"is_disabled":false,"rental_uris":{"android":"levelo://app?vid=5ec79b4e-9893-4c40-8854-29e1fdef2ce2","ios":"levelo://app?vid=5ec79b4e-9893-4c40-8854-29e1fdef2ce2"},"vehicle_type_id":"4","last_reported":1774435095,"current_range_meters":8800,"station_id":"st_d6o2h0d0559c73evc1b0","pricing_plan_id":"cebpf4jnsgd1na2vs0mg"},{"bike_id":"2238f30d-c2e0-4d80-a7e7-ce4f2dc94228","system_id":"levelo_inurba_marseille","lat":43.23142,"lon":5.43708,"is_reserved":false,"is_disabled":false,"rental_uris":{"android":"levelo://app?vid=2238f30d-c2e0-4d80-a7e7-ce4f2dc94228","ios":"levelo://app?vid=2238f30d-c2e0-4d80-a7e7-ce4f2dc94228"},"vehicle_type_id":"4","last_reported":1774435095,"current_range_meters":8800,"station_id":"ce4bhmp2rcd13ifvqgog","pricing_plan_id":"cebpf4jnsgd1na2vs0mg"},{"bike_id":"218342cb-e0a0-46c2-9c63-087d0ffa9744","system_id":"levelo_inurba_marseille","lat":43.26368,"lon":5.4108,"is_reserved":false,"is_disabled":false,"rental_uris":{"android":"levelo://app?vid=218342cb-e0a0-46c2-9c63-087d0ffa9744","ios":"levelo://app?vid=218342cb-e0a0-46c2-9c63-087d0ffa9744"},"vehicle_type_id":"4","last_reported":1774435095,"current_range_meters":8800,"station_id":"st_d4e5ca6na9uc73bfl5fg","pricing_plan_id":"cebpf4jnsgd1na2vs0mg"},{"bike_id":"da6972b3-b161-480b-8ef0-1ff556fc7299","system_id":"levelo_inurba_marseille","lat":43.23784,"lon":5.36623,"is_reserved":false,"is_disabled":false,"rental_uris":{"android":"levelo://app?vid=da6972b3-b161-480b-8ef0-1ff556fc7299","ios":"levelo://app?vid=da6972b3-b161-480b-8ef0-1ff556fc7299"},"vehicle_type_id":"4","last_reported":1774435095,"current_range_meters":8800,"station_id":"st_d3nk18o9ro0c73en2l3g","pricing_plan_id":"cebpf4jnsgd1na2vs0mg"},{"bike_id":"a20bca81-a392-424e-a85c-bf79f4eb1a7b","system_id":"levelo_inurba_marseille","lat":43.23802,"lon":5.36632,"is_reserved":false,"is_disabled":false,"rental_uris":{"android":"levelo://app?vid=a20bca81-a392-424e-a85c-bf79f4eb1a7b","ios":"levelo://app?vid=a20bca81-a392-424e-a85c-bf79f4eb1a7b"},"vehicle_type_id":"4","last_reported":1774435095,"current_range_meters":8800,"station_id":"st_d3nk18o9ro0c73en2l3g","pricing_plan_id":"cebpf4jnsgd1na2vs0mg"},{"bike_id":"5fea4591-9536-478c-9dd1-1abddc74092a","system_id":"levelo_inurba_marseille","lat":43.284071,"lon":5.375206,"is_reserved":false,"is_disabled":false,"rental_uris":{"android":"levelo://app?vid=5fea4591-9536-478c-9dd1-1abddc74092a","ios":"levelo://app?vid=5fea4591-9536-478c-9dd1-1abddc74092a"},"vehicle_type_id":"4","last_reported":1774435095,"current_range_meters":8800,"station_id":"ce4bh412rcd13ifvqds0","pricing_plan_id":"cebpf4jnsgd1na2vs0mg"},{"bike_id":"d64c94f3-e268-41de-bac3-5a218887d9b5","system_id":"levelo_inurba_marseille","lat":43.28473,"lon":5.48406,"is_reserved":false,"is_disabled":false,"rental_uris":{"android":"levelo://app?vid=d64c94f3-e268-41de-bac3-5a218887d9b5","ios":"levelo://app?vid=d64c94f3-e268-41de-bac3-5a218887d9b5"},"vehicle_type_id":"4","last_reported":1774435095,"current_range_meters":8800,"station_id":"","pricing_plan_id":"cebpf4jnsgd1na2vs0mg"},{"bike_id":"fdd8bf84-b2fe-4508-9572-06ea662fa5ac","system_id":"levelo_inurba_marseille","lat":43.28473,"lon":5.48397,"is_reserved":false,"is_disabled":false,"rental_uris":{"android":"levelo://app?vid=fdd8bf84-b2fe-4508-9572-06ea662fa5ac","ios":"levelo://app?vid=fdd8bf84-b2fe-4508-9572-06ea662fa5ac"},"vehicle_type_id":"4","last_reported":1774435095,"current_range_meters":8800,"station_id":"","pricing_plan_id":"cebpf4jnsgd1na2vs0mg"},{"bike_id":"9b8ef9d9-2b69-4832-b2af-dff113d7bac1","system_id":"levelo_inurba_marseille","lat":43.27319,"lon":5.39106,"is_reserved":false,"is_disabled":true,"rental_uris":{"android":"levelo://app?vid=9b8ef9d9-2b69-4832-b2af-dff113d7bac1","ios":"levelo://app?vid=9b8ef9d9-2b69-4832-b2af-dff113d7bac1"},"vehicle_type_id":"4","last_reported":1774435095,"current_range_meters":8800,"station_id":"ce4bhgp2rcd13ifvqfe0","pricing_plan_id":"cebpf4jnsgd1na2vs0mg"},{"bike_id":"942ff02c-31c2-4c51-8842-9c7d3c411c98","system_id":"levelo_inurba_marseille","lat":43.26535,"lon":5.37291,"is_reserved":false,"is_disabled":true,"rental_uris":{"android":"levelo://app?vid=942ff02c-31c2-4c51-8842-9c7d3c411c98","ios":"levelo://app?vid=942ff02c-31c2-4c51-8842-9c7d3c411c98"},"vehicle_type_id":"4","last_reported":1774435095,"current_range_meters":8800,"station_id":"ce4bhg12rcd13ifvqf70","pricing_plan_id":"cebpf4jnsgd1na2vs0mg"},{"bike_id":"2726efb4-ce06-4f2f-8065-e4ac3aedc676","system_id":"levelo_inurba_marseille","lat":43.29688,"lon":5.38169,"is_reserved":false,"is_disabled":false,"rental_uris":{"android":"levelo://app?vid=2726efb4-ce06-4f2f-8065-e4ac3aedc676","ios":"levelo://app?vid=2726efb4-ce06-4f2f-8065-e4ac3aedc676"},"vehicle_type_id":"4","last_reported":1774435095,"current_range_meters":8800,"station_id":"","pricing_plan_id":"cebpf4jnsgd1na2vs0mg"},{"bike_id":"46120e68-7222-4af8-b27a-b3a0722d09c6","system_id":"levelo_inurba_marseille","lat":43.28649,"lon":5.36359,"is_reserved":false,"is_disabled":true,"rental_uris":{"android":"levelo://app?vid=46120e68-7222-4af8-b27a-b3a0722d09c6","ios":"levelo://app?vid=46120e68-7222-4af8-b27a-b3a0722d09c6"},"vehicle_type_id":"4","last_reported":1774435095,"current_range_meters":8800,"station_id":"ce4bhah2rcd13ifvqej0","pricing_plan_id":"cebpf4jnsgd1na2vs0mg"},{"bike_id":"c0301021-2f08-47b6-9e26-8b4f22b68f6f","system_id":"levelo_inurba_marseille","lat":43.29718,"lon":5.37699,"is_reserved":false,"is_disabled":false,"rental_uris":{"android":"levelo://app?vid=c0301021-2f08-47b6-9e26-8b4f22b68f6f","ios":"levelo://app?vid=c0301021-2f08-47b6-9e26-8b4f22b68f6f"},"vehicle_type_id":"4","last_reported":1774435095,"current_range_meters":8800,"station_id":"ce4bgkh2rcd13ifvqbl0","pricing_plan_id":"cebpf4jnsgd1na2vs0mg"},{"bike_id":"5840b2c5-76c6-4609-b272-f4b1c1663b3b","system_id":"levelo_inurba_marseille","lat":43.29939,"lon":5.38828,"is_reserved":false,"is_disabled":false,"rental_uris":{"android":"levelo://app?vid=5840b2c5-76c6-4609-b272-f4b1c1663b3b","ios":"levelo://app?vid=5840b2c5-76c6-4609-b272-f4b1c1663b3b"},"vehicle_type_id":"4","last_reported":1774435095,"current_range_meters":8800,"station_id":"","pricing_plan_id":"cebpf4jnsgd1na2vs0mg"},{"bike_id":"565cec5c-5826-41c1-a851-aeaa0920517b","system_id":"levelo_inurba_marseille","lat":43.2408,"lon":5.37752,"is_reserved":false,"is_disabled":false,"rental_uris":{"android":"levelo://app?vid=565cec5c-5826-41c1-a851-aeaa0920517b","ios":"levelo://app?vid=565cec5c-5826-41c1-a851-aeaa0920517b"},"vehicle_type_id":"4","last_reported":1774435095,"current_range_meters":8800,"station_id":"ce4bhnp2rcd13ifvqgvg","pricing_plan_id":"cebpf4jnsgd1na2vs0mg"},{"bike_id":"50fdac31-5e33-4366-8748-02cde82901e6","system_id":"levelo_inurba_marseille","lat":43.23146,"lon":5.43711,"is_reserved":false,"is_disabled":false,"rental_uris":{"android":"levelo://app?vid=50fdac31-5e33-4366-8748-02cde82901e6","ios":"levelo://app?vid=50fdac31-5e33-4366-8748-02cde82901e6"},"vehicle_type_id":"4","last_reported":1774435095,"current_range_meters":8800,"station_id":"ce4bhmp2rcd13ifvqgog","pricing_plan_id":"cebpf4jnsgd1na2vs0mg"},{"bike_id":"8ec4dad8-6468-4a79-836f-e910aa05c835","system_id":"levelo_inurba_marseille","lat":43.24195,"lon":5.39714,"is_reserved":false,"is_disabled":false,"rental_uris":{"android":"levelo://app?vid=8ec4dad8-6468-4a79-836f-e910aa05c835","ios":"levelo://app?vid=8ec4dad8-6468-4a79-836f-e910aa05c835"},"vehicle_type_id":"4","last_reported":1774435095,"current_range_meters":8800,"station_id":"ce4bhn12rcd13ifvqgpg","pricing_plan_id":"cebpf4jnsgd1na2vs0mg"},{"bike_id":"93898619-ec06-4199-91fd-e195b738998f","system_id":"levelo_inurba_marseille","lat":43.24172,"lon":5.36397,"is_reserved":false,"is_disabled":false,"rental_uris":{"android":"levelo://app?vid=93898619-ec06-4199-91fd-e195b738998f","ios":"levelo://app?vid=93898619-ec06-4199-91fd-e195b738998f"},"vehicle_type_id":"4","last_reported":1774435095,"current_range_meters":8800,"station_id":"cpo36qri1sfpv3e86is0","pricing_plan_id":"cebpf4jnsgd1na2vs0mg"},{"bike_id":"a34e3552-82eb-460e-9902-3129e2dfb686","system_id":"levelo_inurba_marseille","lat":43.30323,"lon":5.36893,"is_reserved":false,"is_disabled":false,"rental_uris":{"android":"levelo://app?vid=a34e3552-82eb-460e-9902-3129e2dfb686","ios":"levelo://app?vid=a34e3552-82eb-460e-9902-3129e2dfb686"},"vehicle_type_id":"4","last_reported":1774435095,"current_range_meters":8800,"station_id":"ce4bgqh2rcd13ifvqc5g","pricing_plan_id":"cebpf4jnsgd1na2vs0mg"},{"bike_id":"b9d157e4-adb0-4d64-b93d-349f42c39fcf","system_id":"levelo_inurba_marseille","lat":43.31882,"lon":5.36821,"is_reserved":false,"is_disabled":true,"rental_uris":{"android":"levelo://app?vid=b9d157e4-adb0-4d64-b93d-349f42c39fcf","ios":"levelo://app?vid=b9d157e4-adb0-4d64-b93d-349f42c39fcf"},"vehicle_type_id":"4","last_reported":1774435095,"current_range_meters":8800,"station_id":"st_d6o2h0d0559c73evc1b0","pricing_plan_id":"cebpf4jnsgd1na2vs0mg"},{"bike_id":"da236239-5972-47c7-9abc-79482f214183","system_id":"levelo_inurba_marseille","lat":43.24075,"lon":5.37761,"is_reserved":false,"is_disabled":false,"rental_uris":{"android":"levelo://app?vid=da236239-5972-47c7-9abc-79482f214183","ios":"levelo://app?vid=da236239-5972-47c7-9abc-79482f214183"},"vehicle_type_id":"4","last_reported":1774435095,"current_range_meters":8800,"station_id":"ce4bhnp2rcd13ifvqgvg","pricing_plan_id":"cebpf4jnsgd1na2vs0mg"},{"bike_id":"5044b12e-abd8-466e-bce3-42e7e294b421","system_id":"levelo_inurba_marseille","lat":43.2734,"lon":5.39082,"is_reserved":false,"is_disabled":false,"rental_uris":{"android":"levelo://app?vid=5044b12e-abd8-466e-bce3-42e7e294b421","ios":"levelo://app?vid=5044b12e-abd8-466e-bce3-42e7e294b421"},"vehicle_type_id":"4","last_reported":1774435095,"current_range_meters":9200,"station_id":"ce4bhgp2rcd13ifvqfe0","pricing_plan_id":"cebpf4jnsgd1na2vs0mg"},{"bike_id":"9a8960b3-d25e-4551-8e28-b39f62740562","system_id":"levelo_inurba_marseille","lat":43.33541,"lon":5.37478,"is_reserved":false,"is_disabled":false,"rental_uris":{"android":"levelo://app?vid=9a8960b3-d25e-4551-8e28-b39f62740562","ios":"levelo://app?vid=9a8960b3-d25e-4551-8e28-b39f62740562"},"vehicle_type_id":"4","last_reported":1774435095,"current_range_meters":9200,"station_id":"st_d46tts09ee8s73dlu43g","pricing_plan_id":"cebpf4jnsgd1na2vs0mg"},{"bike_id":"317d0fae-7d4a-4bfc-a3ad-9d347e3e5200","system_id":"levelo_inurba_marseille","lat":43.27379,"lon":5.36256,"is_reserved":false,"is_disabled":false,"rental_uris":{"android":"levelo://app?vid=317d0fae-7d4a-4bfc-a3ad-9d347e3e5200","ios":"levelo://app?vid=317d0fae-7d4a-4bfc-a3ad-9d347e3e5200"},"vehicle_type_id":"4","last_reported":1774435095,"current_range_meters":9200,"station_id":"ce4bhbh2rcd13ifvqeo0","pricing_plan_id":"cebpf4jnsgd1na2vs0mg"},{"bike_id":"fbdec393-4242-45aa-970f-69e1177a7272","system_id":"levelo_inurba_marseille","lat":43.231946,"lon":5.355527,"is_reserved":false,"is_disabled":false,"rental_uris":{"android":"levelo://app?vid=fbdec393-4242-45aa-970f-69e1177a7272","ios":"levelo://app?vid=fbdec393-4242-45aa-970f-69e1177a7272"},"vehicle_type_id":"4","last_reported":1774435095,"current_range_meters":9200,"station_id":"ce4bhu92rcd13ifvqi70","pricing_plan_id":"cebpf4jnsgd1na2vs0mg"},{"bike_id":"9cfb1ada-f767-4436-81b7-5cff65873025","system_id":"levelo_inurba_marseille","lat":43.29622,"lon":5.37727,"is_reserved":false,"is_disabled":false,"rental_uris":{"android":"levelo://app?vid=9cfb1ada-f767-4436-81b7-5cff65873025","ios":"levelo://app?vid=9cfb1ada-f767-4436-81b7-5cff65873025"},"vehicle_type_id":"4","last_reported":1774435095,"current_range_meters":9200,"station_id":"ce4bgi92rcd13ifvqb90","pricing_plan_id":"cebpf4jnsgd1na2vs0mg"},{"bike_id":"47dd47d3-069b-44b7-9b23-4d51871ff836","system_id":"levelo_inurba_marseille","lat":43.25509,"lon":5.37674,"is_reserved":false,"is_disabled":false,"rental_uris":{"android":"levelo://app?vid=47dd47d3-069b-44b7-9b23-4d51871ff836","ios":"levelo://app?vid=47dd47d3-069b-44b7-9b23-4d51871ff836"},"vehicle_type_id":"4","last_reported":1774435095,"current_range_meters":9200,"station_id":"ce4bhh12rcd13ifvqff0","pricing_plan_id":"cebpf4jnsgd1na2vs0mg"},{"bike_id":"e58da262-73bb-476d-a3cd-348095f82af6","system_id":"levelo_inurba_marseille","lat":43.28279,"lon":5.35082,"is_reserved":false,"is_disabled":false,"rental_uris":{"android":"levelo://app?vid=e58da262-73bb-476d-a3cd-348095f82af6","ios":"levelo://app?vid=e58da262-73bb-476d-a3cd-348095f82af6"},"vehicle_type_id":"4","last_reported":1774435095,"current_range_meters":9200,"station_id":"ce4bhbp2rcd13ifvqerg","pricing_plan_id":"cebpf4jnsgd1na2vs0mg"},{"bike_id":"1b478838-15dd-4b5f-a4d8-ce25228ef5c4","system_id":"levelo_inurba_marseille","lat":43.30151,"lon":5.38099,"is_reserved":false,"is_disabled":false,"rental_uris":{"android":"levelo://app?vid=1b478838-15dd-4b5f-a4d8-ce25228ef5c4","ios":"levelo://app?vid=1b478838-15dd-4b5f-a4d8-ce25228ef5c4"},"vehicle_type_id":"4","last_reported":1774435095,"current_range_meters":9200,"station_id":"ce4bgjp2rcd13ifvqbh0","pricing_plan_id":"cebpf4jnsgd1na2vs0mg"},{"bike_id":"265c1a7e-ea64-47f3-959e-c623f30cf0fd","system_id":"levelo_inurba_marseille","lat":43.211932,"lon":5.350764,"is_reserved":false,"is_disabled":false,"rental_uris":{"android":"levelo://app?vid=265c1a7e-ea64-47f3-959e-c623f30cf0fd","ios":"levelo://app?vid=265c1a7e-ea64-47f3-959e-c623f30cf0fd"},"vehicle_type_id":"4","last_reported":1774435095,"current_range_meters":9200,"station_id":"st_cvj6sg6p6f1abm77japg","pricing_plan_id":"cebpf4jnsgd1na2vs0mg"},{"bike_id":"3a2d7079-a53a-4207-8597-4b5271971c69","system_id":"levelo_inurba_marseille","lat":43.25936,"lon":5.40902,"is_reserved":false,"is_disabled":false,"rental_uris":{"android":"levelo://app?vid=3a2d7079-a53a-4207-8597-4b5271971c69","ios":"levelo://app?vid=3a2d7079-a53a-4207-8597-4b5271971c69"},"vehicle_type_id":"4","last_reported":1774435095,"current_range_meters":9200,"station_id":"ce4bhm92rcd13ifvqglg","pricing_plan_id":"cebpf4jnsgd1na2vs0mg"},{"bike_id":"1b627dd7-d071-4a06-8f09-aadb194ffd03","system_id":"levelo_inurba_marseille","lat":43.30211,"lon":5.38074,"is_reserved":false,"is_disabled":false,"rental_uris":{"android":"levelo://app?vid=1b627dd7-d071-4a06-8f09-aadb194ffd03","ios":"levelo://app?vid=1b627dd7-d071-4a06-8f09-aadb194ffd03"},"vehicle_type_id":"4","last_reported":1774435095,"current_range_meters":9200,"station_id":"","pricing_plan_id":"cebpf4jnsgd1na2vs0mg"},{"bike_id":"b8e36708-9a62-495f-bdb5-2e0d4509c806","system_id":"levelo_inurba_marseille","lat":43.30183,"lon":5.36602,"is_reserved":false,"is_disabled":false,"rental_uris":{"android":"levelo://app?vid=b8e36708-9a62-495f-bdb5-2e0d4509c806","ios":"levelo://app?vid=b8e36708-9a62-495f-bdb5-2e0d4509c806"},"vehicle_type_id":"4","last_reported":1774435095,"current_range_meters":9200,"station_id":"ce4bgrh2rcd13ifvqc8g","pricing_plan_id":"cebpf4jnsgd1na2vs0mg"},{"bike_id":"944ccb07-d804-4fc6-a8e4-922126b7215b","system_id":"levelo_inurba_marseille","lat":43.29958,"lon":5.37175,"is_reserved":false,"is_disabled":false,"rental_uris":{"android":"levelo://app?vid=944ccb07-d804-4fc6-a8e4-922126b7215b","ios":"levelo://app?vid=944ccb07-d804-4fc6-a8e4-922126b7215b"},"vehicle_type_id":"4","last_reported":1774435095,"current_range_meters":9200,"station_id":"ce4bgr92rcd13ifvqc7g","pricing_plan_id":"cebpf4jnsgd1na2vs0mg"},{"bike_id":"0d1752c9-3429-40ed-a487-bb9cb7d22fbc","system_id":"levelo_inurba_marseille","lat":43.21191,"lon":5.3507,"is_reserved":false,"is_disabled":false,"rental_uris":{"android":"levelo://app?vid=0d1752c9-3429-40ed-a487-bb9cb7d22fbc","ios":"levelo://app?vid=0d1752c9-3429-40ed-a487-bb9cb7d22fbc"},"vehicle_type_id":"4","last_reported":1774435095,"current_range_meters":9200,"station_id":"","pricing_plan_id":"cebpf4jnsgd1na2vs0mg"},{"bike_id":"84aa80cd-58bb-494c-ae1e-b9b2f2564c94","system_id":"levelo_inurba_marseille","lat":43.21203,"lon":5.35061,"is_reserved":false,"is_disabled":false,"rental_uris":{"android":"levelo://app?vid=84aa80cd-58bb-494c-ae1e-b9b2f2564c94","ios":"levelo://app?vid=84aa80cd-58bb-494c-ae1e-b9b2f2564c94"},"vehicle_type_id":"4","last_reported":1774435095,"current_range_meters":9200,"station_id":"st_cvj6sg6p6f1abm77japg","pricing_plan_id":"cebpf4jnsgd1na2vs0mg"},{"bike_id":"68574f64-abe4-4afb-a280-27fa21ebd0d5","system_id":"levelo_inurba_marseille","lat":43.25925,"lon":5.40902,"is_reserved":false,"is_disabled":false,"rental_uris":{"android":"levelo://app?vid=68574f64-abe4-4afb-a280-27fa21ebd0d5","ios":"levelo://app?vid=68574f64-abe4-4afb-a280-27fa21ebd0d5"},"vehicle_type_id":"4","last_reported":1774435095,"current_range_meters":9600,"station_id":"ce4bhm92rcd13ifvqglg","pricing_plan_id":"cebpf4jnsgd1na2vs0mg"},{"bike_id":"742ca053-a063-4e48-baca-0cee52277e18","system_id":"levelo_inurba_marseille","lat":43.27069,"lon":5.38317,"is_reserved":false,"is_disabled":true,"rental_uris":{"android":"levelo://app?vid=742ca053-a063-4e48-baca-0cee52277e18","ios":"levelo://app?vid=742ca053-a063-4e48-baca-0cee52277e18"},"vehicle_type_id":"4","last_reported":1774435095,"current_range_meters":9600,"station_id":"st_d3n2fo6cfp8s73cte1j0","pricing_plan_id":"cebpf4jnsgd1na2vs0mg"},{"bike_id":"8da4c177-2bb5-4f4d-ab4e-4d0e548e74fb","system_id":"levelo_inurba_marseille","lat":43.29761,"lon":5.42778,"is_reserved":false,"is_disabled":false,"rental_uris":{"android":"levelo://app?vid=8da4c177-2bb5-4f4d-ab4e-4d0e548e74fb","ios":"levelo://app?vid=8da4c177-2bb5-4f4d-ab4e-4d0e548e74fb"},"vehicle_type_id":"4","last_reported":1774435095,"current_range_meters":9600,"station_id":"st_d3md5207bmas73dh9klg","pricing_plan_id":"cebpf4jnsgd1na2vs0mg"},{"bike_id":"65da9330-c19a-498b-9f24-e99ba36e921a","system_id":"levelo_inurba_marseille","lat":43.30539,"lon":5.36528,"is_reserved":false,"is_disabled":false,"rental_uris":{"android":"levelo://app?vid=65da9330-c19a-498b-9f24-e99ba36e921a","ios":"levelo://app?vid=65da9330-c19a-498b-9f24-e99ba36e921a"},"vehicle_type_id":"4","last_reported":1774435095,"current_range_meters":9600,"station_id":"ce4bgs12rcd13ifvqcag","pricing_plan_id":"cebpf4jnsgd1na2vs0mg"},{"bike_id":"e1353c27-9dbc-409c-b44a-76842076b63d","system_id":"levelo_inurba_marseille","lat":43.28863,"lon":5.42527,"is_reserved":false,"is_disabled":false,"rental_uris":{"android":"levelo://app?vid=e1353c27-9dbc-409c-b44a-76842076b63d","ios":"levelo://app?vid=e1353c27-9dbc-409c-b44a-76842076b63d"},"vehicle_type_id":"4","last_reported":1774435095,"current_range_meters":9600,"station_id":"","pricing_plan_id":"cebpf4jnsgd1na2vs0mg"},{"bike_id":"4baec0fe-6f6b-4464-aa89-969ffff1f201","system_id":"levelo_inurba_marseille","lat":43.283407,"lon":5.3811,"is_reserved":false,"is_disabled":false,"rental_uris":{"android":"levelo://app?vid=4baec0fe-6f6b-4464-aa89-969ffff1f201","ios":"levelo://app?vid=4baec0fe-6f6b-4464-aa89-969ffff1f201"},"vehicle_type_id":"4","last_reported":1774435095,"current_range_meters":9600,"station_id":"ce4bh412rcd13ifvqdr0","pricing_plan_id":"cebpf4jnsgd1na2vs0mg"},{"bike_id":"be0d328d-5560-4744-9601-5542473973cf","system_id":"levelo_inurba_marseille","lat":43.24662,"lon":5.38871,"is_reserved":false,"is_disabled":false,"rental_uris":{"android":"levelo://app?vid=be0d328d-5560-4744-9601-5542473973cf","ios":"levelo://app?vid=be0d328d-5560-4744-9601-5542473973cf"},"vehicle_type_id":"4","last_reported":1774435095,"current_range_meters":9600,"station_id":"ce4bhg12rcd13ifvqf60","pricing_plan_id":"cebpf4jnsgd1na2vs0mg"},{"bike_id":"a41506ee-25ad-42cb-b180-c04302edab31","system_id":"levelo_inurba_marseille","lat":43.29047,"lon":5.37563,"is_reserved":false,"is_disabled":false,"rental_uris":{"android":"levelo://app?vid=a41506ee-25ad-42cb-b180-c04302edab31","ios":"levelo://app?vid=a41506ee-25ad-42cb-b180-c04302edab31"},"vehicle_type_id":"4","last_reported":1774435095,"current_range_meters":9600,"station_id":"ce4bh692rcd13ifvqe90","pricing_plan_id":"cebpf4jnsgd1na2vs0mg"},{"bike_id":"d0012037-b9c2-4a2f-8464-faf3c4343b9c","system_id":"levelo_inurba_marseille","lat":43.29906,"lon":5.38148,"is_reserved":false,"is_disabled":false,"rental_uris":{"android":"levelo://app?vid=d0012037-b9c2-4a2f-8464-faf3c4343b9c","ios":"levelo://app?vid=d0012037-b9c2-4a2f-8464-faf3c4343b9c"},"vehicle_type_id":"4","last_reported":1774435095,"current_range_meters":9600,"station_id":"ce4bgj12rcd13ifvqbc0","pricing_plan_id":"cebpf4jnsgd1na2vs0mg"},{"bike_id":"7c16f493-e129-4963-9bd0-bb90c5a2bc3b","system_id":"levelo_inurba_marseille","lat":43.28858,"lon":5.42509,"is_reserved":false,"is_disabled":false,"rental_uris":{"android":"levelo://app?vid=7c16f493-e129-4963-9bd0-bb90c5a2bc3b","ios":"levelo://app?vid=7c16f493-e129-4963-9bd0-bb90c5a2bc3b"},"vehicle_type_id":"4","last_reported":1774435095,"current_range_meters":9600,"station_id":"ce4bha92rcd13ifvqeg0","pricing_plan_id":"cebpf4jnsgd1na2vs0mg"},{"bike_id":"03a91464-7c37-4bfe-a5b1-0ae1789a67b5","system_id":"levelo_inurba_marseille","lat":43.32664,"lon":5.40992,"is_reserved":false,"is_disabled":false,"rental_uris":{"android":"levelo://app?vid=03a91464-7c37-4bfe-a5b1-0ae1789a67b5","ios":"levelo://app?vid=03a91464-7c37-4bfe-a5b1-0ae1789a67b5"},"vehicle_type_id":"4","last_reported":1774435095,"current_range_meters":9600,"station_id":"ce4bhpp2rcd13ifvqhgg","pricing_plan_id":"cebpf4jnsgd1na2vs0mg"},{"bike_id":"85b020b0-8f8d-484e-b24c-da324266cc63","system_id":"levelo_inurba_marseille","lat":43.243901,"lon":5.37066,"is_reserved":false,"is_disabled":false,"rental_uris":{"android":"levelo://app?vid=85b020b0-8f8d-484e-b24c-da324266cc63","ios":"levelo://app?vid=85b020b0-8f8d-484e-b24c-da324266cc63"},"vehicle_type_id":"4","last_reported":1774435095,"current_range_meters":9600,"station_id":"ce4bhhh2rcd13ifvqfk0","pricing_plan_id":"cebpf4jnsgd1na2vs0mg"},{"bike_id":"9f0c9ee8-9547-4ef2-961e-2ecfd1b48754","system_id":"levelo_inurba_marseille","lat":43.27213,"lon":5.39173,"is_reserved":false,"is_disabled":false,"rental_uris":{"android":"levelo://app?vid=9f0c9ee8-9547-4ef2-961e-2ecfd1b48754","ios":"levelo://app?vid=9f0c9ee8-9547-4ef2-961e-2ecfd1b48754"},"vehicle_type_id":"4","last_reported":1774435095,"current_range_meters":9600,"station_id":"ce4bhhp2rcd13ifvqfm0","pricing_plan_id":"cebpf4jnsgd1na2vs0mg"},{"bike_id":"6f1933b6-62e3-4fe3-a71b-d8b1f30812ee","system_id":"levelo_inurba_marseille","lat":43.2315,"lon":5.43737,"is_reserved":false,"is_disabled":false,"rental_uris":{"android":"levelo://app?vid=6f1933b6-62e3-4fe3-a71b-d8b1f30812ee","ios":"levelo://app?vid=6f1933b6-62e3-4fe3-a71b-d8b1f30812ee"},"vehicle_type_id":"4","last_reported":1774435095,"current_range_meters":9600,"station_id":"ce4bhmp2rcd13ifvqgog","pricing_plan_id":"cebpf4jnsgd1na2vs0mg"},{"bike_id":"3c506157-f1c2-47cf-891f-e540401fcf63","system_id":"levelo_inurba_marseille","lat":43.33542,"lon":5.37458,"is_reserved":false,"is_disabled":false,"rental_uris":{"android":"levelo://app?vid=3c506157-f1c2-47cf-891f-e540401fcf63","ios":"levelo://app?vid=3c506157-f1c2-47cf-891f-e540401fcf63"},"vehicle_type_id":"4","last_reported":1774435095,"current_range_meters":10000,"station_id":"st_d46tts09ee8s73dlu43g","pricing_plan_id":"cebpf4jnsgd1na2vs0mg"},{"bike_id":"b7be6b4a-b0f7-4cde-be7c-9acdd1327021","system_id":"levelo_inurba_marseille","lat":43.258236,"lon":5.394396,"is_reserved":false,"is_disabled":false,"rental_uris":{"android":"levelo://app?vid=b7be6b4a-b0f7-4cde-be7c-9acdd1327021","ios":"levelo://app?vid=b7be6b4a-b0f7-4cde-be7c-9acdd1327021"},"vehicle_type_id":"4","last_reported":1774435095,"current_range_meters":10000,"station_id":"ce4bhip2rcd13ifvqft0","pricing_plan_id":"cebpf4jnsgd1na2vs0mg"},{"bike_id":"38a8fb49-27c9-4cc2-8990-42ffabb0bcd1","system_id":"levelo_inurba_marseille","lat":43.26231,"lon":5.40444,"is_reserved":false,"is_disabled":false,"rental_uris":{"android":"levelo://app?vid=38a8fb49-27c9-4cc2-8990-42ffabb0bcd1","ios":"levelo://app?vid=38a8fb49-27c9-4cc2-8990-42ffabb0bcd1"},"vehicle_type_id":"4","last_reported":1774435095,"current_range_meters":10000,"station_id":"ce4bhmh2rcd13ifvqgmg","pricing_plan_id":"cebpf4jnsgd1na2vs0mg"},{"bike_id":"5e272289-d23c-4ff3-a518-40e1e5881d2f","system_id":"levelo_inurba_marseille","lat":43.25573,"lon":5.38247,"is_reserved":false,"is_disabled":false,"rental_uris":{"android":"levelo://app?vid=5e272289-d23c-4ff3-a518-40e1e5881d2f","ios":"levelo://app?vid=5e272289-d23c-4ff3-a518-40e1e5881d2f"},"vehicle_type_id":"4","last_reported":1774435095,"current_range_meters":10000,"station_id":"ce4bhih2rcd13ifvqfs0","pricing_plan_id":"cebpf4jnsgd1na2vs0mg"},{"bike_id":"fefd0d48-9428-49dc-9d8f-841a78a64428","system_id":"levelo_inurba_marseille","lat":43.309507,"lon":5.390282,"is_reserved":false,"is_disabled":false,"rental_uris":{"android":"levelo://app?vid=fefd0d48-9428-49dc-9d8f-841a78a64428","ios":"levelo://app?vid=fefd0d48-9428-49dc-9d8f-841a78a64428"},"vehicle_type_id":"4","last_reported":1774435095,"current_range_meters":10000,"station_id":"","pricing_plan_id":"cebpf4jnsgd1na2vs0mg"},{"bike_id":"796b0008-ae49-4671-9cb1-d23b19dfa14b","system_id":"levelo_inurba_marseille","lat":43.29213,"lon":5.36058,"is_reserved":false,"is_disabled":false,"rental_uris":{"android":"levelo://app?vid=796b0008-ae49-4671-9cb1-d23b19dfa14b","ios":"levelo://app?vid=796b0008-ae49-4671-9cb1-d23b19dfa14b"},"vehicle_type_id":"4","last_reported":1774435095,"current_range_meters":10000,"station_id":"ce4bhbh2rcd13ifvqeqg","pricing_plan_id":"cebpf4jnsgd1na2vs0mg"},{"bike_id":"a9ed9ea7-fea0-45aa-9529-734693a98cf2","system_id":"levelo_inurba_marseille","lat":43.23784,"lon":5.36645,"is_reserved":false,"is_disabled":false,"rental_uris":{"android":"levelo://app?vid=a9ed9ea7-fea0-45aa-9529-734693a98cf2","ios":"levelo://app?vid=a9ed9ea7-fea0-45aa-9529-734693a98cf2"},"vehicle_type_id":"4","last_reported":1774435095,"current_range_meters":10000,"station_id":"st_d3nk18o9ro0c73en2l3g","pricing_plan_id":"cebpf4jnsgd1na2vs0mg"},{"bike_id":"5ff9dc00-a792-4bdf-9aad-51b76b22be00","system_id":"levelo_inurba_marseille","lat":43.22561,"lon":5.41629,"is_reserved":false,"is_disabled":false,"rental_uris":{"android":"levelo://app?vid=5ff9dc00-a792-4bdf-9aad-51b76b22be00","ios":"levelo://app?vid=5ff9dc00-a792-4bdf-9aad-51b76b22be00"},"vehicle_type_id":"4","last_reported":1774435095,"current_range_meters":10000,"station_id":"st_d2o4gvlbi1j2169b742g","pricing_plan_id":"cebpf4jnsgd1na2vs0mg"},{"bike_id":"44cc2c8d-76ca-44f4-a82f-aefe90c07d8b","system_id":"levelo_inurba_marseille","lat":43.33598,"lon":5.41031,"is_reserved":false,"is_disabled":false,"rental_uris":{"android":"levelo://app?vid=44cc2c8d-76ca-44f4-a82f-aefe90c07d8b","ios":"levelo://app?vid=44cc2c8d-76ca-44f4-a82f-aefe90c07d8b"},"vehicle_type_id":"4","last_reported":1774435095,"current_range_meters":10000,"station_id":"ce4bhqh2rcd13ifvqhmg","pricing_plan_id":"cebpf4jnsgd1na2vs0mg"},{"bike_id":"9a1b7562-5c14-4853-ad31-a4b1e826c8d0","system_id":"levelo_inurba_marseille","lat":43.22551,"lon":5.41638,"is_reserved":false,"is_disabled":false,"rental_uris":{"android":"levelo://app?vid=9a1b7562-5c14-4853-ad31-a4b1e826c8d0","ios":"levelo://app?vid=9a1b7562-5c14-4853-ad31-a4b1e826c8d0"},"vehicle_type_id":"4","last_reported":1774435095,"current_range_meters":10000,"station_id":"st_d2o4gvlbi1j2169b742g","pricing_plan_id":"cebpf4jnsgd1na2vs0mg"},{"bike_id":"40424783-1c7e-48f9-a72b-49017c8063b7","system_id":"levelo_inurba_marseille","lat":43.23153,"lon":5.43706,"is_reserved":false,"is_disabled":false,"rental_uris":{"android":"levelo://app?vid=40424783-1c7e-48f9-a72b-49017c8063b7","ios":"levelo://app?vid=40424783-1c7e-48f9-a72b-49017c8063b7"},"vehicle_type_id":"4","last_reported":1774435095,"current_range_meters":10000,"station_id":"ce4bhmp2rcd13ifvqgog","pricing_plan_id":"cebpf4jnsgd1na2vs0mg"},{"bike_id":"c717176f-a3ea-43a7-8950-cf731ac0ae06","system_id":"levelo_inurba_marseille","lat":43.26028,"lon":5.37548,"is_reserved":false,"is_disabled":false,"rental_uris":{"android":"levelo://app?vid=c717176f-a3ea-43a7-8950-cf731ac0ae06","ios":"levelo://app?vid=c717176f-a3ea-43a7-8950-cf731ac0ae06"},"vehicle_type_id":"4","last_reported":1774435095,"current_range_meters":10000,"station_id":"ce4bhgh2rcd13ifvqfa0","pricing_plan_id":"cebpf4jnsgd1na2vs0mg"},{"bike_id":"78899ca1-1a54-47b4-a3ef-2d481c8e412e","system_id":"levelo_inurba_marseille","lat":43.2971,"lon":5.37705,"is_reserved":false,"is_disabled":false,"rental_uris":{"android":"levelo://app?vid=78899ca1-1a54-47b4-a3ef-2d481c8e412e","ios":"levelo://app?vid=78899ca1-1a54-47b4-a3ef-2d481c8e412e"},"vehicle_type_id":"4","last_reported":1774435095,"current_range_meters":10000,"station_id":"ce4bgkh2rcd13ifvqbl0","pricing_plan_id":"cebpf4jnsgd1na2vs0mg"},{"bike_id":"37c18034-df17-4cf3-8d6c-427e4eca00fe","system_id":"levelo_inurba_marseille","lat":43.30249,"lon":5.37727,"is_reserved":false,"is_disabled":false,"rental_uris":{"android":"levelo://app?vid=37c18034-df17-4cf3-8d6c-427e4eca00fe","ios":"levelo://app?vid=37c18034-df17-4cf3-8d6c-427e4eca00fe"},"vehicle_type_id":"4","last_reported":1774435095,"current_range_meters":10000,"station_id":"ce4bguh2rcd13ifvqcj0","pricing_plan_id":"cebpf4jnsgd1na2vs0mg"},{"bike_id":"09bc98ac-8cbe-4908-a1a1-2cfeb58733c1","system_id":"levelo_inurba_marseille","lat":43.245449,"lon":5.395248,"is_reserved":false,"is_disabled":false,"rental_uris":{"android":"levelo://app?vid=09bc98ac-8cbe-4908-a1a1-2cfeb58733c1","ios":"levelo://app?vid=09bc98ac-8cbe-4908-a1a1-2cfeb58733c1"},"vehicle_type_id":"4","last_reported":1774435095,"current_range_meters":10000,"station_id":"ce4bhlp2rcd13ifvqgjg","pricing_plan_id":"cebpf4jnsgd1na2vs0mg"},{"bike_id":"1b2167e4-f983-42b9-81c1-70bc9adaad98","system_id":"levelo_inurba_marseille","lat":43.28476,"lon":5.38427,"is_reserved":false,"is_disabled":false,"rental_uris":{"android":"levelo://app?vid=1b2167e4-f983-42b9-81c1-70bc9adaad98","ios":"levelo://app?vid=1b2167e4-f983-42b9-81c1-70bc9adaad98"},"vehicle_type_id":"4","last_reported":1774435095,"current_range_meters":10000,"station_id":"ce4bh512rcd13ifvqe3g","pricing_plan_id":"cebpf4jnsgd1na2vs0mg"},{"bike_id":"84f42fd2-97c4-43ce-82c0-971fd6229f32","system_id":"levelo_inurba_marseille","lat":43.31672,"lon":5.39482,"is_reserved":false,"is_disabled":false,"rental_uris":{"android":"levelo://app?vid=84f42fd2-97c4-43ce-82c0-971fd6229f32","ios":"levelo://app?vid=84f42fd2-97c4-43ce-82c0-971fd6229f32"},"vehicle_type_id":"4","last_reported":1774435095,"current_range_meters":10000,"station_id":"","pricing_plan_id":"cebpf4jnsgd1na2vs0mg"},{"bike_id":"65261562-c6a5-4288-aa35-e806f5df9197","system_id":"levelo_inurba_marseille","lat":43.30147,"lon":5.38084,"is_reserved":false,"is_disabled":false,"rental_uris":{"android":"levelo://app?vid=65261562-c6a5-4288-aa35-e806f5df9197","ios":"levelo://app?vid=65261562-c6a5-4288-aa35-e806f5df9197"},"vehicle_type_id":"4","last_reported":1774435095,"current_range_meters":10000,"station_id":"ce4bgjp2rcd13ifvqbh0","pricing_plan_id":"cebpf4jnsgd1na2vs0mg"},{"bike_id":"4e53ea06-8aad-4d90-8974-d1a9ab4f53b3","system_id":"levelo_inurba_marseille","lat":43.27216,"lon":5.39183,"is_reserved":false,"is_disabled":false,"rental_uris":{"android":"levelo://app?vid=4e53ea06-8aad-4d90-8974-d1a9ab4f53b3","ios":"levelo://app?vid=4e53ea06-8aad-4d90-8974-d1a9ab4f53b3"},"vehicle_type_id":"4","last_reported":1774435095,"current_range_meters":10000,"station_id":"ce4bhhp2rcd13ifvqfm0","pricing_plan_id":"cebpf4jnsgd1na2vs0mg"},{"bike_id":"2dff1b50-0ad4-4bf0-b506-0d0736c3c696","system_id":"levelo_inurba_marseille","lat":43.30657,"lon":5.37706,"is_reserved":false,"is_disabled":false,"rental_uris":{"android":"levelo://app?vid=2dff1b50-0ad4-4bf0-b506-0d0736c3c696","ios":"levelo://app?vid=2dff1b50-0ad4-4bf0-b506-0d0736c3c696"},"vehicle_type_id":"4","last_reported":1774435095,"current_range_meters":10000,"station_id":"","pricing_plan_id":"cebpf4jnsgd1na2vs0mg"},{"bike_id":"18ffa726-15d7-4ef9-bbc6-23aae0a398f8","system_id":"levelo_inurba_marseille","lat":43.30103,"lon":5.40176,"is_reserved":false,"is_disabled":false,"rental_uris":{"android":"levelo://app?vid=18ffa726-15d7-4ef9-bbc6-23aae0a398f8","ios":"levelo://app?vid=18ffa726-15d7-4ef9-bbc6-23aae0a398f8"},"vehicle_type_id":"4","last_reported":1774435095,"current_range_meters":10000,"station_id":"","pricing_plan_id":"cebpf4jnsgd1na2vs0mg"},{"bike_id":"52a2b77d-b5b1-4c9d-8945-8dc44e6464ba","system_id":"levelo_inurba_marseille","lat":43.25361,"lon":5.42604,"is_reserved":false,"is_disabled":false,"rental_uris":{"android":"levelo://app?vid=52a2b77d-b5b1-4c9d-8945-8dc44e6464ba","ios":"levelo://app?vid=52a2b77d-b5b1-4c9d-8945-8dc44e6464ba"},"vehicle_type_id":"4","last_reported":1774435095,"current_range_meters":10000,"station_id":"","pricing_plan_id":"cebpf4jnsgd1na2vs0mg"},{"bike_id":"ad1b03be-4d9f-4a36-8287-b69625fc84fe","system_id":"levelo_inurba_marseille","lat":43.25341,"lon":5.42177,"is_reserved":false,"is_disabled":false,"rental_uris":{"android":"levelo://app?vid=ad1b03be-4d9f-4a36-8287-b69625fc84fe","ios":"levelo://app?vid=ad1b03be-4d9f-4a36-8287-b69625fc84fe"},"vehicle_type_id":"4","last_reported":1774435095,"current_range_meters":10800,"station_id":"st_d2m65c5bi1j21697t3ng","pricing_plan_id":"cebpf4jnsgd1na2vs0mg"},{"bike_id":"982d2045-21db-4314-b580-0b249bbb28c4","system_id":"levelo_inurba_marseille","lat":43.299497,"lon":5.365585,"is_reserved":false,"is_disabled":false,"rental_uris":{"android":"levelo://app?vid=982d2045-21db-4314-b580-0b249bbb28c4","ios":"levelo://app?vid=982d2045-21db-4314-b580-0b249bbb28c4"},"vehicle_type_id":"4","last_reported":1774435095,"current_range_meters":10800,"station_id":"ce4bgm92rcd13ifvqbr0","pricing_plan_id":"cebpf4jnsgd1na2vs0mg"},{"bike_id":"a99716b7-1611-453a-b855-322e6a5a0ea3","system_id":"levelo_inurba_marseille","lat":43.23971,"lon":5.3662,"is_reserved":false,"is_disabled":false,"rental_uris":{"android":"levelo://app?vid=a99716b7-1611-453a-b855-322e6a5a0ea3","ios":"levelo://app?vid=a99716b7-1611-453a-b855-322e6a5a0ea3"},"vehicle_type_id":"4","last_reported":1774435095,"current_range_meters":10800,"station_id":"ce4bhi12rcd13ifvqfp0","pricing_plan_id":"cebpf4jnsgd1na2vs0mg"},{"bike_id":"fd14c4cc-fd20-4465-9b78-114c2fa3cf56","system_id":"levelo_inurba_marseille","lat":43.2868,"lon":5.38674,"is_reserved":false,"is_disabled":false,"rental_uris":{"android":"levelo://app?vid=fd14c4cc-fd20-4465-9b78-114c2fa3cf56","ios":"levelo://app?vid=fd14c4cc-fd20-4465-9b78-114c2fa3cf56"},"vehicle_type_id":"4","last_reported":1774435095,"current_range_meters":10800,"station_id":"ce4bh492rcd13ifvqdug","pricing_plan_id":"cebpf4jnsgd1na2vs0mg"},{"bike_id":"672e481d-f408-4f31-837c-d9b7afe7a739","system_id":"levelo_inurba_marseille","lat":43.29271,"lon":5.36829,"is_reserved":false,"is_disabled":false,"rental_uris":{"android":"levelo://app?vid=672e481d-f408-4f31-837c-d9b7afe7a739","ios":"levelo://app?vid=672e481d-f408-4f31-837c-d9b7afe7a739"},"vehicle_type_id":"4","last_reported":1774435095,"current_range_meters":10800,"station_id":"ce4bhbp2rcd13ifvqesg","pricing_plan_id":"cebpf4jnsgd1na2vs0mg"},{"bike_id":"279516c2-88ec-4af3-a919-c38225142c77","system_id":"levelo_inurba_marseille","lat":43.29608,"lon":5.37722,"is_reserved":false,"is_disabled":false,"rental_uris":{"android":"levelo://app?vid=279516c2-88ec-4af3-a919-c38225142c77","ios":"levelo://app?vid=279516c2-88ec-4af3-a919-c38225142c77"},"vehicle_type_id":"4","last_reported":1774435095,"current_range_meters":10800,"station_id":"ce4bgi92rcd13ifvqb90","pricing_plan_id":"cebpf4jnsgd1na2vs0mg"},{"bike_id":"82a0b895-1da7-4be8-8fdb-f3b778cc4a44","system_id":"levelo_inurba_marseille","lat":43.29037,"lon":5.37581,"is_reserved":false,"is_disabled":false,"rental_uris":{"android":"levelo://app?vid=82a0b895-1da7-4be8-8fdb-f3b778cc4a44","ios":"levelo://app?vid=82a0b895-1da7-4be8-8fdb-f3b778cc4a44"},"vehicle_type_id":"4","last_reported":1774435095,"current_range_meters":10800,"station_id":"ce4bh692rcd13ifvqe90","pricing_plan_id":"cebpf4jnsgd1na2vs0mg"},{"bike_id":"3bf06c58-9523-4a50-9adf-409e83d51e38","system_id":"levelo_inurba_marseille","lat":43.28708,"lon":5.3795,"is_reserved":false,"is_disabled":false,"rental_uris":{"android":"levelo://app?vid=3bf06c58-9523-4a50-9adf-409e83d51e38","ios":"levelo://app?vid=3bf06c58-9523-4a50-9adf-409e83d51e38"},"vehicle_type_id":"4","last_reported":1774435095,"current_range_meters":10800,"station_id":"ce4bh9p2rcd13ifvqec0","pricing_plan_id":"cebpf4jnsgd1na2vs0mg"},{"bike_id":"2f8eb8c7-2856-4dbe-b1ef-6e388497f19c","system_id":"levelo_inurba_marseille","lat":43.28226,"lon":5.3909,"is_reserved":false,"is_disabled":false,"rental_uris":{"android":"levelo://app?vid=2f8eb8c7-2856-4dbe-b1ef-6e388497f19c","ios":"levelo://app?vid=2f8eb8c7-2856-4dbe-b1ef-6e388497f19c"},"vehicle_type_id":"4","last_reported":1774435095,"current_range_meters":10800,"station_id":"ce4bhn92rcd13ifvqgsg","pricing_plan_id":"cebpf4jnsgd1na2vs0mg"},{"bike_id":"c6b7ce93-d0fb-4062-bc42-04715a40d728","system_id":"levelo_inurba_marseille","lat":43.2693,"lon":5.3891,"is_reserved":false,"is_disabled":false,"rental_uris":{"android":"levelo://app?vid=c6b7ce93-d0fb-4062-bc42-04715a40d728","ios":"levelo://app?vid=c6b7ce93-d0fb-4062-bc42-04715a40d728"},"vehicle_type_id":"4","last_reported":1774435095,"current_range_meters":10800,"station_id":"ce4bhhh2rcd13ifvqfl0","pricing_plan_id":"cebpf4jnsgd1na2vs0mg"},{"bike_id":"8cc83fff-6641-4b28-9444-fc572f4dd3c3","system_id":"levelo_inurba_marseille","lat":43.28482,"lon":5.48385,"is_reserved":false,"is_disabled":false,"rental_uris":{"android":"levelo://app?vid=8cc83fff-6641-4b28-9444-fc572f4dd3c3","ios":"levelo://app?vid=8cc83fff-6641-4b28-9444-fc572f4dd3c3"},