{"last_updated":1751576958,"ttl":60,"version":"2.2","data":{"bikes":[{"bike_id":"3da29fb8-fc97-44c6-b9ac-31dd456b2fd4","system_id":"levelo_inurba_marseille","lat":43.33771,"lon":5.37424,"is_reserved":false,"is_disabled":true,"rental_uris":{"android":"levelo://app?vid=3da29fb8-fc97-44c6-b9ac-31dd456b2fd4","ios":"levelo://app?vid=3da29fb8-fc97-44c6-b9ac-31dd456b2fd4"},"vehicle_type_id":"4","last_reported":1751576958,"current_range_meters":0,"station_id":"","pricing_plan_id":"cebpf4jnsgd1na2vs0mg"},{"bike_id":"01861ad8-a8d7-4be6-816e-651927c87584","system_id":"levelo_inurba_marseille","lat":43.33751,"lon":5.37456,"is_reserved":false,"is_disabled":true,"rental_uris":{"android":"levelo://app?vid=01861ad8-a8d7-4be6-816e-651927c87584","ios":"levelo://app?vid=01861ad8-a8d7-4be6-816e-651927c87584"},"vehicle_type_id":"4","last_reported":1751576958,"current_range_meters":0,"station_id":"","pricing_plan_id":"cebpf4jnsgd1na2vs0mg"},{"bike_id":"fa970b88-b003-4494-bc40-b404de4a92ce","system_id":"levelo_inurba_marseille","lat":43.26864,"lon":5.36869,"is_reserved":false,"is_disabled":true,"rental_uris":{"android":"levelo://app?vid=fa970b88-b003-4494-bc40-b404de4a92ce","ios":"levelo://app?vid=fa970b88-b003-4494-bc40-b404de4a92ce"},"vehicle_type_id":"4","last_reported":1751576958,"current_range_meters":0,"station_id":"","pricing_plan_id":"cebpf4jnsgd1na2vs0mg"},{"bike_id":"da921d92-526f-401b-95dc-b12109d1091d","system_id":"levelo_inurba_marseille","lat":43.36184,"lon":5.34935,"is_reserved":false,"is_disabled":true,"rental_uris":{"android":"levelo://app?vid=da921d92-526f-401b-95dc-b12109d1091d","ios":"levelo://app?vid=da921d92-526f-401b-95dc-b12109d1091d"},"vehicle_type_id":"4","last_reported":1751576958,"current_range_meters":0,"station_id":"","pricing_plan_id":"cebpf4jnsgd1na2vs0mg"},{"bike_id":"6e5b5a4d-1ee5-4068-9613-fb44ab4d8a9a","system_id":"levelo_inurba_marseille","lat":43.348745,"lon":5.346123,"is_reserved":false,"is_disabled":true,"rental_uris":{"android":"levelo://app?vid=6e5b5a4d-1ee5-4068-9613-fb44ab4d8a9a","ios":"levelo://app?vid=6e5b5a4d-1ee5-4068-9613-fb44ab4d8a9a"},"vehicle_type_id":"4","last_reported":1751576958,"current_range_meters":0,"station_id":"","pricing_plan_id":"cebpf4jnsgd1na2vs0mg"},{"bike_id":"c06ae37b-d724-42ec-a210-31394db9615f","system_id":"levelo_inurba_marseille","lat":43.28415,"lon":5.39045,"is_reserved":false,"is_disabled":true,"rental_uris":{"android":"levelo://app?vid=c06ae37b-d724-42ec-a210-31394db9615f","ios":"levelo://app?vid=c06ae37b-d724-42ec-a210-31394db9615f"},"vehicle_type_id":"4","last_reported":1751576958,"current_range_meters":0,"station_id":"","pricing_plan_id":"cebpf4jnsgd1na2vs0mg"},{"bike_id":"031ffef9-24ba-4401-b1e2-e2fe37de45da","system_id":"levelo_inurba_marseille","lat":43.27763,"lon":5.38836,"is_reserved":false,"is_disabled":true,"rental_uris":{"android":"levelo://app?vid=031ffef9-24ba-4401-b1e2-e2fe37de45da","ios":"levelo://app?vid=031ffef9-24ba-4401-b1e2-e2fe37de45da"},"vehicle_type_id":"4","last_reported":1751576958,"current_range_meters":0,"station_id":"","pricing_plan_id":"cebpf4jnsgd1na2vs0mg"},{"bike_id":"8e365e3c-559a-4ba6-a6c5-4c159e2434fc","system_id":"levelo_inurba_marseille","lat":43.21753,"lon":5.34618,"is_reserved":false,"is_disabled":true,"rental_uris":{"android":"levelo://app?vid=8e365e3c-559a-4ba6-a6c5-4c159e2434fc","ios":"levelo://app?vid=8e365e3c-559a-4ba6-a6c5-4c159e2434fc"},"vehicle_type_id":"4","last_reported":1751576958,"current_range_meters":0,"station_id":"","pricing_plan_id":"cebpf4jnsgd1na2vs0mg"},{"bike_id":"5fe1f33a-ebc4-4182-b521-7ef3eadc1773","system_id":"levelo_inurba_marseille","lat":43.26858,"lon":5.36866,"is_reserved":false,"is_disabled":true,"rental_uris":{"android":"levelo://app?vid=5fe1f33a-ebc4-4182-b521-7ef3eadc1773","ios":"levelo://app?vid=5fe1f33a-ebc4-4182-b521-7ef3eadc1773"},"vehicle_type_id":"4","last_reported":1751576958,"current_range_meters":0,"station_id":"","pricing_plan_id":"cebpf4jnsgd1na2vs0mg"},{"bike_id":"3f394701-d621-4f9e-83aa-48691cf29f6e","system_id":"levelo_inurba_marseille","lat":43.31126,"lon":5.40964,"is_reserved":false,"is_disabled":true,"rental_uris":{"android":"levelo://app?vid=3f394701-d621-4f9e-83aa-48691cf29f6e","ios":"levelo://app?vid=3f394701-d621-4f9e-83aa-48691cf29f6e"},"vehicle_type_id":"4","last_reported":1751576958,"current_range_meters":0,"station_id":"","pricing_plan_id":"cebpf4jnsgd1na2vs0mg"},{"bike_id":"c8bdee6f-2ae9-4b92-95e3-02278f2d6814","system_id":"levelo_inurba_marseille","lat":43.26564,"lon":5.40311,"is_reserved":false,"is_disabled":true,"rental_uris":{"android":"levelo://app?vid=c8bdee6f-2ae9-4b92-95e3-02278f2d6814","ios":"levelo://app?vid=c8bdee6f-2ae9-4b92-95e3-02278f2d6814"},"vehicle_type_id":"4","last_reported":1751576958,"current_range_meters":0,"station_id":"","pricing_plan_id":"cebpf4jnsgd1na2vs0mg"},{"bike_id":"25a99ecd-3e6b-4ea1-afb1-e3582e58847d","system_id":"levelo_inurba_marseille","lat":43.298525,"lon":5.362906,"is_reserved":false,"is_disabled":false,"rental_uris":{"android":"levelo://app?vid=25a99ecd-3e6b-4ea1-afb1-e3582e58847d","ios":"levelo://app?vid=25a99ecd-3e6b-4ea1-afb1-e3582e58847d"},"vehicle_type_id":"4","last_reported":1751576958,"current_range_meters":0,"station_id":"ce4bgpp2rcd13ifvqc3g","pricing_plan_id":"cebpf4jnsgd1na2vs0mg"},{"bike_id":"66287199-f983-44bb-bc21-63bcdaac2751","system_id":"levelo_inurba_marseille","lat":43.28924,"lon":5.38396,"is_reserved":false,"is_disabled":true,"rental_uris":{"android":"levelo://app?vid=66287199-f983-44bb-bc21-63bcdaac2751","ios":"levelo://app?vid=66287199-f983-44bb-bc21-63bcdaac2751"},"vehicle_type_id":"4","last_reported":1751576958,"current_range_meters":0,"station_id":"ce4bh612rcd13ifvqe6g","pricing_plan_id":"cebpf4jnsgd1na2vs0mg"},{"bike_id":"6b0db074-bd6e-4644-810f-4dc5948b0b24","system_id":"levelo_inurba_marseille","lat":43.27359,"lon":5.36253,"is_reserved":false,"is_disabled":true,"rental_uris":{"android":"levelo://app?vid=6b0db074-bd6e-4644-810f-4dc5948b0b24","ios":"levelo://app?vid=6b0db074-bd6e-4644-810f-4dc5948b0b24"},"vehicle_type_id":"4","last_reported":1751576958,"current_range_meters":0,"station_id":"ce4bhbh2rcd13ifvqeo0","pricing_plan_id":"cebpf4jnsgd1na2vs0mg"},{"bike_id":"c6a6faeb-3c1e-4b07-977e-3b9d9abeb390","system_id":"levelo_inurba_marseille","lat":43.24643,"lon":5.38893,"is_reserved":false,"is_disabled":true,"rental_uris":{"android":"levelo://app?vid=c6a6faeb-3c1e-4b07-977e-3b9d9abeb390","ios":"levelo://app?vid=c6a6faeb-3c1e-4b07-977e-3b9d9abeb390"},"vehicle_type_id":"4","last_reported":1751576958,"current_range_meters":0,"station_id":"ce4bhg12rcd13ifvqf60","pricing_plan_id":"cebpf4jnsgd1na2vs0mg"},{"bike_id":"ec6e70f8-ac33-4182-ac4c-7af977586c70","system_id":"levelo_inurba_marseille","lat":43.27947,"lon":5.38779,"is_reserved":false,"is_disabled":true,"rental_uris":{"android":"levelo://app?vid=ec6e70f8-ac33-4182-ac4c-7af977586c70","ios":"levelo://app?vid=ec6e70f8-ac33-4182-ac4c-7af977586c70"},"vehicle_type_id":"4","last_reported":1751576958,"current_range_meters":0,"station_id":"ce4bhg12rcd13ifvqf80","pricing_plan_id":"cebpf4jnsgd1na2vs0mg"},{"bike_id":"1d816f57-f826-446a-9bdd-ee0c1dfeafda","system_id":"levelo_inurba_marseille","lat":43.25003,"lon":5.38925,"is_reserved":false,"is_disabled":true,"rental_uris":{"android":"levelo://app?vid=1d816f57-f826-446a-9bdd-ee0c1dfeafda","ios":"levelo://app?vid=1d816f57-f826-446a-9bdd-ee0c1dfeafda"},"vehicle_type_id":"4","last_reported":1751576958,"current_range_meters":0,"station_id":"ce4bhgp2rcd13ifvqfd0","pricing_plan_id":"cebpf4jnsgd1na2vs0mg"},{"bike_id":"45a36d42-3f75-4451-929c-2980bab85fb7","system_id":"levelo_inurba_marseille","lat":43.231546,"lon":5.437426,"is_reserved":false,"is_disabled":true,"rental_uris":{"android":"levelo://app?vid=45a36d42-3f75-4451-929c-2980bab85fb7","ios":"levelo://app?vid=45a36d42-3f75-4451-929c-2980bab85fb7"},"vehicle_type_id":"4","last_reported":1751576958,"current_range_meters":0,"station_id":"ce4bhmp2rcd13ifvqgog","pricing_plan_id":"cebpf4jnsgd1na2vs0mg"},{"bike_id":"a13bdaeb-68b9-4467-9760-e68d571c9200","system_id":"levelo_inurba_marseille","lat":43.27813,"lon":5.40715,"is_reserved":false,"is_disabled":true,"rental_uris":{"android":"levelo://app?vid=a13bdaeb-68b9-4467-9760-e68d571c9200","ios":"levelo://app?vid=a13bdaeb-68b9-4467-9760-e68d571c9200"},"vehicle_type_id":"4","last_reported":1751576958,"current_range_meters":0,"station_id":"ce4bhnh2rcd13ifvqgtg","pricing_plan_id":"cebpf4jnsgd1na2vs0mg"},{"bike_id":"34525e0e-88eb-4fe8-be83-e19f0f1185d3","system_id":"levelo_inurba_marseille","lat":43.22489,"lon":5.34801,"is_reserved":false,"is_disabled":true,"rental_uris":{"android":"levelo://app?vid=34525e0e-88eb-4fe8-be83-e19f0f1185d3","ios":"levelo://app?vid=34525e0e-88eb-4fe8-be83-e19f0f1185d3"},"vehicle_type_id":"4","last_reported":1751576958,"current_range_meters":0,"station_id":"st_cvj5dfep6f1abm77gieg","pricing_plan_id":"cebpf4jnsgd1na2vs0mg"},{"bike_id":"9795e511-4f68-494d-9846-41f87f5dd923","system_id":"levelo_inurba_marseille","lat":43.22476,"lon":5.34803,"is_reserved":false,"is_disabled":true,"rental_uris":{"android":"levelo://app?vid=9795e511-4f68-494d-9846-41f87f5dd923","ios":"levelo://app?vid=9795e511-4f68-494d-9846-41f87f5dd923"},"vehicle_type_id":"4","last_reported":1751576958,"current_range_meters":0,"station_id":"st_cvj5dfep6f1abm77gieg","pricing_plan_id":"cebpf4jnsgd1na2vs0mg"},{"bike_id":"711daaef-62a7-4507-b46e-24f8c3ebc905","system_id":"levelo_inurba_marseille","lat":43.21743,"lon":5.34609,"is_reserved":false,"is_disabled":true,"rental_uris":{"android":"levelo://app?vid=711daaef-62a7-4507-b46e-24f8c3ebc905","ios":"levelo://app?vid=711daaef-62a7-4507-b46e-24f8c3ebc905"},"vehicle_type_id":"4","last_reported":1751576958,"current_range_meters":0,"station_id":"st_cvj6r9ubvosntc0bgbag","pricing_plan_id":"cebpf4jnsgd1na2vs0mg"},{"bike_id":"7750661e-3127-4501-aa76-1d7cb6be5070","system_id":"levelo_inurba_marseille","lat":43.21747,"lon":5.34596,"is_reserved":false,"is_disabled":true,"rental_uris":{"android":"levelo://app?vid=7750661e-3127-4501-aa76-1d7cb6be5070","ios":"levelo://app?vid=7750661e-3127-4501-aa76-1d7cb6be5070"},"vehicle_type_id":"4","last_reported":1751576958,"current_range_meters":0,"station_id":"st_cvj6r9ubvosntc0bgbag","pricing_plan_id":"cebpf4jnsgd1na2vs0mg"},{"bike_id":"bc5dd2b3-3385-463b-a084-678650a16b75","system_id":"levelo_inurba_marseille","lat":43.268446,"lon":5.370804,"is_reserved":false,"is_disabled":true,"rental_uris":{"android":"levelo://app?vid=bc5dd2b3-3385-463b-a084-678650a16b75","ios":"levelo://app?vid=bc5dd2b3-3385-463b-a084-678650a16b75"},"vehicle_type_id":"4","last_reported":1751576958,"current_range_meters":400,"station_id":"","pricing_plan_id":"cebpf4jnsgd1na2vs0mg"},{"bike_id":"0a185492-26a8-4775-85c2-10610805774a","system_id":"levelo_inurba_marseille","lat":43.27711,"lon":5.43085,"is_reserved":false,"is_disabled":true,"rental_uris":{"android":"levelo://app?vid=0a185492-26a8-4775-85c2-10610805774a","ios":"levelo://app?vid=0a185492-26a8-4775-85c2-10610805774a"},"vehicle_type_id":"4","last_reported":1751576958,"current_range_meters":400,"station_id":"","pricing_plan_id":"cebpf4jnsgd1na2vs0mg"},{"bike_id":"4a8f1bb0-e136-4af3-87a1-49974e6bb45c","system_id":"levelo_inurba_marseille","lat":43.30461,"lon":5.37903,"is_reserved":false,"is_disabled":true,"rental_uris":{"android":"levelo://app?vid=4a8f1bb0-e136-4af3-87a1-49974e6bb45c","ios":"levelo://app?vid=4a8f1bb0-e136-4af3-87a1-49974e6bb45c"},"vehicle_type_id":"4","last_reported":1751576958,"current_range_meters":800,"station_id":"ce4bgup2rcd13ifvqcn0","pricing_plan_id":"cebpf4jnsgd1na2vs0mg"},{"bike_id":"c40314d8-e4f1-41fc-95be-6cbea9ba21e8","system_id":"levelo_inurba_marseille","lat":43.316907,"lon":5.4046,"is_reserved":false,"is_disabled":true,"rental_uris":{"android":"levelo://app?vid=c40314d8-e4f1-41fc-95be-6cbea9ba21e8","ios":"levelo://app?vid=c40314d8-e4f1-41fc-95be-6cbea9ba21e8"},"vehicle_type_id":"4","last_reported":1751576958,"current_range_meters":800,"station_id":"ce4bh012rcd13ifvqd00","pricing_plan_id":"cebpf4jnsgd1na2vs0mg"},{"bike_id":"37ac32e5-34c4-4405-bd63-910a7a9ed2ab","system_id":"levelo_inurba_marseille","lat":43.29034,"lon":5.39971,"is_reserved":false,"is_disabled":true,"rental_uris":{"android":"levelo://app?vid=37ac32e5-34c4-4405-bd63-910a7a9ed2ab","ios":"levelo://app?vid=37ac32e5-34c4-4405-bd63-910a7a9ed2ab"},"vehicle_type_id":"4","last_reported":1751576958,"current_range_meters":800,"station_id":"ce4bh392rcd13ifvqdm0","pricing_plan_id":"cebpf4jnsgd1na2vs0mg"},{"bike_id":"cd782dde-285b-42f0-a140-d5a108c0f267","system_id":"levelo_inurba_marseille","lat":43.279126,"lon":5.379963,"is_reserved":false,"is_disabled":true,"rental_uris":{"android":"levelo://app?vid=cd782dde-285b-42f0-a140-d5a108c0f267","ios":"levelo://app?vid=cd782dde-285b-42f0-a140-d5a108c0f267"},"vehicle_type_id":"4","last_reported":1751576958,"current_range_meters":800,"station_id":"ce4bhf92rcd13ifvqf50","pricing_plan_id":"cebpf4jnsgd1na2vs0mg"},{"bike_id":"a6d7a0d5-d9ae-4fc1-b44b-2efbae6ccc62","system_id":"levelo_inurba_marseille","lat":43.21749,"lon":5.34607,"is_reserved":false,"is_disabled":true,"rental_uris":{"android":"levelo://app?vid=a6d7a0d5-d9ae-4fc1-b44b-2efbae6ccc62","ios":"levelo://app?vid=a6d7a0d5-d9ae-4fc1-b44b-2efbae6ccc62"},"vehicle_type_id":"4","last_reported":1751576958,"current_range_meters":800,"station_id":"st_cvj6r9ubvosntc0bgbag","pricing_plan_id":"cebpf4jnsgd1na2vs0mg"},{"bike_id":"e2f7aedc-7e99-478c-b9b6-dde7a6a0b684","system_id":"levelo_inurba_marseille","lat":43.292252,"lon":5.382743,"is_reserved":false,"is_disabled":false,"rental_uris":{"android":"levelo://app?vid=e2f7aedc-7e99-478c-b9b6-dde7a6a0b684","ios":"levelo://app?vid=e2f7aedc-7e99-478c-b9b6-dde7a6a0b684"},"vehicle_type_id":"4","last_reported":1751576958,"current_range_meters":1200,"station_id":"ce4bh0p2rcd13ifvqd70","pricing_plan_id":"cebpf4jnsgd1na2vs0mg"},{"bike_id":"4f476c15-90aa-4c6d-b366-7c7571350419","system_id":"levelo_inurba_marseille","lat":43.29047,"lon":5.3995,"is_reserved":false,"is_disabled":true,"rental_uris":{"android":"levelo://app?vid=4f476c15-90aa-4c6d-b366-7c7571350419","ios":"levelo://app?vid=4f476c15-90aa-4c6d-b366-7c7571350419"},"vehicle_type_id":"4","last_reported":1751576958,"current_range_meters":1200,"station_id":"ce4bh392rcd13ifvqdm0","pricing_plan_id":"cebpf4jnsgd1na2vs0mg"},{"bike_id":"804d211e-36c0-40f3-ae40-012f8d43c344","system_id":"levelo_inurba_marseille","lat":43.26223,"lon":5.40451,"is_reserved":false,"is_disabled":true,"rental_uris":{"android":"levelo://app?vid=804d211e-36c0-40f3-ae40-012f8d43c344","ios":"levelo://app?vid=804d211e-36c0-40f3-ae40-012f8d43c344"},"vehicle_type_id":"4","last_reported":1751576958,"current_range_meters":1200,"station_id":"ce4bhmh2rcd13ifvqgmg","pricing_plan_id":"cebpf4jnsgd1na2vs0mg"},{"bike_id":"82fe187f-756c-4548-a7c4-3fc3ac31b7d2","system_id":"levelo_inurba_marseille","lat":43.21738,"lon":5.34619,"is_reserved":false,"is_disabled":true,"rental_uris":{"android":"levelo://app?vid=82fe187f-756c-4548-a7c4-3fc3ac31b7d2","ios":"levelo://app?vid=82fe187f-756c-4548-a7c4-3fc3ac31b7d2"},"vehicle_type_id":"4","last_reported":1751576958,"current_range_meters":1200,"station_id":"st_cvj6r9ubvosntc0bgbag","pricing_plan_id":"cebpf4jnsgd1na2vs0mg"},{"bike_id":"cd2a3af2-854b-4519-92e5-1eaf70ba8a37","system_id":"levelo_inurba_marseille","lat":43.211901,"lon":5.350666,"is_reserved":false,"is_disabled":true,"rental_uris":{"android":"levelo://app?vid=cd2a3af2-854b-4519-92e5-1eaf70ba8a37","ios":"levelo://app?vid=cd2a3af2-854b-4519-92e5-1eaf70ba8a37"},"vehicle_type_id":"4","last_reported":1751576958,"current_range_meters":1600,"station_id":"st_cvj6sg6p6f1abm77japg","pricing_plan_id":"cebpf4jnsgd1na2vs0mg"},{"bike_id":"32b41c72-2f6b-460d-8866-a8380b3ce1fe","system_id":"levelo_inurba_marseille","lat":43.315001,"lon":5.372858,"is_reserved":false,"is_disabled":true,"rental_uris":{"android":"levelo://app?vid=32b41c72-2f6b-460d-8866-a8380b3ce1fe","ios":"levelo://app?vid=32b41c72-2f6b-460d-8866-a8380b3ce1fe"},"vehicle_type_id":"4","last_reported":1751576958,"current_range_meters":2000,"station_id":"ce4bgt12rcd13ifvqcd0","pricing_plan_id":"cebpf4jnsgd1na2vs0mg"},{"bike_id":"76d89b90-4042-49ab-8085-726cb5791000","system_id":"levelo_inurba_marseille","lat":43.27071,"lon":5.42281,"is_reserved":false,"is_disabled":false,"rental_uris":{"android":"levelo://app?vid=76d89b90-4042-49ab-8085-726cb5791000","ios":"levelo://app?vid=76d89b90-4042-49ab-8085-726cb5791000"},"vehicle_type_id":"4","last_reported":1751576958,"current_range_meters":2800,"station_id":"ce4bhk92rcd13ifvqgb0","pricing_plan_id":"cebpf4jnsgd1na2vs0mg"},{"bike_id":"86ddf5aa-0daa-4938-bb03-5440930ddb46","system_id":"levelo_inurba_marseille","lat":43.27209,"lon":5.39179,"is_reserved":false,"is_disabled":false,"rental_uris":{"android":"levelo://app?vid=86ddf5aa-0daa-4938-bb03-5440930ddb46","ios":"levelo://app?vid=86ddf5aa-0daa-4938-bb03-5440930ddb46"},"vehicle_type_id":"4","last_reported":1751576958,"current_range_meters":3600,"station_id":"ce4bhhp2rcd13ifvqfm0","pricing_plan_id":"cebpf4jnsgd1na2vs0mg"},{"bike_id":"f2fde3ed-8b69-4cdb-93df-8d61555a9fe0","system_id":"levelo_inurba_marseille","lat":43.30418,"lon":5.41285,"is_reserved":false,"is_disabled":false,"rental_uris":{"android":"levelo://app?vid=f2fde3ed-8b69-4cdb-93df-8d61555a9fe0","ios":"levelo://app?vid=f2fde3ed-8b69-4cdb-93df-8d61555a9fe0"},"vehicle_type_id":"4","last_reported":1751576958,"current_range_meters":3600,"station_id":"ce4bhop2rcd13ifvqh8g","pricing_plan_id":"cebpf4jnsgd1na2vs0mg"},{"bike_id":"b5f9c177-e511-4a26-9abb-a8c98a9e71b2","system_id":"levelo_inurba_marseille","lat":43.21179,"lon":5.35067,"is_reserved":false,"is_disabled":false,"rental_uris":{"android":"levelo://app?vid=b5f9c177-e511-4a26-9abb-a8c98a9e71b2","ios":"levelo://app?vid=b5f9c177-e511-4a26-9abb-a8c98a9e71b2"},"vehicle_type_id":"4","last_reported":1751576958,"current_range_meters":3600,"station_id":"st_cvj6sg6p6f1abm77japg","pricing_plan_id":"cebpf4jnsgd1na2vs0mg"},{"bike_id":"061169ad-fdb6-419d-8832-e962fbdc2222","system_id":"levelo_inurba_marseille","lat":43.302183,"lon":5.394749,"is_reserved":false,"is_disabled":false,"rental_uris":{"android":"levelo://app?vid=061169ad-fdb6-419d-8832-e962fbdc2222","ios":"levelo://app?vid=061169ad-fdb6-419d-8832-e962fbdc2222"},"vehicle_type_id":"4","last_reported":1751576958,"current_range_meters":4000,"station_id":"ce4bh0p2rcd13ifvqd70","pricing_plan_id":"cebpf4jnsgd1na2vs0mg"},{"bike_id":"25e48c5d-05e9-4bd2-830f-a6c4969ccdf4","system_id":"levelo_inurba_marseille","lat":43.29268,"lon":5.38444,"is_reserved":false,"is_disabled":false,"rental_uris":{"android":"levelo://app?vid=25e48c5d-05e9-4bd2-830f-a6c4969ccdf4","ios":"levelo://app?vid=25e48c5d-05e9-4bd2-830f-a6c4969ccdf4"},"vehicle_type_id":"4","last_reported":1751576958,"current_range_meters":4000,"station_id":"ce4bh692rcd13ifvqea0","pricing_plan_id":"cebpf4jnsgd1na2vs0mg"},{"bike_id":"9be7a893-e946-4685-bf23-a9e7661ccb7c","system_id":"levelo_inurba_marseille","lat":43.3235,"lon":5.3676,"is_reserved":false,"is_disabled":false,"rental_uris":{"android":"levelo://app?vid=9be7a893-e946-4685-bf23-a9e7661ccb7c","ios":"levelo://app?vid=9be7a893-e946-4685-bf23-a9e7661ccb7c"},"vehicle_type_id":"4","last_reported":1751576958,"current_range_meters":4800,"station_id":"ce4bhsh2rcd13ifvqi2g","pricing_plan_id":"cebpf4jnsgd1na2vs0mg"},{"bike_id":"96b35004-93c5-4a2b-9f77-723bef6d49c4","system_id":"levelo_inurba_marseille","lat":43.27993,"lon":5.38412,"is_reserved":false,"is_disabled":false,"rental_uris":{"android":"levelo://app?vid=96b35004-93c5-4a2b-9f77-723bef6d49c4","ios":"levelo://app?vid=96b35004-93c5-4a2b-9f77-723bef6d49c4"},"vehicle_type_id":"4","last_reported":1751576958,"current_range_meters":5600,"station_id":"","pricing_plan_id":"cebpf4jnsgd1na2vs0mg"},{"bike_id":"8a66890a-a59b-4bef-8e35-490c4eae833b","system_id":"levelo_inurba_marseille","lat":43.22477,"lon":5.34818,"is_reserved":false,"is_disabled":false,"rental_uris":{"android":"levelo://app?vid=8a66890a-a59b-4bef-8e35-490c4eae833b","ios":"levelo://app?vid=8a66890a-a59b-4bef-8e35-490c4eae833b"},"vehicle_type_id":"4","last_reported":1751576958,"current_range_meters":5600,"station_id":"st_cvj5dfep6f1abm77gieg","pricing_plan_id":"cebpf4jnsgd1na2vs0mg"},{"bike_id":"05c7b799-9781-4950-8cd4-d185fec2ae95","system_id":"levelo_inurba_marseille","lat":43.21186,"lon":5.35073,"is_reserved":false,"is_disabled":false,"rental_uris":{"android":"levelo://app?vid=05c7b799-9781-4950-8cd4-d185fec2ae95","ios":"levelo://app?vid=05c7b799-9781-4950-8cd4-d185fec2ae95"},"vehicle_type_id":"4","last_reported":1751576958,"current_range_meters":5600,"station_id":"st_cvj6sg6p6f1abm77japg","pricing_plan_id":"cebpf4jnsgd1na2vs0mg"},{"bike_id":"b6b6b60a-0c18-40e5-ac16-07e02fa91fe6","system_id":"levelo_inurba_marseille","lat":43.23185,"lon":5.39991,"is_reserved":false,"is_disabled":false,"rental_uris":{"android":"levelo://app?vid=b6b6b60a-0c18-40e5-ac16-07e02fa91fe6","ios":"levelo://app?vid=b6b6b60a-0c18-40e5-ac16-07e02fa91fe6"},"vehicle_type_id":"4","last_reported":1751576958,"current_range_meters":6000,"station_id":"ce4bhn12rcd13ifvqgqg","pricing_plan_id":"cebpf4jnsgd1na2vs0mg"},{"bike_id":"b4918386-d81a-44bb-a260-72a6610197bc","system_id":"levelo_inurba_marseille","lat":43.29403,"lon":5.37446,"is_reserved":false,"is_disabled":false,"rental_uris":{"android":"levelo://app?vid=b4918386-d81a-44bb-a260-72a6610197bc","ios":"levelo://app?vid=b4918386-d81a-44bb-a260-72a6610197bc"},"vehicle_type_id":"4","last_reported":1751576958,"current_range_meters":6400,"station_id":"","pricing_plan_id":"cebpf4jnsgd1na2vs0mg"},{"bike_id":"1d1bad28-d21b-4534-a330-d1aa9ccc5182","system_id":"levelo_inurba_marseille","lat":43.284151,"lon":5.375589,"is_reserved":false,"is_disabled":false,"rental_uris":{"android":"levelo://app?vid=1d1bad28-d21b-4534-a330-d1aa9ccc5182","ios":"levelo://app?vid=1d1bad28-d21b-4534-a330-d1aa9ccc5182"},"vehicle_type_id":"4","last_reported":1751576958,"current_range_meters":6400,"station_id":"ce4bh412rcd13ifvqds0","pricing_plan_id":"cebpf4jnsgd1na2vs0mg"},{"bike_id":"8d9604cb-0a73-4a88-b8ed-6865810af6ec","system_id":"levelo_inurba_marseille","lat":43.26678,"lon":5.38268,"is_reserved":false,"is_disabled":false,"rental_uris":{"android":"levelo://app?vid=8d9604cb-0a73-4a88-b8ed-6865810af6ec","ios":"levelo://app?vid=8d9604cb-0a73-4a88-b8ed-6865810af6ec"},"vehicle_type_id":"4","last_reported":1751576958,"current_range_meters":6400,"station_id":"ce4bhg92rcd13ifvqf90","pricing_plan_id":"cebpf4jnsgd1na2vs0mg"},{"bike_id":"fdf8f9b6-f543-45f9-b9c8-6b733eea717e","system_id":"levelo_inurba_marseille","lat":43.24387,"lon":5.37065,"is_reserved":false,"is_disabled":false,"rental_uris":{"android":"levelo://app?vid=fdf8f9b6-f543-45f9-b9c8-6b733eea717e","ios":"levelo://app?vid=fdf8f9b6-f543-45f9-b9c8-6b733eea717e"},"vehicle_type_id":"4","last_reported":1751576958,"current_range_meters":6400,"station_id":"ce4bhhh2rcd13ifvqfk0","pricing_plan_id":"cebpf4jnsgd1na2vs0mg"},{"bike_id":"24dcc44b-dda1-46e0-908d-484f5b6b21bc","system_id":"levelo_inurba_marseille","lat":43.27029,"lon":5.42278,"is_reserved":false,"is_disabled":false,"rental_uris":{"android":"levelo://app?vid=24dcc44b-dda1-46e0-908d-484f5b6b21bc","ios":"levelo://app?vid=24dcc44b-dda1-46e0-908d-484f5b6b21bc"},"vehicle_type_id":"4","last_reported":1751576958,"current_range_meters":6800,"station_id":"ce4bhk92rcd13ifvqgb0","pricing_plan_id":"cebpf4jnsgd1na2vs0mg"},{"bike_id":"6ef5da8e-7d4f-476f-8c0f-207ebffc2e62","system_id":"levelo_inurba_marseille","lat":43.28698,"lon":5.39989,"is_reserved":false,"is_disabled":false,"rental_uris":{"android":"levelo://app?vid=6ef5da8e-7d4f-476f-8c0f-207ebffc2e62","ios":"levelo://app?vid=6ef5da8e-7d4f-476f-8c0f-207ebffc2e62"},"vehicle_type_id":"4","last_reported":1751576958,"current_range_meters":6800,"station_id":"ce4bho92rcd13ifvqh3g","pricing_plan_id":"cebpf4jnsgd1na2vs0mg"},{"bike_id":"98c59ac5-2ebb-4b20-a970-7e48cec0d47b","system_id":"levelo_inurba_marseille","lat":43.285717,"lon":5.395014,"is_reserved":false,"is_disabled":false,"rental_uris":{"android":"levelo://app?vid=98c59ac5-2ebb-4b20-a970-7e48cec0d47b","ios":"levelo://app?vid=98c59ac5-2ebb-4b20-a970-7e48cec0d47b"},"vehicle_type_id":"4","last_reported":1751576958,"current_range_meters":7200,"station_id":"ce4bh292rcd13ifvqdg0","pricing_plan_id":"cebpf4jnsgd1na2vs0mg"},{"bike_id":"cbdaade4-3d94-40b1-8142-a2430bd193cd","system_id":"levelo_inurba_marseille","lat":43.2717,"lon":5.40994,"is_reserved":false,"is_disabled":false,"rental_uris":{"android":"levelo://app?vid=cbdaade4-3d94-40b1-8142-a2430bd193cd","ios":"levelo://app?vid=cbdaade4-3d94-40b1-8142-a2430bd193cd"},"vehicle_type_id":"4","last_reported":1751576958,"current_range_meters":7200,"station_id":"ce4bhl12rcd13ifvqgf0","pricing_plan_id":"cebpf4jnsgd1na2vs0mg"},{"bike_id":"1d10d0bc-adf3-489c-a01d-f15ffea9a7f6","system_id":"levelo_inurba_marseille","lat":43.28448,"lon":5.39202,"is_reserved":false,"is_disabled":false,"rental_uris":{"android":"levelo://app?vid=1d10d0bc-adf3-489c-a01d-f15ffea9a7f6","ios":"levelo://app?vid=1d10d0bc-adf3-489c-a01d-f15ffea9a7f6"},"vehicle_type_id":"4","last_reported":1751576958,"current_range_meters":7200,"station_id":"ce4bhoh2rcd13ifvqh5g","pricing_plan_id":"cebpf4jnsgd1na2vs0mg"},{"bike_id":"c09634b8-eafb-4871-b3b8-f56862a4cfe9","system_id":"levelo_inurba_marseille","lat":43.29983,"lon":5.38493,"is_reserved":false,"is_disabled":false,"rental_uris":{"android":"levelo://app?vid=c09634b8-eafb-4871-b3b8-f56862a4cfe9","ios":"levelo://app?vid=c09634b8-eafb-4871-b3b8-f56862a4cfe9"},"vehicle_type_id":"4","last_reported":1751576958,"current_range_meters":8000,"station_id":"ce4bgj92rcd13ifvqbd0","pricing_plan_id":"cebpf4jnsgd1na2vs0mg"},{"bike_id":"6914eeb4-1226-434e-851a-7ab8227c1090","system_id":"levelo_inurba_marseille","lat":43.30321,"lon":5.36903,"is_reserved":false,"is_disabled":false,"rental_uris":{"android":"levelo://app?vid=6914eeb4-1226-434e-851a-7ab8227c1090","ios":"levelo://app?vid=6914eeb4-1226-434e-851a-7ab8227c1090"},"vehicle_type_id":"4","last_reported":1751576958,"current_range_meters":8000,"station_id":"ce4bgqh2rcd13ifvqc5g","pricing_plan_id":"cebpf4jnsgd1na2vs0mg"},{"bike_id":"e6f651c1-15c0-49f4-9e32-483ea7f56f7f","system_id":"levelo_inurba_marseille","lat":43.29621,"lon":5.406,"is_reserved":false,"is_disabled":false,"rental_uris":{"android":"levelo://app?vid=e6f651c1-15c0-49f4-9e32-483ea7f56f7f","ios":"levelo://app?vid=e6f651c1-15c0-49f4-9e32-483ea7f56f7f"},"vehicle_type_id":"4","last_reported":1751576958,"current_range_meters":8000,"station_id":"ce4bh0h2rcd13ifvqd60","pricing_plan_id":"cebpf4jnsgd1na2vs0mg"},{"bike_id":"1ce474d5-2571-4a0f-a753-3d784522bf70","system_id":"levelo_inurba_marseille","lat":43.29004,"lon":5.3562,"is_reserved":false,"is_disabled":false,"rental_uris":{"android":"levelo://app?vid=1ce474d5-2571-4a0f-a753-3d784522bf70","ios":"levelo://app?vid=1ce474d5-2571-4a0f-a753-3d784522bf70"},"vehicle_type_id":"4","last_reported":1751576958,"current_range_meters":8000,"station_id":"ce4bhb92rcd13ifvqen0","pricing_plan_id":"cebpf4jnsgd1na2vs0mg"},{"bike_id":"b4faa684-5df7-458b-befc-008c7bf2a1d1","system_id":"levelo_inurba_marseille","lat":43.29554,"lon":5.42298,"is_reserved":false,"is_disabled":false,"rental_uris":{"android":"levelo://app?vid=b4faa684-5df7-458b-befc-008c7bf2a1d1","ios":"levelo://app?vid=b4faa684-5df7-458b-befc-008c7bf2a1d1"},"vehicle_type_id":"4","last_reported":1751576958,"current_range_meters":8000,"station_id":"ce4bhph2rcd13ifvqhdg","pricing_plan_id":"cebpf4jnsgd1na2vs0mg"},{"bike_id":"ee52bb69-c8b2-41be-a2e5-3247fedc1a39","system_id":"levelo_inurba_marseille","lat":43.24071,"lon":5.37174,"is_reserved":false,"is_disabled":false,"rental_uris":{"android":"levelo://app?vid=ee52bb69-c8b2-41be-a2e5-3247fedc1a39","ios":"levelo://app?vid=ee52bb69-c8b2-41be-a2e5-3247fedc1a39"},"vehicle_type_id":"4","last_reported":1751576958,"current_range_meters":8400,"station_id":"","pricing_plan_id":"cebpf4jnsgd1na2vs0mg"},{"bike_id":"e23e16a3-1327-4c71-ac4b-6bb697cbacb9","system_id":"levelo_inurba_marseille","lat":43.30889,"lon":5.40061,"is_reserved":false,"is_disabled":false,"rental_uris":{"android":"levelo://app?vid=e23e16a3-1327-4c71-ac4b-6bb697cbacb9","ios":"levelo://app?vid=e23e16a3-1327-4c71-ac4b-6bb697cbacb9"},"vehicle_type_id":"4","last_reported":1751576958,"current_range_meters":8400,"station_id":"","pricing_plan_id":"cebpf4jnsgd1na2vs0mg"},{"bike_id":"9a7d342a-ff8e-46c4-af1e-6e0519bd67dc","system_id":"levelo_inurba_marseille","lat":43.291433,"lon":5.355899,"is_reserved":false,"is_disabled":false,"rental_uris":{"android":"levelo://app?vid=9a7d342a-ff8e-46c4-af1e-6e0519bd67dc","ios":"levelo://app?vid=9a7d342a-ff8e-46c4-af1e-6e0519bd67dc"},"vehicle_type_id":"4","last_reported":1751576958,"current_range_meters":8400,"station_id":"","pricing_plan_id":"cebpf4jnsgd1na2vs0mg"},{"bike_id":"00d46ac4-69df-4734-9dd0-ce895d1ff144","system_id":"levelo_inurba_marseille","lat":43.28672,"lon":5.38654,"is_reserved":false,"is_disabled":false,"rental_uris":{"android":"levelo://app?vid=00d46ac4-69df-4734-9dd0-ce895d1ff144","ios":"levelo://app?vid=00d46ac4-69df-4734-9dd0-ce895d1ff144"},"vehicle_type_id":"4","last_reported":1751576958,"current_range_meters":8400,"station_id":"ce4bh492rcd13ifvqdug","pricing_plan_id":"cebpf4jnsgd1na2vs0mg"},{"bike_id":"c3e02b04-1275-4d03-a5fb-3c70493d7956","system_id":"levelo_inurba_marseille","lat":43.284729,"lon":5.384116,"is_reserved":false,"is_disabled":false,"rental_uris":{"android":"levelo://app?vid=c3e02b04-1275-4d03-a5fb-3c70493d7956","ios":"levelo://app?vid=c3e02b04-1275-4d03-a5fb-3c70493d7956"},"vehicle_type_id":"4","last_reported":1751576958,"current_range_meters":8400,"station_id":"ce4bh512rcd13ifvqe3g","pricing_plan_id":"cebpf4jnsgd1na2vs0mg"},{"bike_id":"fd03b24c-5584-4d05-9c47-bb1e5e23bb1d","system_id":"levelo_inurba_marseille","lat":43.2418,"lon":5.39734,"is_reserved":false,"is_disabled":false,"rental_uris":{"android":"levelo://app?vid=fd03b24c-5584-4d05-9c47-bb1e5e23bb1d","ios":"levelo://app?vid=fd03b24c-5584-4d05-9c47-bb1e5e23bb1d"},"vehicle_type_id":"4","last_reported":1751576958,"current_range_meters":8400,"station_id":"ce4bhn12rcd13ifvqgpg","pricing_plan_id":"cebpf4jnsgd1na2vs0mg"},{"bike_id":"83d2f70d-2cd5-442c-933c-65b60aeb4ec4","system_id":"levelo_inurba_marseille","lat":43.27975,"lon":5.38682,"is_reserved":false,"is_disabled":false,"rental_uris":{"android":"levelo://app?vid=83d2f70d-2cd5-442c-933c-65b60aeb4ec4","ios":"levelo://app?vid=83d2f70d-2cd5-442c-933c-65b60aeb4ec4"},"vehicle_type_id":"4","last_reported":1751576958,"current_range_meters":8800,"station_id":"","pricing_plan_id":"cebpf4jnsgd1na2vs0mg"},{"bike_id":"bf00a211-3496-4df0-8e4e-99767047ca09","system_id":"levelo_inurba_marseille","lat":43.29949,"lon":5.37634,"is_reserved":false,"is_disabled":false,"rental_uris":{"android":"levelo://app?vid=bf00a211-3496-4df0-8e4e-99767047ca09","ios":"levelo://app?vid=bf00a211-3496-4df0-8e4e-99767047ca09"},"vehicle_type_id":"4","last_reported":1751576958,"current_range_meters":8800,"station_id":"","pricing_plan_id":"cebpf4jnsgd1na2vs0mg"},{"bike_id":"e26ba497-efc7-4420-b8c5-9fa5e27f2ce4","system_id":"levelo_inurba_marseille","lat":43.31388,"lon":5.37064,"is_reserved":false,"is_disabled":false,"rental_uris":{"android":"levelo://app?vid=e26ba497-efc7-4420-b8c5-9fa5e27f2ce4","ios":"levelo://app?vid=e26ba497-efc7-4420-b8c5-9fa5e27f2ce4"},"vehicle_type_id":"4","last_reported":1751576958,"current_range_meters":8800,"station_id":"","pricing_plan_id":"cebpf4jnsgd1na2vs0mg"},{"bike_id":"e88caa9b-a2c2-476e-9d2c-a194d81d5893","system_id":"levelo_inurba_marseille","lat":43.3093,"lon":5.40141,"is_reserved":false,"is_disabled":false,"rental_uris":{"android":"levelo://app?vid=e88caa9b-a2c2-476e-9d2c-a194d81d5893","ios":"levelo://app?vid=e88caa9b-a2c2-476e-9d2c-a194d81d5893"},"vehicle_type_id":"4","last_reported":1751576958,"current_range_meters":8800,"station_id":"ce4bgvp2rcd13ifvqct0","pricing_plan_id":"cebpf4jnsgd1na2vs0mg"},{"bike_id":"22c65f34-5b9a-4ce8-b3b0-5a1a52b259a2","system_id":"levelo_inurba_marseille","lat":43.29707,"lon":5.40218,"is_reserved":false,"is_disabled":false,"rental_uris":{"android":"levelo://app?vid=22c65f34-5b9a-4ce8-b3b0-5a1a52b259a2","ios":"levelo://app?vid=22c65f34-5b9a-4ce8-b3b0-5a1a52b259a2"},"vehicle_type_id":"4","last_reported":1751576958,"current_range_meters":9200,"station_id":"","pricing_plan_id":"cebpf4jnsgd1na2vs0mg"},{"bike_id":"febb669e-b7b5-4a10-96d3-9c8e4900a325","system_id":"levelo_inurba_marseille","lat":43.2418,"lon":5.39726,"is_reserved":false,"is_disabled":false,"rental_uris":{"android":"levelo://app?vid=febb669e-b7b5-4a10-96d3-9c8e4900a325","ios":"levelo://app?vid=febb669e-b7b5-4a10-96d3-9c8e4900a325"},"vehicle_type_id":"4","last_reported":1751576958,"current_range_meters":9200,"station_id":"ce4bhn12rcd13ifvqgpg","pricing_plan_id":"cebpf4jnsgd1na2vs0mg"},{"bike_id":"d31dab42-ab09-4a76-9f25-512564f0ebcd","system_id":"levelo_inurba_marseille","lat":43.28081,"lon":5.39653,"is_reserved":false,"is_disabled":false,"rental_uris":{"android":"levelo://app?vid=d31dab42-ab09-4a76-9f25-512564f0ebcd","ios":"levelo://app?vid=d31dab42-ab09-4a76-9f25-512564f0ebcd"},"vehicle_type_id":"4","last_reported":1751576958,"current_range_meters":9200,"station_id":"ce4bho12rcd13ifvqh2g","pricing_plan_id":"cebpf4jnsgd1na2vs0mg"},{"bike_id":"bcfd0eda-b9ab-4bec-9ca3-3f2b86617415","system_id":"levelo_inurba_marseille","lat":43.21186,"lon":5.35073,"is_reserved":false,"is_disabled":false,"rental_uris":{"android":"levelo://app?vid=bcfd0eda-b9ab-4bec-9ca3-3f2b86617415","ios":"levelo://app?vid=bcfd0eda-b9ab-4bec-9ca3-3f2b86617415"},"vehicle_type_id":"4","last_reported":1751576958,"current_range_meters":9200,"station_id":"st_cvj6sg6p6f1abm77japg","pricing_plan_id":"cebpf4jnsgd1na2vs0mg"},{"bike_id":"4d8e3b01-a659-4741-8263-860e998b1ee4","system_id":"levelo_inurba_marseille","lat":43.21197,"lon":5.35079,"is_reserved":false,"is_disabled":false,"rental_uris":{"android":"levelo://app?vid=4d8e3b01-a659-4741-8263-860e998b1ee4","ios":"levelo://app?vid=4d8e3b01-a659-4741-8263-860e998b1ee4"},"vehicle_type_id":"4","last_reported":1751576958,"current_range_meters":9200,"station_id":"st_cvj6sg6p6f1abm77japg","pricing_plan_id":"cebpf4jnsgd1na2vs0mg"},{"bike_id":"e71ea0d9-a06a-412d-b02e-898a3be327f9","system_id":"levelo_inurba_marseille","lat":43.30309,"lon":5.36899,"is_reserved":false,"is_disabled":false,"rental_uris":{"android":"levelo://app?vid=e71ea0d9-a06a-412d-b02e-898a3be327f9","ios":"levelo://app?vid=e71ea0d9-a06a-412d-b02e-898a3be327f9"},"vehicle_type_id":"4","last_reported":1751576958,"current_range_meters":9600,"station_id":"ce4bgqh2rcd13ifvqc5g","pricing_plan_id":"cebpf4jnsgd1na2vs0mg"},{"bike_id":"6765cb7d-b7bb-4842-90d4-6366979b745b","system_id":"levelo_inurba_marseille","lat":43.27839,"lon":5.39209,"is_reserved":false,"is_disabled":false,"rental_uris":{"android":"levelo://app?vid=6765cb7d-b7bb-4842-90d4-6366979b745b","ios":"levelo://app?vid=6765cb7d-b7bb-4842-90d4-6366979b745b"},"vehicle_type_id":"4","last_reported":1751576958,"current_range_meters":9600,"station_id":"ce4bhjp2rcd13ifvqga0","pricing_plan_id":"cebpf4jnsgd1na2vs0mg"},{"bike_id":"d91ca596-b2d6-4e09-8836-d0eafcb2a1b8","system_id":"levelo_inurba_marseille","lat":43.29797,"lon":5.39337,"is_reserved":false,"is_disabled":false,"rental_uris":{"android":"levelo://app?vid=d91ca596-b2d6-4e09-8836-d0eafcb2a1b8","ios":"levelo://app?vid=d91ca596-b2d6-4e09-8836-d0eafcb2a1b8"},"vehicle_type_id":"4","last_reported":1751576958,"current_range_meters":9600,"station_id":"chh1huq6cuj3fo74tm60","pricing_plan_id":"cebpf4jnsgd1na2vs0mg"},{"bike_id":"0b03e171-2415-4997-a909-94fffa24318c","system_id":"levelo_inurba_marseille","lat":43.29744,"lon":5.37929,"is_reserved":false,"is_disabled":false,"rental_uris":{"android":"levelo://app?vid=0b03e171-2415-4997-a909-94fffa24318c","ios":"levelo://app?vid=0b03e171-2415-4997-a909-94fffa24318c"},"vehicle_type_id":"4","last_reported":1751576958,"current_range_meters":10000,"station_id":"","pricing_plan_id":"cebpf4jnsgd1na2vs0mg"},{"bike_id":"058faf69-792d-4448-a055-621685f00526","system_id":"levelo_inurba_marseille","lat":43.25614,"lon":5.41106,"is_reserved":false,"is_disabled":false,"rental_uris":{"android":"levelo://app?vid=058faf69-792d-4448-a055-621685f00526","ios":"levelo://app?vid=058faf69-792d-4448-a055-621685f00526"},"vehicle_type_id":"4","last_reported":1751576958,"current_range_meters":10000,"station_id":"","pricing_plan_id":"cebpf4jnsgd1na2vs0mg"},{"bike_id":"543aa2fd-46ca-488c-a54b-a917ff397dad","system_id":"levelo_inurba_marseille","lat":43.29888,"lon":5.39734,"is_reserved":false,"is_disabled":false,"rental_uris":{"android":"levelo://app?vid=543aa2fd-46ca-488c-a54b-a917ff397dad","ios":"levelo://app?vid=543aa2fd-46ca-488c-a54b-a917ff397dad"},"vehicle_type_id":"4","last_reported":1751576958,"current_range_meters":10000,"station_id":"ce4bh0h2rcd13ifvqd50","pricing_plan_id":"cebpf4jnsgd1na2vs0mg"},{"bike_id":"6374cd1d-10ee-494e-8109-1cd0c2fd0453","system_id":"levelo_inurba_marseille","lat":43.28339,"lon":5.38106,"is_reserved":false,"is_disabled":false,"rental_uris":{"android":"levelo://app?vid=6374cd1d-10ee-494e-8109-1cd0c2fd0453","ios":"levelo://app?vid=6374cd1d-10ee-494e-8109-1cd0c2fd0453"},"vehicle_type_id":"4","last_reported":1751576958,"current_range_meters":10000,"station_id":"ce4bh412rcd13ifvqdr0","pricing_plan_id":"cebpf4jnsgd1na2vs0mg"},{"bike_id":"d54cc6cf-8bd3-413c-9cc9-bf6b2f0bf69f","system_id":"levelo_inurba_marseille","lat":43.28723,"lon":5.37951,"is_reserved":false,"is_disabled":false,"rental_uris":{"android":"levelo://app?vid=d54cc6cf-8bd3-413c-9cc9-bf6b2f0bf69f","ios":"levelo://app?vid=d54cc6cf-8bd3-413c-9cc9-bf6b2f0bf69f"},"vehicle_type_id":"4","last_reported":1751576958,"current_range_meters":10000,"station_id":"ce4bh9p2rcd13ifvqec0","pricing_plan_id":"cebpf4jnsgd1na2vs0mg"},{"bike_id":"7f31cae1-9e47-40be-af25-cafa3596a3cd","system_id":"levelo_inurba_marseille","lat":43.25931,"lon":5.40915,"is_reserved":false,"is_disabled":false,"rental_uris":{"android":"levelo://app?vid=7f31cae1-9e47-40be-af25-cafa3596a3cd","ios":"levelo://app?vid=7f31cae1-9e47-40be-af25-cafa3596a3cd"},"vehicle_type_id":"4","last_reported":1751576958,"current_range_meters":10000,"station_id":"ce4bhm92rcd13ifvqglg","pricing_plan_id":"cebpf4jnsgd1na2vs0mg"},{"bike_id":"df6cc161-c315-4ce0-a2a6-61c4dcfa0537","system_id":"levelo_inurba_marseille","lat":43.27942,"lon":5.41049,"is_reserved":false,"is_disabled":false,"rental_uris":{"android":"levelo://app?vid=df6cc161-c315-4ce0-a2a6-61c4dcfa0537","ios":"levelo://app?vid=df6cc161-c315-4ce0-a2a6-61c4dcfa0537"},"vehicle_type_id":"4","last_reported":1751576958,"current_range_meters":10000,"station_id":"ce4bhnp2rcd13ifvqh0g","pricing_plan_id":"cebpf4jnsgd1na2vs0mg"},{"bike_id":"80dc1f7a-aef4-4735-9554-8a71a9c1d34c","system_id":"levelo_inurba_marseille","lat":43.3043,"lon":5.38898,"is_reserved":false,"is_disabled":false,"rental_uris":{"android":"levelo://app?vid=80dc1f7a-aef4-4735-9554-8a71a9c1d34c","ios":"levelo://app?vid=80dc1f7a-aef4-4735-9554-8a71a9c1d34c"},"vehicle_type_id":"4","last_reported":1751576958,"current_range_meters":10800,"station_id":"ce4bgk12rcd13ifvqbi0","pricing_plan_id":"cebpf4jnsgd1na2vs0mg"},{"bike_id":"e945d5f1-b880-4784-9c55-3a1c56040fe5","system_id":"levelo_inurba_marseille","lat":43.2926,"lon":5.4091,"is_reserved":false,"is_disabled":false,"rental_uris":{"android":"levelo://app?vid=e945d5f1-b880-4784-9c55-3a1c56040fe5","ios":"levelo://app?vid=e945d5f1-b880-4784-9c55-3a1c56040fe5"},"vehicle_type_id":"4","last_reported":1751576958,"current_range_meters":10800,"station_id":"ce4bh192rcd13ifvqdc0","pricing_plan_id":"cebpf4jnsgd1na2vs0mg"},{"bike_id":"5c01d754-0378-4868-a737-a85916124b56","system_id":"levelo_inurba_marseille","lat":43.28704,"lon":5.37397,"is_reserved":false,"is_disabled":false,"rental_uris":{"android":"levelo://app?vid=5c01d754-0378-4868-a737-a85916124b56","ios":"levelo://app?vid=5c01d754-0378-4868-a737-a85916124b56"},"vehicle_type_id":"4","last_reported":1751576958,"current_range_meters":10800,"station_id":"ce4bh3p2rcd13ifvqdq0","pricing_plan_id":"cebpf4jnsgd1na2vs0mg"},{"bike_id":"334678da-170d-48e6-904c-e59b72c3ec4d","system_id":"levelo_inurba_marseille","lat":43.28703,"lon":5.37932,"is_reserved":false,"is_disabled":false,"rental_uris":{"android":"levelo://app?vid=334678da-170d-48e6-904c-e59b72c3ec4d","ios":"levelo://app?vid=334678da-170d-48e6-904c-e59b72c3ec4d"},"vehicle_type_id":"4","last_reported":1751576958,"current_range_meters":10800,"station_id":"ce4bh9p2rcd13ifvqec0","pricing_plan_id":"cebpf4jnsgd1na2vs0mg"},{"bike_id":"7e1ccdd1-0520-4920-aee5-1f436187c2ec","system_id":"levelo_inurba_marseille","lat":43.32659,"lon":5.40992,"is_reserved":false,"is_disabled":false,"rental_uris":{"android":"levelo://app?vid=7e1ccdd1-0520-4920-aee5-1f436187c2ec","ios":"levelo://app?vid=7e1ccdd1-0520-4920-aee5-1f436187c2ec"},"vehicle_type_id":"4","last_reported":1751576958,"current_range_meters":10800,"station_id":"ce4bhpp2rcd13ifvqhgg","pricing_plan_id":"cebpf4jnsgd1na2vs0mg"},{"bike_id":"0e030323-4386-4e72-9a0d-0f6a2ff539de","system_id":"levelo_inurba_marseille","lat":43.29594,"lon":5.40547,"is_reserved":false,"is_disabled":false,"rental_uris":{"android":"levelo://app?vid=0e030323-4386-4e72-9a0d-0f6a2ff539de","ios":"levelo://app?vid=0e030323-4386-4e72-9a0d-0f6a2ff539de"},"vehicle_type_id":"4","last_reported":1751576958,"current_range_meters":11200,"station_id":"","pricing_plan_id":"cebpf4jnsgd1na2vs0mg"},{"bike_id":"cc186e48-541f-44d4-8128-2e397bd0b72b","system_id":"levelo_inurba_marseille","lat":43.29912,"lon":5.381505,"is_reserved":false,"is_disabled":false,"rental_uris":{"android":"levelo://app?vid=cc186e48-541f-44d4-8128-2e397bd0b72b","ios":"levelo://app?vid=cc186e48-541f-44d4-8128-2e397bd0b72b"},"vehicle_type_id":"4","last_reported":1751576958,"current_range_meters":11200,"station_id":"ce4bgj12rcd13ifvqbc0","pricing_plan_id":"cebpf4jnsgd1na2vs0mg"},{"bike_id":"64b0ad2c-c4f8-4dee-b3de-d24017194d6d","system_id":"levelo_inurba_marseille","lat":43.29036,"lon":5.3997,"is_reserved":false,"is_disabled":false,"rental_uris":{"android":"levelo://app?vid=64b0ad2c-c4f8-4dee-b3de-d24017194d6d","ios":"levelo://app?vid=64b0ad2c-c4f8-4dee-b3de-d24017194d6d"},"vehicle_type_id":"4","last_reported":1751576958,"current_range_meters":11200,"station_id":"ce4bh392rcd13ifvqdm0","pricing_plan_id":"cebpf4jnsgd1na2vs0mg"},{"bike_id":"d799b321-3a7d-4201-b46e-ffe2ad124f19","system_id":"levelo_inurba_marseille","lat":43.32891,"lon":5.38364,"is_reserved":false,"is_disabled":false,"rental_uris":{"android":"levelo://app?vid=d799b321-3a7d-4201-b46e-ffe2ad124f19","ios":"levelo://app?vid=d799b321-3a7d-4201-b46e-ffe2ad124f19"},"vehicle_type_id":"4","last_reported":1751576958,"current_range_meters":11600,"station_id":"","pricing_plan_id":"cebpf4jnsgd1na2vs0mg"},{"bike_id":"39693f81-d450-48cb-b4ab-16c8b85291a8","system_id":"levelo_inurba_marseille","lat":43.31357,"lon":5.3849,"is_reserved":false,"is_disabled":false,"rental_uris":{"android":"levelo://app?vid=39693f81-d450-48cb-b4ab-16c8b85291a8","ios":"levelo://app?vid=39693f81-d450-48cb-b4ab-16c8b85291a8"},"vehicle_type_id":"4","last_reported":1751576958,"current_range_meters":11600,"station_id":"ce4bgt92rcd13ifvqcf0","pricing_plan_id":"cebpf4jnsgd1na2vs0mg"},{"bike_id":"68e187c5-5344-4446-9917-fcc957e4cce9","system_id":"levelo_inurba_marseille","lat":43.31715,"lon":5.40453,"is_reserved":false,"is_disabled":false,"rental_uris":{"android":"levelo://app?vid=68e187c5-5344-4446-9917-fcc957e4cce9","ios":"levelo://app?vid=68e187c5-5344-4446-9917-fcc957e4cce9"},"vehicle_type_id":"4","last_reported":1751576958,"current_range_meters":11600,"station_id":"ce4bh012rcd13ifvqd00","pricing_plan_id":"cebpf4jnsgd1na2vs0mg"},{"bike_id":"36d4a47d-5bc2-41dc-bc6f-a24f306ec808","system_id":"levelo_inurba_marseille","lat":43.24175,"lon":5.39734,"is_reserved":false,"is_disabled":false,"rental_uris":{"android":"levelo://app?vid=36d4a47d-5bc2-41dc-bc6f-a24f306ec808","ios":"levelo://app?vid=36d4a47d-5bc2-41dc-bc6f-a24f306ec808"},"vehicle_type_id":"4","last_reported":1751576958,"current_range_meters":11600,"station_id":"ce4bhn12rcd13ifvqgpg","pricing_plan_id":"cebpf4jnsgd1na2vs0mg"},{"bike_id":"9046cd87-a5b8-4a88-b03d-053f628cf0c1","system_id":"levelo_inurba_marseille","lat":43.28696,"lon":5.39983,"is_reserved":false,"is_disabled":false,"rental_uris":{"android":"levelo://app?vid=9046cd87-a5b8-4a88-b03d-053f628cf0c1","ios":"levelo://app?vid=9046cd87-a5b8-4a88-b03d-053f628cf0c1"},"vehicle_type_id":"4","last_reported":1751576958,"current_range_meters":11600,"station_id":"ce4bho92rcd13ifvqh3g","pricing_plan_id":"cebpf4jnsgd1na2vs0mg"},{"bike_id":"912d67f3-78e7-48fd-8929-37f0572cfee4","system_id":"levelo_inurba_marseille","lat":43.26372,"lon":5.37422,"is_reserved":false,"is_disabled":false,"rental_uris":{"android":"levelo://app?vid=912d67f3-78e7-48fd-8929-37f0572cfee4","ios":"levelo://app?vid=912d67f3-78e7-48fd-8929-37f0572cfee4"},"vehicle_type_id":"4","last_reported":1751576958,"current_range_meters":12000,"station_id":"","pricing_plan_id":"cebpf4jnsgd1na2vs0mg"},{"bike_id":"a588469b-12ca-41c6-8c6f-3f3bda5b7f15","system_id":"levelo_inurba_marseille","lat":43.31577,"lon":5.38357,"is_reserved":false,"is_disabled":false,"rental_uris":{"android":"levelo://app?vid=a588469b-12ca-41c6-8c6f-3f3bda5b7f15","ios":"levelo://app?vid=a588469b-12ca-41c6-8c6f-3f3bda5b7f15"},"vehicle_type_id":"4","last_reported":1751576958,"current_range_meters":12000,"station_id":"","pricing_plan_id":"cebpf4jnsgd1na2vs0mg"},{"bike_id":"5d93730f-444f-4280-8492-06a25985853b","system_id":"levelo_inurba_marseille","lat":43.30232,"lon":5.40055,"is_reserved":false,"is_disabled":false,"rental_uris":{"android":"levelo://app?vid=5d93730f-444f-4280-8492-06a25985853b","ios":"levelo://app?vid=5d93730f-444f-4280-8492-06a25985853b"},"vehicle_type_id":"4","last_reported":1751576958,"current_range_meters":12000,"station_id":"ce4bgvh2rcd13ifvqcs0","pricing_plan_id":"cebpf4jnsgd1na2vs0mg"},{"bike_id":"ed5b7f2d-fe53-4435-a366-c8c344187fad","system_id":"levelo_inurba_marseille","lat":43.29163,"lon":5.3717,"is_reserved":false,"is_disabled":false,"rental_uris":{"android":"levelo://app?vid=ed5b7f2d-fe53-4435-a366-c8c344187fad","ios":"levelo://app?vid=ed5b7f2d-fe53-4435-a366-c8c344187fad"},"vehicle_type_id":"4","last_reported":1751576958,"current_range_meters":12000,"station_id":"ce4bha92rcd13ifvqeh0","pricing_plan_id":"cebpf4jnsgd1na2vs0mg"},{"bike_id":"22d9ee4c-62e6-44b3-907d-d5b3ffcf9eb8","system_id":"levelo_inurba_marseille","lat":43.24798,"lon":5.37466,"is_reserved":false,"is_disabled":false,"rental_uris":{"android":"levelo://app?vid=22d9ee4c-62e6-44b3-907d-d5b3ffcf9eb8","ios":"levelo://app?vid=22d9ee4c-62e6-44b3-907d-d5b3ffcf9eb8"},"vehicle_type_id":"4","last_reported":1751576958,"current_range_meters":12000,"station_id":"ce4bhgh2rcd13ifvqfb0","pricing_plan_id":"cebpf4jnsgd1na2vs0mg"},{"bike_id":"3d513bcd-92bb-4303-8df5-e2cc921cd4b6","system_id":"levelo_inurba_marseille","lat":43.27825,"lon":5.39206,"is_reserved":false,"is_disabled":false,"rental_uris":{"android":"levelo://app?vid=3d513bcd-92bb-4303-8df5-e2cc921cd4b6","ios":"levelo://app?vid=3d513bcd-92bb-4303-8df5-e2cc921cd4b6"},"vehicle_type_id":"4","last_reported":1751576958,"current_range_meters":12000,"station_id":"ce4bhjp2rcd13ifvqga0","pricing_plan_id":"cebpf4jnsgd1na2vs0mg"},{"bike_id":"4b2efbb6-f3ae-4b88-b9e5-2948db824e7d","system_id":"levelo_inurba_marseille","lat":43.29634,"lon":5.39456,"is_reserved":false,"is_disabled":false,"rental_uris":{"android":"levelo://app?vid=4b2efbb6-f3ae-4b88-b9e5-2948db824e7d","ios":"levelo://app?vid=4b2efbb6-f3ae-4b88-b9e5-2948db824e7d"},"vehicle_type_id":"4","last_reported":1751576958,"current_range_meters":12400,"station_id":"","pricing_plan_id":"cebpf4jnsgd1na2vs0mg"},{"bike_id":"bccb34f9-0872-4b0d-9793-613ffc5c3e0b","system_id":"levelo_inurba_marseille","lat":43.27603,"lon":5.36125,"is_reserved":false,"is_disabled":false,"rental_uris":{"android":"levelo://app?vid=bccb34f9-0872-4b0d-9793-613ffc5c3e0b","ios":"levelo://app?vid=bccb34f9-0872-4b0d-9793-613ffc5c3e0b"},"vehicle_type_id":"4","last_reported":1751576958,"current_range_meters":12400,"station_id":"ce4bgj92rcd13ifvqbe0","pricing_plan_id":"cebpf4jnsgd1na2vs0mg"},{"bike_id":"338c9cf5-81a8-4bd9-bb11-50ac270d49c7","system_id":"levelo_inurba_marseille","lat":43.2959,"lon":5.3674,"is_reserved":false,"is_disabled":false,"rental_uris":{"android":"levelo://app?vid=338c9cf5-81a8-4bd9-bb11-50ac270d49c7","ios":"levelo://app?vid=338c9cf5-81a8-4bd9-bb11-50ac270d49c7"},"vehicle_type_id":"4","last_reported":1751576958,"current_range_meters":12400,"station_id":"ce4bgph2rcd13ifvqc2g","pricing_plan_id":"cebpf4jnsgd1na2vs0mg"},{"bike_id":"31c0bb9f-3584-44b8-81d0-00dcff3cba64","system_id":"levelo_inurba_marseille","lat":43.2557,"lon":5.38236,"is_reserved":false,"is_disabled":false,"rental_uris":{"android":"levelo://app?vid=31c0bb9f-3584-44b8-81d0-00dcff3cba64","ios":"levelo://app?vid=31c0bb9f-3584-44b8-81d0-00dcff3cba64"},"vehicle_type_id":"4","last_reported":1751576958,"current_range_meters":12400,"station_id":"ce4bhih2rcd13ifvqfs0","pricing_plan_id":"cebpf4jnsgd1na2vs0mg"},{"bike_id":"2dfa6b50-ffae-47b5-a59f-0e09e8483e9e","system_id":"levelo_inurba_marseille","lat":43.27941,"lon":5.41054,"is_reserved":false,"is_disabled":false,"rental_uris":{"android":"levelo://app?vid=2dfa6b50-ffae-47b5-a59f-0e09e8483e9e","ios":"levelo://app?vid=2dfa6b50-ffae-47b5-a59f-0e09e8483e9e"},"vehicle_type_id":"4","last_reported":1751576958,"current_range_meters":12400,"station_id":"ce4bhnp2rcd13ifvqh0g","pricing_plan_id":"cebpf4jnsgd1na2vs0mg"},{"bike_id":"2f80f1c2-f2f0-48e6-9ef3-2b3667cc68dd","system_id":"levelo_inurba_marseille","lat":43.28428,"lon":5.39195,"is_reserved":false,"is_disabled":false,"rental_uris":{"android":"levelo://app?vid=2f80f1c2-f2f0-48e6-9ef3-2b3667cc68dd","ios":"levelo://app?vid=2f80f1c2-f2f0-48e6-9ef3-2b3667cc68dd"},"vehicle_type_id":"4","last_reported":1751576958,"current_range_meters":12400,"station_id":"ce4bhoh2rcd13ifvqh5g","pricing_plan_id":"cebpf4jnsgd1na2vs0mg"},{"bike_id":"0a98d0e9-09e3-4690-8913-2d440e4c26c7","system_id":"levelo_inurba_marseille","lat":43.29966,"lon":5.38496,"is_reserved":false,"is_disabled":false,"rental_uris":{"android":"levelo://app?vid=0a98d0e9-09e3-4690-8913-2d440e4c26c7","ios":"levelo://app?vid=0a98d0e9-09e3-4690-8913-2d440e4c26c7"},"vehicle_type_id":"4","last_reported":1751576958,"current_range_meters":12800,"station_id":"ce4bgj92rcd13ifvqbd0","pricing_plan_id":"cebpf4jnsgd1na2vs0mg"},{"bike_id":"05cead15-229f-4df7-be28-65114c415172","system_id":"levelo_inurba_marseille","lat":43.29369,"lon":5.37881,"is_reserved":false,"is_disabled":false,"rental_uris":{"android":"levelo://app?vid=05cead15-229f-4df7-be28-65114c415172","ios":"levelo://app?vid=05cead15-229f-4df7-be28-65114c415172"},"vehicle_type_id":"4","last_reported":1751576958,"current_range_meters":12800,"station_id":"ce4bgjh2rcd13ifvqbf0","pricing_plan_id":"cebpf4jnsgd1na2vs0mg"},{"bike_id":"e5079e40-e000-4e15-ac2b-20c66ca6a02f","system_id":"levelo_inurba_marseille","lat":43.26683,"lon":5.3827,"is_reserved":false,"is_disabled":false,"rental_uris":{"android":"levelo://app?vid=e5079e40-e000-4e15-ac2b-20c66ca6a02f","ios":"levelo://app?vid=e5079e40-e000-4e15-ac2b-20c66ca6a02f"},"vehicle_type_id":"4","last_reported":1751576958,"current_range_meters":12800,"station_id":"ce4bhg92rcd13ifvqf90","pricing_plan_id":"cebpf4jnsgd1na2vs0mg"},{"bike_id":"49788805-d64d-4ce6-b4ea-4c5b504aea24","system_id":"levelo_inurba_marseille","lat":43.27496,"lon":5.42452,"is_reserved":false,"is_disabled":false,"rental_uris":{"android":"levelo://app?vid=49788805-d64d-4ce6-b4ea-4c5b504aea24","ios":"levelo://app?vid=49788805-d64d-4ce6-b4ea-4c5b504aea24"},"vehicle_type_id":"4","last_reported":1751576958,"current_range_meters":12800,"station_id":"ce4bhn92rcd13ifvqgrg","pricing_plan_id":"cebpf4jnsgd1na2vs0mg"},{"bike_id":"bc2b0bfa-1c67-4ebb-8f43-5c92427de5c4","system_id":"levelo_inurba_marseille","lat":43.29379,"lon":5.3725,"is_reserved":false,"is_disabled":false,"rental_uris":{"android":"levelo://app?vid=bc2b0bfa-1c67-4ebb-8f43-5c92427de5c4","ios":"levelo://app?vid=bc2b0bfa-1c67-4ebb-8f43-5c92427de5c4"},"vehicle_type_id":"4","last_reported":1751576958,"current_range_meters":13600,"station_id":"","pricing_plan_id":"cebpf4jnsgd1na2vs0mg"},{"bike_id":"612b8cf1-f26d-4add-8a3e-2fb52f24fa7f","system_id":"levelo_inurba_marseille","lat":43.28079,"lon":5.39663,"is_reserved":false,"is_disabled":false,"rental_uris":{"android":"levelo://app?vid=612b8cf1-f26d-4add-8a3e-2fb52f24fa7f","ios":"levelo://app?vid=612b8cf1-f26d-4add-8a3e-2fb52f24fa7f"},"vehicle_type_id":"4","last_reported":1751576958,"current_range_meters":13600,"station_id":"ce4bho12rcd13ifvqh2g","pricing_plan_id":"cebpf4jnsgd1na2vs0mg"},{"bike_id":"ba154a12-11bd-42a5-958a-5992f5d043d1","system_id":"levelo_inurba_marseille","lat":43.305133,"lon":5.370855,"is_reserved":false,"is_disabled":false,"rental_uris":{"android":"levelo://app?vid=ba154a12-11bd-42a5-958a-5992f5d043d1","ios":"levelo://app?vid=ba154a12-11bd-42a5-958a-5992f5d043d1"},"vehicle_type_id":"4","last_reported":1751576958,"current_range_meters":14000,"station_id":"","pricing_plan_id":"cebpf4jnsgd1na2vs0mg"},{"bike_id":"a1646d73-700b-4d61-ad26-5b76deaf5375","system_id":"levelo_inurba_marseille","lat":43.29674,"lon":5.37293,"is_reserved":false,"is_disabled":false,"rental_uris":{"android":"levelo://app?vid=a1646d73-700b-4d61-ad26-5b76deaf5375","ios":"levelo://app?vid=a1646d73-700b-4d61-ad26-5b76deaf5375"},"vehicle_type_id":"4","last_reported":1751576958,"current_range_meters":14000,"station_id":"ce4bgk12rcd13ifvqbj0","pricing_plan_id":"cebpf4jnsgd1na2vs0mg"},{"bike_id":"c5b85e84-c966-465f-ab3b-df6521af0759","system_id":"levelo_inurba_marseille","lat":43.31482,"lon":5.37311,"is_reserved":false,"is_disabled":false,"rental_uris":{"android":"levelo://app?vid=c5b85e84-c966-465f-ab3b-df6521af0759","ios":"levelo://app?vid=c5b85e84-c966-465f-ab3b-df6521af0759"},"vehicle_type_id":"4","last_reported":1751576958,"current_range_meters":14000,"station_id":"ce4bgt12rcd13ifvqcd0","pricing_plan_id":"cebpf4jnsgd1na2vs0mg"},{"bike_id":"53813f9a-8544-4c16-8a9c-bfac7089b30f","system_id":"levelo_inurba_marseille","lat":43.30328,"lon":5.40451,"is_reserved":false,"is_disabled":false,"rental_uris":{"android":"levelo://app?vid=53813f9a-8544-4c16-8a9c-bfac7089b30f","ios":"levelo://app?vid=53813f9a-8544-4c16-8a9c-bfac7089b30f"},"vehicle_type_id":"4","last_reported":1751576958,"current_range_meters":14000,"station_id":"ce4bh012rcd13ifvqd10","pricing_plan_id":"cebpf4jnsgd1na2vs0mg"},{"bike_id":"f68cdb60-b608-4fca-ad36-e5e01e9f81d4","system_id":"levelo_inurba_marseille","lat":43.30627,"lon":5.40075,"is_reserved":false,"is_disabled":false,"rental_uris":{"android":"levelo://app?vid=f68cdb60-b608-4fca-ad36-e5e01e9f81d4","ios":"levelo://app?vid=f68cdb60-b608-4fca-ad36-e5e01e9f81d4"},"vehicle_type_id":"4","last_reported":1751576958,"current_range_meters":14000,"station_id":"ce4bh112rcd13ifvqda0","pricing_plan_id":"cebpf4jnsgd1na2vs0mg"},{"bike_id":"57ad81a2-1e8c-4bb9-80cf-c9e7538acd5e","system_id":"levelo_inurba_marseille","lat":43.258578,"lon":5.39906,"is_reserved":false,"is_disabled":false,"rental_uris":{"android":"levelo://app?vid=57ad81a2-1e8c-4bb9-80cf-c9e7538acd5e","ios":"levelo://app?vid=57ad81a2-1e8c-4bb9-80cf-c9e7538acd5e"},"vehicle_type_id":"4","last_reported":1751576958,"current_range_meters":14000,"station_id":"ce4bhl92rcd13ifvqghg","pricing_plan_id":"cebpf4jnsgd1na2vs0mg"},{"bike_id":"37b84a38-055a-4a6e-a56a-8ff3d0c1b2ec","system_id":"levelo_inurba_marseille","lat":43.21193,"lon":5.35105,"is_reserved":false,"is_disabled":false,"rental_uris":{"android":"levelo://app?vid=37b84a38-055a-4a6e-a56a-8ff3d0c1b2ec","ios":"levelo://app?vid=37b84a38-055a-4a6e-a56a-8ff3d0c1b2ec"},"vehicle_type_id":"4","last_reported":1751576958,"current_range_meters":14000,"station_id":"st_cvj6sg6p6f1abm77japg","pricing_plan_id":"cebpf4jnsgd1na2vs0mg"},{"bike_id":"05bcf450-8b9e-4336-ab44-c6b51a1aaad2","system_id":"levelo_inurba_marseille","lat":43.31072,"lon":5.38349,"is_reserved":false,"is_disabled":false,"rental_uris":{"android":"levelo://app?vid=05bcf450-8b9e-4336-ab44-c6b51a1aaad2","ios":"levelo://app?vid=05bcf450-8b9e-4336-ab44-c6b51a1aaad2"},"vehicle_type_id":"4","last_reported":1751576958,"current_range_meters":14400,"station_id":"ce4bgv92rcd13ifvqcr0","pricing_plan_id":"cebpf4jnsgd1na2vs0mg"},{"bike_id":"008ca392-9746-466e-a76d-77bd1623d5d2","system_id":"levelo_inurba_marseille","lat":43.29429,"lon":5.39753,"is_reserved":false,"is_disabled":false,"rental_uris":{"android":"levelo://app?vid=008ca392-9746-466e-a76d-77bd1623d5d2","ios":"levelo://app?vid=008ca392-9746-466e-a76d-77bd1623d5d2"},"vehicle_type_id":"4","last_reported":1751576958,"current_range_meters":14400,"station_id":"ce4bh3h2rcd13ifvqdo0","pricing_plan_id":"cebpf4jnsgd1na2vs0mg"},{"bike_id":"7671fc06-2a31-4cfb-bcf3-84edbc792865","system_id":"levelo_inurba_marseille","lat":43.283479,"lon":5.381074,"is_reserved":false,"is_disabled":false,"rental_uris":{"android":"levelo://app?vid=7671fc06-2a31-4cfb-bcf3-84edbc792865","ios":"levelo://app?vid=7671fc06-2a31-4cfb-bcf3-84edbc792865"},"vehicle_type_id":"4","last_reported":1751576958,"current_range_meters":14400,"station_id":"ce4bh412rcd13ifvqdr0","pricing_plan_id":"cebpf4jnsgd1na2vs0mg"},{"bike_id":"8d44bb93-4d53-4d09-b373-545fed3146c0","system_id":"levelo_inurba_marseille","lat":43.2569,"lon":5.4115,"is_reserved":false,"is_disabled":false,"rental_uris":{"android":"levelo://app?vid=8d44bb93-4d53-4d09-b373-545fed3146c0","ios":"levelo://app?vid=8d44bb93-4d53-4d09-b373-545fed3146c0"},"vehicle_type_id":"4","last_reported":1751576958,"current_range_meters":14400,"station_id":"ce4bhkp2rcd13ifvqgd0","pricing_plan_id":"cebpf4jnsgd1na2vs0mg"},{"bike_id":"a10f52d5-f0b3-4e38-8e1b-891c225cb35e","system_id":"levelo_inurba_marseille","lat":43.21193,"lon":5.3508,"is_reserved":false,"is_disabled":false,"rental_uris":{"android":"levelo://app?vid=a10f52d5-f0b3-4e38-8e1b-891c225cb35e","ios":"levelo://app?vid=a10f52d5-f0b3-4e38-8e1b-891c225cb35e"},"vehicle_type_id":"4","last_reported":1751576958,"current_range_meters":14400,"station_id":"st_cvj6sg6p6f1abm77japg","pricing_plan_id":"cebpf4jnsgd1na2vs0mg"},{"bike_id":"175513bb-dce2-48e2-83c8-1e9f1cb23cd0","system_id":"levelo_inurba_marseille","lat":43.286255,"lon":5.412651,"is_reserved":false,"is_disabled":false,"rental_uris":{"android":"levelo://app?vid=175513bb-dce2-48e2-83c8-1e9f1cb23cd0","ios":"levelo://app?vid=175513bb-dce2-48e2-83c8-1e9f1cb23cd0"},"vehicle_type_id":"4","last_reported":1751576958,"current_range_meters":14800,"station_id":"","pricing_plan_id":"cebpf4jnsgd1na2vs0mg"},{"bike_id":"d6a97fc8-7c5d-4b77-9d38-d22003db8fe5","system_id":"levelo_inurba_marseille","lat":43.34721,"lon":5.36602,"is_reserved":false,"is_disabled":false,"rental_uris":{"android":"levelo://app?vid=d6a97fc8-7c5d-4b77-9d38-d22003db8fe5","ios":"levelo://app?vid=d6a97fc8-7c5d-4b77-9d38-d22003db8fe5"},"vehicle_type_id":"4","last_reported":1751576958,"current_range_meters":14800,"station_id":"","pricing_plan_id":"cebpf4jnsgd1na2vs0mg"},{"bike_id":"06a007dc-52ea-4541-99d3-cb57d5de234d","system_id":"levelo_inurba_marseille","lat":43.25723,"lon":5.41107,"is_reserved":false,"is_disabled":false,"rental_uris":{"android":"levelo://app?vid=06a007dc-52ea-4541-99d3-cb57d5de234d","ios":"levelo://app?vid=06a007dc-52ea-4541-99d3-cb57d5de234d"},"vehicle_type_id":"4","last_reported":1751576958,"current_range_meters":14800,"station_id":"ce4bhkp2rcd13ifvqgd0","pricing_plan_id":"cebpf4jnsgd1na2vs0mg"},{"bike_id":"f2d1945a-625c-433b-8fdd-844f4394e949","system_id":"levelo_inurba_marseille","lat":43.31704,"lon":5.43711,"is_reserved":false,"is_disabled":false,"rental_uris":{"android":"levelo://app?vid=f2d1945a-625c-433b-8fdd-844f4394e949","ios":"levelo://app?vid=f2d1945a-625c-433b-8fdd-844f4394e949"},"vehicle_type_id":"4","last_reported":1751576958,"current_range_meters":14800,"station_id":"ce4bhp92rcd13ifvqhcg","pricing_plan_id":"cebpf4jnsgd1na2vs0mg"},{"bike_id":"a6715104-7492-4ec6-a996-23050baf8551","system_id":"levelo_inurba_marseille","lat":43.2246,"lon":5.34779,"is_reserved":false,"is_disabled":false,"rental_uris":{"android":"levelo://app?vid=a6715104-7492-4ec6-a996-23050baf8551","ios":"levelo://app?vid=a6715104-7492-4ec6-a996-23050baf8551"},"vehicle_type_id":"4","last_reported":1751576958,"current_range_meters":14800,"station_id":"st_cvj5dfep6f1abm77gieg","pricing_plan_id":"cebpf4jnsgd1na2vs0mg"},{"bike_id":"4d4995e7-0bba-4ac2-a238-afd84a5e99b5","system_id":"levelo_inurba_marseille","lat":43.304848,"lon":5.398345,"is_reserved":false,"is_disabled":false,"rental_uris":{"android":"levelo://app?vid=4d4995e7-0bba-4ac2-a238-afd84a5e99b5","ios":"levelo://app?vid=4d4995e7-0bba-4ac2-a238-afd84a5e99b5"},"vehicle_type_id":"4","last_reported":1751576958,"current_range_meters":15200,"station_id":"","pricing_plan_id":"cebpf4jnsgd1na2vs0mg"},{"bike_id":"0c4b7fdb-b39e-49b3-a2b0-ae3d0f43e89d","system_id":"levelo_inurba_marseille","lat":43.32908,"lon":5.40565,"is_reserved":false,"is_disabled":false,"rental_uris":{"android":"levelo://app?vid=0c4b7fdb-b39e-49b3-a2b0-ae3d0f43e89d","ios":"levelo://app?vid=0c4b7fdb-b39e-49b3-a2b0-ae3d0f43e89d"},"vehicle_type_id":"4","last_reported":1751576958,"current_range_meters":15200,"station_id":"","pricing_plan_id":"cebpf4jnsgd1na2vs0mg"},{"bike_id":"34c23e77-1dab-465f-93f0-35c148976bbc","system_id":"levelo_inurba_marseille","lat":43.30908,"lon":5.36851,"is_reserved":false,"is_disabled":false,"rental_uris":{"android":"levelo://app?vid=34c23e77-1dab-465f-93f0-35c148976bbc","ios":"levelo://app?vid=34c23e77-1dab-465f-93f0-35c148976bbc"},"vehicle_type_id":"4","last_reported":1751576958,"current_range_meters":15200,"station_id":"ce4bgn92rcd13ifvqbvg","pricing_plan_id":"cebpf4jnsgd1na2vs0mg"},{"bike_id":"07713983-f54e-4f26-92ae-8c5c614c00de","system_id":"levelo_inurba_marseille","lat":43.29577,"lon":5.39973,"is_reserved":false,"is_disabled":false,"rental_uris":{"android":"levelo://app?vid=07713983-f54e-4f26-92ae-8c5c614c00de","ios":"levelo://app?vid=07713983-f54e-4f26-92ae-8c5c614c00de"},"vehicle_type_id":"4","last_reported":1751576958,"current_range_meters":15200,"station_id":"ce4bh312rcd13ifvqdj0","pricing_plan_id":"cebpf4jnsgd1na2vs0mg"},{"bike_id":"d57e6bf6-d8e4-470e-bc61-3a7d72a6f873","system_id":"levelo_inurba_marseille","lat":43.28269,"lon":5.3506,"is_reserved":false,"is_disabled":false,"rental_uris":{"android":"levelo://app?vid=d57e6bf6-d8e4-470e-bc61-3a7d72a6f873","ios":"levelo://app?vid=d57e6bf6-d8e4-470e-bc61-3a7d72a6f873"},"vehicle_type_id":"4","last_reported":1751576958,"current_range_meters":15200,"station_id":"ce4bhbp2rcd13ifvqerg","pricing_plan_id":"cebpf4jnsgd1na2vs0mg"},{"bike_id":"6ee47da4-9cb7-4584-be45-580a2eecea99","system_id":"levelo_inurba_marseille","lat":43.25572,"lon":5.37647,"is_reserved":false,"is_disabled":false,"rental_uris":{"android":"levelo://app?vid=6ee47da4-9cb7-4584-be45-580a2eecea99","ios":"levelo://app?vid=6ee47da4-9cb7-4584-be45-580a2eecea99"},"vehicle_type_id":"4","last_reported":1751576958,"current_range_meters":16000,"station_id":"","pricing_plan_id":"cebpf4jnsgd1na2vs0mg"},{"bike_id":"b9728e86-325c-43d1-ae98-759ac18ecc6d","system_id":"levelo_inurba_marseille","lat":43.27904,"lon":5.39584,"is_reserved":false,"is_disabled":false,"rental_uris":{"android":"levelo://app?vid=b9728e86-325c-43d1-ae98-759ac18ecc6d","ios":"levelo://app?vid=b9728e86-325c-43d1-ae98-759ac18ecc6d"},"vehicle_type_id":"4","last_reported":1751576958,"current_range_meters":16000,"station_id":"ce4bhf92rcd13ifvqf40","pricing_plan_id":"cebpf4jnsgd1na2vs0mg"},{"bike_id":"dfbce5f2-d4be-4fb4-b96e-89f73ba79196","system_id":"levelo_inurba_marseille","lat":43.21211,"lon":5.35049,"is_reserved":false,"is_disabled":false,"rental_uris":{"android":"levelo://app?vid=dfbce5f2-d4be-4fb4-b96e-89f73ba79196","ios":"levelo://app?vid=dfbce5f2-d4be-4fb4-b96e-89f73ba79196"},"vehicle_type_id":"4","last_reported":1751576958,"current_range_meters":16000,"station_id":"st_cvj6sg6p6f1abm77japg","pricing_plan_id":"cebpf4jnsgd1na2vs0mg"},{"bike_id":"0c5e46df-9adb-4aa5-842c-17a1961c0106","system_id":"levelo_inurba_marseille","lat":43.28008,"lon":5.40742,"is_reserved":false,"is_disabled":false,"rental_uris":{"android":"levelo://app?vid=0c5e46df-9adb-4aa5-842c-17a1961c0106","ios":"levelo://app?vid=0c5e46df-9adb-4aa5-842c-17a1961c0106"},"vehicle_type_id":"4","last_reported":1751576958,"current_range_meters":16400,"station_id":"","pricing_plan_id":"cebpf4jnsgd1na2vs0mg"},{"bike_id":"d002475a-31d1-49b9-b0c7-d30cada00411","system_id":"levelo_inurba_marseille","lat":43.29528,"lon":5.3854,"is_reserved":false,"is_disabled":false,"rental_uris":{"android":"levelo://app?vid=d002475a-31d1-49b9-b0c7-d30cada00411","ios":"levelo://app?vid=d002475a-31d1-49b9-b0c7-d30cada00411"},"vehicle_type_id":"4","last_reported":1751576958,"current_range_meters":16400,"station_id":"ce4bgih2rcd13ifvqba0","pricing_plan_id":"cebpf4jnsgd1na2vs0mg"},{"bike_id":"6a7ff828-76d1-4012-a249-8c009c4d0330","system_id":"levelo_inurba_marseille","lat":43.31325,"lon":5.39688,"is_reserved":false,"is_disabled":false,"rental_uris":{"android":"levelo://app?vid=6a7ff828-76d1-4012-a249-8c009c4d0330","ios":"levelo://app?vid=6a7ff828-76d1-4012-a249-8c009c4d0330"},"vehicle_type_id":"4","last_reported":1751576958,"current_range_meters":16400,"station_id":"ce4bgvp2rcd13ifvqcu0","pricing_plan_id":"cebpf4jnsgd1na2vs0mg"},{"bike_id":"b3bdafac-5fdd-4245-9328-43b6d54aec01","system_id":"levelo_inurba_marseille","lat":43.32376,"lon":5.38881,"is_reserved":false,"is_disabled":false,"rental_uris":{"android":"levelo://app?vid=b3bdafac-5fdd-4245-9328-43b6d54aec01","ios":"levelo://app?vid=b3bdafac-5fdd-4245-9328-43b6d54aec01"},"vehicle_type_id":"4","last_reported":1751576958,"current_range_meters":16400,"station_id":"ce4bhqp2rcd13ifvqhog","pricing_plan_id":"cebpf4jnsgd1na2vs0mg"},{"bike_id":"95cd70cb-ca52-4485-8964-098c4be9b44c","system_id":"levelo_inurba_marseille","lat":43.24168,"lon":5.36399,"is_reserved":false,"is_disabled":false,"rental_uris":{"android":"levelo://app?vid=95cd70cb-ca52-4485-8964-098c4be9b44c","ios":"levelo://app?vid=95cd70cb-ca52-4485-8964-098c4be9b44c"},"vehicle_type_id":"4","last_reported":1751576958,"current_range_meters":16400,"station_id":"cpo36qri1sfpv3e86is0","pricing_plan_id":"cebpf4jnsgd1na2vs0mg"},{"bike_id":"5e197122-e8ec-4f01-b370-6bbfc10c6950","system_id":"levelo_inurba_marseille","lat":43.21199,"lon":5.35052,"is_reserved":false,"is_disabled":false,"rental_uris":{"android":"levelo://app?vid=5e197122-e8ec-4f01-b370-6bbfc10c6950","ios":"levelo://app?vid=5e197122-e8ec-4f01-b370-6bbfc10c6950"},"vehicle_type_id":"4","last_reported":1751576958,"current_range_meters":16400,"station_id":"st_cvj6sg6p6f1abm77japg","pricing_plan_id":"cebpf4jnsgd1na2vs0mg"},{"bike_id":"cc04118e-9312-4bf8-9106-d64e829afbaa","system_id":"levelo_inurba_marseille","lat":43.211949,"lon":5.350721,"is_reserved":false,"is_disabled":false,"rental_uris":{"android":"levelo://app?vid=cc04118e-9312-4bf8-9106-d64e829afbaa","ios":"levelo://app?vid=cc04118e-9312-4bf8-9106-d64e829afbaa"},"vehicle_type_id":"4","last_reported":1751576958,"current_range_meters":16400,"station_id":"st_cvj6sg6p6f1abm77japg","pricing_plan_id":"cebpf4jnsgd1na2vs0mg"},{"bike_id":"33ec601b-09d1-4d65-a864-c7b0c0522639","system_id":"levelo_inurba_marseille","lat":43.294103,"lon":5.374399,"is_reserved":false,"is_disabled":false,"rental_uris":{"android":"levelo://app?vid=33ec601b-09d1-4d65-a864-c7b0c0522639","ios":"levelo://app?vid=33ec601b-09d1-4d65-a864-c7b0c0522639"},"vehicle_type_id":"4","last_reported":1751576958,"current_range_meters":16800,"station_id":"ce4bgj92rcd13ifvqbd0","pricing_plan_id":"cebpf4jnsgd1na2vs0mg"},{"bike_id":"8b652c70-c204-4822-814e-ea91e27a3158","system_id":"levelo_inurba_marseille","lat":43.29431,"lon":5.38601,"is_reserved":false,"is_disabled":false,"rental_uris":{"android":"levelo://app?vid=8b652c70-c204-4822-814e-ea91e27a3158","ios":"levelo://app?vid=8b652c70-c204-4822-814e-ea91e27a3158"},"vehicle_type_id":"4","last_reported":1751576958,"current_range_meters":16800,"station_id":"ce4bh2h2rcd13ifvqdh0","pricing_plan_id":"cebpf4jnsgd1na2vs0mg"},{"bike_id":"54a2770e-2386-423b-8a81-cff8599147e1","system_id":"levelo_inurba_marseille","lat":43.29039,"lon":5.3757,"is_reserved":false,"is_disabled":false,"rental_uris":{"android":"levelo://app?vid=54a2770e-2386-423b-8a81-cff8599147e1","ios":"levelo://app?vid=54a2770e-2386-423b-8a81-cff8599147e1"},"vehicle_type_id":"4","last_reported":1751576958,"current_range_meters":16800,"station_id":"ce4bh692rcd13ifvqe90","pricing_plan_id":"cebpf4jnsgd1na2vs0mg"},{"bike_id":"1b892a3d-870b-4564-82b6-2f9d3714ac4d","system_id":"levelo_inurba_marseille","lat":43.24651,"lon":5.38898,"is_reserved":false,"is_disabled":false,"rental_uris":{"android":"levelo://app?vid=1b892a3d-870b-4564-82b6-2f9d3714ac4d","ios":"levelo://app?vid=1b892a3d-870b-4564-82b6-2f9d3714ac4d"},"vehicle_type_id":"4","last_reported":1751576958,"current_range_meters":16800,"station_id":"ce4bhg12rcd13ifvqf60","pricing_plan_id":"cebpf4jnsgd1na2vs0mg"},{"bike_id":"c657cdd7-0a5a-404d-bd27-b63508068c41","system_id":"levelo_inurba_marseille","lat":43.24651,"lon":5.38893,"is_reserved":false,"is_disabled":false,"rental_uris":{"android":"levelo://app?vid=c657cdd7-0a5a-404d-bd27-b63508068c41","ios":"levelo://app?vid=c657cdd7-0a5a-404d-bd27-b63508068c41"},"vehicle_type_id":"4","last_reported":1751576958,"current_range_meters":16800,"station_id":"ce4bhg12rcd13ifvqf60","pricing_plan_id":"cebpf4jnsgd1na2vs0mg"},{"bike_id":"f1b8be6b-5160-46cf-8639-5feed5223608","system_id":"levelo_inurba_marseille","lat":43.26178,"lon":5.37464,"is_reserved":false,"is_disabled":false,"rental_uris":{"android":"levelo://app?vid=f1b8be6b-5160-46cf-8639-5feed5223608","ios":"levelo://app?vid=f1b8be6b-5160-46cf-8639-5feed5223608"},"vehicle_type_id":"4","last_reported":1751576958,"current_range_meters":16800,"station_id":"ce4bhgp2rcd13ifvqfc0","pricing_plan_id":"cebpf4jnsgd1na2vs0mg"},{"bike_id":"f2750957-b8c1-4012-9183-0c1b4aa04bc4","system_id":"levelo_inurba_marseille","lat":43.2587,"lon":5.39899,"is_reserved":false,"is_disabled":false,"rental_uris":{"android":"levelo://app?vid=f2750957-b8c1-4012-9183-0c1b4aa04bc4","ios":"levelo://app?vid=f2750957-b8c1-4012-9183-0c1b4aa04bc4"},"vehicle_type_id":"4","last_reported":1751576958,"current_range_meters":16800,"station_id":"ce4bhl92rcd13ifvqghg","pricing_plan_id":"cebpf4jnsgd1na2vs0mg"},{"bike_id":"6eebadd3-99fa-48af-8556-1f64731f83a2","system_id":"levelo_inurba_marseille","lat":43.23072,"lon":5.35485,"is_reserved":false,"is_disabled":false,"rental_uris":{"android":"levelo://app?vid=6eebadd3-99fa-48af-8556-1f64731f83a2","ios":"levelo://app?vid=6eebadd3-99fa-48af-8556-1f64731f83a2"},"vehicle_type_id":"4","last_reported":1751576958,"current_range_meters":16800,"station_id":"cpo3342slgdg3j2ifvpg","pricing_plan_id":"cebpf4jnsgd1na2vs0mg"},{"bike_id":"1c8ab180-05fd-405f-9922-b2b2c2d5142f","system_id":"levelo_inurba_marseille","lat":43.33801,"lon":5.38109,"is_reserved":false,"is_disabled":false,"rental_uris":{"android":"levelo://app?vid=1c8ab180-05fd-405f-9922-b2b2c2d5142f","ios":"levelo://app?vid=1c8ab180-05fd-405f-9922-b2b2c2d5142f"},"vehicle_type_id":"4","last_reported":1751576958,"current_range_meters":17200,"station_id":"","pricing_plan_id":"cebpf4jnsgd1na2vs0mg"},{"bike_id":"205ab373-6177-41c9-b2a2-562360d15996","system_id":"levelo_inurba_marseille","lat":43.25491,"lon":5.37669,"is_reserved":false,"is_disabled":false,"rental_uris":{"android":"levelo://app?vid=205ab373-6177-41c9-b2a2-562360d15996","ios":"levelo://app?vid=205ab373-6177-41c9-b2a2-562360d15996"},"vehicle_type_id":"4","last_reported":1751576958,"current_range_meters":17200,"station_id":"ce4bhh12rcd13ifvqff0","pricing_plan_id":"cebpf4jnsgd1na2vs0mg"},{"bike_id":"a8aa723a-977c-4b3a-a3a0-b6ee0c117309","system_id":"levelo_inurba_marseille","lat":43.239649,"lon":5.366291,"is_reserved":false,"is_disabled":false,"rental_uris":{"android":"levelo://app?vid=a8aa723a-977c-4b3a-a3a0-b6ee0c117309","ios":"levelo://app?vid=a8aa723a-977c-4b3a-a3a0-b6ee0c117309"},"vehicle_type_id":"4","last_reported":1751576958,"current_range_meters":17200,"station_id":"ce4bhi12rcd13ifvqfp0","pricing_plan_id":"cebpf4jnsgd1na2vs0mg"},{"bike_id":"d7d5b776-bcc7-423d-8a89-6abd09a6c07c","system_id":"levelo_inurba_marseille","lat":43.24156,"lon":5.364,"is_reserved":false,"is_disabled":false,"rental_uris":{"android":"levelo://app?vid=d7d5b776-bcc7-423d-8a89-6abd09a6c07c","ios":"levelo://app?vid=d7d5b776-bcc7-423d-8a89-6abd09a6c07c"},"vehicle_type_id":"4","last_reported":1751576958,"current_range_meters":17200,"station_id":"cpo36qri1sfpv3e86is0","pricing_plan_id":"cebpf4jnsgd1na2vs0mg"},{"bike_id":"32c0fc37-6823-41d0-9497-8d1eea24742c","system_id":"levelo_inurba_marseille","lat":43.2417,"lon":5.36387,"is_reserved":false,"is_disabled":false,"rental_uris":{"android":"levelo://app?vid=32c0fc37-6823-41d0-9497-8d1eea24742c","ios":"levelo://app?vid=32c0fc37-6823-41d0-9497-8d1eea24742c"},"vehicle_type_id":"4","last_reported":1751576958,"current_range_meters":17200,"station_id":"cpo36qri1sfpv3e86is0","pricing_plan_id":"cebpf4jnsgd1na2vs0mg"},{"bike_id":"8734bc42-361e-4c72-9212-27e99f10c61f","system_id":"levelo_inurba_marseille","lat":43.27363,"lon":5.42751,"is_reserved":false,"is_disabled":false,"rental_uris":{"android":"levelo://app?vid=8734bc42-361e-4c72-9212-27e99f10c61f","ios":"levelo://app?vid=8734bc42-361e-4c72-9212-27e99f10c61f"},"vehicle_type_id":"4","last_reported":1751576958,"current_range_meters":17600,"station_id":"","pricing_plan_id":"cebpf4jnsgd1na2vs0mg"},{"bike_id":"59897769-4555-4a49-ade7-af28abcb1eaf","system_id":"levelo_inurba_marseille","lat":43.29604,"lon":5.37716,"is_reserved":false,"is_disabled":false,"rental_uris":{"android":"levelo://app?vid=59897769-4555-4a49-ade7-af28abcb1eaf","ios":"levelo://app?vid=59897769-4555-4a49-ade7-af28abcb1eaf"},"vehicle_type_id":"4","last_reported":1751576958,"current_range_meters":17600,"station_id":"ce4bgi92rcd13ifvqb90","pricing_plan_id":"cebpf4jnsgd1na2vs0mg"},{"bike_id":"4a4fd06f-9b0c-4d71-ae69-8da3ec40f669","system_id":"levelo_inurba_marseille","lat":43.28707,"lon":5.37385,"is_reserved":false,"is_disabled":false,"rental_uris":{"android":"levelo://app?vid=4a4fd06f-9b0c-4d71-ae69-8da3ec40f669","ios":"levelo://app?vid=4a4fd06f-9b0c-4d71-ae69-8da3ec40f669"},"vehicle_type_id":"4","last_reported":1751576958,"current_range_meters":17600,"station_id":"ce4bh3p2rcd13ifvqdq0","pricing_plan_id":"cebpf4jnsgd1na2vs0mg"},{"bike_id":"6b9f9e92-3fe4-4fbd-a739-69f6686690d7","system_id":"levelo_inurba_marseille","lat":43.2928,"lon":5.36842,"is_reserved":false,"is_disabled":false,"rental_uris":{"android":"levelo://app?vid=6b9f9e92-3fe4-4fbd-a739-69f6686690d7","ios":"levelo://app?vid=6b9f9e92-3fe4-4fbd-a739-69f6686690d7"},"vehicle_type_id":"4","last_reported":1751576958,"current_range_meters":17600,"station_id":"ce4bhbp2rcd13ifvqesg","pricing_plan_id":"cebpf4jnsgd1na2vs0mg"},{"bike_id":"b03bc840-d565-4f9b-b0ba-2a970437cf2a","system_id":"levelo_inurba_marseille","lat":43.23187,"lon":5.39987,"is_reserved":false,"is_disabled":false,"rental_uris":{"android":"levelo://app?vid=b03bc840-d565-4f9b-b0ba-2a970437cf2a","ios":"levelo://app?vid=b03bc840-d565-4f9b-b0ba-2a970437cf2a"},"vehicle_type_id":"4","last_reported":1751576958,"current_range_meters":17600,"station_id":"ce4bhn12rcd13ifvqgqg","pricing_plan_id":"cebpf4jnsgd1na2vs0mg"},{"bike_id":"df4dd705-c5a4-430b-9772-260866ddc686","system_id":"levelo_inurba_marseille","lat":43.28716,"lon":5.36065,"is_reserved":false,"is_disabled":false,"rental_uris":{"android":"levelo://app?vid=df4dd705-c5a4-430b-9772-260866ddc686","ios":"levelo://app?vid=df4dd705-c5a4-430b-9772-260866ddc686"},"vehicle_type_id":"4","last_reported":1751576958,"current_range_meters":17600,"station_id":"cki0cbj6b192h4jlfktg","pricing_plan_id":"cebpf4jnsgd1na2vs0mg"},{"bike_id":"ba926bfc-9632-4680-b0ed-32a040d6fb83","system_id":"levelo_inurba_marseille","lat":43.21733,"lon":5.34612,"is_reserved":false,"is_disabled":false,"rental_uris":{"android":"levelo://app?vid=ba926bfc-9632-4680-b0ed-32a040d6fb83","ios":"levelo://app?vid=ba926bfc-9632-4680-b0ed-32a040d6fb83"},"vehicle_type_id":"4","last_reported":1751576958,"current_range_meters":17600,"station_id":"st_cvj6r9ubvosntc0bgbag","pricing_plan_id":"cebpf4jnsgd1na2vs0mg"},{"bike_id":"b13877a6-4825-4d82-b46b-67fa8ad66c5d","system_id":"levelo_inurba_marseille","lat":43.21183,"lon":5.35069,"is_reserved":false,"is_disabled":false,"rental_uris":{"android":"levelo://app?vid=b13877a6-4825-4d82-b46b-67fa8ad66c5d","ios":"levelo://app?vid=b13877a6-4825-4d82-b46b-67fa8ad66c5d"},"vehicle_type_id":"4","last_reported":1751576958,"current_range_meters":17600,"station_id":"st_cvj6sg6p6f1abm77japg","pricing_plan_id":"cebpf4jnsgd1na2vs0mg"},{"bike_id":"7712491c-e18b-4b09-bb79-30880b357c07","system_id":"levelo_inurba_marseille","lat":43.21197,"lon":5.35066,"is_reserved":false,"is_disabled":false,"rental_uris":{"android":"levelo://app?vid=7712491c-e18b-4b09-bb79-30880b357c07","ios":"levelo://app?vid=7712491c-e18b-4b09-bb79-30880b357c07"},"vehicle_type_id":"4","last_reported":1751576958,"current_range_meters":17600,"station_id":"st_cvj6sg6p6f1abm77japg","pricing_plan_id":"cebpf4jnsgd1na2vs0mg"},{"bike_id":"2c8d6737-b89d-408d-8770-af93b507a41f","system_id":"levelo_inurba_marseille","lat":43.30117,"lon":5.40045,"is_reserved":false,"is_disabled":false,"rental_uris":{"android":"levelo://app?vid=2c8d6737-b89d-408d-8770-af93b507a41f","ios":"levelo://app?vid=2c8d6737-b89d-408d-8770-af93b507a41f"},"vehicle_type_id":"4","last_reported":1751576958,"current_range_meters":18000,"station_id":"","pricing_plan_id":"cebpf4jnsgd1na2vs0mg"},{"bike_id":"42e2df32-2f76-49af-b241-5f224fc81905","system_id":"levelo_inurba_marseille","lat":43.29966,"lon":5.38495,"is_reserved":false,"is_disabled":false,"rental_uris":{"android":"levelo://app?vid=42e2df32-2f76-49af-b241-5f224fc81905","ios":"levelo://app?vid=42e2df32-2f76-49af-b241-5f224fc81905"},"vehicle_type_id":"4","last_reported":1751576958,"current_range_meters":18000,"station_id":"ce4bgj92rcd13ifvqbd0","pricing_plan_id":"cebpf4jnsgd1na2vs0mg"},{"bike_id":"1bc10394-7329-4caf-8256-053f18b44611","system_id":"levelo_inurba_marseille","lat":43.31697,"lon":5.40471,"is_reserved":false,"is_disabled":false,"rental_uris":{"android":"levelo://app?vid=1bc10394-7329-4caf-8256-053f18b44611","ios":"levelo://app?vid=1bc10394-7329-4caf-8256-053f18b44611"},"vehicle_type_id":"4","last_reported":1751576958,"current_range_meters":18000,"station_id":"ce4bh012rcd13ifvqd00","pricing_plan_id":"cebpf4jnsgd1na2vs0mg"},{"bike_id":"e40d8706-852e-4889-888c-4b2d492fbd0c","system_id":"levelo_inurba_marseille","lat":43.29195,"lon":5.39322,"is_reserved":false,"is_disabled":false,"rental_uris":{"android":"levelo://app?vid=e40d8706-852e-4889-888c-4b2d492fbd0c","ios":"levelo://app?vid=e40d8706-852e-4889-888c-4b2d492fbd0c"},"vehicle_type_id":"4","last_reported":1751576958,"current_range_meters":18000,"station_id":"ce4bh192rcd13ifvqdd0","pricing_plan_id":"cebpf4jnsgd1na2vs0mg"},{"bike_id":"16c96af2-5f6e-4883-b150-839de45d9762","system_id":"levelo_inurba_marseille","lat":43.287163,"lon":5.379444,"is_reserved":false,"is_disabled":false,"rental_uris":{"android":"levelo://app?vid=16c96af2-5f6e-4883-b150-839de45d9762","ios":"levelo://app?vid=16c96af2-5f6e-4883-b150-839de45d9762"},"vehicle_type_id":"4","last_reported":1751576958,"current_range_meters":18000,"station_id":"ce4bh9p2rcd13ifvqec0","pricing_plan_id":"cebpf4jnsgd1na2vs0mg"},{"bike_id":"11eeea03-1144-4303-bf59-07423ebdd022","system_id":"levelo_inurba_marseille","lat":43.28029,"lon":5.3695,"is_reserved":false,"is_disabled":false,"rental_uris":{"android":"levelo://app?vid=11eeea03-1144-4303-bf59-07423ebdd022","ios":"levelo://app?vid=11eeea03-1144-4303-bf59-07423ebdd022"},"vehicle_type_id":"4","last_reported":1751576958,"current_range_meters":18000,"station_id":"ce4bha12rcd13ifvqef0","pricing_plan_id":"cebpf4jnsgd1na2vs0mg"},{"bike_id":"5243c9d3-c44b-418d-aeae-29f412b42f25","system_id":"levelo_inurba_marseille","lat":43.24807,"lon":5.37449,"is_reserved":false,"is_disabled":false,"rental_uris":{"android":"levelo://app?vid=5243c9d3-c44b-418d-aeae-29f412b42f25","ios":"levelo://app?vid=5243c9d3-c44b-418d-aeae-29f412b42f25"},"vehicle_type_id":"4","last_reported":1751576958,"current_range_meters":18000,"station_id":"ce4bhgh2rcd13ifvqfb0","pricing_plan_id":"cebpf4jnsgd1na2vs0mg"},{"bike_id":"832c28f1-2378-4c64-8327-96ae1b53b57f","system_id":"levelo_inurba_marseille","lat":43.24071,"lon":5.377619,"is_reserved":false,"is_disabled":false,"rental_uris":{"android":"levelo://app?vid=832c28f1-2378-4c64-8327-96ae1b53b57f","ios":"levelo://app?vid=832c28f1-2378-4c64-8327-96ae1b53b57f"},"vehicle_type_id":"4","last_reported":1751576958,"current_range_meters":18000,"station_id":"ce4bhnp2rcd13ifvqgvg","pricing_plan_id":"cebpf4jnsgd1na2vs0mg"},{"bike_id":"f668d257-bab0-4b25-ba41-4ca796d3f3d3","system_id":"levelo_inurba_marseille","lat":43.31714,"lon":5.4371,"is_reserved":false,"is_disabled":false,"rental_uris":{"android":"levelo://app?vid=f668d257-bab0-4b25-ba41-4ca796d3f3d3","ios":"levelo://app?vid=f668d257-bab0-4b25-ba41-4ca796d3f3d3"},"vehicle_type_id":"4","last_reported":1751576958,"current_range_meters":18000,"station_id":"ce4bhp92rcd13ifvqhcg","pricing_plan_id":"cebpf4jnsgd1na2vs0mg"},{"bike_id":"2e16190b-9e84-40c0-b1b4-080cfe8b650d","system_id":"levelo_inurba_marseille","lat":43.3229,"lon":5.38274,"is_reserved":false,"is_disabled":false,"rental_uris":{"android":"levelo://app?vid=2e16190b-9e84-40c0-b1b4-080cfe8b650d","ios":"levelo://app?vid=2e16190b-9e84-40c0-b1b4-080cfe8b650d"},"vehicle_type_id":"4","last_reported":1751576958,"current_range_meters":18000,"station_id":"ce4bhr12rcd13ifvqhqg","pricing_plan_id":"cebpf4jnsgd1na2vs0mg"},{"bike_id":"29cb404e-526a-4310-8c49-8fdbeb50e11e","system_id":"levelo_inurba_marseille","lat":43.32349,"lon":5.36744,"is_reserved":false,"is_disabled":false,"rental_uris":{"android":"levelo://app?vid=29cb404e-526a-4310-8c49-8fdbeb50e11e","ios":"levelo://app?vid=29cb404e-526a-4310-8c49-8fdbeb50e11e"},"vehicle_type_id":"4","last_reported":1751576958,"current_range_meters":18000,"station_id":"ce4bhsh2rcd13ifvqi2g","pricing_plan_id":"cebpf4jnsgd1na2vs0mg"},{"bike_id":"cee0b5b6-9b90-457a-85f4-540287a23b84","system_id":"levelo_inurba_marseille","lat":43.211914,"lon":5.350688,"is_reserved":false,"is_disabled":false,"rental_uris":{"android":"levelo://app?vid=cee0b5b6-9b90-457a-85f4-540287a23b84","ios":"levelo://app?vid=cee0b5b6-9b90-457a-85f4-540287a23b84"},"vehicle_type_id":"4","last_reported":1751576958,"current_range_meters":18000,"station_id":"st_cvj6sg6p6f1abm77japg","pricing_plan_id":"cebpf4jnsgd1na2vs0mg"},{"bike_id":"a9a07126-8728-4535-baa6-5644baa44463","system_id":"levelo_inurba_marseille","lat":43.30803,"lon":5.38154,"is_reserved":false,"is_disabled":false,"rental_uris":{"android":"levelo://app?vid=a9a07126-8728-4535-baa6-5644baa44463","ios":"levelo://app?vid=a9a07126-8728-4535-baa6-5644baa44463"},"vehicle_type_id":"4","last_reported":1751576958,"current_range_meters":18800,"station_id":"ce4bgt12rcd13ifvqce0","pricing_plan_id":"cebpf4jnsgd1na2vs0mg"},{"bike_id":"24cc6c15-4ee4-4e5f-8cfb-f3444dfa76f6","system_id":"levelo_inurba_marseille","lat":43.31701,"lon":5.4371,"is_reserved":false,"is_disabled":false,"rental_uris":{"android":"levelo://app?vid=24cc6c15-4ee4-4e5f-8cfb-f3444dfa76f6","ios":"levelo://app?vid=24cc6c15-4ee4-4e5f-8cfb-f3444dfa76f6"},"vehicle_type_id":"4","last_reported":1751576958,"current_range_meters":18800,"station_id":"ce4bhp92rcd13ifvqhcg","pricing_plan_id":"cebpf4jnsgd1na2vs0mg"},{"bike_id":"4b8da722-ee9e-48a4-a5e5-3a8a10364708","system_id":"levelo_inurba_marseille","lat":43.31226,"lon":5.37823,"is_reserved":false,"is_disabled":false,"rental_uris":{"android":"levelo://app?vid=4b8da722-ee9e-48a4-a5e5-3a8a10364708","ios":"levelo://app?vid=4b8da722-ee9e-48a4-a5e5-3a8a10364708"},"vehicle_type_id":"4","last_reported":1751576958,"current_range_meters":19200,"station_id":"","pricing_plan_id":"cebpf4jnsgd1na2vs0mg"},{"bike_id":"50c71dfa-d898-4eea-9655-fdbec56413c1","system_id":"levelo_inurba_marseille","lat":43.286081,"lon":5.373557,"is_reserved":false,"is_disabled":false,"rental_uris":{"android":"levelo://app?vid=50c71dfa-d898-4eea-9655-fdbec56413c1","ios":"levelo://app?vid=50c71dfa-d898-4eea-9655-fdbec56413c1"},"vehicle_type_id":"4","last_reported":1751576958,"current_range_meters":19200,"station_id":"ce4bh412rcd13ifvqds0","pricing_plan_id":"cebpf4jnsgd1na2vs0mg"},{"bike_id":"5f36c0ce-f24c-4856-9a4e-be6e9a1fa4bf","system_id":"levelo_inurba_marseille","lat":43.273818,"lon":5.362618,"is_reserved":false,"is_disabled":false,"rental_uris":{"android":"levelo://app?vid=5f36c0ce-f24c-4856-9a4e-be6e9a1fa4bf","ios":"levelo://app?vid=5f36c0ce-f24c-4856-9a4e-be6e9a1fa4bf"},"vehicle_type_id":"4","last_reported":1751576958,"current_range_meters":19200,"station_id":"ce4bhbh2rcd13ifvqeo0","pricing_plan_id":"cebpf4jnsgd1na2vs0mg"},{"bike_id":"e38a7450-6e8d-4532-aebe-d0f05655d1f8","system_id":"levelo_inurba_marseille","lat":43.30133,"lon":5.3741,"is_reserved":false,"is_disabled":false,"rental_uris":{"android":"levelo://app?vid=e38a7450-6e8d-4532-aebe-d0f05655d1f8","ios":"levelo://app?vid=e38a7450-6e8d-4532-aebe-d0f05655d1f8"},"vehicle_type_id":"4","last_reported":1751576958,"current_range_meters":19600,"station_id":"ce4bgs92rcd13ifvqcc0","pricing_plan_id":"cebpf4jnsgd1na2vs0mg"},{"bike_id":"0f15cd50-4698-4f72-8d5c-fbcbcab9557c","system_id":"levelo_inurba_marseille","lat":43.30627,"lon":5.40074,"is_reserved":false,"is_disabled":false,"rental_uris":{"android":"levelo://app?vid=0f15cd50-4698-4f72-8d5c-fbcbcab9557c","ios":"levelo://app?vid=0f15cd50-4698-4f72-8d5c-fbcbcab9557c"},"vehicle_type_id":"4","last_reported":1751576958,"current_range_meters":19600,"station_id":"ce4bh112rcd13ifvqda0","pricing_plan_id":"cebpf4jnsgd1na2vs0mg"},{"bike_id":"c9368b97-3464-46a7-b63a-27b44d6c6fb6","system_id":"levelo_inurba_marseille","lat":43.28486,"lon":5.38449,"is_reserved":false,"is_disabled":false,"rental_uris":{"android":"levelo://app?vid=c9368b97-3464-46a7-b63a-27b44d6c6fb6","ios":"levelo://app?vid=c9368b97-3464-46a7-b63a-27b44d6c6fb6"},"vehicle_type_id":"4","last_reported":1751576958,"current_range_meters":19600,"station_id":"ce4bh512rcd13ifvqe3g","pricing_plan_id":"cebpf4jnsgd1na2vs0mg"},{"bike_id":"7750b1a2-d533-41a1-a604-494a76bb4eaa","system_id":"levelo_inurba_marseille","lat":43.28476,"lon":5.38409,"is_reserved":false,"is_disabled":false,"rental_uris":{"android":"levelo://app?vid=7750b1a2-d533-41a1-a604-494a76bb4eaa","ios":"levelo://app?vid=7750b1a2-d533-41a1-a604-494a76bb4eaa"},"vehicle_type_id":"4","last_reported":1751576958,"current_range_meters":19600,"station_id":"ce4bh512rcd13ifvqe3g","pricing_plan_id":"cebpf4jnsgd1na2vs0mg"},{"bike_id":"fe4be8c5-f00f-49c4-a059-39b54d33d22c","system_id":"levelo_inurba_marseille","lat":43.29262,"lon":5.3844,"is_reserved":false,"is_disabled":false,"rental_uris":{"android":"levelo://app?vid=fe4be8c5-f00f-49c4-a059-39b54d33d22c","ios":"levelo://app?vid=fe4be8c5-f00f-49c4-a059-39b54d33d22c"},"vehicle_type_id":"4","last_reported":1751576958,"current_range_meters":19600,"station_id":"ce4bh692rcd13ifvqea0","pricing_plan_id":"cebpf4jnsgd1na2vs0mg"},{"bike_id":"51fa2768-c5ae-402f-85b5-e8d4be893052","system_id":"levelo_inurba_marseille","lat":43.25494,"lon":5.37661,"is_reserved":false,"is_disabled":false,"rental_uris":{"android":"levelo://app?vid=51fa2768-c5ae-402f-85b5-e8d4be893052","ios":"levelo://app?vid=51fa2768-c5ae-402f-85b5-e8d4be893052"},"vehicle_type_id":"4","last_reported":1751576958,"current_range_meters":19600,"station_id":"ce4bhh12rcd13ifvqff0","pricing_plan_id":"cebpf4jnsgd1na2vs0mg"},{"bike_id":"e73e6ecc-e3ee-4b95-8d3f-ebf0f56fb852","system_id":"levelo_inurba_marseille","lat":43.239673,"lon":5.366271,"is_reserved":false,"is_disabled":false,"rental_uris":{"android":"levelo://app?vid=e73e6ecc-e3ee-4b95-8d3f-ebf0f56fb852","ios":"levelo://app?vid=e73e6ecc-e3ee-4b95-8d3f-ebf0f56fb852"},"vehicle_type_id":"4","last_reported":1751576958,"current_range_meters":19600,"station_id":"st_cvj6r9ubvosntc0bgbag","pricing_plan_id":"cebpf4jnsgd1na2vs0mg"},{"bike_id":"c13c93ac-6b62-443c-9e36-caf61b27325a","system_id":"levelo_inurba_marseille","lat":43.211952,"lon":5.350651,"is_reserved":false,"is_disabled":false,"rental_uris":{"android":"levelo://app?vid=c13c93ac-6b62-443c-9e36-caf61b27325a","ios":"levelo://app?vid=c13c93ac-6b62-443c-9e36-caf61b27325a"},"vehicle_type_id":"4","last_reported":1751576958,"current_range_meters":19600,"station_id":"st_cvj6sg6p6f1abm77japg","pricing_plan_id":"cebpf4jnsgd1na2vs0mg"},{"bike_id":"ef59429e-84ac-4515-824a-3359afea124e","system_id":"levelo_inurba_marseille","lat":43.29509,"lon":5.38564,"is_reserved":false,"is_disabled":false,"rental_uris":{"android":"levelo://app?vid=ef59429e-84ac-4515-824a-3359afea124e","ios":"levelo://app?vid=ef59429e-84ac-4515-824a-3359afea124e"},"vehicle_type_id":"4","last_reported":1751576958,"current_range_meters":20000,"station_id":"ce4bgih2rcd13ifvqba0","pricing_plan_id":"cebpf4jnsgd1na2vs0mg"},{"bike_id":"980e321b-1561-4739-ba1c-fcdf3098882d","system_id":"levelo_inurba_marseille","lat":43.29906,"lon":5.3747,"is_reserved":false,"is_disabled":false,"rental_uris":{"android":"levelo://app?vid=980e321b-1561-4739-ba1c-fcdf3098882d","ios":"levelo://app?vid=980e321b-1561-4739-ba1c-fcdf3098882d"},"vehicle_type_id":"4","last_reported":1751576958,"current_range_meters":20000,"station_id":"ce4bgjh2rcd13ifvqbg0","pricing_plan_id":"cebpf4jnsgd1na2vs0mg"},{"bike_id":"ae4c7048-2ee4-47b8-b646-008384a6723c","system_id":"levelo_inurba_marseille","lat":43.30801,"lon":5.38157,"is_reserved":false,"is_disabled":false,"rental_uris":{"android":"levelo://app?vid=ae4c7048-2ee4-47b8-b646-008384a6723c","ios":"levelo://app?vid=ae4c7048-2ee4-47b8-b646-008384a6723c"},"vehicle_type_id":"4","last_reported":1751576958,"current_range_meters":20000,"station_id":"ce4bgt12rcd13ifvqce0","pricing_plan_id":"cebpf4jnsgd1na2vs0mg"},{"bike_id":"c3001da5-faa3-452b-b4b9-6b6728b93662","system_id":"levelo_inurba_marseille","lat":43.30932,"lon":5.40148,"is_reserved":false,"is_disabled":false,"rental_uris":{"android":"levelo://app?vid=c3001da5-faa3-452b-b4b9-6b6728b93662","ios":"levelo://app?vid=c3001da5-faa3-452b-b4b9-6b6728b93662"},"vehicle_type_id":"4","last_reported":1751576958,"current_range_meters":20000,"station_id":"ce4bgvp2rcd13ifvqct0","pricing_plan_id":"cebpf4jnsgd1na2vs0mg"},{"bike_id":"8586bd8e-db24-4da4-87b6-8510a13ec9e0","system_id":"levelo_inurba_marseille","lat":43.30324,"lon":5.40445,"is_reserved":false,"is_disabled":false,"rental_uris":{"android":"levelo://app?vid=8586bd8e-db24-4da4-87b6-8510a13ec9e0","ios":"levelo://app?vid=8586bd8e-db24-4da4-87b6-8510a13ec9e0"},"vehicle_type_id":"4","last_reported":1751576958,"current_range_meters":20000,"station_id":"ce4bh012rcd13ifvqd10","pricing_plan_id":"cebpf4jnsgd1na2vs0mg"},{"bike_id":"bedb878e-1da6-486e-a0d9-34b7a4b3a766","system_id":"levelo_inurba_marseille","lat":43.28569,"lon":5.39501,"is_reserved":false,"is_disabled":false,"rental_uris":{"android":"levelo://app?vid=bedb878e-1da6-486e-a0d9-34b7a4b3a766","ios":"levelo://app?vid=bedb878e-1da6-486e-a0d9-34b7a4b3a766"},"vehicle_type_id":"4","last_reported":1751576958,"current_range_meters":20000,"station_id":"ce4bh292rcd13ifvqdg0","pricing_plan_id":"cebpf4jnsgd1na2vs0mg"},{"bike_id":"aa499720-3cc3-4309-8a74-c4a64707e7b6","system_id":"levelo_inurba_marseille","lat":43.24388,"lon":5.37064,"is_reserved":false,"is_disabled":false,"rental_uris":{"android":"levelo://app?vid=aa499720-3cc3-4309-8a74-c4a64707e7b6","ios":"levelo://app?vid=aa499720-3cc3-4309-8a74-c4a64707e7b6"},"vehicle_type_id":"4","last_reported":1751576958,"current_range_meters":20000,"station_id":"ce4bhhh2rcd13ifvqfk0","pricing_plan_id":"cebpf4jnsgd1na2vs0mg"},{"bike_id":"7be93d05-2405-4cfe-a0c4-c6f3670e10c7","system_id":"levelo_inurba_marseille","lat":43.21189,"lon":5.35088,"is_reserved":false,"is_disabled":false,"rental_uris":{"android":"levelo://app?vid=7be93d05-2405-4cfe-a0c4-c6f3670e10c7","ios":"levelo://app?vid=7be93d05-2405-4cfe-a0c4-c6f3670e10c7"},"vehicle_type_id":"4","last_reported":1751576958,"current_range_meters":20000,"station_id":"st_cvj6sg6p6f1abm77japg","pricing_plan_id":"cebpf4jnsgd1na2vs0mg"},{"bike_id":"587a7cd2-de5a-40e3-8350-38cbcb4625b9","system_id":"levelo_inurba_marseille","lat":43.30425,"lon":5.3889,"is_reserved":false,"is_disabled":false,"rental_uris":{"android":"levelo://app?vid=587a7cd2-de5a-40e3-8350-38cbcb4625b9","ios":"levelo://app?vid=587a7cd2-de5a-40e3-8350-38cbcb4625b9"},"vehicle_type_id":"4","last_reported":1751576958,"current_range_meters":20400,"station_id":"ce4bgk12rcd13ifvqbi0","pricing_plan_id":"cebpf4jnsgd1na2vs0mg"},{"bike_id":"f053eb59-2a46-45cc-8461-252d28aef2bf","system_id":"levelo_inurba_marseille","lat":43.29633,"lon":5.40596,"is_reserved":false,"is_disabled":false,"rental_uris":{"android":"levelo://app?vid=f053eb59-2a46-45cc-8461-252d28aef2bf","ios":"levelo://app?vid=f053eb59-2a46-45cc-8461-252d28aef2bf"},"vehicle_type_id":"4","last_reported":1751576958,"current_range_meters":20400,"station_id":"ce4bh0h2rcd13ifvqd60","pricing_plan_id":"cebpf4jnsgd1na2vs0mg"},{"bike_id":"ede2a36d-bf27-43be-ba8a-afbb5a8ff1ed","system_id":"levelo_inurba_marseille","lat":43.27996,"lon":5.40012,"is_reserved":false,"is_disabled":false,"rental_uris":{"android":"levelo://app?vid=ede2a36d-bf27-43be-ba8a-afbb5a8ff1ed","ios":"levelo://app?vid=ede2a36d-bf27-43be-ba8a-afbb5a8ff1ed"},"vehicle_type_id":"4","last_reported":1751576958,"current_range_meters":20400,"station_id":"ce4bho92rcd13ifvqh4g","pricing_plan_id":"cebpf4jnsgd1na2vs0mg"},{"bike_id":"ee147f29-c31b-4463-8470-fee367024f1a","system_id":"levelo_inurba_marseille","lat":43.30723,"lon":5.42453,"is_reserved":false,"is_disabled":false,"rental_uris":{"android":"levelo://app?vid=ee147f29-c31b-4463-8470-fee367024f1a","ios":"levelo://app?vid=ee147f29-c31b-4463-8470-fee367024f1a"},"vehicle_type_id":"4","last_reported":1751576958,"current_range_meters":20400,"station_id":"st_cvj6ca6bvosntc0bfgr0","pricing_plan_id":"cebpf4jnsgd1na2vs0mg"},{"bike_id":"eb449041-3e49-4a59-9365-26c9b3655f97","system_id":"levelo_inurba_marseille","lat":43.28924,"lon":5.38397,"is_reserved":false,"is_disabled":false,"rental_uris":{"android":"levelo://app?vid=eb449041-3e49-4a59-9365-26c9b3655f97","ios":"levelo://app?vid=eb449041-3e49-4a59-9365-26c9b3655f97"},"vehicle_type_id":"4","last_reported":1751576958,"current_range_meters":20800,"station_id":"ce4bh612rcd13ifvqe6g","pricing_plan_id":"cebpf4jnsgd1na2vs0mg"},{"bike_id":"efb51fea-eb6b-444c-8c2e-b48e864a0053","system_id":"levelo_inurba_marseille","lat":43.243756,"lon":5.370712,"is_reserved":false,"is_disabled":false,"rental_uris":{"android":"levelo://app?vid=efb51fea-eb6b-444c-8c2e-b48e864a0053","ios":"levelo://app?vid=efb51fea-eb6b-444c-8c2e-b48e864a0053"},"vehicle_type_id":"4","last_reported":1751576958,"current_range_meters":20800,"station_id":"ce4bhhh2rcd13ifvqfk0","pricing_plan_id":"cebpf4jnsgd1na2vs0mg"},{"bike_id":"899d99b2-dc69-40bd-8e4f-56780a17324b","system_id":"levelo_inurba_marseille","lat":43.27069,"lon":5.42278,"is_reserved":false,"is_disabled":false,"rental_uris":{"android":"levelo://app?vid=899d99b2-dc69-40bd-8e4f-56780a17324b","ios":"levelo://app?vid=899d99b2-dc69-40bd-8e4f-56780a17324b"},"vehicle_type_id":"4","last_reported":1751576958,"current_range_meters":20800,"station_id":"ce4bhk92rcd13ifvqgb0","pricing_plan_id":"cebpf4jnsgd1na2vs0mg"},{"bike_id":"5f470112-8139-4343-b082-08a74e0b7074","system_id":"levelo_inurba_marseille","lat":43.21189,"lon":5.350788,"is_reserved":false,"is_disabled":false,"rental_uris":{"android":"levelo://app?vid=5f470112-8139-4343-b082-08a74e0b7074","ios":"levelo://app?vid=5f470112-8139-4343-b082-08a74e0b7074"},"vehicle_type_id":"4","last_reported":1751576958,"current_range_meters":20800,"station_id":"st_cvj6sg6p6f1abm77japg","pricing_plan_id":"cebpf4jnsgd1na2vs0mg"},{"bike_id":"5a4b862c-d93c-4d9e-9e17-21b1aa6a817e","system_id":"levelo_inurba_marseille","lat":43.29533,"lon":5.37572,"is_reserved":false,"is_disabled":false,"rental_uris":{"android":"levelo://app?vid=5a4b862c-d93c-4d9e-9e17-21b1aa6a817e","ios":"levelo://app?vid=5a4b862c-d93c-4d9e-9e17-21b1aa6a817e"},"vehicle_type_id":"4","last_reported":1751576958,"current_range_meters":21600,"station_id":"","pricing_plan_id":"cebpf4jnsgd1na2vs0mg"},{"bike_id":"e622dda8-2acc-494a-9c3c-68f2601d8cd5","system_id":"levelo_inurba_marseille","lat":43.292182,"lon":5.376506,"is_reserved":false,"is_disabled":false,"rental_uris":{"android":"levelo://app?vid=e622dda8-2acc-494a-9c3c-68f2601d8cd5","ios":"levelo://app?vid=e622dda8-2acc-494a-9c3c-68f2601d8cd5"},"vehicle_type_id":"4","last_reported":1751576958,"current_range_meters":21600,"station_id":"","pricing_plan_id":"cebpf4jnsgd1na2vs0mg"},{"bike_id":"c73d623a-8513-45e2-9135-ab59956f51c3","system_id":"levelo_inurba_marseille","lat":43.29898,"lon":5.38314,"is_reserved":false,"is_disabled":false,"rental_uris":{"android":"levelo://app?vid=c73d623a-8513-45e2-9135-ab59956f51c3","ios":"levelo://app?vid=c73d623a-8513-45e2-9135-ab59956f51c3"},"vehicle_type_id":"4","last_reported":1751576958,"current_range_meters":21600,"station_id":"","pricing_plan_id":"cebpf4jnsgd1na2vs0mg"},{"bike_id":"4a48da3d-a47a-4741-9ae7-8c81693f3bb4","system_id":"levelo_inurba_marseille","lat":43.27643,"lon":5.36065,"is_reserved":false,"is_disabled":false,"rental_uris":{"android":"levelo://app?vid=4a48da3d-a47a-4741-9ae7-8c81693f3bb4","ios":"levelo://app?vid=4a48da3d-a47a-4741-9ae7-8c81693f3bb4"},"vehicle_type_id":"4","last_reported":1751576958,"current_range_meters":21600,"station_id":"ce4bgj92rcd13ifvqbe0","pricing_plan_id":"cebpf4jnsgd1na2vs0mg"},{"bike_id":"1882ab05-8e2b-4742-a2ff-6b3124c15086","system_id":"levelo_inurba_marseille","lat":43.308076,"lon":5.381451,"is_reserved":false,"is_disabled":false,"rental_uris":{"android":"levelo://app?vid=1882ab05-8e2b-4742-a2ff-6b3124c15086","ios":"levelo://app?vid=1882ab05-8e2b-4742-a2ff-6b3124c15086"},"vehicle_type_id":"4","last_reported":1751576958,"current_range_meters":21600,"station_id":"ce4bgt12rcd13ifvqce0","pricing_plan_id":"cebpf4jnsgd1na2vs0mg"},{"bike_id":"1e8e4af6-5f28-4f10-9e5c-562b3321852d","system_id":"levelo_inurba_marseille","lat":43.2791,"lon":5.39578,"is_reserved":false,"is_disabled":false,"rental_uris":{"android":"levelo://app?vid=1e8e4af6-5f28-4f10-9e5c-562b3321852d","ios":"levelo://app?vid=1e8e4af6-5f28-4f10-9e5c-562b3321852d"},"vehicle_type_id":"4","last_reported":1751576958,"current_range_meters":21600,"station_id":"ce4bhf92rcd13ifvqf40","pricing_plan_id":"cebpf4jnsgd1na2vs0mg"},{"bike_id":"37a23a79-bfb0-4463-b5f4-acdf9ac1ed4f","system_id":"levelo_inurba_marseille","lat":43.29959,"lon":5.41329,"is_reserved":false,"is_disabled":false,"rental_uris":{"android":"levelo://app?vid=37a23a79-bfb0-4463-b5f4-acdf9ac1ed4f","ios":"levelo://app?vid=37a23a79-bfb0-4463-b5f4-acdf9ac1ed4f"},"vehicle_type_id":"4","last_reported":1751576958,"current_range_meters":21600,"station_id":"ce4bhp12rcd13ifvqh9g","pricing_plan_id":"cebpf4jnsgd1na2vs0mg"},{"bike_id":"43d421cd-b87f-48cc-95f7-00d279b10981","system_id":"levelo_inurba_marseille","lat":43.29775,"lon":5.37106,"is_reserved":false,"is_disabled":false,"rental_uris":{"android":"levelo://app?vid=43d421cd-b87f-48cc-95f7-00d279b10981","ios":"levelo://app?vid=43d421cd-b87f-48cc-95f7-00d279b10981"},"vehicle_type_id":"4","last_reported":1751576958,"current_range_meters":22000,"station_id":"ce4bgop2rcd13ifvqc1g","pricing_plan_id":"cebpf4jnsgd1na2vs0mg"},{"bike_id":"e093fc4e-418d-4b65-881d-9b03810aa319","system_id":"levelo_inurba_marseille","lat":43.3064,"lon":5.40094,"is_reserved":false,"is_disabled":false,"rental_uris":{"android":"levelo://app?vid=e093fc4e-418d-4b65-881d-9b03810aa319","ios":"levelo://app?vid=e093fc4e-418d-4b65-881d-9b03810aa319"},