{"last_updated":1774707795,"ttl":60,"version":"2.2","data":{"bikes":[{"bike_id":"57b702c5-1d95-46f0-81c2-86e24b8cca70","system_id":"levelo_inurba_marseille","lat":43.24529,"lon":5.39523,"is_reserved":false,"is_disabled":false,"rental_uris":{"android":"levelo://app?vid=57b702c5-1d95-46f0-81c2-86e24b8cca70","ios":"levelo://app?vid=57b702c5-1d95-46f0-81c2-86e24b8cca70"},"vehicle_type_id":"4","last_reported":1774707795,"current_range_meters":2800,"station_id":"ce4bhlp2rcd13ifvqgjg","pricing_plan_id":"cebpf4jnsgd1na2vs0mg"},{"bike_id":"60fb67eb-6223-4eac-a3f6-99d51745a94b","system_id":"levelo_inurba_marseille","lat":43.29022,"lon":5.38632,"is_reserved":false,"is_disabled":false,"rental_uris":{"android":"levelo://app?vid=60fb67eb-6223-4eac-a3f6-99d51745a94b","ios":"levelo://app?vid=60fb67eb-6223-4eac-a3f6-99d51745a94b"},"vehicle_type_id":"4","last_reported":1774707795,"current_range_meters":2800,"station_id":"ce4bh4p2rcd13ifvqe0g","pricing_plan_id":"cebpf4jnsgd1na2vs0mg"},{"bike_id":"fde7c990-ea71-4125-9b7f-4cda0f7e1677","system_id":"levelo_inurba_marseille","lat":43.23782,"lon":5.3663,"is_reserved":false,"is_disabled":false,"rental_uris":{"android":"levelo://app?vid=fde7c990-ea71-4125-9b7f-4cda0f7e1677","ios":"levelo://app?vid=fde7c990-ea71-4125-9b7f-4cda0f7e1677"},"vehicle_type_id":"4","last_reported":1774707795,"current_range_meters":2800,"station_id":"st_d3nk18o9ro0c73en2l3g","pricing_plan_id":"cebpf4jnsgd1na2vs0mg"},{"bike_id":"9f39b903-e526-44dd-aa53-4d7d972ecf24","system_id":"levelo_inurba_marseille","lat":43.2998,"lon":5.38482,"is_reserved":false,"is_disabled":false,"rental_uris":{"android":"levelo://app?vid=9f39b903-e526-44dd-aa53-4d7d972ecf24","ios":"levelo://app?vid=9f39b903-e526-44dd-aa53-4d7d972ecf24"},"vehicle_type_id":"4","last_reported":1774707795,"current_range_meters":2800,"station_id":"ce4bgj92rcd13ifvqbd0","pricing_plan_id":"cebpf4jnsgd1na2vs0mg"},{"bike_id":"41215aec-5f35-41c4-8875-01313ebb4475","system_id":"levelo_inurba_marseille","lat":43.28884,"lon":5.43769,"is_reserved":false,"is_disabled":false,"rental_uris":{"android":"levelo://app?vid=41215aec-5f35-41c4-8875-01313ebb4475","ios":"levelo://app?vid=41215aec-5f35-41c4-8875-01313ebb4475"},"vehicle_type_id":"4","last_reported":1774707795,"current_range_meters":2800,"station_id":"","pricing_plan_id":"cebpf4jnsgd1na2vs0mg"},{"bike_id":"9bc0b937-b0d9-43c5-9555-6ff47bb13b73","system_id":"levelo_inurba_marseille","lat":43.33146,"lon":5.3773,"is_reserved":false,"is_disabled":false,"rental_uris":{"android":"levelo://app?vid=9bc0b937-b0d9-43c5-9555-6ff47bb13b73","ios":"levelo://app?vid=9bc0b937-b0d9-43c5-9555-6ff47bb13b73"},"vehicle_type_id":"4","last_reported":1774707795,"current_range_meters":2800,"station_id":"st_d46cu089ee8s73dldbu0","pricing_plan_id":"cebpf4jnsgd1na2vs0mg"},{"bike_id":"3b1faa0b-7615-4add-8ed1-b1feeb1b8939","system_id":"levelo_inurba_marseille","lat":43.21193,"lon":5.35071,"is_reserved":false,"is_disabled":false,"rental_uris":{"android":"levelo://app?vid=3b1faa0b-7615-4add-8ed1-b1feeb1b8939","ios":"levelo://app?vid=3b1faa0b-7615-4add-8ed1-b1feeb1b8939"},"vehicle_type_id":"4","last_reported":1774707795,"current_range_meters":2800,"station_id":"","pricing_plan_id":"cebpf4jnsgd1na2vs0mg"},{"bike_id":"80db360c-7472-4e5e-a72d-ff0ab9900c5d","system_id":"levelo_inurba_marseille","lat":43.29201,"lon":5.42611,"is_reserved":false,"is_disabled":false,"rental_uris":{"android":"levelo://app?vid=80db360c-7472-4e5e-a72d-ff0ab9900c5d","ios":"levelo://app?vid=80db360c-7472-4e5e-a72d-ff0ab9900c5d"},"vehicle_type_id":"4","last_reported":1774707795,"current_range_meters":2800,"station_id":"","pricing_plan_id":"cebpf4jnsgd1na2vs0mg"},{"bike_id":"3df989f0-b1f5-4c36-8c11-74f4f0c35f96","system_id":"levelo_inurba_marseille","lat":43.29603,"lon":5.38107,"is_reserved":false,"is_disabled":false,"rental_uris":{"android":"levelo://app?vid=3df989f0-b1f5-4c36-8c11-74f4f0c35f96","ios":"levelo://app?vid=3df989f0-b1f5-4c36-8c11-74f4f0c35f96"},"vehicle_type_id":"4","last_reported":1774707795,"current_range_meters":3200,"station_id":"ce4bgl12rcd13ifvqbo0","pricing_plan_id":"cebpf4jnsgd1na2vs0mg"},{"bike_id":"16a65088-9cde-44d5-aa5a-ec9990314d70","system_id":"levelo_inurba_marseille","lat":43.30372,"lon":5.42493,"is_reserved":false,"is_disabled":false,"rental_uris":{"android":"levelo://app?vid=16a65088-9cde-44d5-aa5a-ec9990314d70","ios":"levelo://app?vid=16a65088-9cde-44d5-aa5a-ec9990314d70"},"vehicle_type_id":"4","last_reported":1774707795,"current_range_meters":3200,"station_id":"ce4bhoh2rcd13ifvqh6g","pricing_plan_id":"cebpf4jnsgd1na2vs0mg"},{"bike_id":"a59a3b99-5296-4330-a3d0-b7a39f761182","system_id":"levelo_inurba_marseille","lat":43.29035,"lon":5.38635,"is_reserved":false,"is_disabled":false,"rental_uris":{"android":"levelo://app?vid=a59a3b99-5296-4330-a3d0-b7a39f761182","ios":"levelo://app?vid=a59a3b99-5296-4330-a3d0-b7a39f761182"},"vehicle_type_id":"4","last_reported":1774707795,"current_range_meters":3200,"station_id":"ce4bh4p2rcd13ifvqe0g","pricing_plan_id":"cebpf4jnsgd1na2vs0mg"},{"bike_id":"bfecbb4a-7a8f-462b-a62f-9492445c7770","system_id":"levelo_inurba_marseille","lat":43.28944,"lon":5.36627,"is_reserved":false,"is_disabled":false,"rental_uris":{"android":"levelo://app?vid=bfecbb4a-7a8f-462b-a62f-9492445c7770","ios":"levelo://app?vid=bfecbb4a-7a8f-462b-a62f-9492445c7770"},"vehicle_type_id":"4","last_reported":1774707795,"current_range_meters":3200,"station_id":"ce4bhap2rcd13ifvqek0","pricing_plan_id":"cebpf4jnsgd1na2vs0mg"},{"bike_id":"0ce344aa-35c2-4ba7-997c-4f98f4bdd3ee","system_id":"levelo_inurba_marseille","lat":43.29973,"lon":5.38515,"is_reserved":false,"is_disabled":false,"rental_uris":{"android":"levelo://app?vid=0ce344aa-35c2-4ba7-997c-4f98f4bdd3ee","ios":"levelo://app?vid=0ce344aa-35c2-4ba7-997c-4f98f4bdd3ee"},"vehicle_type_id":"4","last_reported":1774707795,"current_range_meters":3200,"station_id":"ce4bgj92rcd13ifvqbd0","pricing_plan_id":"cebpf4jnsgd1na2vs0mg"},{"bike_id":"83ed1947-f4bc-4e4e-aa3b-fcd9568f2a7c","system_id":"levelo_inurba_marseille","lat":43.30941,"lon":5.39051,"is_reserved":false,"is_disabled":false,"rental_uris":{"android":"levelo://app?vid=83ed1947-f4bc-4e4e-aa3b-fcd9568f2a7c","ios":"levelo://app?vid=83ed1947-f4bc-4e4e-aa3b-fcd9568f2a7c"},"vehicle_type_id":"4","last_reported":1774707795,"current_range_meters":3200,"station_id":"ce4bgup2rcd13ifvqco0","pricing_plan_id":"cebpf4jnsgd1na2vs0mg"},{"bike_id":"0bf4a1d7-81ea-4ed1-ad7a-153a97017884","system_id":"levelo_inurba_marseille","lat":43.237762,"lon":5.366311,"is_reserved":false,"is_disabled":false,"rental_uris":{"android":"levelo://app?vid=0bf4a1d7-81ea-4ed1-ad7a-153a97017884","ios":"levelo://app?vid=0bf4a1d7-81ea-4ed1-ad7a-153a97017884"},"vehicle_type_id":"4","last_reported":1774707795,"current_range_meters":3200,"station_id":"st_d3nk18o9ro0c73en2l3g","pricing_plan_id":"cebpf4jnsgd1na2vs0mg"},{"bike_id":"ae758492-79f2-476f-b0b6-5b6613e02dd5","system_id":"levelo_inurba_marseille","lat":43.21191,"lon":5.35074,"is_reserved":false,"is_disabled":false,"rental_uris":{"android":"levelo://app?vid=ae758492-79f2-476f-b0b6-5b6613e02dd5","ios":"levelo://app?vid=ae758492-79f2-476f-b0b6-5b6613e02dd5"},"vehicle_type_id":"4","last_reported":1774707795,"current_range_meters":3200,"station_id":"st_cvj6sg6p6f1abm77japg","pricing_plan_id":"cebpf4jnsgd1na2vs0mg"},{"bike_id":"b7ad9aeb-a065-4999-8f00-4c838e290462","system_id":"levelo_inurba_marseille","lat":43.30814,"lon":5.38145,"is_reserved":false,"is_disabled":false,"rental_uris":{"android":"levelo://app?vid=b7ad9aeb-a065-4999-8f00-4c838e290462","ios":"levelo://app?vid=b7ad9aeb-a065-4999-8f00-4c838e290462"},"vehicle_type_id":"4","last_reported":1774707795,"current_range_meters":3200,"station_id":"ce4bgt12rcd13ifvqce0","pricing_plan_id":"cebpf4jnsgd1na2vs0mg"},{"bike_id":"d120f556-c9d0-4458-bff7-5b8e44b0ebab","system_id":"levelo_inurba_marseille","lat":43.30888,"lon":5.39645,"is_reserved":false,"is_disabled":false,"rental_uris":{"android":"levelo://app?vid=d120f556-c9d0-4458-bff7-5b8e44b0ebab","ios":"levelo://app?vid=d120f556-c9d0-4458-bff7-5b8e44b0ebab"},"vehicle_type_id":"4","last_reported":1774707795,"current_range_meters":3200,"station_id":"ce4bh012rcd13ifvqcv0","pricing_plan_id":"cebpf4jnsgd1na2vs0mg"},{"bike_id":"43dd77b9-7724-4f20-9ba0-1556a9a09a8c","system_id":"levelo_inurba_marseille","lat":43.26463,"lon":5.39552,"is_reserved":false,"is_disabled":false,"rental_uris":{"android":"levelo://app?vid=43dd77b9-7724-4f20-9ba0-1556a9a09a8c","ios":"levelo://app?vid=43dd77b9-7724-4f20-9ba0-1556a9a09a8c"},"vehicle_type_id":"4","last_reported":1774707795,"current_range_meters":3200,"station_id":"ce4bhi12rcd13ifvqfq0","pricing_plan_id":"cebpf4jnsgd1na2vs0mg"},{"bike_id":"d67df120-32e9-424c-94ae-8d9801ba5992","system_id":"levelo_inurba_marseille","lat":43.2985,"lon":5.36281,"is_reserved":false,"is_disabled":false,"rental_uris":{"android":"levelo://app?vid=d67df120-32e9-424c-94ae-8d9801ba5992","ios":"levelo://app?vid=d67df120-32e9-424c-94ae-8d9801ba5992"},"vehicle_type_id":"4","last_reported":1774707795,"current_range_meters":3200,"station_id":"ce4bgpp2rcd13ifvqc3g","pricing_plan_id":"cebpf4jnsgd1na2vs0mg"},{"bike_id":"980f7b0d-19f7-4d96-a84d-fcdc1ec7600f","system_id":"levelo_inurba_marseille","lat":43.21187,"lon":5.35067,"is_reserved":false,"is_disabled":false,"rental_uris":{"android":"levelo://app?vid=980f7b0d-19f7-4d96-a84d-fcdc1ec7600f","ios":"levelo://app?vid=980f7b0d-19f7-4d96-a84d-fcdc1ec7600f"},"vehicle_type_id":"4","last_reported":1774707795,"current_range_meters":3600,"station_id":"st_cvj6sg6p6f1abm77japg","pricing_plan_id":"cebpf4jnsgd1na2vs0mg"},{"bike_id":"4d2c428a-06db-49bc-a222-2cbc52db76c0","system_id":"levelo_inurba_marseille","lat":43.2417,"lon":5.39724,"is_reserved":false,"is_disabled":false,"rental_uris":{"android":"levelo://app?vid=4d2c428a-06db-49bc-a222-2cbc52db76c0","ios":"levelo://app?vid=4d2c428a-06db-49bc-a222-2cbc52db76c0"},"vehicle_type_id":"4","last_reported":1774707795,"current_range_meters":3600,"station_id":"ce4bhn12rcd13ifvqgpg","pricing_plan_id":"cebpf4jnsgd1na2vs0mg"},{"bike_id":"18a91529-06e5-4b51-b178-940cb96e7217","system_id":"levelo_inurba_marseille","lat":43.23788,"lon":5.36609,"is_reserved":false,"is_disabled":false,"rental_uris":{"android":"levelo://app?vid=18a91529-06e5-4b51-b178-940cb96e7217","ios":"levelo://app?vid=18a91529-06e5-4b51-b178-940cb96e7217"},"vehicle_type_id":"4","last_reported":1774707795,"current_range_meters":3600,"station_id":"st_d3nk18o9ro0c73en2l3g","pricing_plan_id":"cebpf4jnsgd1na2vs0mg"},{"bike_id":"f56a03d6-65b7-4c47-9925-b566ed9a0bc1","system_id":"levelo_inurba_marseille","lat":43.29621,"lon":5.37562,"is_reserved":false,"is_disabled":false,"rental_uris":{"android":"levelo://app?vid=f56a03d6-65b7-4c47-9925-b566ed9a0bc1","ios":"levelo://app?vid=f56a03d6-65b7-4c47-9925-b566ed9a0bc1"},"vehicle_type_id":"4","last_reported":1774707795,"current_range_meters":3600,"station_id":"","pricing_plan_id":"cebpf4jnsgd1na2vs0mg"},{"bike_id":"e4b97950-5826-475e-8558-d2e5bcc219f8","system_id":"levelo_inurba_marseille","lat":43.29827,"lon":5.36536,"is_reserved":false,"is_disabled":false,"rental_uris":{"android":"levelo://app?vid=e4b97950-5826-475e-8558-d2e5bcc219f8","ios":"levelo://app?vid=e4b97950-5826-475e-8558-d2e5bcc219f8"},"vehicle_type_id":"4","last_reported":1774707795,"current_range_meters":3600,"station_id":"","pricing_plan_id":"cebpf4jnsgd1na2vs0mg"},{"bike_id":"bd934b71-fc54-44f1-90d5-67d1e4783891","system_id":"levelo_inurba_marseille","lat":43.24161,"lon":5.36378,"is_reserved":false,"is_disabled":false,"rental_uris":{"android":"levelo://app?vid=bd934b71-fc54-44f1-90d5-67d1e4783891","ios":"levelo://app?vid=bd934b71-fc54-44f1-90d5-67d1e4783891"},"vehicle_type_id":"4","last_reported":1774707795,"current_range_meters":3600,"station_id":"cpo36qri1sfpv3e86is0","pricing_plan_id":"cebpf4jnsgd1na2vs0mg"},{"bike_id":"8526a615-f7ec-4624-a0ad-65f2d6d12652","system_id":"levelo_inurba_marseille","lat":43.27566,"lon":5.3842,"is_reserved":false,"is_disabled":false,"rental_uris":{"android":"levelo://app?vid=8526a615-f7ec-4624-a0ad-65f2d6d12652","ios":"levelo://app?vid=8526a615-f7ec-4624-a0ad-65f2d6d12652"},"vehicle_type_id":"4","last_reported":1774707795,"current_range_meters":3600,"station_id":"ce4bhh92rcd13ifvqfi0","pricing_plan_id":"cebpf4jnsgd1na2vs0mg"},{"bike_id":"e9dc9846-a1fb-4f3a-a8d5-dbd68cc5808d","system_id":"levelo_inurba_marseille","lat":43.30821,"lon":5.39986,"is_reserved":false,"is_disabled":false,"rental_uris":{"android":"levelo://app?vid=e9dc9846-a1fb-4f3a-a8d5-dbd68cc5808d","ios":"levelo://app?vid=e9dc9846-a1fb-4f3a-a8d5-dbd68cc5808d"},"vehicle_type_id":"4","last_reported":1774707795,"current_range_meters":3600,"station_id":"","pricing_plan_id":"cebpf4jnsgd1na2vs0mg"},{"bike_id":"27f65587-f91a-41b1-aacf-8da5e702b79e","system_id":"levelo_inurba_marseille","lat":43.29756,"lon":5.42759,"is_reserved":false,"is_disabled":false,"rental_uris":{"android":"levelo://app?vid=27f65587-f91a-41b1-aacf-8da5e702b79e","ios":"levelo://app?vid=27f65587-f91a-41b1-aacf-8da5e702b79e"},"vehicle_type_id":"4","last_reported":1774707795,"current_range_meters":3600,"station_id":"st_d3md5207bmas73dh9klg","pricing_plan_id":"cebpf4jnsgd1na2vs0mg"},{"bike_id":"0e349c35-32b3-4b65-b0c2-ad102d25a611","system_id":"levelo_inurba_marseille","lat":43.28412,"lon":5.38549,"is_reserved":false,"is_disabled":false,"rental_uris":{"android":"levelo://app?vid=0e349c35-32b3-4b65-b0c2-ad102d25a611","ios":"levelo://app?vid=0e349c35-32b3-4b65-b0c2-ad102d25a611"},"vehicle_type_id":"4","last_reported":1774707795,"current_range_meters":3600,"station_id":"","pricing_plan_id":"cebpf4jnsgd1na2vs0mg"},{"bike_id":"29b8f791-7789-4e9b-8e39-c750aefccf04","system_id":"levelo_inurba_marseille","lat":43.23797,"lon":5.36637,"is_reserved":false,"is_disabled":false,"rental_uris":{"android":"levelo://app?vid=29b8f791-7789-4e9b-8e39-c750aefccf04","ios":"levelo://app?vid=29b8f791-7789-4e9b-8e39-c750aefccf04"},"vehicle_type_id":"4","last_reported":1774707795,"current_range_meters":3600,"station_id":"st_d3nk18o9ro0c73en2l3g","pricing_plan_id":"cebpf4jnsgd1na2vs0mg"},{"bike_id":"83d7efdc-9f19-4dec-a424-111855000a10","system_id":"levelo_inurba_marseille","lat":43.279906,"lon":5.400053,"is_reserved":false,"is_disabled":false,"rental_uris":{"android":"levelo://app?vid=83d7efdc-9f19-4dec-a424-111855000a10","ios":"levelo://app?vid=83d7efdc-9f19-4dec-a424-111855000a10"},"vehicle_type_id":"4","last_reported":1774707795,"current_range_meters":3600,"station_id":"ce4bho92rcd13ifvqh4g","pricing_plan_id":"cebpf4jnsgd1na2vs0mg"},{"bike_id":"21dd61bd-9043-4571-a447-7b3b1712b0dd","system_id":"levelo_inurba_marseille","lat":43.24658,"lon":5.38155,"is_reserved":false,"is_disabled":false,"rental_uris":{"android":"levelo://app?vid=21dd61bd-9043-4571-a447-7b3b1712b0dd","ios":"levelo://app?vid=21dd61bd-9043-4571-a447-7b3b1712b0dd"},"vehicle_type_id":"4","last_reported":1774707795,"current_range_meters":3600,"station_id":"ce4bhih2rcd13ifvqfr0","pricing_plan_id":"cebpf4jnsgd1na2vs0mg"},{"bike_id":"69e27c7c-05d6-4969-a22c-fe27130751a8","system_id":"levelo_inurba_marseille","lat":43.21194,"lon":5.35056,"is_reserved":false,"is_disabled":false,"rental_uris":{"android":"levelo://app?vid=69e27c7c-05d6-4969-a22c-fe27130751a8","ios":"levelo://app?vid=69e27c7c-05d6-4969-a22c-fe27130751a8"},"vehicle_type_id":"4","last_reported":1774707795,"current_range_meters":4000,"station_id":"st_cvj6sg6p6f1abm77japg","pricing_plan_id":"cebpf4jnsgd1na2vs0mg"},{"bike_id":"96574ef8-313b-417f-a5d2-2729e5bdb50f","system_id":"levelo_inurba_marseille","lat":43.29567,"lon":5.37514,"is_reserved":false,"is_disabled":false,"rental_uris":{"android":"levelo://app?vid=96574ef8-313b-417f-a5d2-2729e5bdb50f","ios":"levelo://app?vid=96574ef8-313b-417f-a5d2-2729e5bdb50f"},"vehicle_type_id":"4","last_reported":1774707795,"current_range_meters":4000,"station_id":"ce4bgh92rcd13ifvqb50","pricing_plan_id":"cebpf4jnsgd1na2vs0mg"},{"bike_id":"76afd0f9-39c6-4d10-a3a3-3323a029e46a","system_id":"levelo_inurba_marseille","lat":43.23382,"lon":5.41244,"is_reserved":false,"is_disabled":false,"rental_uris":{"android":"levelo://app?vid=76afd0f9-39c6-4d10-a3a3-3323a029e46a","ios":"levelo://app?vid=76afd0f9-39c6-4d10-a3a3-3323a029e46a"},"vehicle_type_id":"4","last_reported":1774707795,"current_range_meters":4000,"station_id":"","pricing_plan_id":"cebpf4jnsgd1na2vs0mg"},{"bike_id":"8a927669-3c1a-4573-98bd-585f9b534d2d","system_id":"levelo_inurba_marseille","lat":43.24467,"lon":5.42527,"is_reserved":false,"is_disabled":false,"rental_uris":{"android":"levelo://app?vid=8a927669-3c1a-4573-98bd-585f9b534d2d","ios":"levelo://app?vid=8a927669-3c1a-4573-98bd-585f9b534d2d"},"vehicle_type_id":"4","last_reported":1774707795,"current_range_meters":4000,"station_id":"st_d4a3vfp97mjs738cd8kg","pricing_plan_id":"cebpf4jnsgd1na2vs0mg"},{"bike_id":"7d38c45a-0011-4d05-9bbf-54b7323ff394","system_id":"levelo_inurba_marseille","lat":43.26394,"lon":5.41064,"is_reserved":false,"is_disabled":false,"rental_uris":{"android":"levelo://app?vid=7d38c45a-0011-4d05-9bbf-54b7323ff394","ios":"levelo://app?vid=7d38c45a-0011-4d05-9bbf-54b7323ff394"},"vehicle_type_id":"4","last_reported":1774707795,"current_range_meters":4000,"station_id":"st_d4e5ca6na9uc73bfl5fg","pricing_plan_id":"cebpf4jnsgd1na2vs0mg"},{"bike_id":"ace30790-d9f4-4362-b049-53b5308efc6b","system_id":"levelo_inurba_marseille","lat":43.31994,"lon":5.38147,"is_reserved":false,"is_disabled":false,"rental_uris":{"android":"levelo://app?vid=ace30790-d9f4-4362-b049-53b5308efc6b","ios":"levelo://app?vid=ace30790-d9f4-4362-b049-53b5308efc6b"},"vehicle_type_id":"4","last_reported":1774707795,"current_range_meters":4000,"station_id":"ce4bhr12rcd13ifvqhpg","pricing_plan_id":"cebpf4jnsgd1na2vs0mg"},{"bike_id":"11224c01-662f-4e0d-9c1d-38560eb0b71c","system_id":"levelo_inurba_marseille","lat":43.30544,"lon":5.36538,"is_reserved":false,"is_disabled":false,"rental_uris":{"android":"levelo://app?vid=11224c01-662f-4e0d-9c1d-38560eb0b71c","ios":"levelo://app?vid=11224c01-662f-4e0d-9c1d-38560eb0b71c"},"vehicle_type_id":"4","last_reported":1774707795,"current_range_meters":4000,"station_id":"ce4bgs12rcd13ifvqcag","pricing_plan_id":"cebpf4jnsgd1na2vs0mg"},{"bike_id":"e047e5df-7399-4250-9109-1592c1ed8d83","system_id":"levelo_inurba_marseille","lat":43.2843,"lon":5.35003,"is_reserved":false,"is_disabled":false,"rental_uris":{"android":"levelo://app?vid=e047e5df-7399-4250-9109-1592c1ed8d83","ios":"levelo://app?vid=e047e5df-7399-4250-9109-1592c1ed8d83"},"vehicle_type_id":"4","last_reported":1774707795,"current_range_meters":4000,"station_id":"ce4bhbh2rcd13ifvqepg","pricing_plan_id":"cebpf4jnsgd1na2vs0mg"},{"bike_id":"92218fad-c6ea-4061-9c87-d7a2bb61d0b5","system_id":"levelo_inurba_marseille","lat":43.2378,"lon":5.36621,"is_reserved":false,"is_disabled":false,"rental_uris":{"android":"levelo://app?vid=92218fad-c6ea-4061-9c87-d7a2bb61d0b5","ios":"levelo://app?vid=92218fad-c6ea-4061-9c87-d7a2bb61d0b5"},"vehicle_type_id":"4","last_reported":1774707795,"current_range_meters":4000,"station_id":"st_d3nk18o9ro0c73en2l3g","pricing_plan_id":"cebpf4jnsgd1na2vs0mg"},{"bike_id":"8521b2e6-7925-4ce4-888e-a33f20980115","system_id":"levelo_inurba_marseille","lat":43.28151,"lon":5.383,"is_reserved":false,"is_disabled":false,"rental_uris":{"android":"levelo://app?vid=8521b2e6-7925-4ce4-888e-a33f20980115","ios":"levelo://app?vid=8521b2e6-7925-4ce4-888e-a33f20980115"},"vehicle_type_id":"4","last_reported":1774707795,"current_range_meters":4000,"station_id":"","pricing_plan_id":"cebpf4jnsgd1na2vs0mg"},{"bike_id":"299c1db8-8b1c-4e76-8016-cf4f1472636c","system_id":"levelo_inurba_marseille","lat":43.3094,"lon":5.39977,"is_reserved":false,"is_disabled":false,"rental_uris":{"android":"levelo://app?vid=299c1db8-8b1c-4e76-8016-cf4f1472636c","ios":"levelo://app?vid=299c1db8-8b1c-4e76-8016-cf4f1472636c"},"vehicle_type_id":"4","last_reported":1774707795,"current_range_meters":4000,"station_id":"","pricing_plan_id":"cebpf4jnsgd1na2vs0mg"},{"bike_id":"841617e2-87dd-419b-bade-d1d9c64c1564","system_id":"levelo_inurba_marseille","lat":43.30329,"lon":5.40434,"is_reserved":false,"is_disabled":false,"rental_uris":{"android":"levelo://app?vid=841617e2-87dd-419b-bade-d1d9c64c1564","ios":"levelo://app?vid=841617e2-87dd-419b-bade-d1d9c64c1564"},"vehicle_type_id":"4","last_reported":1774707795,"current_range_meters":4000,"station_id":"ce4bh012rcd13ifvqd10","pricing_plan_id":"cebpf4jnsgd1na2vs0mg"},{"bike_id":"80670d0c-c5ee-402e-bbfb-c696570cb233","system_id":"levelo_inurba_marseille","lat":43.265,"lon":5.39537,"is_reserved":false,"is_disabled":false,"rental_uris":{"android":"levelo://app?vid=80670d0c-c5ee-402e-bbfb-c696570cb233","ios":"levelo://app?vid=80670d0c-c5ee-402e-bbfb-c696570cb233"},"vehicle_type_id":"4","last_reported":1774707795,"current_range_meters":4000,"station_id":"ce4bhi12rcd13ifvqfq0","pricing_plan_id":"cebpf4jnsgd1na2vs0mg"},{"bike_id":"ed35a64b-25f5-4097-9850-219a2b340a5f","system_id":"levelo_inurba_marseille","lat":43.24655,"lon":5.38179,"is_reserved":false,"is_disabled":false,"rental_uris":{"android":"levelo://app?vid=ed35a64b-25f5-4097-9850-219a2b340a5f","ios":"levelo://app?vid=ed35a64b-25f5-4097-9850-219a2b340a5f"},"vehicle_type_id":"4","last_reported":1774707795,"current_range_meters":4000,"station_id":"ce4bhih2rcd13ifvqfr0","pricing_plan_id":"cebpf4jnsgd1na2vs0mg"},{"bike_id":"1d7503c3-20ca-4fb6-92d0-5b5a5f6d18ec","system_id":"levelo_inurba_marseille","lat":43.2292,"lon":5.35377,"is_reserved":false,"is_disabled":false,"rental_uris":{"android":"levelo://app?vid=1d7503c3-20ca-4fb6-92d0-5b5a5f6d18ec","ios":"levelo://app?vid=1d7503c3-20ca-4fb6-92d0-5b5a5f6d18ec"},"vehicle_type_id":"4","last_reported":1774707795,"current_range_meters":4400,"station_id":"cpo3532slgdg3j2ikp40","pricing_plan_id":"cebpf4jnsgd1na2vs0mg"},{"bike_id":"6a7fd2aa-a90b-461a-8118-a8f8d903c462","system_id":"levelo_inurba_marseille","lat":43.28482,"lon":5.48407,"is_reserved":false,"is_disabled":false,"rental_uris":{"android":"levelo://app?vid=6a7fd2aa-a90b-461a-8118-a8f8d903c462","ios":"levelo://app?vid=6a7fd2aa-a90b-461a-8118-a8f8d903c462"},"vehicle_type_id":"4","last_reported":1774707795,"current_range_meters":4400,"station_id":"","pricing_plan_id":"cebpf4jnsgd1na2vs0mg"},{"bike_id":"2873a201-01ad-44f0-a3f4-1c2939d32934","system_id":"levelo_inurba_marseille","lat":43.31544,"lon":5.38011,"is_reserved":false,"is_disabled":false,"rental_uris":{"android":"levelo://app?vid=2873a201-01ad-44f0-a3f4-1c2939d32934","ios":"levelo://app?vid=2873a201-01ad-44f0-a3f4-1c2939d32934"},"vehicle_type_id":"4","last_reported":1774707795,"current_range_meters":4400,"station_id":"ce4bhsp2rcd13ifvqi50","pricing_plan_id":"cebpf4jnsgd1na2vs0mg"},{"bike_id":"3c96ada5-e568-4e5c-bfc7-ba46144cd3c0","system_id":"levelo_inurba_marseille","lat":43.31689,"lon":5.404,"is_reserved":false,"is_disabled":false,"rental_uris":{"android":"levelo://app?vid=3c96ada5-e568-4e5c-bfc7-ba46144cd3c0","ios":"levelo://app?vid=3c96ada5-e568-4e5c-bfc7-ba46144cd3c0"},"vehicle_type_id":"4","last_reported":1774707795,"current_range_meters":4400,"station_id":"ce4bh012rcd13ifvqd00","pricing_plan_id":"cebpf4jnsgd1na2vs0mg"},{"bike_id":"763fb353-086a-4573-89ea-1fbd0bd5d714","system_id":"levelo_inurba_marseille","lat":43.23963,"lon":5.3663,"is_reserved":false,"is_disabled":false,"rental_uris":{"android":"levelo://app?vid=763fb353-086a-4573-89ea-1fbd0bd5d714","ios":"levelo://app?vid=763fb353-086a-4573-89ea-1fbd0bd5d714"},"vehicle_type_id":"4","last_reported":1774707795,"current_range_meters":4400,"station_id":"ce4bhi12rcd13ifvqfp0","pricing_plan_id":"cebpf4jnsgd1na2vs0mg"},{"bike_id":"2fbd6289-00a2-4dfe-af4c-ce296368505b","system_id":"levelo_inurba_marseille","lat":43.28541,"lon":5.44098,"is_reserved":false,"is_disabled":false,"rental_uris":{"android":"levelo://app?vid=2fbd6289-00a2-4dfe-af4c-ce296368505b","ios":"levelo://app?vid=2fbd6289-00a2-4dfe-af4c-ce296368505b"},"vehicle_type_id":"4","last_reported":1774707795,"current_range_meters":4400,"station_id":"st_d3j3df2ikq2c7380ej80","pricing_plan_id":"cebpf4jnsgd1na2vs0mg"},{"bike_id":"248e7202-bf14-41af-ab35-7275ee6c4d6f","system_id":"levelo_inurba_marseille","lat":43.23388,"lon":5.41231,"is_reserved":false,"is_disabled":false,"rental_uris":{"android":"levelo://app?vid=248e7202-bf14-41af-ab35-7275ee6c4d6f","ios":"levelo://app?vid=248e7202-bf14-41af-ab35-7275ee6c4d6f"},"vehicle_type_id":"4","last_reported":1774707795,"current_range_meters":4400,"station_id":"","pricing_plan_id":"cebpf4jnsgd1na2vs0mg"},{"bike_id":"d9d05fde-45e8-4ca2-96b5-91d2b726b48c","system_id":"levelo_inurba_marseille","lat":43.22908,"lon":5.35356,"is_reserved":false,"is_disabled":false,"rental_uris":{"android":"levelo://app?vid=d9d05fde-45e8-4ca2-96b5-91d2b726b48c","ios":"levelo://app?vid=d9d05fde-45e8-4ca2-96b5-91d2b726b48c"},"vehicle_type_id":"4","last_reported":1774707795,"current_range_meters":4400,"station_id":"cpo3532slgdg3j2ikp40","pricing_plan_id":"cebpf4jnsgd1na2vs0mg"},{"bike_id":"ff23f6c3-07d6-471d-b47c-972e4e2656c1","system_id":"levelo_inurba_marseille","lat":43.21193,"lon":5.3507,"is_reserved":false,"is_disabled":false,"rental_uris":{"android":"levelo://app?vid=ff23f6c3-07d6-471d-b47c-972e4e2656c1","ios":"levelo://app?vid=ff23f6c3-07d6-471d-b47c-972e4e2656c1"},"vehicle_type_id":"4","last_reported":1774707795,"current_range_meters":4400,"station_id":"st_cvj6sg6p6f1abm77japg","pricing_plan_id":"cebpf4jnsgd1na2vs0mg"},{"bike_id":"0af61a61-c0b1-48ee-bb12-3dac9080b1bd","system_id":"levelo_inurba_marseille","lat":43.24666,"lon":5.38155,"is_reserved":false,"is_disabled":false,"rental_uris":{"android":"levelo://app?vid=0af61a61-c0b1-48ee-bb12-3dac9080b1bd","ios":"levelo://app?vid=0af61a61-c0b1-48ee-bb12-3dac9080b1bd"},"vehicle_type_id":"4","last_reported":1774707795,"current_range_meters":4400,"station_id":"ce4bhih2rcd13ifvqfr0","pricing_plan_id":"cebpf4jnsgd1na2vs0mg"},{"bike_id":"54359387-0239-45bd-bf50-51b014ca50a3","system_id":"levelo_inurba_marseille","lat":43.262,"lon":5.37934,"is_reserved":false,"is_disabled":false,"rental_uris":{"android":"levelo://app?vid=54359387-0239-45bd-bf50-51b014ca50a3","ios":"levelo://app?vid=54359387-0239-45bd-bf50-51b014ca50a3"},"vehicle_type_id":"4","last_reported":1774707795,"current_range_meters":4400,"station_id":"ce4bhjp2rcd13ifvqg90","pricing_plan_id":"cebpf4jnsgd1na2vs0mg"},{"bike_id":"fb0ee805-bb62-4355-ad8c-deca445e08fb","system_id":"levelo_inurba_marseille","lat":43.29233,"lon":5.36052,"is_reserved":false,"is_disabled":false,"rental_uris":{"android":"levelo://app?vid=fb0ee805-bb62-4355-ad8c-deca445e08fb","ios":"levelo://app?vid=fb0ee805-bb62-4355-ad8c-deca445e08fb"},"vehicle_type_id":"4","last_reported":1774707795,"current_range_meters":4800,"station_id":"ce4bhbh2rcd13ifvqeqg","pricing_plan_id":"cebpf4jnsgd1na2vs0mg"},{"bike_id":"4a152dca-4d5d-4358-aa62-953feb2144a3","system_id":"levelo_inurba_marseille","lat":43.22561,"lon":5.41621,"is_reserved":false,"is_disabled":false,"rental_uris":{"android":"levelo://app?vid=4a152dca-4d5d-4358-aa62-953feb2144a3","ios":"levelo://app?vid=4a152dca-4d5d-4358-aa62-953feb2144a3"},"vehicle_type_id":"4","last_reported":1774707795,"current_range_meters":4800,"station_id":"st_d2o4gvlbi1j2169b742g","pricing_plan_id":"cebpf4jnsgd1na2vs0mg"},{"bike_id":"94471e11-9e34-4276-a51d-322fb8e25da5","system_id":"levelo_inurba_marseille","lat":43.28269,"lon":5.35056,"is_reserved":false,"is_disabled":false,"rental_uris":{"android":"levelo://app?vid=94471e11-9e34-4276-a51d-322fb8e25da5","ios":"levelo://app?vid=94471e11-9e34-4276-a51d-322fb8e25da5"},"vehicle_type_id":"4","last_reported":1774707795,"current_range_meters":4800,"station_id":"ce4bhbp2rcd13ifvqerg","pricing_plan_id":"cebpf4jnsgd1na2vs0mg"},{"bike_id":"38f4e415-36c2-4383-823c-17dbe9c22d68","system_id":"levelo_inurba_marseille","lat":43.23791,"lon":5.36631,"is_reserved":false,"is_disabled":false,"rental_uris":{"android":"levelo://app?vid=38f4e415-36c2-4383-823c-17dbe9c22d68","ios":"levelo://app?vid=38f4e415-36c2-4383-823c-17dbe9c22d68"},"vehicle_type_id":"4","last_reported":1774707795,"current_range_meters":4800,"station_id":"st_d3nk18o9ro0c73en2l3g","pricing_plan_id":"cebpf4jnsgd1na2vs0mg"},{"bike_id":"b51d43d0-b538-4b30-b0d5-e5c1be881443","system_id":"levelo_inurba_marseille","lat":43.28695,"lon":5.46688,"is_reserved":false,"is_disabled":false,"rental_uris":{"android":"levelo://app?vid=b51d43d0-b538-4b30-b0d5-e5c1be881443","ios":"levelo://app?vid=b51d43d0-b538-4b30-b0d5-e5c1be881443"},"vehicle_type_id":"4","last_reported":1774707795,"current_range_meters":4800,"station_id":"st_d6tc3vkotcvc738tfjhg","pricing_plan_id":"cebpf4jnsgd1na2vs0mg"},{"bike_id":"f967aac8-bff7-4d61-9c8d-307b8d7b6ffd","system_id":"levelo_inurba_marseille","lat":43.25338,"lon":5.42178,"is_reserved":false,"is_disabled":false,"rental_uris":{"android":"levelo://app?vid=f967aac8-bff7-4d61-9c8d-307b8d7b6ffd","ios":"levelo://app?vid=f967aac8-bff7-4d61-9c8d-307b8d7b6ffd"},"vehicle_type_id":"4","last_reported":1774707795,"current_range_meters":5600,"station_id":"st_d2m65c5bi1j21697t3ng","pricing_plan_id":"cebpf4jnsgd1na2vs0mg"},{"bike_id":"069b2c37-0541-4ce9-84e5-9f146f8e24bb","system_id":"levelo_inurba_marseille","lat":43.30557,"lon":5.36528,"is_reserved":false,"is_disabled":false,"rental_uris":{"android":"levelo://app?vid=069b2c37-0541-4ce9-84e5-9f146f8e24bb","ios":"levelo://app?vid=069b2c37-0541-4ce9-84e5-9f146f8e24bb"},"vehicle_type_id":"4","last_reported":1774707795,"current_range_meters":5600,"station_id":"ce4bgs12rcd13ifvqcag","pricing_plan_id":"cebpf4jnsgd1na2vs0mg"},{"bike_id":"7d88454c-5db9-4cbe-86a0-1ebe5d14c121","system_id":"levelo_inurba_marseille","lat":43.26933,"lon":5.38909,"is_reserved":false,"is_disabled":false,"rental_uris":{"android":"levelo://app?vid=7d88454c-5db9-4cbe-86a0-1ebe5d14c121","ios":"levelo://app?vid=7d88454c-5db9-4cbe-86a0-1ebe5d14c121"},"vehicle_type_id":"4","last_reported":1774707795,"current_range_meters":5600,"station_id":"ce4bhhh2rcd13ifvqfl0","pricing_plan_id":"cebpf4jnsgd1na2vs0mg"},{"bike_id":"6d99625a-c440-497d-a451-9e37c019bc12","system_id":"levelo_inurba_marseille","lat":43.28865,"lon":5.42516,"is_reserved":false,"is_disabled":false,"rental_uris":{"android":"levelo://app?vid=6d99625a-c440-497d-a451-9e37c019bc12","ios":"levelo://app?vid=6d99625a-c440-497d-a451-9e37c019bc12"},"vehicle_type_id":"4","last_reported":1774707795,"current_range_meters":5600,"station_id":"st_d3b462108ojc7389ooeg","pricing_plan_id":"cebpf4jnsgd1na2vs0mg"},{"bike_id":"7b5f8730-67a0-4bd5-af3f-cfd22b2e4ac1","system_id":"levelo_inurba_marseille","lat":43.29787,"lon":5.39337,"is_reserved":false,"is_disabled":false,"rental_uris":{"android":"levelo://app?vid=7b5f8730-67a0-4bd5-af3f-cfd22b2e4ac1","ios":"levelo://app?vid=7b5f8730-67a0-4bd5-af3f-cfd22b2e4ac1"},"vehicle_type_id":"4","last_reported":1774707795,"current_range_meters":5600,"station_id":"chh1huq6cuj3fo74tm60","pricing_plan_id":"cebpf4jnsgd1na2vs0mg"},{"bike_id":"586be5f0-6f67-462f-8162-cc32f747f83f","system_id":"levelo_inurba_marseille","lat":43.29526,"lon":5.37504,"is_reserved":false,"is_disabled":false,"rental_uris":{"android":"levelo://app?vid=586be5f0-6f67-462f-8162-cc32f747f83f","ios":"levelo://app?vid=586be5f0-6f67-462f-8162-cc32f747f83f"},"vehicle_type_id":"4","last_reported":1774707795,"current_range_meters":5600,"station_id":"ce4bgkp2rcd13ifvqbmg","pricing_plan_id":"cebpf4jnsgd1na2vs0mg"},{"bike_id":"c9a327ca-3cad-4564-8758-287935ac9a8c","system_id":"levelo_inurba_marseille","lat":43.278376,"lon":5.392086,"is_reserved":false,"is_disabled":false,"rental_uris":{"android":"levelo://app?vid=c9a327ca-3cad-4564-8758-287935ac9a8c","ios":"levelo://app?vid=c9a327ca-3cad-4564-8758-287935ac9a8c"},"vehicle_type_id":"4","last_reported":1774707795,"current_range_meters":5600,"station_id":"ce4bhjp2rcd13ifvqga0","pricing_plan_id":"cebpf4jnsgd1na2vs0mg"},{"bike_id":"3f56aa84-52d2-46e5-846d-def3a464cd79","system_id":"levelo_inurba_marseille","lat":43.30606,"lon":5.37203,"is_reserved":false,"is_disabled":false,"rental_uris":{"android":"levelo://app?vid=3f56aa84-52d2-46e5-846d-def3a464cd79","ios":"levelo://app?vid=3f56aa84-52d2-46e5-846d-def3a464cd79"},"vehicle_type_id":"4","last_reported":1774707795,"current_range_meters":5600,"station_id":"ce4bgqh2rcd13ifvqc4g","pricing_plan_id":"cebpf4jnsgd1na2vs0mg"},{"bike_id":"87c0d2c6-316e-4b88-ae81-5b28d3a9b283","system_id":"levelo_inurba_marseille","lat":43.2379,"lon":5.36628,"is_reserved":false,"is_disabled":false,"rental_uris":{"android":"levelo://app?vid=87c0d2c6-316e-4b88-ae81-5b28d3a9b283","ios":"levelo://app?vid=87c0d2c6-316e-4b88-ae81-5b28d3a9b283"},"vehicle_type_id":"4","last_reported":1774707795,"current_range_meters":5600,"station_id":"st_d3nk18o9ro0c73en2l3g","pricing_plan_id":"cebpf4jnsgd1na2vs0mg"},{"bike_id":"55eb1319-aaa5-45ec-b489-b1a784915539","system_id":"levelo_inurba_marseille","lat":43.28424,"lon":5.37498,"is_reserved":false,"is_disabled":false,"rental_uris":{"android":"levelo://app?vid=55eb1319-aaa5-45ec-b489-b1a784915539","ios":"levelo://app?vid=55eb1319-aaa5-45ec-b489-b1a784915539"},"vehicle_type_id":"4","last_reported":1774707795,"current_range_meters":5600,"station_id":"ce4bh412rcd13ifvqds0","pricing_plan_id":"cebpf4jnsgd1na2vs0mg"},{"bike_id":"e2fd0609-65a4-4990-91d6-e89e8fbab07e","system_id":"levelo_inurba_marseille","lat":43.32104,"lon":5.36744,"is_reserved":false,"is_disabled":false,"rental_uris":{"android":"levelo://app?vid=e2fd0609-65a4-4990-91d6-e89e8fbab07e","ios":"levelo://app?vid=e2fd0609-65a4-4990-91d6-e89e8fbab07e"},"vehicle_type_id":"4","last_reported":1774707795,"current_range_meters":5600,"station_id":"ce4bhrh2rcd13ifvqhug","pricing_plan_id":"cebpf4jnsgd1na2vs0mg"},{"bike_id":"9c448445-1c60-4520-a1cb-98a7a7992b90","system_id":"levelo_inurba_marseille","lat":43.28492,"lon":5.48404,"is_reserved":false,"is_disabled":false,"rental_uris":{"android":"levelo://app?vid=9c448445-1c60-4520-a1cb-98a7a7992b90","ios":"levelo://app?vid=9c448445-1c60-4520-a1cb-98a7a7992b90"},"vehicle_type_id":"4","last_reported":1774707795,"current_range_meters":5600,"station_id":"","pricing_plan_id":"cebpf4jnsgd1na2vs0mg"},{"bike_id":"8762c819-af06-47a1-823e-103f6bbb4852","system_id":"levelo_inurba_marseille","lat":43.27348,"lon":5.39068,"is_reserved":false,"is_disabled":false,"rental_uris":{"android":"levelo://app?vid=8762c819-af06-47a1-823e-103f6bbb4852","ios":"levelo://app?vid=8762c819-af06-47a1-823e-103f6bbb4852"},"vehicle_type_id":"4","last_reported":1774707795,"current_range_meters":5600,"station_id":"ce4bhgp2rcd13ifvqfe0","pricing_plan_id":"cebpf4jnsgd1na2vs0mg"},{"bike_id":"1e02fd97-12b6-42bd-b23c-433ee22bd9de","system_id":"levelo_inurba_marseille","lat":43.29018,"lon":5.3812,"is_reserved":false,"is_disabled":true,"rental_uris":{"android":"levelo://app?vid=1e02fd97-12b6-42bd-b23c-433ee22bd9de","ios":"levelo://app?vid=1e02fd97-12b6-42bd-b23c-433ee22bd9de"},"vehicle_type_id":"4","last_reported":1774707795,"current_range_meters":6000,"station_id":"ce4bh4p2rcd13ifvqe1g","pricing_plan_id":"cebpf4jnsgd1na2vs0mg"},{"bike_id":"ff0da1a2-3d1c-43ac-899e-2eb7e114000d","system_id":"levelo_inurba_marseille","lat":43.24179,"lon":5.39727,"is_reserved":false,"is_disabled":false,"rental_uris":{"android":"levelo://app?vid=ff0da1a2-3d1c-43ac-899e-2eb7e114000d","ios":"levelo://app?vid=ff0da1a2-3d1c-43ac-899e-2eb7e114000d"},"vehicle_type_id":"4","last_reported":1774707795,"current_range_meters":6000,"station_id":"ce4bhn12rcd13ifvqgpg","pricing_plan_id":"cebpf4jnsgd1na2vs0mg"},{"bike_id":"d97252d0-3958-45e2-926c-26e2d5f2ad61","system_id":"levelo_inurba_marseille","lat":43.24778,"lon":5.3752,"is_reserved":false,"is_disabled":false,"rental_uris":{"android":"levelo://app?vid=d97252d0-3958-45e2-926c-26e2d5f2ad61","ios":"levelo://app?vid=d97252d0-3958-45e2-926c-26e2d5f2ad61"},"vehicle_type_id":"4","last_reported":1774707795,"current_range_meters":6000,"station_id":"","pricing_plan_id":"cebpf4jnsgd1na2vs0mg"},{"bike_id":"686c6a55-e457-4aa3-9c20-2dcd2420fe8f","system_id":"levelo_inurba_marseille","lat":43.24545,"lon":5.39526,"is_reserved":false,"is_disabled":false,"rental_uris":{"android":"levelo://app?vid=686c6a55-e457-4aa3-9c20-2dcd2420fe8f","ios":"levelo://app?vid=686c6a55-e457-4aa3-9c20-2dcd2420fe8f"},"vehicle_type_id":"4","last_reported":1774707795,"current_range_meters":6000,"station_id":"ce4bhlp2rcd13ifvqgjg","pricing_plan_id":"cebpf4jnsgd1na2vs0mg"},{"bike_id":"b2b299e2-955d-4e90-9a30-3c19d8f7a219","system_id":"levelo_inurba_marseille","lat":43.21743,"lon":5.34596,"is_reserved":false,"is_disabled":false,"rental_uris":{"android":"levelo://app?vid=b2b299e2-955d-4e90-9a30-3c19d8f7a219","ios":"levelo://app?vid=b2b299e2-955d-4e90-9a30-3c19d8f7a219"},"vehicle_type_id":"4","last_reported":1774707795,"current_range_meters":6000,"station_id":"st_cvj6r9ubvosntc0bgbag","pricing_plan_id":"cebpf4jnsgd1na2vs0mg"},{"bike_id":"d0ece8b9-7bdf-4fea-8770-7777c52b2203","system_id":"levelo_inurba_marseille","lat":43.27614,"lon":5.36102,"is_reserved":false,"is_disabled":false,"rental_uris":{"android":"levelo://app?vid=d0ece8b9-7bdf-4fea-8770-7777c52b2203","ios":"levelo://app?vid=d0ece8b9-7bdf-4fea-8770-7777c52b2203"},"vehicle_type_id":"4","last_reported":1774707795,"current_range_meters":6000,"station_id":"ce4bgj92rcd13ifvqbe0","pricing_plan_id":"cebpf4jnsgd1na2vs0mg"},{"bike_id":"5969c3f9-bb5c-48df-9b54-f62d28d08c6a","system_id":"levelo_inurba_marseille","lat":43.26063,"lon":5.3939,"is_reserved":false,"is_disabled":false,"rental_uris":{"android":"levelo://app?vid=5969c3f9-bb5c-48df-9b54-f62d28d08c6a","ios":"levelo://app?vid=5969c3f9-bb5c-48df-9b54-f62d28d08c6a"},"vehicle_type_id":"4","last_reported":1774707795,"current_range_meters":6000,"station_id":"ce4bhh92rcd13ifvqfj0","pricing_plan_id":"cebpf4jnsgd1na2vs0mg"},{"bike_id":"75d31b80-4e21-477c-9e82-c4a19e384887","system_id":"levelo_inurba_marseille","lat":43.30619,"lon":5.37227,"is_reserved":false,"is_disabled":true,"rental_uris":{"android":"levelo://app?vid=75d31b80-4e21-477c-9e82-c4a19e384887","ios":"levelo://app?vid=75d31b80-4e21-477c-9e82-c4a19e384887"},"vehicle_type_id":"4","last_reported":1774707795,"current_range_meters":6000,"station_id":"ce4bgqh2rcd13ifvqc4g","pricing_plan_id":"cebpf4jnsgd1na2vs0mg"},{"bike_id":"2cb0ae82-1cb6-4c7f-add6-a204988a4fab","system_id":"levelo_inurba_marseille","lat":43.27984,"lon":5.41656,"is_reserved":false,"is_disabled":false,"rental_uris":{"android":"levelo://app?vid=2cb0ae82-1cb6-4c7f-add6-a204988a4fab","ios":"levelo://app?vid=2cb0ae82-1cb6-4c7f-add6-a204988a4fab"},"vehicle_type_id":"4","last_reported":1774707795,"current_range_meters":6000,"station_id":"ce4bho12rcd13ifvqh1g","pricing_plan_id":"cebpf4jnsgd1na2vs0mg"},{"bike_id":"7f5f4a35-fda4-4a33-b7ae-332aa08e4387","system_id":"levelo_inurba_marseille","lat":43.29753,"lon":5.42805,"is_reserved":false,"is_disabled":false,"rental_uris":{"android":"levelo://app?vid=7f5f4a35-fda4-4a33-b7ae-332aa08e4387","ios":"levelo://app?vid=7f5f4a35-fda4-4a33-b7ae-332aa08e4387"},"vehicle_type_id":"4","last_reported":1774707795,"current_range_meters":6000,"station_id":"st_d3md5207bmas73dh9klg","pricing_plan_id":"cebpf4jnsgd1na2vs0mg"},{"bike_id":"a48900c5-dcb6-4e31-bcca-4eb461e90243","system_id":"levelo_inurba_marseille","lat":43.28409,"lon":5.34979,"is_reserved":false,"is_disabled":false,"rental_uris":{"android":"levelo://app?vid=a48900c5-dcb6-4e31-bcca-4eb461e90243","ios":"levelo://app?vid=a48900c5-dcb6-4e31-bcca-4eb461e90243"},"vehicle_type_id":"4","last_reported":1774707795,"current_range_meters":6000,"station_id":"ce4bhbh2rcd13ifvqepg","pricing_plan_id":"cebpf4jnsgd1na2vs0mg"},{"bike_id":"505d1de9-de5b-462c-95cc-255a59384622","system_id":"levelo_inurba_marseille","lat":43.2175,"lon":5.34599,"is_reserved":false,"is_disabled":false,"rental_uris":{"android":"levelo://app?vid=505d1de9-de5b-462c-95cc-255a59384622","ios":"levelo://app?vid=505d1de9-de5b-462c-95cc-255a59384622"},"vehicle_type_id":"4","last_reported":1774707795,"current_range_meters":6000,"station_id":"st_cvj6r9ubvosntc0bgbag","pricing_plan_id":"cebpf4jnsgd1na2vs0mg"},{"bike_id":"2f019591-3087-43f0-affb-e2eede13213e","system_id":"levelo_inurba_marseille","lat":43.24211,"lon":5.36636,"is_reserved":false,"is_disabled":false,"rental_uris":{"android":"levelo://app?vid=2f019591-3087-43f0-affb-e2eede13213e","ios":"levelo://app?vid=2f019591-3087-43f0-affb-e2eede13213e"},"vehicle_type_id":"4","last_reported":1774707795,"current_range_meters":6400,"station_id":"","pricing_plan_id":"cebpf4jnsgd1na2vs0mg"},{"bike_id":"432c9da9-6af6-4209-b0fd-131913ef4d1d","system_id":"levelo_inurba_marseille","lat":43.31526,"lon":5.38031,"is_reserved":false,"is_disabled":false,"rental_uris":{"android":"levelo://app?vid=432c9da9-6af6-4209-b0fd-131913ef4d1d","ios":"levelo://app?vid=432c9da9-6af6-4209-b0fd-131913ef4d1d"},"vehicle_type_id":"4","last_reported":1774707795,"current_range_meters":6400,"station_id":"ce4bhsp2rcd13ifvqi50","pricing_plan_id":"cebpf4jnsgd1na2vs0mg"},{"bike_id":"e7d5f1be-7476-4f24-bd62-a1e0855f1771","system_id":"levelo_inurba_marseille","lat":43.21745,"lon":5.34604,"is_reserved":false,"is_disabled":false,"rental_uris":{"android":"levelo://app?vid=e7d5f1be-7476-4f24-bd62-a1e0855f1771","ios":"levelo://app?vid=e7d5f1be-7476-4f24-bd62-a1e0855f1771"},"vehicle_type_id":"4","last_reported":1774707795,"current_range_meters":6400,"station_id":"st_cvj6r9ubvosntc0bgbag","pricing_plan_id":"cebpf4jnsgd1na2vs0mg"},{"bike_id":"f3d47af6-5b42-4057-b9f6-c501bdc25d75","system_id":"levelo_inurba_marseille","lat":43.23349,"lon":5.41263,"is_reserved":false,"is_disabled":false,"rental_uris":{"android":"levelo://app?vid=f3d47af6-5b42-4057-b9f6-c501bdc25d75","ios":"levelo://app?vid=f3d47af6-5b42-4057-b9f6-c501bdc25d75"},"vehicle_type_id":"4","last_reported":1774707795,"current_range_meters":6400,"station_id":"","pricing_plan_id":"cebpf4jnsgd1na2vs0mg"},{"bike_id":"4b4d43a7-c127-447c-9f5f-faf69fbced7e","system_id":"levelo_inurba_marseille","lat":43.3122,"lon":5.36868,"is_reserved":false,"is_disabled":false,"rental_uris":{"android":"levelo://app?vid=4b4d43a7-c127-447c-9f5f-faf69fbced7e","ios":"levelo://app?vid=4b4d43a7-c127-447c-9f5f-faf69fbced7e"},"vehicle_type_id":"4","last_reported":1774707795,"current_range_meters":6400,"station_id":"ce4bgl92rcd13ifvqbq0","pricing_plan_id":"cebpf4jnsgd1na2vs0mg"},{"bike_id":"29e1ff3b-680b-4ed6-b4f7-88566b63fdaf","system_id":"levelo_inurba_marseille","lat":43.29788,"lon":5.3934,"is_reserved":false,"is_disabled":false,"rental_uris":{"android":"levelo://app?vid=29e1ff3b-680b-4ed6-b4f7-88566b63fdaf","ios":"levelo://app?vid=29e1ff3b-680b-4ed6-b4f7-88566b63fdaf"},"vehicle_type_id":"4","last_reported":1774707795,"current_range_meters":6400,"station_id":"chh1huq6cuj3fo74tm60","pricing_plan_id":"cebpf4jnsgd1na2vs0mg"},{"bike_id":"fbd013e2-8567-4cc4-a7c6-24dd8fd5e924","system_id":"levelo_inurba_marseille","lat":43.28968,"lon":5.35597,"is_reserved":false,"is_disabled":false,"rental_uris":{"android":"levelo://app?vid=fbd013e2-8567-4cc4-a7c6-24dd8fd5e924","ios":"levelo://app?vid=fbd013e2-8567-4cc4-a7c6-24dd8fd5e924"},"vehicle_type_id":"4","last_reported":1774707795,"current_range_meters":6400,"station_id":"ce4bhb92rcd13ifvqen0","pricing_plan_id":"cebpf4jnsgd1na2vs0mg"},{"bike_id":"87d30727-3768-4d8e-bf58-70fc68c0feee","system_id":"levelo_inurba_marseille","lat":43.26028,"lon":5.37558,"is_reserved":false,"is_disabled":false,"rental_uris":{"android":"levelo://app?vid=87d30727-3768-4d8e-bf58-70fc68c0feee","ios":"levelo://app?vid=87d30727-3768-4d8e-bf58-70fc68c0feee"},"vehicle_type_id":"4","last_reported":1774707795,"current_range_meters":6400,"station_id":"ce4bhgh2rcd13ifvqfa0","pricing_plan_id":"cebpf4jnsgd1na2vs0mg"},{"bike_id":"ac1a9d6c-17a0-4e01-9607-d886e691e83d","system_id":"levelo_inurba_marseille","lat":43.2439,"lon":5.37084,"is_reserved":false,"is_disabled":false,"rental_uris":{"android":"levelo://app?vid=ac1a9d6c-17a0-4e01-9607-d886e691e83d","ios":"levelo://app?vid=ac1a9d6c-17a0-4e01-9607-d886e691e83d"},"vehicle_type_id":"4","last_reported":1774707795,"current_range_meters":6800,"station_id":"ce4bhhh2rcd13ifvqfk0","pricing_plan_id":"cebpf4jnsgd1na2vs0mg"},{"bike_id":"6d55693b-f207-45a6-8bc4-a39ad3c9ba7a","system_id":"levelo_inurba_marseille","lat":43.26796,"lon":5.39009,"is_reserved":false,"is_disabled":false,"rental_uris":{"android":"levelo://app?vid=6d55693b-f207-45a6-8bc4-a39ad3c9ba7a","ios":"levelo://app?vid=6d55693b-f207-45a6-8bc4-a39ad3c9ba7a"},"vehicle_type_id":"4","last_reported":1774707795,"current_range_meters":6800,"station_id":"","pricing_plan_id":"cebpf4jnsgd1na2vs0mg"},{"bike_id":"e7bd119b-30de-4df6-bef1-c0224e1d1fa7","system_id":"levelo_inurba_marseille","lat":43.30538,"lon":5.36543,"is_reserved":false,"is_disabled":false,"rental_uris":{"android":"levelo://app?vid=e7bd119b-30de-4df6-bef1-c0224e1d1fa7","ios":"levelo://app?vid=e7bd119b-30de-4df6-bef1-c0224e1d1fa7"},"vehicle_type_id":"4","last_reported":1774707795,"current_range_meters":6800,"station_id":"ce4bgs12rcd13ifvqcag","pricing_plan_id":"cebpf4jnsgd1na2vs0mg"},{"bike_id":"b32abf92-34d2-44a0-8754-9ed7ce20c3c3","system_id":"levelo_inurba_marseille","lat":43.29731,"lon":5.37682,"is_reserved":false,"is_disabled":false,"rental_uris":{"android":"levelo://app?vid=b32abf92-34d2-44a0-8754-9ed7ce20c3c3","ios":"levelo://app?vid=b32abf92-34d2-44a0-8754-9ed7ce20c3c3"},"vehicle_type_id":"4","last_reported":1774707795,"current_range_meters":6800,"station_id":"ce4bgkh2rcd13ifvqbl0","pricing_plan_id":"cebpf4jnsgd1na2vs0mg"},{"bike_id":"3cf37742-558c-4f25-9c21-256b80b90180","system_id":"levelo_inurba_marseille","lat":43.2923,"lon":5.36059,"is_reserved":false,"is_disabled":false,"rental_uris":{"android":"levelo://app?vid=3cf37742-558c-4f25-9c21-256b80b90180","ios":"levelo://app?vid=3cf37742-558c-4f25-9c21-256b80b90180"},"vehicle_type_id":"4","last_reported":1774707795,"current_range_meters":6800,"station_id":"ce4bhbh2rcd13ifvqeqg","pricing_plan_id":"cebpf4jnsgd1na2vs0mg"},{"bike_id":"d7baa618-cad7-4b16-8849-97a1896c2ce1","system_id":"levelo_inurba_marseille","lat":43.29615,"lon":5.381,"is_reserved":false,"is_disabled":false,"rental_uris":{"android":"levelo://app?vid=d7baa618-cad7-4b16-8849-97a1896c2ce1","ios":"levelo://app?vid=d7baa618-cad7-4b16-8849-97a1896c2ce1"},"vehicle_type_id":"4","last_reported":1774707795,"current_range_meters":6800,"station_id":"ce4bgl12rcd13ifvqbo0","pricing_plan_id":"cebpf4jnsgd1na2vs0mg"},{"bike_id":"85b77067-d935-4be1-8c40-f94b48ca70f0","system_id":"levelo_inurba_marseille","lat":43.27074,"lon":5.40276,"is_reserved":false,"is_disabled":false,"rental_uris":{"android":"levelo://app?vid=85b77067-d935-4be1-8c40-f94b48ca70f0","ios":"levelo://app?vid=85b77067-d935-4be1-8c40-f94b48ca70f0"},"vehicle_type_id":"4","last_reported":1774707795,"current_range_meters":6800,"station_id":"ce4bhk92rcd13ifvqgc0","pricing_plan_id":"cebpf4jnsgd1na2vs0mg"},{"bike_id":"792b45a0-144a-4a67-96fb-db697c195f8b","system_id":"levelo_inurba_marseille","lat":43.30417,"lon":5.3889,"is_reserved":false,"is_disabled":false,"rental_uris":{"android":"levelo://app?vid=792b45a0-144a-4a67-96fb-db697c195f8b","ios":"levelo://app?vid=792b45a0-144a-4a67-96fb-db697c195f8b"},"vehicle_type_id":"4","last_reported":1774707795,"current_range_meters":6800,"station_id":"ce4bgk12rcd13ifvqbi0","pricing_plan_id":"cebpf4jnsgd1na2vs0mg"},{"bike_id":"6bfb0414-b1a9-4391-b470-8aabea0b3604","system_id":"levelo_inurba_marseille","lat":43.27608,"lon":5.36129,"is_reserved":false,"is_disabled":false,"rental_uris":{"android":"levelo://app?vid=6bfb0414-b1a9-4391-b470-8aabea0b3604","ios":"levelo://app?vid=6bfb0414-b1a9-4391-b470-8aabea0b3604"},"vehicle_type_id":"4","last_reported":1774707795,"current_range_meters":6800,"station_id":"ce4bgj92rcd13ifvqbe0","pricing_plan_id":"cebpf4jnsgd1na2vs0mg"},{"bike_id":"10da809c-12be-45da-8e9e-104e5b96a48d","system_id":"levelo_inurba_marseille","lat":43.2379,"lon":5.36652,"is_reserved":false,"is_disabled":false,"rental_uris":{"android":"levelo://app?vid=10da809c-12be-45da-8e9e-104e5b96a48d","ios":"levelo://app?vid=10da809c-12be-45da-8e9e-104e5b96a48d"},"vehicle_type_id":"4","last_reported":1774707795,"current_range_meters":6800,"station_id":"st_d3nk18o9ro0c73en2l3g","pricing_plan_id":"cebpf4jnsgd1na2vs0mg"},{"bike_id":"b959e999-f8ea-490b-b1ee-07222b378da5","system_id":"levelo_inurba_marseille","lat":43.29006,"lon":5.35613,"is_reserved":false,"is_disabled":false,"rental_uris":{"android":"levelo://app?vid=b959e999-f8ea-490b-b1ee-07222b378da5","ios":"levelo://app?vid=b959e999-f8ea-490b-b1ee-07222b378da5"},"vehicle_type_id":"4","last_reported":1774707795,"current_range_meters":6800,"station_id":"ce4bhb92rcd13ifvqen0","pricing_plan_id":"cebpf4jnsgd1na2vs0mg"},{"bike_id":"cb334da3-d0f0-4e4f-816c-eb835a9ba75b","system_id":"levelo_inurba_marseille","lat":43.28267,"lon":5.35057,"is_reserved":false,"is_disabled":false,"rental_uris":{"android":"levelo://app?vid=cb334da3-d0f0-4e4f-816c-eb835a9ba75b","ios":"levelo://app?vid=cb334da3-d0f0-4e4f-816c-eb835a9ba75b"},"vehicle_type_id":"4","last_reported":1774707795,"current_range_meters":7200,"station_id":"ce4bhbp2rcd13ifvqerg","pricing_plan_id":"cebpf4jnsgd1na2vs0mg"},{"bike_id":"ccae95a5-965a-472f-8138-32ecadf6ef35","system_id":"levelo_inurba_marseille","lat":43.25337,"lon":5.42175,"is_reserved":false,"is_disabled":false,"rental_uris":{"android":"levelo://app?vid=ccae95a5-965a-472f-8138-32ecadf6ef35","ios":"levelo://app?vid=ccae95a5-965a-472f-8138-32ecadf6ef35"},"vehicle_type_id":"4","last_reported":1774707795,"current_range_meters":7200,"station_id":"st_d2m65c5bi1j21697t3ng","pricing_plan_id":"cebpf4jnsgd1na2vs0mg"},{"bike_id":"b74978cb-5b51-4041-8c1c-97c8f4ca71d2","system_id":"levelo_inurba_marseille","lat":43.3118,"lon":5.4063,"is_reserved":false,"is_disabled":false,"rental_uris":{"android":"levelo://app?vid=b74978cb-5b51-4041-8c1c-97c8f4ca71d2","ios":"levelo://app?vid=b74978cb-5b51-4041-8c1c-97c8f4ca71d2"},"vehicle_type_id":"4","last_reported":1774707795,"current_range_meters":7200,"station_id":"","pricing_plan_id":"cebpf4jnsgd1na2vs0mg"},{"bike_id":"80ec21fd-2251-4f83-a0bb-d091c6f6861d","system_id":"levelo_inurba_marseille","lat":43.3061,"lon":5.39355,"is_reserved":false,"is_disabled":false,"rental_uris":{"android":"levelo://app?vid=80ec21fd-2251-4f83-a0bb-d091c6f6861d","ios":"levelo://app?vid=80ec21fd-2251-4f83-a0bb-d091c6f6861d"},"vehicle_type_id":"4","last_reported":1774707795,"current_range_meters":7200,"station_id":"ce4bh0p2rcd13ifvqd80","pricing_plan_id":"cebpf4jnsgd1na2vs0mg"},{"bike_id":"8ea29a20-29e8-418d-852a-8e5e05232890","system_id":"levelo_inurba_marseille","lat":43.32495,"lon":5.36604,"is_reserved":false,"is_disabled":false,"rental_uris":{"android":"levelo://app?vid=8ea29a20-29e8-418d-852a-8e5e05232890","ios":"levelo://app?vid=8ea29a20-29e8-418d-852a-8e5e05232890"},"vehicle_type_id":"4","last_reported":1774707795,"current_range_meters":7200,"station_id":"ce4bhs12rcd13ifvqhvg","pricing_plan_id":"cebpf4jnsgd1na2vs0mg"},{"bike_id":"79698193-66ee-4f6b-9e26-265a73ac825b","system_id":"levelo_inurba_marseille","lat":43.21749,"lon":5.346,"is_reserved":false,"is_disabled":false,"rental_uris":{"android":"levelo://app?vid=79698193-66ee-4f6b-9e26-265a73ac825b","ios":"levelo://app?vid=79698193-66ee-4f6b-9e26-265a73ac825b"},"vehicle_type_id":"4","last_reported":1774707795,"current_range_meters":7200,"station_id":"","pricing_plan_id":"cebpf4jnsgd1na2vs0mg"},{"bike_id":"8a9f2693-4e00-46c2-889b-ecd96fb67e49","system_id":"levelo_inurba_marseille","lat":43.29265,"lon":5.36849,"is_reserved":false,"is_disabled":false,"rental_uris":{"android":"levelo://app?vid=8a9f2693-4e00-46c2-889b-ecd96fb67e49","ios":"levelo://app?vid=8a9f2693-4e00-46c2-889b-ecd96fb67e49"},"vehicle_type_id":"4","last_reported":1774707795,"current_range_meters":7200,"station_id":"ce4bhbp2rcd13ifvqesg","pricing_plan_id":"cebpf4jnsgd1na2vs0mg"},{"bike_id":"2d5262be-582c-4d87-a7a2-b4c3f4ed4d38","system_id":"levelo_inurba_marseille","lat":43.22562,"lon":5.41631,"is_reserved":false,"is_disabled":false,"rental_uris":{"android":"levelo://app?vid=2d5262be-582c-4d87-a7a2-b4c3f4ed4d38","ios":"levelo://app?vid=2d5262be-582c-4d87-a7a2-b4c3f4ed4d38"},"vehicle_type_id":"4","last_reported":1774707795,"current_range_meters":7200,"station_id":"st_d2o4gvlbi1j2169b742g","pricing_plan_id":"cebpf4jnsgd1na2vs0mg"},{"bike_id":"98a09d62-237f-4c22-9f94-0decc41f13d5","system_id":"levelo_inurba_marseille","lat":43.26227,"lon":5.37422,"is_reserved":false,"is_disabled":false,"rental_uris":{"android":"levelo://app?vid=98a09d62-237f-4c22-9f94-0decc41f13d5","ios":"levelo://app?vid=98a09d62-237f-4c22-9f94-0decc41f13d5"},"vehicle_type_id":"4","last_reported":1774707795,"current_range_meters":7200,"station_id":"","pricing_plan_id":"cebpf4jnsgd1na2vs0mg"},{"bike_id":"277cf752-b9ed-41aa-a7a8-c21d885b59ac","system_id":"levelo_inurba_marseille","lat":43.24156,"lon":5.36398,"is_reserved":false,"is_disabled":false,"rental_uris":{"android":"levelo://app?vid=277cf752-b9ed-41aa-a7a8-c21d885b59ac","ios":"levelo://app?vid=277cf752-b9ed-41aa-a7a8-c21d885b59ac"},"vehicle_type_id":"4","last_reported":1774707795,"current_range_meters":7200,"station_id":"cpo36qri1sfpv3e86is0","pricing_plan_id":"cebpf4jnsgd1na2vs0mg"},{"bike_id":"3e80a70b-d902-4f38-bb78-001cfd129e63","system_id":"levelo_inurba_marseille","lat":43.28419,"lon":5.34999,"is_reserved":false,"is_disabled":false,"rental_uris":{"android":"levelo://app?vid=3e80a70b-d902-4f38-bb78-001cfd129e63","ios":"levelo://app?vid=3e80a70b-d902-4f38-bb78-001cfd129e63"},"vehicle_type_id":"4","last_reported":1774707795,"current_range_meters":7200,"station_id":"ce4bhbh2rcd13ifvqepg","pricing_plan_id":"cebpf4jnsgd1na2vs0mg"},{"bike_id":"c7af05b3-4ddb-499c-ae8b-c6fd8683ba94","system_id":"levelo_inurba_marseille","lat":43.29564,"lon":5.38338,"is_reserved":false,"is_disabled":false,"rental_uris":{"android":"levelo://app?vid=c7af05b3-4ddb-499c-ae8b-c6fd8683ba94","ios":"levelo://app?vid=c7af05b3-4ddb-499c-ae8b-c6fd8683ba94"},"vehicle_type_id":"4","last_reported":1774707795,"current_range_meters":7200,"station_id":"","pricing_plan_id":"cebpf4jnsgd1na2vs0mg"},{"bike_id":"17ddd360-a732-4e9a-b5ff-b4528e8a1f0b","system_id":"levelo_inurba_marseille","lat":43.299103,"lon":5.381442,"is_reserved":false,"is_disabled":false,"rental_uris":{"android":"levelo://app?vid=17ddd360-a732-4e9a-b5ff-b4528e8a1f0b","ios":"levelo://app?vid=17ddd360-a732-4e9a-b5ff-b4528e8a1f0b"},"vehicle_type_id":"4","last_reported":1774707795,"current_range_meters":7200,"station_id":"ce4bgj12rcd13ifvqbc0","pricing_plan_id":"cebpf4jnsgd1na2vs0mg"},{"bike_id":"ccd64e49-79f3-4219-a96e-d5e4330d2c2d","system_id":"levelo_inurba_marseille","lat":43.24386,"lon":5.37064,"is_reserved":false,"is_disabled":false,"rental_uris":{"android":"levelo://app?vid=ccd64e49-79f3-4219-a96e-d5e4330d2c2d","ios":"levelo://app?vid=ccd64e49-79f3-4219-a96e-d5e4330d2c2d"},"vehicle_type_id":"4","last_reported":1774707795,"current_range_meters":7200,"station_id":"ce4bhhh2rcd13ifvqfk0","pricing_plan_id":"cebpf4jnsgd1na2vs0mg"},{"bike_id":"2bf237c2-c4a5-409d-aaf2-b153a3e1ff10","system_id":"levelo_inurba_marseille","lat":43.21743,"lon":5.34604,"is_reserved":false,"is_disabled":false,"rental_uris":{"android":"levelo://app?vid=2bf237c2-c4a5-409d-aaf2-b153a3e1ff10","ios":"levelo://app?vid=2bf237c2-c4a5-409d-aaf2-b153a3e1ff10"},"vehicle_type_id":"4","last_reported":1774707795,"current_range_meters":8000,"station_id":"st_cvj6r9ubvosntc0bgbag","pricing_plan_id":"cebpf4jnsgd1na2vs0mg"},{"bike_id":"290afd09-0584-4963-a797-1ed96debbdfe","system_id":"levelo_inurba_marseille","lat":43.21188,"lon":5.3507,"is_reserved":false,"is_disabled":false,"rental_uris":{"android":"levelo://app?vid=290afd09-0584-4963-a797-1ed96debbdfe","ios":"levelo://app?vid=290afd09-0584-4963-a797-1ed96debbdfe"},"vehicle_type_id":"4","last_reported":1774707795,"current_range_meters":8000,"station_id":"st_cvj6sg6p6f1abm77japg","pricing_plan_id":"cebpf4jnsgd1na2vs0mg"},{"bike_id":"a0e1fe6f-1b0c-4b69-b699-3f3295a2fce0","system_id":"levelo_inurba_marseille","lat":43.28417,"lon":5.34994,"is_reserved":false,"is_disabled":false,"rental_uris":{"android":"levelo://app?vid=a0e1fe6f-1b0c-4b69-b699-3f3295a2fce0","ios":"levelo://app?vid=a0e1fe6f-1b0c-4b69-b699-3f3295a2fce0"},"vehicle_type_id":"4","last_reported":1774707795,"current_range_meters":8000,"station_id":"ce4bhbh2rcd13ifvqepg","pricing_plan_id":"cebpf4jnsgd1na2vs0mg"},{"bike_id":"899c9f36-9b83-4ce9-bd7d-0f95dd541b6a","system_id":"levelo_inurba_marseille","lat":43.32366,"lon":5.36757,"is_reserved":false,"is_disabled":false,"rental_uris":{"android":"levelo://app?vid=899c9f36-9b83-4ce9-bd7d-0f95dd541b6a","ios":"levelo://app?vid=899c9f36-9b83-4ce9-bd7d-0f95dd541b6a"},"vehicle_type_id":"4","last_reported":1774707795,"current_range_meters":8000,"station_id":"ce4bhsh2rcd13ifvqi2g","pricing_plan_id":"cebpf4jnsgd1na2vs0mg"},{"bike_id":"cac65e9a-4f7e-4ab5-8945-0eea67327b18","system_id":"levelo_inurba_marseille","lat":43.30459,"lon":5.36531,"is_reserved":false,"is_disabled":false,"rental_uris":{"android":"levelo://app?vid=cac65e9a-4f7e-4ab5-8945-0eea67327b18","ios":"levelo://app?vid=cac65e9a-4f7e-4ab5-8945-0eea67327b18"},"vehicle_type_id":"4","last_reported":1774707795,"current_range_meters":8000,"station_id":"","pricing_plan_id":"cebpf4jnsgd1na2vs0mg"},{"bike_id":"c420f719-a4cc-4702-b6da-68e6d0f37e6c","system_id":"levelo_inurba_marseille","lat":43.28542,"lon":5.44076,"is_reserved":false,"is_disabled":false,"rental_uris":{"android":"levelo://app?vid=c420f719-a4cc-4702-b6da-68e6d0f37e6c","ios":"levelo://app?vid=c420f719-a4cc-4702-b6da-68e6d0f37e6c"},"vehicle_type_id":"4","last_reported":1774707795,"current_range_meters":8000,"station_id":"st_d3j3df2ikq2c7380ej80","pricing_plan_id":"cebpf4jnsgd1na2vs0mg"},{"bike_id":"f057f137-0cac-4b50-91e6-948f8581886d","system_id":"levelo_inurba_marseille","lat":43.24653,"lon":5.38157,"is_reserved":false,"is_disabled":false,"rental_uris":{"android":"levelo://app?vid=f057f137-0cac-4b50-91e6-948f8581886d","ios":"levelo://app?vid=f057f137-0cac-4b50-91e6-948f8581886d"},"vehicle_type_id":"4","last_reported":1774707795,"current_range_meters":8000,"station_id":"ce4bhih2rcd13ifvqfr0","pricing_plan_id":"cebpf4jnsgd1na2vs0mg"},{"bike_id":"44e6ef2e-f582-4dae-8b58-95600b73b872","system_id":"levelo_inurba_marseille","lat":43.33544,"lon":5.3748,"is_reserved":false,"is_disabled":false,"rental_uris":{"android":"levelo://app?vid=44e6ef2e-f582-4dae-8b58-95600b73b872","ios":"levelo://app?vid=44e6ef2e-f582-4dae-8b58-95600b73b872"},"vehicle_type_id":"4","last_reported":1774707795,"current_range_meters":8000,"station_id":"st_d46tts09ee8s73dlu43g","pricing_plan_id":"cebpf4jnsgd1na2vs0mg"},{"bike_id":"e8df83cf-6381-4e7e-9379-074a8e881801","system_id":"levelo_inurba_marseille","lat":43.31918,"lon":5.36798,"is_reserved":false,"is_disabled":false,"rental_uris":{"android":"levelo://app?vid=e8df83cf-6381-4e7e-9379-074a8e881801","ios":"levelo://app?vid=e8df83cf-6381-4e7e-9379-074a8e881801"},"vehicle_type_id":"4","last_reported":1774707795,"current_range_meters":8000,"station_id":"st_d6o2h0d0559c73evc1b0","pricing_plan_id":"cebpf4jnsgd1na2vs0mg"},{"bike_id":"3558ea35-7992-4ccb-8605-1b3d24e2540d","system_id":"levelo_inurba_marseille","lat":43.22918,"lon":5.35372,"is_reserved":false,"is_disabled":false,"rental_uris":{"android":"levelo://app?vid=3558ea35-7992-4ccb-8605-1b3d24e2540d","ios":"levelo://app?vid=3558ea35-7992-4ccb-8605-1b3d24e2540d"},"vehicle_type_id":"4","last_reported":1774707795,"current_range_meters":8000,"station_id":"cpo3532slgdg3j2ikp40","pricing_plan_id":"cebpf4jnsgd1na2vs0mg"},{"bike_id":"2e9e98fd-4713-4ee9-87be-8d47d65eb147","system_id":"levelo_inurba_marseille","lat":43.24666,"lon":5.38149,"is_reserved":false,"is_disabled":false,"rental_uris":{"android":"levelo://app?vid=2e9e98fd-4713-4ee9-87be-8d47d65eb147","ios":"levelo://app?vid=2e9e98fd-4713-4ee9-87be-8d47d65eb147"},"vehicle_type_id":"4","last_reported":1774707795,"current_range_meters":8000,"station_id":"ce4bhih2rcd13ifvqfr0","pricing_plan_id":"cebpf4jnsgd1na2vs0mg"},{"bike_id":"73ee52b9-0362-4c63-80af-d4adea6bb51f","system_id":"levelo_inurba_marseille","lat":43.23893,"lon":5.37445,"is_reserved":false,"is_disabled":false,"rental_uris":{"android":"levelo://app?vid=73ee52b9-0362-4c63-80af-d4adea6bb51f","ios":"levelo://app?vid=73ee52b9-0362-4c63-80af-d4adea6bb51f"},"vehicle_type_id":"4","last_reported":1774707795,"current_range_meters":8000,"station_id":"st_d6sm7csbq4hs73f8fpjg","pricing_plan_id":"cebpf4jnsgd1na2vs0mg"},{"bike_id":"d8680dad-3264-4aac-a885-2f0e40538a32","system_id":"levelo_inurba_marseille","lat":43.28942,"lon":5.36617,"is_reserved":false,"is_disabled":false,"rental_uris":{"android":"levelo://app?vid=d8680dad-3264-4aac-a885-2f0e40538a32","ios":"levelo://app?vid=d8680dad-3264-4aac-a885-2f0e40538a32"},"vehicle_type_id":"4","last_reported":1774707795,"current_range_meters":8400,"station_id":"ce4bhap2rcd13ifvqek0","pricing_plan_id":"cebpf4jnsgd1na2vs0mg"},{"bike_id":"c82691aa-ba67-49e2-8ab8-9f87a1546b96","system_id":"levelo_inurba_marseille","lat":43.2319,"lon":5.35557,"is_reserved":false,"is_disabled":false,"rental_uris":{"android":"levelo://app?vid=c82691aa-ba67-49e2-8ab8-9f87a1546b96","ios":"levelo://app?vid=c82691aa-ba67-49e2-8ab8-9f87a1546b96"},"vehicle_type_id":"4","last_reported":1774707795,"current_range_meters":8400,"station_id":"ce4bhu92rcd13ifvqi70","pricing_plan_id":"cebpf4jnsgd1na2vs0mg"},{"bike_id":"2457fc1b-679d-4a71-90e9-ad408ab6ed9d","system_id":"levelo_inurba_marseille","lat":43.33483,"lon":5.3797,"is_reserved":false,"is_disabled":false,"rental_uris":{"android":"levelo://app?vid=2457fc1b-679d-4a71-90e9-ad408ab6ed9d","ios":"levelo://app?vid=2457fc1b-679d-4a71-90e9-ad408ab6ed9d"},"vehicle_type_id":"4","last_reported":1774707795,"current_range_meters":8400,"station_id":"","pricing_plan_id":"cebpf4jnsgd1na2vs0mg"},{"bike_id":"6627d87e-d8cc-4315-9870-c98a872f12b5","system_id":"levelo_inurba_marseille","lat":43.24676,"lon":5.38162,"is_reserved":false,"is_disabled":false,"rental_uris":{"android":"levelo://app?vid=6627d87e-d8cc-4315-9870-c98a872f12b5","ios":"levelo://app?vid=6627d87e-d8cc-4315-9870-c98a872f12b5"},"vehicle_type_id":"4","last_reported":1774707795,"current_range_meters":8400,"station_id":"ce4bhih2rcd13ifvqfr0","pricing_plan_id":"cebpf4jnsgd1na2vs0mg"},{"bike_id":"fee1fa78-99e1-418b-a173-a71cf30704c4","system_id":"levelo_inurba_marseille","lat":43.32358,"lon":5.38874,"is_reserved":false,"is_disabled":false,"rental_uris":{"android":"levelo://app?vid=fee1fa78-99e1-418b-a173-a71cf30704c4","ios":"levelo://app?vid=fee1fa78-99e1-418b-a173-a71cf30704c4"},"vehicle_type_id":"4","last_reported":1774707795,"current_range_meters":8400,"station_id":"ce4bhqp2rcd13ifvqhog","pricing_plan_id":"cebpf4jnsgd1na2vs0mg"},{"bike_id":"5afc8403-6d30-4cf0-9969-def159c6d031","system_id":"levelo_inurba_marseille","lat":43.24389,"lon":5.37054,"is_reserved":false,"is_disabled":false,"rental_uris":{"android":"levelo://app?vid=5afc8403-6d30-4cf0-9969-def159c6d031","ios":"levelo://app?vid=5afc8403-6d30-4cf0-9969-def159c6d031"},"vehicle_type_id":"4","last_reported":1774707795,"current_range_meters":8400,"station_id":"ce4bhhh2rcd13ifvqfk0","pricing_plan_id":"cebpf4jnsgd1na2vs0mg"},{"bike_id":"7694298c-2292-44dc-9958-896e83a49e9b","system_id":"levelo_inurba_marseille","lat":43.24158,"lon":5.39049,"is_reserved":false,"is_disabled":false,"rental_uris":{"android":"levelo://app?vid=7694298c-2292-44dc-9958-896e83a49e9b","ios":"levelo://app?vid=7694298c-2292-44dc-9958-896e83a49e9b"},"vehicle_type_id":"4","last_reported":1774707795,"current_range_meters":8400,"station_id":"","pricing_plan_id":"cebpf4jnsgd1na2vs0mg"},{"bike_id":"e8bd8254-2909-4d6d-a6a9-c5d493a3c617","system_id":"levelo_inurba_marseille","lat":43.26946,"lon":5.4024,"is_reserved":false,"is_disabled":false,"rental_uris":{"android":"levelo://app?vid=e8bd8254-2909-4d6d-a6a9-c5d493a3c617","ios":"levelo://app?vid=e8bd8254-2909-4d6d-a6a9-c5d493a3c617"},"vehicle_type_id":"4","last_reported":1774707795,"current_range_meters":8400,"station_id":"cjm6bp8fraef2m0cb0m0","pricing_plan_id":"cebpf4jnsgd1na2vs0mg"},{"bike_id":"ffcc8c3f-36dc-4229-8354-ca58a927c0fa","system_id":"levelo_inurba_marseille","lat":43.25489,"lon":5.37653,"is_reserved":false,"is_disabled":false,"rental_uris":{"android":"levelo://app?vid=ffcc8c3f-36dc-4229-8354-ca58a927c0fa","ios":"levelo://app?vid=ffcc8c3f-36dc-4229-8354-ca58a927c0fa"},"vehicle_type_id":"4","last_reported":1774707795,"current_range_meters":8400,"station_id":"ce4bhh12rcd13ifvqff0","pricing_plan_id":"cebpf4jnsgd1na2vs0mg"},{"bike_id":"03a170ac-7a53-42cc-85b9-d2a74a123936","system_id":"levelo_inurba_marseille","lat":43.2937,"lon":5.37857,"is_reserved":false,"is_disabled":false,"rental_uris":{"android":"levelo://app?vid=03a170ac-7a53-42cc-85b9-d2a74a123936","ios":"levelo://app?vid=03a170ac-7a53-42cc-85b9-d2a74a123936"},"vehicle_type_id":"4","last_reported":1774707795,"current_range_meters":8400,"station_id":"ce4bgjh2rcd13ifvqbf0","pricing_plan_id":"cebpf4jnsgd1na2vs0mg"},{"bike_id":"ef3d2908-5f04-46b3-8950-985b7bd33bee","system_id":"levelo_inurba_marseille","lat":43.28626,"lon":5.35102,"is_reserved":false,"is_disabled":false,"rental_uris":{"android":"levelo://app?vid=ef3d2908-5f04-46b3-8950-985b7bd33bee","ios":"levelo://app?vid=ef3d2908-5f04-46b3-8950-985b7bd33bee"},"vehicle_type_id":"4","last_reported":1774707795,"current_range_meters":8400,"station_id":"ce4bhch2rcd13ifvqeug","pricing_plan_id":"cebpf4jnsgd1na2vs0mg"},{"bike_id":"39a70ee3-dacf-4b93-8a01-10dd4ea08b6a","system_id":"levelo_inurba_marseille","lat":43.309955,"lon":5.388556,"is_reserved":false,"is_disabled":false,"rental_uris":{"android":"levelo://app?vid=39a70ee3-dacf-4b93-8a01-10dd4ea08b6a","ios":"levelo://app?vid=39a70ee3-dacf-4b93-8a01-10dd4ea08b6a"},"vehicle_type_id":"4","last_reported":1774707795,"current_range_meters":8400,"station_id":"ce4bgup2rcd13ifvqco0","pricing_plan_id":"cebpf4jnsgd1na2vs0mg"},{"bike_id":"3cdf6df7-d55a-4a6a-bc92-f8d13d563cb5","system_id":"levelo_inurba_marseille","lat":43.21749,"lon":5.34598,"is_reserved":false,"is_disabled":false,"rental_uris":{"android":"levelo://app?vid=3cdf6df7-d55a-4a6a-bc92-f8d13d563cb5","ios":"levelo://app?vid=3cdf6df7-d55a-4a6a-bc92-f8d13d563cb5"},"vehicle_type_id":"4","last_reported":1774707795,"current_range_meters":8400,"station_id":"st_cvj6r9ubvosntc0bgbag","pricing_plan_id":"cebpf4jnsgd1na2vs0mg"},{"bike_id":"bbdbddbc-a4ac-42e8-9ac9-73a6eeb7f245","system_id":"levelo_inurba_marseille","lat":43.24801,"lon":5.37458,"is_reserved":false,"is_disabled":false,"rental_uris":{"android":"levelo://app?vid=bbdbddbc-a4ac-42e8-9ac9-73a6eeb7f245","ios":"levelo://app?vid=bbdbddbc-a4ac-42e8-9ac9-73a6eeb7f245"},"vehicle_type_id":"4","last_reported":1774707795,"current_range_meters":8400,"station_id":"ce4bhgh2rcd13ifvqfb0","pricing_plan_id":"cebpf4jnsgd1na2vs0mg"},{"bike_id":"67c1c6e6-4211-4250-be02-a52880e1c23a","system_id":"levelo_inurba_marseille","lat":43.26515,"lon":5.40726,"is_reserved":false,"is_disabled":false,"rental_uris":{"android":"levelo://app?vid=67c1c6e6-4211-4250-be02-a52880e1c23a","ios":"levelo://app?vid=67c1c6e6-4211-4250-be02-a52880e1c23a"},"vehicle_type_id":"4","last_reported":1774707795,"current_range_meters":8400,"station_id":"","pricing_plan_id":"cebpf4jnsgd1na2vs0mg"},{"bike_id":"4f5cf7ef-ddb5-4d25-9c0b-bec33f5f4447","system_id":"levelo_inurba_marseille","lat":43.30973,"lon":5.36854,"is_reserved":false,"is_disabled":false,"rental_uris":{"android":"levelo://app?vid=4f5cf7ef-ddb5-4d25-9c0b-bec33f5f4447","ios":"levelo://app?vid=4f5cf7ef-ddb5-4d25-9c0b-bec33f5f4447"},"vehicle_type_id":"4","last_reported":1774707795,"current_range_meters":8400,"station_id":"","pricing_plan_id":"cebpf4jnsgd1na2vs0mg"},{"bike_id":"1b2fd84d-c265-4aef-97e8-7554fcb11726","system_id":"levelo_inurba_marseille","lat":43.291878,"lon":5.385096,"is_reserved":false,"is_disabled":false,"rental_uris":{"android":"levelo://app?vid=1b2fd84d-c265-4aef-97e8-7554fcb11726","ios":"levelo://app?vid=1b2fd84d-c265-4aef-97e8-7554fcb11726"},"vehicle_type_id":"4","last_reported":1774707795,"current_range_meters":8400,"station_id":"ce4bh4p2rcd13ifvqe0g","pricing_plan_id":"cebpf4jnsgd1na2vs0mg"},{"bike_id":"a2bdb492-cf10-4cc3-9ff4-84ac2bc9e708","system_id":"levelo_inurba_marseille","lat":43.29055,"lon":5.35928,"is_reserved":false,"is_disabled":false,"rental_uris":{"android":"levelo://app?vid=a2bdb492-cf10-4cc3-9ff4-84ac2bc9e708","ios":"levelo://app?vid=a2bdb492-cf10-4cc3-9ff4-84ac2bc9e708"},"vehicle_type_id":"4","last_reported":1774707795,"current_range_meters":8400,"station_id":"ce4bha92rcd13ifvqeg0","pricing_plan_id":"cebpf4jnsgd1na2vs0mg"},{"bike_id":"38a4770b-aa61-4e1e-82ea-9b5ee50912c9","system_id":"levelo_inurba_marseille","lat":43.26179,"lon":5.37428,"is_reserved":false,"is_disabled":false,"rental_uris":{"android":"levelo://app?vid=38a4770b-aa61-4e1e-82ea-9b5ee50912c9","ios":"levelo://app?vid=38a4770b-aa61-4e1e-82ea-9b5ee50912c9"},"vehicle_type_id":"4","last_reported":1774707795,"current_range_meters":8800,"station_id":"ce4bhgp2rcd13ifvqfc0","pricing_plan_id":"cebpf4jnsgd1na2vs0mg"},{"bike_id":"36141db5-b3a5-4009-8266-2dd4f38320ae","system_id":"levelo_inurba_marseille","lat":43.23808,"lon":5.36636,"is_reserved":false,"is_disabled":false,"rental_uris":{"android":"levelo://app?vid=36141db5-b3a5-4009-8266-2dd4f38320ae","ios":"levelo://app?vid=36141db5-b3a5-4009-8266-2dd4f38320ae"},"vehicle_type_id":"4","last_reported":1774707795,"current_range_meters":8800,"station_id":"st_d3nk18o9ro0c73en2l3g","pricing_plan_id":"cebpf4jnsgd1na2vs0mg"},{"bike_id":"b1e731c5-a019-40fb-b94c-b458e0eddb64","system_id":"levelo_inurba_marseille","lat":43.23796,"lon":5.38631,"is_reserved":false,"is_disabled":false,"rental_uris":{"android":"levelo://app?vid=b1e731c5-a019-40fb-b94c-b458e0eddb64","ios":"levelo://app?vid=b1e731c5-a019-40fb-b94c-b458e0eddb64"},"vehicle_type_id":"4","last_reported":1774707795,"current_range_meters":8800,"station_id":"","pricing_plan_id":"cebpf4jnsgd1na2vs0mg"},{"bike_id":"7693b35e-3533-4c45-aaee-353957373915","system_id":"levelo_inurba_marseille","lat":43.30909,"lon":5.36819,"is_reserved":false,"is_disabled":false,"rental_uris":{"android":"levelo://app?vid=7693b35e-3533-4c45-aaee-353957373915","ios":"levelo://app?vid=7693b35e-3533-4c45-aaee-353957373915"},"vehicle_type_id":"4","last_reported":1774707795,"current_range_meters":8800,"station_id":"ce4bgn92rcd13ifvqbvg","pricing_plan_id":"cebpf4jnsgd1na2vs0mg"},{"bike_id":"44b061ea-ac90-4ccb-8d43-7cab8ff1f0e0","system_id":"levelo_inurba_marseille","lat":43.2608,"lon":5.3937,"is_reserved":false,"is_disabled":false,"rental_uris":{"android":"levelo://app?vid=44b061ea-ac90-4ccb-8d43-7cab8ff1f0e0","ios":"levelo://app?vid=44b061ea-ac90-4ccb-8d43-7cab8ff1f0e0"},"vehicle_type_id":"4","last_reported":1774707795,"current_range_meters":8800,"station_id":"ce4bhh92rcd13ifvqfj0","pricing_plan_id":"cebpf4jnsgd1na2vs0mg"},{"bike_id":"92cb4986-12bc-44d4-ad49-496427bf2b45","system_id":"levelo_inurba_marseille","lat":43.28543,"lon":5.4409,"is_reserved":false,"is_disabled":false,"rental_uris":{"android":"levelo://app?vid=92cb4986-12bc-44d4-ad49-496427bf2b45","ios":"levelo://app?vid=92cb4986-12bc-44d4-ad49-496427bf2b45"},"vehicle_type_id":"4","last_reported":1774707795,"current_range_meters":8800,"station_id":"st_d3j3df2ikq2c7380ej80","pricing_plan_id":"cebpf4jnsgd1na2vs0mg"},{"bike_id":"1fce7f1d-4e59-45d5-ad05-440b881821b7","system_id":"levelo_inurba_marseille","lat":43.23804,"lon":5.36606,"is_reserved":false,"is_disabled":false,"rental_uris":{"android":"levelo://app?vid=1fce7f1d-4e59-45d5-ad05-440b881821b7","ios":"levelo://app?vid=1fce7f1d-4e59-45d5-ad05-440b881821b7"},"vehicle_type_id":"4","last_reported":1774707795,"current_range_meters":8800,"station_id":"st_d3nk18o9ro0c73en2l3g","pricing_plan_id":"cebpf4jnsgd1na2vs0mg"},{"bike_id":"883dc76f-ea39-4856-ad3f-83646c0ba349","system_id":"levelo_inurba_marseille","lat":43.30301,"lon":5.37767,"is_reserved":false,"is_disabled":false,"rental_uris":{"android":"levelo://app?vid=883dc76f-ea39-4856-ad3f-83646c0ba349","ios":"levelo://app?vid=883dc76f-ea39-4856-ad3f-83646c0ba349"},"vehicle_type_id":"4","last_reported":1774707795,"current_range_meters":8800,"station_id":"ce4bguh2rcd13ifvqcj0","pricing_plan_id":"cebpf4jnsgd1na2vs0mg"},{"bike_id":"c09263af-5f3c-4487-9b20-dca4afc4c1ed","system_id":"levelo_inurba_marseille","lat":43.28618,"lon":5.35088,"is_reserved":false,"is_disabled":false,"rental_uris":{"android":"levelo://app?vid=c09263af-5f3c-4487-9b20-dca4afc4c1ed","ios":"levelo://app?vid=c09263af-5f3c-4487-9b20-dca4afc4c1ed"},"vehicle_type_id":"4","last_reported":1774707795,"current_range_meters":8800,"station_id":"ce4bhch2rcd13ifvqeug","pricing_plan_id":"cebpf4jnsgd1na2vs0mg"},{"bike_id":"d61113af-587d-4bac-90d4-ec76c77b61f6","system_id":"levelo_inurba_marseille","lat":43.27221,"lon":5.39175,"is_reserved":false,"is_disabled":false,"rental_uris":{"android":"levelo://app?vid=d61113af-587d-4bac-90d4-ec76c77b61f6","ios":"levelo://app?vid=d61113af-587d-4bac-90d4-ec76c77b61f6"},"vehicle_type_id":"4","last_reported":1774707795,"current_range_meters":8800,"station_id":"ce4bhhp2rcd13ifvqfm0","pricing_plan_id":"cebpf4jnsgd1na2vs0mg"},{"bike_id":"ceafad9d-a500-41ad-9e31-0938466572d1","system_id":"levelo_inurba_marseille","lat":43.32367,"lon":5.38837,"is_reserved":false,"is_disabled":false,"rental_uris":{"android":"levelo://app?vid=ceafad9d-a500-41ad-9e31-0938466572d1","ios":"levelo://app?vid=ceafad9d-a500-41ad-9e31-0938466572d1"},"vehicle_type_id":"4","last_reported":1774707795,"current_range_meters":8800,"station_id":"ce4bhqp2rcd13ifvqhog","pricing_plan_id":"cebpf4jnsgd1na2vs0mg"},{"bike_id":"3ed4eab2-4337-4180-944e-25a1895e5709","system_id":"levelo_inurba_marseille","lat":43.31055,"lon":5.37143,"is_reserved":false,"is_disabled":false,"rental_uris":{"android":"levelo://app?vid=3ed4eab2-4337-4180-944e-25a1895e5709","ios":"levelo://app?vid=3ed4eab2-4337-4180-944e-25a1895e5709"},"vehicle_type_id":"4","last_reported":1774707795,"current_range_meters":8800,"station_id":"st_d4kl2rp97mjs73e7tdfg","pricing_plan_id":"cebpf4jnsgd1na2vs0mg"},{"bike_id":"d42918c2-5949-42d0-8ebe-a9ca1daba3bd","system_id":"levelo_inurba_marseille","lat":43.28447,"lon":5.35894,"is_reserved":false,"is_disabled":true,"rental_uris":{"android":"levelo://app?vid=d42918c2-5949-42d0-8ebe-a9ca1daba3bd","ios":"levelo://app?vid=d42918c2-5949-42d0-8ebe-a9ca1daba3bd"},"vehicle_type_id":"4","last_reported":1774707795,"current_range_meters":8800,"station_id":"ce4bhah2rcd13ifvqei0","pricing_plan_id":"cebpf4jnsgd1na2vs0mg"},{"bike_id":"7b937767-f7ec-40d1-a7fd-f46bfb1314e7","system_id":"levelo_inurba_marseille","lat":43.24469,"lon":5.42542,"is_reserved":false,"is_disabled":false,"rental_uris":{"android":"levelo://app?vid=7b937767-f7ec-40d1-a7fd-f46bfb1314e7","ios":"levelo://app?vid=7b937767-f7ec-40d1-a7fd-f46bfb1314e7"},"vehicle_type_id":"4","last_reported":1774707795,"current_range_meters":8800,"station_id":"st_d4a3vfp97mjs738cd8kg","pricing_plan_id":"cebpf4jnsgd1na2vs0mg"},{"bike_id":"1bca506e-2c43-43d5-9cab-3f814da8f5fe","system_id":"levelo_inurba_marseille","lat":43.22554,"lon":5.41586,"is_reserved":false,"is_disabled":false,"rental_uris":{"android":"levelo://app?vid=1bca506e-2c43-43d5-9cab-3f814da8f5fe","ios":"levelo://app?vid=1bca506e-2c43-43d5-9cab-3f814da8f5fe"},"vehicle_type_id":"4","last_reported":1774707795,"current_range_meters":8800,"station_id":"st_d2o4gvlbi1j2169b742g","pricing_plan_id":"cebpf4jnsgd1na2vs0mg"},{"bike_id":"bdaed5e7-39fc-4f15-88b1-8c6e200d65a7","system_id":"levelo_inurba_marseille","lat":43.27189,"lon":5.3916,"is_reserved":false,"is_disabled":false,"rental_uris":{"android":"levelo://app?vid=bdaed5e7-39fc-4f15-88b1-8c6e200d65a7","ios":"levelo://app?vid=bdaed5e7-39fc-4f15-88b1-8c6e200d65a7"},"vehicle_type_id":"4","last_reported":1774707795,"current_range_meters":8800,"station_id":"ce4bhhp2rcd13ifvqfm0","pricing_plan_id":"cebpf4jnsgd1na2vs0mg"},{"bike_id":"ec07b445-7b91-4002-a980-b5cb83c16860","system_id":"levelo_inurba_marseille","lat":43.29927,"lon":5.36526,"is_reserved":false,"is_disabled":false,"rental_uris":{"android":"levelo://app?vid=ec07b445-7b91-4002-a980-b5cb83c16860","ios":"levelo://app?vid=ec07b445-7b91-4002-a980-b5cb83c16860"},"vehicle_type_id":"4","last_reported":1774707795,"current_range_meters":8800,"station_id":"ce4bgm92rcd13ifvqbr0","pricing_plan_id":"cebpf4jnsgd1na2vs0mg"},{"bike_id":"659ccfdf-569f-4f01-84dd-6c9bbfa33ac4","system_id":"levelo_inurba_marseille","lat":43.2378,"lon":5.36633,"is_reserved":false,"is_disabled":false,"rental_uris":{"android":"levelo://app?vid=659ccfdf-569f-4f01-84dd-6c9bbfa33ac4","ios":"levelo://app?vid=659ccfdf-569f-4f01-84dd-6c9bbfa33ac4"},"vehicle_type_id":"4","last_reported":1774707795,"current_range_meters":8800,"station_id":"st_d3nk18o9ro0c73en2l3g","pricing_plan_id":"cebpf4jnsgd1na2vs0mg"},{"bike_id":"ed93bfe1-af92-46df-a056-72bd6a184a27","system_id":"levelo_inurba_marseille","lat":43.26206,"lon":5.37442,"is_reserved":false,"is_disabled":false,"rental_uris":{"android":"levelo://app?vid=ed93bfe1-af92-46df-a056-72bd6a184a27","ios":"levelo://app?vid=ed93bfe1-af92-46df-a056-72bd6a184a27"},"vehicle_type_id":"4","last_reported":1774707795,"current_range_meters":8800,"station_id":"ce4bhgp2rcd13ifvqfc0","pricing_plan_id":"cebpf4jnsgd1na2vs0mg"},{"bike_id":"6e32d4bb-4637-4826-bdaa-ae1ed5b90ef5","system_id":"levelo_inurba_marseille","lat":43.26214,"lon":5.37436,"is_reserved":false,"is_disabled":false,"rental_uris":{"android":"levelo://app?vid=6e32d4bb-4637-4826-bdaa-ae1ed5b90ef5","ios":"levelo://app?vid=6e32d4bb-4637-4826-bdaa-ae1ed5b90ef5"},"vehicle_type_id":"4","last_reported":1774707795,"current_range_meters":8800,"station_id":"ce4bhgp2rcd13ifvqfc0","pricing_plan_id":"cebpf4jnsgd1na2vs0mg"},{"bike_id":"23330f5e-e578-4799-884d-dc58f80e3837","system_id":"levelo_inurba_marseille","lat":43.27061,"lon":5.40246,"is_reserved":false,"is_disabled":false,"rental_uris":{"android":"levelo://app?vid=23330f5e-e578-4799-884d-dc58f80e3837","ios":"levelo://app?vid=23330f5e-e578-4799-884d-dc58f80e3837"},"vehicle_type_id":"4","last_reported":1774707795,"current_range_meters":8800,"station_id":"ce4bhk92rcd13ifvqgc0","pricing_plan_id":"cebpf4jnsgd1na2vs0mg"},{"bike_id":"681de42e-452e-49ac-9229-5ff8b9110346","system_id":"levelo_inurba_marseille","lat":43.24542,"lon":5.39526,"is_reserved":false,"is_disabled":false,"rental_uris":{"android":"levelo://app?vid=681de42e-452e-49ac-9229-5ff8b9110346","ios":"levelo://app?vid=681de42e-452e-49ac-9229-5ff8b9110346"},"vehicle_type_id":"4","last_reported":1774707795,"current_range_meters":8800,"station_id":"ce4bhlp2rcd13ifvqgjg","pricing_plan_id":"cebpf4jnsgd1na2vs0mg"},{"bike_id":"728b8005-11f3-4a8c-8017-acad60006fc3","system_id":"levelo_inurba_marseille","lat":43.32473,"lon":5.3654,"is_reserved":false,"is_disabled":false,"rental_uris":{"android":"levelo://app?vid=728b8005-11f3-4a8c-8017-acad60006fc3","ios":"levelo://app?vid=728b8005-11f3-4a8c-8017-acad60006fc3"},"vehicle_type_id":"4","last_reported":1774707795,"current_range_meters":8800,"station_id":"ce4bhs12rcd13ifvqhvg","pricing_plan_id":"cebpf4jnsgd1na2vs0mg"},{"bike_id":"2890b77e-7b82-4cf9-8b35-b2e9af77bfcf","system_id":"levelo_inurba_marseille","lat":43.25338,"lon":5.42179,"is_reserved":false,"is_disabled":false,"rental_uris":{"android":"levelo://app?vid=2890b77e-7b82-4cf9-8b35-b2e9af77bfcf","ios":"levelo://app?vid=2890b77e-7b82-4cf9-8b35-b2e9af77bfcf"},"vehicle_type_id":"4","last_reported":1774707795,"current_range_meters":9200,"station_id":"st_d2m65c5bi1j21697t3ng","pricing_plan_id":"cebpf4jnsgd1na2vs0mg"},{"bike_id":"a9176eb7-c188-4ff4-912f-d4e94b60be86","system_id":"levelo_inurba_marseille","lat":43.23798,"lon":5.36626,"is_reserved":false,"is_disabled":false,"rental_uris":{"android":"levelo://app?vid=a9176eb7-c188-4ff4-912f-d4e94b60be86","ios":"levelo://app?vid=a9176eb7-c188-4ff4-912f-d4e94b60be86"},"vehicle_type_id":"4","last_reported":1774707795,"current_range_meters":9200,"station_id":"st_d3nk18o9ro0c73en2l3g","pricing_plan_id":"cebpf4jnsgd1na2vs0mg"},{"bike_id":"3137e3ea-7797-4cae-a237-2a996dd9ad4a","system_id":"levelo_inurba_marseille","lat":43.28491,"lon":5.48398,"is_reserved":false,"is_disabled":false,"rental_uris":{"android":"levelo://app?vid=3137e3ea-7797-4cae-a237-2a996dd9ad4a","ios":"levelo://app?vid=3137e3ea-7797-4cae-a237-2a996dd9ad4a"},"vehicle_type_id":"4","last_reported":1774707795,"current_range_meters":9200,"station_id":"","pricing_plan_id":"cebpf4jnsgd1na2vs0mg"},{"bike_id":"444bd69b-8232-4442-9e1d-9f73f845f756","system_id":"levelo_inurba_marseille","lat":43.28454,"lon":5.35904,"is_reserved":false,"is_disabled":false,"rental_uris":{"android":"levelo://app?vid=444bd69b-8232-4442-9e1d-9f73f845f756","ios":"levelo://app?vid=444bd69b-8232-4442-9e1d-9f73f845f756"},"vehicle_type_id":"4","last_reported":1774707795,"current_range_meters":9200,"station_id":"ce4bhah2rcd13ifvqei0","pricing_plan_id":"cebpf4jnsgd1na2vs0mg"},{"bike_id":"2f1d0d81-33b7-48c4-b331-7cdbf3cbb8ce","system_id":"levelo_inurba_marseille","lat":43.29367,"lon":5.37864,"is_reserved":false,"is_disabled":false,"rental_uris":{"android":"levelo://app?vid=2f1d0d81-33b7-48c4-b331-7cdbf3cbb8ce","ios":"levelo://app?vid=2f1d0d81-33b7-48c4-b331-7cdbf3cbb8ce"},"vehicle_type_id":"4","last_reported":1774707795,"current_range_meters":9200,"station_id":"ce4bgjh2rcd13ifvqbf0","pricing_plan_id":"cebpf4jnsgd1na2vs0mg"},{"bike_id":"2c76498e-1409-4d1d-aa11-912dd68ff926","system_id":"levelo_inurba_marseille","lat":43.28545,"lon":5.44075,"is_reserved":false,"is_disabled":false,"rental_uris":{"android":"levelo://app?vid=2c76498e-1409-4d1d-aa11-912dd68ff926","ios":"levelo://app?vid=2c76498e-1409-4d1d-aa11-912dd68ff926"},"vehicle_type_id":"4","last_reported":1774707795,"current_range_meters":9200,"station_id":"st_d3j3df2ikq2c7380ej80","pricing_plan_id":"cebpf4jnsgd1na2vs0mg"},{"bike_id":"1ee7715b-73b9-4e2e-aa2b-b18556ee2189","system_id":"levelo_inurba_marseille","lat":43.2441,"lon":5.37044,"is_reserved":false,"is_disabled":false,"rental_uris":{"android":"levelo://app?vid=1ee7715b-73b9-4e2e-aa2b-b18556ee2189","ios":"levelo://app?vid=1ee7715b-73b9-4e2e-aa2b-b18556ee2189"},"vehicle_type_id":"4","last_reported":1774707795,"current_range_meters":9200,"station_id":"ce4bhhh2rcd13ifvqfk0","pricing_plan_id":"cebpf4jnsgd1na2vs0mg"},{"bike_id":"951ccfa0-2bbb-441f-98aa-0e6f6567daed","system_id":"levelo_inurba_marseille","lat":43.287,"lon":5.37316,"is_reserved":false,"is_disabled":false,"rental_uris":{"android":"levelo://app?vid=951ccfa0-2bbb-441f-98aa-0e6f6567daed","ios":"levelo://app?vid=951ccfa0-2bbb-441f-98aa-0e6f6567daed"},"vehicle_type_id":"4","last_reported":1774707795,"current_range_meters":9200,"station_id":"","pricing_plan_id":"cebpf4jnsgd1na2vs0mg"},{"bike_id":"d9275995-6199-47cd-9641-416f87712e15","system_id":"levelo_inurba_marseille","lat":43.23778,"lon":5.36625,"is_reserved":false,"is_disabled":false,"rental_uris":{"android":"levelo://app?vid=d9275995-6199-47cd-9641-416f87712e15","ios":"levelo://app?vid=d9275995-6199-47cd-9641-416f87712e15"},"vehicle_type_id":"4","last_reported":1774707795,"current_range_meters":9200,"station_id":"st_d3nk18o9ro0c73en2l3g","pricing_plan_id":"cebpf4jnsgd1na2vs0mg"},{"bike_id":"59d87d96-b71d-4331-8ff0-128777265713","system_id":"levelo_inurba_marseille","lat":43.31048,"lon":5.3718,"is_reserved":false,"is_disabled":false,"rental_uris":{"android":"levelo://app?vid=59d87d96-b71d-4331-8ff0-128777265713","ios":"levelo://app?vid=59d87d96-b71d-4331-8ff0-128777265713"},"vehicle_type_id":"4","last_reported":1774707795,"current_range_meters":9200,"station_id":"st_d4kl2rp97mjs73e7tdfg","pricing_plan_id":"cebpf4jnsgd1na2vs0mg"},{"bike_id":"76201515-ae70-408c-82ba-b2d7c39b0327","system_id":"levelo_inurba_marseille","lat":43.25115,"lon":5.40325,"is_reserved":false,"is_disabled":false,"rental_uris":{"android":"levelo://app?vid=76201515-ae70-408c-82ba-b2d7c39b0327","ios":"levelo://app?vid=76201515-ae70-408c-82ba-b2d7c39b0327"},"vehicle_type_id":"4","last_reported":1774707795,"current_range_meters":9200,"station_id":"ce4bhlh2rcd13ifvqgig","pricing_plan_id":"cebpf4jnsgd1na2vs0mg"},{"bike_id":"a26521b6-ae36-49b3-8c17-71b965eb6e3c","system_id":"levelo_inurba_marseille","lat":43.26027,"lon":5.3755,"is_reserved":false,"is_disabled":false,"rental_uris":{"android":"levelo://app?vid=a26521b6-ae36-49b3-8c17-71b965eb6e3c","ios":"levelo://app?vid=a26521b6-ae36-49b3-8c17-71b965eb6e3c"},"vehicle_type_id":"4","last_reported":1774707795,"current_range_meters":9200,"station_id":"ce4bhgh2rcd13ifvqfa0","pricing_plan_id":"cebpf4jnsgd1na2vs0mg"},{"bike_id":"926948bc-297f-4cc8-8891-2063fc6dd9af","system_id":"levelo_inurba_marseille","lat":43.30589,"lon":5.37232,"is_reserved":false,"is_disabled":false,"rental_uris":{"android":"levelo://app?vid=926948bc-297f-4cc8-8891-2063fc6dd9af","ios":"levelo://app?vid=926948bc-297f-4cc8-8891-2063fc6dd9af"},"vehicle_type_id":"4","last_reported":1774707795,"current_range_meters":9200,"station_id":"ce4bgqh2rcd13ifvqc4g","pricing_plan_id":"cebpf4jnsgd1na2vs0mg"},{"bike_id":"f2563cae-585f-46ce-a7c1-d79d6f3a4b5f","system_id":"levelo_inurba_marseille","lat":43.28845,"lon":5.38462,"is_reserved":false,"is_disabled":false,"rental_uris":{"android":"levelo://app?vid=f2563cae-585f-46ce-a7c1-d79d6f3a4b5f","ios":"levelo://app?vid=f2563cae-585f-46ce-a7c1-d79d6f3a4b5f"},"vehicle_type_id":"4","last_reported":1774707795,"current_range_meters":9200,"station_id":"ce4bh612rcd13ifvqe6g","pricing_plan_id":"cebpf4jnsgd1na2vs0mg"},{"bike_id":"3a93e789-b00e-4925-a320-be628ded4ba5","system_id":"levelo_inurba_marseille","lat":43.24088,"lon":5.37708,"is_reserved":false,"is_disabled":false,"rental_uris":{"android":"levelo://app?vid=3a93e789-b00e-4925-a320-be628ded4ba5","ios":"levelo://app?vid=3a93e789-b00e-4925-a320-be628ded4ba5"},"vehicle_type_id":"4","last_reported":1774707795,"current_range_meters":9200,"station_id":"ce4bhnp2rcd13ifvqgvg","pricing_plan_id":"cebpf4jnsgd1na2vs0mg"},{"bike_id":"56ed71d3-4f24-4bcb-9e63-f10b7aa4866e","system_id":"levelo_inurba_marseille","lat":43.28406,"lon":5.34984,"is_reserved":false,"is_disabled":false,"rental_uris":{"android":"levelo://app?vid=56ed71d3-4f24-4bcb-9e63-f10b7aa4866e","ios":"levelo://app?vid=56ed71d3-4f24-4bcb-9e63-f10b7aa4866e"},"vehicle_type_id":"4","last_reported":1774707795,"current_range_meters":9200,"station_id":"ce4bhbh2rcd13ifvqepg","pricing_plan_id":"cebpf4jnsgd1na2vs0mg"},{"bike_id":"5ecab434-8e19-46ce-9cce-324a319f3a65","system_id":"levelo_inurba_marseille","lat":43.27417,"lon":5.39144,"is_reserved":false,"is_disabled":false,"rental_uris":{"android":"levelo://app?vid=5ecab434-8e19-46ce-9cce-324a319f3a65","ios":"levelo://app?vid=5ecab434-8e19-46ce-9cce-324a319f3a65"},"vehicle_type_id":"4","last_reported":1774707795,"current_range_meters":9200,"station_id":"","pricing_plan_id":"cebpf4jnsgd1na2vs0mg"},{"bike_id":"8e5de4b1-14ca-43b8-bcd8-f0828c5b41c5","system_id":"levelo_inurba_marseille","lat":43.30554,"lon":5.36536,"is_reserved":false,"is_disabled":false,"rental_uris":{"android":"levelo://app?vid=8e5de4b1-14ca-43b8-bcd8-f0828c5b41c5","ios":"levelo://app?vid=8e5de4b1-14ca-43b8-bcd8-f0828c5b41c5"},"vehicle_type_id":"4","last_reported":1774707795,"current_range_meters":9200,"station_id":"ce4bgs12rcd13ifvqcag","pricing_plan_id":"cebpf4jnsgd1na2vs0mg"},{"bike_id":"bbd3f559-746b-40c2-866e-faf4351c115d","system_id":"levelo_inurba_marseille","lat":43.24393,"lon":5.37067,"is_reserved":false,"is_disabled":false,"rental_uris":{"android":"levelo://app?vid=bbd3f559-746b-40c2-866e-faf4351c115d","ios":"levelo://app?vid=bbd3f559-746b-40c2-866e-faf4351c115d"},"vehicle_type_id":"4","last_reported":1774707795,"current_range_meters":9200,"station_id":"ce4bhhh2rcd13ifvqfk0","pricing_plan_id":"cebpf4jnsgd1na2vs0mg"},{"bike_id":"958c7a12-4a29-4acb-b4a8-b2dbd58a414e","system_id":"levelo_inurba_marseille","lat":43.30438,"lon":5.38885,"is_reserved":false,"is_disabled":false,"rental_uris":{"android":"levelo://app?vid=958c7a12-4a29-4acb-b4a8-b2dbd58a414e","ios":"levelo://app?vid=958c7a12-4a29-4acb-b4a8-b2dbd58a414e"},"vehicle_type_id":"4","last_reported":1774707795,"current_range_meters":9200,"station_id":"ce4bgk12rcd13ifvqbi0","pricing_plan_id":"cebpf4jnsgd1na2vs0mg"},{"bike_id":"8371d95a-edda-4199-96fb-5106a5c4d423","system_id":"levelo_inurba_marseille","lat":43.2828,"lon":5.3507,"is_reserved":false,"is_disabled":false,"rental_uris":{"android":"levelo://app?vid=8371d95a-edda-4199-96fb-5106a5c4d423","ios":"levelo://app?vid=8371d95a-edda-4199-96fb-5106a5c4d423"},"vehicle_type_id":"4","last_reported":1774707795,"current_range_meters":9200,"station_id":"ce4bhbp2rcd13ifvqerg","pricing_plan_id":"cebpf4jnsgd1na2vs0mg"},{"bike_id":"970c0018-efd3-4265-ba0d-669fd24b3e90","system_id":"levelo_inurba_marseille","lat":43.30959,"lon":5.3903,"is_reserved":false,"is_disabled":true,"rental_uris":{"android":"levelo://app?vid=970c0018-efd3-4265-ba0d-669fd24b3e90","ios":"levelo://app?vid=970c0018-efd3-4265-ba0d-669fd24b3e90"},"vehicle_type_id":"4","last_reported":1774707795,"current_range_meters":9600,"station_id":"ce4bgup2rcd13ifvqco0","pricing_plan_id":"cebpf4jnsgd1na2vs0mg"},{"bike_id":"4247c776-2951-4741-b1a8-85d5eef00372","system_id":"levelo_inurba_marseille","lat":43.27383,"lon":5.36252,"is_reserved":false,"is_disabled":false,"rental_uris":{"android":"levelo://app?vid=4247c776-2951-4741-b1a8-85d5eef00372","ios":"levelo://app?vid=4247c776-2951-4741-b1a8-85d5eef00372"},"vehicle_type_id":"4","last_reported":1774707795,"current_range_meters":9600,"station_id":"ce4bhbh2rcd13ifvqeo0","pricing_plan_id":"cebpf4jnsgd1na2vs0mg"},{"bike_id":"0f430097-8d5e-4a5a-9147-4fc5e40a362e","system_id":"levelo_inurba_marseille","lat":43.33556,"lon":5.3746,"is_reserved":false,"is_disabled":false,"rental_uris":{"android":"levelo://app?vid=0f430097-8d5e-4a5a-9147-4fc5e40a362e","ios":"levelo://app?vid=0f430097-8d5e-4a5a-9147-4fc5e40a362e"},"vehicle_type_id":"4","last_reported":1774707795,"current_range_meters":9600,"station_id":"st_d46tts09ee8s73dlu43g","pricing_plan_id":"cebpf4jnsgd1na2vs0mg"},{"bike_id":"54ea3d34-d79a-4ab1-886f-1335ba6b438a","system_id":"levelo_inurba_marseille","lat":43.30153,"lon":5.38097,"is_reserved":false,"is_disabled":true,"rental_uris":{"android":"levelo://app?vid=54ea3d34-d79a-4ab1-886f-1335ba6b438a","ios":"levelo://app?vid=54ea3d34-d79a-4ab1-886f-1335ba6b438a"},"vehicle_type_id":"4","last_reported":1774707795,"current_range_meters":9600,"station_id":"ce4bgjp2rcd13ifvqbh0","pricing_plan_id":"cebpf4jnsgd1na2vs0mg"},{"bike_id":"5558b9db-d80a-4a40-bd7e-a2591d28592c","system_id":"levelo_inurba_marseille","lat":43.31243,"lon":5.36874,"is_reserved":false,"is_disabled":false,"rental_uris":{"android":"levelo://app?vid=5558b9db-d80a-4a40-bd7e-a2591d28592c","ios":"levelo://app?vid=5558b9db-d80a-4a40-bd7e-a2591d28592c"},"vehicle_type_id":"4","last_reported":1774707795,"current_range_meters":9600,"station_id":"ce4bgl92rcd13ifvqbq0","pricing_plan_id":"cebpf4jnsgd1na2vs0mg"},{"bike_id":"3f200426-1eba-4d5e-acb1-a1a43666133b","system_id":"levelo_inurba_marseille","lat":43.21177,"lon":5.35086,"is_reserved":false,"is_disabled":false,"rental_uris":{"android":"levelo://app?vid=3f200426-1eba-4d5e-acb1-a1a43666133b","ios":"levelo://app?vid=3f200426-1eba-4d5e-acb1-a1a43666133b"},"vehicle_type_id":"4","last_reported":1774707795,"current_range_meters":9600,"station_id":"st_cvj6sg6p6f1abm77japg","pricing_plan_id":"cebpf4jnsgd1na2vs0mg"},{"bike_id":"2d0fdc3d-338a-4727-826c-caea44a0cbfa","system_id":"levelo_inurba_marseille","lat":43.29814,"lon":5.44069,"is_reserved":false,"is_disabled":false,"rental_uris":{"android":"levelo://app?vid=2d0fdc3d-338a-4727-826c-caea44a0cbfa","ios":"levelo://app?vid=2d0fdc3d-338a-4727-826c-caea44a0cbfa"},"vehicle_type_id":"4","last_reported":1774707795,"current_range_meters":9600,"station_id":"st_d3jp68qikq2c7381ktn0","pricing_plan_id":"cebpf4jnsgd1na2vs0mg"},{"bike_id":"a40f4b44-4c18-44b6-8d0b-b98dad1be04f","system_id":"levelo_inurba_marseille","lat":43.29266,"lon":5.3685,"is_reserved":false,"is_disabled":false,"rental_uris":{"android":"levelo://app?vid=a40f4b44-4c18-44b6-8d0b-b98dad1be04f","ios":"levelo://app?vid=a40f4b44-4c18-44b6-8d0b-b98dad1be04f"},"vehicle_type_id":"4","last_reported":1774707795,"current_range_meters":9600,"station_id":"ce4bhbp2rcd13ifvqesg","pricing_plan_id":"cebpf4jnsgd1na2vs0mg"},{"bike_id":"397a0c10-07d4-4000-b9eb-c0eda49351bb","system_id":"levelo_inurba_marseille","lat":43.26544,"lon":5.37292,"is_reserved":false,"is_disabled":false,"rental_uris":{"android":"levelo://app?vid=397a0c10-07d4-4000-b9eb-c0eda49351bb","ios":"levelo://app?vid=397a0c10-07d4-4000-b9eb-c0eda49351bb"},"vehicle_type_id":"4","last_reported":1774707795,"current_range_meters":9600,"station_id":"ce4bhg12rcd13ifvqf70","pricing_plan_id":"cebpf4jnsgd1na2vs0mg"},{"bike_id":"5dc7a0c1-467a-4151-97ef-a8a655c4f7a5","system_id":"levelo_inurba_marseille","lat":43.28467,"lon":5.48396,"is_reserved":false,"is_disabled":false,"rental_uris":{"android":"levelo://app?vid=5dc7a0c1-467a-4151-97ef-a8a655c4f7a5","ios":"levelo://app?vid=5dc7a0c1-467a-4151-97ef-a8a655c4f7a5"},"vehicle_type_id":"4","last_reported":1774707795,"current_range_meters":9600,"station_id":"","pricing_plan_id":"cebpf4jnsgd1na2vs0mg"},{"bike_id":"d81e022f-57bd-46be-aa5e-530ddecd8b59","system_id":"levelo_inurba_marseille","lat":43.24663,"lon":5.38164,"is_reserved":false,"is_disabled":false,"rental_uris":{"android":"levelo://app?vid=d81e022f-57bd-46be-aa5e-530ddecd8b59","ios":"levelo://app?vid=d81e022f-57bd-46be-aa5e-530ddecd8b59"},"vehicle_type_id":"4","last_reported":1774707795,"current_range_meters":9600,"station_id":"ce4bhih2rcd13ifvqfr0","pricing_plan_id":"cebpf4jnsgd1na2vs0mg"},{"bike_id":"752abf57-2523-4a36-ab7b-c328452703b1","system_id":"levelo_inurba_marseille","lat":43.24784,"lon":5.37494,"is_reserved":false,"is_disabled":false,"rental_uris":{"android":"levelo://app?vid=752abf57-2523-4a36-ab7b-c328452703b1","ios":"levelo://app?vid=752abf57-2523-4a36-ab7b-c328452703b1"},"vehicle_type_id":"4","last_reported":1774707795,"current_range_meters":9600,"station_id":"ce4bhgh2rcd13ifvqfb0","pricing_plan_id":"cebpf4jnsgd1na2vs0mg"},{"bike_id":"1c0d61c0-7ee3-4440-a775-a1d36b0cdd46","system_id":"levelo_inurba_marseille","lat":43.21194,"lon":5.3505,"is_reserved":false,"is_disabled":false,"rental_uris":{"android":"levelo://app?vid=1c0d61c0-7ee3-4440-a775-a1d36b0cdd46","ios":"levelo://app?vid=1c0d61c0-7ee3-4440-a775-a1d36b0cdd46"},"vehicle_type_id":"4","last_reported":1774707795,"current_range_meters":9600,"station_id":"st_cvj6sg6p6f1abm77japg","pricing_plan_id":"cebpf4jnsgd1na2vs0mg"},{"bike_id":"6cd08817-61b4-4fc1-aeda-8267dd2c4320","system_id":"levelo_inurba_marseille","lat":43.28535,"lon":5.44108,"is_reserved":false,"is_disabled":false,"rental_uris":{"android":"levelo://app?vid=6cd08817-61b4-4fc1-aeda-8267dd2c4320","ios":"levelo://app?vid=6cd08817-61b4-4fc1-aeda-8267dd2c4320"},"vehicle_type_id":"4","last_reported":1774707795,"current_range_meters":9600,"station_id":"st_d3j3df2ikq2c7380ej80","pricing_plan_id":"cebpf4jnsgd1na2vs0mg"},{"bike_id":"56603236-0b6d-44e6-924a-3489e7c8fead","system_id":"levelo_inurba_marseille","lat":43.25732,"lon":5.38727,"is_reserved":false,"is_disabled":false,"rental_uris":{"android":"levelo://app?vid=56603236-0b6d-44e6-924a-3489e7c8fead","ios":"levelo://app?vid=56603236-0b6d-44e6-924a-3489e7c8fead"},"vehicle_type_id":"4","last_reported":1774707795,"current_range_meters":9600,"station_id":"","pricing_plan_id":"cebpf4jnsgd1na2vs0mg"},{"bike_id":"e45f7e6b-41f9-4a8a-b54b-f571152c9fa4","system_id":"levelo_inurba_marseille","lat":43.2389,"lon":5.37461,"is_reserved":false,"is_disabled":false,"rental_uris":{"android":"levelo://app?vid=e45f7e6b-41f9-4a8a-b54b-f571152c9fa4","ios":"levelo://app?vid=e45f7e6b-41f9-4a8a-b54b-f571152c9fa4"},"vehicle_type_id":"4","last_reported":1774707795,"current_range_meters":9600,"station_id":"st_d6sm7csbq4hs73f8fpjg","pricing_plan_id":"cebpf4jnsgd1na2vs0mg"},{"bike_id":"3d10a6dc-5b60-415d-a695-11f58537a955","system_id":"levelo_inurba_marseille","lat":43.24547,"lon":5.3955,"is_reserved":false,"is_disabled":false,"rental_uris":{"android":"levelo://app?vid=3d10a6dc-5b60-415d-a695-11f58537a955","ios":"levelo://app?vid=3d10a6dc-5b60-415d-a695-11f58537a955"},"vehicle_type_id":"4","last_reported":1774707795,"current_range_meters":9600,"station_id":"ce4bhlp2rcd13ifvqgjg","pricing_plan_id":"cebpf4jnsgd1na2vs0mg"},{"bike_id":"dcddd6f4-f750-4f90-ae83-25c178716cb7","system_id":"levelo_inurba_marseille","lat":43.2886,"lon":5.42519,"is_reserved":false,"is_disabled":false,"rental_uris":{"android":"levelo://app?vid=dcddd6f4-f750-4f90-ae83-25c178716cb7","ios":"levelo://app?vid=dcddd6f4-f750-4f90-ae83-25c178716cb7"},"vehicle_type_id":"4","last_reported":1774707795,"current_range_meters":9600,"station_id":"st_d3b462108ojc7389ooeg","pricing_plan_id":"cebpf4jnsgd1na2vs0mg"},{"bike_id":"9b44b234-9712-4722-a281-86e04117d615","system_id":"levelo_inurba_marseille","lat":43.30558,"lon":5.36536,"is_reserved":false,"is_disabled":false,"rental_uris":{"android":"levelo://app?vid=9b44b234-9712-4722-a281-86e04117d615","ios":"levelo://app?vid=9b44b234-9712-4722-a281-86e04117d615"},"vehicle_type_id":"4","last_reported":1774707795,"current_range_meters":9600,"station_id":"ce4bgs12rcd13ifvqcag","pricing_plan_id":"cebpf4jnsgd1na2vs0mg"},{"bike_id":"f98ccf66-0d6a-494c-b70d-ff60e96f3bd3","system_id":"levelo_inurba_marseille","lat":43.21748,"lon":5.34606,"is_reserved":false,"is_disabled":false,"rental_uris":{"android":"levelo://app?vid=f98ccf66-0d6a-494c-b70d-ff60e96f3bd3","ios":"levelo://app?vid=f98ccf66-0d6a-494c-b70d-ff60e96f3bd3"},"vehicle_type_id":"4","last_reported":1774707795,"current_range_meters":9600,"station_id":"st_cvj6r9ubvosntc0bgbag","pricing_plan_id":"cebpf4jnsgd1na2vs0mg"},{"bike_id":"4c9a3293-f2c3-4e99-b5e1-94195ca699a4","system_id":"levelo_inurba_marseille","lat":43.28547,"lon":5.44107,"is_reserved":false,"is_disabled":false,"rental_uris":{"android":"levelo://app?vid=4c9a3293-f2c3-4e99-b5e1-94195ca699a4","ios":"levelo://app?vid=4c9a3293-f2c3-4e99-b5e1-94195ca699a4"},"vehicle_type_id":"4","last_reported":1774707795,"current_range_meters":9600,"station_id":"st_d3j3df2ikq2c7380ej80","pricing_plan_id":"cebpf4jnsgd1na2vs0mg"},{"bike_id":"a67fc460-c077-4ade-9390-37cad8d5479c","system_id":"levelo_inurba_marseille","lat":43.21746,"lon":5.34601,"is_reserved":false,"is_disabled":false,"rental_uris":{"android":"levelo://app?vid=a67fc460-c077-4ade-9390-37cad8d5479c","ios":"levelo://app?vid=a67fc460-c077-4ade-9390-37cad8d5479c"},"vehicle_type_id":"4","last_reported":1774707795,"current_range_meters":9600,"station_id":"st_cvj6r9ubvosntc0bgbag","pricing_plan_id":"cebpf4jnsgd1na2vs0mg"},{"bike_id":"96e45895-dca0-4c57-a5fd-afc3bdd0ab9c","system_id":"levelo_inurba_marseille","lat":43.27644,"lon":5.36085,"is_reserved":false,"is_disabled":false,"rental_uris":{"android":"levelo://app?vid=96e45895-dca0-4c57-a5fd-afc3bdd0ab9c","ios":"levelo://app?vid=96e45895-dca0-4c57-a5fd-afc3bdd0ab9c"},"vehicle_type_id":"4","last_reported":1774707795,"current_range_meters":9600,"station_id":"ce4bgj92rcd13ifvqbe0","pricing_plan_id":"cebpf4jnsgd1na2vs0mg"},{"bike_id":"ad2a7325-f4cd-4376-af91-acc9a9d762fc","system_id":"levelo_inurba_marseille","lat":43.22559,"lon":5.41631,"is_reserved":false,"is_disabled":false,"rental_uris":{"android":"levelo://app?vid=ad2a7325-f4cd-4376-af91-acc9a9d762fc","ios":"levelo://app?vid=ad2a7325-f4cd-4376-af91-acc9a9d762fc"},"vehicle_type_id":"4","last_reported":1774707795,"current_range_meters":10000,"station_id":"st_d2o4gvlbi1j2169b742g","pricing_plan_id":"cebpf4jnsgd1na2vs0mg"},{"bike_id":"2d66df27-f724-47e0-8997-7c4b2d275045","system_id":"levelo_inurba_marseille","lat":43.25082,"lon":5.39502,"is_reserved":false,"is_disabled":false,"rental_uris":{"android":"levelo://app?vid=2d66df27-f724-47e0-8997-7c4b2d275045","ios":"levelo://app?vid=2d66df27-f724-47e0-8997-7c4b2d275045"},"vehicle_type_id":"4","last_reported":1774707795,"current_range_meters":10000,"station_id":"ce4bhm12rcd13ifvqgkg","pricing_plan_id":"cebpf4jnsgd1na2vs0mg"},