{"last_updated":1720454953,"ttl":30,"version":"2.2","data":{"bikes":[{"bike_id":"a69e0eb7-aba0-4b68-9090-fce869e3eeec","system_id":"levelo_inurba_marseille","lat":43.314811,"lon":5.373104,"is_reserved":false,"is_disabled":false,"rental_uris":{"android":"levelo://app?vid=a69e0eb7-aba0-4b68-9090-fce869e3eeec","ios":"levelo://app?vid=a69e0eb7-aba0-4b68-9090-fce869e3eeec"},"vehicle_type_id":"4","last_reported":1720454953,"current_range_meters":31200,"station_id":"ce4bgt12rcd13ifvqcd0","pricing_plan_id":"cebpf4jnsgd1na2vs0mg"},{"bike_id":"bbf0a617-a1ba-4369-8e35-cb47cf26cc55","system_id":"levelo_inurba_marseille","lat":43.31457,"lon":5.37383,"is_reserved":false,"is_disabled":false,"rental_uris":{"android":"levelo://app?vid=bbf0a617-a1ba-4369-8e35-cb47cf26cc55","ios":"levelo://app?vid=bbf0a617-a1ba-4369-8e35-cb47cf26cc55"},"vehicle_type_id":"4","last_reported":1720454953,"current_range_meters":11600,"station_id":"","pricing_plan_id":"cebpf4jnsgd1na2vs0mg"},{"bike_id":"1b1bba99-ff09-4800-8a1a-2d8ce9f3ab2c","system_id":"levelo_inurba_marseille","lat":43.30534,"lon":5.36661,"is_reserved":false,"is_disabled":false,"rental_uris":{"android":"levelo://app?vid=1b1bba99-ff09-4800-8a1a-2d8ce9f3ab2c","ios":"levelo://app?vid=1b1bba99-ff09-4800-8a1a-2d8ce9f3ab2c"},"vehicle_type_id":"4","last_reported":1720454953,"current_range_meters":24400,"station_id":"","pricing_plan_id":"cebpf4jnsgd1na2vs0mg"},{"bike_id":"d45d5168-fe8b-4ae2-b8ef-cb56c6bcbfc0","system_id":"levelo_inurba_marseille","lat":43.30537,"lon":5.367345,"is_reserved":false,"is_disabled":false,"rental_uris":{"android":"levelo://app?vid=d45d5168-fe8b-4ae2-b8ef-cb56c6bcbfc0","ios":"levelo://app?vid=d45d5168-fe8b-4ae2-b8ef-cb56c6bcbfc0"},"vehicle_type_id":"4","last_reported":1720454953,"current_range_meters":0,"station_id":"ce4bgrp2rcd13ifvqc9g","pricing_plan_id":"cebpf4jnsgd1na2vs0mg"},{"bike_id":"c551f4b2-c4fd-46f3-9bf9-b253ba6c956e","system_id":"levelo_inurba_marseille","lat":43.311131,"lon":5.377651,"is_reserved":false,"is_disabled":false,"rental_uris":{"android":"levelo://app?vid=c551f4b2-c4fd-46f3-9bf9-b253ba6c956e","ios":"levelo://app?vid=c551f4b2-c4fd-46f3-9bf9-b253ba6c956e"},"vehicle_type_id":"4","last_reported":1720454953,"current_range_meters":5600,"station_id":"ce4bgt92rcd13ifvqcg0","pricing_plan_id":"cebpf4jnsgd1na2vs0mg"},{"bike_id":"5db0e660-cdde-4ba8-adf7-f5c65ede43df","system_id":"levelo_inurba_marseille","lat":43.307945,"lon":5.376487,"is_reserved":false,"is_disabled":false,"rental_uris":{"android":"levelo://app?vid=5db0e660-cdde-4ba8-adf7-f5c65ede43df","ios":"levelo://app?vid=5db0e660-cdde-4ba8-adf7-f5c65ede43df"},"vehicle_type_id":"4","last_reported":1720454953,"current_range_meters":22000,"station_id":"ce4bgv92rcd13ifvqcq0","pricing_plan_id":"cebpf4jnsgd1na2vs0mg"},{"bike_id":"e8f5add1-f79d-469a-a12c-b5e15b5127eb","system_id":"levelo_inurba_marseille","lat":43.317035,"lon":5.377283,"is_reserved":false,"is_disabled":false,"rental_uris":{"android":"levelo://app?vid=e8f5add1-f79d-469a-a12c-b5e15b5127eb","ios":"levelo://app?vid=e8f5add1-f79d-469a-a12c-b5e15b5127eb"},"vehicle_type_id":"4","last_reported":1720454953,"current_range_meters":0,"station_id":"ce4bgth2rcd13ifvqch0","pricing_plan_id":"cebpf4jnsgd1na2vs0mg"},{"bike_id":"6784afd0-c86f-4b0a-9d5d-a3e13f2d4c0f","system_id":"levelo_inurba_marseille","lat":43.317167,"lon":5.377353,"is_reserved":false,"is_disabled":false,"rental_uris":{"android":"levelo://app?vid=6784afd0-c86f-4b0a-9d5d-a3e13f2d4c0f","ios":"levelo://app?vid=6784afd0-c86f-4b0a-9d5d-a3e13f2d4c0f"},"vehicle_type_id":"4","last_reported":1720454953,"current_range_meters":21600,"station_id":"ce4bgth2rcd13ifvqch0","pricing_plan_id":"cebpf4jnsgd1na2vs0mg"},{"bike_id":"3714ec43-7374-4e1e-a24a-ae319751c984","system_id":"levelo_inurba_marseille","lat":43.30559,"lon":5.37439,"is_reserved":false,"is_disabled":false,"rental_uris":{"android":"levelo://app?vid=3714ec43-7374-4e1e-a24a-ae319751c984","ios":"levelo://app?vid=3714ec43-7374-4e1e-a24a-ae319751c984"},"vehicle_type_id":"4","last_reported":1720454953,"current_range_meters":22800,"station_id":"","pricing_plan_id":"cebpf4jnsgd1na2vs0mg"},{"bike_id":"c9e025aa-a5ae-442d-9fad-105c464adb1e","system_id":"levelo_inurba_marseille","lat":43.301396,"lon":5.387812,"is_reserved":false,"is_disabled":false,"rental_uris":{"android":"levelo://app?vid=c9e025aa-a5ae-442d-9fad-105c464adb1e","ios":"levelo://app?vid=c9e025aa-a5ae-442d-9fad-105c464adb1e"},"vehicle_type_id":"4","last_reported":1720454953,"current_range_meters":7200,"station_id":"ce4bghh2rcd13ifvqb60","pricing_plan_id":"cebpf4jnsgd1na2vs0mg"},{"bike_id":"6c9c41a5-7fc0-4195-a290-f641aee54f69","system_id":"levelo_inurba_marseille","lat":43.303046,"lon":5.368981,"is_reserved":false,"is_disabled":false,"rental_uris":{"android":"levelo://app?vid=6c9c41a5-7fc0-4195-a290-f641aee54f69","ios":"levelo://app?vid=6c9c41a5-7fc0-4195-a290-f641aee54f69"},"vehicle_type_id":"4","last_reported":1720454953,"current_range_meters":10800,"station_id":"ce4bgqh2rcd13ifvqc5g","pricing_plan_id":"cebpf4jnsgd1na2vs0mg"},{"bike_id":"675e801b-311e-42b6-b866-e15f92b0feea","system_id":"levelo_inurba_marseille","lat":43.31524,"lon":5.38035,"is_reserved":false,"is_disabled":false,"rental_uris":{"android":"levelo://app?vid=675e801b-311e-42b6-b866-e15f92b0feea","ios":"levelo://app?vid=675e801b-311e-42b6-b866-e15f92b0feea"},"vehicle_type_id":"4","last_reported":1720454953,"current_range_meters":6400,"station_id":"ce4bhsp2rcd13ifvqi50","pricing_plan_id":"cebpf4jnsgd1na2vs0mg"},{"bike_id":"fa4bccc8-dfd4-4fe7-8a64-e3866fce4378","system_id":"levelo_inurba_marseille","lat":43.315289,"lon":5.380349,"is_reserved":false,"is_disabled":false,"rental_uris":{"android":"levelo://app?vid=fa4bccc8-dfd4-4fe7-8a64-e3866fce4378","ios":"levelo://app?vid=fa4bccc8-dfd4-4fe7-8a64-e3866fce4378"},"vehicle_type_id":"4","last_reported":1720454953,"current_range_meters":19600,"station_id":"ce4bhsp2rcd13ifvqi50","pricing_plan_id":"cebpf4jnsgd1na2vs0mg"},{"bike_id":"c5d8857c-f288-45ee-b365-43013f0d9b24","system_id":"levelo_inurba_marseille","lat":43.315293,"lon":5.380349,"is_reserved":false,"is_disabled":false,"rental_uris":{"android":"levelo://app?vid=c5d8857c-f288-45ee-b365-43013f0d9b24","ios":"levelo://app?vid=c5d8857c-f288-45ee-b365-43013f0d9b24"},"vehicle_type_id":"4","last_reported":1720454953,"current_range_meters":20400,"station_id":"ce4bhsp2rcd13ifvqi50","pricing_plan_id":"cebpf4jnsgd1na2vs0mg"},{"bike_id":"406ea171-1f0a-4f27-8ec4-77e786b48063","system_id":"levelo_inurba_marseille","lat":43.301939,"lon":5.366286,"is_reserved":false,"is_disabled":false,"rental_uris":{"android":"levelo://app?vid=406ea171-1f0a-4f27-8ec4-77e786b48063","ios":"levelo://app?vid=406ea171-1f0a-4f27-8ec4-77e786b48063"},"vehicle_type_id":"4","last_reported":1720454953,"current_range_meters":6000,"station_id":"ce4bgrh2rcd13ifvqc8g","pricing_plan_id":"cebpf4jnsgd1na2vs0mg"},{"bike_id":"fd9f1d5c-0562-4b52-9e32-5b759be00ddd","system_id":"levelo_inurba_marseille","lat":43.301939,"lon":5.366286,"is_reserved":false,"is_disabled":false,"rental_uris":{"android":"levelo://app?vid=fd9f1d5c-0562-4b52-9e32-5b759be00ddd","ios":"levelo://app?vid=fd9f1d5c-0562-4b52-9e32-5b759be00ddd"},"vehicle_type_id":"4","last_reported":1720454953,"current_range_meters":0,"station_id":"ce4bgrh2rcd13ifvqc8g","pricing_plan_id":"cebpf4jnsgd1na2vs0mg"},{"bike_id":"8db0b35b-3810-43d1-99bb-1fc4448c40be","system_id":"levelo_inurba_marseille","lat":43.301939,"lon":5.366286,"is_reserved":false,"is_disabled":false,"rental_uris":{"android":"levelo://app?vid=8db0b35b-3810-43d1-99bb-1fc4448c40be","ios":"levelo://app?vid=8db0b35b-3810-43d1-99bb-1fc4448c40be"},"vehicle_type_id":"4","last_reported":1720454953,"current_range_meters":3600,"station_id":"ce4bgrh2rcd13ifvqc8g","pricing_plan_id":"cebpf4jnsgd1na2vs0mg"},{"bike_id":"b002fede-79ce-4139-bb55-6a87446cf623","system_id":"levelo_inurba_marseille","lat":43.30188,"lon":5.3685,"is_reserved":false,"is_disabled":false,"rental_uris":{"android":"levelo://app?vid=b002fede-79ce-4139-bb55-6a87446cf623","ios":"levelo://app?vid=b002fede-79ce-4139-bb55-6a87446cf623"},"vehicle_type_id":"4","last_reported":1720454953,"current_range_meters":25200,"station_id":"","pricing_plan_id":"cebpf4jnsgd1na2vs0mg"},{"bike_id":"cacadd2e-2f92-4d2b-a285-5d827aeb66aa","system_id":"levelo_inurba_marseille","lat":43.301939,"lon":5.366286,"is_reserved":false,"is_disabled":false,"rental_uris":{"android":"levelo://app?vid=cacadd2e-2f92-4d2b-a285-5d827aeb66aa","ios":"levelo://app?vid=cacadd2e-2f92-4d2b-a285-5d827aeb66aa"},"vehicle_type_id":"4","last_reported":1720454953,"current_range_meters":0,"station_id":"ce4bgrh2rcd13ifvqc8g","pricing_plan_id":"cebpf4jnsgd1na2vs0mg"},{"bike_id":"0c8f1235-fbda-4fbc-aaa9-76985870f9de","system_id":"levelo_inurba_marseille","lat":43.308012,"lon":5.381511,"is_reserved":false,"is_disabled":false,"rental_uris":{"android":"levelo://app?vid=0c8f1235-fbda-4fbc-aaa9-76985870f9de","ios":"levelo://app?vid=0c8f1235-fbda-4fbc-aaa9-76985870f9de"},"vehicle_type_id":"4","last_reported":1720454953,"current_range_meters":0,"station_id":"ce4bgt12rcd13ifvqce0","pricing_plan_id":"cebpf4jnsgd1na2vs0mg"},{"bike_id":"10547e81-fc8d-4808-b367-a784008cf1cb","system_id":"levelo_inurba_marseille","lat":43.301008,"lon":5.368712,"is_reserved":false,"is_disabled":false,"rental_uris":{"android":"levelo://app?vid=10547e81-fc8d-4808-b367-a784008cf1cb","ios":"levelo://app?vid=10547e81-fc8d-4808-b367-a784008cf1cb"},"vehicle_type_id":"4","last_reported":1720454953,"current_range_meters":11600,"station_id":"","pricing_plan_id":"cebpf4jnsgd1na2vs0mg"},{"bike_id":"49994eb6-942a-4b80-928f-27dc505e63b0","system_id":"levelo_inurba_marseille","lat":43.304606,"lon":5.379026,"is_reserved":false,"is_disabled":false,"rental_uris":{"android":"levelo://app?vid=49994eb6-942a-4b80-928f-27dc505e63b0","ios":"levelo://app?vid=49994eb6-942a-4b80-928f-27dc505e63b0"},"vehicle_type_id":"4","last_reported":1720454953,"current_range_meters":13600,"station_id":"ce4bgup2rcd13ifvqcn0","pricing_plan_id":"cebpf4jnsgd1na2vs0mg"},{"bike_id":"5835b4f5-0c8f-4513-aac4-1533885c0454","system_id":"levelo_inurba_marseille","lat":43.324771,"lon":5.36557,"is_reserved":false,"is_disabled":false,"rental_uris":{"android":"levelo://app?vid=5835b4f5-0c8f-4513-aac4-1533885c0454","ios":"levelo://app?vid=5835b4f5-0c8f-4513-aac4-1533885c0454"},"vehicle_type_id":"4","last_reported":1720454953,"current_range_meters":6800,"station_id":"ce4bhs12rcd13ifvqhvg","pricing_plan_id":"cebpf4jnsgd1na2vs0mg"},{"bike_id":"7e0e40fa-116b-41fd-9fda-8c07abe02941","system_id":"levelo_inurba_marseille","lat":43.324771,"lon":5.36557,"is_reserved":false,"is_disabled":false,"rental_uris":{"android":"levelo://app?vid=7e0e40fa-116b-41fd-9fda-8c07abe02941","ios":"levelo://app?vid=7e0e40fa-116b-41fd-9fda-8c07abe02941"},"vehicle_type_id":"4","last_reported":1720454953,"current_range_meters":0,"station_id":"ce4bhs12rcd13ifvqhvg","pricing_plan_id":"cebpf4jnsgd1na2vs0mg"},{"bike_id":"e9f581c0-f781-4499-8fc4-a5bc32e8edb1","system_id":"levelo_inurba_marseille","lat":43.32477,"lon":5.36564,"is_reserved":false,"is_disabled":false,"rental_uris":{"android":"levelo://app?vid=e9f581c0-f781-4499-8fc4-a5bc32e8edb1","ios":"levelo://app?vid=e9f581c0-f781-4499-8fc4-a5bc32e8edb1"},"vehicle_type_id":"4","last_reported":1720454953,"current_range_meters":22400,"station_id":"ce4bhs12rcd13ifvqhvg","pricing_plan_id":"cebpf4jnsgd1na2vs0mg"},{"bike_id":"53f41f08-9ebe-4743-9c64-53f3d0ac2a2f","system_id":"levelo_inurba_marseille","lat":43.32481,"lon":5.36576,"is_reserved":false,"is_disabled":false,"rental_uris":{"android":"levelo://app?vid=53f41f08-9ebe-4743-9c64-53f3d0ac2a2f","ios":"levelo://app?vid=53f41f08-9ebe-4743-9c64-53f3d0ac2a2f"},"vehicle_type_id":"4","last_reported":1720454953,"current_range_meters":28400,"station_id":"ce4bhs12rcd13ifvqhvg","pricing_plan_id":"cebpf4jnsgd1na2vs0mg"},{"bike_id":"9044fc65-6b14-477a-8ae1-82ade261a156","system_id":"levelo_inurba_marseille","lat":43.324771,"lon":5.36557,"is_reserved":false,"is_disabled":false,"rental_uris":{"android":"levelo://app?vid=9044fc65-6b14-477a-8ae1-82ade261a156","ios":"levelo://app?vid=9044fc65-6b14-477a-8ae1-82ade261a156"},"vehicle_type_id":"4","last_reported":1720454953,"current_range_meters":2000,"station_id":"ce4bhs12rcd13ifvqhvg","pricing_plan_id":"cebpf4jnsgd1na2vs0mg"},{"bike_id":"10c2353a-2c4a-482a-8efb-60eb4dbf93f8","system_id":"levelo_inurba_marseille","lat":43.324844,"lon":5.365713,"is_reserved":false,"is_disabled":false,"rental_uris":{"android":"levelo://app?vid=10c2353a-2c4a-482a-8efb-60eb4dbf93f8","ios":"levelo://app?vid=10c2353a-2c4a-482a-8efb-60eb4dbf93f8"},"vehicle_type_id":"4","last_reported":1720454953,"current_range_meters":7200,"station_id":"ce4bhs12rcd13ifvqhvg","pricing_plan_id":"cebpf4jnsgd1na2vs0mg"},{"bike_id":"9fd9b59a-5da4-4134-b647-b99f24518221","system_id":"levelo_inurba_marseille","lat":43.32485,"lon":5.36573,"is_reserved":false,"is_disabled":false,"rental_uris":{"android":"levelo://app?vid=9fd9b59a-5da4-4134-b647-b99f24518221","ios":"levelo://app?vid=9fd9b59a-5da4-4134-b647-b99f24518221"},"vehicle_type_id":"4","last_reported":1720454953,"current_range_meters":23200,"station_id":"ce4bhs12rcd13ifvqhvg","pricing_plan_id":"cebpf4jnsgd1na2vs0mg"},{"bike_id":"a85b1dd3-55e8-419a-a7b1-9f2c3fdb7142","system_id":"levelo_inurba_marseille","lat":43.324862,"lon":5.365693,"is_reserved":false,"is_disabled":false,"rental_uris":{"android":"levelo://app?vid=a85b1dd3-55e8-419a-a7b1-9f2c3fdb7142","ios":"levelo://app?vid=a85b1dd3-55e8-419a-a7b1-9f2c3fdb7142"},"vehicle_type_id":"4","last_reported":1720454953,"current_range_meters":21600,"station_id":"ce4bhs12rcd13ifvqhvg","pricing_plan_id":"cebpf4jnsgd1na2vs0mg"},{"bike_id":"b43a28a9-b1ff-4ee3-b931-031517361da3","system_id":"levelo_inurba_marseille","lat":43.310804,"lon":5.38359,"is_reserved":false,"is_disabled":false,"rental_uris":{"android":"levelo://app?vid=b43a28a9-b1ff-4ee3-b931-031517361da3","ios":"levelo://app?vid=b43a28a9-b1ff-4ee3-b931-031517361da3"},"vehicle_type_id":"4","last_reported":1720454953,"current_range_meters":400,"station_id":"ce4bgv92rcd13ifvqcr0","pricing_plan_id":"cebpf4jnsgd1na2vs0mg"},{"bike_id":"6af2328f-1dcc-467d-9625-a6129146ae08","system_id":"levelo_inurba_marseille","lat":43.310804,"lon":5.38359,"is_reserved":false,"is_disabled":false,"rental_uris":{"android":"levelo://app?vid=6af2328f-1dcc-467d-9625-a6129146ae08","ios":"levelo://app?vid=6af2328f-1dcc-467d-9625-a6129146ae08"},"vehicle_type_id":"4","last_reported":1720454953,"current_range_meters":27600,"station_id":"ce4bgv92rcd13ifvqcr0","pricing_plan_id":"cebpf4jnsgd1na2vs0mg"},{"bike_id":"5debb59b-3803-4620-9a4e-d0d8ceff5295","system_id":"levelo_inurba_marseille","lat":43.310804,"lon":5.38359,"is_reserved":false,"is_disabled":false,"rental_uris":{"android":"levelo://app?vid=5debb59b-3803-4620-9a4e-d0d8ceff5295","ios":"levelo://app?vid=5debb59b-3803-4620-9a4e-d0d8ceff5295"},"vehicle_type_id":"4","last_reported":1720454953,"current_range_meters":11600,"station_id":"ce4bgv92rcd13ifvqcr0","pricing_plan_id":"cebpf4jnsgd1na2vs0mg"},{"bike_id":"7e4baa22-8059-4d2c-b82c-345d4debdf70","system_id":"levelo_inurba_marseille","lat":43.310804,"lon":5.38359,"is_reserved":false,"is_disabled":false,"rental_uris":{"android":"levelo://app?vid=7e4baa22-8059-4d2c-b82c-345d4debdf70","ios":"levelo://app?vid=7e4baa22-8059-4d2c-b82c-345d4debdf70"},"vehicle_type_id":"4","last_reported":1720454953,"current_range_meters":18400,"station_id":"ce4bgv92rcd13ifvqcr0","pricing_plan_id":"cebpf4jnsgd1na2vs0mg"},{"bike_id":"7758bfa7-0712-460d-8a43-aec26f5fd0ff","system_id":"levelo_inurba_marseille","lat":43.301429,"lon":5.37413,"is_reserved":false,"is_disabled":false,"rental_uris":{"android":"levelo://app?vid=7758bfa7-0712-460d-8a43-aec26f5fd0ff","ios":"levelo://app?vid=7758bfa7-0712-460d-8a43-aec26f5fd0ff"},"vehicle_type_id":"4","last_reported":1720454953,"current_range_meters":2800,"station_id":"ce4bgs92rcd13ifvqcc0","pricing_plan_id":"cebpf4jnsgd1na2vs0mg"},{"bike_id":"0b55f411-6312-4f76-9080-3e855a15bbe0","system_id":"levelo_inurba_marseille","lat":43.31356,"lon":5.38498,"is_reserved":false,"is_disabled":false,"rental_uris":{"android":"levelo://app?vid=0b55f411-6312-4f76-9080-3e855a15bbe0","ios":"levelo://app?vid=0b55f411-6312-4f76-9080-3e855a15bbe0"},"vehicle_type_id":"4","last_reported":1720454953,"current_range_meters":5200,"station_id":"ce4bgt92rcd13ifvqcf0","pricing_plan_id":"cebpf4jnsgd1na2vs0mg"},{"bike_id":"042ff05e-c34b-475d-a4de-14fbada44eef","system_id":"levelo_inurba_marseille","lat":43.299222,"lon":5.365554,"is_reserved":false,"is_disabled":false,"rental_uris":{"android":"levelo://app?vid=042ff05e-c34b-475d-a4de-14fbada44eef","ios":"levelo://app?vid=042ff05e-c34b-475d-a4de-14fbada44eef"},"vehicle_type_id":"4","last_reported":1720454953,"current_range_meters":0,"station_id":"ce4bgm92rcd13ifvqbr0","pricing_plan_id":"cebpf4jnsgd1na2vs0mg"},{"bike_id":"452af770-8b52-46dd-8dcd-3a8c06fa272d","system_id":"levelo_inurba_marseille","lat":43.30292,"lon":5.37927,"is_reserved":false,"is_disabled":false,"rental_uris":{"android":"levelo://app?vid=452af770-8b52-46dd-8dcd-3a8c06fa272d","ios":"levelo://app?vid=452af770-8b52-46dd-8dcd-3a8c06fa272d"},"vehicle_type_id":"4","last_reported":1720454953,"current_range_meters":26000,"station_id":"","pricing_plan_id":"cebpf4jnsgd1na2vs0mg"},{"bike_id":"76cb5440-badc-4429-b9ac-3a9c2adbe2ac","system_id":"levelo_inurba_marseille","lat":43.299352,"lon":5.365568,"is_reserved":false,"is_disabled":false,"rental_uris":{"android":"levelo://app?vid=76cb5440-badc-4429-b9ac-3a9c2adbe2ac","ios":"levelo://app?vid=76cb5440-badc-4429-b9ac-3a9c2adbe2ac"},"vehicle_type_id":"4","last_reported":1720454953,"current_range_meters":0,"station_id":"","pricing_plan_id":"cebpf4jnsgd1na2vs0mg"},{"bike_id":"438f504a-ba5f-4fcd-9bc3-1d0d8a5fae0c","system_id":"levelo_inurba_marseille","lat":43.299724,"lon":5.371829,"is_reserved":false,"is_disabled":false,"rental_uris":{"android":"levelo://app?vid=438f504a-ba5f-4fcd-9bc3-1d0d8a5fae0c","ios":"levelo://app?vid=438f504a-ba5f-4fcd-9bc3-1d0d8a5fae0c"},"vehicle_type_id":"4","last_reported":1720454953,"current_range_meters":8800,"station_id":"ce4bgr92rcd13ifvqc7g","pricing_plan_id":"cebpf4jnsgd1na2vs0mg"},{"bike_id":"62c61346-413a-4f50-a3aa-a909cf380063","system_id":"levelo_inurba_marseille","lat":43.299724,"lon":5.371829,"is_reserved":false,"is_disabled":false,"rental_uris":{"android":"levelo://app?vid=62c61346-413a-4f50-a3aa-a909cf380063","ios":"levelo://app?vid=62c61346-413a-4f50-a3aa-a909cf380063"},"vehicle_type_id":"4","last_reported":1720454953,"current_range_meters":29200,"station_id":"ce4bgr92rcd13ifvqc7g","pricing_plan_id":"cebpf4jnsgd1na2vs0mg"},{"bike_id":"a42ac812-6312-4abe-8362-38417f38be13","system_id":"levelo_inurba_marseille","lat":43.298433,"lon":5.362774,"is_reserved":false,"is_disabled":false,"rental_uris":{"android":"levelo://app?vid=a42ac812-6312-4abe-8362-38417f38be13","ios":"levelo://app?vid=a42ac812-6312-4abe-8362-38417f38be13"},"vehicle_type_id":"4","last_reported":1720454953,"current_range_meters":24800,"station_id":"ce4bgpp2rcd13ifvqc3g","pricing_plan_id":"cebpf4jnsgd1na2vs0mg"},{"bike_id":"4b8bd617-b943-4dd4-a661-44c14848b365","system_id":"levelo_inurba_marseille","lat":43.298433,"lon":5.362774,"is_reserved":false,"is_disabled":false,"rental_uris":{"android":"levelo://app?vid=4b8bd617-b943-4dd4-a661-44c14848b365","ios":"levelo://app?vid=4b8bd617-b943-4dd4-a661-44c14848b365"},"vehicle_type_id":"4","last_reported":1720454953,"current_range_meters":8800,"station_id":"ce4bgpp2rcd13ifvqc3g","pricing_plan_id":"cebpf4jnsgd1na2vs0mg"},{"bike_id":"c08a1459-7e7b-4d0c-bd40-bf1c5c800909","system_id":"levelo_inurba_marseille","lat":43.298433,"lon":5.362774,"is_reserved":false,"is_disabled":false,"rental_uris":{"android":"levelo://app?vid=c08a1459-7e7b-4d0c-bd40-bf1c5c800909","ios":"levelo://app?vid=c08a1459-7e7b-4d0c-bd40-bf1c5c800909"},"vehicle_type_id":"4","last_reported":1720454953,"current_range_meters":0,"station_id":"ce4bgpp2rcd13ifvqc3g","pricing_plan_id":"cebpf4jnsgd1na2vs0mg"},{"bike_id":"f5ffc141-80ae-44ef-bbe6-f2008d630115","system_id":"levelo_inurba_marseille","lat":43.297794,"lon":5.370888,"is_reserved":false,"is_disabled":false,"rental_uris":{"android":"levelo://app?vid=f5ffc141-80ae-44ef-bbe6-f2008d630115","ios":"levelo://app?vid=f5ffc141-80ae-44ef-bbe6-f2008d630115"},"vehicle_type_id":"4","last_reported":1720454953,"current_range_meters":5200,"station_id":"ce4bgop2rcd13ifvqc1g","pricing_plan_id":"cebpf4jnsgd1na2vs0mg"},{"bike_id":"1850a1fa-e612-49a2-a917-0aae7c85fd85","system_id":"levelo_inurba_marseille","lat":43.322872,"lon":5.382756,"is_reserved":false,"is_disabled":false,"rental_uris":{"android":"levelo://app?vid=1850a1fa-e612-49a2-a917-0aae7c85fd85","ios":"levelo://app?vid=1850a1fa-e612-49a2-a917-0aae7c85fd85"},"vehicle_type_id":"4","last_reported":1720454953,"current_range_meters":1600,"station_id":"ce4bhr12rcd13ifvqhqg","pricing_plan_id":"cebpf4jnsgd1na2vs0mg"},{"bike_id":"ab20f38a-9568-4700-a136-c68ec98621f6","system_id":"levelo_inurba_marseille","lat":43.29805,"lon":5.37412,"is_reserved":false,"is_disabled":false,"rental_uris":{"android":"levelo://app?vid=ab20f38a-9568-4700-a136-c68ec98621f6","ios":"levelo://app?vid=ab20f38a-9568-4700-a136-c68ec98621f6"},"vehicle_type_id":"4","last_reported":1720454953,"current_range_meters":16400,"station_id":"","pricing_plan_id":"cebpf4jnsgd1na2vs0mg"},{"bike_id":"897bf193-702e-45dd-86fb-cfda8529a371","system_id":"levelo_inurba_marseille","lat":43.32666,"lon":5.37861,"is_reserved":false,"is_disabled":false,"rental_uris":{"android":"levelo://app?vid=897bf193-702e-45dd-86fb-cfda8529a371","ios":"levelo://app?vid=897bf193-702e-45dd-86fb-cfda8529a371"},"vehicle_type_id":"4","last_reported":1720454953,"current_range_meters":0,"station_id":"","pricing_plan_id":"cebpf4jnsgd1na2vs0mg"},{"bike_id":"7e8ddd76-24e9-4f47-8d8c-783034428a45","system_id":"levelo_inurba_marseille","lat":43.296921,"lon":5.376579,"is_reserved":false,"is_disabled":false,"rental_uris":{"android":"levelo://app?vid=7e8ddd76-24e9-4f47-8d8c-783034428a45","ios":"levelo://app?vid=7e8ddd76-24e9-4f47-8d8c-783034428a45"},"vehicle_type_id":"4","last_reported":1720454953,"current_range_meters":31600,"station_id":"ce4bgkh2rcd13ifvqbl0","pricing_plan_id":"cebpf4jnsgd1na2vs0mg"},{"bike_id":"95be8e53-0614-4e7a-b6ac-2f8c844cd3b0","system_id":"levelo_inurba_marseille","lat":43.309589,"lon":5.390258,"is_reserved":false,"is_disabled":false,"rental_uris":{"android":"levelo://app?vid=95be8e53-0614-4e7a-b6ac-2f8c844cd3b0","ios":"levelo://app?vid=95be8e53-0614-4e7a-b6ac-2f8c844cd3b0"},"vehicle_type_id":"4","last_reported":1720454953,"current_range_meters":0,"station_id":"ce4bgup2rcd13ifvqco0","pricing_plan_id":"cebpf4jnsgd1na2vs0mg"},{"bike_id":"ec66862d-3d0a-4116-a16e-e1d50c272fa9","system_id":"levelo_inurba_marseille","lat":43.29579,"lon":5.37509,"is_reserved":false,"is_disabled":false,"rental_uris":{"android":"levelo://app?vid=ec66862d-3d0a-4116-a16e-e1d50c272fa9","ios":"levelo://app?vid=ec66862d-3d0a-4116-a16e-e1d50c272fa9"},"vehicle_type_id":"4","last_reported":1720454953,"current_range_meters":30800,"station_id":"ce4bgh92rcd13ifvqb50","pricing_plan_id":"cebpf4jnsgd1na2vs0mg"},{"bike_id":"12761743-4513-4a8a-85d0-6df04041dacc","system_id":"levelo_inurba_marseille","lat":43.298764,"lon":5.388973,"is_reserved":false,"is_disabled":false,"rental_uris":{"android":"levelo://app?vid=12761743-4513-4a8a-85d0-6df04041dacc","ios":"levelo://app?vid=12761743-4513-4a8a-85d0-6df04041dacc"},"vehicle_type_id":"4","last_reported":1720454953,"current_range_meters":29200,"station_id":"ce4bh392rcd13ifvqdl0","pricing_plan_id":"cebpf4jnsgd1na2vs0mg"},{"bike_id":"258ec780-1a8f-48d0-9345-f3621fabca36","system_id":"levelo_inurba_marseille","lat":43.3044,"lon":5.38891,"is_reserved":false,"is_disabled":false,"rental_uris":{"android":"levelo://app?vid=258ec780-1a8f-48d0-9345-f3621fabca36","ios":"levelo://app?vid=258ec780-1a8f-48d0-9345-f3621fabca36"},"vehicle_type_id":"4","last_reported":1720454953,"current_range_meters":0,"station_id":"ce4bgk12rcd13ifvqbi0","pricing_plan_id":"cebpf4jnsgd1na2vs0mg"},{"bike_id":"2e02233b-9a70-48ac-a41a-b7df8d068cf4","system_id":"levelo_inurba_marseille","lat":43.29791,"lon":5.38116,"is_reserved":false,"is_disabled":false,"rental_uris":{"android":"levelo://app?vid=2e02233b-9a70-48ac-a41a-b7df8d068cf4","ios":"levelo://app?vid=2e02233b-9a70-48ac-a41a-b7df8d068cf4"},"vehicle_type_id":"4","last_reported":1720454953,"current_range_meters":0,"station_id":"ce4bgip2rcd13ifvqbb0","pricing_plan_id":"cebpf4jnsgd1na2vs0mg"},{"bike_id":"b3fb5284-80b0-40d4-bae2-6e5e5890c0f5","system_id":"levelo_inurba_marseille","lat":43.296263,"lon":5.377094,"is_reserved":false,"is_disabled":false,"rental_uris":{"android":"levelo://app?vid=b3fb5284-80b0-40d4-bae2-6e5e5890c0f5","ios":"levelo://app?vid=b3fb5284-80b0-40d4-bae2-6e5e5890c0f5"},"vehicle_type_id":"4","last_reported":1720454953,"current_range_meters":14000,"station_id":"ce4bgi92rcd13ifvqb90","pricing_plan_id":"cebpf4jnsgd1na2vs0mg"},{"bike_id":"4b1f9864-a31e-4426-97b1-1c86454697bd","system_id":"levelo_inurba_marseille","lat":43.2962,"lon":5.37717,"is_reserved":false,"is_disabled":false,"rental_uris":{"android":"levelo://app?vid=4b1f9864-a31e-4426-97b1-1c86454697bd","ios":"levelo://app?vid=4b1f9864-a31e-4426-97b1-1c86454697bd"},"vehicle_type_id":"4","last_reported":1720454953,"current_range_meters":14400,"station_id":"ce4bgi92rcd13ifvqb90","pricing_plan_id":"cebpf4jnsgd1na2vs0mg"},{"bike_id":"440ba0d0-d98f-4d86-803a-c8aa0cfd05df","system_id":"levelo_inurba_marseille","lat":43.2953,"lon":5.37382,"is_reserved":false,"is_disabled":false,"rental_uris":{"android":"levelo://app?vid=440ba0d0-d98f-4d86-803a-c8aa0cfd05df","ios":"levelo://app?vid=440ba0d0-d98f-4d86-803a-c8aa0cfd05df"},"vehicle_type_id":"4","last_reported":1720454953,"current_range_meters":0,"station_id":"","pricing_plan_id":"cebpf4jnsgd1na2vs0mg"},{"bike_id":"e097a9d7-3220-44d1-833b-22c2d8fe06b0","system_id":"levelo_inurba_marseille","lat":43.304274,"lon":5.388873,"is_reserved":false,"is_disabled":false,"rental_uris":{"android":"levelo://app?vid=e097a9d7-3220-44d1-833b-22c2d8fe06b0","ios":"levelo://app?vid=e097a9d7-3220-44d1-833b-22c2d8fe06b0"},"vehicle_type_id":"4","last_reported":1720454953,"current_range_meters":6000,"station_id":"ce4bgk12rcd13ifvqbi0","pricing_plan_id":"cebpf4jnsgd1na2vs0mg"},{"bike_id":"e1f54ef0-80fb-49c7-9d50-a4c0f0ab2050","system_id":"levelo_inurba_marseille","lat":43.296263,"lon":5.377094,"is_reserved":false,"is_disabled":false,"rental_uris":{"android":"levelo://app?vid=e1f54ef0-80fb-49c7-9d50-a4c0f0ab2050","ios":"levelo://app?vid=e1f54ef0-80fb-49c7-9d50-a4c0f0ab2050"},"vehicle_type_id":"4","last_reported":1720454953,"current_range_meters":7200,"station_id":"ce4bgi92rcd13ifvqb90","pricing_plan_id":"cebpf4jnsgd1na2vs0mg"},{"bike_id":"c4dfbc80-0981-498c-b5a1-9f589b26e220","system_id":"levelo_inurba_marseille","lat":43.29781,"lon":5.38167,"is_reserved":false,"is_disabled":false,"rental_uris":{"android":"levelo://app?vid=c4dfbc80-0981-498c-b5a1-9f589b26e220","ios":"levelo://app?vid=c4dfbc80-0981-498c-b5a1-9f589b26e220"},"vehicle_type_id":"4","last_reported":1720454953,"current_range_meters":18400,"station_id":"","pricing_plan_id":"cebpf4jnsgd1na2vs0mg"},{"bike_id":"371589ae-db02-4df4-90a1-2ba068b8d129","system_id":"levelo_inurba_marseille","lat":43.299724,"lon":5.384848,"is_reserved":false,"is_disabled":false,"rental_uris":{"android":"levelo://app?vid=371589ae-db02-4df4-90a1-2ba068b8d129","ios":"levelo://app?vid=371589ae-db02-4df4-90a1-2ba068b8d129"},"vehicle_type_id":"4","last_reported":1720454953,"current_range_meters":0,"station_id":"ce4bgj92rcd13ifvqbd0","pricing_plan_id":"cebpf4jnsgd1na2vs0mg"},{"bike_id":"b4792281-0566-4f12-ab71-2999902fdff2","system_id":"levelo_inurba_marseille","lat":43.299724,"lon":5.384848,"is_reserved":false,"is_disabled":false,"rental_uris":{"android":"levelo://app?vid=b4792281-0566-4f12-ab71-2999902fdff2","ios":"levelo://app?vid=b4792281-0566-4f12-ab71-2999902fdff2"},"vehicle_type_id":"4","last_reported":1720454953,"current_range_meters":0,"station_id":"ce4bgj92rcd13ifvqbd0","pricing_plan_id":"cebpf4jnsgd1na2vs0mg"},{"bike_id":"8ee15884-65b5-467c-ab22-1bac41134f8a","system_id":"levelo_inurba_marseille","lat":43.32367,"lon":5.388836,"is_reserved":false,"is_disabled":false,"rental_uris":{"android":"levelo://app?vid=8ee15884-65b5-467c-ab22-1bac41134f8a","ios":"levelo://app?vid=8ee15884-65b5-467c-ab22-1bac41134f8a"},"vehicle_type_id":"4","last_reported":1720454953,"current_range_meters":18800,"station_id":"ce4bhqp2rcd13ifvqhog","pricing_plan_id":"cebpf4jnsgd1na2vs0mg"},{"bike_id":"29516bdd-92bc-4c07-86e1-db769784f93d","system_id":"levelo_inurba_marseille","lat":43.29602,"lon":5.381084,"is_reserved":false,"is_disabled":false,"rental_uris":{"android":"levelo://app?vid=29516bdd-92bc-4c07-86e1-db769784f93d","ios":"levelo://app?vid=29516bdd-92bc-4c07-86e1-db769784f93d"},"vehicle_type_id":"4","last_reported":1720454953,"current_range_meters":4000,"station_id":"ce4bgl12rcd13ifvqbo0","pricing_plan_id":"cebpf4jnsgd1na2vs0mg"},{"bike_id":"f4dee150-3cab-4f28-b5d8-9a699b428f96","system_id":"levelo_inurba_marseille","lat":43.293249,"lon":5.371578,"is_reserved":false,"is_disabled":false,"rental_uris":{"android":"levelo://app?vid=f4dee150-3cab-4f28-b5d8-9a699b428f96","ios":"levelo://app?vid=f4dee150-3cab-4f28-b5d8-9a699b428f96"},"vehicle_type_id":"4","last_reported":1720454953,"current_range_meters":6800,"station_id":"ce4bgh92rcd13ifvqb40","pricing_plan_id":"cebpf4jnsgd1na2vs0mg"},{"bike_id":"a82333c8-1a4d-437c-b1ef-c1532857278f","system_id":"levelo_inurba_marseille","lat":43.293249,"lon":5.371578,"is_reserved":false,"is_disabled":false,"rental_uris":{"android":"levelo://app?vid=a82333c8-1a4d-437c-b1ef-c1532857278f","ios":"levelo://app?vid=a82333c8-1a4d-437c-b1ef-c1532857278f"},"vehicle_type_id":"4","last_reported":1720454953,"current_range_meters":31600,"station_id":"ce4bgh92rcd13ifvqb40","pricing_plan_id":"cebpf4jnsgd1na2vs0mg"},{"bike_id":"e4ff31e4-168f-4fab-9ffb-a2100726f39a","system_id":"levelo_inurba_marseille","lat":43.305994,"lon":5.393687,"is_reserved":false,"is_disabled":false,"rental_uris":{"android":"levelo://app?vid=e4ff31e4-168f-4fab-9ffb-a2100726f39a","ios":"levelo://app?vid=e4ff31e4-168f-4fab-9ffb-a2100726f39a"},"vehicle_type_id":"4","last_reported":1720454953,"current_range_meters":15600,"station_id":"ce4bh0p2rcd13ifvqd80","pricing_plan_id":"cebpf4jnsgd1na2vs0mg"},{"bike_id":"dcf14537-9756-49dd-b547-99f9cffe35d7","system_id":"levelo_inurba_marseille","lat":43.305994,"lon":5.393687,"is_reserved":false,"is_disabled":false,"rental_uris":{"android":"levelo://app?vid=dcf14537-9756-49dd-b547-99f9cffe35d7","ios":"levelo://app?vid=dcf14537-9756-49dd-b547-99f9cffe35d7"},"vehicle_type_id":"4","last_reported":1720454953,"current_range_meters":24000,"station_id":"ce4bh0p2rcd13ifvqd80","pricing_plan_id":"cebpf4jnsgd1na2vs0mg"},{"bike_id":"641ebb41-0486-4d18-8bff-9abe5d33a00a","system_id":"levelo_inurba_marseille","lat":43.303002,"lon":5.392142,"is_reserved":false,"is_disabled":false,"rental_uris":{"android":"levelo://app?vid=641ebb41-0486-4d18-8bff-9abe5d33a00a","ios":"levelo://app?vid=641ebb41-0486-4d18-8bff-9abe5d33a00a"},"vehicle_type_id":"4","last_reported":1720454953,"current_range_meters":0,"station_id":"ce4bgkh2rcd13ifvqbk0","pricing_plan_id":"cebpf4jnsgd1na2vs0mg"},{"bike_id":"858d1716-3e7a-4ae4-ac69-68292cc01d44","system_id":"levelo_inurba_marseille","lat":43.2936,"lon":5.37835,"is_reserved":false,"is_disabled":false,"rental_uris":{"android":"levelo://app?vid=858d1716-3e7a-4ae4-ac69-68292cc01d44","ios":"levelo://app?vid=858d1716-3e7a-4ae4-ac69-68292cc01d44"},"vehicle_type_id":"4","last_reported":1720454953,"current_range_meters":9200,"station_id":"ce4bgjh2rcd13ifvqbf0","pricing_plan_id":"cebpf4jnsgd1na2vs0mg"},{"bike_id":"dbbf68d3-5b85-4e22-83c6-bfc751618a77","system_id":"levelo_inurba_marseille","lat":43.29374,"lon":5.37864,"is_reserved":false,"is_disabled":false,"rental_uris":{"android":"levelo://app?vid=dbbf68d3-5b85-4e22-83c6-bfc751618a77","ios":"levelo://app?vid=dbbf68d3-5b85-4e22-83c6-bfc751618a77"},"vehicle_type_id":"4","last_reported":1720454953,"current_range_meters":0,"station_id":"ce4bgjh2rcd13ifvqbf0","pricing_plan_id":"cebpf4jnsgd1na2vs0mg"},{"bike_id":"15c145b1-aff0-4db5-9025-ed2efd4655f1","system_id":"levelo_inurba_marseille","lat":43.2936,"lon":5.37835,"is_reserved":false,"is_disabled":false,"rental_uris":{"android":"levelo://app?vid=15c145b1-aff0-4db5-9025-ed2efd4655f1","ios":"levelo://app?vid=15c145b1-aff0-4db5-9025-ed2efd4655f1"},"vehicle_type_id":"4","last_reported":1720454953,"current_range_meters":11200,"station_id":"ce4bgjh2rcd13ifvqbf0","pricing_plan_id":"cebpf4jnsgd1na2vs0mg"},{"bike_id":"ed6d60b1-23e5-4632-970e-8058d4fccf8c","system_id":"levelo_inurba_marseille","lat":43.292311,"lon":5.360731,"is_reserved":false,"is_disabled":false,"rental_uris":{"android":"levelo://app?vid=ed6d60b1-23e5-4632-970e-8058d4fccf8c","ios":"levelo://app?vid=ed6d60b1-23e5-4632-970e-8058d4fccf8c"},"vehicle_type_id":"4","last_reported":1720454953,"current_range_meters":19600,"station_id":"ce4bhbh2rcd13ifvqeqg","pricing_plan_id":"cebpf4jnsgd1na2vs0mg"},{"bike_id":"a9684b05-da30-4314-b1ee-582ecb487ef0","system_id":"levelo_inurba_marseille","lat":43.29223,"lon":5.36057,"is_reserved":false,"is_disabled":false,"rental_uris":{"android":"levelo://app?vid=a9684b05-da30-4314-b1ee-582ecb487ef0","ios":"levelo://app?vid=a9684b05-da30-4314-b1ee-582ecb487ef0"},"vehicle_type_id":"4","last_reported":1720454953,"current_range_meters":0,"station_id":"ce4bhbh2rcd13ifvqeqg","pricing_plan_id":"cebpf4jnsgd1na2vs0mg"},{"bike_id":"2c8b7ad8-5acf-4531-94ee-c7aa2fd96bf8","system_id":"levelo_inurba_marseille","lat":43.300852,"lon":5.390859,"is_reserved":false,"is_disabled":false,"rental_uris":{"android":"levelo://app?vid=2c8b7ad8-5acf-4531-94ee-c7aa2fd96bf8","ios":"levelo://app?vid=2c8b7ad8-5acf-4531-94ee-c7aa2fd96bf8"},"vehicle_type_id":"4","last_reported":1720454953,"current_range_meters":13200,"station_id":"ce4bh192rcd13ifvqdb0","pricing_plan_id":"cebpf4jnsgd1na2vs0mg"},{"bike_id":"49b95668-cf5c-466f-a3ae-4c6dae367326","system_id":"levelo_inurba_marseille","lat":43.29878,"lon":5.38899,"is_reserved":false,"is_disabled":false,"rental_uris":{"android":"levelo://app?vid=49b95668-cf5c-466f-a3ae-4c6dae367326","ios":"levelo://app?vid=49b95668-cf5c-466f-a3ae-4c6dae367326"},"vehicle_type_id":"4","last_reported":1720454953,"current_range_meters":0,"station_id":"ce4bh392rcd13ifvqdl0","pricing_plan_id":"cebpf4jnsgd1na2vs0mg"},{"bike_id":"21d59d34-aea0-420e-accf-639194444696","system_id":"levelo_inurba_marseille","lat":43.313291,"lon":5.396838,"is_reserved":false,"is_disabled":false,"rental_uris":{"android":"levelo://app?vid=21d59d34-aea0-420e-accf-639194444696","ios":"levelo://app?vid=21d59d34-aea0-420e-accf-639194444696"},"vehicle_type_id":"4","last_reported":1720454953,"current_range_meters":4400,"station_id":"ce4bgvp2rcd13ifvqcu0","pricing_plan_id":"cebpf4jnsgd1na2vs0mg"},{"bike_id":"4f92d22f-677f-4790-b520-6446f7258cb5","system_id":"levelo_inurba_marseille","lat":43.291671,"lon":5.371575,"is_reserved":false,"is_disabled":false,"rental_uris":{"android":"levelo://app?vid=4f92d22f-677f-4790-b520-6446f7258cb5","ios":"levelo://app?vid=4f92d22f-677f-4790-b520-6446f7258cb5"},"vehicle_type_id":"4","last_reported":1720454953,"current_range_meters":30800,"station_id":"ce4bha92rcd13ifvqeh0","pricing_plan_id":"cebpf4jnsgd1na2vs0mg"},{"bike_id":"4d083dea-093e-46ce-86a9-8b43179560c0","system_id":"levelo_inurba_marseille","lat":43.291994,"lon":5.357886,"is_reserved":false,"is_disabled":false,"rental_uris":{"android":"levelo://app?vid=4d083dea-093e-46ce-86a9-8b43179560c0","ios":"levelo://app?vid=4d083dea-093e-46ce-86a9-8b43179560c0"},"vehicle_type_id":"4","last_reported":1720454953,"current_range_meters":25600,"station_id":"ce4bhb12rcd13ifvqel0","pricing_plan_id":"cebpf4jnsgd1na2vs0mg"},{"bike_id":"6a2b3d41-c41e-4bc1-ad0f-c7c82fd93058","system_id":"levelo_inurba_marseille","lat":43.292005,"lon":5.357875,"is_reserved":false,"is_disabled":false,"rental_uris":{"android":"levelo://app?vid=6a2b3d41-c41e-4bc1-ad0f-c7c82fd93058","ios":"levelo://app?vid=6a2b3d41-c41e-4bc1-ad0f-c7c82fd93058"},"vehicle_type_id":"4","last_reported":1720454953,"current_range_meters":800,"station_id":"ce4bhb12rcd13ifvqel0","pricing_plan_id":"cebpf4jnsgd1na2vs0mg"},{"bike_id":"4c9016b1-4afe-4b25-9516-5b4000a36dda","system_id":"levelo_inurba_marseille","lat":43.313291,"lon":5.396838,"is_reserved":false,"is_disabled":false,"rental_uris":{"android":"levelo://app?vid=4c9016b1-4afe-4b25-9516-5b4000a36dda","ios":"levelo://app?vid=4c9016b1-4afe-4b25-9516-5b4000a36dda"},"vehicle_type_id":"4","last_reported":1720454953,"current_range_meters":400,"station_id":"ce4bgvp2rcd13ifvqcu0","pricing_plan_id":"cebpf4jnsgd1na2vs0mg"},{"bike_id":"e7cca399-336f-4918-b4d8-2e206338385c","system_id":"levelo_inurba_marseille","lat":43.313291,"lon":5.396838,"is_reserved":false,"is_disabled":false,"rental_uris":{"android":"levelo://app?vid=e7cca399-336f-4918-b4d8-2e206338385c","ios":"levelo://app?vid=e7cca399-336f-4918-b4d8-2e206338385c"},"vehicle_type_id":"4","last_reported":1720454953,"current_range_meters":26000,"station_id":"ce4bgvp2rcd13ifvqcu0","pricing_plan_id":"cebpf4jnsgd1na2vs0mg"},{"bike_id":"d18342e6-8c64-4201-b5e4-4de008c9a2ed","system_id":"levelo_inurba_marseille","lat":43.29529,"lon":5.385581,"is_reserved":false,"is_disabled":false,"rental_uris":{"android":"levelo://app?vid=d18342e6-8c64-4201-b5e4-4de008c9a2ed","ios":"levelo://app?vid=d18342e6-8c64-4201-b5e4-4de008c9a2ed"},"vehicle_type_id":"4","last_reported":1720454953,"current_range_meters":2400,"station_id":"ce4bgih2rcd13ifvqba0","pricing_plan_id":"cebpf4jnsgd1na2vs0mg"},{"bike_id":"b387303b-cbb1-4512-88a7-eeb9a11e0938","system_id":"levelo_inurba_marseille","lat":43.29529,"lon":5.385581,"is_reserved":false,"is_disabled":false,"rental_uris":{"android":"levelo://app?vid=b387303b-cbb1-4512-88a7-eeb9a11e0938","ios":"levelo://app?vid=b387303b-cbb1-4512-88a7-eeb9a11e0938"},"vehicle_type_id":"4","last_reported":1720454953,"current_range_meters":3600,"station_id":"ce4bgih2rcd13ifvqba0","pricing_plan_id":"cebpf4jnsgd1na2vs0mg"},{"bike_id":"6f37a52d-4ae8-469a-b8b8-12de669b661b","system_id":"levelo_inurba_marseille","lat":43.29529,"lon":5.385581,"is_reserved":false,"is_disabled":false,"rental_uris":{"android":"levelo://app?vid=6f37a52d-4ae8-469a-b8b8-12de669b661b","ios":"levelo://app?vid=6f37a52d-4ae8-469a-b8b8-12de669b661b"},"vehicle_type_id":"4","last_reported":1720454953,"current_range_meters":22000,"station_id":"ce4bgih2rcd13ifvqba0","pricing_plan_id":"cebpf4jnsgd1na2vs0mg"},{"bike_id":"caab8459-6cd0-4a74-b461-418721998ec3","system_id":"levelo_inurba_marseille","lat":43.290779,"lon":5.371482,"is_reserved":false,"is_disabled":false,"rental_uris":{"android":"levelo://app?vid=caab8459-6cd0-4a74-b461-418721998ec3","ios":"levelo://app?vid=caab8459-6cd0-4a74-b461-418721998ec3"},"vehicle_type_id":"4","last_reported":1720454953,"current_range_meters":0,"station_id":"ce4bh5p2rcd13ifvqe4g","pricing_plan_id":"cebpf4jnsgd1na2vs0mg"},{"bike_id":"47027a92-e919-4cb4-986d-189bfaa8ce78","system_id":"levelo_inurba_marseille","lat":43.29034,"lon":5.36976,"is_reserved":false,"is_disabled":false,"rental_uris":{"android":"levelo://app?vid=47027a92-e919-4cb4-986d-189bfaa8ce78","ios":"levelo://app?vid=47027a92-e919-4cb4-986d-189bfaa8ce78"},"vehicle_type_id":"4","last_reported":1720454953,"current_range_meters":24400,"station_id":"","pricing_plan_id":"cebpf4jnsgd1na2vs0mg"},{"bike_id":"880d14f7-9d41-4e06-acab-006e6cb7d3d8","system_id":"levelo_inurba_marseille","lat":43.29014,"lon":5.36799,"is_reserved":false,"is_disabled":false,"rental_uris":{"android":"levelo://app?vid=880d14f7-9d41-4e06-acab-006e6cb7d3d8","ios":"levelo://app?vid=880d14f7-9d41-4e06-acab-006e6cb7d3d8"},"vehicle_type_id":"4","last_reported":1720454953,"current_range_meters":21600,"station_id":"","pricing_plan_id":"cebpf4jnsgd1na2vs0mg"},{"bike_id":"79dd11c4-aba5-4d68-8969-c9e07f40277a","system_id":"levelo_inurba_marseille","lat":43.302008,"lon":5.394694,"is_reserved":false,"is_disabled":false,"rental_uris":{"android":"levelo://app?vid=79dd11c4-aba5-4d68-8969-c9e07f40277a","ios":"levelo://app?vid=79dd11c4-aba5-4d68-8969-c9e07f40277a"},"vehicle_type_id":"4","last_reported":1720454953,"current_range_meters":13200,"station_id":"ce4bh0p2rcd13ifvqd70","pricing_plan_id":"cebpf4jnsgd1na2vs0mg"},{"bike_id":"b9126a3a-b7d9-457b-8590-d87e63bbadf7","system_id":"levelo_inurba_marseille","lat":43.290624,"lon":5.359245,"is_reserved":false,"is_disabled":false,"rental_uris":{"android":"levelo://app?vid=b9126a3a-b7d9-457b-8590-d87e63bbadf7","ios":"levelo://app?vid=b9126a3a-b7d9-457b-8590-d87e63bbadf7"},"vehicle_type_id":"4","last_reported":1720454953,"current_range_meters":18800,"station_id":"ce4bha92rcd13ifvqeg0","pricing_plan_id":"cebpf4jnsgd1na2vs0mg"},{"bike_id":"94b3a7b4-663c-4c96-9acb-e747e8c264c4","system_id":"levelo_inurba_marseille","lat":43.290327,"lon":5.375711,"is_reserved":false,"is_disabled":false,"rental_uris":{"android":"levelo://app?vid=94b3a7b4-663c-4c96-9acb-e747e8c264c4","ios":"levelo://app?vid=94b3a7b4-663c-4c96-9acb-e747e8c264c4"},"vehicle_type_id":"4","last_reported":1720454953,"current_range_meters":1200,"station_id":"ce4bh692rcd13ifvqe90","pricing_plan_id":"cebpf4jnsgd1na2vs0mg"},{"bike_id":"f0a28032-f5db-4d59-a1be-ab941f28944e","system_id":"levelo_inurba_marseille","lat":43.294153,"lon":5.386305,"is_reserved":false,"is_disabled":false,"rental_uris":{"android":"levelo://app?vid=f0a28032-f5db-4d59-a1be-ab941f28944e","ios":"levelo://app?vid=f0a28032-f5db-4d59-a1be-ab941f28944e"},"vehicle_type_id":"4","last_reported":1720454953,"current_range_meters":15200,"station_id":"ce4bh2h2rcd13ifvqdh0","pricing_plan_id":"cebpf4jnsgd1na2vs0mg"},{"bike_id":"af63b1b7-7269-4091-80ce-ea86852f84fe","system_id":"levelo_inurba_marseille","lat":43.294162,"lon":5.386292,"is_reserved":false,"is_disabled":false,"rental_uris":{"android":"levelo://app?vid=af63b1b7-7269-4091-80ce-ea86852f84fe","ios":"levelo://app?vid=af63b1b7-7269-4091-80ce-ea86852f84fe"},"vehicle_type_id":"4","last_reported":1720454953,"current_range_meters":8800,"station_id":"ce4bh2h2rcd13ifvqdh0","pricing_plan_id":"cebpf4jnsgd1na2vs0mg"},{"bike_id":"b5ed2ca9-ba46-4911-9808-3ae9b1f85f98","system_id":"levelo_inurba_marseille","lat":43.294207,"lon":5.38629,"is_reserved":false,"is_disabled":false,"rental_uris":{"android":"levelo://app?vid=b5ed2ca9-ba46-4911-9808-3ae9b1f85f98","ios":"levelo://app?vid=b5ed2ca9-ba46-4911-9808-3ae9b1f85f98"},"vehicle_type_id":"4","last_reported":1720454953,"current_range_meters":0,"station_id":"ce4bh2h2rcd13ifvqdh0","pricing_plan_id":"cebpf4jnsgd1na2vs0mg"},{"bike_id":"1b1c9526-9f28-47f3-9deb-16c2b315986c","system_id":"levelo_inurba_marseille","lat":43.294162,"lon":5.386292,"is_reserved":false,"is_disabled":false,"rental_uris":{"android":"levelo://app?vid=1b1c9526-9f28-47f3-9deb-16c2b315986c","ios":"levelo://app?vid=1b1c9526-9f28-47f3-9deb-16c2b315986c"},"vehicle_type_id":"4","last_reported":1720454953,"current_range_meters":7200,"station_id":"ce4bh2h2rcd13ifvqdh0","pricing_plan_id":"cebpf4jnsgd1na2vs0mg"},{"bike_id":"95399f94-c17c-49f5-981d-7a6160adf6d4","system_id":"levelo_inurba_marseille","lat":43.294162,"lon":5.386292,"is_reserved":false,"is_disabled":false,"rental_uris":{"android":"levelo://app?vid=95399f94-c17c-49f5-981d-7a6160adf6d4","ios":"levelo://app?vid=95399f94-c17c-49f5-981d-7a6160adf6d4"},"vehicle_type_id":"4","last_reported":1720454953,"current_range_meters":0,"station_id":"ce4bh2h2rcd13ifvqdh0","pricing_plan_id":"cebpf4jnsgd1na2vs0mg"},{"bike_id":"d533195d-75e4-470e-b5db-c19394406077","system_id":"levelo_inurba_marseille","lat":43.289468,"lon":5.363719,"is_reserved":false,"is_disabled":false,"rental_uris":{"android":"levelo://app?vid=d533195d-75e4-470e-b5db-c19394406077","ios":"levelo://app?vid=d533195d-75e4-470e-b5db-c19394406077"},"vehicle_type_id":"4","last_reported":1720454953,"current_range_meters":0,"station_id":"ce4bhc92rcd13ifvqetg","pricing_plan_id":"cebpf4jnsgd1na2vs0mg"},{"bike_id":"deb84e25-cfe4-4d66-a9e5-2bc224232ab8","system_id":"levelo_inurba_marseille","lat":43.28936,"lon":5.36635,"is_reserved":false,"is_disabled":false,"rental_uris":{"android":"levelo://app?vid=deb84e25-cfe4-4d66-a9e5-2bc224232ab8","ios":"levelo://app?vid=deb84e25-cfe4-4d66-a9e5-2bc224232ab8"},"vehicle_type_id":"4","last_reported":1720454953,"current_range_meters":0,"station_id":"ce4bhap2rcd13ifvqek0","pricing_plan_id":"cebpf4jnsgd1na2vs0mg"},{"bike_id":"356a12ac-304e-4744-aa78-b5c635b9d639","system_id":"levelo_inurba_marseille","lat":43.289468,"lon":5.363719,"is_reserved":false,"is_disabled":false,"rental_uris":{"android":"levelo://app?vid=356a12ac-304e-4744-aa78-b5c635b9d639","ios":"levelo://app?vid=356a12ac-304e-4744-aa78-b5c635b9d639"},"vehicle_type_id":"4","last_reported":1720454953,"current_range_meters":7200,"station_id":"ce4bhc92rcd13ifvqetg","pricing_plan_id":"cebpf4jnsgd1na2vs0mg"},{"bike_id":"c89fb063-9df0-4306-afd7-1a5a4b144429","system_id":"levelo_inurba_marseille","lat":43.304296,"lon":5.397513,"is_reserved":false,"is_disabled":false,"rental_uris":{"android":"levelo://app?vid=c89fb063-9df0-4306-afd7-1a5a4b144429","ios":"levelo://app?vid=c89fb063-9df0-4306-afd7-1a5a4b144429"},"vehicle_type_id":"4","last_reported":1720454953,"current_range_meters":6000,"station_id":"ce4bh092rcd13ifvqd20","pricing_plan_id":"cebpf4jnsgd1na2vs0mg"},{"bike_id":"3c88cbb4-4bb4-4339-9fcf-a3edca208336","system_id":"levelo_inurba_marseille","lat":43.29195,"lon":5.38278,"is_reserved":false,"is_disabled":false,"rental_uris":{"android":"levelo://app?vid=3c88cbb4-4bb4-4339-9fcf-a3edca208336","ios":"levelo://app?vid=3c88cbb4-4bb4-4339-9fcf-a3edca208336"},"vehicle_type_id":"4","last_reported":1720454953,"current_range_meters":0,"station_id":"","pricing_plan_id":"cebpf4jnsgd1na2vs0mg"},{"bike_id":"709140ca-448d-450b-bd96-fe1ef7972e81","system_id":"levelo_inurba_marseille","lat":43.2926,"lon":5.38452,"is_reserved":false,"is_disabled":false,"rental_uris":{"android":"levelo://app?vid=709140ca-448d-450b-bd96-fe1ef7972e81","ios":"levelo://app?vid=709140ca-448d-450b-bd96-fe1ef7972e81"},"vehicle_type_id":"4","last_reported":1720454953,"current_range_meters":0,"station_id":"ce4bh692rcd13ifvqea0","pricing_plan_id":"cebpf4jnsgd1na2vs0mg"},{"bike_id":"71c5bb6b-cd81-49e2-8632-b27dd24b9d04","system_id":"levelo_inurba_marseille","lat":43.290104,"lon":5.356111,"is_reserved":false,"is_disabled":false,"rental_uris":{"android":"levelo://app?vid=71c5bb6b-cd81-49e2-8632-b27dd24b9d04","ios":"levelo://app?vid=71c5bb6b-cd81-49e2-8632-b27dd24b9d04"},"vehicle_type_id":"4","last_reported":1720454953,"current_range_meters":2000,"station_id":"ce4bhb92rcd13ifvqen0","pricing_plan_id":"cebpf4jnsgd1na2vs0mg"},{"bike_id":"b38ff8fc-030e-473d-a852-dd5cdb0e3390","system_id":"levelo_inurba_marseille","lat":43.290103,"lon":5.356114,"is_reserved":false,"is_disabled":false,"rental_uris":{"android":"levelo://app?vid=b38ff8fc-030e-473d-a852-dd5cdb0e3390","ios":"levelo://app?vid=b38ff8fc-030e-473d-a852-dd5cdb0e3390"},"vehicle_type_id":"4","last_reported":1720454953,"current_range_meters":21200,"station_id":"ce4bhb92rcd13ifvqen0","pricing_plan_id":"cebpf4jnsgd1na2vs0mg"},{"bike_id":"0f3c56c6-4695-4c2d-97d0-515f89d56076","system_id":"levelo_inurba_marseille","lat":43.290103,"lon":5.356114,"is_reserved":false,"is_disabled":false,"rental_uris":{"android":"levelo://app?vid=0f3c56c6-4695-4c2d-97d0-515f89d56076","ios":"levelo://app?vid=0f3c56c6-4695-4c2d-97d0-515f89d56076"},"vehicle_type_id":"4","last_reported":1720454953,"current_range_meters":26400,"station_id":"ce4bhb92rcd13ifvqen0","pricing_plan_id":"cebpf4jnsgd1na2vs0mg"},{"bike_id":"19d8a945-e9b5-4250-a661-360a8aa14567","system_id":"levelo_inurba_marseille","lat":43.330442,"lon":5.389148,"is_reserved":false,"is_disabled":false,"rental_uris":{"android":"levelo://app?vid=19d8a945-e9b5-4250-a661-360a8aa14567","ios":"levelo://app?vid=19d8a945-e9b5-4250-a661-360a8aa14567"},"vehicle_type_id":"4","last_reported":1720454953,"current_range_meters":16800,"station_id":"ce4bhr92rcd13ifvqhrg","pricing_plan_id":"cebpf4jnsgd1na2vs0mg"},{"bike_id":"9d3f78b1-3927-4f46-9782-0ceb5aaa9eb4","system_id":"levelo_inurba_marseille","lat":43.295169,"lon":5.390426,"is_reserved":false,"is_disabled":false,"rental_uris":{"android":"levelo://app?vid=9d3f78b1-3927-4f46-9782-0ceb5aaa9eb4","ios":"levelo://app?vid=9d3f78b1-3927-4f46-9782-0ceb5aaa9eb4"},"vehicle_type_id":"4","last_reported":1720454953,"current_range_meters":16800,"station_id":"ce4bh3p2rcd13ifvqdp0","pricing_plan_id":"cebpf4jnsgd1na2vs0mg"},{"bike_id":"133aa7a2-f34b-4593-a31b-86e09a4c0f90","system_id":"levelo_inurba_marseille","lat":43.295169,"lon":5.390426,"is_reserved":false,"is_disabled":false,"rental_uris":{"android":"levelo://app?vid=133aa7a2-f34b-4593-a31b-86e09a4c0f90","ios":"levelo://app?vid=133aa7a2-f34b-4593-a31b-86e09a4c0f90"},"vehicle_type_id":"4","last_reported":1720454953,"current_range_meters":26800,"station_id":"ce4bh3p2rcd13ifvqdp0","pricing_plan_id":"cebpf4jnsgd1na2vs0mg"},{"bike_id":"2783d2d4-d4b3-4355-8ef6-5a8523278c15","system_id":"levelo_inurba_marseille","lat":43.2896,"lon":5.37847,"is_reserved":false,"is_disabled":false,"rental_uris":{"android":"levelo://app?vid=2783d2d4-d4b3-4355-8ef6-5a8523278c15","ios":"levelo://app?vid=2783d2d4-d4b3-4355-8ef6-5a8523278c15"},"vehicle_type_id":"4","last_reported":1720454953,"current_range_meters":0,"station_id":"ce4bh9p2rcd13ifvqed0","pricing_plan_id":"cebpf4jnsgd1na2vs0mg"},{"bike_id":"aba86010-86c1-4bea-b5b1-614fc238a1b8","system_id":"levelo_inurba_marseille","lat":43.28877,"lon":5.3591,"is_reserved":false,"is_disabled":false,"rental_uris":{"android":"levelo://app?vid=aba86010-86c1-4bea-b5b1-614fc238a1b8","ios":"levelo://app?vid=aba86010-86c1-4bea-b5b1-614fc238a1b8"},"vehicle_type_id":"4","last_reported":1720454953,"current_range_meters":16000,"station_id":"","pricing_plan_id":"cebpf4jnsgd1na2vs0mg"},{"bike_id":"c1855cc1-a99c-4e38-8898-6aedda91bb54","system_id":"levelo_inurba_marseille","lat":43.28856,"lon":5.358371,"is_reserved":false,"is_disabled":false,"rental_uris":{"android":"levelo://app?vid=c1855cc1-a99c-4e38-8898-6aedda91bb54","ios":"levelo://app?vid=c1855cc1-a99c-4e38-8898-6aedda91bb54"},"vehicle_type_id":"4","last_reported":1720454953,"current_range_meters":0,"station_id":"ce4bhb12rcd13ifvqem0","pricing_plan_id":"cebpf4jnsgd1na2vs0mg"},{"bike_id":"65996993-78e6-4137-a3be-638d2c606f7c","system_id":"levelo_inurba_marseille","lat":43.28851,"lon":5.35846,"is_reserved":false,"is_disabled":false,"rental_uris":{"android":"levelo://app?vid=65996993-78e6-4137-a3be-638d2c606f7c","ios":"levelo://app?vid=65996993-78e6-4137-a3be-638d2c606f7c"},"vehicle_type_id":"4","last_reported":1720454953,"current_range_meters":20800,"station_id":"ce4bhb12rcd13ifvqem0","pricing_plan_id":"cebpf4jnsgd1na2vs0mg"},{"bike_id":"a8a23861-0b74-4346-a6ad-13be190f4393","system_id":"levelo_inurba_marseille","lat":43.309371,"lon":5.401449,"is_reserved":false,"is_disabled":false,"rental_uris":{"android":"levelo://app?vid=a8a23861-0b74-4346-a6ad-13be190f4393","ios":"levelo://app?vid=a8a23861-0b74-4346-a6ad-13be190f4393"},"vehicle_type_id":"4","last_reported":1720454953,"current_range_meters":0,"station_id":"ce4bgvp2rcd13ifvqct0","pricing_plan_id":"cebpf4jnsgd1na2vs0mg"},{"bike_id":"9366f619-009b-45e5-ba62-de7bc50d4da0","system_id":"levelo_inurba_marseille","lat":43.3375,"lon":5.37479,"is_reserved":false,"is_disabled":false,"rental_uris":{"android":"levelo://app?vid=9366f619-009b-45e5-ba62-de7bc50d4da0","ios":"levelo://app?vid=9366f619-009b-45e5-ba62-de7bc50d4da0"},"vehicle_type_id":"4","last_reported":1720454953,"current_range_meters":28000,"station_id":"","pricing_plan_id":"cebpf4jnsgd1na2vs0mg"},{"bike_id":"aebb537c-93e0-44ae-9e1f-23e4cf7d7a32","system_id":"levelo_inurba_marseille","lat":43.3377,"lon":5.37462,"is_reserved":false,"is_disabled":false,"rental_uris":{"android":"levelo://app?vid=aebb537c-93e0-44ae-9e1f-23e4cf7d7a32","ios":"levelo://app?vid=aebb537c-93e0-44ae-9e1f-23e4cf7d7a32"},"vehicle_type_id":"4","last_reported":1720454953,"current_range_meters":10400,"station_id":"","pricing_plan_id":"cebpf4jnsgd1na2vs0mg"},{"bike_id":"06815810-8cb6-4946-9ef7-037c52328105","system_id":"levelo_inurba_marseille","lat":43.301117,"lon":5.398795,"is_reserved":false,"is_disabled":false,"rental_uris":{"android":"levelo://app?vid=06815810-8cb6-4946-9ef7-037c52328105","ios":"levelo://app?vid=06815810-8cb6-4946-9ef7-037c52328105"},"vehicle_type_id":"4","last_reported":1720454953,"current_range_meters":10000,"station_id":"ce4bh0h2rcd13ifvqd40","pricing_plan_id":"cebpf4jnsgd1na2vs0mg"},{"bike_id":"55653093-405e-49bf-877c-2fbf47c42743","system_id":"levelo_inurba_marseille","lat":43.28727,"lon":5.36078,"is_reserved":false,"is_disabled":false,"rental_uris":{"android":"levelo://app?vid=55653093-405e-49bf-877c-2fbf47c42743","ios":"levelo://app?vid=55653093-405e-49bf-877c-2fbf47c42743"},"vehicle_type_id":"4","last_reported":1720454953,"current_range_meters":8800,"station_id":"cki0cbj6b192h4jlfktg","pricing_plan_id":"cebpf4jnsgd1na2vs0mg"},{"bike_id":"7475da3b-3bc3-4e35-aa07-6712b6330195","system_id":"levelo_inurba_marseille","lat":43.28727,"lon":5.36078,"is_reserved":false,"is_disabled":false,"rental_uris":{"android":"levelo://app?vid=7475da3b-3bc3-4e35-aa07-6712b6330195","ios":"levelo://app?vid=7475da3b-3bc3-4e35-aa07-6712b6330195"},"vehicle_type_id":"4","last_reported":1720454953,"current_range_meters":5200,"station_id":"cki0cbj6b192h4jlfktg","pricing_plan_id":"cebpf4jnsgd1na2vs0mg"},{"bike_id":"d3db9af4-1bcc-4856-ad52-030b273a133c","system_id":"levelo_inurba_marseille","lat":43.28727,"lon":5.36078,"is_reserved":false,"is_disabled":false,"rental_uris":{"android":"levelo://app?vid=d3db9af4-1bcc-4856-ad52-030b273a133c","ios":"levelo://app?vid=d3db9af4-1bcc-4856-ad52-030b273a133c"},"vehicle_type_id":"4","last_reported":1720454953,"current_range_meters":11200,"station_id":"cki0cbj6b192h4jlfktg","pricing_plan_id":"cebpf4jnsgd1na2vs0mg"},{"bike_id":"c6fab8e5-2f83-4125-aa4f-9cbd66338224","system_id":"levelo_inurba_marseille","lat":43.28716,"lon":5.373825,"is_reserved":false,"is_disabled":false,"rental_uris":{"android":"levelo://app?vid=c6fab8e5-2f83-4125-aa4f-9cbd66338224","ios":"levelo://app?vid=c6fab8e5-2f83-4125-aa4f-9cbd66338224"},"vehicle_type_id":"4","last_reported":1720454953,"current_range_meters":30400,"station_id":"ce4bh3p2rcd13ifvqdq0","pricing_plan_id":"cebpf4jnsgd1na2vs0mg"},{"bike_id":"6a051448-0670-4581-8d9f-c208992e0ebd","system_id":"levelo_inurba_marseille","lat":43.286961,"lon":5.373785,"is_reserved":false,"is_disabled":false,"rental_uris":{"android":"levelo://app?vid=6a051448-0670-4581-8d9f-c208992e0ebd","ios":"levelo://app?vid=6a051448-0670-4581-8d9f-c208992e0ebd"},"vehicle_type_id":"4","last_reported":1720454953,"current_range_meters":14000,"station_id":"ce4bh3p2rcd13ifvqdq0","pricing_plan_id":"cebpf4jnsgd1na2vs0mg"},{"bike_id":"eca6f321-ab3e-47ed-b318-13778bf09e73","system_id":"levelo_inurba_marseille","lat":43.286961,"lon":5.373785,"is_reserved":false,"is_disabled":false,"rental_uris":{"android":"levelo://app?vid=eca6f321-ab3e-47ed-b318-13778bf09e73","ios":"levelo://app?vid=eca6f321-ab3e-47ed-b318-13778bf09e73"},"vehicle_type_id":"4","last_reported":1720454953,"current_range_meters":31200,"station_id":"ce4bh3p2rcd13ifvqdq0","pricing_plan_id":"cebpf4jnsgd1na2vs0mg"},{"bike_id":"c3e417a7-7381-4a1d-8ecc-806bd7f403e3","system_id":"levelo_inurba_marseille","lat":43.286593,"lon":5.363346,"is_reserved":false,"is_disabled":false,"rental_uris":{"android":"levelo://app?vid=c3e417a7-7381-4a1d-8ecc-806bd7f403e3","ios":"levelo://app?vid=c3e417a7-7381-4a1d-8ecc-806bd7f403e3"},"vehicle_type_id":"4","last_reported":1720454953,"current_range_meters":0,"station_id":"ce4bhah2rcd13ifvqej0","pricing_plan_id":"cebpf4jnsgd1na2vs0mg"},{"bike_id":"e0c6d65e-7e30-4493-a004-34b23e3b7d3f","system_id":"levelo_inurba_marseille","lat":43.286961,"lon":5.373785,"is_reserved":false,"is_disabled":false,"rental_uris":{"android":"levelo://app?vid=e0c6d65e-7e30-4493-a004-34b23e3b7d3f","ios":"levelo://app?vid=e0c6d65e-7e30-4493-a004-34b23e3b7d3f"},"vehicle_type_id":"4","last_reported":1720454953,"current_range_meters":0,"station_id":"ce4bh3p2rcd13ifvqdq0","pricing_plan_id":"cebpf4jnsgd1na2vs0mg"},{"bike_id":"ea6fb3ec-fa77-41ec-9fa2-7fbe97e64e90","system_id":"levelo_inurba_marseille","lat":43.286593,"lon":5.363346,"is_reserved":false,"is_disabled":false,"rental_uris":{"android":"levelo://app?vid=ea6fb3ec-fa77-41ec-9fa2-7fbe97e64e90","ios":"levelo://app?vid=ea6fb3ec-fa77-41ec-9fa2-7fbe97e64e90"},"vehicle_type_id":"4","last_reported":1720454953,"current_range_meters":0,"station_id":"ce4bhah2rcd13ifvqej0","pricing_plan_id":"cebpf4jnsgd1na2vs0mg"},{"bike_id":"ac341151-311a-4036-ad81-67b2659be4ed","system_id":"levelo_inurba_marseille","lat":43.295194,"lon":5.39397,"is_reserved":false,"is_disabled":false,"rental_uris":{"android":"levelo://app?vid=ac341151-311a-4036-ad81-67b2659be4ed","ios":"levelo://app?vid=ac341151-311a-4036-ad81-67b2659be4ed"},"vehicle_type_id":"4","last_reported":1720454953,"current_range_meters":14000,"station_id":"ce4bh292rcd13ifvqdf0","pricing_plan_id":"cebpf4jnsgd1na2vs0mg"},{"bike_id":"a3d60836-19eb-4052-b420-3d08582c75fa","system_id":"levelo_inurba_marseille","lat":43.286961,"lon":5.373785,"is_reserved":false,"is_disabled":false,"rental_uris":{"android":"levelo://app?vid=a3d60836-19eb-4052-b420-3d08582c75fa","ios":"levelo://app?vid=a3d60836-19eb-4052-b420-3d08582c75fa"},"vehicle_type_id":"4","last_reported":1720454953,"current_range_meters":12400,"station_id":"ce4bh3p2rcd13ifvqdq0","pricing_plan_id":"cebpf4jnsgd1na2vs0mg"},{"bike_id":"2150e5f8-7316-4322-bdb3-c6adfead8d82","system_id":"levelo_inurba_marseille","lat":43.28922,"lon":5.38385,"is_reserved":false,"is_disabled":false,"rental_uris":{"android":"levelo://app?vid=2150e5f8-7316-4322-bdb3-c6adfead8d82","ios":"levelo://app?vid=2150e5f8-7316-4322-bdb3-c6adfead8d82"},"vehicle_type_id":"4","last_reported":1720454953,"current_range_meters":0,"station_id":"ce4bh612rcd13ifvqe6g","pricing_plan_id":"cebpf4jnsgd1na2vs0mg"},{"bike_id":"bb666db8-e993-411c-8abe-633b0e0cc914","system_id":"levelo_inurba_marseille","lat":43.29504,"lon":5.39413,"is_reserved":false,"is_disabled":false,"rental_uris":{"android":"levelo://app?vid=bb666db8-e993-411c-8abe-633b0e0cc914","ios":"levelo://app?vid=bb666db8-e993-411c-8abe-633b0e0cc914"},"vehicle_type_id":"4","last_reported":1720454953,"current_range_meters":0,"station_id":"ce4bh292rcd13ifvqdf0","pricing_plan_id":"cebpf4jnsgd1na2vs0mg"},{"bike_id":"a8adc362-74b9-4c93-90ea-99be00d9f22a","system_id":"levelo_inurba_marseille","lat":43.287184,"lon":5.37937,"is_reserved":false,"is_disabled":false,"rental_uris":{"android":"levelo://app?vid=a8adc362-74b9-4c93-90ea-99be00d9f22a","ios":"levelo://app?vid=a8adc362-74b9-4c93-90ea-99be00d9f22a"},"vehicle_type_id":"4","last_reported":1720454953,"current_range_meters":0,"station_id":"ce4bh9p2rcd13ifvqec0","pricing_plan_id":"cebpf4jnsgd1na2vs0mg"},{"bike_id":"44f2b8ae-a555-4117-bfed-a1c783e17ff4","system_id":"levelo_inurba_marseille","lat":43.287185,"lon":5.379373,"is_reserved":false,"is_disabled":false,"rental_uris":{"android":"levelo://app?vid=44f2b8ae-a555-4117-bfed-a1c783e17ff4","ios":"levelo://app?vid=44f2b8ae-a555-4117-bfed-a1c783e17ff4"},"vehicle_type_id":"4","last_reported":1720454953,"current_range_meters":0,"station_id":"ce4bh9p2rcd13ifvqec0","pricing_plan_id":"cebpf4jnsgd1na2vs0mg"},{"bike_id":"494f88a4-f140-4307-ad49-04d6e1e4880d","system_id":"levelo_inurba_marseille","lat":43.29899,"lon":5.40086,"is_reserved":false,"is_disabled":false,"rental_uris":{"android":"levelo://app?vid=494f88a4-f140-4307-ad49-04d6e1e4880d","ios":"levelo://app?vid=494f88a4-f140-4307-ad49-04d6e1e4880d"},"vehicle_type_id":"4","last_reported":1720454953,"current_range_meters":12400,"station_id":"","pricing_plan_id":"cebpf4jnsgd1na2vs0mg"},{"bike_id":"24fa8b9e-2b09-42ba-9422-ca62090dfb24","system_id":"levelo_inurba_marseille","lat":43.284538,"lon":5.358657,"is_reserved":false,"is_disabled":false,"rental_uris":{"android":"levelo://app?vid=24fa8b9e-2b09-42ba-9422-ca62090dfb24","ios":"levelo://app?vid=24fa8b9e-2b09-42ba-9422-ca62090dfb24"},"vehicle_type_id":"4","last_reported":1720454953,"current_range_meters":9600,"station_id":"ce4bhah2rcd13ifvqei0","pricing_plan_id":"cebpf4jnsgd1na2vs0mg"},{"bike_id":"5e034bdf-eb14-4a0e-8e9c-a6c08b01594c","system_id":"levelo_inurba_marseille","lat":43.284538,"lon":5.358657,"is_reserved":false,"is_disabled":false,"rental_uris":{"android":"levelo://app?vid=5e034bdf-eb14-4a0e-8e9c-a6c08b01594c","ios":"levelo://app?vid=5e034bdf-eb14-4a0e-8e9c-a6c08b01594c"},"vehicle_type_id":"4","last_reported":1720454953,"current_range_meters":8000,"station_id":"ce4bhah2rcd13ifvqei0","pricing_plan_id":"cebpf4jnsgd1na2vs0mg"},{"bike_id":"dc582f5b-713b-40f9-ad55-2b24cdbf8766","system_id":"levelo_inurba_marseille","lat":43.284538,"lon":5.358657,"is_reserved":false,"is_disabled":false,"rental_uris":{"android":"levelo://app?vid=dc582f5b-713b-40f9-ad55-2b24cdbf8766","ios":"levelo://app?vid=dc582f5b-713b-40f9-ad55-2b24cdbf8766"},"vehicle_type_id":"4","last_reported":1720454953,"current_range_meters":30400,"station_id":"ce4bhah2rcd13ifvqei0","pricing_plan_id":"cebpf4jnsgd1na2vs0mg"},{"bike_id":"0cf89ad2-b50a-4806-bdb2-3a11b877b2bc","system_id":"levelo_inurba_marseille","lat":43.284538,"lon":5.358657,"is_reserved":false,"is_disabled":false,"rental_uris":{"android":"levelo://app?vid=0cf89ad2-b50a-4806-bdb2-3a11b877b2bc","ios":"levelo://app?vid=0cf89ad2-b50a-4806-bdb2-3a11b877b2bc"},"vehicle_type_id":"4","last_reported":1720454953,"current_range_meters":31200,"station_id":"ce4bhah2rcd13ifvqei0","pricing_plan_id":"cebpf4jnsgd1na2vs0mg"},{"bike_id":"09e6a6d2-45bf-49f7-90a3-57883448b48c","system_id":"levelo_inurba_marseille","lat":43.284538,"lon":5.358657,"is_reserved":false,"is_disabled":false,"rental_uris":{"android":"levelo://app?vid=09e6a6d2-45bf-49f7-90a3-57883448b48c","ios":"levelo://app?vid=09e6a6d2-45bf-49f7-90a3-57883448b48c"},"vehicle_type_id":"4","last_reported":1720454953,"current_range_meters":0,"station_id":"ce4bhah2rcd13ifvqei0","pricing_plan_id":"cebpf4jnsgd1na2vs0mg"},{"bike_id":"10bcc243-3ea4-4542-b3b7-98e9f6da6d59","system_id":"levelo_inurba_marseille","lat":43.284534,"lon":5.358662,"is_reserved":false,"is_disabled":false,"rental_uris":{"android":"levelo://app?vid=10bcc243-3ea4-4542-b3b7-98e9f6da6d59","ios":"levelo://app?vid=10bcc243-3ea4-4542-b3b7-98e9f6da6d59"},"vehicle_type_id":"4","last_reported":1720454953,"current_range_meters":10000,"station_id":"ce4bhah2rcd13ifvqei0","pricing_plan_id":"cebpf4jnsgd1na2vs0mg"},{"bike_id":"86b522aa-078c-4b48-9d49-aeb8c392271b","system_id":"levelo_inurba_marseille","lat":43.284534,"lon":5.358662,"is_reserved":false,"is_disabled":false,"rental_uris":{"android":"levelo://app?vid=86b522aa-078c-4b48-9d49-aeb8c392271b","ios":"levelo://app?vid=86b522aa-078c-4b48-9d49-aeb8c392271b"},"vehicle_type_id":"4","last_reported":1720454953,"current_range_meters":14800,"station_id":"ce4bhah2rcd13ifvqei0","pricing_plan_id":"cebpf4jnsgd1na2vs0mg"},{"bike_id":"0031be32-5d54-4da2-8ad1-1dca143a6475","system_id":"levelo_inurba_marseille","lat":43.284534,"lon":5.358662,"is_reserved":false,"is_disabled":false,"rental_uris":{"android":"levelo://app?vid=0031be32-5d54-4da2-8ad1-1dca143a6475","ios":"levelo://app?vid=0031be32-5d54-4da2-8ad1-1dca143a6475"},"vehicle_type_id":"4","last_reported":1720454953,"current_range_meters":11600,"station_id":"ce4bhah2rcd13ifvqei0","pricing_plan_id":"cebpf4jnsgd1na2vs0mg"},{"bike_id":"52c9b442-dde0-43b1-a94f-6206ff3358b0","system_id":"levelo_inurba_marseille","lat":43.28453,"lon":5.35887,"is_reserved":false,"is_disabled":false,"rental_uris":{"android":"levelo://app?vid=52c9b442-dde0-43b1-a94f-6206ff3358b0","ios":"levelo://app?vid=52c9b442-dde0-43b1-a94f-6206ff3358b0"},"vehicle_type_id":"4","last_reported":1720454953,"current_range_meters":0,"station_id":"ce4bhah2rcd13ifvqei0","pricing_plan_id":"cebpf4jnsgd1na2vs0mg"},{"bike_id":"64cac3c9-93f3-41bf-a902-e2d4bf3a0347","system_id":"levelo_inurba_marseille","lat":43.285856,"lon":5.350771,"is_reserved":false,"is_disabled":false,"rental_uris":{"android":"levelo://app?vid=64cac3c9-93f3-41bf-a902-e2d4bf3a0347","ios":"levelo://app?vid=64cac3c9-93f3-41bf-a902-e2d4bf3a0347"},"vehicle_type_id":"4","last_reported":1720454953,"current_range_meters":8000,"station_id":"ce4bhch2rcd13ifvqeug","pricing_plan_id":"cebpf4jnsgd1na2vs0mg"},{"bike_id":"c2740f49-4eea-4e61-ba55-9b81db9b46ce","system_id":"levelo_inurba_marseille","lat":43.285856,"lon":5.350771,"is_reserved":false,"is_disabled":false,"rental_uris":{"android":"levelo://app?vid=c2740f49-4eea-4e61-ba55-9b81db9b46ce","ios":"levelo://app?vid=c2740f49-4eea-4e61-ba55-9b81db9b46ce"},"vehicle_type_id":"4","last_reported":1720454953,"current_range_meters":400,"station_id":"ce4bhch2rcd13ifvqeug","pricing_plan_id":"cebpf4jnsgd1na2vs0mg"},{"bike_id":"14849f3a-1820-4855-82d6-df2019cd80fa","system_id":"levelo_inurba_marseille","lat":43.285856,"lon":5.350771,"is_reserved":false,"is_disabled":false,"rental_uris":{"android":"levelo://app?vid=14849f3a-1820-4855-82d6-df2019cd80fa","ios":"levelo://app?vid=14849f3a-1820-4855-82d6-df2019cd80fa"},"vehicle_type_id":"4","last_reported":1720454953,"current_range_meters":26400,"station_id":"ce4bhch2rcd13ifvqeug","pricing_plan_id":"cebpf4jnsgd1na2vs0mg"},{"bike_id":"cfa913b5-a91e-4148-a63e-cd03049bf70b","system_id":"levelo_inurba_marseille","lat":43.28622,"lon":5.35106,"is_reserved":false,"is_disabled":false,"rental_uris":{"android":"levelo://app?vid=cfa913b5-a91e-4148-a63e-cd03049bf70b","ios":"levelo://app?vid=cfa913b5-a91e-4148-a63e-cd03049bf70b"},"vehicle_type_id":"4","last_reported":1720454953,"current_range_meters":7200,"station_id":"ce4bhch2rcd13ifvqeug","pricing_plan_id":"cebpf4jnsgd1na2vs0mg"},{"bike_id":"b0436c2c-b449-4af3-a02d-ceb9e11c22be","system_id":"levelo_inurba_marseille","lat":43.285856,"lon":5.350771,"is_reserved":false,"is_disabled":false,"rental_uris":{"android":"levelo://app?vid=b0436c2c-b449-4af3-a02d-ceb9e11c22be","ios":"levelo://app?vid=b0436c2c-b449-4af3-a02d-ceb9e11c22be"},"vehicle_type_id":"4","last_reported":1720454953,"current_range_meters":28400,"station_id":"ce4bhch2rcd13ifvqeug","pricing_plan_id":"cebpf4jnsgd1na2vs0mg"},{"bike_id":"1ff25124-521d-46be-b2c3-2a9d78831660","system_id":"levelo_inurba_marseille","lat":43.28621,"lon":5.35106,"is_reserved":false,"is_disabled":false,"rental_uris":{"android":"levelo://app?vid=1ff25124-521d-46be-b2c3-2a9d78831660","ios":"levelo://app?vid=1ff25124-521d-46be-b2c3-2a9d78831660"},"vehicle_type_id":"4","last_reported":1720454953,"current_range_meters":13600,"station_id":"ce4bhch2rcd13ifvqeug","pricing_plan_id":"cebpf4jnsgd1na2vs0mg"},{"bike_id":"7eaed5cc-6bcf-4810-91a2-43232b08e72b","system_id":"levelo_inurba_marseille","lat":43.285856,"lon":5.350771,"is_reserved":false,"is_disabled":false,"rental_uris":{"android":"levelo://app?vid=7eaed5cc-6bcf-4810-91a2-43232b08e72b","ios":"levelo://app?vid=7eaed5cc-6bcf-4810-91a2-43232b08e72b"},"vehicle_type_id":"4","last_reported":1720454953,"current_range_meters":8000,"station_id":"ce4bhch2rcd13ifvqeug","pricing_plan_id":"cebpf4jnsgd1na2vs0mg"},{"bike_id":"0562d429-41a1-46ed-9c21-1638827756f0","system_id":"levelo_inurba_marseille","lat":43.285856,"lon":5.350771,"is_reserved":false,"is_disabled":false,"rental_uris":{"android":"levelo://app?vid=0562d429-41a1-46ed-9c21-1638827756f0","ios":"levelo://app?vid=0562d429-41a1-46ed-9c21-1638827756f0"},"vehicle_type_id":"4","last_reported":1720454953,"current_range_meters":24400,"station_id":"ce4bhch2rcd13ifvqeug","pricing_plan_id":"cebpf4jnsgd1na2vs0mg"},{"bike_id":"44e1d664-5e69-4018-9ee9-33e9ba61db26","system_id":"levelo_inurba_marseille","lat":43.285856,"lon":5.350771,"is_reserved":false,"is_disabled":false,"rental_uris":{"android":"levelo://app?vid=44e1d664-5e69-4018-9ee9-33e9ba61db26","ios":"levelo://app?vid=44e1d664-5e69-4018-9ee9-33e9ba61db26"},"vehicle_type_id":"4","last_reported":1720454953,"current_range_meters":8400,"station_id":"ce4bhch2rcd13ifvqeug","pricing_plan_id":"cebpf4jnsgd1na2vs0mg"},{"bike_id":"107ff3ef-a6c2-41b3-81c2-6e5e7597459d","system_id":"levelo_inurba_marseille","lat":43.2862,"lon":5.35103,"is_reserved":false,"is_disabled":false,"rental_uris":{"android":"levelo://app?vid=107ff3ef-a6c2-41b3-81c2-6e5e7597459d","ios":"levelo://app?vid=107ff3ef-a6c2-41b3-81c2-6e5e7597459d"},"vehicle_type_id":"4","last_reported":1720454953,"current_range_meters":0,"station_id":"ce4bhch2rcd13ifvqeug","pricing_plan_id":"cebpf4jnsgd1na2vs0mg"},{"bike_id":"ec0c2929-7226-4953-a01e-16d6b55bf238","system_id":"levelo_inurba_marseille","lat":43.285856,"lon":5.350771,"is_reserved":false,"is_disabled":false,"rental_uris":{"android":"levelo://app?vid=ec0c2929-7226-4953-a01e-16d6b55bf238","ios":"levelo://app?vid=ec0c2929-7226-4953-a01e-16d6b55bf238"},"vehicle_type_id":"4","last_reported":1720454953,"current_range_meters":29200,"station_id":"ce4bhch2rcd13ifvqeug","pricing_plan_id":"cebpf4jnsgd1na2vs0mg"},{"bike_id":"2937df98-c7c2-4107-b2a4-2028aa2908b5","system_id":"levelo_inurba_marseille","lat":43.286172,"lon":5.350962,"is_reserved":false,"is_disabled":false,"rental_uris":{"android":"levelo://app?vid=2937df98-c7c2-4107-b2a4-2028aa2908b5","ios":"levelo://app?vid=2937df98-c7c2-4107-b2a4-2028aa2908b5"},"vehicle_type_id":"4","last_reported":1720454953,"current_range_meters":30800,"station_id":"ce4bhch2rcd13ifvqeug","pricing_plan_id":"cebpf4jnsgd1na2vs0mg"},{"bike_id":"b79197ad-8085-4056-8100-86a559612aa1","system_id":"levelo_inurba_marseille","lat":43.285856,"lon":5.350771,"is_reserved":false,"is_disabled":false,"rental_uris":{"android":"levelo://app?vid=b79197ad-8085-4056-8100-86a559612aa1","ios":"levelo://app?vid=b79197ad-8085-4056-8100-86a559612aa1"},"vehicle_type_id":"4","last_reported":1720454953,"current_range_meters":25600,"station_id":"ce4bhch2rcd13ifvqeug","pricing_plan_id":"cebpf4jnsgd1na2vs0mg"},{"bike_id":"53dcaf01-38db-4f10-a68b-3aee55cc431d","system_id":"levelo_inurba_marseille","lat":43.285856,"lon":5.350771,"is_reserved":false,"is_disabled":false,"rental_uris":{"android":"levelo://app?vid=53dcaf01-38db-4f10-a68b-3aee55cc431d","ios":"levelo://app?vid=53dcaf01-38db-4f10-a68b-3aee55cc431d"},"vehicle_type_id":"4","last_reported":1720454953,"current_range_meters":27200,"station_id":"ce4bhch2rcd13ifvqeug","pricing_plan_id":"cebpf4jnsgd1na2vs0mg"},{"bike_id":"fd186fc5-dd3c-4d09-905f-5f7914dc3999","system_id":"levelo_inurba_marseille","lat":43.28613,"lon":5.35105,"is_reserved":false,"is_disabled":false,"rental_uris":{"android":"levelo://app?vid=fd186fc5-dd3c-4d09-905f-5f7914dc3999","ios":"levelo://app?vid=fd186fc5-dd3c-4d09-905f-5f7914dc3999"},"vehicle_type_id":"4","last_reported":1720454953,"current_range_meters":3200,"station_id":"ce4bhch2rcd13ifvqeug","pricing_plan_id":"cebpf4jnsgd1na2vs0mg"},{"bike_id":"9cb86c20-3d98-4b4e-b9b1-c7949152d198","system_id":"levelo_inurba_marseille","lat":43.286126,"lon":5.351042,"is_reserved":false,"is_disabled":false,"rental_uris":{"android":"levelo://app?vid=9cb86c20-3d98-4b4e-b9b1-c7949152d198","ios":"levelo://app?vid=9cb86c20-3d98-4b4e-b9b1-c7949152d198"},"vehicle_type_id":"4","last_reported":1720454953,"current_range_meters":18400,"station_id":"ce4bhch2rcd13ifvqeug","pricing_plan_id":"cebpf4jnsgd1na2vs0mg"},{"bike_id":"ad3192bf-c496-4c50-ba87-bdaab966c278","system_id":"levelo_inurba_marseille","lat":43.28613,"lon":5.35102,"is_reserved":false,"is_disabled":false,"rental_uris":{"android":"levelo://app?vid=ad3192bf-c496-4c50-ba87-bdaab966c278","ios":"levelo://app?vid=ad3192bf-c496-4c50-ba87-bdaab966c278"},"vehicle_type_id":"4","last_reported":1720454953,"current_range_meters":20800,"station_id":"ce4bhch2rcd13ifvqeug","pricing_plan_id":"cebpf4jnsgd1na2vs0mg"},{"bike_id":"1e4810ab-2518-408f-b22f-409af276f411","system_id":"levelo_inurba_marseille","lat":43.285848,"lon":5.350787,"is_reserved":false,"is_disabled":false,"rental_uris":{"android":"levelo://app?vid=1e4810ab-2518-408f-b22f-409af276f411","ios":"levelo://app?vid=1e4810ab-2518-408f-b22f-409af276f411"},"vehicle_type_id":"4","last_reported":1720454953,"current_range_meters":14800,"station_id":"ce4bhch2rcd13ifvqeug","pricing_plan_id":"cebpf4jnsgd1na2vs0mg"},{"bike_id":"423c6e0c-eb66-4f12-97df-7f56bcc44141","system_id":"levelo_inurba_marseille","lat":43.286113,"lon":5.351053,"is_reserved":false,"is_disabled":false,"rental_uris":{"android":"levelo://app?vid=423c6e0c-eb66-4f12-97df-7f56bcc44141","ios":"levelo://app?vid=423c6e0c-eb66-4f12-97df-7f56bcc44141"},"vehicle_type_id":"4","last_reported":1720454953,"current_range_meters":29600,"station_id":"ce4bhch2rcd13ifvqeug","pricing_plan_id":"cebpf4jnsgd1na2vs0mg"},{"bike_id":"90e09b3e-4399-44fe-a94f-558869a0bdd6","system_id":"levelo_inurba_marseille","lat":43.28613,"lon":5.351,"is_reserved":false,"is_disabled":false,"rental_uris":{"android":"levelo://app?vid=90e09b3e-4399-44fe-a94f-558869a0bdd6","ios":"levelo://app?vid=90e09b3e-4399-44fe-a94f-558869a0bdd6"},"vehicle_type_id":"4","last_reported":1720454953,"current_range_meters":30000,"station_id":"ce4bhch2rcd13ifvqeug","pricing_plan_id":"cebpf4jnsgd1na2vs0mg"},{"bike_id":"137a0d3b-f734-407e-b18d-c8c31e7cc5f9","system_id":"levelo_inurba_marseille","lat":43.28611,"lon":5.35106,"is_reserved":false,"is_disabled":false,"rental_uris":{"android":"levelo://app?vid=137a0d3b-f734-407e-b18d-c8c31e7cc5f9","ios":"levelo://app?vid=137a0d3b-f734-407e-b18d-c8c31e7cc5f9"},"vehicle_type_id":"4","last_reported":1720454953,"current_range_meters":8800,"station_id":"ce4bhch2rcd13ifvqeug","pricing_plan_id":"cebpf4jnsgd1na2vs0mg"},{"bike_id":"85cb16c8-a339-4092-8977-106afb49118e","system_id":"levelo_inurba_marseille","lat":43.28612,"lon":5.351,"is_reserved":false,"is_disabled":false,"rental_uris":{"android":"levelo://app?vid=85cb16c8-a339-4092-8977-106afb49118e","ios":"levelo://app?vid=85cb16c8-a339-4092-8977-106afb49118e"},"vehicle_type_id":"4","last_reported":1720454953,"current_range_meters":22800,"station_id":"ce4bhch2rcd13ifvqeug","pricing_plan_id":"cebpf4jnsgd1na2vs0mg"},{"bike_id":"bb63c563-dd5f-40ac-8492-e0661d301f1f","system_id":"levelo_inurba_marseille","lat":43.28609,"lon":5.35103,"is_reserved":false,"is_disabled":false,"rental_uris":{"android":"levelo://app?vid=bb63c563-dd5f-40ac-8492-e0661d301f1f","ios":"levelo://app?vid=bb63c563-dd5f-40ac-8492-e0661d301f1f"},"vehicle_type_id":"4","last_reported":1720454953,"current_range_meters":22400,"station_id":"ce4bhch2rcd13ifvqeug","pricing_plan_id":"cebpf4jnsgd1na2vs0mg"},{"bike_id":"53ded633-5dbe-4d8e-8d3d-1e1a2697fb54","system_id":"levelo_inurba_marseille","lat":43.286077,"lon":5.35104,"is_reserved":false,"is_disabled":false,"rental_uris":{"android":"levelo://app?vid=53ded633-5dbe-4d8e-8d3d-1e1a2697fb54","ios":"levelo://app?vid=53ded633-5dbe-4d8e-8d3d-1e1a2697fb54"},"vehicle_type_id":"4","last_reported":1720454953,"current_range_meters":16800,"station_id":"ce4bhch2rcd13ifvqeug","pricing_plan_id":"cebpf4jnsgd1na2vs0mg"},{"bike_id":"986d2fb7-d3dc-467e-88ce-05669cabb8a0","system_id":"levelo_inurba_marseille","lat":43.286082,"lon":5.351009,"is_reserved":false,"is_disabled":false,"rental_uris":{"android":"levelo://app?vid=986d2fb7-d3dc-467e-88ce-05669cabb8a0","ios":"levelo://app?vid=986d2fb7-d3dc-467e-88ce-05669cabb8a0"},"vehicle_type_id":"4","last_reported":1720454953,"current_range_meters":8000,"station_id":"ce4bhch2rcd13ifvqeug","pricing_plan_id":"cebpf4jnsgd1na2vs0mg"},{"bike_id":"c967b08e-9430-482b-9f2b-80725ab7ba77","system_id":"levelo_inurba_marseille","lat":43.285856,"lon":5.350771,"is_reserved":false,"is_disabled":false,"rental_uris":{"android":"levelo://app?vid=c967b08e-9430-482b-9f2b-80725ab7ba77","ios":"levelo://app?vid=c967b08e-9430-482b-9f2b-80725ab7ba77"},"vehicle_type_id":"4","last_reported":1720454953,"current_range_meters":24800,"station_id":"ce4bhch2rcd13ifvqeug","pricing_plan_id":"cebpf4jnsgd1na2vs0mg"},{"bike_id":"28f78b44-8bfe-4327-a2e4-620d9305c1ba","system_id":"levelo_inurba_marseille","lat":43.28605,"lon":5.35105,"is_reserved":false,"is_disabled":false,"rental_uris":{"android":"levelo://app?vid=28f78b44-8bfe-4327-a2e4-620d9305c1ba","ios":"levelo://app?vid=28f78b44-8bfe-4327-a2e4-620d9305c1ba"},"vehicle_type_id":"4","last_reported":1720454953,"current_range_meters":12400,"station_id":"ce4bhch2rcd13ifvqeug","pricing_plan_id":"cebpf4jnsgd1na2vs0mg"},{"bike_id":"459046c3-b123-4176-907e-4fe3c7307872","system_id":"levelo_inurba_marseille","lat":43.28604,"lon":5.35105,"is_reserved":false,"is_disabled":false,"rental_uris":{"android":"levelo://app?vid=459046c3-b123-4176-907e-4fe3c7307872","ios":"levelo://app?vid=459046c3-b123-4176-907e-4fe3c7307872"},"vehicle_type_id":"4","last_reported":1720454953,"current_range_meters":1200,"station_id":"ce4bhch2rcd13ifvqeug","pricing_plan_id":"cebpf4jnsgd1na2vs0mg"},{"bike_id":"5cabee59-b047-48b4-bfef-a0fa51806cd4","system_id":"levelo_inurba_marseille","lat":43.285856,"lon":5.350771,"is_reserved":false,"is_disabled":false,"rental_uris":{"android":"levelo://app?vid=5cabee59-b047-48b4-bfef-a0fa51806cd4","ios":"levelo://app?vid=5cabee59-b047-48b4-bfef-a0fa51806cd4"},"vehicle_type_id":"4","last_reported":1720454953,"current_range_meters":25200,"station_id":"ce4bhch2rcd13ifvqeug","pricing_plan_id":"cebpf4jnsgd1na2vs0mg"},{"bike_id":"00272ae1-ac1c-4e96-84ef-dfbe0fec69c1","system_id":"levelo_inurba_marseille","lat":43.283998,"lon":5.375062,"is_reserved":false,"is_disabled":false,"rental_uris":{"android":"levelo://app?vid=00272ae1-ac1c-4e96-84ef-dfbe0fec69c1","ios":"levelo://app?vid=00272ae1-ac1c-4e96-84ef-dfbe0fec69c1"},"vehicle_type_id":"4","last_reported":1720454953,"current_range_meters":14400,"station_id":"ce4bh412rcd13ifvqds0","pricing_plan_id":"cebpf4jnsgd1na2vs0mg"},{"bike_id":"141253ed-d48b-4133-b5de-e612e594afee","system_id":"levelo_inurba_marseille","lat":43.28589,"lon":5.3509,"is_reserved":false,"is_disabled":false,"rental_uris":{"android":"levelo://app?vid=141253ed-d48b-4133-b5de-e612e594afee","ios":"levelo://app?vid=141253ed-d48b-4133-b5de-e612e594afee"},"vehicle_type_id":"4","last_reported":1720454953,"current_range_meters":30000,"station_id":"ce4bhch2rcd13ifvqeug","pricing_plan_id":"cebpf4jnsgd1na2vs0mg"},{"bike_id":"2eaa4f8e-0380-4dec-a3b5-bd555bd5bed6","system_id":"levelo_inurba_marseille","lat":43.283998,"lon":5.375062,"is_reserved":false,"is_disabled":false,"rental_uris":{"android":"levelo://app?vid=2eaa4f8e-0380-4dec-a3b5-bd555bd5bed6","ios":"levelo://app?vid=2eaa4f8e-0380-4dec-a3b5-bd555bd5bed6"},"vehicle_type_id":"4","last_reported":1720454953,"current_range_meters":28400,"station_id":"ce4bh412rcd13ifvqds0","pricing_plan_id":"cebpf4jnsgd1na2vs0mg"},{"bike_id":"baf2e06c-c6f8-4f85-82f7-0439e529bc06","system_id":"levelo_inurba_marseille","lat":43.28406,"lon":5.37515,"is_reserved":false,"is_disabled":false,"rental_uris":{"android":"levelo://app?vid=baf2e06c-c6f8-4f85-82f7-0439e529bc06","ios":"levelo://app?vid=baf2e06c-c6f8-4f85-82f7-0439e529bc06"},"vehicle_type_id":"4","last_reported":1720454953,"current_range_meters":0,"station_id":"ce4bh412rcd13ifvqds0","pricing_plan_id":"cebpf4jnsgd1na2vs0mg"},{"bike_id":"6aa47aa4-daf9-42ce-85ca-a79dbbe6dea3","system_id":"levelo_inurba_marseille","lat":43.283998,"lon":5.375062,"is_reserved":false,"is_disabled":false,"rental_uris":{"android":"levelo://app?vid=6aa47aa4-daf9-42ce-85ca-a79dbbe6dea3","ios":"levelo://app?vid=6aa47aa4-daf9-42ce-85ca-a79dbbe6dea3"},"vehicle_type_id":"4","last_reported":1720454953,"current_range_meters":10800,"station_id":"ce4bh412rcd13ifvqds0","pricing_plan_id":"cebpf4jnsgd1na2vs0mg"},{"bike_id":"edad38b4-5cf6-4a33-a88d-f8cfc1384251","system_id":"levelo_inurba_marseille","lat":43.283998,"lon":5.375062,"is_reserved":false,"is_disabled":false,"rental_uris":{"android":"levelo://app?vid=edad38b4-5cf6-4a33-a88d-f8cfc1384251","ios":"levelo://app?vid=edad38b4-5cf6-4a33-a88d-f8cfc1384251"},"vehicle_type_id":"4","last_reported":1720454953,"current_range_meters":15600,"station_id":"ce4bh412rcd13ifvqds0","pricing_plan_id":"cebpf4jnsgd1na2vs0mg"},{"bike_id":"8b005b5a-f171-4011-9108-99f240df7c03","system_id":"levelo_inurba_marseille","lat":43.284017,"lon":5.37513,"is_reserved":false,"is_disabled":false,"rental_uris":{"android":"levelo://app?vid=8b005b5a-f171-4011-9108-99f240df7c03","ios":"levelo://app?vid=8b005b5a-f171-4011-9108-99f240df7c03"},"vehicle_type_id":"4","last_reported":1720454953,"current_range_meters":30000,"station_id":"ce4bh412rcd13ifvqds0","pricing_plan_id":"cebpf4jnsgd1na2vs0mg"},{"bike_id":"8f6e2638-9b84-4edb-a038-aa3715a40ebb","system_id":"levelo_inurba_marseille","lat":43.28397,"lon":5.37524,"is_reserved":false,"is_disabled":false,"rental_uris":{"android":"levelo://app?vid=8f6e2638-9b84-4edb-a038-aa3715a40ebb","ios":"levelo://app?vid=8f6e2638-9b84-4edb-a038-aa3715a40ebb"},"vehicle_type_id":"4","last_reported":1720454953,"current_range_meters":13200,"station_id":"ce4bh412rcd13ifvqds0","pricing_plan_id":"cebpf4jnsgd1na2vs0mg"},{"bike_id":"d7d834ab-e9bf-43e8-9c9f-67a448ccbb57","system_id":"levelo_inurba_marseille","lat":43.28578,"lon":5.35069,"is_reserved":false,"is_disabled":false,"rental_uris":{"android":"levelo://app?vid=d7d834ab-e9bf-43e8-9c9f-67a448ccbb57","ios":"levelo://app?vid=d7d834ab-e9bf-43e8-9c9f-67a448ccbb57"},"vehicle_type_id":"4","last_reported":1720454953,"current_range_meters":30800,"station_id":"","pricing_plan_id":"cebpf4jnsgd1na2vs0mg"},{"bike_id":"a2d1c382-bb95-4bb5-b6c6-a18b31f2782e","system_id":"levelo_inurba_marseille","lat":43.2857,"lon":5.35072,"is_reserved":false,"is_disabled":false,"rental_uris":{"android":"levelo://app?vid=a2d1c382-bb95-4bb5-b6c6-a18b31f2782e","ios":"levelo://app?vid=a2d1c382-bb95-4bb5-b6c6-a18b31f2782e"},"vehicle_type_id":"4","last_reported":1720454953,"current_range_meters":12400,"station_id":"","pricing_plan_id":"cebpf4jnsgd1na2vs0mg"},{"bike_id":"d7339107-780e-4076-bffb-82facbed56f3","system_id":"levelo_inurba_marseille","lat":43.28574,"lon":5.35058,"is_reserved":false,"is_disabled":false,"rental_uris":{"android":"levelo://app?vid=d7339107-780e-4076-bffb-82facbed56f3","ios":"levelo://app?vid=d7339107-780e-4076-bffb-82facbed56f3"},"vehicle_type_id":"4","last_reported":1720454953,"current_range_meters":11600,"station_id":"","pricing_plan_id":"cebpf4jnsgd1na2vs0mg"},{"bike_id":"803260ab-5eef-43dc-8524-9713febe7d35","system_id":"levelo_inurba_marseille","lat":43.28567,"lon":5.35076,"is_reserved":false,"is_disabled":false,"rental_uris":{"android":"levelo://app?vid=803260ab-5eef-43dc-8524-9713febe7d35","ios":"levelo://app?vid=803260ab-5eef-43dc-8524-9713febe7d35"},"vehicle_type_id":"4","last_reported":1720454953,"current_range_meters":2000,"station_id":"","pricing_plan_id":"cebpf4jnsgd1na2vs0mg"},{"bike_id":"58c8ce6e-fc42-451e-a869-73c72f3ef0e9","system_id":"levelo_inurba_marseille","lat":43.28554,"lon":5.35067,"is_reserved":false,"is_disabled":false,"rental_uris":{"android":"levelo://app?vid=58c8ce6e-fc42-451e-a869-73c72f3ef0e9","ios":"levelo://app?vid=58c8ce6e-fc42-451e-a869-73c72f3ef0e9"},"vehicle_type_id":"4","last_reported":1720454953,"current_range_meters":4000,"station_id":"","pricing_plan_id":"cebpf4jnsgd1na2vs0mg"},{"bike_id":"bee58d2c-a306-401e-a97f-6efbcff8e714","system_id":"levelo_inurba_marseille","lat":43.28672,"lon":5.38666,"is_reserved":false,"is_disabled":false,"rental_uris":{"android":"levelo://app?vid=bee58d2c-a306-401e-a97f-6efbcff8e714","ios":"levelo://app?vid=bee58d2c-a306-401e-a97f-6efbcff8e714"},"vehicle_type_id":"4","last_reported":1720454953,"current_range_meters":26000,"station_id":"ce4bh492rcd13ifvqdug","pricing_plan_id":"cebpf4jnsgd1na2vs0mg"},{"bike_id":"e13e531c-9511-4d47-b673-8db4476d8515","system_id":"levelo_inurba_marseille","lat":43.337168,"lon":5.391825,"is_reserved":false,"is_disabled":false,"rental_uris":{"android":"levelo://app?vid=e13e531c-9511-4d47-b673-8db4476d8515","ios":"levelo://app?vid=e13e531c-9511-4d47-b673-8db4476d8515"},"vehicle_type_id":"4","last_reported":1720454953,"current_range_meters":14000,"station_id":"ce4bhr92rcd13ifvqhsg","pricing_plan_id":"cebpf4jnsgd1na2vs0mg"},{"bike_id":"9d437996-a62b-4b20-97d1-3810ad5adc36","system_id":"levelo_inurba_marseille","lat":43.323464,"lon":5.406297,"is_reserved":false,"is_disabled":false,"rental_uris":{"android":"levelo://app?vid=9d437996-a62b-4b20-97d1-3810ad5adc36","ios":"levelo://app?vid=9d437996-a62b-4b20-97d1-3810ad5adc36"},"vehicle_type_id":"4","last_reported":1720454953,"current_range_meters":4400,"station_id":"ce4bhq92rcd13ifvqhjg","pricing_plan_id":"cebpf4jnsgd1na2vs0mg"},{"bike_id":"a3b9f9cd-b958-4412-8cc0-3279916ed636","system_id":"levelo_inurba_marseille","lat":43.297946,"lon":5.404063,"is_reserved":false,"is_disabled":false,"rental_uris":{"android":"levelo://app?vid=a3b9f9cd-b958-4412-8cc0-3279916ed636","ios":"levelo://app?vid=a3b9f9cd-b958-4412-8cc0-3279916ed636"},"vehicle_type_id":"4","last_reported":1720454953,"current_range_meters":14400,"station_id":"ce4bh112rcd13ifvqd90","pricing_plan_id":"cebpf4jnsgd1na2vs0mg"},{"bike_id":"c6558f1c-f6d6-44cb-8034-d1305c186f57","system_id":"levelo_inurba_marseille","lat":43.288501,"lon":5.393087,"is_reserved":false,"is_disabled":false,"rental_uris":{"android":"levelo://app?vid=c6558f1c-f6d6-44cb-8034-d1305c186f57","ios":"levelo://app?vid=c6558f1c-f6d6-44cb-8034-d1305c186f57"},"vehicle_type_id":"4","last_reported":1720454953,"current_range_meters":0,"station_id":"ce4bh2p2rcd13ifvqdi0","pricing_plan_id":"cebpf4jnsgd1na2vs0mg"},{"bike_id":"a1cd034d-3c8a-4923-9a00-f4fc890fa941","system_id":"levelo_inurba_marseille","lat":43.284776,"lon":5.385603,"is_reserved":false,"is_disabled":false,"rental_uris":{"android":"levelo://app?vid=a1cd034d-3c8a-4923-9a00-f4fc890fa941","ios":"levelo://app?vid=a1cd034d-3c8a-4923-9a00-f4fc890fa941"},"vehicle_type_id":"4","last_reported":1720454953,"current_range_meters":12800,"station_id":"ce4bh8p2rcd13ifvqeb0","pricing_plan_id":"cebpf4jnsgd1na2vs0mg"},{"bike_id":"deb73062-5e6c-47d2-8c64-cf8476059a71","system_id":"levelo_inurba_marseille","lat":43.283261,"lon":5.380034,"is_reserved":false,"is_disabled":false,"rental_uris":{"android":"levelo://app?vid=deb73062-5e6c-47d2-8c64-cf8476059a71","ios":"levelo://app?vid=deb73062-5e6c-47d2-8c64-cf8476059a71"},"vehicle_type_id":"4","last_reported":1720454953,"current_range_meters":20800,"station_id":"","pricing_plan_id":"cebpf4jnsgd1na2vs0mg"},{"bike_id":"7c98dc42-438f-459b-b168-edccf5673017","system_id":"levelo_inurba_marseille","lat":43.284219,"lon":5.3497,"is_reserved":false,"is_disabled":false,"rental_uris":{"android":"levelo://app?vid=7c98dc42-438f-459b-b168-edccf5673017","ios":"levelo://app?vid=7c98dc42-438f-459b-b168-edccf5673017"},"vehicle_type_id":"4","last_reported":1720454953,"current_range_meters":31200,"station_id":"ce4bhbh2rcd13ifvqepg","pricing_plan_id":"cebpf4jnsgd1na2vs0mg"},{"bike_id":"50045b28-4a63-4896-86a6-c294326263eb","system_id":"levelo_inurba_marseille","lat":43.28426,"lon":5.349904,"is_reserved":false,"is_disabled":false,"rental_uris":{"android":"levelo://app?vid=50045b28-4a63-4896-86a6-c294326263eb","ios":"levelo://app?vid=50045b28-4a63-4896-86a6-c294326263eb"},"vehicle_type_id":"4","last_reported":1720454953,"current_range_meters":0,"station_id":"ce4bhbh2rcd13ifvqepg","pricing_plan_id":"cebpf4jnsgd1na2vs0mg"},{"bike_id":"ace8ecb1-c7cb-4c4b-ba85-73a2d3dccbf1","system_id":"levelo_inurba_marseille","lat":43.28427,"lon":5.34987,"is_reserved":false,"is_disabled":false,"rental_uris":{"android":"levelo://app?vid=ace8ecb1-c7cb-4c4b-ba85-73a2d3dccbf1","ios":"levelo://app?vid=ace8ecb1-c7cb-4c4b-ba85-73a2d3dccbf1"},"vehicle_type_id":"4","last_reported":1720454953,"current_range_meters":14400,"station_id":"ce4bhbh2rcd13ifvqepg","pricing_plan_id":"cebpf4jnsgd1na2vs0mg"},{"bike_id":"7891b49c-e9ed-4276-a140-b7d4ca1885a4","system_id":"levelo_inurba_marseille","lat":43.284234,"lon":5.349879,"is_reserved":false,"is_disabled":false,"rental_uris":{"android":"levelo://app?vid=7891b49c-e9ed-4276-a140-b7d4ca1885a4","ios":"levelo://app?vid=7891b49c-e9ed-4276-a140-b7d4ca1885a4"},"vehicle_type_id":"4","last_reported":1720454953,"current_range_meters":22000,"station_id":"ce4bhbh2rcd13ifvqepg","pricing_plan_id":"cebpf4jnsgd1na2vs0mg"},{"bike_id":"f33ad189-0a23-49df-be9c-345fe337ee49","system_id":"levelo_inurba_marseille","lat":43.2842,"lon":5.34997,"is_reserved":false,"is_disabled":false,"rental_uris":{"android":"levelo://app?vid=f33ad189-0a23-49df-be9c-345fe337ee49","ios":"levelo://app?vid=f33ad189-0a23-49df-be9c-345fe337ee49"},"vehicle_type_id":"4","last_reported":1720454953,"current_range_meters":31200,"station_id":"ce4bhbh2rcd13ifvqepg","pricing_plan_id":"cebpf4jnsgd1na2vs0mg"},{"bike_id":"7ccf4128-fe76-46d7-b747-77e3f908279e","system_id":"levelo_inurba_marseille","lat":43.284776,"lon":5.385603,"is_reserved":false,"is_disabled":false,"rental_uris":{"android":"levelo://app?vid=7ccf4128-fe76-46d7-b747-77e3f908279e","ios":"levelo://app?vid=7ccf4128-fe76-46d7-b747-77e3f908279e"},"vehicle_type_id":"4","last_reported":1720454953,"current_range_meters":3600,"station_id":"ce4bh8p2rcd13ifvqeb0","pricing_plan_id":"cebpf4jnsgd1na2vs0mg"},{"bike_id":"2cc37d82-8b81-4291-b2f6-d9f74abfc450","system_id":"levelo_inurba_marseille","lat":43.284254,"lon":5.349794,"is_reserved":false,"is_disabled":false,"rental_uris":{"android":"levelo://app?vid=2cc37d82-8b81-4291-b2f6-d9f74abfc450","ios":"levelo://app?vid=2cc37d82-8b81-4291-b2f6-d9f74abfc450"},"vehicle_type_id":"4","last_reported":1720454953,"current_range_meters":22400,"station_id":"ce4bhbh2rcd13ifvqepg","pricing_plan_id":"cebpf4jnsgd1na2vs0mg"},{"bike_id":"192a02a3-b39f-42b5-aee8-242c198247a2","system_id":"levelo_inurba_marseille","lat":43.284219,"lon":5.3497,"is_reserved":false,"is_disabled":false,"rental_uris":{"android":"levelo://app?vid=192a02a3-b39f-42b5-aee8-242c198247a2","ios":"levelo://app?vid=192a02a3-b39f-42b5-aee8-242c198247a2"},"vehicle_type_id":"4","last_reported":1720454953,"current_range_meters":31600,"station_id":"ce4bhbh2rcd13ifvqepg","pricing_plan_id":"cebpf4jnsgd1na2vs0mg"},{"bike_id":"57f5e50a-fd08-4f45-b6ce-e432d35afe60","system_id":"levelo_inurba_marseille","lat":43.284237,"lon":5.349821,"is_reserved":false,"is_disabled":false,"rental_uris":{"android":"levelo://app?vid=57f5e50a-fd08-4f45-b6ce-e432d35afe60","ios":"levelo://app?vid=57f5e50a-fd08-4f45-b6ce-e432d35afe60"},"vehicle_type_id":"4","last_reported":1720454953,"current_range_meters":6800,"station_id":"ce4bhbh2rcd13ifvqepg","pricing_plan_id":"cebpf4jnsgd1na2vs0mg"},{"bike_id":"e5e8a6c5-c3cd-4eab-9afe-dcc25725bb41","system_id":"levelo_inurba_marseille","lat":43.28424,"lon":5.3498,"is_reserved":false,"is_disabled":false,"rental_uris":{"android":"levelo://app?vid=e5e8a6c5-c3cd-4eab-9afe-dcc25725bb41","ios":"levelo://app?vid=e5e8a6c5-c3cd-4eab-9afe-dcc25725bb41"},"vehicle_type_id":"4","last_reported":1720454953,"current_range_meters":16000,"station_id":"ce4bhbh2rcd13ifvqepg","pricing_plan_id":"cebpf4jnsgd1na2vs0mg"},{"bike_id":"9212dd97-cf87-4867-9269-48fb72a06d11","system_id":"levelo_inurba_marseille","lat":43.2842,"lon":5.34992,"is_reserved":false,"is_disabled":false,"rental_uris":{"android":"levelo://app?vid=9212dd97-cf87-4867-9269-48fb72a06d11","ios":"levelo://app?vid=9212dd97-cf87-4867-9269-48fb72a06d11"},"vehicle_type_id":"4","last_reported":1720454953,"current_range_meters":14000,"station_id":"ce4bhbh2rcd13ifvqepg","pricing_plan_id":"cebpf4jnsgd1na2vs0mg"},{"bike_id":"f0beb411-721f-45c1-b02b-1ef825282855","system_id":"levelo_inurba_marseille","lat":43.2842,"lon":5.349915,"is_reserved":false,"is_disabled":false,"rental_uris":{"android":"levelo://app?vid=f0beb411-721f-45c1-b02b-1ef825282855","ios":"levelo://app?vid=f0beb411-721f-45c1-b02b-1ef825282855"},"vehicle_type_id":"4","last_reported":1720454953,"current_range_meters":31200,"station_id":"ce4bhbh2rcd13ifvqepg","pricing_plan_id":"cebpf4jnsgd1na2vs0mg"},{"bike_id":"1b71cecd-24f3-49cc-83c2-b5d077045b90","system_id":"levelo_inurba_marseille","lat":43.284208,"lon":5.349883,"is_reserved":false,"is_disabled":false,"rental_uris":{"android":"levelo://app?vid=1b71cecd-24f3-49cc-83c2-b5d077045b90","ios":"levelo://app?vid=1b71cecd-24f3-49cc-83c2-b5d077045b90"},"vehicle_type_id":"4","last_reported":1720454953,"current_range_meters":16000,"station_id":"ce4bhbh2rcd13ifvqepg","pricing_plan_id":"cebpf4jnsgd1na2vs0mg"},{"bike_id":"cc744e07-01bd-43f9-8bd0-bd1fa6da1558","system_id":"levelo_inurba_marseille","lat":43.284232,"lon":5.349796,"is_reserved":false,"is_disabled":false,"rental_uris":{"android":"levelo://app?vid=cc744e07-01bd-43f9-8bd0-bd1fa6da1558","ios":"levelo://app?vid=cc744e07-01bd-43f9-8bd0-bd1fa6da1558"},"vehicle_type_id":"4","last_reported":1720454953,"current_range_meters":29600,"station_id":"ce4bhbh2rcd13ifvqepg","pricing_plan_id":"cebpf4jnsgd1na2vs0mg"},{"bike_id":"0065ff83-0a31-4888-b258-ef9aefd9fad2","system_id":"levelo_inurba_marseille","lat":43.28417,"lon":5.34998,"is_reserved":false,"is_disabled":false,"rental_uris":{"android":"levelo://app?vid=0065ff83-0a31-4888-b258-ef9aefd9fad2","ios":"levelo://app?vid=0065ff83-0a31-4888-b258-ef9aefd9fad2"},"vehicle_type_id":"4","last_reported":1720454953,"current_range_meters":2000,"station_id":"ce4bhbh2rcd13ifvqepg","pricing_plan_id":"cebpf4jnsgd1na2vs0mg"},{"bike_id":"3e49df54-cf34-46f6-8686-c0528b0755de","system_id":"levelo_inurba_marseille","lat":43.2842,"lon":5.34988,"is_reserved":false,"is_disabled":false,"rental_uris":{"android":"levelo://app?vid=3e49df54-cf34-46f6-8686-c0528b0755de","ios":"levelo://app?vid=3e49df54-cf34-46f6-8686-c0528b0755de"},"vehicle_type_id":"4","last_reported":1720454953,"current_range_meters":6000,"station_id":"ce4bhbh2rcd13ifvqepg","pricing_plan_id":"cebpf4jnsgd1na2vs0mg"},{"bike_id":"d9f06654-6124-47f0-a6fd-0fc6448ade12","system_id":"levelo_inurba_marseille","lat":43.28421,"lon":5.349845,"is_reserved":false,"is_disabled":false,"rental_uris":{"android":"levelo://app?vid=d9f06654-6124-47f0-a6fd-0fc6448ade12","ios":"levelo://app?vid=d9f06654-6124-47f0-a6fd-0fc6448ade12"},"vehicle_type_id":"4","last_reported":1720454953,"current_range_meters":9200,"station_id":"ce4bhbh2rcd13ifvqepg","pricing_plan_id":"cebpf4jnsgd1na2vs0mg"},{"bike_id":"01b3f699-897b-4078-8a6f-2b456b8540d8","system_id":"levelo_inurba_marseille","lat":43.28421,"lon":5.34984,"is_reserved":false,"is_disabled":false,"rental_uris":{"android":"levelo://app?vid=01b3f699-897b-4078-8a6f-2b456b8540d8","ios":"levelo://app?vid=01b3f699-897b-4078-8a6f-2b456b8540d8"},"vehicle_type_id":"4","last_reported":1720454953,"current_range_meters":7200,"station_id":"ce4bhbh2rcd13ifvqepg","pricing_plan_id":"cebpf4jnsgd1na2vs0mg"},{"bike_id":"11b383db-66b7-4367-af9a-fcbce7c815cc","system_id":"levelo_inurba_marseille","lat":43.284214,"lon":5.349706,"is_reserved":false,"is_disabled":false,"rental_uris":{"android":"levelo://app?vid=11b383db-66b7-4367-af9a-fcbce7c815cc","ios":"levelo://app?vid=11b383db-66b7-4367-af9a-fcbce7c815cc"},"vehicle_type_id":"4","last_reported":1720454953,"current_range_meters":31200,"station_id":"ce4bhbh2rcd13ifvqepg","pricing_plan_id":"cebpf4jnsgd1na2vs0mg"},{"bike_id":"5aff13d5-f03c-41e6-bab5-792e39116c1e","system_id":"levelo_inurba_marseille","lat":43.284219,"lon":5.3497,"is_reserved":false,"is_disabled":false,"rental_uris":{"android":"levelo://app?vid=5aff13d5-f03c-41e6-bab5-792e39116c1e","ios":"levelo://app?vid=5aff13d5-f03c-41e6-bab5-792e39116c1e"},"vehicle_type_id":"4","last_reported":1720454953,"current_range_meters":12400,"station_id":"ce4bhbh2rcd13ifvqepg","pricing_plan_id":"cebpf4jnsgd1na2vs0mg"},{"bike_id":"c188b46e-d9a1-4f33-b413-51810bc57663","system_id":"levelo_inurba_marseille","lat":43.28421,"lon":5.34982,"is_reserved":false,"is_disabled":false,"rental_uris":{"android":"levelo://app?vid=c188b46e-d9a1-4f33-b413-51810bc57663","ios":"levelo://app?vid=c188b46e-d9a1-4f33-b413-51810bc57663"},"vehicle_type_id":"4","last_reported":1720454953,"current_range_meters":0,"station_id":"ce4bhbh2rcd13ifvqepg","pricing_plan_id":"cebpf4jnsgd1na2vs0mg"},{"bike_id":"b2ab49a0-3ba6-47f5-a4e4-f7d33d2594a8","system_id":"levelo_inurba_marseille","lat":43.284219,"lon":5.3497,"is_reserved":false,"is_disabled":false,"rental_uris":{"android":"levelo://app?vid=b2ab49a0-3ba6-47f5-a4e4-f7d33d2594a8","ios":"levelo://app?vid=b2ab49a0-3ba6-47f5-a4e4-f7d33d2594a8"},"vehicle_type_id":"4","last_reported":1720454953,"current_range_meters":22000,"station_id":"ce4bhbh2rcd13ifvqepg","pricing_plan_id":"cebpf4jnsgd1na2vs0mg"},{"bike_id":"71e4ea30-32a0-4609-a2b8-56584244cf45","system_id":"levelo_inurba_marseille","lat":43.284178,"lon":5.349905,"is_reserved":false,"is_disabled":false,"rental_uris":{"android":"levelo://app?vid=71e4ea30-32a0-4609-a2b8-56584244cf45","ios":"levelo://app?vid=71e4ea30-32a0-4609-a2b8-56584244cf45"},"vehicle_type_id":"4","last_reported":1720454953,"current_range_meters":8400,"station_id":"ce4bhbh2rcd13ifvqepg","pricing_plan_id":"cebpf4jnsgd1na2vs0mg"},{"bike_id":"b017b768-68af-46fe-a9ba-c7288d9fbe2a","system_id":"levelo_inurba_marseille","lat":43.28424,"lon":5.3497,"is_reserved":false,"is_disabled":false,"rental_uris":{"android":"levelo://app?vid=b017b768-68af-46fe-a9ba-c7288d9fbe2a","ios":"levelo://app?vid=b017b768-68af-46fe-a9ba-c7288d9fbe2a"},"vehicle_type_id":"4","last_reported":1720454953,"current_range_meters":3200,"station_id":"ce4bhbh2rcd13ifvqepg","pricing_plan_id":"cebpf4jnsgd1na2vs0mg"},{"bike_id":"78ae2098-2f59-4a36-a237-3675a44339be","system_id":"levelo_inurba_marseille","lat":43.28421,"lon":5.349778,"is_reserved":false,"is_disabled":false,"rental_uris":{"android":"levelo://app?vid=78ae2098-2f59-4a36-a237-3675a44339be","ios":"levelo://app?vid=78ae2098-2f59-4a36-a237-3675a44339be"},"vehicle_type_id":"4","last_reported":1720454953,"current_range_meters":16400,"station_id":"ce4bhbh2rcd13ifvqepg","pricing_plan_id":"cebpf4jnsgd1na2vs0mg"},{"bike_id":"8ea5f67f-0700-4076-915d-6a78385188cb","system_id":"levelo_inurba_marseille","lat":43.284163,"lon":5.34992,"is_reserved":false,"is_disabled":false,"rental_uris":{"android":"levelo://app?vid=8ea5f67f-0700-4076-915d-6a78385188cb","ios":"levelo://app?vid=8ea5f67f-0700-4076-915d-6a78385188cb"},"vehicle_type_id":"4","last_reported":1720454953,"current_range_meters":6000,"station_id":"ce4bhbh2rcd13ifvqepg","pricing_plan_id":"cebpf4jnsgd1na2vs0mg"},{"bike_id":"b6ced1be-c166-4984-b415-88290840dd24","system_id":"levelo_inurba_marseille","lat":43.2842,"lon":5.3498,"is_reserved":false,"is_disabled":false,"rental_uris":{"android":"levelo://app?vid=b6ced1be-c166-4984-b415-88290840dd24","ios":"levelo://app?vid=b6ced1be-c166-4984-b415-88290840dd24"},"vehicle_type_id":"4","last_reported":1720454953,"current_range_meters":0,"station_id":"ce4bhbh2rcd13ifvqepg","pricing_plan_id":"cebpf4jnsgd1na2vs0mg"},{"bike_id":"8e23e341-b602-42e2-951c-bbcaea7ad101","system_id":"levelo_inurba_marseille","lat":43.284219,"lon":5.3497,"is_reserved":false,"is_disabled":false,"rental_uris":{"android":"levelo://app?vid=8e23e341-b602-42e2-951c-bbcaea7ad101","ios":"levelo://app?vid=8e23e341-b602-42e2-951c-bbcaea7ad101"},"vehicle_type_id":"4","last_reported":1720454953,"current_range_meters":22000,"station_id":"ce4bhbh2rcd13ifvqepg","pricing_plan_id":"cebpf4jnsgd1na2vs0mg"},{"bike_id":"db75e0eb-83ae-4507-aa31-73d6d1d9c26d","system_id":"levelo_inurba_marseille","lat":43.284164,"lon":5.349878,"is_reserved":false,"is_disabled":false,"rental_uris":{"android":"levelo://app?vid=db75e0eb-83ae-4507-aa31-73d6d1d9c26d","ios":"levelo://app?vid=db75e0eb-83ae-4507-aa31-73d6d1d9c26d"},"vehicle_type_id":"4","last_reported":1720454953,"current_range_meters":11200,"station_id":"ce4bhbh2rcd13ifvqepg","pricing_plan_id":"cebpf4jnsgd1na2vs0mg"},{"bike_id":"e0007373-c4b1-4da6-bd59-fc2c3b2d0eab","system_id":"levelo_inurba_marseille","lat":43.28418,"lon":5.34981,"is_reserved":false,"is_disabled":false,"rental_uris":{"android":"levelo://app?vid=e0007373-c4b1-4da6-bd59-fc2c3b2d0eab","ios":"levelo://app?vid=e0007373-c4b1-4da6-bd59-fc2c3b2d0eab"},