{"last_updated":1728652504,"ttl":60,"version":"2.2","data":{"bikes":[{"bike_id":"6511f96f-9a9d-49b9-b26c-6caa38f41ba4","system_id":"levelo_inurba_marseille","lat":43.29261,"lon":5.38435,"is_reserved":false,"is_disabled":false,"rental_uris":{"android":"levelo://app?vid=6511f96f-9a9d-49b9-b26c-6caa38f41ba4","ios":"levelo://app?vid=6511f96f-9a9d-49b9-b26c-6caa38f41ba4"},"vehicle_type_id":"4","last_reported":1728652504,"current_range_meters":3600,"station_id":"ce4bh692rcd13ifvqea0","pricing_plan_id":"cebpf4jnsgd1na2vs0mg"},{"bike_id":"2d206aa1-f3a5-4bf8-a1d9-5fe401c8f42c","system_id":"levelo_inurba_marseille","lat":43.29931,"lon":5.36551,"is_reserved":false,"is_disabled":false,"rental_uris":{"android":"levelo://app?vid=2d206aa1-f3a5-4bf8-a1d9-5fe401c8f42c","ios":"levelo://app?vid=2d206aa1-f3a5-4bf8-a1d9-5fe401c8f42c"},"vehicle_type_id":"4","last_reported":1728652504,"current_range_meters":28800,"station_id":"ce4bgm92rcd13ifvqbr0","pricing_plan_id":"cebpf4jnsgd1na2vs0mg"},{"bike_id":"734b7b8f-c949-4875-b566-7bbb3ae5aeb8","system_id":"levelo_inurba_marseille","lat":43.30246,"lon":5.40064,"is_reserved":false,"is_disabled":false,"rental_uris":{"android":"levelo://app?vid=734b7b8f-c949-4875-b566-7bbb3ae5aeb8","ios":"levelo://app?vid=734b7b8f-c949-4875-b566-7bbb3ae5aeb8"},"vehicle_type_id":"4","last_reported":1728652504,"current_range_meters":16400,"station_id":"ce4bgvh2rcd13ifvqcs0","pricing_plan_id":"cebpf4jnsgd1na2vs0mg"},{"bike_id":"b0496e51-510e-4675-abf4-792414c751c4","system_id":"levelo_inurba_marseille","lat":43.31685,"lon":5.40475,"is_reserved":false,"is_disabled":false,"rental_uris":{"android":"levelo://app?vid=b0496e51-510e-4675-abf4-792414c751c4","ios":"levelo://app?vid=b0496e51-510e-4675-abf4-792414c751c4"},"vehicle_type_id":"4","last_reported":1728652504,"current_range_meters":35600,"station_id":"ce4bh012rcd13ifvqd00","pricing_plan_id":"cebpf4jnsgd1na2vs0mg"},{"bike_id":"51dd5005-a195-4642-bd5f-8cbea71cb3b3","system_id":"levelo_inurba_marseille","lat":43.2293,"lon":5.35372,"is_reserved":false,"is_disabled":false,"rental_uris":{"android":"levelo://app?vid=51dd5005-a195-4642-bd5f-8cbea71cb3b3","ios":"levelo://app?vid=51dd5005-a195-4642-bd5f-8cbea71cb3b3"},"vehicle_type_id":"4","last_reported":1728652504,"current_range_meters":6000,"station_id":"cpo3532slgdg3j2ikp40","pricing_plan_id":"cebpf4jnsgd1na2vs0mg"},{"bike_id":"3a3e1421-61ff-43bf-834e-25af7277a260","system_id":"levelo_inurba_marseille","lat":43.25857,"lon":5.39901,"is_reserved":false,"is_disabled":false,"rental_uris":{"android":"levelo://app?vid=3a3e1421-61ff-43bf-834e-25af7277a260","ios":"levelo://app?vid=3a3e1421-61ff-43bf-834e-25af7277a260"},"vehicle_type_id":"4","last_reported":1728652504,"current_range_meters":22800,"station_id":"ce4bhl92rcd13ifvqghg","pricing_plan_id":"cebpf4jnsgd1na2vs0mg"},{"bike_id":"bd54f519-a506-4bd1-a614-cc15e0af6c0f","system_id":"levelo_inurba_marseille","lat":43.26556,"lon":5.37283,"is_reserved":false,"is_disabled":false,"rental_uris":{"android":"levelo://app?vid=bd54f519-a506-4bd1-a614-cc15e0af6c0f","ios":"levelo://app?vid=bd54f519-a506-4bd1-a614-cc15e0af6c0f"},"vehicle_type_id":"4","last_reported":1728652504,"current_range_meters":24400,"station_id":"ce4bhg12rcd13ifvqf70","pricing_plan_id":"cebpf4jnsgd1na2vs0mg"},{"bike_id":"acec5085-707f-4580-a16e-ac381f72189d","system_id":"levelo_inurba_marseille","lat":43.26943,"lon":5.40242,"is_reserved":false,"is_disabled":false,"rental_uris":{"android":"levelo://app?vid=acec5085-707f-4580-a16e-ac381f72189d","ios":"levelo://app?vid=acec5085-707f-4580-a16e-ac381f72189d"},"vehicle_type_id":"4","last_reported":1728652504,"current_range_meters":10000,"station_id":"cjm6bp8fraef2m0cb0m0","pricing_plan_id":"cebpf4jnsgd1na2vs0mg"},{"bike_id":"870f2101-c613-4073-b011-4658cc117fb7","system_id":"levelo_inurba_marseille","lat":43.30143,"lon":5.37423,"is_reserved":false,"is_disabled":false,"rental_uris":{"android":"levelo://app?vid=870f2101-c613-4073-b011-4658cc117fb7","ios":"levelo://app?vid=870f2101-c613-4073-b011-4658cc117fb7"},"vehicle_type_id":"4","last_reported":1728652504,"current_range_meters":8400,"station_id":"ce4bgs92rcd13ifvqcc0","pricing_plan_id":"cebpf4jnsgd1na2vs0mg"},{"bike_id":"a469293c-0d0f-4339-88bf-e9f9c6ee9d08","system_id":"levelo_inurba_marseille","lat":43.3035,"lon":5.41883,"is_reserved":false,"is_disabled":false,"rental_uris":{"android":"levelo://app?vid=a469293c-0d0f-4339-88bf-e9f9c6ee9d08","ios":"levelo://app?vid=a469293c-0d0f-4339-88bf-e9f9c6ee9d08"},"vehicle_type_id":"4","last_reported":1728652504,"current_range_meters":12400,"station_id":"ce4bhop2rcd13ifvqh7g","pricing_plan_id":"cebpf4jnsgd1na2vs0mg"},{"bike_id":"fc259be6-bae0-4671-9acb-b45c230b0b82","system_id":"levelo_inurba_marseille","lat":43.28725,"lon":5.36079,"is_reserved":false,"is_disabled":false,"rental_uris":{"android":"levelo://app?vid=fc259be6-bae0-4671-9acb-b45c230b0b82","ios":"levelo://app?vid=fc259be6-bae0-4671-9acb-b45c230b0b82"},"vehicle_type_id":"4","last_reported":1728652504,"current_range_meters":38800,"station_id":"cki0cbj6b192h4jlfktg","pricing_plan_id":"cebpf4jnsgd1na2vs0mg"},{"bike_id":"4f1ac9db-36fd-4126-b3cc-b859636a6a29","system_id":"levelo_inurba_marseille","lat":43.22928,"lon":5.35375,"is_reserved":false,"is_disabled":false,"rental_uris":{"android":"levelo://app?vid=4f1ac9db-36fd-4126-b3cc-b859636a6a29","ios":"levelo://app?vid=4f1ac9db-36fd-4126-b3cc-b859636a6a29"},"vehicle_type_id":"4","last_reported":1728652504,"current_range_meters":12400,"station_id":"cpo3532slgdg3j2ikp40","pricing_plan_id":"cebpf4jnsgd1na2vs0mg"},{"bike_id":"d529b0d3-a574-428b-bec7-3746382b4204","system_id":"levelo_inurba_marseille","lat":43.29792,"lon":5.38108,"is_reserved":false,"is_disabled":false,"rental_uris":{"android":"levelo://app?vid=d529b0d3-a574-428b-bec7-3746382b4204","ios":"levelo://app?vid=d529b0d3-a574-428b-bec7-3746382b4204"},"vehicle_type_id":"4","last_reported":1728652504,"current_range_meters":11200,"station_id":"ce4bgip2rcd13ifvqbb0","pricing_plan_id":"cebpf4jnsgd1na2vs0mg"},{"bike_id":"418bad21-cf7d-4a9e-9cb5-74767d38c59f","system_id":"levelo_inurba_marseille","lat":43.2718,"lon":5.40999,"is_reserved":false,"is_disabled":false,"rental_uris":{"android":"levelo://app?vid=418bad21-cf7d-4a9e-9cb5-74767d38c59f","ios":"levelo://app?vid=418bad21-cf7d-4a9e-9cb5-74767d38c59f"},"vehicle_type_id":"4","last_reported":1728652504,"current_range_meters":17600,"station_id":"ce4bhl12rcd13ifvqgf0","pricing_plan_id":"cebpf4jnsgd1na2vs0mg"},{"bike_id":"7e07121e-7968-487b-96e4-ba8bf9090d89","system_id":"levelo_inurba_marseille","lat":43.26565,"lon":5.3728,"is_reserved":false,"is_disabled":false,"rental_uris":{"android":"levelo://app?vid=7e07121e-7968-487b-96e4-ba8bf9090d89","ios":"levelo://app?vid=7e07121e-7968-487b-96e4-ba8bf9090d89"},"vehicle_type_id":"4","last_reported":1728652504,"current_range_meters":24000,"station_id":"ce4bhg12rcd13ifvqf70","pricing_plan_id":"cebpf4jnsgd1na2vs0mg"},{"bike_id":"5ce2a66a-b949-4239-ae17-6ee1644fc5f2","system_id":"levelo_inurba_marseille","lat":43.25496,"lon":5.37645,"is_reserved":false,"is_disabled":false,"rental_uris":{"android":"levelo://app?vid=5ce2a66a-b949-4239-ae17-6ee1644fc5f2","ios":"levelo://app?vid=5ce2a66a-b949-4239-ae17-6ee1644fc5f2"},"vehicle_type_id":"4","last_reported":1728652504,"current_range_meters":14400,"station_id":"ce4bhh12rcd13ifvqff0","pricing_plan_id":"cebpf4jnsgd1na2vs0mg"},{"bike_id":"6cb2fd54-0aca-4f7d-aadb-bc057dc4fb59","system_id":"levelo_inurba_marseille","lat":43.23067,"lon":5.35487,"is_reserved":false,"is_disabled":false,"rental_uris":{"android":"levelo://app?vid=6cb2fd54-0aca-4f7d-aadb-bc057dc4fb59","ios":"levelo://app?vid=6cb2fd54-0aca-4f7d-aadb-bc057dc4fb59"},"vehicle_type_id":"4","last_reported":1728652504,"current_range_meters":28000,"station_id":"cpo3342slgdg3j2ifvpg","pricing_plan_id":"cebpf4jnsgd1na2vs0mg"},{"bike_id":"83efa23d-2de9-4ebf-b5c3-9911d2273528","system_id":"levelo_inurba_marseille","lat":43.30136,"lon":5.39871,"is_reserved":false,"is_disabled":false,"rental_uris":{"android":"levelo://app?vid=83efa23d-2de9-4ebf-b5c3-9911d2273528","ios":"levelo://app?vid=83efa23d-2de9-4ebf-b5c3-9911d2273528"},"vehicle_type_id":"4","last_reported":1728652504,"current_range_meters":37600,"station_id":"ce4bh0h2rcd13ifvqd40","pricing_plan_id":"cebpf4jnsgd1na2vs0mg"},{"bike_id":"1aeb4897-70a0-4551-a71d-42119fc01eed","system_id":"levelo_inurba_marseille","lat":43.25869,"lon":5.39902,"is_reserved":false,"is_disabled":false,"rental_uris":{"android":"levelo://app?vid=1aeb4897-70a0-4551-a71d-42119fc01eed","ios":"levelo://app?vid=1aeb4897-70a0-4551-a71d-42119fc01eed"},"vehicle_type_id":"4","last_reported":1728652504,"current_range_meters":35200,"station_id":"ce4bhl92rcd13ifvqghg","pricing_plan_id":"cebpf4jnsgd1na2vs0mg"},{"bike_id":"aad4ba15-a0fe-47fa-8fff-67cc39415385","system_id":"levelo_inurba_marseille","lat":43.25498,"lon":5.37647,"is_reserved":false,"is_disabled":false,"rental_uris":{"android":"levelo://app?vid=aad4ba15-a0fe-47fa-8fff-67cc39415385","ios":"levelo://app?vid=aad4ba15-a0fe-47fa-8fff-67cc39415385"},"vehicle_type_id":"4","last_reported":1728652504,"current_range_meters":16000,"station_id":"ce4bhh12rcd13ifvqff0","pricing_plan_id":"cebpf4jnsgd1na2vs0mg"},{"bike_id":"34ce14c0-f173-4074-8103-4e09e52b3938","system_id":"levelo_inurba_marseille","lat":43.26205,"lon":5.37928,"is_reserved":false,"is_disabled":false,"rental_uris":{"android":"levelo://app?vid=34ce14c0-f173-4074-8103-4e09e52b3938","ios":"levelo://app?vid=34ce14c0-f173-4074-8103-4e09e52b3938"},"vehicle_type_id":"4","last_reported":1728652504,"current_range_meters":38800,"station_id":"ce4bhjp2rcd13ifvqg90","pricing_plan_id":"cebpf4jnsgd1na2vs0mg"},{"bike_id":"12299ea6-3901-4f92-81d0-0affb0ec1bbc","system_id":"levelo_inurba_marseille","lat":43.2621,"lon":5.37441,"is_reserved":false,"is_disabled":false,"rental_uris":{"android":"levelo://app?vid=12299ea6-3901-4f92-81d0-0affb0ec1bbc","ios":"levelo://app?vid=12299ea6-3901-4f92-81d0-0affb0ec1bbc"},"vehicle_type_id":"4","last_reported":1728652504,"current_range_meters":16800,"station_id":"ce4bhgp2rcd13ifvqfc0","pricing_plan_id":"cebpf4jnsgd1na2vs0mg"},{"bike_id":"e308c361-2a31-418f-b7b8-04fa69e4b074","system_id":"levelo_inurba_marseille","lat":43.23188,"lon":5.39988,"is_reserved":false,"is_disabled":false,"rental_uris":{"android":"levelo://app?vid=e308c361-2a31-418f-b7b8-04fa69e4b074","ios":"levelo://app?vid=e308c361-2a31-418f-b7b8-04fa69e4b074"},"vehicle_type_id":"4","last_reported":1728652504,"current_range_meters":24400,"station_id":"ce4bhn12rcd13ifvqgqg","pricing_plan_id":"cebpf4jnsgd1na2vs0mg"},{"bike_id":"7c2e4899-ccb0-44ab-8574-6e47a01e5db8","system_id":"levelo_inurba_marseille","lat":43.290344,"lon":5.375585,"is_reserved":false,"is_disabled":false,"rental_uris":{"android":"levelo://app?vid=7c2e4899-ccb0-44ab-8574-6e47a01e5db8","ios":"levelo://app?vid=7c2e4899-ccb0-44ab-8574-6e47a01e5db8"},"vehicle_type_id":"4","last_reported":1728652504,"current_range_meters":10800,"station_id":"ce4bh692rcd13ifvqe90","pricing_plan_id":"cebpf4jnsgd1na2vs0mg"},{"bike_id":"a0c1af33-6368-4d49-b1c6-74ec622c32ad","system_id":"levelo_inurba_marseille","lat":43.28149,"lon":5.42654,"is_reserved":false,"is_disabled":false,"rental_uris":{"android":"levelo://app?vid=a0c1af33-6368-4d49-b1c6-74ec622c32ad","ios":"levelo://app?vid=a0c1af33-6368-4d49-b1c6-74ec622c32ad"},"vehicle_type_id":"4","last_reported":1728652504,"current_range_meters":23200,"station_id":"ce4bhnh2rcd13ifvqgug","pricing_plan_id":"cebpf4jnsgd1na2vs0mg"},{"bike_id":"ee90cb57-1fd0-432c-8109-440c7556341f","system_id":"levelo_inurba_marseille","lat":43.30184,"lon":5.36618,"is_reserved":false,"is_disabled":false,"rental_uris":{"android":"levelo://app?vid=ee90cb57-1fd0-432c-8109-440c7556341f","ios":"levelo://app?vid=ee90cb57-1fd0-432c-8109-440c7556341f"},"vehicle_type_id":"4","last_reported":1728652504,"current_range_meters":8000,"station_id":"ce4bgrh2rcd13ifvqc8g","pricing_plan_id":"cebpf4jnsgd1na2vs0mg"},{"bike_id":"54983c2d-856e-4bc9-9a23-9606c04a63d4","system_id":"levelo_inurba_marseille","lat":43.29006,"lon":5.35623,"is_reserved":false,"is_disabled":false,"rental_uris":{"android":"levelo://app?vid=54983c2d-856e-4bc9-9a23-9606c04a63d4","ios":"levelo://app?vid=54983c2d-856e-4bc9-9a23-9606c04a63d4"},"vehicle_type_id":"4","last_reported":1728652504,"current_range_meters":20000,"station_id":"ce4bhb92rcd13ifvqen0","pricing_plan_id":"cebpf4jnsgd1na2vs0mg"},{"bike_id":"a3b3a02b-76cd-49dd-9215-11212f3b0889","system_id":"levelo_inurba_marseille","lat":43.31115,"lon":5.3777,"is_reserved":false,"is_disabled":false,"rental_uris":{"android":"levelo://app?vid=a3b3a02b-76cd-49dd-9215-11212f3b0889","ios":"levelo://app?vid=a3b3a02b-76cd-49dd-9215-11212f3b0889"},"vehicle_type_id":"4","last_reported":1728652504,"current_range_meters":19600,"station_id":"ce4bgt92rcd13ifvqcg0","pricing_plan_id":"cebpf4jnsgd1na2vs0mg"},{"bike_id":"d884e1a6-4aa8-45c6-bd50-48bfb82310da","system_id":"levelo_inurba_marseille","lat":43.30143,"lon":5.37414,"is_reserved":false,"is_disabled":false,"rental_uris":{"android":"levelo://app?vid=d884e1a6-4aa8-45c6-bd50-48bfb82310da","ios":"levelo://app?vid=d884e1a6-4aa8-45c6-bd50-48bfb82310da"},"vehicle_type_id":"4","last_reported":1728652504,"current_range_meters":11200,"station_id":"ce4bgs92rcd13ifvqcc0","pricing_plan_id":"cebpf4jnsgd1na2vs0mg"},{"bike_id":"e05e04f4-e651-424c-a6aa-8f864e46be12","system_id":"levelo_inurba_marseille","lat":43.28421,"lon":5.34983,"is_reserved":false,"is_disabled":false,"rental_uris":{"android":"levelo://app?vid=e05e04f4-e651-424c-a6aa-8f864e46be12","ios":"levelo://app?vid=e05e04f4-e651-424c-a6aa-8f864e46be12"},"vehicle_type_id":"4","last_reported":1728652504,"current_range_meters":40000,"station_id":"ce4bhbh2rcd13ifvqepg","pricing_plan_id":"cebpf4jnsgd1na2vs0mg"},{"bike_id":"98cb421e-2936-4980-b8ed-35b1a8674415","system_id":"levelo_inurba_marseille","lat":43.30885,"lon":5.37191,"is_reserved":false,"is_disabled":false,"rental_uris":{"android":"levelo://app?vid=98cb421e-2936-4980-b8ed-35b1a8674415","ios":"levelo://app?vid=98cb421e-2936-4980-b8ed-35b1a8674415"},"vehicle_type_id":"4","last_reported":1728652504,"current_range_meters":23200,"station_id":"ce4bguh2rcd13ifvqckg","pricing_plan_id":"cebpf4jnsgd1na2vs0mg"},{"bike_id":"1535d0a0-d9e9-46f7-8630-ccbb8a13f826","system_id":"levelo_inurba_marseille","lat":43.2649,"lon":5.3955,"is_reserved":false,"is_disabled":false,"rental_uris":{"android":"levelo://app?vid=1535d0a0-d9e9-46f7-8630-ccbb8a13f826","ios":"levelo://app?vid=1535d0a0-d9e9-46f7-8630-ccbb8a13f826"},"vehicle_type_id":"4","last_reported":1728652504,"current_range_meters":24000,"station_id":"ce4bhi12rcd13ifvqfq0","pricing_plan_id":"cebpf4jnsgd1na2vs0mg"},{"bike_id":"c10d4748-c422-435b-a4e3-e6f5bb7e2ab4","system_id":"levelo_inurba_marseille","lat":43.28067,"lon":5.39651,"is_reserved":false,"is_disabled":false,"rental_uris":{"android":"levelo://app?vid=c10d4748-c422-435b-a4e3-e6f5bb7e2ab4","ios":"levelo://app?vid=c10d4748-c422-435b-a4e3-e6f5bb7e2ab4"},"vehicle_type_id":"4","last_reported":1728652504,"current_range_meters":38000,"station_id":"ce4bho12rcd13ifvqh2g","pricing_plan_id":"cebpf4jnsgd1na2vs0mg"},{"bike_id":"c99d2b51-f3c8-4486-8444-98f6d7a4b740","system_id":"levelo_inurba_marseille","lat":43.24797,"lon":5.37454,"is_reserved":false,"is_disabled":false,"rental_uris":{"android":"levelo://app?vid=c99d2b51-f3c8-4486-8444-98f6d7a4b740","ios":"levelo://app?vid=c99d2b51-f3c8-4486-8444-98f6d7a4b740"},"vehicle_type_id":"4","last_reported":1728652504,"current_range_meters":36800,"station_id":"ce4bhgh2rcd13ifvqfb0","pricing_plan_id":"cebpf4jnsgd1na2vs0mg"},{"bike_id":"1f414c8b-63c3-44b5-9ced-9e0bb0817876","system_id":"levelo_inurba_marseille","lat":43.23184,"lon":5.39984,"is_reserved":false,"is_disabled":false,"rental_uris":{"android":"levelo://app?vid=1f414c8b-63c3-44b5-9ced-9e0bb0817876","ios":"levelo://app?vid=1f414c8b-63c3-44b5-9ced-9e0bb0817876"},"vehicle_type_id":"4","last_reported":1728652504,"current_range_meters":8400,"station_id":"ce4bhn12rcd13ifvqgqg","pricing_plan_id":"cebpf4jnsgd1na2vs0mg"},{"bike_id":"aeaf83a7-c8c7-41d2-871c-26003077fb12","system_id":"levelo_inurba_marseille","lat":43.2606,"lon":5.39388,"is_reserved":false,"is_disabled":false,"rental_uris":{"android":"levelo://app?vid=aeaf83a7-c8c7-41d2-871c-26003077fb12","ios":"levelo://app?vid=aeaf83a7-c8c7-41d2-871c-26003077fb12"},"vehicle_type_id":"4","last_reported":1728652504,"current_range_meters":20400,"station_id":"ce4bhh92rcd13ifvqfj0","pricing_plan_id":"cebpf4jnsgd1na2vs0mg"},{"bike_id":"da6ca620-0f24-4cf3-ad9a-abae2dd4d4ef","system_id":"levelo_inurba_marseille","lat":43.28715,"lon":5.37943,"is_reserved":false,"is_disabled":false,"rental_uris":{"android":"levelo://app?vid=da6ca620-0f24-4cf3-ad9a-abae2dd4d4ef","ios":"levelo://app?vid=da6ca620-0f24-4cf3-ad9a-abae2dd4d4ef"},"vehicle_type_id":"4","last_reported":1728652504,"current_range_meters":29600,"station_id":"ce4bh9p2rcd13ifvqec0","pricing_plan_id":"cebpf4jnsgd1na2vs0mg"},{"bike_id":"8dae5982-0bee-4bb9-8bb3-7822e71f6ac0","system_id":"levelo_inurba_marseille","lat":43.30144,"lon":5.39864,"is_reserved":false,"is_disabled":false,"rental_uris":{"android":"levelo://app?vid=8dae5982-0bee-4bb9-8bb3-7822e71f6ac0","ios":"levelo://app?vid=8dae5982-0bee-4bb9-8bb3-7822e71f6ac0"},"vehicle_type_id":"4","last_reported":1728652504,"current_range_meters":38800,"station_id":"ce4bh0h2rcd13ifvqd40","pricing_plan_id":"cebpf4jnsgd1na2vs0mg"},{"bike_id":"0d8b41b4-fb75-4182-be83-495fa42419cd","system_id":"levelo_inurba_marseille","lat":43.2797,"lon":5.38732,"is_reserved":false,"is_disabled":false,"rental_uris":{"android":"levelo://app?vid=0d8b41b4-fb75-4182-be83-495fa42419cd","ios":"levelo://app?vid=0d8b41b4-fb75-4182-be83-495fa42419cd"},"vehicle_type_id":"4","last_reported":1728652504,"current_range_meters":28000,"station_id":"ce4bhg12rcd13ifvqf80","pricing_plan_id":"cebpf4jnsgd1na2vs0mg"},{"bike_id":"adc9a243-eb5e-4015-b0da-79fc7feb398f","system_id":"levelo_inurba_marseille","lat":43.2827,"lon":5.35077,"is_reserved":false,"is_disabled":false,"rental_uris":{"android":"levelo://app?vid=adc9a243-eb5e-4015-b0da-79fc7feb398f","ios":"levelo://app?vid=adc9a243-eb5e-4015-b0da-79fc7feb398f"},"vehicle_type_id":"4","last_reported":1728652504,"current_range_meters":10800,"station_id":"ce4bhbp2rcd13ifvqerg","pricing_plan_id":"cebpf4jnsgd1na2vs0mg"},{"bike_id":"35cafdb8-e690-497c-b603-7797bfddd003","system_id":"levelo_inurba_marseille","lat":43.29706,"lon":5.36618,"is_reserved":false,"is_disabled":false,"rental_uris":{"android":"levelo://app?vid=35cafdb8-e690-497c-b603-7797bfddd003","ios":"levelo://app?vid=35cafdb8-e690-497c-b603-7797bfddd003"},"vehicle_type_id":"4","last_reported":1728652504,"current_range_meters":25200,"station_id":"ce4bgn12rcd13ifvqbt0","pricing_plan_id":"cebpf4jnsgd1na2vs0mg"},{"bike_id":"ef45b165-2c2b-4bf5-b417-cc338c1ff735","system_id":"levelo_inurba_marseille","lat":43.28423,"lon":5.34989,"is_reserved":false,"is_disabled":false,"rental_uris":{"android":"levelo://app?vid=ef45b165-2c2b-4bf5-b417-cc338c1ff735","ios":"levelo://app?vid=ef45b165-2c2b-4bf5-b417-cc338c1ff735"},"vehicle_type_id":"4","last_reported":1728652504,"current_range_meters":40000,"station_id":"ce4bhbh2rcd13ifvqepg","pricing_plan_id":"cebpf4jnsgd1na2vs0mg"},{"bike_id":"c2709d8c-182c-4c66-9678-32143d413767","system_id":"levelo_inurba_marseille","lat":43.22934,"lon":5.35381,"is_reserved":false,"is_disabled":false,"rental_uris":{"android":"levelo://app?vid=c2709d8c-182c-4c66-9678-32143d413767","ios":"levelo://app?vid=c2709d8c-182c-4c66-9678-32143d413767"},"vehicle_type_id":"4","last_reported":1728652504,"current_range_meters":30800,"station_id":"cpo3532slgdg3j2ikp40","pricing_plan_id":"cebpf4jnsgd1na2vs0mg"},{"bike_id":"18918580-8865-4ac7-9732-a146df714084","system_id":"levelo_inurba_marseille","lat":43.28937,"lon":5.3664,"is_reserved":false,"is_disabled":false,"rental_uris":{"android":"levelo://app?vid=18918580-8865-4ac7-9732-a146df714084","ios":"levelo://app?vid=18918580-8865-4ac7-9732-a146df714084"},"vehicle_type_id":"4","last_reported":1728652504,"current_range_meters":8400,"station_id":"ce4bhap2rcd13ifvqek0","pricing_plan_id":"cebpf4jnsgd1na2vs0mg"},{"bike_id":"8b3b1af1-5331-4163-962b-2d6eb80a6110","system_id":"levelo_inurba_marseille","lat":43.2993,"lon":5.36538,"is_reserved":false,"is_disabled":false,"rental_uris":{"android":"levelo://app?vid=8b3b1af1-5331-4163-962b-2d6eb80a6110","ios":"levelo://app?vid=8b3b1af1-5331-4163-962b-2d6eb80a6110"},"vehicle_type_id":"4","last_reported":1728652504,"current_range_meters":20000,"station_id":"ce4bgm92rcd13ifvqbr0","pricing_plan_id":"cebpf4jnsgd1na2vs0mg"},{"bike_id":"6b69a027-af47-4084-a27e-0fbd4bb4eb3d","system_id":"levelo_inurba_marseille","lat":43.290741,"lon":5.371613,"is_reserved":false,"is_disabled":false,"rental_uris":{"android":"levelo://app?vid=6b69a027-af47-4084-a27e-0fbd4bb4eb3d","ios":"levelo://app?vid=6b69a027-af47-4084-a27e-0fbd4bb4eb3d"},"vehicle_type_id":"4","last_reported":1728652504,"current_range_meters":24000,"station_id":"ce4bh5p2rcd13ifvqe4g","pricing_plan_id":"cebpf4jnsgd1na2vs0mg"},{"bike_id":"40dcd182-28c6-4943-9e83-4b2af6a80c84","system_id":"levelo_inurba_marseille","lat":43.247528,"lon":5.374214,"is_reserved":false,"is_disabled":false,"rental_uris":{"android":"levelo://app?vid=40dcd182-28c6-4943-9e83-4b2af6a80c84","ios":"levelo://app?vid=40dcd182-28c6-4943-9e83-4b2af6a80c84"},"vehicle_type_id":"4","last_reported":1728652504,"current_range_meters":38400,"station_id":"ce4bhgh2rcd13ifvqfb0","pricing_plan_id":"cebpf4jnsgd1na2vs0mg"},{"bike_id":"6b80ea20-c009-43b2-93ac-16abfe5ddcff","system_id":"levelo_inurba_marseille","lat":43.29278,"lon":5.36846,"is_reserved":false,"is_disabled":false,"rental_uris":{"android":"levelo://app?vid=6b80ea20-c009-43b2-93ac-16abfe5ddcff","ios":"levelo://app?vid=6b80ea20-c009-43b2-93ac-16abfe5ddcff"},"vehicle_type_id":"4","last_reported":1728652504,"current_range_meters":30800,"station_id":"ce4bhbp2rcd13ifvqesg","pricing_plan_id":"cebpf4jnsgd1na2vs0mg"},{"bike_id":"c647eca7-5527-42ea-bff6-f362b9a354c7","system_id":"levelo_inurba_marseille","lat":43.29709,"lon":5.36606,"is_reserved":false,"is_disabled":false,"rental_uris":{"android":"levelo://app?vid=c647eca7-5527-42ea-bff6-f362b9a354c7","ios":"levelo://app?vid=c647eca7-5527-42ea-bff6-f362b9a354c7"},"vehicle_type_id":"4","last_reported":1728652504,"current_range_meters":8400,"station_id":"ce4bgn12rcd13ifvqbt0","pricing_plan_id":"cebpf4jnsgd1na2vs0mg"},{"bike_id":"15d17ad8-8082-42ca-9529-21626d10a661","system_id":"levelo_inurba_marseille","lat":43.29895,"lon":5.4366,"is_reserved":false,"is_disabled":false,"rental_uris":{"android":"levelo://app?vid=15d17ad8-8082-42ca-9529-21626d10a661","ios":"levelo://app?vid=15d17ad8-8082-42ca-9529-21626d10a661"},"vehicle_type_id":"4","last_reported":1728652504,"current_range_meters":35200,"station_id":"ce4bhpp2rcd13ifvqhfg","pricing_plan_id":"cebpf4jnsgd1na2vs0mg"},{"bike_id":"b2b4b8c3-9fb6-44ba-a6c9-f715dd8b497e","system_id":"levelo_inurba_marseille","lat":43.30636,"lon":5.40091,"is_reserved":false,"is_disabled":false,"rental_uris":{"android":"levelo://app?vid=b2b4b8c3-9fb6-44ba-a6c9-f715dd8b497e","ios":"levelo://app?vid=b2b4b8c3-9fb6-44ba-a6c9-f715dd8b497e"},"vehicle_type_id":"4","last_reported":1728652504,"current_range_meters":25200,"station_id":"ce4bh112rcd13ifvqda0","pricing_plan_id":"cebpf4jnsgd1na2vs0mg"},{"bike_id":"30e5f0c1-a8ce-4008-a16d-48c87d9b3ca6","system_id":"levelo_inurba_marseille","lat":43.33777,"lon":5.37469,"is_reserved":false,"is_disabled":false,"rental_uris":{"android":"levelo://app?vid=30e5f0c1-a8ce-4008-a16d-48c87d9b3ca6","ios":"levelo://app?vid=30e5f0c1-a8ce-4008-a16d-48c87d9b3ca6"},"vehicle_type_id":"4","last_reported":1728652504,"current_range_meters":38800,"station_id":"","pricing_plan_id":"cebpf4jnsgd1na2vs0mg"},{"bike_id":"c42ca3f1-5e64-41a9-955f-13cdf1d79ea7","system_id":"levelo_inurba_marseille","lat":43.27182,"lon":5.40986,"is_reserved":false,"is_disabled":false,"rental_uris":{"android":"levelo://app?vid=c42ca3f1-5e64-41a9-955f-13cdf1d79ea7","ios":"levelo://app?vid=c42ca3f1-5e64-41a9-955f-13cdf1d79ea7"},"vehicle_type_id":"4","last_reported":1728652504,"current_range_meters":18000,"station_id":"ce4bhl12rcd13ifvqgf0","pricing_plan_id":"cebpf4jnsgd1na2vs0mg"},{"bike_id":"71afc88c-f31a-4d35-8f41-3a6da9afe2a7","system_id":"levelo_inurba_marseille","lat":43.33718,"lon":5.39182,"is_reserved":false,"is_disabled":false,"rental_uris":{"android":"levelo://app?vid=71afc88c-f31a-4d35-8f41-3a6da9afe2a7","ios":"levelo://app?vid=71afc88c-f31a-4d35-8f41-3a6da9afe2a7"},"vehicle_type_id":"4","last_reported":1728652504,"current_range_meters":28400,"station_id":"ce4bhr92rcd13ifvqhsg","pricing_plan_id":"cebpf4jnsgd1na2vs0mg"},{"bike_id":"73374a08-4a91-4113-a793-df0113ca08b9","system_id":"levelo_inurba_marseille","lat":43.28729,"lon":5.36075,"is_reserved":false,"is_disabled":false,"rental_uris":{"android":"levelo://app?vid=73374a08-4a91-4113-a793-df0113ca08b9","ios":"levelo://app?vid=73374a08-4a91-4113-a793-df0113ca08b9"},"vehicle_type_id":"4","last_reported":1728652504,"current_range_meters":33600,"station_id":"cki0cbj6b192h4jlfktg","pricing_plan_id":"cebpf4jnsgd1na2vs0mg"},{"bike_id":"7ac07773-ad1e-4cef-97bc-8db8f8394f62","system_id":"levelo_inurba_marseille","lat":43.30776,"lon":5.37663,"is_reserved":false,"is_disabled":false,"rental_uris":{"android":"levelo://app?vid=7ac07773-ad1e-4cef-97bc-8db8f8394f62","ios":"levelo://app?vid=7ac07773-ad1e-4cef-97bc-8db8f8394f62"},"vehicle_type_id":"4","last_reported":1728652504,"current_range_meters":35600,"station_id":"ce4bgv92rcd13ifvqcq0","pricing_plan_id":"cebpf4jnsgd1na2vs0mg"},{"bike_id":"4d0a39a3-d6c0-42b9-a4c9-f31a67360faa","system_id":"levelo_inurba_marseille","lat":43.28724,"lon":5.37933,"is_reserved":false,"is_disabled":false,"rental_uris":{"android":"levelo://app?vid=4d0a39a3-d6c0-42b9-a4c9-f31a67360faa","ios":"levelo://app?vid=4d0a39a3-d6c0-42b9-a4c9-f31a67360faa"},"vehicle_type_id":"4","last_reported":1728652504,"current_range_meters":16400,"station_id":"ce4bh9p2rcd13ifvqec0","pricing_plan_id":"cebpf4jnsgd1na2vs0mg"},{"bike_id":"c7877476-ef9a-4214-9dc7-994e8a74dba0","system_id":"levelo_inurba_marseille","lat":43.32477,"lon":5.36563,"is_reserved":false,"is_disabled":false,"rental_uris":{"android":"levelo://app?vid=c7877476-ef9a-4214-9dc7-994e8a74dba0","ios":"levelo://app?vid=c7877476-ef9a-4214-9dc7-994e8a74dba0"},"vehicle_type_id":"4","last_reported":1728652504,"current_range_meters":36800,"station_id":"ce4bhs12rcd13ifvqhvg","pricing_plan_id":"cebpf4jnsgd1na2vs0mg"},{"bike_id":"3d819519-2feb-41f9-9ba5-7980c2cc54aa","system_id":"levelo_inurba_marseille","lat":43.30534,"lon":5.36535,"is_reserved":false,"is_disabled":false,"rental_uris":{"android":"levelo://app?vid=3d819519-2feb-41f9-9ba5-7980c2cc54aa","ios":"levelo://app?vid=3d819519-2feb-41f9-9ba5-7980c2cc54aa"},"vehicle_type_id":"4","last_reported":1728652504,"current_range_meters":38800,"station_id":"ce4bgs12rcd13ifvqcag","pricing_plan_id":"cebpf4jnsgd1na2vs0mg"},{"bike_id":"c6938137-c0d6-4ace-b751-67f074547a5a","system_id":"levelo_inurba_marseille","lat":43.23151,"lon":5.43711,"is_reserved":false,"is_disabled":false,"rental_uris":{"android":"levelo://app?vid=c6938137-c0d6-4ace-b751-67f074547a5a","ios":"levelo://app?vid=c6938137-c0d6-4ace-b751-67f074547a5a"},"vehicle_type_id":"4","last_reported":1728652504,"current_range_meters":14800,"station_id":"ce4bhmp2rcd13ifvqgog","pricing_plan_id":"cebpf4jnsgd1na2vs0mg"},{"bike_id":"eee18a44-71b1-4c28-8ff2-72b1fbcb0b4b","system_id":"levelo_inurba_marseille","lat":43.22935,"lon":5.35378,"is_reserved":false,"is_disabled":false,"rental_uris":{"android":"levelo://app?vid=eee18a44-71b1-4c28-8ff2-72b1fbcb0b4b","ios":"levelo://app?vid=eee18a44-71b1-4c28-8ff2-72b1fbcb0b4b"},"vehicle_type_id":"4","last_reported":1728652504,"current_range_meters":6800,"station_id":"cpo3532slgdg3j2ikp40","pricing_plan_id":"cebpf4jnsgd1na2vs0mg"},{"bike_id":"7a95dd32-c096-40c0-9789-7e97a6d9d6b1","system_id":"levelo_inurba_marseille","lat":43.31367,"lon":5.3849,"is_reserved":false,"is_disabled":false,"rental_uris":{"android":"levelo://app?vid=7a95dd32-c096-40c0-9789-7e97a6d9d6b1","ios":"levelo://app?vid=7a95dd32-c096-40c0-9789-7e97a6d9d6b1"},"vehicle_type_id":"4","last_reported":1728652504,"current_range_meters":2800,"station_id":"ce4bgt92rcd13ifvqcf0","pricing_plan_id":"cebpf4jnsgd1na2vs0mg"},{"bike_id":"5b894182-9047-444a-be00-cdd9adafe8ba","system_id":"levelo_inurba_marseille","lat":43.28738,"lon":5.36071,"is_reserved":false,"is_disabled":false,"rental_uris":{"android":"levelo://app?vid=5b894182-9047-444a-be00-cdd9adafe8ba","ios":"levelo://app?vid=5b894182-9047-444a-be00-cdd9adafe8ba"},"vehicle_type_id":"4","last_reported":1728652504,"current_range_meters":24800,"station_id":"cki0cbj6b192h4jlfktg","pricing_plan_id":"cebpf4jnsgd1na2vs0mg"},{"bike_id":"cf54bc3a-b60f-4256-8ef7-7ab240fbef8f","system_id":"levelo_inurba_marseille","lat":43.24679,"lon":5.38165,"is_reserved":false,"is_disabled":false,"rental_uris":{"android":"levelo://app?vid=cf54bc3a-b60f-4256-8ef7-7ab240fbef8f","ios":"levelo://app?vid=cf54bc3a-b60f-4256-8ef7-7ab240fbef8f"},"vehicle_type_id":"4","last_reported":1728652504,"current_range_meters":12400,"station_id":"ce4bhih2rcd13ifvqfr0","pricing_plan_id":"cebpf4jnsgd1na2vs0mg"},{"bike_id":"20354bfd-2c33-4696-932e-ea337b5bdab5","system_id":"levelo_inurba_marseille","lat":43.28477,"lon":5.38404,"is_reserved":false,"is_disabled":false,"rental_uris":{"android":"levelo://app?vid=20354bfd-2c33-4696-932e-ea337b5bdab5","ios":"levelo://app?vid=20354bfd-2c33-4696-932e-ea337b5bdab5"},"vehicle_type_id":"4","last_reported":1728652504,"current_range_meters":30000,"station_id":"ce4bh512rcd13ifvqe3g","pricing_plan_id":"cebpf4jnsgd1na2vs0mg"},{"bike_id":"47717afc-4238-43f1-b35b-a62124556ff4","system_id":"levelo_inurba_marseille","lat":43.25866,"lon":5.39905,"is_reserved":false,"is_disabled":false,"rental_uris":{"android":"levelo://app?vid=47717afc-4238-43f1-b35b-a62124556ff4","ios":"levelo://app?vid=47717afc-4238-43f1-b35b-a62124556ff4"},"vehicle_type_id":"4","last_reported":1728652504,"current_range_meters":9200,"station_id":"ce4bhl92rcd13ifvqghg","pricing_plan_id":"cebpf4jnsgd1na2vs0mg"},{"bike_id":"487dab23-159c-430b-8b28-38018803c546","system_id":"levelo_inurba_marseille","lat":43.24385,"lon":5.37052,"is_reserved":false,"is_disabled":false,"rental_uris":{"android":"levelo://app?vid=487dab23-159c-430b-8b28-38018803c546","ios":"levelo://app?vid=487dab23-159c-430b-8b28-38018803c546"},"vehicle_type_id":"4","last_reported":1728652504,"current_range_meters":9200,"station_id":"ce4bhhh2rcd13ifvqfk0","pricing_plan_id":"cebpf4jnsgd1na2vs0mg"},{"bike_id":"40fbca46-73a1-48ae-8659-e9b241b4b040","system_id":"levelo_inurba_marseille","lat":43.28052,"lon":5.3696,"is_reserved":false,"is_disabled":false,"rental_uris":{"android":"levelo://app?vid=40fbca46-73a1-48ae-8659-e9b241b4b040","ios":"levelo://app?vid=40fbca46-73a1-48ae-8659-e9b241b4b040"},"vehicle_type_id":"4","last_reported":1728652504,"current_range_meters":19600,"station_id":"ce4bha12rcd13ifvqef0","pricing_plan_id":"cebpf4jnsgd1na2vs0mg"},{"bike_id":"a819ac71-b8e6-4ee1-963d-6be4f7f84b08","system_id":"levelo_inurba_marseille","lat":43.31678,"lon":5.40466,"is_reserved":false,"is_disabled":false,"rental_uris":{"android":"levelo://app?vid=a819ac71-b8e6-4ee1-963d-6be4f7f84b08","ios":"levelo://app?vid=a819ac71-b8e6-4ee1-963d-6be4f7f84b08"},"vehicle_type_id":"4","last_reported":1728652504,"current_range_meters":9600,"station_id":"ce4bh092rcd13ifvqd30","pricing_plan_id":"cebpf4jnsgd1na2vs0mg"},{"bike_id":"684d88b2-eb8c-4e05-ae37-d1d8a22b101a","system_id":"levelo_inurba_marseille","lat":43.23148,"lon":5.43715,"is_reserved":false,"is_disabled":false,"rental_uris":{"android":"levelo://app?vid=684d88b2-eb8c-4e05-ae37-d1d8a22b101a","ios":"levelo://app?vid=684d88b2-eb8c-4e05-ae37-d1d8a22b101a"},"vehicle_type_id":"4","last_reported":1728652504,"current_range_meters":28800,"station_id":"ce4bhmp2rcd13ifvqgog","pricing_plan_id":"cebpf4jnsgd1na2vs0mg"},{"bike_id":"ff68b789-7173-415f-860f-fb58c1b9d01d","system_id":"levelo_inurba_marseille","lat":43.22929,"lon":5.3538,"is_reserved":false,"is_disabled":false,"rental_uris":{"android":"levelo://app?vid=ff68b789-7173-415f-860f-fb58c1b9d01d","ios":"levelo://app?vid=ff68b789-7173-415f-860f-fb58c1b9d01d"},"vehicle_type_id":"4","last_reported":1728652504,"current_range_meters":30800,"station_id":"cpo3532slgdg3j2ikp40","pricing_plan_id":"cebpf4jnsgd1na2vs0mg"},{"bike_id":"11ed2bc4-99e4-42ab-8911-f3374fcced68","system_id":"levelo_inurba_marseille","lat":43.27179,"lon":5.40989,"is_reserved":false,"is_disabled":false,"rental_uris":{"android":"levelo://app?vid=11ed2bc4-99e4-42ab-8911-f3374fcced68","ios":"levelo://app?vid=11ed2bc4-99e4-42ab-8911-f3374fcced68"},"vehicle_type_id":"4","last_reported":1728652504,"current_range_meters":36800,"station_id":"ce4bhl12rcd13ifvqgf0","pricing_plan_id":"cebpf4jnsgd1na2vs0mg"},{"bike_id":"6748690c-4f5b-4d13-815c-8f896275efc2","system_id":"levelo_inurba_marseille","lat":43.31123,"lon":5.37759,"is_reserved":false,"is_disabled":false,"rental_uris":{"android":"levelo://app?vid=6748690c-4f5b-4d13-815c-8f896275efc2","ios":"levelo://app?vid=6748690c-4f5b-4d13-815c-8f896275efc2"},"vehicle_type_id":"4","last_reported":1728652504,"current_range_meters":29600,"station_id":"ce4bgt92rcd13ifvqcg0","pricing_plan_id":"cebpf4jnsgd1na2vs0mg"},{"bike_id":"63a47cdb-ecf8-492e-9ec9-010bb80f8f18","system_id":"levelo_inurba_marseille","lat":43.299652,"lon":5.384834,"is_reserved":false,"is_disabled":false,"rental_uris":{"android":"levelo://app?vid=63a47cdb-ecf8-492e-9ec9-010bb80f8f18","ios":"levelo://app?vid=63a47cdb-ecf8-492e-9ec9-010bb80f8f18"},"vehicle_type_id":"4","last_reported":1728652504,"current_range_meters":10000,"station_id":"ce4bgj92rcd13ifvqbd0","pricing_plan_id":"cebpf4jnsgd1na2vs0mg"},{"bike_id":"6cb5b02c-2401-484a-8b7d-b4d2106d6b08","system_id":"levelo_inurba_marseille","lat":43.2319,"lon":5.35556,"is_reserved":false,"is_disabled":false,"rental_uris":{"android":"levelo://app?vid=6cb5b02c-2401-484a-8b7d-b4d2106d6b08","ios":"levelo://app?vid=6cb5b02c-2401-484a-8b7d-b4d2106d6b08"},"vehicle_type_id":"4","last_reported":1728652504,"current_range_meters":36400,"station_id":"ce4bhu92rcd13ifvqi70","pricing_plan_id":"cebpf4jnsgd1na2vs0mg"},{"bike_id":"7ac7e627-06e3-49fc-b1d7-b6203dd7d747","system_id":"levelo_inurba_marseille","lat":43.31762,"lon":5.39014,"is_reserved":false,"is_disabled":false,"rental_uris":{"android":"levelo://app?vid=7ac7e627-06e3-49fc-b1d7-b6203dd7d747","ios":"levelo://app?vid=7ac7e627-06e3-49fc-b1d7-b6203dd7d747"},"vehicle_type_id":"4","last_reported":1728652504,"current_range_meters":8800,"station_id":"ce4bhqp2rcd13ifvqhng","pricing_plan_id":"cebpf4jnsgd1na2vs0mg"},{"bike_id":"f06ff067-23b3-45aa-b448-e20cbc870865","system_id":"levelo_inurba_marseille","lat":43.26493,"lon":5.39544,"is_reserved":false,"is_disabled":false,"rental_uris":{"android":"levelo://app?vid=f06ff067-23b3-45aa-b448-e20cbc870865","ios":"levelo://app?vid=f06ff067-23b3-45aa-b448-e20cbc870865"},"vehicle_type_id":"4","last_reported":1728652504,"current_range_meters":25200,"station_id":"ce4bhi12rcd13ifvqfq0","pricing_plan_id":"cebpf4jnsgd1na2vs0mg"},{"bike_id":"29493c8f-8461-4d39-b5a3-551c210f2171","system_id":"levelo_inurba_marseille","lat":43.28038,"lon":5.36944,"is_reserved":false,"is_disabled":false,"rental_uris":{"android":"levelo://app?vid=29493c8f-8461-4d39-b5a3-551c210f2171","ios":"levelo://app?vid=29493c8f-8461-4d39-b5a3-551c210f2171"},"vehicle_type_id":"4","last_reported":1728652504,"current_range_meters":35200,"station_id":"ce4bha12rcd13ifvqef0","pricing_plan_id":"cebpf4jnsgd1na2vs0mg"},{"bike_id":"c417019c-5367-4191-a213-8153b6c2ea08","system_id":"levelo_inurba_marseille","lat":43.32484,"lon":5.36566,"is_reserved":false,"is_disabled":false,"rental_uris":{"android":"levelo://app?vid=c417019c-5367-4191-a213-8153b6c2ea08","ios":"levelo://app?vid=c417019c-5367-4191-a213-8153b6c2ea08"},"vehicle_type_id":"4","last_reported":1728652504,"current_range_meters":25200,"station_id":"ce4bhs12rcd13ifvqhvg","pricing_plan_id":"cebpf4jnsgd1na2vs0mg"},{"bike_id":"44c4e2cb-0dae-4c90-ac01-ffed0976125e","system_id":"levelo_inurba_marseille","lat":43.28256,"lon":5.35071,"is_reserved":false,"is_disabled":false,"rental_uris":{"android":"levelo://app?vid=44c4e2cb-0dae-4c90-ac01-ffed0976125e","ios":"levelo://app?vid=44c4e2cb-0dae-4c90-ac01-ffed0976125e"},"vehicle_type_id":"4","last_reported":1728652504,"current_range_meters":37600,"station_id":"ce4bhbp2rcd13ifvqerg","pricing_plan_id":"cebpf4jnsgd1na2vs0mg"},{"bike_id":"1c8deb49-48e6-42bc-92ff-8eefc540ca64","system_id":"levelo_inurba_marseille","lat":43.30539,"lon":5.3654,"is_reserved":false,"is_disabled":false,"rental_uris":{"android":"levelo://app?vid=1c8deb49-48e6-42bc-92ff-8eefc540ca64","ios":"levelo://app?vid=1c8deb49-48e6-42bc-92ff-8eefc540ca64"},"vehicle_type_id":"4","last_reported":1728652504,"current_range_meters":35600,"station_id":"ce4bgs12rcd13ifvqcag","pricing_plan_id":"cebpf4jnsgd1na2vs0mg"},{"bike_id":"273cad2f-2110-4e77-9fb5-e68c96f5a998","system_id":"levelo_inurba_marseille","lat":43.26487,"lon":5.39546,"is_reserved":false,"is_disabled":false,"rental_uris":{"android":"levelo://app?vid=273cad2f-2110-4e77-9fb5-e68c96f5a998","ios":"levelo://app?vid=273cad2f-2110-4e77-9fb5-e68c96f5a998"},"vehicle_type_id":"4","last_reported":1728652504,"current_range_meters":37600,"station_id":"ce4bhi12rcd13ifvqfq0","pricing_plan_id":"cebpf4jnsgd1na2vs0mg"},{"bike_id":"34a37c96-76e3-4d1f-a9c6-c03590d95344","system_id":"levelo_inurba_marseille","lat":43.29042,"lon":5.35908,"is_reserved":false,"is_disabled":false,"rental_uris":{"android":"levelo://app?vid=34a37c96-76e3-4d1f-a9c6-c03590d95344","ios":"levelo://app?vid=34a37c96-76e3-4d1f-a9c6-c03590d95344"},"vehicle_type_id":"4","last_reported":1728652504,"current_range_meters":38800,"station_id":"ce4bha92rcd13ifvqeg0","pricing_plan_id":"cebpf4jnsgd1na2vs0mg"},{"bike_id":"a9cb6427-421a-4984-b472-0272a06a4a23","system_id":"levelo_inurba_marseille","lat":43.23962,"lon":5.3664,"is_reserved":false,"is_disabled":false,"rental_uris":{"android":"levelo://app?vid=a9cb6427-421a-4984-b472-0272a06a4a23","ios":"levelo://app?vid=a9cb6427-421a-4984-b472-0272a06a4a23"},"vehicle_type_id":"4","last_reported":1728652504,"current_range_meters":37600,"station_id":"ce4bhi12rcd13ifvqfp0","pricing_plan_id":"cebpf4jnsgd1na2vs0mg"},{"bike_id":"0218be81-a023-4135-a21e-30236bb4a4a4","system_id":"levelo_inurba_marseille","lat":43.32107,"lon":5.36777,"is_reserved":false,"is_disabled":false,"rental_uris":{"android":"levelo://app?vid=0218be81-a023-4135-a21e-30236bb4a4a4","ios":"levelo://app?vid=0218be81-a023-4135-a21e-30236bb4a4a4"},"vehicle_type_id":"4","last_reported":1728652504,"current_range_meters":38000,"station_id":"ce4bhrh2rcd13ifvqhug","pricing_plan_id":"cebpf4jnsgd1na2vs0mg"},{"bike_id":"f80c2e75-b47f-4161-9783-8454957aba75","system_id":"levelo_inurba_marseille","lat":43.32102,"lon":5.36768,"is_reserved":false,"is_disabled":false,"rental_uris":{"android":"levelo://app?vid=f80c2e75-b47f-4161-9783-8454957aba75","ios":"levelo://app?vid=f80c2e75-b47f-4161-9783-8454957aba75"},"vehicle_type_id":"4","last_reported":1728652504,"current_range_meters":4000,"station_id":"ce4bhrh2rcd13ifvqhug","pricing_plan_id":"cebpf4jnsgd1na2vs0mg"},{"bike_id":"395c62ea-b310-451b-a841-8f06bdf46914","system_id":"levelo_inurba_marseille","lat":43.29709,"lon":5.366065,"is_reserved":false,"is_disabled":false,"rental_uris":{"android":"levelo://app?vid=395c62ea-b310-451b-a841-8f06bdf46914","ios":"levelo://app?vid=395c62ea-b310-451b-a841-8f06bdf46914"},"vehicle_type_id":"4","last_reported":1728652504,"current_range_meters":12000,"station_id":"ce4bgn12rcd13ifvqbt0","pricing_plan_id":"cebpf4jnsgd1na2vs0mg"},{"bike_id":"cb06aaa1-5ef1-4aba-a99f-b8375e142e9f","system_id":"levelo_inurba_marseille","lat":43.30928,"lon":5.40146,"is_reserved":false,"is_disabled":false,"rental_uris":{"android":"levelo://app?vid=cb06aaa1-5ef1-4aba-a99f-b8375e142e9f","ios":"levelo://app?vid=cb06aaa1-5ef1-4aba-a99f-b8375e142e9f"},"vehicle_type_id":"4","last_reported":1728652504,"current_range_meters":36400,"station_id":"ce4bgvp2rcd13ifvqct0","pricing_plan_id":"cebpf4jnsgd1na2vs0mg"},{"bike_id":"2b334fa6-9936-4b1d-9f5e-a76a047eb374","system_id":"levelo_inurba_marseille","lat":43.29302,"lon":5.37175,"is_reserved":false,"is_disabled":false,"rental_uris":{"android":"levelo://app?vid=2b334fa6-9936-4b1d-9f5e-a76a047eb374","ios":"levelo://app?vid=2b334fa6-9936-4b1d-9f5e-a76a047eb374"},"vehicle_type_id":"4","last_reported":1728652504,"current_range_meters":37600,"station_id":"ce4bgh92rcd13ifvqb40","pricing_plan_id":"cebpf4jnsgd1na2vs0mg"},{"bike_id":"1350ca88-7207-4db6-9a70-5e7e18d77c80","system_id":"levelo_inurba_marseille","lat":43.24386,"lon":5.37058,"is_reserved":false,"is_disabled":false,"rental_uris":{"android":"levelo://app?vid=1350ca88-7207-4db6-9a70-5e7e18d77c80","ios":"levelo://app?vid=1350ca88-7207-4db6-9a70-5e7e18d77c80"},"vehicle_type_id":"4","last_reported":1728652504,"current_range_meters":36000,"station_id":"ce4bhhh2rcd13ifvqfk0","pricing_plan_id":"cebpf4jnsgd1na2vs0mg"},{"bike_id":"a6178b2a-4bc1-4506-9d6f-f1d6a693eec9","system_id":"levelo_inurba_marseille","lat":43.30463,"lon":5.37912,"is_reserved":false,"is_disabled":false,"rental_uris":{"android":"levelo://app?vid=a6178b2a-4bc1-4506-9d6f-f1d6a693eec9","ios":"levelo://app?vid=a6178b2a-4bc1-4506-9d6f-f1d6a693eec9"},"vehicle_type_id":"4","last_reported":1728652504,"current_range_meters":28800,"station_id":"ce4bgup2rcd13ifvqcn0","pricing_plan_id":"cebpf4jnsgd1na2vs0mg"},{"bike_id":"b933402b-d1ca-49a8-bbf7-fb19281d941c","system_id":"levelo_inurba_marseille","lat":43.23191,"lon":5.35556,"is_reserved":false,"is_disabled":false,"rental_uris":{"android":"levelo://app?vid=b933402b-d1ca-49a8-bbf7-fb19281d941c","ios":"levelo://app?vid=b933402b-d1ca-49a8-bbf7-fb19281d941c"},"vehicle_type_id":"4","last_reported":1728652504,"current_range_meters":27200,"station_id":"ce4bhu92rcd13ifvqi70","pricing_plan_id":"cebpf4jnsgd1na2vs0mg"},{"bike_id":"f5025c91-10ce-417c-b0cc-aa63fb454c26","system_id":"levelo_inurba_marseille","lat":43.24646,"lon":5.38887,"is_reserved":false,"is_disabled":false,"rental_uris":{"android":"levelo://app?vid=f5025c91-10ce-417c-b0cc-aa63fb454c26","ios":"levelo://app?vid=f5025c91-10ce-417c-b0cc-aa63fb454c26"},"vehicle_type_id":"4","last_reported":1728652504,"current_range_meters":34800,"station_id":"ce4bhg12rcd13ifvqf60","pricing_plan_id":"cebpf4jnsgd1na2vs0mg"},{"bike_id":"ff47af7c-ed47-4c74-b411-45dda43901bc","system_id":"levelo_inurba_marseille","lat":43.28697,"lon":5.37384,"is_reserved":false,"is_disabled":false,"rental_uris":{"android":"levelo://app?vid=ff47af7c-ed47-4c74-b411-45dda43901bc","ios":"levelo://app?vid=ff47af7c-ed47-4c74-b411-45dda43901bc"},"vehicle_type_id":"4","last_reported":1728652504,"current_range_meters":36000,"station_id":"ce4bh3p2rcd13ifvqdq0","pricing_plan_id":"cebpf4jnsgd1na2vs0mg"},{"bike_id":"1bf39129-7013-4caa-8d33-ef279b792ee7","system_id":"levelo_inurba_marseille","lat":43.25584,"lon":5.38229,"is_reserved":false,"is_disabled":false,"rental_uris":{"android":"levelo://app?vid=1bf39129-7013-4caa-8d33-ef279b792ee7","ios":"levelo://app?vid=1bf39129-7013-4caa-8d33-ef279b792ee7"},"vehicle_type_id":"4","last_reported":1728652504,"current_range_meters":6800,"station_id":"ce4bhih2rcd13ifvqfs0","pricing_plan_id":"cebpf4jnsgd1na2vs0mg"},{"bike_id":"e72f6259-66a3-4007-8aa1-7b04c3c8b318","system_id":"levelo_inurba_marseille","lat":43.25501,"lon":5.37654,"is_reserved":false,"is_disabled":false,"rental_uris":{"android":"levelo://app?vid=e72f6259-66a3-4007-8aa1-7b04c3c8b318","ios":"levelo://app?vid=e72f6259-66a3-4007-8aa1-7b04c3c8b318"},"vehicle_type_id":"4","last_reported":1728652504,"current_range_meters":38400,"station_id":"ce4bhh12rcd13ifvqff0","pricing_plan_id":"cebpf4jnsgd1na2vs0mg"},{"bike_id":"1430f6f2-73dd-42ca-8307-5f209eb4a512","system_id":"levelo_inurba_marseille","lat":43.29454,"lon":5.37615,"is_reserved":false,"is_disabled":false,"rental_uris":{"android":"levelo://app?vid=1430f6f2-73dd-42ca-8307-5f209eb4a512","ios":"levelo://app?vid=1430f6f2-73dd-42ca-8307-5f209eb4a512"},"vehicle_type_id":"4","last_reported":1728652504,"current_range_meters":7200,"station_id":"","pricing_plan_id":"cebpf4jnsgd1na2vs0mg"},{"bike_id":"484a4c63-4ef1-4433-b27a-9a9ca5ad2f9a","system_id":"levelo_inurba_marseille","lat":43.22926,"lon":5.35381,"is_reserved":false,"is_disabled":false,"rental_uris":{"android":"levelo://app?vid=484a4c63-4ef1-4433-b27a-9a9ca5ad2f9a","ios":"levelo://app?vid=484a4c63-4ef1-4433-b27a-9a9ca5ad2f9a"},"vehicle_type_id":"4","last_reported":1728652504,"current_range_meters":16400,"station_id":"cpo3532slgdg3j2ikp40","pricing_plan_id":"cebpf4jnsgd1na2vs0mg"},{"bike_id":"75a3eee1-3863-4a11-86de-a545c87d8ffe","system_id":"levelo_inurba_marseille","lat":43.25505,"lon":5.37648,"is_reserved":false,"is_disabled":false,"rental_uris":{"android":"levelo://app?vid=75a3eee1-3863-4a11-86de-a545c87d8ffe","ios":"levelo://app?vid=75a3eee1-3863-4a11-86de-a545c87d8ffe"},"vehicle_type_id":"4","last_reported":1728652504,"current_range_meters":28400,"station_id":"ce4bhh12rcd13ifvqff0","pricing_plan_id":"cebpf4jnsgd1na2vs0mg"},{"bike_id":"d78f0c59-f634-42b1-a587-b43ca8664564","system_id":"levelo_inurba_marseille","lat":43.30318,"lon":5.40437,"is_reserved":false,"is_disabled":false,"rental_uris":{"android":"levelo://app?vid=d78f0c59-f634-42b1-a587-b43ca8664564","ios":"levelo://app?vid=d78f0c59-f634-42b1-a587-b43ca8664564"},"vehicle_type_id":"4","last_reported":1728652504,"current_range_meters":4000,"station_id":"ce4bh012rcd13ifvqd10","pricing_plan_id":"cebpf4jnsgd1na2vs0mg"},{"bike_id":"0ee70856-9a00-48c6-a09b-236024c7a8f9","system_id":"levelo_inurba_marseille","lat":43.31495,"lon":5.37305,"is_reserved":false,"is_disabled":false,"rental_uris":{"android":"levelo://app?vid=0ee70856-9a00-48c6-a09b-236024c7a8f9","ios":"levelo://app?vid=0ee70856-9a00-48c6-a09b-236024c7a8f9"},"vehicle_type_id":"4","last_reported":1728652504,"current_range_meters":28400,"station_id":"ce4bgth2rcd13ifvqch0","pricing_plan_id":"cebpf4jnsgd1na2vs0mg"},{"bike_id":"84935173-08eb-4c47-b6dd-960520a0292b","system_id":"levelo_inurba_marseille","lat":43.30118,"lon":5.39858,"is_reserved":false,"is_disabled":false,"rental_uris":{"android":"levelo://app?vid=84935173-08eb-4c47-b6dd-960520a0292b","ios":"levelo://app?vid=84935173-08eb-4c47-b6dd-960520a0292b"},"vehicle_type_id":"4","last_reported":1728652504,"current_range_meters":38800,"station_id":"ce4bh0h2rcd13ifvqd40","pricing_plan_id":"cebpf4jnsgd1na2vs0mg"},{"bike_id":"fe4a255c-497a-4395-9576-9d3b5fe8157e","system_id":"levelo_inurba_marseille","lat":43.248047,"lon":5.374603,"is_reserved":false,"is_disabled":false,"rental_uris":{"android":"levelo://app?vid=fe4a255c-497a-4395-9576-9d3b5fe8157e","ios":"levelo://app?vid=fe4a255c-497a-4395-9576-9d3b5fe8157e"},"vehicle_type_id":"4","last_reported":1728652504,"current_range_meters":11200,"station_id":"ce4bhgh2rcd13ifvqfb0","pricing_plan_id":"cebpf4jnsgd1na2vs0mg"},{"bike_id":"39bb093e-1fb0-4fe9-a7de-f970ccf3512f","system_id":"levelo_inurba_marseille","lat":43.22932,"lon":5.35378,"is_reserved":false,"is_disabled":false,"rental_uris":{"android":"levelo://app?vid=39bb093e-1fb0-4fe9-a7de-f970ccf3512f","ios":"levelo://app?vid=39bb093e-1fb0-4fe9-a7de-f970ccf3512f"},"vehicle_type_id":"4","last_reported":1728652504,"current_range_meters":25200,"station_id":"cpo3532slgdg3j2ikp40","pricing_plan_id":"cebpf4jnsgd1na2vs0mg"},{"bike_id":"97d9e512-5065-46d6-a084-374e47a59f55","system_id":"levelo_inurba_marseille","lat":43.30551,"lon":5.36553,"is_reserved":false,"is_disabled":false,"rental_uris":{"android":"levelo://app?vid=97d9e512-5065-46d6-a084-374e47a59f55","ios":"levelo://app?vid=97d9e512-5065-46d6-a084-374e47a59f55"},"vehicle_type_id":"4","last_reported":1728652504,"current_range_meters":31200,"station_id":"ce4bgs12rcd13ifvqcag","pricing_plan_id":"cebpf4jnsgd1na2vs0mg"},{"bike_id":"779abea3-10c7-4fb1-b30c-7223e06821ec","system_id":"levelo_inurba_marseille","lat":43.28483,"lon":5.38542,"is_reserved":false,"is_disabled":false,"rental_uris":{"android":"levelo://app?vid=779abea3-10c7-4fb1-b30c-7223e06821ec","ios":"levelo://app?vid=779abea3-10c7-4fb1-b30c-7223e06821ec"},"vehicle_type_id":"4","last_reported":1728652504,"current_range_meters":5600,"station_id":"ce4bh8p2rcd13ifvqeb0","pricing_plan_id":"cebpf4jnsgd1na2vs0mg"},{"bike_id":"de1b9930-e636-46d5-bc4b-40e16bee5c28","system_id":"levelo_inurba_marseille","lat":43.28275,"lon":5.3508,"is_reserved":false,"is_disabled":false,"rental_uris":{"android":"levelo://app?vid=de1b9930-e636-46d5-bc4b-40e16bee5c28","ios":"levelo://app?vid=de1b9930-e636-46d5-bc4b-40e16bee5c28"},"vehicle_type_id":"4","last_reported":1728652504,"current_range_meters":26000,"station_id":"ce4bhbp2rcd13ifvqerg","pricing_plan_id":"cebpf4jnsgd1na2vs0mg"},{"bike_id":"5ae2683b-8a70-4e9f-8c7c-2eef71050cef","system_id":"levelo_inurba_marseille","lat":43.32368,"lon":5.38881,"is_reserved":false,"is_disabled":false,"rental_uris":{"android":"levelo://app?vid=5ae2683b-8a70-4e9f-8c7c-2eef71050cef","ios":"levelo://app?vid=5ae2683b-8a70-4e9f-8c7c-2eef71050cef"},"vehicle_type_id":"4","last_reported":1728652504,"current_range_meters":18800,"station_id":"ce4bhqp2rcd13ifvqhog","pricing_plan_id":"cebpf4jnsgd1na2vs0mg"},{"bike_id":"86b60c80-b076-4961-b7ae-25f83be4039d","system_id":"levelo_inurba_marseille","lat":43.29914,"lon":5.36338,"is_reserved":false,"is_disabled":false,"rental_uris":{"android":"levelo://app?vid=86b60c80-b076-4961-b7ae-25f83be4039d","ios":"levelo://app?vid=86b60c80-b076-4961-b7ae-25f83be4039d"},"vehicle_type_id":"4","last_reported":1728652504,"current_range_meters":38800,"station_id":"ce4bgpp2rcd13ifvqc3g","pricing_plan_id":"cebpf4jnsgd1na2vs0mg"},{"bike_id":"f0c628cf-1f11-4514-bb66-f2ef1d04937d","system_id":"levelo_inurba_marseille","lat":43.32042,"lon":5.41567,"is_reserved":false,"is_disabled":false,"rental_uris":{"android":"levelo://app?vid=f0c628cf-1f11-4514-bb66-f2ef1d04937d","ios":"levelo://app?vid=f0c628cf-1f11-4514-bb66-f2ef1d04937d"},"vehicle_type_id":"4","last_reported":1728652504,"current_range_meters":17600,"station_id":"ce4bhq92rcd13ifvqhkg","pricing_plan_id":"cebpf4jnsgd1na2vs0mg"},{"bike_id":"07573ff7-7c48-4a5f-9bd0-2a3f2b9d68d5","system_id":"levelo_inurba_marseille","lat":43.22926,"lon":5.35373,"is_reserved":false,"is_disabled":false,"rental_uris":{"android":"levelo://app?vid=07573ff7-7c48-4a5f-9bd0-2a3f2b9d68d5","ios":"levelo://app?vid=07573ff7-7c48-4a5f-9bd0-2a3f2b9d68d5"},"vehicle_type_id":"4","last_reported":1728652504,"current_range_meters":3200,"station_id":"cpo3532slgdg3j2ikp40","pricing_plan_id":"cebpf4jnsgd1na2vs0mg"},{"bike_id":"5a5649e8-a9bc-4d0f-be41-ed6fc56a9baf","system_id":"levelo_inurba_marseille","lat":43.22925,"lon":5.35379,"is_reserved":false,"is_disabled":false,"rental_uris":{"android":"levelo://app?vid=5a5649e8-a9bc-4d0f-be41-ed6fc56a9baf","ios":"levelo://app?vid=5a5649e8-a9bc-4d0f-be41-ed6fc56a9baf"},"vehicle_type_id":"4","last_reported":1728652504,"current_range_meters":36800,"station_id":"cpo3532slgdg3j2ikp40","pricing_plan_id":"cebpf4jnsgd1na2vs0mg"},{"bike_id":"f1f5206c-1454-4bd6-ad35-1c5faeebcb5b","system_id":"levelo_inurba_marseille","lat":43.28453,"lon":5.35888,"is_reserved":false,"is_disabled":false,"rental_uris":{"android":"levelo://app?vid=f1f5206c-1454-4bd6-ad35-1c5faeebcb5b","ios":"levelo://app?vid=f1f5206c-1454-4bd6-ad35-1c5faeebcb5b"},"vehicle_type_id":"4","last_reported":1728652504,"current_range_meters":38800,"station_id":"ce4bhah2rcd13ifvqei0","pricing_plan_id":"cebpf4jnsgd1na2vs0mg"},{"bike_id":"120745e3-238a-49d1-b748-048446932b6e","system_id":"levelo_inurba_marseille","lat":43.2872,"lon":5.37933,"is_reserved":false,"is_disabled":false,"rental_uris":{"android":"levelo://app?vid=120745e3-238a-49d1-b748-048446932b6e","ios":"levelo://app?vid=120745e3-238a-49d1-b748-048446932b6e"},"vehicle_type_id":"4","last_reported":1728652504,"current_range_meters":38800,"station_id":"ce4bh9p2rcd13ifvqec0","pricing_plan_id":"cebpf4jnsgd1na2vs0mg"},{"bike_id":"dbbebaaa-01ef-4ef9-bf34-4650ea8d492c","system_id":"levelo_inurba_marseille","lat":43.25117,"lon":5.4032,"is_reserved":false,"is_disabled":false,"rental_uris":{"android":"levelo://app?vid=dbbebaaa-01ef-4ef9-bf34-4650ea8d492c","ios":"levelo://app?vid=dbbebaaa-01ef-4ef9-bf34-4650ea8d492c"},"vehicle_type_id":"4","last_reported":1728652504,"current_range_meters":8000,"station_id":"ce4bhlh2rcd13ifvqgig","pricing_plan_id":"cebpf4jnsgd1na2vs0mg"},{"bike_id":"f810505e-45f7-4dcb-9d5f-e7095403f7b8","system_id":"levelo_inurba_marseille","lat":43.29002,"lon":5.35619,"is_reserved":false,"is_disabled":false,"rental_uris":{"android":"levelo://app?vid=f810505e-45f7-4dcb-9d5f-e7095403f7b8","ios":"levelo://app?vid=f810505e-45f7-4dcb-9d5f-e7095403f7b8"},"vehicle_type_id":"4","last_reported":1728652504,"current_range_meters":8800,"station_id":"ce4bhb92rcd13ifvqen0","pricing_plan_id":"cebpf4jnsgd1na2vs0mg"},{"bike_id":"92092275-3bc2-42b7-ba9a-44a1f2105c14","system_id":"levelo_inurba_marseille","lat":43.24662,"lon":5.38168,"is_reserved":false,"is_disabled":false,"rental_uris":{"android":"levelo://app?vid=92092275-3bc2-42b7-ba9a-44a1f2105c14","ios":"levelo://app?vid=92092275-3bc2-42b7-ba9a-44a1f2105c14"},"vehicle_type_id":"4","last_reported":1728652504,"current_range_meters":19600,"station_id":"ce4bhih2rcd13ifvqfr0","pricing_plan_id":"cebpf4jnsgd1na2vs0mg"},{"bike_id":"fea68042-6912-4946-948b-ae6c942d18e2","system_id":"levelo_inurba_marseille","lat":43.24995,"lon":5.38933,"is_reserved":false,"is_disabled":false,"rental_uris":{"android":"levelo://app?vid=fea68042-6912-4946-948b-ae6c942d18e2","ios":"levelo://app?vid=fea68042-6912-4946-948b-ae6c942d18e2"},"vehicle_type_id":"4","last_reported":1728652504,"current_range_meters":26000,"station_id":"ce4bhgp2rcd13ifvqfd0","pricing_plan_id":"cebpf4jnsgd1na2vs0mg"},{"bike_id":"da5c52fd-3d7e-4f3c-aa2e-a5e970b78f93","system_id":"levelo_inurba_marseille","lat":43.24173,"lon":5.39721,"is_reserved":false,"is_disabled":false,"rental_uris":{"android":"levelo://app?vid=da5c52fd-3d7e-4f3c-aa2e-a5e970b78f93","ios":"levelo://app?vid=da5c52fd-3d7e-4f3c-aa2e-a5e970b78f93"},"vehicle_type_id":"4","last_reported":1728652504,"current_range_meters":8800,"station_id":"ce4bhn12rcd13ifvqgpg","pricing_plan_id":"cebpf4jnsgd1na2vs0mg"},{"bike_id":"8fb2b431-bcb9-46ba-80fb-e26e84592fc5","system_id":"levelo_inurba_marseille","lat":43.23191,"lon":5.35558,"is_reserved":false,"is_disabled":false,"rental_uris":{"android":"levelo://app?vid=8fb2b431-bcb9-46ba-80fb-e26e84592fc5","ios":"levelo://app?vid=8fb2b431-bcb9-46ba-80fb-e26e84592fc5"},"vehicle_type_id":"4","last_reported":1728652504,"current_range_meters":36800,"station_id":"ce4bhu92rcd13ifvqi70","pricing_plan_id":"cebpf4jnsgd1na2vs0mg"},{"bike_id":"fd38f279-849d-4629-93fc-f67419de4998","system_id":"levelo_inurba_marseille","lat":43.28158,"lon":5.42636,"is_reserved":false,"is_disabled":false,"rental_uris":{"android":"levelo://app?vid=fd38f279-849d-4629-93fc-f67419de4998","ios":"levelo://app?vid=fd38f279-849d-4629-93fc-f67419de4998"},"vehicle_type_id":"4","last_reported":1728652504,"current_range_meters":25600,"station_id":"","pricing_plan_id":"cebpf4jnsgd1na2vs0mg"},{"bike_id":"313b35b2-bbdf-404c-8265-0603a4f0b56a","system_id":"levelo_inurba_marseille","lat":43.30464,"lon":5.37914,"is_reserved":false,"is_disabled":false,"rental_uris":{"android":"levelo://app?vid=313b35b2-bbdf-404c-8265-0603a4f0b56a","ios":"levelo://app?vid=313b35b2-bbdf-404c-8265-0603a4f0b56a"},"vehicle_type_id":"4","last_reported":1728652504,"current_range_meters":22400,"station_id":"ce4bgup2rcd13ifvqcn0","pricing_plan_id":"cebpf4jnsgd1na2vs0mg"},{"bike_id":"9930c452-aad2-4044-82f1-b5765c20877f","system_id":"levelo_inurba_marseille","lat":43.29709,"lon":5.37685,"is_reserved":false,"is_disabled":false,"rental_uris":{"android":"levelo://app?vid=9930c452-aad2-4044-82f1-b5765c20877f","ios":"levelo://app?vid=9930c452-aad2-4044-82f1-b5765c20877f"},"vehicle_type_id":"4","last_reported":1728652504,"current_range_meters":19200,"station_id":"ce4bh292rcd13ifvqdg0","pricing_plan_id":"cebpf4jnsgd1na2vs0mg"},{"bike_id":"0629cf40-3018-4ec3-8263-4128583c2621","system_id":"levelo_inurba_marseille","lat":43.31115,"lon":5.37766,"is_reserved":false,"is_disabled":false,"rental_uris":{"android":"levelo://app?vid=0629cf40-3018-4ec3-8263-4128583c2621","ios":"levelo://app?vid=0629cf40-3018-4ec3-8263-4128583c2621"},"vehicle_type_id":"4","last_reported":1728652504,"current_range_meters":24800,"station_id":"ce4bgt92rcd13ifvqcg0","pricing_plan_id":"cebpf4jnsgd1na2vs0mg"},{"bike_id":"d7e9353b-b813-4e20-8760-d4cadeced167","system_id":"levelo_inurba_marseille","lat":43.29603,"lon":5.37398,"is_reserved":false,"is_disabled":false,"rental_uris":{"android":"levelo://app?vid=d7e9353b-b813-4e20-8760-d4cadeced167","ios":"levelo://app?vid=d7e9353b-b813-4e20-8760-d4cadeced167"},"vehicle_type_id":"4","last_reported":1728652504,"current_range_meters":34000,"station_id":"ce4bgh92rcd13ifvqb50","pricing_plan_id":"cebpf4jnsgd1na2vs0mg"},{"bike_id":"4db3d763-5b42-473b-96d2-483619f25b8b","system_id":"levelo_inurba_marseille","lat":43.30128,"lon":5.39851,"is_reserved":false,"is_disabled":false,"rental_uris":{"android":"levelo://app?vid=4db3d763-5b42-473b-96d2-483619f25b8b","ios":"levelo://app?vid=4db3d763-5b42-473b-96d2-483619f25b8b"},"vehicle_type_id":"4","last_reported":1728652504,"current_range_meters":38800,"station_id":"ce4bh0h2rcd13ifvqd40","pricing_plan_id":"cebpf4jnsgd1na2vs0mg"},{"bike_id":"cebdb289-1c06-428c-b4d0-a3a1a107c5e4","system_id":"levelo_inurba_marseille","lat":43.28943,"lon":5.36393,"is_reserved":false,"is_disabled":false,"rental_uris":{"android":"levelo://app?vid=cebdb289-1c06-428c-b4d0-a3a1a107c5e4","ios":"levelo://app?vid=cebdb289-1c06-428c-b4d0-a3a1a107c5e4"},"vehicle_type_id":"4","last_reported":1728652504,"current_range_meters":12800,"station_id":"ce4bhc92rcd13ifvqetg","pricing_plan_id":"cebpf4jnsgd1na2vs0mg"},{"bike_id":"70ded6a6-ef5f-4c1a-beea-062335b03364","system_id":"levelo_inurba_marseille","lat":43.32107,"lon":5.36768,"is_reserved":false,"is_disabled":false,"rental_uris":{"android":"levelo://app?vid=70ded6a6-ef5f-4c1a-beea-062335b03364","ios":"levelo://app?vid=70ded6a6-ef5f-4c1a-beea-062335b03364"},"vehicle_type_id":"4","last_reported":1728652504,"current_range_meters":36400,"station_id":"ce4bhrh2rcd13ifvqhug","pricing_plan_id":"cebpf4jnsgd1na2vs0mg"},{"bike_id":"a27554a6-a50a-485f-8f1f-4487a4aa2e01","system_id":"levelo_inurba_marseille","lat":43.285665,"lon":5.395002,"is_reserved":false,"is_disabled":false,"rental_uris":{"android":"levelo://app?vid=a27554a6-a50a-485f-8f1f-4487a4aa2e01","ios":"levelo://app?vid=a27554a6-a50a-485f-8f1f-4487a4aa2e01"},"vehicle_type_id":"4","last_reported":1728652504,"current_range_meters":31200,"station_id":"ce4bh292rcd13ifvqdg0","pricing_plan_id":"cebpf4jnsgd1na2vs0mg"},{"bike_id":"3ad2d4df-6578-4fe4-ba47-66942feeb37d","system_id":"levelo_inurba_marseille","lat":43.23151,"lon":5.43711,"is_reserved":false,"is_disabled":false,"rental_uris":{"android":"levelo://app?vid=3ad2d4df-6578-4fe4-ba47-66942feeb37d","ios":"levelo://app?vid=3ad2d4df-6578-4fe4-ba47-66942feeb37d"},"vehicle_type_id":"4","last_reported":1728652504,"current_range_meters":28800,"station_id":"ce4bhmp2rcd13ifvqgog","pricing_plan_id":"cebpf4jnsgd1na2vs0mg"},{"bike_id":"17b1854f-1c85-4869-b2f6-1e7a40bde75f","system_id":"levelo_inurba_marseille","lat":43.25827,"lon":5.39425,"is_reserved":false,"is_disabled":false,"rental_uris":{"android":"levelo://app?vid=17b1854f-1c85-4869-b2f6-1e7a40bde75f","ios":"levelo://app?vid=17b1854f-1c85-4869-b2f6-1e7a40bde75f"},"vehicle_type_id":"4","last_reported":1728652504,"current_range_meters":17600,"station_id":"ce4bhip2rcd13ifvqft0","pricing_plan_id":"cebpf4jnsgd1na2vs0mg"},{"bike_id":"cff8b1f1-6585-4027-9748-31607689b25f","system_id":"levelo_inurba_marseille","lat":43.25818,"lon":5.39428,"is_reserved":false,"is_disabled":false,"rental_uris":{"android":"levelo://app?vid=cff8b1f1-6585-4027-9748-31607689b25f","ios":"levelo://app?vid=cff8b1f1-6585-4027-9748-31607689b25f"},"vehicle_type_id":"4","last_reported":1728652504,"current_range_meters":16800,"station_id":"ce4bhip2rcd13ifvqft0","pricing_plan_id":"cebpf4jnsgd1na2vs0mg"},{"bike_id":"eafb9485-dd7a-4f42-8846-ae55bb6a4e27","system_id":"levelo_inurba_marseille","lat":43.29533,"lon":5.39037,"is_reserved":false,"is_disabled":false,"rental_uris":{"android":"levelo://app?vid=eafb9485-dd7a-4f42-8846-ae55bb6a4e27","ios":"levelo://app?vid=eafb9485-dd7a-4f42-8846-ae55bb6a4e27"},"vehicle_type_id":"4","last_reported":1728652504,"current_range_meters":7200,"station_id":"ce4bh3p2rcd13ifvqdp0","pricing_plan_id":"cebpf4jnsgd1na2vs0mg"},{"bike_id":"cbb4c02e-d773-40f3-9fc9-9d89b3bcd035","system_id":"levelo_inurba_marseille","lat":43.34142,"lon":5.40896,"is_reserved":false,"is_disabled":false,"rental_uris":{"android":"levelo://app?vid=cbb4c02e-d773-40f3-9fc9-9d89b3bcd035","ios":"levelo://app?vid=cbb4c02e-d773-40f3-9fc9-9d89b3bcd035"},"vehicle_type_id":"4","last_reported":1728652504,"current_range_meters":28800,"station_id":"ce4bhqh2rcd13ifvqhlg","pricing_plan_id":"cebpf4jnsgd1na2vs0mg"},{"bike_id":"d128bac8-cd09-47b5-9767-f6e215fa3443","system_id":"levelo_inurba_marseille","lat":43.30128,"lon":5.39856,"is_reserved":false,"is_disabled":false,"rental_uris":{"android":"levelo://app?vid=d128bac8-cd09-47b5-9767-f6e215fa3443","ios":"levelo://app?vid=d128bac8-cd09-47b5-9767-f6e215fa3443"},"vehicle_type_id":"4","last_reported":1728652504,"current_range_meters":39200,"station_id":"ce4bh0h2rcd13ifvqd40","pricing_plan_id":"cebpf4jnsgd1na2vs0mg"},{"bike_id":"b77ea0eb-5d3b-4128-a383-258cf0d3ad87","system_id":"levelo_inurba_marseille","lat":43.28715,"lon":5.37937,"is_reserved":false,"is_disabled":false,"rental_uris":{"android":"levelo://app?vid=b77ea0eb-5d3b-4128-a383-258cf0d3ad87","ios":"levelo://app?vid=b77ea0eb-5d3b-4128-a383-258cf0d3ad87"},"vehicle_type_id":"4","last_reported":1728652504,"current_range_meters":20400,"station_id":"ce4bh9p2rcd13ifvqec0","pricing_plan_id":"cebpf4jnsgd1na2vs0mg"},{"bike_id":"2d6b34e7-38b9-4382-8bb4-f923bcf86327","system_id":"levelo_inurba_marseille","lat":43.2826,"lon":5.35066,"is_reserved":false,"is_disabled":false,"rental_uris":{"android":"levelo://app?vid=2d6b34e7-38b9-4382-8bb4-f923bcf86327","ios":"levelo://app?vid=2d6b34e7-38b9-4382-8bb4-f923bcf86327"},"vehicle_type_id":"4","last_reported":1728652504,"current_range_meters":39200,"station_id":"ce4bhbp2rcd13ifvqerg","pricing_plan_id":"cebpf4jnsgd1na2vs0mg"},{"bike_id":"f5360f88-9fad-4462-9a8c-7908e73a5035","system_id":"levelo_inurba_marseille","lat":43.30139,"lon":5.38062,"is_reserved":false,"is_disabled":false,"rental_uris":{"android":"levelo://app?vid=f5360f88-9fad-4462-9a8c-7908e73a5035","ios":"levelo://app?vid=f5360f88-9fad-4462-9a8c-7908e73a5035"},"vehicle_type_id":"4","last_reported":1728652504,"current_range_meters":27600,"station_id":"ce4bgjp2rcd13ifvqbh0","pricing_plan_id":"cebpf4jnsgd1na2vs0mg"},{"bike_id":"b3fada19-33b7-4c06-8532-c9003b697763","system_id":"levelo_inurba_marseille","lat":43.29716,"lon":5.36616,"is_reserved":false,"is_disabled":false,"rental_uris":{"android":"levelo://app?vid=b3fada19-33b7-4c06-8532-c9003b697763","ios":"levelo://app?vid=b3fada19-33b7-4c06-8532-c9003b697763"},"vehicle_type_id":"4","last_reported":1728652504,"current_range_meters":9200,"station_id":"ce4bgn12rcd13ifvqbt0","pricing_plan_id":"cebpf4jnsgd1na2vs0mg"},{"bike_id":"428e02d8-1cdb-4617-af0b-79b2b6c7fafd","system_id":"levelo_inurba_marseille","lat":43.26198,"lon":5.37936,"is_reserved":false,"is_disabled":false,"rental_uris":{"android":"levelo://app?vid=428e02d8-1cdb-4617-af0b-79b2b6c7fafd","ios":"levelo://app?vid=428e02d8-1cdb-4617-af0b-79b2b6c7fafd"},"vehicle_type_id":"4","last_reported":1728652504,"current_range_meters":4800,"station_id":"ce4bhjp2rcd13ifvqg90","pricing_plan_id":"cebpf4jnsgd1na2vs0mg"},{"bike_id":"0f5e84ca-e78c-40ae-b1e3-27ff83e857d2","system_id":"levelo_inurba_marseille","lat":43.28549,"lon":5.39882,"is_reserved":false,"is_disabled":false,"rental_uris":{"android":"levelo://app?vid=0f5e84ca-e78c-40ae-b1e3-27ff83e857d2","ios":"levelo://app?vid=0f5e84ca-e78c-40ae-b1e3-27ff83e857d2"},"vehicle_type_id":"4","last_reported":1728652504,"current_range_meters":5600,"station_id":"","pricing_plan_id":"cebpf4jnsgd1na2vs0mg"},{"bike_id":"c0c870de-5d4e-4810-9222-e43e6177ae68","system_id":"levelo_inurba_marseille","lat":43.2871,"lon":5.3794,"is_reserved":false,"is_disabled":false,"rental_uris":{"android":"levelo://app?vid=c0c870de-5d4e-4810-9222-e43e6177ae68","ios":"levelo://app?vid=c0c870de-5d4e-4810-9222-e43e6177ae68"},"vehicle_type_id":"4","last_reported":1728652504,"current_range_meters":38800,"station_id":"ce4bh9p2rcd13ifvqec0","pricing_plan_id":"cebpf4jnsgd1na2vs0mg"},{"bike_id":"aa75c41c-1391-4d5a-b0ad-fb29c317877d","system_id":"levelo_inurba_marseille","lat":43.23063,"lon":5.35493,"is_reserved":false,"is_disabled":false,"rental_uris":{"android":"levelo://app?vid=aa75c41c-1391-4d5a-b0ad-fb29c317877d","ios":"levelo://app?vid=aa75c41c-1391-4d5a-b0ad-fb29c317877d"},"vehicle_type_id":"4","last_reported":1728652504,"current_range_meters":6400,"station_id":"cpo3342slgdg3j2ifvpg","pricing_plan_id":"cebpf4jnsgd1na2vs0mg"},{"bike_id":"89ae9d68-1ff4-4e49-aec5-6964e38a9f19","system_id":"levelo_inurba_marseille","lat":43.3061,"lon":5.37227,"is_reserved":false,"is_disabled":false,"rental_uris":{"android":"levelo://app?vid=89ae9d68-1ff4-4e49-aec5-6964e38a9f19","ios":"levelo://app?vid=89ae9d68-1ff4-4e49-aec5-6964e38a9f19"},"vehicle_type_id":"4","last_reported":1728652504,"current_range_meters":24400,"station_id":"ce4bgqh2rcd13ifvqc4g","pricing_plan_id":"cebpf4jnsgd1na2vs0mg"},{"bike_id":"9b6eedda-e577-490f-ae5d-267e9b5c947f","system_id":"levelo_inurba_marseille","lat":43.28405,"lon":5.37504,"is_reserved":false,"is_disabled":false,"rental_uris":{"android":"levelo://app?vid=9b6eedda-e577-490f-ae5d-267e9b5c947f","ios":"levelo://app?vid=9b6eedda-e577-490f-ae5d-267e9b5c947f"},"vehicle_type_id":"4","last_reported":1728652504,"current_range_meters":27600,"station_id":"ce4bh412rcd13ifvqds0","pricing_plan_id":"cebpf4jnsgd1na2vs0mg"},{"bike_id":"1a0f090a-d6e7-4a1e-bfe5-0c2a632b851c","system_id":"levelo_inurba_marseille","lat":43.27173,"lon":5.40998,"is_reserved":false,"is_disabled":false,"rental_uris":{"android":"levelo://app?vid=1a0f090a-d6e7-4a1e-bfe5-0c2a632b851c","ios":"levelo://app?vid=1a0f090a-d6e7-4a1e-bfe5-0c2a632b851c"},"vehicle_type_id":"4","last_reported":1728652504,"current_range_meters":28000,"station_id":"ce4bhl12rcd13ifvqgf0","pricing_plan_id":"cebpf4jnsgd1na2vs0mg"},{"bike_id":"491b395f-d96c-4916-b89a-383670a003df","system_id":"levelo_inurba_marseille","lat":43.29967,"lon":5.38496,"is_reserved":false,"is_disabled":false,"rental_uris":{"android":"levelo://app?vid=491b395f-d96c-4916-b89a-383670a003df","ios":"levelo://app?vid=491b395f-d96c-4916-b89a-383670a003df"},"vehicle_type_id":"4","last_reported":1728652504,"current_range_meters":36800,"station_id":"ce4bgj92rcd13ifvqbd0","pricing_plan_id":"cebpf4jnsgd1na2vs0mg"},{"bike_id":"211bfcf1-4627-4b58-b4f0-5b02474fdcf3","system_id":"levelo_inurba_marseille","lat":43.2957,"lon":5.39988,"is_reserved":false,"is_disabled":false,"rental_uris":{"android":"levelo://app?vid=211bfcf1-4627-4b58-b4f0-5b02474fdcf3","ios":"levelo://app?vid=211bfcf1-4627-4b58-b4f0-5b02474fdcf3"},"vehicle_type_id":"4","last_reported":1728652504,"current_range_meters":17200,"station_id":"ce4bh312rcd13ifvqdj0","pricing_plan_id":"cebpf4jnsgd1na2vs0mg"},{"bike_id":"66c1d57d-3c71-42db-be34-4074a2f0c301","system_id":"levelo_inurba_marseille","lat":43.25861,"lon":5.39904,"is_reserved":false,"is_disabled":false,"rental_uris":{"android":"levelo://app?vid=66c1d57d-3c71-42db-be34-4074a2f0c301","ios":"levelo://app?vid=66c1d57d-3c71-42db-be34-4074a2f0c301"},"vehicle_type_id":"4","last_reported":1728652504,"current_range_meters":16000,"station_id":"ce4bhl92rcd13ifvqghg","pricing_plan_id":"cebpf4jnsgd1na2vs0mg"},{"bike_id":"215f7dd5-6c27-420c-899f-dd33221146a7","system_id":"levelo_inurba_marseille","lat":43.2315,"lon":5.43709,"is_reserved":false,"is_disabled":false,"rental_uris":{"android":"levelo://app?vid=215f7dd5-6c27-420c-899f-dd33221146a7","ios":"levelo://app?vid=215f7dd5-6c27-420c-899f-dd33221146a7"},"vehicle_type_id":"4","last_reported":1728652504,"current_range_meters":6400,"station_id":"ce4bhmp2rcd13ifvqgog","pricing_plan_id":"cebpf4jnsgd1na2vs0mg"},{"bike_id":"b1009450-6152-462c-a724-90df51eeb6db","system_id":"levelo_inurba_marseille","lat":43.32382,"lon":5.38917,"is_reserved":false,"is_disabled":false,"rental_uris":{"android":"levelo://app?vid=b1009450-6152-462c-a724-90df51eeb6db","ios":"levelo://app?vid=b1009450-6152-462c-a724-90df51eeb6db"},"vehicle_type_id":"4","last_reported":1728652504,"current_range_meters":5600,"station_id":"ce4bhqp2rcd13ifvqhog","pricing_plan_id":"cebpf4jnsgd1na2vs0mg"},{"bike_id":"e7ff8a71-08f6-4d85-81cd-23e686b45531","system_id":"levelo_inurba_marseille","lat":43.23196,"lon":5.35553,"is_reserved":false,"is_disabled":false,"rental_uris":{"android":"levelo://app?vid=e7ff8a71-08f6-4d85-81cd-23e686b45531","ios":"levelo://app?vid=e7ff8a71-08f6-4d85-81cd-23e686b45531"},"vehicle_type_id":"4","last_reported":1728652504,"current_range_meters":25600,"station_id":"ce4bhu92rcd13ifvqi70","pricing_plan_id":"cebpf4jnsgd1na2vs0mg"},{"bike_id":"19f5f42a-6adc-4145-8932-c12d978bc3e8","system_id":"levelo_inurba_marseille","lat":43.29844,"lon":5.36287,"is_reserved":false,"is_disabled":false,"rental_uris":{"android":"levelo://app?vid=19f5f42a-6adc-4145-8932-c12d978bc3e8","ios":"levelo://app?vid=19f5f42a-6adc-4145-8932-c12d978bc3e8"},"vehicle_type_id":"4","last_reported":1728652504,"current_range_meters":12800,"station_id":"ce4bgpp2rcd13ifvqc3g","pricing_plan_id":"cebpf4jnsgd1na2vs0mg"},{"bike_id":"e57eee6e-49c8-4cfb-a61d-0bf39603ab36","system_id":"levelo_inurba_marseille","lat":43.25501,"lon":5.37646,"is_reserved":false,"is_disabled":false,"rental_uris":{"android":"levelo://app?vid=e57eee6e-49c8-4cfb-a61d-0bf39603ab36","ios":"levelo://app?vid=e57eee6e-49c8-4cfb-a61d-0bf39603ab36"},"vehicle_type_id":"4","last_reported":1728652504,"current_range_meters":9600,"station_id":"ce4bhh12rcd13ifvqff0","pricing_plan_id":"cebpf4jnsgd1na2vs0mg"},{"bike_id":"d15bb18b-7ad1-41e5-b85b-98d3de42750c","system_id":"levelo_inurba_marseille","lat":43.29894,"lon":5.4366,"is_reserved":false,"is_disabled":false,"rental_uris":{"android":"levelo://app?vid=d15bb18b-7ad1-41e5-b85b-98d3de42750c","ios":"levelo://app?vid=d15bb18b-7ad1-41e5-b85b-98d3de42750c"},"vehicle_type_id":"4","last_reported":1728652504,"current_range_meters":37600,"station_id":"ce4bhpp2rcd13ifvqhfg","pricing_plan_id":"cebpf4jnsgd1na2vs0mg"},{"bike_id":"16b11b39-8448-436f-b69c-c7a0e23ae81a","system_id":"levelo_inurba_marseille","lat":43.28659,"lon":5.36356,"is_reserved":false,"is_disabled":false,"rental_uris":{"android":"levelo://app?vid=16b11b39-8448-436f-b69c-c7a0e23ae81a","ios":"levelo://app?vid=16b11b39-8448-436f-b69c-c7a0e23ae81a"},"vehicle_type_id":"4","last_reported":1728652504,"current_range_meters":24000,"station_id":"ce4bhah2rcd13ifvqej0","pricing_plan_id":"cebpf4jnsgd1na2vs0mg"},{"bike_id":"7ba29f14-c78e-4c52-8f9c-0c8cfa49f962","system_id":"levelo_inurba_marseille","lat":43.30282,"lon":5.37693,"is_reserved":false,"is_disabled":false,"rental_uris":{"android":"levelo://app?vid=7ba29f14-c78e-4c52-8f9c-0c8cfa49f962","ios":"levelo://app?vid=7ba29f14-c78e-4c52-8f9c-0c8cfa49f962"},"vehicle_type_id":"4","last_reported":1728652504,"current_range_meters":28400,"station_id":"ce4bguh2rcd13ifvqcj0","pricing_plan_id":"cebpf4jnsgd1na2vs0mg"},{"bike_id":"73be986d-9035-40da-95f7-9fa8f7d4cd39","system_id":"levelo_inurba_marseille","lat":43.23148,"lon":5.43727,"is_reserved":false,"is_disabled":false,"rental_uris":{"android":"levelo://app?vid=73be986d-9035-40da-95f7-9fa8f7d4cd39","ios":"levelo://app?vid=73be986d-9035-40da-95f7-9fa8f7d4cd39"},"vehicle_type_id":"4","last_reported":1728652504,"current_range_meters":18000,"station_id":"ce4bhmp2rcd13ifvqgog","pricing_plan_id":"cebpf4jnsgd1na2vs0mg"},{"bike_id":"90f9287d-49e3-42c9-a0c1-25ca6a62c193","system_id":"levelo_inurba_marseille","lat":43.29009,"lon":5.38131,"is_reserved":false,"is_disabled":false,"rental_uris":{"android":"levelo://app?vid=90f9287d-49e3-42c9-a0c1-25ca6a62c193","ios":"levelo://app?vid=90f9287d-49e3-42c9-a0c1-25ca6a62c193"},"vehicle_type_id":"4","last_reported":1728652504,"current_range_meters":2800,"station_id":"ce4bh4p2rcd13ifvqe1g","pricing_plan_id":"cebpf4jnsgd1na2vs0mg"},{"bike_id":"697179ec-19d4-47b1-a5c5-aed19302354f","system_id":"levelo_inurba_marseille","lat":43.25498,"lon":5.3765,"is_reserved":false,"is_disabled":false,"rental_uris":{"android":"levelo://app?vid=697179ec-19d4-47b1-a5c5-aed19302354f","ios":"levelo://app?vid=697179ec-19d4-47b1-a5c5-aed19302354f"},"vehicle_type_id":"4","last_reported":1728652504,"current_range_meters":9200,"station_id":"ce4bhh12rcd13ifvqff0","pricing_plan_id":"cebpf4jnsgd1na2vs0mg"},{"bike_id":"9126d2b2-56e2-4b06-b880-95ff49e73dbe","system_id":"levelo_inurba_marseille","lat":43.28261,"lon":5.35058,"is_reserved":false,"is_disabled":false,"rental_uris":{"android":"levelo://app?vid=9126d2b2-56e2-4b06-b880-95ff49e73dbe","ios":"levelo://app?vid=9126d2b2-56e2-4b06-b880-95ff49e73dbe"},"vehicle_type_id":"4","last_reported":1728652504,"current_range_meters":16000,"station_id":"ce4bhbp2rcd13ifvqerg","pricing_plan_id":"cebpf4jnsgd1na2vs0mg"},{"bike_id":"a908a046-e782-42f1-924d-daff33132307","system_id":"levelo_inurba_marseille","lat":43.28571,"lon":5.3949,"is_reserved":false,"is_disabled":false,"rental_uris":{"android":"levelo://app?vid=a908a046-e782-42f1-924d-daff33132307","ios":"levelo://app?vid=a908a046-e782-42f1-924d-daff33132307"},"vehicle_type_id":"4","last_reported":1728652504,"current_range_meters":3600,"station_id":"ce4bh292rcd13ifvqdg0","pricing_plan_id":"cebpf4jnsgd1na2vs0mg"},{"bike_id":"527155fb-6f53-44b1-81f3-14ac64d3727f","system_id":"levelo_inurba_marseille","lat":43.29003,"lon":5.35608,"is_reserved":false,"is_disabled":false,"rental_uris":{"android":"levelo://app?vid=527155fb-6f53-44b1-81f3-14ac64d3727f","ios":"levelo://app?vid=527155fb-6f53-44b1-81f3-14ac64d3727f"},"vehicle_type_id":"4","last_reported":1728652504,"current_range_meters":11200,"station_id":"ce4bhb92rcd13ifvqen0","pricing_plan_id":"cebpf4jnsgd1na2vs0mg"},{"bike_id":"9f9542f3-e05c-46c6-803b-8d62b2c4e40d","system_id":"levelo_inurba_marseille","lat":43.28599,"lon":5.40386,"is_reserved":false,"is_disabled":false,"rental_uris":{"android":"levelo://app?vid=9f9542f3-e05c-46c6-803b-8d62b2c4e40d","ios":"levelo://app?vid=9f9542f3-e05c-46c6-803b-8d62b2c4e40d"},"vehicle_type_id":"4","last_reported":1728652504,"current_range_meters":26800,"station_id":"","pricing_plan_id":"cebpf4jnsgd1na2vs0mg"},{"bike_id":"d0bbbab1-3173-4a27-a69b-8a9fa3b6d4ea","system_id":"levelo_inurba_marseille","lat":43.27211,"lon":5.3918,"is_reserved":false,"is_disabled":false,"rental_uris":{"android":"levelo://app?vid=d0bbbab1-3173-4a27-a69b-8a9fa3b6d4ea","ios":"levelo://app?vid=d0bbbab1-3173-4a27-a69b-8a9fa3b6d4ea"},"vehicle_type_id":"4","last_reported":1728652504,"current_range_meters":8000,"station_id":"ce4bhhp2rcd13ifvqfm0","pricing_plan_id":"cebpf4jnsgd1na2vs0mg"},{"bike_id":"04f47a8c-7608-4175-a52a-a02b55a5ebda","system_id":"levelo_inurba_marseille","lat":43.306466,"lon":5.401051,"is_reserved":false,"is_disabled":false,"rental_uris":{"android":"levelo://app?vid=04f47a8c-7608-4175-a52a-a02b55a5ebda","ios":"levelo://app?vid=04f47a8c-7608-4175-a52a-a02b55a5ebda"},"vehicle_type_id":"4","last_reported":1728652504,"current_range_meters":31200,"station_id":"ce4bh112rcd13ifvqda0","pricing_plan_id":"cebpf4jnsgd1na2vs0mg"},{"bike_id":"ff4af821-e1a1-4829-bc5c-a00b41539069","system_id":"levelo_inurba_marseille","lat":43.28399,"lon":5.38511,"is_reserved":false,"is_disabled":false,"rental_uris":{"android":"levelo://app?vid=ff4af821-e1a1-4829-bc5c-a00b41539069","ios":"levelo://app?vid=ff4af821-e1a1-4829-bc5c-a00b41539069"},"vehicle_type_id":"4","last_reported":1728652504,"current_range_meters":16000,"station_id":"ce4bhl92rcd13ifvqghg","pricing_plan_id":"cebpf4jnsgd1na2vs0mg"},{"bike_id":"2d1a79aa-0c0a-46d3-aa06-2e320f73360a","system_id":"levelo_inurba_marseille","lat":43.26207,"lon":5.3744,"is_reserved":false,"is_disabled":false,"rental_uris":{"android":"levelo://app?vid=2d1a79aa-0c0a-46d3-aa06-2e320f73360a","ios":"levelo://app?vid=2d1a79aa-0c0a-46d3-aa06-2e320f73360a"},"vehicle_type_id":"4","last_reported":1728652504,"current_range_meters":8000,"station_id":"ce4bhgp2rcd13ifvqfc0","pricing_plan_id":"cebpf4jnsgd1na2vs0mg"},{"bike_id":"ce04f614-a320-42df-8776-6146f8ec634d","system_id":"levelo_inurba_marseille","lat":43.25578,"lon":5.38223,"is_reserved":false,"is_disabled":false,"rental_uris":{"android":"levelo://app?vid=ce04f614-a320-42df-8776-6146f8ec634d","ios":"levelo://app?vid=ce04f614-a320-42df-8776-6146f8ec634d"},"vehicle_type_id":"4","last_reported":1728652504,"current_range_meters":36800,"station_id":"ce4bhih2rcd13ifvqfs0","pricing_plan_id":"cebpf4jnsgd1na2vs0mg"},{"bike_id":"e041d603-2959-4408-bf00-a1c35e7857da","system_id":"levelo_inurba_marseille","lat":43.30531,"lon":5.36534,"is_reserved":false,"is_disabled":false,"rental_uris":{"android":"levelo://app?vid=e041d603-2959-4408-bf00-a1c35e7857da","ios":"levelo://app?vid=e041d603-2959-4408-bf00-a1c35e7857da"},"vehicle_type_id":"4","last_reported":1728652504,"current_range_meters":30000,"station_id":"ce4bgs12rcd13ifvqcag","pricing_plan_id":"cebpf4jnsgd1na2vs0mg"},{"bike_id":"8c9a5779-48c6-4a49-b87c-4b9241d4f44b","system_id":"levelo_inurba_marseille","lat":43.337444,"lon":5.374475,"is_reserved":false,"is_disabled":false,"rental_uris":{"android":"levelo://app?vid=8c9a5779-48c6-4a49-b87c-4b9241d4f44b","ios":"levelo://app?vid=8c9a5779-48c6-4a49-b87c-4b9241d4f44b"},"vehicle_type_id":"4","last_reported":1728652504,"current_range_meters":11200,"station_id":"","pricing_plan_id":"cebpf4jnsgd1na2vs0mg"},{"bike_id":"fd9d266c-cf14-43c9-b125-16f28a95a726","system_id":"levelo_inurba_marseille","lat":43.30311,"lon":5.36887,"is_reserved":false,"is_disabled":false,"rental_uris":{"android":"levelo://app?vid=fd9d266c-cf14-43c9-b125-16f28a95a726","ios":"levelo://app?vid=fd9d266c-cf14-43c9-b125-16f28a95a726"},"vehicle_type_id":"4","last_reported":1728652504,"current_range_meters":19600,"station_id":"ce4bgqh2rcd13ifvqc5g","pricing_plan_id":"cebpf4jnsgd1na2vs0mg"},{"bike_id":"57c5b202-4d22-4168-b24f-1961bfc4e5db","system_id":"levelo_inurba_marseille","lat":43.28264,"lon":5.3507,"is_reserved":false,"is_disabled":false,"rental_uris":{"android":"levelo://app?vid=57c5b202-4d22-4168-b24f-1961bfc4e5db","ios":"levelo://app?vid=57c5b202-4d22-4168-b24f-1961bfc4e5db"},"vehicle_type_id":"4","last_reported":1728652504,"current_range_meters":34800,"station_id":"ce4bhbp2rcd13ifvqerg","pricing_plan_id":"cebpf4jnsgd1na2vs0mg"},{"bike_id":"81065468-d9a9-4abd-8ed5-6ee07c180978","system_id":"levelo_inurba_marseille","lat":43.31719,"lon":5.42393,"is_reserved":false,"is_disabled":false,"rental_uris":{"android":"levelo://app?vid=81065468-d9a9-4abd-8ed5-6ee07c180978","ios":"levelo://app?vid=81065468-d9a9-4abd-8ed5-6ee07c180978"},"vehicle_type_id":"4","last_reported":1728652504,"current_range_meters":22000,"station_id":"ce4bhp92rcd13ifvqhbg","pricing_plan_id":"cebpf4jnsgd1na2vs0mg"},{"bike_id":"fe8bfe5f-6b56-4544-a987-9773c5b6594d","system_id":"levelo_inurba_marseille","lat":43.337444,"lon":5.374475,"is_reserved":false,"is_disabled":false,"rental_uris":{"android":"levelo://app?vid=fe8bfe5f-6b56-4544-a987-9773c5b6594d","ios":"levelo://app?vid=fe8bfe5f-6b56-4544-a987-9773c5b6594d"},"vehicle_type_id":"4","last_reported":1728652504,"current_range_meters":36000,"station_id":"","pricing_plan_id":"cebpf4jnsgd1na2vs0mg"},{"bike_id":"69ac03d2-46d3-41de-8d3e-64dfccd84dbf","system_id":"levelo_inurba_marseille","lat":43.29816,"lon":5.39267,"is_reserved":false,"is_disabled":false,"rental_uris":{"android":"levelo://app?vid=69ac03d2-46d3-41de-8d3e-64dfccd84dbf","ios":"levelo://app?vid=69ac03d2-46d3-41de-8d3e-64dfccd84dbf"},"vehicle_type_id":"4","last_reported":1728652504,"current_range_meters":7200,"station_id":"chh1huq6cuj3fo74tm60","pricing_plan_id":"cebpf4jnsgd1na2vs0mg"},{"bike_id":"4fbe95e9-5fe0-40a9-9a27-819ef22e97d7","system_id":"levelo_inurba_marseille","lat":43.29871,"lon":5.39733,"is_reserved":false,"is_disabled":false,"rental_uris":{"android":"levelo://app?vid=4fbe95e9-5fe0-40a9-9a27-819ef22e97d7","ios":"levelo://app?vid=4fbe95e9-5fe0-40a9-9a27-819ef22e97d7"},"vehicle_type_id":"4","last_reported":1728652504,"current_range_meters":18800,"station_id":"ce4bh0h2rcd13ifvqd50","pricing_plan_id":"cebpf4jnsgd1na2vs0mg"},{"bike_id":"128cc49e-2ba4-4c6f-a8ca-1caee2010dbf","system_id":"levelo_inurba_marseille","lat":43.29967,"lon":5.37167,"is_reserved":false,"is_disabled":false,"rental_uris":{"android":"levelo://app?vid=128cc49e-2ba4-4c6f-a8ca-1caee2010dbf","ios":"levelo://app?vid=128cc49e-2ba4-4c6f-a8ca-1caee2010dbf"},"vehicle_type_id":"4","last_reported":1728652504,"current_range_meters":24800,"station_id":"ce4bgr92rcd13ifvqc7g","pricing_plan_id":"cebpf4jnsgd1na2vs0mg"},{"bike_id":"86399c9b-cf0c-4b00-9f5f-a4d8bd639b5d","system_id":"levelo_inurba_marseille","lat":43.26552,"lon":5.37287,"is_reserved":false,"is_disabled":false,"rental_uris":{"android":"levelo://app?vid=86399c9b-cf0c-4b00-9f5f-a4d8bd639b5d","ios":"levelo://app?vid=86399c9b-cf0c-4b00-9f5f-a4d8bd639b5d"},"vehicle_type_id":"4","last_reported":1728652504,"current_range_meters":34000,"station_id":"ce4bhg12rcd13ifvqf70","pricing_plan_id":"cebpf4jnsgd1na2vs0mg"},{"bike_id":"d7056657-5de2-4c13-a689-29d47c7ea98a","system_id":"levelo_inurba_marseille","lat":43.27175,"lon":5.41003,"is_reserved":false,"is_disabled":false,"rental_uris":{"android":"levelo://app?vid=d7056657-5de2-4c13-a689-29d47c7ea98a","ios":"levelo://app?vid=d7056657-5de2-4c13-a689-29d47c7ea98a"},"vehicle_type_id":"4","last_reported":1728652504,"current_range_meters":24000,"station_id":"ce4bhl12rcd13ifvqgf0","pricing_plan_id":"cebpf4jnsgd1na2vs0mg"},{"bike_id":"160a1ff3-a719-4e5e-b861-b0669b1450d2","system_id":"levelo_inurba_marseille","lat":43.28151,"lon":5.42643,"is_reserved":false,"is_disabled":false,"rental_uris":{"android":"levelo://app?vid=160a1ff3-a719-4e5e-b861-b0669b1450d2","ios":"levelo://app?vid=160a1ff3-a719-4e5e-b861-b0669b1450d2"},"vehicle_type_id":"4","last_reported":1728652504,"current_range_meters":36800,"station_id":"ce4bhnh2rcd13ifvqgug","pricing_plan_id":"cebpf4jnsgd1na2vs0mg"},{"bike_id":"9476f4d5-e8ba-47cf-bdd2-be6f4a93d7d2","system_id":"levelo_inurba_marseille","lat":43.28157,"lon":5.42647,"is_reserved":false,"is_disabled":false,"rental_uris":{"android":"levelo://app?vid=9476f4d5-e8ba-47cf-bdd2-be6f4a93d7d2","ios":"levelo://app?vid=9476f4d5-e8ba-47cf-bdd2-be6f4a93d7d2"},"vehicle_type_id":"4","last_reported":1728652504,"current_range_meters":29600,"station_id":"ce4bhnh2rcd13ifvqgug","pricing_plan_id":"cebpf4jnsgd1na2vs0mg"},{"bike_id":"173405a9-617c-4cfe-98b4-0a18d00e6daf","system_id":"levelo_inurba_marseille","lat":43.23151,"lon":5.43721,"is_reserved":false,"is_disabled":false,"rental_uris":{"android":"levelo://app?vid=173405a9-617c-4cfe-98b4-0a18d00e6daf","ios":"levelo://app?vid=173405a9-617c-4cfe-98b4-0a18d00e6daf"},"vehicle_type_id":"4","last_reported":1728652504,"current_range_meters":21600,"station_id":"ce4bhmp2rcd13ifvqgog","pricing_plan_id":"cebpf4jnsgd1na2vs0mg"},{"bike_id":"cb257378-68a1-44f9-a594-23fe6ddc6793","system_id":"levelo_inurba_marseille","lat":43.23157,"lon":5.43701,"is_reserved":false,"is_disabled":false,"rental_uris":{"android":"levelo://app?vid=cb257378-68a1-44f9-a594-23fe6ddc6793","ios":"levelo://app?vid=cb257378-68a1-44f9-a594-23fe6ddc6793"},"vehicle_type_id":"4","last_reported":1728652504,"current_range_meters":12000,"station_id":"ce4bhmp2rcd13ifvqgog","pricing_plan_id":"cebpf4jnsgd1na2vs0mg"},{"bike_id":"2703e6bd-2d43-435a-8397-a6260a59d86c","system_id":"levelo_inurba_marseille","lat":43.295168,"lon":5.390416,"is_reserved":false,"is_disabled":false,"rental_uris":{"android":"levelo://app?vid=2703e6bd-2d43-435a-8397-a6260a59d86c","ios":"levelo://app?vid=2703e6bd-2d43-435a-8397-a6260a59d86c"},"vehicle_type_id":"4","last_reported":1728652504,"current_range_meters":37600,"station_id":"ce4bh3p2rcd13ifvqdp0","pricing_plan_id":"cebpf4jnsgd1na2vs0mg"},{"bike_id":"6a1b0bf7-4d77-461a-9b76-f6e230ba0427","system_id":"levelo_inurba_marseille","lat":43.3136,"lon":5.38487,"is_reserved":false,"is_disabled":false,"rental_uris":{"android":"levelo://app?vid=6a1b0bf7-4d77-461a-9b76-f6e230ba0427","ios":"levelo://app?vid=6a1b0bf7-4d77-461a-9b76-f6e230ba0427"},"vehicle_type_id":"4","last_reported":1728652504,"current_range_meters":22400,"station_id":"ce4bgt92rcd13ifvqcf0","pricing_plan_id":"cebpf4jnsgd1na2vs0mg"},{"bike_id":"d3515cc2-9931-4d17-a2b9-231072d9e4d2","system_id":"levelo_inurba_marseille","lat":43.23191,"lon":5.35545,"is_reserved":false,"is_disabled":false,"rental_uris":{"android":"levelo://app?vid=d3515cc2-9931-4d17-a2b9-231072d9e4d2","ios":"levelo://app?vid=d3515cc2-9931-4d17-a2b9-231072d9e4d2"},"vehicle_type_id":"4","last_reported":1728652504,"current_range_meters":24000,"station_id":"ce4bhu92rcd13ifvqi70","pricing_plan_id":"cebpf4jnsgd1na2vs0mg"},{"bike_id":"d0bcf234-798b-4c72-885f-7da24c2fef9e","system_id":"levelo_inurba_marseille","lat":43.31825,"lon":5.39031,"is_reserved":false,"is_disabled":false,"rental_uris":{"android":"levelo://app?vid=d0bcf234-798b-4c72-885f-7da24c2fef9e","ios":"levelo://app?vid=d0bcf234-798b-4c72-885f-7da24c2fef9e"},"vehicle_type_id":"4","last_reported":1728652504,"current_range_meters":38800,"station_id":"","pricing_plan_id":"cebpf4jnsgd1na2vs0mg"},{"bike_id":"5e9b747e-82e9-4343-9a7e-19f72fd473f0","system_id":"levelo_inurba_marseille","lat":43.23151,"lon":5.43704,"is_reserved":false,"is_disabled":false,"rental_uris":{"android":"levelo://app?vid=5e9b747e-82e9-4343-9a7e-19f72fd473f0","ios":"levelo://app?vid=5e9b747e-82e9-4343-9a7e-19f72fd473f0"},"vehicle_type_id":"4","last_reported":1728652504,"current_range_meters":19600,"station_id":"ce4bhmp2rcd13ifvqgog","pricing_plan_id":"cebpf4jnsgd1na2vs0mg"},{"bike_id":"9f21766f-0837-4bcb-a575-e8ce2df39312","system_id":"levelo_inurba_marseille","lat":43.3302,"lon":5.3904,"is_reserved":false,"is_disabled":false,"rental_uris":{"android":"levelo://app?vid=9f21766f-0837-4bcb-a575-e8ce2df39312","ios":"levelo://app?vid=9f21766f-0837-4bcb-a575-e8ce2df39312"},"vehicle_type_id":"4","last_reported":1728652504,"current_range_meters":24800,"station_id":"ce4bhr92rcd13ifvqhrg","pricing_plan_id":"cebpf4jnsgd1na2vs0mg"},{"bike_id":"77aacaa9-96e2-48cc-94e1-9818b17b5bb7","system_id":"levelo_inurba_marseille","lat":43.298776,"lon":5.403684,"is_reserved":false,"is_disabled":false,"rental_uris":{"android":"levelo://app?vid=77aacaa9-96e2-48cc-94e1-9818b17b5bb7","ios":"levelo://app?vid=77aacaa9-96e2-48cc-94e1-9818b17b5bb7"},"vehicle_type_id":"4","last_reported":1728652504,"current_range_meters":37600,"station_id":"ce4bh112rcd13ifvqd90","pricing_plan_id":"cebpf4jnsgd1na2vs0mg"},{"bike_id":"0ee25c19-83cb-4002-af1a-f3b4334b634e","system_id":"levelo_inurba_marseille","lat":43.30534,"lon":5.36547,"is_reserved":false,"is_disabled":false,"rental_uris":{"android":"levelo://app?vid=0ee25c19-83cb-4002-af1a-f3b4334b634e","ios":"levelo://app?vid=0ee25c19-83cb-4002-af1a-f3b4334b634e"},"vehicle_type_id":"4","last_reported":1728652504,"current_range_meters":6000,"station_id":"ce4bgs12rcd13ifvqcag","pricing_plan_id":"cebpf4jnsgd1na2vs0mg"},{"bike_id":"673a69ee-3900-4626-ae86-8a7a5f17ae55","system_id":"levelo_inurba_marseille","lat":43.29423,"lon":5.38623,"is_reserved":false,"is_disabled":false,"rental_uris":{"android":"levelo://app?vid=673a69ee-3900-4626-ae86-8a7a5f17ae55","ios":"levelo://app?vid=673a69ee-3900-4626-ae86-8a7a5f17ae55"},"vehicle_type_id":"4","last_reported":1728652504,"current_range_meters":35200,"station_id":"ce4bh2h2rcd13ifvqdh0","pricing_plan_id":"cebpf4jnsgd1na2vs0mg"},{"bike_id":"2cc7325f-7408-4048-9b22-597b908a288a","system_id":"levelo_inurba_marseille","lat":43.33022,"lon":5.39046,"is_reserved":false,"is_disabled":false,"rental_uris":{"android":"levelo://app?vid=2cc7325f-7408-4048-9b22-597b908a288a","ios":"levelo://app?vid=2cc7325f-7408-4048-9b22-597b908a288a"},"vehicle_type_id":"4","last_reported":1728652504,"current_range_meters":38800,"station_id":"ce4bhr92rcd13ifvqhrg","pricing_plan_id":"cebpf4jnsgd1na2vs0mg"},{"bike_id":"cf6eb130-db9b-4e07-88c9-3903263cd348","system_id":"levelo_inurba_marseille","lat":43.32478,"lon":5.36571,"is_reserved":false,"is_disabled":false,"rental_uris":{"android":"levelo://app?vid=cf6eb130-db9b-4e07-88c9-3903263cd348","ios":"levelo://app?vid=cf6eb130-db9b-4e07-88c9-3903263cd348"},"vehicle_type_id":"4","last_reported":1728652504,"current_range_meters":24000,"station_id":"ce4bhs12rcd13ifvqhvg","pricing_plan_id":"cebpf4jnsgd1na2vs0mg"},{"bike_id":"b00c0f74-f30f-4403-b538-40d57fe7e25b","system_id":"levelo_inurba_marseille","lat":43.28695,"lon":5.37397,"is_reserved":false,"is_disabled":false,"rental_uris":{"android":"levelo://app?vid=b00c0f74-f30f-4403-b538-40d57fe7e25b","ios":"levelo://app?vid=b00c0f74-f30f-4403-b538-40d57fe7e25b"},"vehicle_type_id":"4","last_reported":1728652504,"current_range_meters":38800,"station_id":"ce4bh3p2rcd13ifvqdq0","pricing_plan_id":"cebpf4jnsgd1na2vs0mg"},{"bike_id":"f874ee1c-13ed-4cb5-afde-6f0d21ee3a00","system_id":"levelo_inurba_marseille","lat":43.23185,"lon":5.39978,"is_reserved":false,"is_disabled":false,"rental_uris":{"android":"levelo://app?vid=f874ee1c-13ed-4cb5-afde-6f0d21ee3a00","ios":"levelo://app?vid=f874ee1c-13ed-4cb5-afde-6f0d21ee3a00"},"vehicle_type_id":"4","last_reported":1728652504,"current_range_meters":16000,"station_id":"ce4bhn12rcd13ifvqgqg","pricing_plan_id":"cebpf4jnsgd1na2vs0mg"},{"bike_id":"930df0d0-a7d0-4c57-9cb8-60affbbb68dc","system_id":"levelo_inurba_marseille","lat":43.31064,"lon":5.40084,"is_reserved":false,"is_disabled":false,"rental_uris":{"android":"levelo://app?vid=930df0d0-a7d0-4c57-9cb8-60affbbb68dc","ios":"levelo://app?vid=930df0d0-a7d0-4c57-9cb8-60affbbb68dc"},"vehicle_type_id":"4","last_reported":1728652504,"current_range_meters":16800,"station_id":"","pricing_plan_id":"cebpf4jnsgd1na2vs0mg"},{"bike_id":"ef02e6ff-3b26-452d-be26-04d505274abd","system_id":"levelo_inurba_marseille","lat":43.30537,"lon":5.36525,"is_reserved":false,"is_disabled":false,"rental_uris":{"android":"levelo://app?vid=ef02e6ff-3b26-452d-be26-04d505274abd","ios":"levelo://app?vid=ef02e6ff-3b26-452d-be26-04d505274abd"},"vehicle_type_id":"4","last_reported":1728652504,"current_range_meters":33200,"station_id":"ce4bgs12rcd13ifvqcag","pricing_plan_id":"cebpf4jnsgd1na2vs0mg"},{"bike_id":"7580de61-785d-4c34-8246-f9693088af39","system_id":"levelo_inurba_marseille","lat":43.27837,"lon":5.39213,"is_reserved":false,"is_disabled":false,"rental_uris":{"android":"levelo://app?vid=7580de61-785d-4c34-8246-f9693088af39","ios":"levelo://app?vid=7580de61-785d-4c34-8246-f9693088af39"},"vehicle_type_id":"4","last_reported":1728652504,"current_range_meters":7200,"station_id":"ce4bhjp2rcd13ifvqga0","pricing_plan_id":"cebpf4jnsgd1na2vs0mg"},{"bike_id":"4b8142d2-7dd8-41c8-b2ed-3c506736d651","system_id":"levelo_inurba_marseille","lat":43.26065,"lon":5.39398,"is_reserved":false,"is_disabled":false,"rental_uris":{"android":"levelo://app?vid=4b8142d2-7dd8-41c8-b2ed-3c506736d651","ios":"levelo://app?vid=4b8142d2-7dd8-41c8-b2ed-3c506736d651"},"vehicle_type_id":"4","last_reported":1728652504,"current_range_meters":16400,"station_id":"ce4bhh92rcd13ifvqfj0","pricing_plan_id":"cebpf4jnsgd1na2vs0mg"},{"bike_id":"5118bbf6-b515-45dc-bd91-51991d9c4e12","system_id":"levelo_inurba_marseille","lat":43.28718,"lon":5.37928,"is_reserved":false,"is_disabled":false,"rental_uris":{"android":"levelo://app?vid=5118bbf6-b515-45dc-bd91-51991d9c4e12","ios":"levelo://app?vid=5118bbf6-b515-45dc-bd91-51991d9c4e12"},"vehicle_type_id":"4","last_reported":1728652504,"current_range_meters":26000,"station_id":"ce4bh9p2rcd13ifvqec0","pricing_plan_id":"cebpf4jnsgd1na2vs0mg"},{"bike_id":"cb961f0b-55f7-4252-ac0d-03b370080ee9","system_id":"levelo_inurba_marseille","lat":43.30272,"lon":5.37697,"is_reserved":false,"is_disabled":false,"rental_uris":{"android":"levelo://app?vid=cb961f0b-55f7-4252-ac0d-03b370080ee9","ios":"levelo://app?vid=cb961f0b-55f7-4252-ac0d-03b370080ee9"},"vehicle_type_id":"4","last_reported":1728652504,"current_range_meters":39200,"station_id":"ce4bguh2rcd13ifvqcj0","pricing_plan_id":"cebpf4jnsgd1na2vs0mg"},{"bike_id":"eba6adf8-8c87-4fdc-b893-d39ca47fb879","system_id":"levelo_inurba_marseille","lat":43.315622,"lon":5.398885,"is_reserved":false,"is_disabled":false,"rental_uris":{"android":"levelo://app?vid=eba6adf8-8c87-4fdc-b893-d39ca47fb879","ios":"levelo://app?vid=eba6adf8-8c87-4fdc-b893-d39ca47fb879"},"vehicle_type_id":"4","last_reported":1728652504,"current_range_meters":37600,"station_id":"ce4bhq12rcd13ifvqhig","pricing_plan_id":"cebpf4jnsgd1na2vs0mg"},{"bike_id":"c462ac31-e294-4267-bc1b-a4f664716350","system_id":"levelo_inurba_marseille","lat":43.231995,"lon":5.35547,"is_reserved":false,"is_disabled":false,"rental_uris":{"android":"levelo://app?vid=c462ac31-e294-4267-bc1b-a4f664716350","ios":"levelo://app?vid=c462ac31-e294-4267-bc1b-a4f664716350"},"vehicle_type_id":"4","last_reported":1728652504,"current_range_meters":27200,"station_id":"ce4bhu92rcd13ifvqi70","pricing_plan_id":"cebpf4jnsgd1na2vs0mg"},{"bike_id":"5be47929-46d1-4779-a873-65ddfe5260e3","system_id":"levelo_inurba_marseille","lat":43.31764,"lon":5.39021,"is_reserved":false,"is_disabled":false,"rental_uris":{"android":"levelo://app?vid=5be47929-46d1-4779-a873-65ddfe5260e3","ios":"levelo://app?vid=5be47929-46d1-4779-a873-65ddfe5260e3"},"vehicle_type_id":"4","last_reported":1728652504,"current_range_meters":31200,"station_id":"ce4bhqp2rcd13ifvqhng","pricing_plan_id":"cebpf4jnsgd1na2vs0mg"},{"bike_id":"df37e778-64f1-4bf1-a355-00b2cd20b0d9","system_id":"levelo_inurba_marseille","lat":43.23064,"lon":5.35491,"is_reserved":false,"is_disabled":false,"rental_uris":{"android":"levelo://app?vid=df37e778-64f1-4bf1-a355-00b2cd20b0d9","ios":"levelo://app?vid=df37e778-64f1-4bf1-a355-00b2cd20b0d9"},"vehicle_type_id":"4","last_reported":1728652504,"current_range_meters":24000,"station_id":"cpo3342slgdg3j2ifvpg","pricing_plan_id":"cebpf4jnsgd1na2vs0mg"},{"bike_id":"91e3ec78-c2b8-4b98-9ac9-36053e95c07e","system_id":"levelo_inurba_marseille","lat":43.28458,"lon":5.35875,"is_reserved":false,"is_disabled":false,"rental_uris":{"android":"levelo://app?vid=91e3ec78-c2b8-4b98-9ac9-36053e95c07e","ios":"levelo://app?vid=91e3ec78-c2b8-4b98-9ac9-36053e95c07e"},"vehicle_type_id":"4","last_reported":1728652504,"current_range_meters":29600,"station_id":"ce4bhah2rcd13ifvqei0","pricing_plan_id":"cebpf4jnsgd1na2vs0mg"},{"bike_id":"903163cf-eb99-4ed2-9fbb-35d0734d4f5f","system_id":"levelo_inurba_marseille","lat":43.29794,"lon":5.3936,"is_reserved":false,"is_disabled":false,"rental_uris":{"android":"levelo://app?vid=903163cf-eb99-4ed2-9fbb-35d0734d4f5f","ios":"levelo://app?vid=903163cf-eb99-4ed2-9fbb-35d0734d4f5f"},"vehicle_type_id":"4","last_reported":1728652504,"current_range_meters":25600,"station_id":"chh1huq6cuj3fo74tm60","pricing_plan_id":"cebpf4jnsgd1na2vs0mg"},{"bike_id":"29741f32-8be0-4f23-bd6d-9eee8645e96e","system_id":"levelo_inurba_marseille","lat":43.33759,"lon":5.37483,"is_reserved":false,"is_disabled":false,"rental_uris":{"android":"levelo://app?vid=29741f32-8be0-4f23-bd6d-9eee8645e96e","ios":"levelo://app?vid=29741f32-8be0-4f23-bd6d-9eee8645e96e"},"vehicle_type_id":"4","last_reported":1728652504,"current_range_meters":22400,"station_id":"ce4bhb12rcd13ifvqel0","pricing_plan_id":"cebpf4jnsgd1na2vs0mg"},{"bike_id":"eb2e85f4-0d7b-4246-b9c9-60288f20b4f9","system_id":"levelo_inurba_marseille","lat":43.24181,"lon":5.39729,"is_reserved":false,"is_disabled":false,"rental_uris":{"android":"levelo://app?vid=eb2e85f4-0d7b-4246-b9c9-60288f20b4f9","ios":"levelo://app?vid=eb2e85f4-0d7b-4246-b9c9-60288f20b4f9"},"vehicle_type_id":"4","last_reported":1728652504,"current_range_meters":14000,"station_id":"ce4bhn12rcd13ifvqgpg","pricing_plan_id":"cebpf4jnsgd1na2vs0mg"},{"bike_id":"e9ce0f16-821c-4420-a190-38ded0c44905","system_id":"levelo_inurba_marseille","lat":43.284,"lon":5.38516,"is_reserved":false,"is_disabled":false,"rental_uris":{"android":"levelo://app?vid=e9ce0f16-821c-4420-a190-38ded0c44905","ios":"levelo://app?vid=e9ce0f16-821c-4420-a190-38ded0c44905"},"vehicle_type_id":"4","last_reported":1728652504,"current_range_meters":16000,"station_id":"","pricing_plan_id":"cebpf4jnsgd1na2vs0mg"},{"bike_id":"69584b0e-9bfe-44eb-a29b-f3e8d6d14aa5","system_id":"levelo_inurba_marseille","lat":43.28265,"lon":5.35073,"is_reserved":false,"is_disabled":false,"rental_uris":{"android":"levelo://app?vid=69584b0e-9bfe-44eb-a29b-f3e8d6d14aa5","ios":"levelo://app?vid=69584b0e-9bfe-44eb-a29b-f3e8d6d14aa5"},"vehicle_type_id":"4","last_reported":1728652504,"current_range_meters":24000,"station_id":"ce4bhbp2rcd13ifvqerg","pricing_plan_id":"cebpf4jnsgd1na2vs0mg"},{"bike_id":"14a54f33-886a-452a-9607-6ef3d3b4b66e","system_id":"levelo_inurba_marseille","lat":43.2655,"lon":5.37286,"is_reserved":false,"is_disabled":false,"rental_uris":{"android":"levelo://app?vid=14a54f33-886a-452a-9607-6ef3d3b4b66e","ios":"levelo://app?vid=14a54f33-886a-452a-9607-6ef3d3b4b66e"},"vehicle_type_id":"4","last_reported":1728652504,"current_range_meters":17600,"station_id":"ce4bhg12rcd13ifvqf70","pricing_plan_id":"cebpf4jnsgd1na2vs0mg"},{"bike_id":"dfd475ba-64f4-4f92-944e-e553f34269e5","system_id":"levelo_inurba_marseille","lat":43.32039,"lon":5.41554,"is_reserved":false,"is_disabled":false,"rental_uris":{"android":"levelo://app?vid=dfd475ba-64f4-4f92-944e-e553f34269e5","ios":"levelo://app?vid=dfd475ba-64f4-4f92-944e-e553f34269e5"},"vehicle_type_id":"4","last_reported":1728652504,"current_range_meters":38000,"station_id":"ce4bhq92rcd13ifvqhkg","pricing_plan_id":"cebpf4jnsgd1na2vs0mg"},{"bike_id":"cc67fb43-54ad-4206-b57a-ce1b2e26ba01","system_id":"levelo_inurba_marseille","lat":43.28045,"lon":5.36944,"is_reserved":false,"is_disabled":false,"rental_uris":{"android":"levelo://app?vid=cc67fb43-54ad-4206-b57a-ce1b2e26ba01","ios":"levelo://app?vid=cc67fb43-54ad-4206-b57a-ce1b2e26ba01"},"vehicle_type_id":"4","last_reported":1728652504,"current_range_meters":17600,"station_id":"ce4bha12rcd13ifvqef0","pricing_plan_id":"cebpf4jnsgd1na2vs0mg"},{"bike_id":"6f52a303-c7a1-4b34-846f-7d73ecef9b3c","system_id":"levelo_inurba_marseille","lat":43.26556,"lon":5.39003,"is_reserved":false,"is_disabled":false,"rental_uris":{"android":"levelo://app?vid=6f52a303-c7a1-4b34-846f-7d73ecef9b3c","ios":"levelo://app?vid=6f52a303-c7a1-4b34-846f-7d73ecef9b3c"},"vehicle_type_id":"4","last_reported":1728652504,"current_range_meters":28000,"station_id":"ce4bhe12rcd13ifvqf30","pricing_plan_id":"cebpf4jnsgd1na2vs0mg"},{"bike_id":"9cf3db70-1431-4372-b452-2d0770d0c15d","system_id":"levelo_inurba_marseille","lat":43.23194,"lon":5.35553,"is_reserved":false,"is_disabled":false,"rental_uris":{"android":"levelo://app?vid=9cf3db70-1431-4372-b452-2d0770d0c15d","ios":"levelo://app?vid=9cf3db70-1431-4372-b452-2d0770d0c15d"},"vehicle_type_id":"4","last_reported":1728652504,"current_range_meters":38000,"station_id":"ce4bhu92rcd13ifvqi70","pricing_plan_id":"cebpf4jnsgd1na2vs0mg"},{"bike_id":"5a4f78c0-7f3c-49b5-a839-1952cb0bb7ba","system_id":"levelo_inurba_marseille","lat":43.28466,"lon":5.38414,"is_reserved":false,"is_disabled":false,"rental_uris":{"android":"levelo://app?vid=5a4f78c0-7f3c-49b5-a839-1952cb0bb7ba","ios":"levelo://app?vid=5a4f78c0-7f3c-49b5-a839-1952cb0bb7ba"},"vehicle_type_id":"4","last_reported":1728652504,"current_range_meters":37600,"station_id":"ce4bh512rcd13ifvqe3g","pricing_plan_id":"cebpf4jnsgd1na2vs0mg"},