{"last_updated":1699808733,"ttl":30,"version":"2.2","data":{"bikes":[{"bike_id":"151c44ed-c78e-4ed5-8349-c3eb9529449d","system_id":"levelo_inurba_marseille","lat":43.313391,"lon":5.36706,"is_reserved":false,"is_disabled":false,"rental_uris":{"android":"levelo://app?vid=151c44ed-c78e-4ed5-8349-c3eb9529449d","ios":"levelo://app?vid=151c44ed-c78e-4ed5-8349-c3eb9529449d"},"vehicle_type_id":"4","last_reported":1699808734,"current_range_meters":29600,"station_id":"ce4bgr92rcd13ifvqc6g","pricing_plan_id":"free"},{"bike_id":"af4717de-dd7c-45ca-8e99-5bbae65c0d90","system_id":"levelo_inurba_marseille","lat":43.314811,"lon":5.373103,"is_reserved":false,"is_disabled":false,"rental_uris":{"android":"levelo://app?vid=af4717de-dd7c-45ca-8e99-5bbae65c0d90","ios":"levelo://app?vid=af4717de-dd7c-45ca-8e99-5bbae65c0d90"},"vehicle_type_id":"4","last_reported":1699808734,"current_range_meters":2000,"station_id":"ce4bgt12rcd13ifvqcd0","pricing_plan_id":"free"},{"bike_id":"4352a434-b1ab-453b-8e9a-fe5d760bc9fc","system_id":"levelo_inurba_marseille","lat":43.30897,"lon":5.37184,"is_reserved":false,"is_disabled":false,"rental_uris":{"android":"levelo://app?vid=4352a434-b1ab-453b-8e9a-fe5d760bc9fc","ios":"levelo://app?vid=4352a434-b1ab-453b-8e9a-fe5d760bc9fc"},"vehicle_type_id":"4","last_reported":1699808734,"current_range_meters":2800,"station_id":"ce4bguh2rcd13ifvqckg","pricing_plan_id":"free"},{"bike_id":"99e86685-13e6-4242-abb5-481ed0c1aed5","system_id":"levelo_inurba_marseille","lat":43.308973,"lon":5.37187,"is_reserved":false,"is_disabled":false,"rental_uris":{"android":"levelo://app?vid=99e86685-13e6-4242-abb5-481ed0c1aed5","ios":"levelo://app?vid=99e86685-13e6-4242-abb5-481ed0c1aed5"},"vehicle_type_id":"4","last_reported":1699808734,"current_range_meters":26400,"station_id":"ce4bguh2rcd13ifvqckg","pricing_plan_id":"free"},{"bike_id":"76b359af-c20b-45d0-a1df-78f4c9a6553a","system_id":"levelo_inurba_marseille","lat":43.30537,"lon":5.36537,"is_reserved":false,"is_disabled":false,"rental_uris":{"android":"levelo://app?vid=76b359af-c20b-45d0-a1df-78f4c9a6553a","ios":"levelo://app?vid=76b359af-c20b-45d0-a1df-78f4c9a6553a"},"vehicle_type_id":"4","last_reported":1699808734,"current_range_meters":14000,"station_id":"ce4bgs12rcd13ifvqcag","pricing_plan_id":"free"},{"bike_id":"5f1071f2-5eea-49d3-936e-2bc03475b50a","system_id":"levelo_inurba_marseille","lat":43.305989,"lon":5.37225,"is_reserved":false,"is_disabled":false,"rental_uris":{"android":"levelo://app?vid=5f1071f2-5eea-49d3-936e-2bc03475b50a","ios":"levelo://app?vid=5f1071f2-5eea-49d3-936e-2bc03475b50a"},"vehicle_type_id":"4","last_reported":1699808734,"current_range_meters":7200,"station_id":"ce4bgqh2rcd13ifvqc4g","pricing_plan_id":"free"},{"bike_id":"fc36adea-836c-4fb4-a809-c4e9b6b7401b","system_id":"levelo_inurba_marseille","lat":43.311131,"lon":5.377651,"is_reserved":false,"is_disabled":false,"rental_uris":{"android":"levelo://app?vid=fc36adea-836c-4fb4-a809-c4e9b6b7401b","ios":"levelo://app?vid=fc36adea-836c-4fb4-a809-c4e9b6b7401b"},"vehicle_type_id":"4","last_reported":1699808734,"current_range_meters":22800,"station_id":"ce4bgt92rcd13ifvqcg0","pricing_plan_id":"free"},{"bike_id":"3569e4a6-5bd1-4542-9936-6599a38ea729","system_id":"levelo_inurba_marseille","lat":43.317075,"lon":5.377367,"is_reserved":false,"is_disabled":false,"rental_uris":{"android":"levelo://app?vid=3569e4a6-5bd1-4542-9936-6599a38ea729","ios":"levelo://app?vid=3569e4a6-5bd1-4542-9936-6599a38ea729"},"vehicle_type_id":"4","last_reported":1699808734,"current_range_meters":12400,"station_id":"ce4bgth2rcd13ifvqch0","pricing_plan_id":"free"},{"bike_id":"57053367-5328-4d78-8951-737f56b37ed9","system_id":"levelo_inurba_marseille","lat":43.319924,"lon":5.373389,"is_reserved":false,"is_disabled":false,"rental_uris":{"android":"levelo://app?vid=57053367-5328-4d78-8951-737f56b37ed9","ios":"levelo://app?vid=57053367-5328-4d78-8951-737f56b37ed9"},"vehicle_type_id":"4","last_reported":1699808734,"current_range_meters":14000,"station_id":"","pricing_plan_id":"free"},{"bike_id":"53d3f7c6-61b5-4687-b899-0009dde1d985","system_id":"levelo_inurba_marseille","lat":43.32066,"lon":5.37173,"is_reserved":false,"is_disabled":false,"rental_uris":{"android":"levelo://app?vid=53d3f7c6-61b5-4687-b899-0009dde1d985","ios":"levelo://app?vid=53d3f7c6-61b5-4687-b899-0009dde1d985"},"vehicle_type_id":"4","last_reported":1699808734,"current_range_meters":5600,"station_id":"","pricing_plan_id":"free"},{"bike_id":"924b7e2e-8172-4af0-be30-9476b336c367","system_id":"levelo_inurba_marseille","lat":43.31071,"lon":5.37856,"is_reserved":false,"is_disabled":false,"rental_uris":{"android":"levelo://app?vid=924b7e2e-8172-4af0-be30-9476b336c367","ios":"levelo://app?vid=924b7e2e-8172-4af0-be30-9476b336c367"},"vehicle_type_id":"4","last_reported":1699808734,"current_range_meters":19600,"station_id":"","pricing_plan_id":"free"},{"bike_id":"a26a672c-8f86-40f5-9e8e-9856cf399a24","system_id":"levelo_inurba_marseille","lat":43.308012,"lon":5.381511,"is_reserved":false,"is_disabled":false,"rental_uris":{"android":"levelo://app?vid=a26a672c-8f86-40f5-9e8e-9856cf399a24","ios":"levelo://app?vid=a26a672c-8f86-40f5-9e8e-9856cf399a24"},"vehicle_type_id":"4","last_reported":1699808734,"current_range_meters":22000,"station_id":"ce4bgt12rcd13ifvqce0","pricing_plan_id":"free"},{"bike_id":"3fb4984a-6013-4ebb-8773-c308071699ec","system_id":"levelo_inurba_marseille","lat":43.324771,"lon":5.36557,"is_reserved":false,"is_disabled":false,"rental_uris":{"android":"levelo://app?vid=3fb4984a-6013-4ebb-8773-c308071699ec","ios":"levelo://app?vid=3fb4984a-6013-4ebb-8773-c308071699ec"},"vehicle_type_id":"4","last_reported":1699808734,"current_range_meters":20800,"station_id":"ce4bhs12rcd13ifvqhvg","pricing_plan_id":"free"},{"bike_id":"5315caf4-24dc-4505-bc9b-ac409fdf57db","system_id":"levelo_inurba_marseille","lat":43.304606,"lon":5.379026,"is_reserved":false,"is_disabled":false,"rental_uris":{"android":"levelo://app?vid=5315caf4-24dc-4505-bc9b-ac409fdf57db","ios":"levelo://app?vid=5315caf4-24dc-4505-bc9b-ac409fdf57db"},"vehicle_type_id":"4","last_reported":1699808734,"current_range_meters":2400,"station_id":"ce4bgup2rcd13ifvqcn0","pricing_plan_id":"free"},{"bike_id":"b73daefa-360f-4ba9-907d-506cd78caf60","system_id":"levelo_inurba_marseille","lat":43.304606,"lon":5.379026,"is_reserved":false,"is_disabled":false,"rental_uris":{"android":"levelo://app?vid=b73daefa-360f-4ba9-907d-506cd78caf60","ios":"levelo://app?vid=b73daefa-360f-4ba9-907d-506cd78caf60"},"vehicle_type_id":"4","last_reported":1699808734,"current_range_meters":5200,"station_id":"ce4bgup2rcd13ifvqcn0","pricing_plan_id":"free"},{"bike_id":"13d060b6-819f-4429-893b-0a109219ae35","system_id":"levelo_inurba_marseille","lat":43.324771,"lon":5.36557,"is_reserved":false,"is_disabled":false,"rental_uris":{"android":"levelo://app?vid=13d060b6-819f-4429-893b-0a109219ae35","ios":"levelo://app?vid=13d060b6-819f-4429-893b-0a109219ae35"},"vehicle_type_id":"4","last_reported":1699808734,"current_range_meters":9200,"station_id":"ce4bhs12rcd13ifvqhvg","pricing_plan_id":"free"},{"bike_id":"3819deec-fe3d-41c7-8346-2b107cb07054","system_id":"levelo_inurba_marseille","lat":43.315237,"lon":5.383797,"is_reserved":false,"is_disabled":false,"rental_uris":{"android":"levelo://app?vid=3819deec-fe3d-41c7-8346-2b107cb07054","ios":"levelo://app?vid=3819deec-fe3d-41c7-8346-2b107cb07054"},"vehicle_type_id":"4","last_reported":1699808734,"current_range_meters":0,"station_id":"","pricing_plan_id":"free"},{"bike_id":"69166d53-ec8e-4a0a-864c-7a29f7650dd8","system_id":"levelo_inurba_marseille","lat":43.321093,"lon":5.380091,"is_reserved":false,"is_disabled":false,"rental_uris":{"android":"levelo://app?vid=69166d53-ec8e-4a0a-864c-7a29f7650dd8","ios":"levelo://app?vid=69166d53-ec8e-4a0a-864c-7a29f7650dd8"},"vehicle_type_id":"4","last_reported":1699808734,"current_range_meters":13600,"station_id":"","pricing_plan_id":"free"},{"bike_id":"13d78257-2559-4a10-97b8-aaa7032179bc","system_id":"levelo_inurba_marseille","lat":43.319975,"lon":5.381519,"is_reserved":false,"is_disabled":false,"rental_uris":{"android":"levelo://app?vid=13d78257-2559-4a10-97b8-aaa7032179bc","ios":"levelo://app?vid=13d78257-2559-4a10-97b8-aaa7032179bc"},"vehicle_type_id":"4","last_reported":1699808734,"current_range_meters":0,"station_id":"","pricing_plan_id":"free"},{"bike_id":"6fa157e5-4180-4981-a89e-13fd042b159f","system_id":"levelo_inurba_marseille","lat":43.313571,"lon":5.384829,"is_reserved":false,"is_disabled":false,"rental_uris":{"android":"levelo://app?vid=6fa157e5-4180-4981-a89e-13fd042b159f","ios":"levelo://app?vid=6fa157e5-4180-4981-a89e-13fd042b159f"},"vehicle_type_id":"4","last_reported":1699808734,"current_range_meters":1200,"station_id":"ce4bgt92rcd13ifvqcf0","pricing_plan_id":"free"},{"bike_id":"6f3f696f-2dcf-4ff7-85d0-53c799a91ccb","system_id":"levelo_inurba_marseille","lat":43.313347,"lon":5.38501,"is_reserved":false,"is_disabled":false,"rental_uris":{"android":"levelo://app?vid=6f3f696f-2dcf-4ff7-85d0-53c799a91ccb","ios":"levelo://app?vid=6f3f696f-2dcf-4ff7-85d0-53c799a91ccb"},"vehicle_type_id":"4","last_reported":1699808734,"current_range_meters":4400,"station_id":"","pricing_plan_id":"free"},{"bike_id":"c0cb0b40-95d5-4ddb-8027-5ec67afa09de","system_id":"levelo_inurba_marseille","lat":43.299222,"lon":5.365554,"is_reserved":false,"is_disabled":false,"rental_uris":{"android":"levelo://app?vid=c0cb0b40-95d5-4ddb-8027-5ec67afa09de","ios":"levelo://app?vid=c0cb0b40-95d5-4ddb-8027-5ec67afa09de"},"vehicle_type_id":"4","last_reported":1699808734,"current_range_meters":0,"station_id":"ce4bgm92rcd13ifvqbr0","pricing_plan_id":"free"},{"bike_id":"3ae7a295-2ac5-4208-a708-4c8df1e355b4","system_id":"levelo_inurba_marseille","lat":43.299243,"lon":5.37481,"is_reserved":false,"is_disabled":false,"rental_uris":{"android":"levelo://app?vid=3ae7a295-2ac5-4208-a708-4c8df1e355b4","ios":"levelo://app?vid=3ae7a295-2ac5-4208-a708-4c8df1e355b4"},"vehicle_type_id":"4","last_reported":1699808734,"current_range_meters":2000,"station_id":"ce4bgjh2rcd13ifvqbg0","pricing_plan_id":"free"},{"bike_id":"525353fb-22fd-46c8-af15-00aabe99b80d","system_id":"levelo_inurba_marseille","lat":43.30541,"lon":5.38433,"is_reserved":false,"is_disabled":false,"rental_uris":{"android":"levelo://app?vid=525353fb-22fd-46c8-af15-00aabe99b80d","ios":"levelo://app?vid=525353fb-22fd-46c8-af15-00aabe99b80d"},"vehicle_type_id":"4","last_reported":1699808734,"current_range_meters":800,"station_id":"ce4bgg92rcd13ifvqb30","pricing_plan_id":"free"},{"bike_id":"fbf0cebb-5d21-45f1-a691-ac8dcd4cdef2","system_id":"levelo_inurba_marseille","lat":43.299243,"lon":5.37481,"is_reserved":false,"is_disabled":false,"rental_uris":{"android":"levelo://app?vid=fbf0cebb-5d21-45f1-a691-ac8dcd4cdef2","ios":"levelo://app?vid=fbf0cebb-5d21-45f1-a691-ac8dcd4cdef2"},"vehicle_type_id":"4","last_reported":1699808734,"current_range_meters":5600,"station_id":"ce4bgjh2rcd13ifvqbg0","pricing_plan_id":"free"},{"bike_id":"8950f55a-e75d-4fac-9a7c-f529bc0580a5","system_id":"levelo_inurba_marseille","lat":43.320464,"lon":5.384144,"is_reserved":false,"is_disabled":false,"rental_uris":{"android":"levelo://app?vid=8950f55a-e75d-4fac-9a7c-f529bc0580a5","ios":"levelo://app?vid=8950f55a-e75d-4fac-9a7c-f529bc0580a5"},"vehicle_type_id":"4","last_reported":1699808734,"current_range_meters":8800,"station_id":"","pricing_plan_id":"free"},{"bike_id":"90a6cda6-ce5c-4e65-bd16-d0f2f495fa60","system_id":"levelo_inurba_marseille","lat":43.32738,"lon":5.36377,"is_reserved":false,"is_disabled":false,"rental_uris":{"android":"levelo://app?vid=90a6cda6-ce5c-4e65-bd16-d0f2f495fa60","ios":"levelo://app?vid=90a6cda6-ce5c-4e65-bd16-d0f2f495fa60"},"vehicle_type_id":"4","last_reported":1699808734,"current_range_meters":18000,"station_id":"","pricing_plan_id":"free"},{"bike_id":"20893d12-13d7-4591-8f45-4e0312a96a46","system_id":"levelo_inurba_marseille","lat":43.297774,"lon":5.370875,"is_reserved":false,"is_disabled":false,"rental_uris":{"android":"levelo://app?vid=20893d12-13d7-4591-8f45-4e0312a96a46","ios":"levelo://app?vid=20893d12-13d7-4591-8f45-4e0312a96a46"},"vehicle_type_id":"4","last_reported":1699808734,"current_range_meters":1600,"station_id":"ce4bgop2rcd13ifvqc1g","pricing_plan_id":"free"},{"bike_id":"ae335c2e-bf77-4e54-90f9-eb8725aa58bf","system_id":"levelo_inurba_marseille","lat":43.32824,"lon":5.36695,"is_reserved":false,"is_disabled":false,"rental_uris":{"android":"levelo://app?vid=ae335c2e-bf77-4e54-90f9-eb8725aa58bf","ios":"levelo://app?vid=ae335c2e-bf77-4e54-90f9-eb8725aa58bf"},"vehicle_type_id":"4","last_reported":1699808734,"current_range_meters":15600,"station_id":"ce4bhs92rcd13ifvqi0g","pricing_plan_id":"free"},{"bike_id":"8ea3526a-c988-40ce-bc15-be0b171d079a","system_id":"levelo_inurba_marseille","lat":43.328371,"lon":5.366909,"is_reserved":false,"is_disabled":false,"rental_uris":{"android":"levelo://app?vid=8ea3526a-c988-40ce-bc15-be0b171d079a","ios":"levelo://app?vid=8ea3526a-c988-40ce-bc15-be0b171d079a"},"vehicle_type_id":"4","last_reported":1699808734,"current_range_meters":1600,"station_id":"ce4bhs92rcd13ifvqi0g","pricing_plan_id":"free"},{"bike_id":"54855afb-9e97-4a3b-9539-7638fb89be3d","system_id":"levelo_inurba_marseille","lat":43.297163,"lon":5.365866,"is_reserved":false,"is_disabled":false,"rental_uris":{"android":"levelo://app?vid=54855afb-9e97-4a3b-9539-7638fb89be3d","ios":"levelo://app?vid=54855afb-9e97-4a3b-9539-7638fb89be3d"},"vehicle_type_id":"4","last_reported":1699808734,"current_range_meters":3600,"station_id":"ce4bgn12rcd13ifvqbt0","pricing_plan_id":"free"},{"bike_id":"e99fcb06-45d6-4752-b259-f1bf579fad4a","system_id":"levelo_inurba_marseille","lat":43.2968,"lon":5.37291,"is_reserved":false,"is_disabled":false,"rental_uris":{"android":"levelo://app?vid=e99fcb06-45d6-4752-b259-f1bf579fad4a","ios":"levelo://app?vid=e99fcb06-45d6-4752-b259-f1bf579fad4a"},"vehicle_type_id":"4","last_reported":1699808734,"current_range_meters":22000,"station_id":"ce4bgk12rcd13ifvqbj0","pricing_plan_id":"free"},{"bike_id":"cb9e1c73-1bf3-4d4b-800b-fa207ed294e1","system_id":"levelo_inurba_marseille","lat":43.2968,"lon":5.37291,"is_reserved":false,"is_disabled":false,"rental_uris":{"android":"levelo://app?vid=cb9e1c73-1bf3-4d4b-800b-fa207ed294e1","ios":"levelo://app?vid=cb9e1c73-1bf3-4d4b-800b-fa207ed294e1"},"vehicle_type_id":"4","last_reported":1699808734,"current_range_meters":14800,"station_id":"ce4bgk12rcd13ifvqbj0","pricing_plan_id":"free"},{"bike_id":"f0812d0f-256a-478f-9681-2e0e9d074993","system_id":"levelo_inurba_marseille","lat":43.29601,"lon":5.36819,"is_reserved":false,"is_disabled":false,"rental_uris":{"android":"levelo://app?vid=f0812d0f-256a-478f-9681-2e0e9d074993","ios":"levelo://app?vid=f0812d0f-256a-478f-9681-2e0e9d074993"},"vehicle_type_id":"4","last_reported":1699808734,"current_range_meters":26800,"station_id":"","pricing_plan_id":"free"},{"bike_id":"d447991a-59b4-4778-a190-7d2b0920a414","system_id":"levelo_inurba_marseille","lat":43.32215,"lon":5.38613,"is_reserved":false,"is_disabled":false,"rental_uris":{"android":"levelo://app?vid=d447991a-59b4-4778-a190-7d2b0920a414","ios":"levelo://app?vid=d447991a-59b4-4778-a190-7d2b0920a414"},"vehicle_type_id":"4","last_reported":1699808734,"current_range_meters":16400,"station_id":"","pricing_plan_id":"free"},{"bike_id":"37f7a6ac-58b9-4c78-a40c-9e5f070a44fb","system_id":"levelo_inurba_marseille","lat":43.296129,"lon":5.370777,"is_reserved":false,"is_disabled":false,"rental_uris":{"android":"levelo://app?vid=37f7a6ac-58b9-4c78-a40c-9e5f070a44fb","ios":"levelo://app?vid=37f7a6ac-58b9-4c78-a40c-9e5f070a44fb"},"vehicle_type_id":"4","last_reported":1699808734,"current_range_meters":12000,"station_id":"ce4bgnh2rcd13ifvqc0g","pricing_plan_id":"free"},{"bike_id":"408e1bba-ac1b-479c-ad30-32026784c873","system_id":"levelo_inurba_marseille","lat":43.2966,"lon":5.37463,"is_reserved":false,"is_disabled":false,"rental_uris":{"android":"levelo://app?vid=408e1bba-ac1b-479c-ad30-32026784c873","ios":"levelo://app?vid=408e1bba-ac1b-479c-ad30-32026784c873"},"vehicle_type_id":"4","last_reported":1699808734,"current_range_meters":11200,"station_id":"","pricing_plan_id":"free"},{"bike_id":"d1c7d92b-b093-4016-a6b4-76c29aca4732","system_id":"levelo_inurba_marseille","lat":43.309589,"lon":5.390258,"is_reserved":false,"is_disabled":false,"rental_uris":{"android":"levelo://app?vid=d1c7d92b-b093-4016-a6b4-76c29aca4732","ios":"levelo://app?vid=d1c7d92b-b093-4016-a6b4-76c29aca4732"},"vehicle_type_id":"4","last_reported":1699808734,"current_range_meters":0,"station_id":"ce4bgup2rcd13ifvqco0","pricing_plan_id":"free"},{"bike_id":"00997dbe-f28e-4a27-a4de-12c90a4607d9","system_id":"levelo_inurba_marseille","lat":43.309589,"lon":5.390258,"is_reserved":false,"is_disabled":false,"rental_uris":{"android":"levelo://app?vid=00997dbe-f28e-4a27-a4de-12c90a4607d9","ios":"levelo://app?vid=00997dbe-f28e-4a27-a4de-12c90a4607d9"},"vehicle_type_id":"4","last_reported":1699808734,"current_range_meters":7200,"station_id":"ce4bgup2rcd13ifvqco0","pricing_plan_id":"free"},{"bike_id":"d9dfdc9f-2827-4a79-8666-a1d9b8823c04","system_id":"levelo_inurba_marseille","lat":43.309589,"lon":5.390258,"is_reserved":false,"is_disabled":false,"rental_uris":{"android":"levelo://app?vid=d9dfdc9f-2827-4a79-8666-a1d9b8823c04","ios":"levelo://app?vid=d9dfdc9f-2827-4a79-8666-a1d9b8823c04"},"vehicle_type_id":"4","last_reported":1699808734,"current_range_meters":10000,"station_id":"ce4bgup2rcd13ifvqco0","pricing_plan_id":"free"},{"bike_id":"feff7d8e-9456-4b4b-b917-4f91bb23e023","system_id":"levelo_inurba_marseille","lat":43.3175,"lon":5.39022,"is_reserved":false,"is_disabled":false,"rental_uris":{"android":"levelo://app?vid=feff7d8e-9456-4b4b-b917-4f91bb23e023","ios":"levelo://app?vid=feff7d8e-9456-4b4b-b917-4f91bb23e023"},"vehicle_type_id":"4","last_reported":1699808734,"current_range_meters":14400,"station_id":"","pricing_plan_id":"free"},{"bike_id":"06c8f60b-cb66-4329-80e3-451861f6a2cc","system_id":"levelo_inurba_marseille","lat":43.304274,"lon":5.388873,"is_reserved":false,"is_disabled":false,"rental_uris":{"android":"levelo://app?vid=06c8f60b-cb66-4329-80e3-451861f6a2cc","ios":"levelo://app?vid=06c8f60b-cb66-4329-80e3-451861f6a2cc"},"vehicle_type_id":"4","last_reported":1699808734,"current_range_meters":8400,"station_id":"ce4bgk12rcd13ifvqbi0","pricing_plan_id":"free"},{"bike_id":"30c587bd-39b9-45c0-ba34-cf8a14314f29","system_id":"levelo_inurba_marseille","lat":43.304278,"lon":5.388868,"is_reserved":false,"is_disabled":false,"rental_uris":{"android":"levelo://app?vid=30c587bd-39b9-45c0-ba34-cf8a14314f29","ios":"levelo://app?vid=30c587bd-39b9-45c0-ba34-cf8a14314f29"},"vehicle_type_id":"4","last_reported":1699808734,"current_range_meters":3600,"station_id":"ce4bgk12rcd13ifvqbi0","pricing_plan_id":"free"},{"bike_id":"5691b5b7-067a-4422-9f0c-a6907daf74a4","system_id":"levelo_inurba_marseille","lat":43.32931,"lon":5.35636,"is_reserved":false,"is_disabled":false,"rental_uris":{"android":"levelo://app?vid=5691b5b7-067a-4422-9f0c-a6907daf74a4","ios":"levelo://app?vid=5691b5b7-067a-4422-9f0c-a6907daf74a4"},"vehicle_type_id":"4","last_reported":1699808734,"current_range_meters":4400,"station_id":"","pricing_plan_id":"free"},{"bike_id":"608c3a25-8991-4189-b902-2e3285dfdbaa","system_id":"levelo_inurba_marseille","lat":43.299767,"lon":5.384927,"is_reserved":false,"is_disabled":false,"rental_uris":{"android":"levelo://app?vid=608c3a25-8991-4189-b902-2e3285dfdbaa","ios":"levelo://app?vid=608c3a25-8991-4189-b902-2e3285dfdbaa"},"vehicle_type_id":"4","last_reported":1699808734,"current_range_meters":0,"station_id":"ce4bgj92rcd13ifvqbd0","pricing_plan_id":"free"},{"bike_id":"dd3cf0f7-9324-4b9f-b13e-7a94087dc9ea","system_id":"levelo_inurba_marseille","lat":43.29972,"lon":5.3849,"is_reserved":false,"is_disabled":false,"rental_uris":{"android":"levelo://app?vid=dd3cf0f7-9324-4b9f-b13e-7a94087dc9ea","ios":"levelo://app?vid=dd3cf0f7-9324-4b9f-b13e-7a94087dc9ea"},"vehicle_type_id":"4","last_reported":1699808734,"current_range_meters":0,"station_id":"ce4bgj92rcd13ifvqbd0","pricing_plan_id":"free"},{"bike_id":"27a781e5-87b4-4666-85f8-9a1ac1c779fb","system_id":"levelo_inurba_marseille","lat":43.293249,"lon":5.371578,"is_reserved":false,"is_disabled":false,"rental_uris":{"android":"levelo://app?vid=27a781e5-87b4-4666-85f8-9a1ac1c779fb","ios":"levelo://app?vid=27a781e5-87b4-4666-85f8-9a1ac1c779fb"},"vehicle_type_id":"4","last_reported":1699808734,"current_range_meters":1600,"station_id":"ce4bgh92rcd13ifvqb40","pricing_plan_id":"free"},{"bike_id":"5312cedd-4e1c-4a9f-8008-ebfe53e43b65","system_id":"levelo_inurba_marseille","lat":43.293259,"lon":5.371586,"is_reserved":false,"is_disabled":false,"rental_uris":{"android":"levelo://app?vid=5312cedd-4e1c-4a9f-8008-ebfe53e43b65","ios":"levelo://app?vid=5312cedd-4e1c-4a9f-8008-ebfe53e43b65"},"vehicle_type_id":"4","last_reported":1699808734,"current_range_meters":16000,"station_id":"ce4bgh92rcd13ifvqb40","pricing_plan_id":"free"},{"bike_id":"1f2edeec-835f-4188-b75a-b19c37bb1dac","system_id":"levelo_inurba_marseille","lat":43.30109,"lon":5.3894,"is_reserved":false,"is_disabled":false,"rental_uris":{"android":"levelo://app?vid=1f2edeec-835f-4188-b75a-b19c37bb1dac","ios":"levelo://app?vid=1f2edeec-835f-4188-b75a-b19c37bb1dac"},"vehicle_type_id":"4","last_reported":1699808734,"current_range_meters":800,"station_id":"","pricing_plan_id":"free"},{"bike_id":"4a1751b3-a479-4610-9803-baef1ff2b3e1","system_id":"levelo_inurba_marseille","lat":43.293009,"lon":5.374584,"is_reserved":false,"is_disabled":false,"rental_uris":{"android":"levelo://app?vid=4a1751b3-a479-4610-9803-baef1ff2b3e1","ios":"levelo://app?vid=4a1751b3-a479-4610-9803-baef1ff2b3e1"},"vehicle_type_id":"4","last_reported":1699808734,"current_range_meters":2400,"station_id":"ce4bgi12rcd13ifvqb70","pricing_plan_id":"free"},{"bike_id":"abe5ebf9-b41b-468b-91eb-b7661faf3d76","system_id":"levelo_inurba_marseille","lat":43.293009,"lon":5.374584,"is_reserved":false,"is_disabled":false,"rental_uris":{"android":"levelo://app?vid=abe5ebf9-b41b-468b-91eb-b7661faf3d76","ios":"levelo://app?vid=abe5ebf9-b41b-468b-91eb-b7661faf3d76"},"vehicle_type_id":"4","last_reported":1699808734,"current_range_meters":16800,"station_id":"ce4bgi12rcd13ifvqb70","pricing_plan_id":"free"},{"bike_id":"73db1a25-1723-47e8-9097-c820393037dd","system_id":"levelo_inurba_marseille","lat":43.293009,"lon":5.374584,"is_reserved":false,"is_disabled":false,"rental_uris":{"android":"levelo://app?vid=73db1a25-1723-47e8-9097-c820393037dd","ios":"levelo://app?vid=73db1a25-1723-47e8-9097-c820393037dd"},"vehicle_type_id":"4","last_reported":1699808734,"current_range_meters":16800,"station_id":"ce4bgi12rcd13ifvqb70","pricing_plan_id":"free"},{"bike_id":"db397dc7-05e4-459c-b7c3-6f8d7a556d6e","system_id":"levelo_inurba_marseille","lat":43.293009,"lon":5.374584,"is_reserved":false,"is_disabled":false,"rental_uris":{"android":"levelo://app?vid=db397dc7-05e4-459c-b7c3-6f8d7a556d6e","ios":"levelo://app?vid=db397dc7-05e4-459c-b7c3-6f8d7a556d6e"},"vehicle_type_id":"4","last_reported":1699808734,"current_range_meters":22800,"station_id":"ce4bgi12rcd13ifvqb70","pricing_plan_id":"free"},{"bike_id":"f500a78d-2abf-41f4-8756-7b61eb6362ab","system_id":"levelo_inurba_marseille","lat":43.309038,"lon":5.396546,"is_reserved":false,"is_disabled":false,"rental_uris":{"android":"levelo://app?vid=f500a78d-2abf-41f4-8756-7b61eb6362ab","ios":"levelo://app?vid=f500a78d-2abf-41f4-8756-7b61eb6362ab"},"vehicle_type_id":"4","last_reported":1699808734,"current_range_meters":3600,"station_id":"ce4bh012rcd13ifvqcv0","pricing_plan_id":"free"},{"bike_id":"28375807-1ba5-47ce-9bef-b0e5d6f4a76f","system_id":"levelo_inurba_marseille","lat":43.291671,"lon":5.371575,"is_reserved":false,"is_disabled":false,"rental_uris":{"android":"levelo://app?vid=28375807-1ba5-47ce-9bef-b0e5d6f4a76f","ios":"levelo://app?vid=28375807-1ba5-47ce-9bef-b0e5d6f4a76f"},"vehicle_type_id":"4","last_reported":1699808734,"current_range_meters":21600,"station_id":"ce4bha92rcd13ifvqeh0","pricing_plan_id":"free"},{"bike_id":"a401b11d-e1f6-4534-8242-22888bd5d3c4","system_id":"levelo_inurba_marseille","lat":43.291675,"lon":5.371583,"is_reserved":false,"is_disabled":false,"rental_uris":{"android":"levelo://app?vid=a401b11d-e1f6-4534-8242-22888bd5d3c4","ios":"levelo://app?vid=a401b11d-e1f6-4534-8242-22888bd5d3c4"},"vehicle_type_id":"4","last_reported":1699808734,"current_range_meters":26400,"station_id":"ce4bha92rcd13ifvqeh0","pricing_plan_id":"free"},{"bike_id":"c089dc15-d209-4bd7-9f07-6146b2f434d3","system_id":"levelo_inurba_marseille","lat":43.298764,"lon":5.388973,"is_reserved":false,"is_disabled":false,"rental_uris":{"android":"levelo://app?vid=c089dc15-d209-4bd7-9f07-6146b2f434d3","ios":"levelo://app?vid=c089dc15-d209-4bd7-9f07-6146b2f434d3"},"vehicle_type_id":"4","last_reported":1699808734,"current_range_meters":16000,"station_id":"ce4bh392rcd13ifvqdl0","pricing_plan_id":"free"},{"bike_id":"74234097-675e-4f0f-9b50-8b8b4b88f743","system_id":"levelo_inurba_marseille","lat":43.291555,"lon":5.37156,"is_reserved":false,"is_disabled":false,"rental_uris":{"android":"levelo://app?vid=74234097-675e-4f0f-9b50-8b8b4b88f743","ios":"levelo://app?vid=74234097-675e-4f0f-9b50-8b8b4b88f743"},"vehicle_type_id":"4","last_reported":1699808734,"current_range_meters":0,"station_id":"ce4bha92rcd13ifvqeh0","pricing_plan_id":"free"},{"bike_id":"9f7d72b2-b974-44d8-8a32-ce64a2b98a9b","system_id":"levelo_inurba_marseille","lat":43.30882,"lon":5.39646,"is_reserved":false,"is_disabled":false,"rental_uris":{"android":"levelo://app?vid=9f7d72b2-b974-44d8-8a32-ce64a2b98a9b","ios":"levelo://app?vid=9f7d72b2-b974-44d8-8a32-ce64a2b98a9b"},"vehicle_type_id":"4","last_reported":1699808734,"current_range_meters":7600,"station_id":"ce4bh012rcd13ifvqcv0","pricing_plan_id":"free"},{"bike_id":"b971c86a-06f1-48cc-8baa-938e34a88a45","system_id":"levelo_inurba_marseille","lat":43.29529,"lon":5.385581,"is_reserved":false,"is_disabled":false,"rental_uris":{"android":"levelo://app?vid=b971c86a-06f1-48cc-8baa-938e34a88a45","ios":"levelo://app?vid=b971c86a-06f1-48cc-8baa-938e34a88a45"},"vehicle_type_id":"4","last_reported":1699808734,"current_range_meters":800,"station_id":"ce4bgih2rcd13ifvqba0","pricing_plan_id":"free"},{"bike_id":"c961464a-f7b1-4b66-b99c-2834fb8aaf4e","system_id":"levelo_inurba_marseille","lat":43.31326,"lon":5.39701,"is_reserved":false,"is_disabled":false,"rental_uris":{"android":"levelo://app?vid=c961464a-f7b1-4b66-b99c-2834fb8aaf4e","ios":"levelo://app?vid=c961464a-f7b1-4b66-b99c-2834fb8aaf4e"},"vehicle_type_id":"4","last_reported":1699808734,"current_range_meters":0,"station_id":"ce4bgvp2rcd13ifvqcu0","pricing_plan_id":"free"},{"bike_id":"f2c2fdba-e0d5-4d4d-84b9-094eb56765b1","system_id":"levelo_inurba_marseille","lat":43.309047,"lon":5.396551,"is_reserved":false,"is_disabled":false,"rental_uris":{"android":"levelo://app?vid=f2c2fdba-e0d5-4d4d-84b9-094eb56765b1","ios":"levelo://app?vid=f2c2fdba-e0d5-4d4d-84b9-094eb56765b1"},"vehicle_type_id":"4","last_reported":1699808734,"current_range_meters":14800,"station_id":"ce4bh012rcd13ifvqcv0","pricing_plan_id":"free"},{"bike_id":"3e2ebf76-460c-49f2-8c4f-2334b5a8cdf7","system_id":"levelo_inurba_marseille","lat":43.3088,"lon":5.39659,"is_reserved":false,"is_disabled":false,"rental_uris":{"android":"levelo://app?vid=3e2ebf76-460c-49f2-8c4f-2334b5a8cdf7","ios":"levelo://app?vid=3e2ebf76-460c-49f2-8c4f-2334b5a8cdf7"},"vehicle_type_id":"4","last_reported":1699808734,"current_range_meters":6000,"station_id":"ce4bh012rcd13ifvqcv0","pricing_plan_id":"free"},{"bike_id":"e30707b9-312d-463e-8939-3a90e101f7fc","system_id":"levelo_inurba_marseille","lat":43.30891,"lon":5.39662,"is_reserved":false,"is_disabled":false,"rental_uris":{"android":"levelo://app?vid=e30707b9-312d-463e-8939-3a90e101f7fc","ios":"levelo://app?vid=e30707b9-312d-463e-8939-3a90e101f7fc"},"vehicle_type_id":"4","last_reported":1699808734,"current_range_meters":21200,"station_id":"ce4bh012rcd13ifvqcv0","pricing_plan_id":"free"},{"bike_id":"29ba7169-75f2-4190-a7ef-8a4bb24147ce","system_id":"levelo_inurba_marseille","lat":43.29529,"lon":5.385581,"is_reserved":false,"is_disabled":false,"rental_uris":{"android":"levelo://app?vid=29ba7169-75f2-4190-a7ef-8a4bb24147ce","ios":"levelo://app?vid=29ba7169-75f2-4190-a7ef-8a4bb24147ce"},"vehicle_type_id":"4","last_reported":1699808734,"current_range_meters":4800,"station_id":"ce4bgih2rcd13ifvqba0","pricing_plan_id":"free"},{"bike_id":"8742e32a-fd5c-465f-ae32-ce31158b0818","system_id":"levelo_inurba_marseille","lat":43.29526,"lon":5.38555,"is_reserved":false,"is_disabled":false,"rental_uris":{"android":"levelo://app?vid=8742e32a-fd5c-465f-ae32-ce31158b0818","ios":"levelo://app?vid=8742e32a-fd5c-465f-ae32-ce31158b0818"},"vehicle_type_id":"4","last_reported":1699808734,"current_range_meters":0,"station_id":"ce4bgih2rcd13ifvqba0","pricing_plan_id":"free"},{"bike_id":"11489e55-2cfe-4776-a5c8-288b6318b0af","system_id":"levelo_inurba_marseille","lat":43.29425,"lon":5.38616,"is_reserved":false,"is_disabled":false,"rental_uris":{"android":"levelo://app?vid=11489e55-2cfe-4776-a5c8-288b6318b0af","ios":"levelo://app?vid=11489e55-2cfe-4776-a5c8-288b6318b0af"},"vehicle_type_id":"4","last_reported":1699808734,"current_range_meters":0,"station_id":"","pricing_plan_id":"free"},{"bike_id":"a3bda608-c8f5-4224-928a-acf50829a629","system_id":"levelo_inurba_marseille","lat":43.294162,"lon":5.386292,"is_reserved":false,"is_disabled":false,"rental_uris":{"android":"levelo://app?vid=a3bda608-c8f5-4224-928a-acf50829a629","ios":"levelo://app?vid=a3bda608-c8f5-4224-928a-acf50829a629"},"vehicle_type_id":"4","last_reported":1699808734,"current_range_meters":6000,"station_id":"ce4bh2h2rcd13ifvqdh0","pricing_plan_id":"free"},{"bike_id":"69a85006-a1b3-406d-b9b5-0dcc8e9c688c","system_id":"levelo_inurba_marseille","lat":43.294162,"lon":5.386292,"is_reserved":false,"is_disabled":false,"rental_uris":{"android":"levelo://app?vid=69a85006-a1b3-406d-b9b5-0dcc8e9c688c","ios":"levelo://app?vid=69a85006-a1b3-406d-b9b5-0dcc8e9c688c"},"vehicle_type_id":"4","last_reported":1699808734,"current_range_meters":0,"station_id":"ce4bh2h2rcd13ifvqdh0","pricing_plan_id":"free"},{"bike_id":"7472e30e-621c-480f-a5ee-28943b770221","system_id":"levelo_inurba_marseille","lat":43.289184,"lon":5.366408,"is_reserved":false,"is_disabled":false,"rental_uris":{"android":"levelo://app?vid=7472e30e-621c-480f-a5ee-28943b770221","ios":"levelo://app?vid=7472e30e-621c-480f-a5ee-28943b770221"},"vehicle_type_id":"4","last_reported":1699808734,"current_range_meters":1200,"station_id":"ce4bhap2rcd13ifvqek0","pricing_plan_id":"free"},{"bike_id":"d012b788-68e8-4838-b661-89eded70c4de","system_id":"levelo_inurba_marseille","lat":43.304274,"lon":5.397513,"is_reserved":false,"is_disabled":false,"rental_uris":{"android":"levelo://app?vid=d012b788-68e8-4838-b661-89eded70c4de","ios":"levelo://app?vid=d012b788-68e8-4838-b661-89eded70c4de"},"vehicle_type_id":"4","last_reported":1699808734,"current_range_meters":22800,"station_id":"ce4bh092rcd13ifvqd20","pricing_plan_id":"free"},{"bike_id":"c9d19278-4098-4b96-b4d3-c7118b0c3275","system_id":"levelo_inurba_marseille","lat":43.292642,"lon":5.384254,"is_reserved":false,"is_disabled":false,"rental_uris":{"android":"levelo://app?vid=c9d19278-4098-4b96-b4d3-c7118b0c3275","ios":"levelo://app?vid=c9d19278-4098-4b96-b4d3-c7118b0c3275"},"vehicle_type_id":"4","last_reported":1699808734,"current_range_meters":0,"station_id":"ce4bh692rcd13ifvqea0","pricing_plan_id":"free"},{"bike_id":"d521fdf0-ee7c-4fe5-bfc8-6b8688a37007","system_id":"levelo_inurba_marseille","lat":43.295169,"lon":5.390426,"is_reserved":false,"is_disabled":false,"rental_uris":{"android":"levelo://app?vid=d521fdf0-ee7c-4fe5-bfc8-6b8688a37007","ios":"levelo://app?vid=d521fdf0-ee7c-4fe5-bfc8-6b8688a37007"},"vehicle_type_id":"4","last_reported":1699808734,"current_range_meters":0,"station_id":"ce4bh3p2rcd13ifvqdp0","pricing_plan_id":"free"},{"bike_id":"087289b7-f0c7-42e5-8c6c-75e508ee93b4","system_id":"levelo_inurba_marseille","lat":43.295169,"lon":5.390426,"is_reserved":false,"is_disabled":false,"rental_uris":{"android":"levelo://app?vid=087289b7-f0c7-42e5-8c6c-75e508ee93b4","ios":"levelo://app?vid=087289b7-f0c7-42e5-8c6c-75e508ee93b4"},"vehicle_type_id":"4","last_reported":1699808734,"current_range_meters":9600,"station_id":"ce4bh3p2rcd13ifvqdp0","pricing_plan_id":"free"},{"bike_id":"92fbaedb-8f42-484d-804e-b69a3a21903c","system_id":"levelo_inurba_marseille","lat":43.288667,"lon":5.37314,"is_reserved":false,"is_disabled":false,"rental_uris":{"android":"levelo://app?vid=92fbaedb-8f42-484d-804e-b69a3a21903c","ios":"levelo://app?vid=92fbaedb-8f42-484d-804e-b69a3a21903c"},"vehicle_type_id":"4","last_reported":1699808734,"current_range_meters":0,"station_id":"","pricing_plan_id":"free"},{"bike_id":"5bee7262-6d01-4896-9ae2-05d3410ba866","system_id":"levelo_inurba_marseille","lat":43.295169,"lon":5.390426,"is_reserved":false,"is_disabled":false,"rental_uris":{"android":"levelo://app?vid=5bee7262-6d01-4896-9ae2-05d3410ba866","ios":"levelo://app?vid=5bee7262-6d01-4896-9ae2-05d3410ba866"},"vehicle_type_id":"4","last_reported":1699808734,"current_range_meters":14400,"station_id":"ce4bh3p2rcd13ifvqdp0","pricing_plan_id":"free"},{"bike_id":"4f9e9247-f943-426c-9381-0ad55c1f7592","system_id":"levelo_inurba_marseille","lat":43.2901,"lon":5.381269,"is_reserved":false,"is_disabled":false,"rental_uris":{"android":"levelo://app?vid=4f9e9247-f943-426c-9381-0ad55c1f7592","ios":"levelo://app?vid=4f9e9247-f943-426c-9381-0ad55c1f7592"},"vehicle_type_id":"4","last_reported":1699808734,"current_range_meters":2000,"station_id":"ce4bh4p2rcd13ifvqe1g","pricing_plan_id":"free"},{"bike_id":"7a1356b5-2437-4bfa-bb34-cf55b7f00bb1","system_id":"levelo_inurba_marseille","lat":43.33063,"lon":5.39051,"is_reserved":false,"is_disabled":false,"rental_uris":{"android":"levelo://app?vid=7a1356b5-2437-4bfa-bb34-cf55b7f00bb1","ios":"levelo://app?vid=7a1356b5-2437-4bfa-bb34-cf55b7f00bb1"},"vehicle_type_id":"4","last_reported":1699808734,"current_range_meters":10000,"station_id":"","pricing_plan_id":"free"},{"bike_id":"b3bf5a35-c0ae-4d70-8ae2-38a593ea04af","system_id":"levelo_inurba_marseille","lat":43.2901,"lon":5.381269,"is_reserved":false,"is_disabled":false,"rental_uris":{"android":"levelo://app?vid=b3bf5a35-c0ae-4d70-8ae2-38a593ea04af","ios":"levelo://app?vid=b3bf5a35-c0ae-4d70-8ae2-38a593ea04af"},"vehicle_type_id":"4","last_reported":1699808734,"current_range_meters":11600,"station_id":"ce4bh4p2rcd13ifvqe1g","pricing_plan_id":"free"},{"bike_id":"468260c4-3a7d-4168-9903-4cf5d9253f4e","system_id":"levelo_inurba_marseille","lat":43.28853,"lon":5.35854,"is_reserved":false,"is_disabled":false,"rental_uris":{"android":"levelo://app?vid=468260c4-3a7d-4168-9903-4cf5d9253f4e","ios":"levelo://app?vid=468260c4-3a7d-4168-9903-4cf5d9253f4e"},"vehicle_type_id":"4","last_reported":1699808734,"current_range_meters":5600,"station_id":"ce4bhb12rcd13ifvqem0","pricing_plan_id":"free"},{"bike_id":"650c0c41-e356-415f-b321-a4376a486cb6","system_id":"levelo_inurba_marseille","lat":43.28856,"lon":5.358371,"is_reserved":false,"is_disabled":false,"rental_uris":{"android":"levelo://app?vid=650c0c41-e356-415f-b321-a4376a486cb6","ios":"levelo://app?vid=650c0c41-e356-415f-b321-a4376a486cb6"},"vehicle_type_id":"4","last_reported":1699808734,"current_range_meters":30400,"station_id":"ce4bhb12rcd13ifvqem0","pricing_plan_id":"free"},{"bike_id":"de86e3d1-a596-40c7-ba28-8077c5a08266","system_id":"levelo_inurba_marseille","lat":43.33763,"lon":5.37491,"is_reserved":false,"is_disabled":false,"rental_uris":{"android":"levelo://app?vid=de86e3d1-a596-40c7-ba28-8077c5a08266","ios":"levelo://app?vid=de86e3d1-a596-40c7-ba28-8077c5a08266"},"vehicle_type_id":"4","last_reported":1699808734,"current_range_meters":28400,"station_id":"","pricing_plan_id":"free"},{"bike_id":"49348f7d-e816-4aa7-b2a4-db487b99990d","system_id":"levelo_inurba_marseille","lat":43.30642,"lon":5.401031,"is_reserved":false,"is_disabled":false,"rental_uris":{"android":"levelo://app?vid=49348f7d-e816-4aa7-b2a4-db487b99990d","ios":"levelo://app?vid=49348f7d-e816-4aa7-b2a4-db487b99990d"},"vehicle_type_id":"4","last_reported":1699808734,"current_range_meters":0,"station_id":"ce4bh112rcd13ifvqda0","pricing_plan_id":"free"},{"bike_id":"a3e05857-aadf-44db-ac6e-690be0a3ea4d","system_id":"levelo_inurba_marseille","lat":43.306412,"lon":5.401035,"is_reserved":false,"is_disabled":false,"rental_uris":{"android":"levelo://app?vid=a3e05857-aadf-44db-ac6e-690be0a3ea4d","ios":"levelo://app?vid=a3e05857-aadf-44db-ac6e-690be0a3ea4d"},"vehicle_type_id":"4","last_reported":1699808734,"current_range_meters":0,"station_id":"ce4bh112rcd13ifvqda0","pricing_plan_id":"free"},{"bike_id":"8906935b-6ce3-4797-96da-59cca697ed2d","system_id":"levelo_inurba_marseille","lat":43.306412,"lon":5.401035,"is_reserved":false,"is_disabled":false,"rental_uris":{"android":"levelo://app?vid=8906935b-6ce3-4797-96da-59cca697ed2d","ios":"levelo://app?vid=8906935b-6ce3-4797-96da-59cca697ed2d"},"vehicle_type_id":"4","last_reported":1699808734,"current_range_meters":9200,"station_id":"ce4bh112rcd13ifvqda0","pricing_plan_id":"free"},{"bike_id":"743f3bc5-43c9-45a3-8965-b67b169c6c30","system_id":"levelo_inurba_marseille","lat":43.30513,"lon":5.40077,"is_reserved":false,"is_disabled":false,"rental_uris":{"android":"levelo://app?vid=743f3bc5-43c9-45a3-8965-b67b169c6c30","ios":"levelo://app?vid=743f3bc5-43c9-45a3-8965-b67b169c6c30"},"vehicle_type_id":"4","last_reported":1699808734,"current_range_meters":6800,"station_id":"","pricing_plan_id":"free"},{"bike_id":"74a5a871-b2a7-4530-9947-e21af523c582","system_id":"levelo_inurba_marseille","lat":43.286961,"lon":5.373785,"is_reserved":false,"is_disabled":false,"rental_uris":{"android":"levelo://app?vid=74a5a871-b2a7-4530-9947-e21af523c582","ios":"levelo://app?vid=74a5a871-b2a7-4530-9947-e21af523c582"},"vehicle_type_id":"4","last_reported":1699808734,"current_range_meters":28000,"station_id":"ce4bh3p2rcd13ifvqdq0","pricing_plan_id":"free"},{"bike_id":"c91cf545-cd63-44d1-a9d0-be6cf52c67bc","system_id":"levelo_inurba_marseille","lat":43.286593,"lon":5.363346,"is_reserved":false,"is_disabled":false,"rental_uris":{"android":"levelo://app?vid=c91cf545-cd63-44d1-a9d0-be6cf52c67bc","ios":"levelo://app?vid=c91cf545-cd63-44d1-a9d0-be6cf52c67bc"},"vehicle_type_id":"4","last_reported":1699808734,"current_range_meters":30400,"station_id":"ce4bhah2rcd13ifvqej0","pricing_plan_id":"free"},{"bike_id":"becaa8e1-b935-45ec-be6d-1fea0565ab72","system_id":"levelo_inurba_marseille","lat":43.286593,"lon":5.363346,"is_reserved":false,"is_disabled":false,"rental_uris":{"android":"levelo://app?vid=becaa8e1-b935-45ec-be6d-1fea0565ab72","ios":"levelo://app?vid=becaa8e1-b935-45ec-be6d-1fea0565ab72"},"vehicle_type_id":"4","last_reported":1699808734,"current_range_meters":26800,"station_id":"ce4bhah2rcd13ifvqej0","pricing_plan_id":"free"},{"bike_id":"721856e8-4ce0-4ba4-b6b3-d1505310bd9e","system_id":"levelo_inurba_marseille","lat":43.29541,"lon":5.39392,"is_reserved":false,"is_disabled":false,"rental_uris":{"android":"levelo://app?vid=721856e8-4ce0-4ba4-b6b3-d1505310bd9e","ios":"levelo://app?vid=721856e8-4ce0-4ba4-b6b3-d1505310bd9e"},"vehicle_type_id":"4","last_reported":1699808734,"current_range_meters":2400,"station_id":"ce4bh292rcd13ifvqdf0","pricing_plan_id":"free"},{"bike_id":"be8334cf-bb02-4f58-b3c3-30b111166daf","system_id":"levelo_inurba_marseille","lat":43.295194,"lon":5.39397,"is_reserved":false,"is_disabled":false,"rental_uris":{"android":"levelo://app?vid=be8334cf-bb02-4f58-b3c3-30b111166daf","ios":"levelo://app?vid=be8334cf-bb02-4f58-b3c3-30b111166daf"},"vehicle_type_id":"4","last_reported":1699808734,"current_range_meters":22800,"station_id":"ce4bh292rcd13ifvqdf0","pricing_plan_id":"free"},{"bike_id":"3c1d2216-dc25-4ca9-9467-a8aa53c1dc34","system_id":"levelo_inurba_marseille","lat":43.33106,"lon":5.39297,"is_reserved":false,"is_disabled":false,"rental_uris":{"android":"levelo://app?vid=3c1d2216-dc25-4ca9-9467-a8aa53c1dc34","ios":"levelo://app?vid=3c1d2216-dc25-4ca9-9467-a8aa53c1dc34"},"vehicle_type_id":"4","last_reported":1699808734,"current_range_meters":29600,"station_id":"","pricing_plan_id":"free"},{"bike_id":"93d3f195-7f39-41dd-8d19-ef89b7eb61e2","system_id":"levelo_inurba_marseille","lat":43.295196,"lon":5.39397,"is_reserved":false,"is_disabled":false,"rental_uris":{"android":"levelo://app?vid=93d3f195-7f39-41dd-8d19-ef89b7eb61e2","ios":"levelo://app?vid=93d3f195-7f39-41dd-8d19-ef89b7eb61e2"},"vehicle_type_id":"4","last_reported":1699808734,"current_range_meters":12400,"station_id":"ce4bh292rcd13ifvqdf0","pricing_plan_id":"free"},{"bike_id":"e962453f-701f-4968-9701-364d4ea7d9cd","system_id":"levelo_inurba_marseille","lat":43.29513,"lon":5.39404,"is_reserved":false,"is_disabled":false,"rental_uris":{"android":"levelo://app?vid=e962453f-701f-4968-9701-364d4ea7d9cd","ios":"levelo://app?vid=e962453f-701f-4968-9701-364d4ea7d9cd"},"vehicle_type_id":"4","last_reported":1699808734,"current_range_meters":29200,"station_id":"ce4bh292rcd13ifvqdf0","pricing_plan_id":"free"},{"bike_id":"b530f65f-fd31-4fd5-a926-6c463020a218","system_id":"levelo_inurba_marseille","lat":43.286961,"lon":5.373785,"is_reserved":false,"is_disabled":false,"rental_uris":{"android":"levelo://app?vid=b530f65f-fd31-4fd5-a926-6c463020a218","ios":"levelo://app?vid=b530f65f-fd31-4fd5-a926-6c463020a218"},"vehicle_type_id":"4","last_reported":1699808734,"current_range_meters":28800,"station_id":"ce4bh3p2rcd13ifvqdq0","pricing_plan_id":"free"},{"bike_id":"5440ef7b-9df0-4843-a10d-eef854dd44cf","system_id":"levelo_inurba_marseille","lat":43.302759,"lon":5.400793,"is_reserved":false,"is_disabled":false,"rental_uris":{"android":"levelo://app?vid=5440ef7b-9df0-4843-a10d-eef854dd44cf","ios":"levelo://app?vid=5440ef7b-9df0-4843-a10d-eef854dd44cf"},"vehicle_type_id":"4","last_reported":1699808734,"current_range_meters":26000,"station_id":"ce4bgvh2rcd13ifvqcs0","pricing_plan_id":"free"},{"bike_id":"a3c7c67b-9eca-4829-a31d-0b7b4bbe7266","system_id":"levelo_inurba_marseille","lat":43.302759,"lon":5.400793,"is_reserved":false,"is_disabled":false,"rental_uris":{"android":"levelo://app?vid=a3c7c67b-9eca-4829-a31d-0b7b4bbe7266","ios":"levelo://app?vid=a3c7c67b-9eca-4829-a31d-0b7b4bbe7266"},"vehicle_type_id":"4","last_reported":1699808734,"current_range_meters":8800,"station_id":"ce4bgvh2rcd13ifvqcs0","pricing_plan_id":"free"},{"bike_id":"c171664e-5ce3-420d-8b6a-89981d4f02fb","system_id":"levelo_inurba_marseille","lat":43.29027,"lon":5.38634,"is_reserved":false,"is_disabled":false,"rental_uris":{"android":"levelo://app?vid=c171664e-5ce3-420d-8b6a-89981d4f02fb","ios":"levelo://app?vid=c171664e-5ce3-420d-8b6a-89981d4f02fb"},"vehicle_type_id":"4","last_reported":1699808734,"current_range_meters":11200,"station_id":"ce4bh4p2rcd13ifvqe0g","pricing_plan_id":"free"},{"bike_id":"361c41d0-b6bb-4a15-801f-c203b1ebb618","system_id":"levelo_inurba_marseille","lat":43.29033,"lon":5.38648,"is_reserved":false,"is_disabled":false,"rental_uris":{"android":"levelo://app?vid=361c41d0-b6bb-4a15-801f-c203b1ebb618","ios":"levelo://app?vid=361c41d0-b6bb-4a15-801f-c203b1ebb618"},"vehicle_type_id":"4","last_reported":1699808734,"current_range_meters":26000,"station_id":"ce4bh4p2rcd13ifvqe0g","pricing_plan_id":"free"},{"bike_id":"6cce54ef-590e-488c-944f-fff46f82d954","system_id":"levelo_inurba_marseille","lat":43.29026,"lon":5.38638,"is_reserved":false,"is_disabled":false,"rental_uris":{"android":"levelo://app?vid=6cce54ef-590e-488c-944f-fff46f82d954","ios":"levelo://app?vid=6cce54ef-590e-488c-944f-fff46f82d954"},"vehicle_type_id":"4","last_reported":1699808734,"current_range_meters":13600,"station_id":"ce4bh4p2rcd13ifvqe0g","pricing_plan_id":"free"},{"bike_id":"82ee8a64-a587-4996-86fc-b3748e031da6","system_id":"levelo_inurba_marseille","lat":43.29026,"lon":5.38641,"is_reserved":false,"is_disabled":false,"rental_uris":{"android":"levelo://app?vid=82ee8a64-a587-4996-86fc-b3748e031da6","ios":"levelo://app?vid=82ee8a64-a587-4996-86fc-b3748e031da6"},"vehicle_type_id":"4","last_reported":1699808734,"current_range_meters":23200,"station_id":"ce4bh4p2rcd13ifvqe0g","pricing_plan_id":"free"},{"bike_id":"87298d02-0f8a-495f-8606-a0af916c3a6d","system_id":"levelo_inurba_marseille","lat":43.302759,"lon":5.400793,"is_reserved":false,"is_disabled":false,"rental_uris":{"android":"levelo://app?vid=87298d02-0f8a-495f-8606-a0af916c3a6d","ios":"levelo://app?vid=87298d02-0f8a-495f-8606-a0af916c3a6d"},"vehicle_type_id":"4","last_reported":1699808734,"current_range_meters":4000,"station_id":"ce4bgvh2rcd13ifvqcs0","pricing_plan_id":"free"},{"bike_id":"168c9d55-9315-40eb-9880-5557ab692c5e","system_id":"levelo_inurba_marseille","lat":43.29023,"lon":5.38648,"is_reserved":false,"is_disabled":false,"rental_uris":{"android":"levelo://app?vid=168c9d55-9315-40eb-9880-5557ab692c5e","ios":"levelo://app?vid=168c9d55-9315-40eb-9880-5557ab692c5e"},"vehicle_type_id":"4","last_reported":1699808734,"current_range_meters":28000,"station_id":"","pricing_plan_id":"free"},{"bike_id":"35227aa4-e441-4c4b-8dfb-a38a0e1180e2","system_id":"levelo_inurba_marseille","lat":43.302759,"lon":5.400793,"is_reserved":false,"is_disabled":false,"rental_uris":{"android":"levelo://app?vid=35227aa4-e441-4c4b-8dfb-a38a0e1180e2","ios":"levelo://app?vid=35227aa4-e441-4c4b-8dfb-a38a0e1180e2"},"vehicle_type_id":"4","last_reported":1699808734,"current_range_meters":18000,"station_id":"ce4bgvh2rcd13ifvqcs0","pricing_plan_id":"free"},{"bike_id":"690681ca-4535-4f33-889a-cbd264a5f7e0","system_id":"levelo_inurba_marseille","lat":43.302759,"lon":5.400793,"is_reserved":false,"is_disabled":false,"rental_uris":{"android":"levelo://app?vid=690681ca-4535-4f33-889a-cbd264a5f7e0","ios":"levelo://app?vid=690681ca-4535-4f33-889a-cbd264a5f7e0"},"vehicle_type_id":"4","last_reported":1699808734,"current_range_meters":14800,"station_id":"ce4bgvh2rcd13ifvqcs0","pricing_plan_id":"free"},{"bike_id":"d8485b5a-daa3-421b-9264-4d102047a239","system_id":"levelo_inurba_marseille","lat":43.28605,"lon":5.37067,"is_reserved":false,"is_disabled":false,"rental_uris":{"android":"levelo://app?vid=d8485b5a-daa3-421b-9264-4d102047a239","ios":"levelo://app?vid=d8485b5a-daa3-421b-9264-4d102047a239"},"vehicle_type_id":"4","last_reported":1699808734,"current_range_meters":10400,"station_id":"ce4bht12rcd13ifvqi60","pricing_plan_id":"free"},{"bike_id":"e57449c2-d088-47cf-8bf2-271593713c89","system_id":"levelo_inurba_marseille","lat":43.328576,"lon":5.398841,"is_reserved":false,"is_disabled":false,"rental_uris":{"android":"levelo://app?vid=e57449c2-d088-47cf-8bf2-271593713c89","ios":"levelo://app?vid=e57449c2-d088-47cf-8bf2-271593713c89"},"vehicle_type_id":"4","last_reported":1699808734,"current_range_meters":3600,"station_id":"","pricing_plan_id":"free"},{"bike_id":"8b602db7-3933-4e4f-af07-3532eae594f1","system_id":"levelo_inurba_marseille","lat":43.291994,"lon":5.392907,"is_reserved":false,"is_disabled":false,"rental_uris":{"android":"levelo://app?vid=8b602db7-3933-4e4f-af07-3532eae594f1","ios":"levelo://app?vid=8b602db7-3933-4e4f-af07-3532eae594f1"},"vehicle_type_id":"4","last_reported":1699808734,"current_range_meters":10400,"station_id":"ce4bh192rcd13ifvqdd0","pricing_plan_id":"free"},{"bike_id":"6ae3fbea-bb25-44ba-8565-7485fa98bcb5","system_id":"levelo_inurba_marseille","lat":43.291994,"lon":5.392907,"is_reserved":false,"is_disabled":false,"rental_uris":{"android":"levelo://app?vid=6ae3fbea-bb25-44ba-8565-7485fa98bcb5","ios":"levelo://app?vid=6ae3fbea-bb25-44ba-8565-7485fa98bcb5"},"vehicle_type_id":"4","last_reported":1699808734,"current_range_meters":25600,"station_id":"ce4bh192rcd13ifvqdd0","pricing_plan_id":"free"},{"bike_id":"b682f943-acd3-4dfb-8bc9-a74afa713320","system_id":"levelo_inurba_marseille","lat":43.29177,"lon":5.39326,"is_reserved":false,"is_disabled":false,"rental_uris":{"android":"levelo://app?vid=b682f943-acd3-4dfb-8bc9-a74afa713320","ios":"levelo://app?vid=b682f943-acd3-4dfb-8bc9-a74afa713320"},"vehicle_type_id":"4","last_reported":1699808734,"current_range_meters":24000,"station_id":"ce4bh192rcd13ifvqdd0","pricing_plan_id":"free"},{"bike_id":"8e1bca9e-0326-485e-aaf8-699ae0b2d8a8","system_id":"levelo_inurba_marseille","lat":43.284534,"lon":5.358662,"is_reserved":false,"is_disabled":false,"rental_uris":{"android":"levelo://app?vid=8e1bca9e-0326-485e-aaf8-699ae0b2d8a8","ios":"levelo://app?vid=8e1bca9e-0326-485e-aaf8-699ae0b2d8a8"},"vehicle_type_id":"4","last_reported":1699808734,"current_range_meters":6000,"station_id":"ce4bhah2rcd13ifvqei0","pricing_plan_id":"free"},{"bike_id":"b860e289-9987-494c-ae7c-05309f444201","system_id":"levelo_inurba_marseille","lat":43.28457,"lon":5.35895,"is_reserved":false,"is_disabled":false,"rental_uris":{"android":"levelo://app?vid=b860e289-9987-494c-ae7c-05309f444201","ios":"levelo://app?vid=b860e289-9987-494c-ae7c-05309f444201"},"vehicle_type_id":"4","last_reported":1699808734,"current_range_meters":0,"station_id":"ce4bhah2rcd13ifvqei0","pricing_plan_id":"free"},{"bike_id":"390da303-4a61-45c4-98e3-1ddd06882176","system_id":"levelo_inurba_marseille","lat":43.283998,"lon":5.375062,"is_reserved":false,"is_disabled":false,"rental_uris":{"android":"levelo://app?vid=390da303-4a61-45c4-98e3-1ddd06882176","ios":"levelo://app?vid=390da303-4a61-45c4-98e3-1ddd06882176"},"vehicle_type_id":"4","last_reported":1699808734,"current_range_meters":19600,"station_id":"ce4bh412rcd13ifvqds0","pricing_plan_id":"free"},{"bike_id":"c33830d8-32d7-4311-a504-7ce153575fba","system_id":"levelo_inurba_marseille","lat":43.283998,"lon":5.375062,"is_reserved":false,"is_disabled":false,"rental_uris":{"android":"levelo://app?vid=c33830d8-32d7-4311-a504-7ce153575fba","ios":"levelo://app?vid=c33830d8-32d7-4311-a504-7ce153575fba"},"vehicle_type_id":"4","last_reported":1699808734,"current_range_meters":21600,"station_id":"ce4bh412rcd13ifvqds0","pricing_plan_id":"free"},{"bike_id":"a4c9d700-1097-4fa2-bbff-d6f2d63661dc","system_id":"levelo_inurba_marseille","lat":43.284,"lon":5.375233,"is_reserved":false,"is_disabled":false,"rental_uris":{"android":"levelo://app?vid=a4c9d700-1097-4fa2-bbff-d6f2d63661dc","ios":"levelo://app?vid=a4c9d700-1097-4fa2-bbff-d6f2d63661dc"},"vehicle_type_id":"4","last_reported":1699808734,"current_range_meters":8000,"station_id":"ce4bh412rcd13ifvqds0","pricing_plan_id":"free"},{"bike_id":"9caec048-a3aa-428b-9d1e-66ad6c2d8e58","system_id":"levelo_inurba_marseille","lat":43.33278,"lon":5.39749,"is_reserved":false,"is_disabled":false,"rental_uris":{"android":"levelo://app?vid=9caec048-a3aa-428b-9d1e-66ad6c2d8e58","ios":"levelo://app?vid=9caec048-a3aa-428b-9d1e-66ad6c2d8e58"},"vehicle_type_id":"4","last_reported":1699808734,"current_range_meters":20400,"station_id":"","pricing_plan_id":"free"},{"bike_id":"030625bd-f8ba-4389-9944-df2973894a22","system_id":"levelo_inurba_marseille","lat":43.325731,"lon":5.404186,"is_reserved":false,"is_disabled":false,"rental_uris":{"android":"levelo://app?vid=030625bd-f8ba-4389-9944-df2973894a22","ios":"levelo://app?vid=030625bd-f8ba-4389-9944-df2973894a22"},"vehicle_type_id":"4","last_reported":1699808734,"current_range_meters":0,"station_id":"","pricing_plan_id":"free"},{"bike_id":"fd4453ca-443e-40fb-8cb1-027f379fdf21","system_id":"levelo_inurba_marseille","lat":43.33717,"lon":5.391857,"is_reserved":false,"is_disabled":false,"rental_uris":{"android":"levelo://app?vid=fd4453ca-443e-40fb-8cb1-027f379fdf21","ios":"levelo://app?vid=fd4453ca-443e-40fb-8cb1-027f379fdf21"},"vehicle_type_id":"4","last_reported":1699808734,"current_range_meters":23200,"station_id":"ce4bhr92rcd13ifvqhsg","pricing_plan_id":"free"},{"bike_id":"1d4ec96b-a31f-48ef-9d20-e941a70f42e1","system_id":"levelo_inurba_marseille","lat":43.323464,"lon":5.406297,"is_reserved":false,"is_disabled":false,"rental_uris":{"android":"levelo://app?vid=1d4ec96b-a31f-48ef-9d20-e941a70f42e1","ios":"levelo://app?vid=1d4ec96b-a31f-48ef-9d20-e941a70f42e1"},"vehicle_type_id":"4","last_reported":1699808734,"current_range_meters":3200,"station_id":"ce4bhq92rcd13ifvqhjg","pricing_plan_id":"free"},{"bike_id":"8366c2a3-dfff-47a5-a440-ffea99705bda","system_id":"levelo_inurba_marseille","lat":43.297946,"lon":5.404063,"is_reserved":false,"is_disabled":false,"rental_uris":{"android":"levelo://app?vid=8366c2a3-dfff-47a5-a440-ffea99705bda","ios":"levelo://app?vid=8366c2a3-dfff-47a5-a440-ffea99705bda"},"vehicle_type_id":"4","last_reported":1699808734,"current_range_meters":6000,"station_id":"ce4bh112rcd13ifvqd90","pricing_plan_id":"free"},{"bike_id":"0892db7e-2aad-442b-90e6-f3fc38a23ba3","system_id":"levelo_inurba_marseille","lat":43.297946,"lon":5.404063,"is_reserved":false,"is_disabled":false,"rental_uris":{"android":"levelo://app?vid=0892db7e-2aad-442b-90e6-f3fc38a23ba3","ios":"levelo://app?vid=0892db7e-2aad-442b-90e6-f3fc38a23ba3"},"vehicle_type_id":"4","last_reported":1699808734,"current_range_meters":18800,"station_id":"ce4bh112rcd13ifvqd90","pricing_plan_id":"free"},{"bike_id":"ff9fc219-9444-45ce-a10e-28f8be83f027","system_id":"levelo_inurba_marseille","lat":43.28845,"lon":5.39303,"is_reserved":false,"is_disabled":false,"rental_uris":{"android":"levelo://app?vid=ff9fc219-9444-45ce-a10e-28f8be83f027","ios":"levelo://app?vid=ff9fc219-9444-45ce-a10e-28f8be83f027"},"vehicle_type_id":"4","last_reported":1699808734,"current_range_meters":0,"station_id":"ce4bh2p2rcd13ifvqdi0","pricing_plan_id":"free"},{"bike_id":"da9c2c0a-4cda-4175-b7e6-4498d341fbec","system_id":"levelo_inurba_marseille","lat":43.29795,"lon":5.404086,"is_reserved":false,"is_disabled":false,"rental_uris":{"android":"levelo://app?vid=da9c2c0a-4cda-4175-b7e6-4498d341fbec","ios":"levelo://app?vid=da9c2c0a-4cda-4175-b7e6-4498d341fbec"},"vehicle_type_id":"4","last_reported":1699808734,"current_range_meters":22400,"station_id":"ce4bh112rcd13ifvqd90","pricing_plan_id":"free"},{"bike_id":"694cc18d-6823-481a-9d09-67d990c2d197","system_id":"levelo_inurba_marseille","lat":43.324289,"lon":5.407562,"is_reserved":false,"is_disabled":false,"rental_uris":{"android":"levelo://app?vid=694cc18d-6823-481a-9d09-67d990c2d197","ios":"levelo://app?vid=694cc18d-6823-481a-9d09-67d990c2d197"},"vehicle_type_id":"4","last_reported":1699808734,"current_range_meters":0,"station_id":"","pricing_plan_id":"free"},{"bike_id":"300d21ef-3def-4919-8c95-c014d799a30a","system_id":"levelo_inurba_marseille","lat":43.2928,"lon":5.40121,"is_reserved":false,"is_disabled":false,"rental_uris":{"android":"levelo://app?vid=300d21ef-3def-4919-8c95-c014d799a30a","ios":"levelo://app?vid=300d21ef-3def-4919-8c95-c014d799a30a"},"vehicle_type_id":"4","last_reported":1699808734,"current_range_meters":0,"station_id":"ce4bh312rcd13ifvqdk0","pricing_plan_id":"free"},{"bike_id":"300b90b0-fa00-410d-9b2f-1d3a49842651","system_id":"levelo_inurba_marseille","lat":43.282754,"lon":5.350519,"is_reserved":false,"is_disabled":false,"rental_uris":{"android":"levelo://app?vid=300b90b0-fa00-410d-9b2f-1d3a49842651","ios":"levelo://app?vid=300b90b0-fa00-410d-9b2f-1d3a49842651"},"vehicle_type_id":"4","last_reported":1699808734,"current_range_meters":29600,"station_id":"ce4bhbp2rcd13ifvqerg","pricing_plan_id":"free"},{"bike_id":"3e7a424f-7a9c-4abb-9809-b22b7112b800","system_id":"levelo_inurba_marseille","lat":43.28039,"lon":5.369297,"is_reserved":false,"is_disabled":false,"rental_uris":{"android":"levelo://app?vid=3e7a424f-7a9c-4abb-9809-b22b7112b800","ios":"levelo://app?vid=3e7a424f-7a9c-4abb-9809-b22b7112b800"},"vehicle_type_id":"4","last_reported":1699808734,"current_range_meters":26000,"station_id":"ce4bha12rcd13ifvqef0","pricing_plan_id":"free"},{"bike_id":"2d93e3ad-4f91-4709-9f87-d447ebb78ec3","system_id":"levelo_inurba_marseille","lat":43.28102,"lon":5.37844,"is_reserved":false,"is_disabled":false,"rental_uris":{"android":"levelo://app?vid=2d93e3ad-4f91-4709-9f87-d447ebb78ec3","ios":"levelo://app?vid=2d93e3ad-4f91-4709-9f87-d447ebb78ec3"},"vehicle_type_id":"4","last_reported":1699808734,"current_range_meters":4000,"station_id":"ce4bha12rcd13ifvqee0","pricing_plan_id":"free"},{"bike_id":"1a767a18-1382-476e-a614-3637aae5c7ce","system_id":"levelo_inurba_marseille","lat":43.296263,"lon":5.40601,"is_reserved":false,"is_disabled":false,"rental_uris":{"android":"levelo://app?vid=1a767a18-1382-476e-a614-3637aae5c7ce","ios":"levelo://app?vid=1a767a18-1382-476e-a614-3637aae5c7ce"},"vehicle_type_id":"4","last_reported":1699808734,"current_range_meters":400,"station_id":"ce4bh0h2rcd13ifvqd60","pricing_plan_id":"free"},{"bike_id":"c5269fde-c094-4163-a2ac-a6350e774e3c","system_id":"levelo_inurba_marseille","lat":43.323447,"lon":5.41003,"is_reserved":false,"is_disabled":false,"rental_uris":{"android":"levelo://app?vid=c5269fde-c094-4163-a2ac-a6350e774e3c","ios":"levelo://app?vid=c5269fde-c094-4163-a2ac-a6350e774e3c"},"vehicle_type_id":"4","last_reported":1699808734,"current_range_meters":800,"station_id":"","pricing_plan_id":"free"},{"bike_id":"ccf9b17e-2fb6-47d5-b5cb-73ea08fcb6e5","system_id":"levelo_inurba_marseille","lat":43.28575,"lon":5.39498,"is_reserved":false,"is_disabled":false,"rental_uris":{"android":"levelo://app?vid=ccf9b17e-2fb6-47d5-b5cb-73ea08fcb6e5","ios":"levelo://app?vid=ccf9b17e-2fb6-47d5-b5cb-73ea08fcb6e5"},"vehicle_type_id":"4","last_reported":1699808734,"current_range_meters":23600,"station_id":"ce4bh292rcd13ifvqdg0","pricing_plan_id":"free"},{"bike_id":"fc3bf7a7-c96e-44c0-a5a6-b655d2a02ca9","system_id":"levelo_inurba_marseille","lat":43.28573,"lon":5.394992,"is_reserved":false,"is_disabled":false,"rental_uris":{"android":"levelo://app?vid=fc3bf7a7-c96e-44c0-a5a6-b655d2a02ca9","ios":"levelo://app?vid=fc3bf7a7-c96e-44c0-a5a6-b655d2a02ca9"},"vehicle_type_id":"4","last_reported":1699808734,"current_range_meters":13200,"station_id":"ce4bh292rcd13ifvqdg0","pricing_plan_id":"free"},{"bike_id":"8c4126d0-42f3-4fc8-9b83-7852e78b1d09","system_id":"levelo_inurba_marseille","lat":43.28573,"lon":5.394992,"is_reserved":false,"is_disabled":false,"rental_uris":{"android":"levelo://app?vid=8c4126d0-42f3-4fc8-9b83-7852e78b1d09","ios":"levelo://app?vid=8c4126d0-42f3-4fc8-9b83-7852e78b1d09"},"vehicle_type_id":"4","last_reported":1699808734,"current_range_meters":4400,"station_id":"ce4bh292rcd13ifvqdg0","pricing_plan_id":"free"},{"bike_id":"45d0a54d-7c86-4ecf-9404-ec5ec5719eec","system_id":"levelo_inurba_marseille","lat":43.279087,"lon":5.380114,"is_reserved":false,"is_disabled":false,"rental_uris":{"android":"levelo://app?vid=45d0a54d-7c86-4ecf-9404-ec5ec5719eec","ios":"levelo://app?vid=45d0a54d-7c86-4ecf-9404-ec5ec5719eec"},"vehicle_type_id":"4","last_reported":1699808734,"current_range_meters":17200,"station_id":"ce4bhf92rcd13ifvqf50","pricing_plan_id":"free"},{"bike_id":"feca28d2-7019-4e39-96be-d7938cc29597","system_id":"levelo_inurba_marseille","lat":43.32435,"lon":5.4137,"is_reserved":false,"is_disabled":false,"rental_uris":{"android":"levelo://app?vid=feca28d2-7019-4e39-96be-d7938cc29597","ios":"levelo://app?vid=feca28d2-7019-4e39-96be-d7938cc29597"},"vehicle_type_id":"4","last_reported":1699808734,"current_range_meters":16800,"station_id":"","pricing_plan_id":"free"},{"bike_id":"d3caf2f9-4220-4319-90dd-bba0322eb9c8","system_id":"levelo_inurba_marseille","lat":43.299564,"lon":5.413212,"is_reserved":false,"is_disabled":false,"rental_uris":{"android":"levelo://app?vid=d3caf2f9-4220-4319-90dd-bba0322eb9c8","ios":"levelo://app?vid=d3caf2f9-4220-4319-90dd-bba0322eb9c8"},"vehicle_type_id":"4","last_reported":1699808734,"current_range_meters":30400,"station_id":"ce4bhp12rcd13ifvqh9g","pricing_plan_id":"free"},{"bike_id":"140609e0-e2e5-494a-8cf5-afa400649100","system_id":"levelo_inurba_marseille","lat":43.279742,"lon":5.38744,"is_reserved":false,"is_disabled":false,"rental_uris":{"android":"levelo://app?vid=140609e0-e2e5-494a-8cf5-afa400649100","ios":"levelo://app?vid=140609e0-e2e5-494a-8cf5-afa400649100"},"vehicle_type_id":"4","last_reported":1699808734,"current_range_meters":0,"station_id":"ce4bhg12rcd13ifvqf80","pricing_plan_id":"free"},{"bike_id":"fed9c799-7f53-43fb-947e-d7b392ceca56","system_id":"levelo_inurba_marseille","lat":43.320282,"lon":5.415758,"is_reserved":false,"is_disabled":false,"rental_uris":{"android":"levelo://app?vid=fed9c799-7f53-43fb-947e-d7b392ceca56","ios":"levelo://app?vid=fed9c799-7f53-43fb-947e-d7b392ceca56"},"vehicle_type_id":"4","last_reported":1699808734,"current_range_meters":0,"station_id":"ce4bhq92rcd13ifvqhkg","pricing_plan_id":"free"},{"bike_id":"332127a3-094c-4534-b8ab-c95fafb489d7","system_id":"levelo_inurba_marseille","lat":43.27623,"lon":5.36111,"is_reserved":false,"is_disabled":false,"rental_uris":{"android":"levelo://app?vid=332127a3-094c-4534-b8ab-c95fafb489d7","ios":"levelo://app?vid=332127a3-094c-4534-b8ab-c95fafb489d7"},"vehicle_type_id":"4","last_reported":1699808734,"current_range_meters":22400,"station_id":"ce4bgj92rcd13ifvqbe0","pricing_plan_id":"free"},{"bike_id":"0ff41da9-75cd-4993-a8c3-ca5ec8279bb7","system_id":"levelo_inurba_marseille","lat":43.27618,"lon":5.361009,"is_reserved":false,"is_disabled":false,"rental_uris":{"android":"levelo://app?vid=0ff41da9-75cd-4993-a8c3-ca5ec8279bb7","ios":"levelo://app?vid=0ff41da9-75cd-4993-a8c3-ca5ec8279bb7"},"vehicle_type_id":"4","last_reported":1699808734,"current_range_meters":27600,"station_id":"ce4bgj92rcd13ifvqbe0","pricing_plan_id":"free"},{"bike_id":"2eeb5ff6-9ee3-45b6-addc-e317622e470b","system_id":"levelo_inurba_marseille","lat":43.27618,"lon":5.361009,"is_reserved":false,"is_disabled":false,"rental_uris":{"android":"levelo://app?vid=2eeb5ff6-9ee3-45b6-addc-e317622e470b","ios":"levelo://app?vid=2eeb5ff6-9ee3-45b6-addc-e317622e470b"},"vehicle_type_id":"4","last_reported":1699808734,"current_range_meters":31200,"station_id":"ce4bgj92rcd13ifvqbe0","pricing_plan_id":"free"},{"bike_id":"33e66c4f-8ff9-4dae-ac14-558252b9cf28","system_id":"levelo_inurba_marseille","lat":43.28004,"lon":5.40007,"is_reserved":false,"is_disabled":false,"rental_uris":{"android":"levelo://app?vid=33e66c4f-8ff9-4dae-ac14-558252b9cf28","ios":"levelo://app?vid=33e66c4f-8ff9-4dae-ac14-558252b9cf28"},"vehicle_type_id":"4","last_reported":1699808734,"current_range_meters":12400,"station_id":"ce4bho92rcd13ifvqh4g","pricing_plan_id":"free"},{"bike_id":"6a67f168-92cd-4ba4-bbe7-e0d5add12544","system_id":"levelo_inurba_marseille","lat":43.28,"lon":5.40013,"is_reserved":false,"is_disabled":false,"rental_uris":{"android":"levelo://app?vid=6a67f168-92cd-4ba4-bbe7-e0d5add12544","ios":"levelo://app?vid=6a67f168-92cd-4ba4-bbe7-e0d5add12544"},"vehicle_type_id":"4","last_reported":1699808734,"current_range_meters":31200,"station_id":"ce4bho92rcd13ifvqh4g","pricing_plan_id":"free"},{"bike_id":"298ed835-ec2a-45ed-9079-aa820de06426","system_id":"levelo_inurba_marseille","lat":43.310785,"lon":5.424305,"is_reserved":false,"is_disabled":false,"rental_uris":{"android":"levelo://app?vid=298ed835-ec2a-45ed-9079-aa820de06426","ios":"levelo://app?vid=298ed835-ec2a-45ed-9079-aa820de06426"},"vehicle_type_id":"4","last_reported":1699808734,"current_range_meters":20400,"station_id":"ce4bhp92rcd13ifvqhag","pricing_plan_id":"free"},{"bike_id":"0e5a7a5e-46d5-4626-b4ce-8b0e1696bb31","system_id":"levelo_inurba_marseille","lat":43.310785,"lon":5.424305,"is_reserved":false,"is_disabled":false,"rental_uris":{"android":"levelo://app?vid=0e5a7a5e-46d5-4626-b4ce-8b0e1696bb31","ios":"levelo://app?vid=0e5a7a5e-46d5-4626-b4ce-8b0e1696bb31"},"vehicle_type_id":"4","last_reported":1699808734,"current_range_meters":800,"station_id":"ce4bhp92rcd13ifvqhag","pricing_plan_id":"free"},{"bike_id":"3341c5b5-edfb-439f-9792-d57aac4c4c0b","system_id":"levelo_inurba_marseille","lat":43.274099,"lon":5.394019,"is_reserved":false,"is_disabled":false,"rental_uris":{"android":"levelo://app?vid=3341c5b5-edfb-439f-9792-d57aac4c4c0b","ios":"levelo://app?vid=3341c5b5-edfb-439f-9792-d57aac4c4c0b"},"vehicle_type_id":"4","last_reported":1699808734,"current_range_meters":0,"station_id":"ce4bhdp2rcd13ifvqf20","pricing_plan_id":"free"},{"bike_id":"13f673dc-9e10-4658-a316-25b94e562974","system_id":"levelo_inurba_marseille","lat":43.274099,"lon":5.394019,"is_reserved":false,"is_disabled":false,"rental_uris":{"android":"levelo://app?vid=13f673dc-9e10-4658-a316-25b94e562974","ios":"levelo://app?vid=13f673dc-9e10-4658-a316-25b94e562974"},"vehicle_type_id":"4","last_reported":1699808734,"current_range_meters":8800,"station_id":"ce4bhdp2rcd13ifvqf20","pricing_plan_id":"free"},{"bike_id":"56fc6c2c-64c4-4cbc-b368-c965f0c371ee","system_id":"levelo_inurba_marseille","lat":43.295523,"lon":5.422926,"is_reserved":false,"is_disabled":false,"rental_uris":{"android":"levelo://app?vid=56fc6c2c-64c4-4cbc-b368-c965f0c371ee","ios":"levelo://app?vid=56fc6c2c-64c4-4cbc-b368-c965f0c371ee"},"vehicle_type_id":"4","last_reported":1699808734,"current_range_meters":30800,"station_id":"ce4bhph2rcd13ifvqhdg","pricing_plan_id":"free"},{"bike_id":"fc23ceec-b45a-4766-9c80-384d82439159","system_id":"levelo_inurba_marseille","lat":43.295511,"lon":5.422926,"is_reserved":false,"is_disabled":false,"rental_uris":{"android":"levelo://app?vid=fc23ceec-b45a-4766-9c80-384d82439159","ios":"levelo://app?vid=fc23ceec-b45a-4766-9c80-384d82439159"},"vehicle_type_id":"4","last_reported":1699808734,"current_range_meters":18400,"station_id":"ce4bhph2rcd13ifvqhdg","pricing_plan_id":"free"},{"bike_id":"8feede5d-32a8-4d2b-b130-a02bbbc9bb72","system_id":"levelo_inurba_marseille","lat":43.272116,"lon":5.391763,"is_reserved":false,"is_disabled":false,"rental_uris":{"android":"levelo://app?vid=8feede5d-32a8-4d2b-b130-a02bbbc9bb72","ios":"levelo://app?vid=8feede5d-32a8-4d2b-b130-a02bbbc9bb72"},"vehicle_type_id":"4","last_reported":1699808734,"current_range_meters":2400,"station_id":"ce4bhhp2rcd13ifvqfm0","pricing_plan_id":"free"},{"bike_id":"6d9289d7-7903-4242-90a4-d291f4ed4153","system_id":"levelo_inurba_marseille","lat":43.27216,"lon":5.39256,"is_reserved":false,"is_disabled":false,"rental_uris":{"android":"levelo://app?vid=6d9289d7-7903-4242-90a4-d291f4ed4153","ios":"levelo://app?vid=6d9289d7-7903-4242-90a4-d291f4ed4153"},"vehicle_type_id":"4","last_reported":1699808734,"current_range_meters":11200,"station_id":"","pricing_plan_id":"free"},{"bike_id":"9c86b824-2168-4f46-b290-9c226cef33eb","system_id":"levelo_inurba_marseille","lat":43.27196,"lon":5.39239,"is_reserved":false,"is_disabled":false,"rental_uris":{"android":"levelo://app?vid=9c86b824-2168-4f46-b290-9c226cef33eb","ios":"levelo://app?vid=9c86b824-2168-4f46-b290-9c226cef33eb"},"vehicle_type_id":"4","last_reported":1699808734,"current_range_meters":28000,"station_id":"","pricing_plan_id":"free"},{"bike_id":"fe75077d-42bf-43ae-8fa2-44109df3d40a","system_id":"levelo_inurba_marseille","lat":43.27203,"lon":5.39295,"is_reserved":false,"is_disabled":false,"rental_uris":{"android":"levelo://app?vid=fe75077d-42bf-43ae-8fa2-44109df3d40a","ios":"levelo://app?vid=fe75077d-42bf-43ae-8fa2-44109df3d40a"},"vehicle_type_id":"4","last_reported":1699808734,"current_range_meters":14400,"station_id":"","pricing_plan_id":"free"},{"bike_id":"edfce73a-5cb2-4847-9f71-45701404413d","system_id":"levelo_inurba_marseille","lat":43.278128,"lon":5.407195,"is_reserved":false,"is_disabled":false,"rental_uris":{"android":"levelo://app?vid=edfce73a-5cb2-4847-9f71-45701404413d","ios":"levelo://app?vid=edfce73a-5cb2-4847-9f71-45701404413d"},"vehicle_type_id":"4","last_reported":1699808734,"current_range_meters":6400,"station_id":"ce4bhnh2rcd13ifvqgtg","pricing_plan_id":"free"},{"bike_id":"980ad565-8ccf-4249-9947-e86b308442f4","system_id":"levelo_inurba_marseille","lat":43.26681,"lon":5.382694,"is_reserved":false,"is_disabled":false,"rental_uris":{"android":"levelo://app?vid=980ad565-8ccf-4249-9947-e86b308442f4","ios":"levelo://app?vid=980ad565-8ccf-4249-9947-e86b308442f4"},"vehicle_type_id":"4","last_reported":1699808734,"current_range_meters":16800,"station_id":"ce4bhg92rcd13ifvqf90","pricing_plan_id":"free"},{"bike_id":"d46ef625-7d39-4c82-b217-c85a1268473f","system_id":"levelo_inurba_marseille","lat":43.271102,"lon":5.4027,"is_reserved":false,"is_disabled":false,"rental_uris":{"android":"levelo://app?vid=d46ef625-7d39-4c82-b217-c85a1268473f","ios":"levelo://app?vid=d46ef625-7d39-4c82-b217-c85a1268473f"},"vehicle_type_id":"4","last_reported":1699808734,"current_range_meters":2000,"station_id":"","pricing_plan_id":"free"},{"bike_id":"f39776f8-e338-4e5d-8296-2a44b065e822","system_id":"levelo_inurba_marseille","lat":43.308012,"lon":5.435152,"is_reserved":false,"is_disabled":false,"rental_uris":{"android":"levelo://app?vid=f39776f8-e338-4e5d-8296-2a44b065e822","ios":"levelo://app?vid=f39776f8-e338-4e5d-8296-2a44b065e822"},"vehicle_type_id":"4","last_reported":1699808734,"current_range_meters":30800,"station_id":"ce4bhph2rcd13ifvqheg","pricing_plan_id":"free"},{"bike_id":"575ca992-e936-4074-b7c6-852b3c666dc2","system_id":"levelo_inurba_marseille","lat":43.308051,"lon":5.43527,"is_reserved":false,"is_disabled":false,"rental_uris":{"android":"levelo://app?vid=575ca992-e936-4074-b7c6-852b3c666dc2","ios":"levelo://app?vid=575ca992-e936-4074-b7c6-852b3c666dc2"},"vehicle_type_id":"4","last_reported":1699808734,"current_range_meters":30800,"station_id":"ce4bhph2rcd13ifvqheg","pricing_plan_id":"free"},{"bike_id":"033771a6-1055-48d2-9826-6454c9f5b3f7","system_id":"levelo_inurba_marseille","lat":43.307953,"lon":5.435282,"is_reserved":false,"is_disabled":false,"rental_uris":{"android":"levelo://app?vid=033771a6-1055-48d2-9826-6454c9f5b3f7","ios":"levelo://app?vid=033771a6-1055-48d2-9826-6454c9f5b3f7"},"vehicle_type_id":"4","last_reported":1699808734,"current_range_meters":800,"station_id":"ce4bhph2rcd13ifvqheg","pricing_plan_id":"free"},{"bike_id":"aa0d65d6-fe29-40de-bda4-b6707bcd53ef","system_id":"levelo_inurba_marseille","lat":43.30802,"lon":5.43531,"is_reserved":false,"is_disabled":false,"rental_uris":{"android":"levelo://app?vid=aa0d65d6-fe29-40de-bda4-b6707bcd53ef","ios":"levelo://app?vid=aa0d65d6-fe29-40de-bda4-b6707bcd53ef"},"vehicle_type_id":"4","last_reported":1699808734,"current_range_meters":28800,"station_id":"ce4bhph2rcd13ifvqheg","pricing_plan_id":"free"},{"bike_id":"2aa6c4b1-a67d-43b7-9eb1-fe5b5bec91bf","system_id":"levelo_inurba_marseille","lat":43.32903,"lon":5.43282,"is_reserved":false,"is_disabled":false,"rental_uris":{"android":"levelo://app?vid=2aa6c4b1-a67d-43b7-9eb1-fe5b5bec91bf","ios":"levelo://app?vid=2aa6c4b1-a67d-43b7-9eb1-fe5b5bec91bf"},"vehicle_type_id":"4","last_reported":1699808734,"current_range_meters":8800,"station_id":"","pricing_plan_id":"free"},{"bike_id":"47be5837-a233-4b40-96ac-85b29b6f684c","system_id":"levelo_inurba_marseille","lat":43.317104,"lon":5.436818,"is_reserved":false,"is_disabled":false,"rental_uris":{"android":"levelo://app?vid=47be5837-a233-4b40-96ac-85b29b6f684c","ios":"levelo://app?vid=47be5837-a233-4b40-96ac-85b29b6f684c"},"vehicle_type_id":"4","last_reported":1699808734,"current_range_meters":28000,"station_id":"ce4bhp92rcd13ifvqhcg","pricing_plan_id":"free"},{"bike_id":"b2d49cda-f49e-4bbf-bbac-372e27fe7e4f","system_id":"levelo_inurba_marseille","lat":43.271368,"lon":5.40928,"is_reserved":false,"is_disabled":false,"rental_uris":{"android":"levelo://app?vid=b2d49cda-f49e-4bbf-bbac-372e27fe7e4f","ios":"levelo://app?vid=b2d49cda-f49e-4bbf-bbac-372e27fe7e4f"},"vehicle_type_id":"4","last_reported":1699808734,"current_range_meters":13600,"station_id":"ce4bhl12rcd13ifvqgf0","pricing_plan_id":"free"},{"bike_id":"775655a8-b12d-4d42-b1c9-39c66c333034","system_id":"levelo_inurba_marseille","lat":43.267959,"lon":5.402687,"is_reserved":false,"is_disabled":false,"rental_uris":{"android":"levelo://app?vid=775655a8-b12d-4d42-b1c9-39c66c333034","ios":"levelo://app?vid=775655a8-b12d-4d42-b1c9-39c66c333034"},"vehicle_type_id":"4","last_reported":1699808734,"current_range_meters":4000,"station_id":"ce501612rcd8frsf0b60","pricing_plan_id":"free"},{"bike_id":"2847235e-c215-4ad4-80cd-76a518af6a09","system_id":"levelo_inurba_marseille","lat":43.298768,"lon":5.43643,"is_reserved":false,"is_disabled":false,"rental_uris":{"android":"levelo://app?vid=2847235e-c215-4ad4-80cd-76a518af6a09","ios":"levelo://app?vid=2847235e-c215-4ad4-80cd-76a518af6a09"},"vehicle_type_id":"4","last_reported":1699808734,"current_range_meters":14800,"station_id":"ce4bhpp2rcd13ifvqhfg","pricing_plan_id":"free"},{"bike_id":"a13c7f78-1111-4a67-b445-29e3bdbafa23","system_id":"levelo_inurba_marseille","lat":43.298768,"lon":5.43643,"is_reserved":false,"is_disabled":false,"rental_uris":{"android":"levelo://app?vid=a13c7f78-1111-4a67-b445-29e3bdbafa23","ios":"levelo://app?vid=a13c7f78-1111-4a67-b445-29e3bdbafa23"},"vehicle_type_id":"4","last_reported":1699808734,"current_range_meters":29200,"station_id":"ce4bhpp2rcd13ifvqhfg","pricing_plan_id":"free"},{"bike_id":"22b1555e-ff63-4faa-b5d2-76bf4e29f36f","system_id":"levelo_inurba_marseille","lat":43.260226,"lon":5.375538,"is_reserved":false,"is_disabled":false,"rental_uris":{"android":"levelo://app?vid=22b1555e-ff63-4faa-b5d2-76bf4e29f36f","ios":"levelo://app?vid=22b1555e-ff63-4faa-b5d2-76bf4e29f36f"},"vehicle_type_id":"4","last_reported":1699808734,"current_range_meters":30400,"station_id":"ce4bhgh2rcd13ifvqfa0","pricing_plan_id":"free"},{"bike_id":"4f6880f4-3164-4fc2-9cf7-3c1358040f10","system_id":"levelo_inurba_marseille","lat":43.290501,"lon":5.433305,"is_reserved":false,"is_disabled":false,"rental_uris":{"android":"levelo://app?vid=4f6880f4-3164-4fc2-9cf7-3c1358040f10","ios":"levelo://app?vid=4f6880f4-3164-4fc2-9cf7-3c1358040f10"},"vehicle_type_id":"4","last_reported":1699808734,"current_range_meters":15200,"station_id":"","pricing_plan_id":"free"},{"bike_id":"7929fe62-478b-45ed-a32f-4cee63794674","system_id":"levelo_inurba_marseille","lat":43.275005,"lon":5.424511,"is_reserved":false,"is_disabled":false,"rental_uris":{"android":"levelo://app?vid=7929fe62-478b-45ed-a32f-4cee63794674","ios":"levelo://app?vid=7929fe62-478b-45ed-a32f-4cee63794674"},"vehicle_type_id":"4","last_reported":1699808734,"current_range_meters":13200,"station_id":"","pricing_plan_id":"free"},{"bike_id":"152d5abe-e700-4bcc-a194-fad934c9fc41","system_id":"levelo_inurba_marseille","lat":43.275028,"lon":5.424534,"is_reserved":false,"is_disabled":false,"rental_uris":{"android":"levelo://app?vid=152d5abe-e700-4bcc-a194-fad934c9fc41","ios":"levelo://app?vid=152d5abe-e700-4bcc-a194-fad934c9fc41"},"vehicle_type_id":"4","last_reported":1699808734,"current_range_meters":18000,"station_id":"ce4bhn92rcd13ifvqgrg","pricing_plan_id":"free"},{"bike_id":"f2307a4c-7611-4db6-b58a-5736d1e13606","system_id":"levelo_inurba_marseille","lat":43.2583,"lon":5.39434,"is_reserved":false,"is_disabled":false,"rental_uris":{"android":"levelo://app?vid=f2307a4c-7611-4db6-b58a-5736d1e13606","ios":"levelo://app?vid=f2307a4c-7611-4db6-b58a-5736d1e13606"},"vehicle_type_id":"4","last_reported":1699808734,"current_range_meters":20800,"station_id":"ce4bhip2rcd13ifvqft0","pricing_plan_id":"free"},{"bike_id":"e46f55f0-4b44-4542-9d1b-1522c384c0e6","system_id":"levelo_inurba_marseille","lat":43.255804,"lon":5.382218,"is_reserved":false,"is_disabled":false,"rental_uris":{"android":"levelo://app?vid=e46f55f0-4b44-4542-9d1b-1522c384c0e6","ios":"levelo://app?vid=e46f55f0-4b44-4542-9d1b-1522c384c0e6"},"vehicle_type_id":"4","last_reported":1699808734,"current_range_meters":28800,"station_id":"ce4bhh12rcd13ifvqff0","pricing_plan_id":"free"},{"bike_id":"53fd1c40-c3ca-4714-b41f-7b9811232fe4","system_id":"levelo_inurba_marseille","lat":43.255782,"lon":5.38233,"is_reserved":false,"is_disabled":false,"rental_uris":{"android":"levelo://app?vid=53fd1c40-c3ca-4714-b41f-7b9811232fe4","ios":"levelo://app?vid=53fd1c40-c3ca-4714-b41f-7b9811232fe4"},"vehicle_type_id":"4","last_reported":1699808734,"current_range_meters":31200,"station_id":"ce4bhih2rcd13ifvqfs0","pricing_plan_id":"free"},{"bike_id":"da59306d-4f74-49eb-a52a-9500c2135ce4","system_id":"levelo_inurba_marseille","lat":43.25578,"lon":5.38237,"is_reserved":false,"is_disabled":false,"rental_uris":{"android":"levelo://app?vid=da59306d-4f74-49eb-a52a-9500c2135ce4","ios":"levelo://app?vid=da59306d-4f74-49eb-a52a-9500c2135ce4"},"vehicle_type_id":"4","last_reported":1699808734,"current_range_meters":31200,"station_id":"ce4bhih2rcd13ifvqfs0","pricing_plan_id":"free"},{"bike_id":"d2096777-d22e-4c7b-8640-8e2b6526a806","system_id":"levelo_inurba_marseille","lat":43.258224,"lon":5.394369,"is_reserved":false,"is_disabled":false,"rental_uris":{"android":"levelo://app?vid=d2096777-d22e-4c7b-8640-8e2b6526a806","ios":"levelo://app?vid=d2096777-d22e-4c7b-8640-8e2b6526a806"},"vehicle_type_id":"4","last_reported":1699808734,"current_range_meters":15200,"station_id":"ce4bhip2rcd13ifvqft0","pricing_plan_id":"free"},{"bike_id":"58b1f097-060d-430a-8d20-c838956d91f1","system_id":"levelo_inurba_marseille","lat":43.25574,"lon":5.38233,"is_reserved":false,"is_disabled":false,"rental_uris":{"android":"levelo://app?vid=58b1f097-060d-430a-8d20-c838956d91f1","ios":"levelo://app?vid=58b1f097-060d-430a-8d20-c838956d91f1"},"vehicle_type_id":"4","last_reported":1699808734,"current_range_meters":24800,"station_id":"ce4bhih2rcd13ifvqfs0","pricing_plan_id":"free"},{"bike_id":"f22d8b4e-fedd-43da-a75b-ef83818c61ab","system_id":"levelo_inurba_marseille","lat":43.258224,"lon":5.394369,"is_reserved":false,"is_disabled":false,"rental_uris":{"android":"levelo://app?vid=f22d8b4e-fedd-43da-a75b-ef83818c61ab","ios":"levelo://app?vid=f22d8b4e-fedd-43da-a75b-ef83818c61ab"},"vehicle_type_id":"4","last_reported":1699808734,"current_range_meters":4400,"station_id":"ce4bhip2rcd13ifvqft0","pricing_plan_id":"free"},{"bike_id":"3f86bc88-314b-4d87-8178-43e8808c9bd0","system_id":"levelo_inurba_marseille","lat":43.258224,"lon":5.394369,"is_reserved":false,"is_disabled":false,"rental_uris":{"android":"levelo://app?vid=3f86bc88-314b-4d87-8178-43e8808c9bd0","ios":"levelo://app?vid=3f86bc88-314b-4d87-8178-43e8808c9bd0"},"vehicle_type_id":"4","last_reported":1699808734,"current_range_meters":26000,"station_id":"ce4bhip2rcd13ifvqft0","pricing_plan_id":"free"},{"bike_id":"d1be4948-3db8-46c6-a0e9-4eb9877553a6","system_id":"levelo_inurba_marseille","lat":43.25498,"lon":5.37651,"is_reserved":false,"is_disabled":false,"rental_uris":{"android":"levelo://app?vid=d1be4948-3db8-46c6-a0e9-4eb9877553a6","ios":"levelo://app?vid=d1be4948-3db8-46c6-a0e9-4eb9877553a6"},"vehicle_type_id":"4","last_reported":1699808734,"current_range_meters":19200,"station_id":"ce4bhh12rcd13ifvqff0","pricing_plan_id":"free"},{"bike_id":"57126b5a-8ec2-4976-937a-d047cac16b7f","system_id":"levelo_inurba_marseille","lat":43.270721,"lon":5.422764,"is_reserved":false,"is_disabled":false,"rental_uris":{"android":"levelo://app?vid=57126b5a-8ec2-4976-937a-d047cac16b7f","ios":"levelo://app?vid=57126b5a-8ec2-4976-937a-d047cac16b7f"},"vehicle_type_id":"4","last_reported":1699808734,"current_range_meters":15200,"station_id":"ce4bhk92rcd13ifvqgb0","pricing_plan_id":"free"},{"bike_id":"cce421c9-cbad-426a-b834-a86a3411f32e","system_id":"levelo_inurba_marseille","lat":43.259013,"lon":5.409301,"is_reserved":false,"is_disabled":false,"rental_uris":{"android":"levelo://app?vid=cce421c9-cbad-426a-b834-a86a3411f32e","ios":"levelo://app?vid=cce421c9-cbad-426a-b834-a86a3411f32e"},"vehicle_type_id":"4","last_reported":1699808734,"current_range_meters":7600,"station_id":"ce4bhm92rcd13ifvqglg","pricing_plan_id":"free"},{"bike_id":"7db02a47-f10e-4ef9-b04e-f8faa3c33cca","system_id":"levelo_inurba_marseille","lat":43.25937,"lon":5.4091,"is_reserved":false,"is_disabled":false,"rental_uris":{"android":"levelo://app?vid=7db02a47-f10e-4ef9-b04e-f8faa3c33cca","ios":"levelo://app?vid=7db02a47-f10e-4ef9-b04e-f8faa3c33cca"},"vehicle_type_id":"4","last_reported":1699808734,"current_range_meters":22800,"station_id":"ce4bhm92rcd13ifvqglg","pricing_plan_id":"free"},{"bike_id":"e5238e36-ca98-4800-8ebc-58089b72c1ef","system_id":"levelo_inurba_marseille","lat":43.25932,"lon":5.40907,"is_reserved":false,"is_disabled":false,"rental_uris":{"android":"levelo://app?vid=e5238e36-ca98-4800-8ebc-58089b72c1ef","ios":"levelo://app?vid=e5238e36-ca98-4800-8ebc-58089b72c1ef"},"vehicle_type_id":"4","last_reported":1699808734,"current_range_meters":0,"station_id":"ce4bhm92rcd13ifvqglg","pricing_plan_id":"free"},{"bike_id":"78ae59a3-2b4c-4e3d-8c5c-d320d66437b9","system_id":"levelo_inurba_marseille","lat":43.259009,"lon":5.40929,"is_reserved":false,"is_disabled":false,"rental_uris":{"android":"levelo://app?vid=78ae59a3-2b4c-4e3d-8c5c-d320d66437b9","ios":"levelo://app?vid=78ae59a3-2b4c-4e3d-8c5c-d320d66437b9"},"vehicle_type_id":"4","last_reported":1699808734,"current_range_meters":14400,"station_id":"ce4bhm92rcd13ifvqglg","pricing_plan_id":"free"},{"bike_id":"d68a453c-95e3-445b-af60-7f5dc11e2532","system_id":"levelo_inurba_marseille","lat":43.2593,"lon":5.40915,"is_reserved":false,"is_disabled":false,"rental_uris":{"android":"levelo://app?vid=d68a453c-95e3-445b-af60-7f5dc11e2532","ios":"levelo://app?vid=d68a453c-95e3-445b-af60-7f5dc11e2532"},"vehicle_type_id":"4","last_reported":1699808734,"current_range_meters":7600,"station_id":"ce4bhm92rcd13ifvqglg","pricing_plan_id":"free"},{"bike_id":"1c147479-7f15-4df2-becc-895a87fd157f","system_id":"levelo_inurba_marseille","lat":43.2593,"lon":5.40916,"is_reserved":false,"is_disabled":false,"rental_uris":{"android":"levelo://app?vid=1c147479-7f15-4df2-becc-895a87fd157f","ios":"levelo://app?vid=1c147479-7f15-4df2-becc-895a87fd157f"},"vehicle_type_id":"4","last_reported":1699808734,"current_range_meters":5600,"station_id":"ce4bhm92rcd13ifvqglg","pricing_plan_id":"free"},{"bike_id":"ba850f93-6e9f-474f-b71b-693ee699f835","system_id":"levelo_inurba_marseille","lat":43.24811,"lon":5.37459,"is_reserved":false,"is_disabled":false,"rental_uris":{"android":"levelo://app?vid=ba850f93-6e9f-474f-b71b-693ee699f835","ios":"levelo://app?vid=ba850f93-6e9f-474f-b71b-693ee699f835"},"vehicle_type_id":"4","last_reported":1699808734,"current_range_meters":31200,"station_id":"ce4bhgh2rcd13ifvqfb0","pricing_plan_id":"free"},{"bike_id":"c5c5c45c-5d00-4311-a4b3-f13955c9921d","system_id":"levelo_inurba_marseille","lat":43.2481,"lon":5.3746,"is_reserved":false,"is_disabled":false,"rental_uris":{"android":"levelo://app?vid=c5c5c45c-5d00-4311-a4b3-f13955c9921d","ios":"levelo://app?vid=c5c5c45c-5d00-4311-a4b3-f13955c9921d"},"vehicle_type_id":"4","last_reported":1699808734,"current_range_meters":5600,"station_id":"ce4bhgh2rcd13ifvqfb0","pricing_plan_id":"free"},{"bike_id":"dae8844e-8f77-4bfc-be48-aa5e7466caae","system_id":"levelo_inurba_marseille","lat":43.24994,"lon":5.38933,"is_reserved":false,"is_disabled":false,"rental_uris":{"android":"levelo://app?vid=dae8844e-8f77-4bfc-be48-aa5e7466caae","ios":"levelo://app?vid=dae8844e-8f77-4bfc-be48-aa5e7466caae"},"vehicle_type_id":"4","last_reported":1699808734,"current_range_meters":0,"station_id":"ce4bhgp2rcd13ifvqfd0","pricing_plan_id":"free"},{"bike_id":"ce451ce1-e056-4a1a-9250-bd6f730d0305","system_id":"levelo_inurba_marseille","lat":43.2479,"lon":5.374457,"is_reserved":false,"is_disabled":false,"rental_uris":{"android":"levelo://app?vid=ce451ce1-e056-4a1a-9250-bd6f730d0305","ios":"levelo://app?vid=ce451ce1-e056-4a1a-9250-bd6f730d0305"},"vehicle_type_id":"4","last_reported":1699808734,"current_range_meters":29600,"station_id":"ce4bhgh2rcd13ifvqfb0","pricing_plan_id":"free"},{"bike_id":"bb27249b-80e7-47ba-a4ef-7a9a6cc3834c","system_id":"levelo_inurba_marseille","lat":43.2479,"lon":5.374457,"is_reserved":false,"is_disabled":false,"rental_uris":{"android":"levelo://app?vid=bb27249b-80e7-47ba-a4ef-7a9a6cc3834c","ios":"levelo://app?vid=bb27249b-80e7-47ba-a4ef-7a9a6cc3834c"},"vehicle_type_id":"4","last_reported":1699808734,"current_range_meters":29200,"station_id":"ce4bhgh2rcd13ifvqfb0","pricing_plan_id":"free"},{"bike_id":"051d1e15-5ac1-4ef4-920c-0697525a3e3d","system_id":"levelo_inurba_marseille","lat":43.24805,"lon":5.37459,"is_reserved":false,"is_disabled":false,"rental_uris":{"android":"levelo://app?vid=051d1e15-5ac1-4ef4-920c-0697525a3e3d","ios":"levelo://app?vid=051d1e15-5ac1-4ef4-920c-0697525a3e3d"},"vehicle_type_id":"4","last_reported":1699808734,"current_range_meters":30400,"station_id":"ce4bhgh2rcd13ifvqfb0","pricing_plan_id":"free"},{"bike_id":"70e7b146-b543-45b0-b7d1-09c9ccb26bcb","system_id":"levelo_inurba_marseille","lat":43.250966,"lon":5.395186,"is_reserved":false,"is_disabled":false,"rental_uris":{"android":"levelo://app?vid=70e7b146-b543-45b0-b7d1-09c9ccb26bcb","ios":"levelo://app?vid=70e7b146-b543-45b0-b7d1-09c9ccb26bcb"},"vehicle_type_id":"4","last_reported":1699808734,"current_range_meters":27200,"station_id":"ce4bhm12rcd13ifvqgkg","pricing_plan_id":"free"},{"bike_id":"62fa1369-a457-41b6-8335-4717139987b4","system_id":"levelo_inurba_marseille","lat":43.250762,"lon":5.39539,"is_reserved":false,"is_disabled":false,"rental_uris":{"android":"levelo://app?vid=62fa1369-a457-41b6-8335-4717139987b4","ios":"levelo://app?vid=62fa1369-a457-41b6-8335-4717139987b4"},"vehicle_type_id":"4","last_reported":1699808734,"current_range_meters":20400,"station_id":"ce4bhm12rcd13ifvqgkg","pricing_plan_id":"free"},{"bike_id":"684b13d1-fe6f-4f2d-b1c8-13bd8d03bc75","system_id":"levelo_inurba_marseille","lat":43.246681,"lon":5.381662,"is_reserved":false,"is_disabled":false,"rental_uris":{"android":"levelo://app?vid=684b13d1-fe6f-4f2d-b1c8-13bd8d03bc75","ios":"levelo://app?vid=684b13d1-fe6f-4f2d-b1c8-13bd8d03bc75"},"vehicle_type_id":"4","last_reported":1699808734,"current_range_meters":31200,"station_id":"ce4bhih2rcd13ifvqfr0","pricing_plan_id":"free"},{"bike_id":"106917c9-569a-4d44-bdd8-9f0ff8949230","system_id":"levelo_inurba_marseille","lat":43.24693,"lon":5.382096,"is_reserved":false,"is_disabled":false,"rental_uris":{"android":"levelo://app?vid=106917c9-569a-4d44-bdd8-9f0ff8949230","ios":"levelo://app?vid=106917c9-569a-4d44-bdd8-9f0ff8949230"},"vehicle_type_id":"4","last_reported":1699808734,"current_range_meters":31200,"station_id":"ce4bhih2rcd13ifvqfr0","pricing_plan_id":"free"},{"bike_id":"86270756-7f27-449d-a206-89de41d75666","system_id":"levelo_inurba_marseille","lat":43.25102,"lon":5.403214,"is_reserved":false,"is_disabled":false,"rental_uris":{"android":"levelo://app?vid=86270756-7f27-449d-a206-89de41d75666","ios":"levelo://app?vid=86270756-7f27-449d-a206-89de41d75666"},"vehicle_type_id":"4","last_reported":1699808734,"current_range_meters":0,"station_id":"ce4bhlh2rcd13ifvqgig","pricing_plan_id":"free"},{"bike_id":"55b6227b-c851-4c62-8387-468d6b539f55","system_id":"levelo_inurba_marseille","lat":43.25102,"lon":5.403214,"is_reserved":false,"is_disabled":false,"rental_uris":{"android":"levelo://app?vid=55b6227b-c851-4c62-8387-468d6b539f55","ios":"levelo://app?vid=55b6227b-c851-4c62-8387-468d6b539f55"},"vehicle_type_id":"4","last_reported":1699808734,"current_range_meters":20000,"station_id":"ce4bhlh2rcd13ifvqgig","pricing_plan_id":"free"},{"bike_id":"0a4107cc-7ae8-4016-967f-071365196ca8","system_id":"levelo_inurba_marseille","lat":43.246461,"lon":5.389014,"is_reserved":false,"is_disabled":false,"rental_uris":{"android":"levelo://app?vid=0a4107cc-7ae8-4016-967f-071365196ca8","ios":"levelo://app?vid=0a4107cc-7ae8-4016-967f-071365196ca8"},"vehicle_type_id":"4","last_reported":1699808734,"current_range_meters":27200,"station_id":"ce4bhg12rcd13ifvqf60","pricing_plan_id":"free"},{"bike_id":"c2dda05b-2af0-4a16-a91b-93807953d55f","system_id":"levelo_inurba_marseille","lat":43.246467,"lon":5.388984,"is_reserved":false,"is_disabled":false,"rental_uris":{"android":"levelo://app?vid=c2dda05b-2af0-4a16-a91b-93807953d55f","ios":"levelo://app?vid=c2dda05b-2af0-4a16-a91b-93807953d55f"},"vehicle_type_id":"4","last_reported":1699808734,"current_range_meters":30400,"station_id":"ce4bhg12rcd13ifvqf60","pricing_plan_id":"free"},{"bike_id":"7ec14477-1c7f-4e4d-ac04-ffb306288ff1","system_id":"levelo_inurba_marseille","lat":43.243884,"lon":5.370737,"is_reserved":false,"is_disabled":false,"rental_uris":{"android":"levelo://app?vid=7ec14477-1c7f-4e4d-ac04-ffb306288ff1","ios":"levelo://app?vid=7ec14477-1c7f-4e4d-ac04-ffb306288ff1"},"vehicle_type_id":"4","last_reported":1699808734,"current_range_meters":24800,"station_id":"ce4bhhh2rcd13ifvqfk0","pricing_plan_id":"free"},{"bike_id":"2e94f66f-e35e-4fc8-a055-92fa21df93f3","system_id":"levelo_inurba_marseille","lat":43.24385,"lon":5.37067,"is_reserved":false,"is_disabled":false,"rental_uris":{"android":"levelo://app?vid=2e94f66f-e35e-4fc8-a055-92fa21df93f3","ios":"levelo://app?vid=2e94f66f-e35e-4fc8-a055-92fa21df93f3"},"vehicle_type_id":"4","last_reported":1699808734,"current_range_meters":2400,"station_id":"ce4bhhh2rcd13ifvqfk0","pricing_plan_id":"free"},{"bike_id":"0f66d186-c897-49ab-86f7-040f24d977b4","system_id":"levelo_inurba_marseille","lat":43.243884,"lon":5.370736,"is_reserved":false,"is_disabled":false,"rental_uris":{"android":"levelo://app?vid=0f66d186-c897-49ab-86f7-040f24d977b4","ios":"levelo://app?vid=0f66d186-c897-49ab-86f7-040f24d977b4"},"vehicle_type_id":"4","last_reported":1699808734,"current_range_meters":22000,"station_id":"ce4bhhh2rcd13ifvqfk0","pricing_plan_id":"free"},{"bike_id":"f12ba741-9faf-433a-961d-9fa4638fab8f","system_id":"levelo_inurba_marseille","lat":43.243884,"lon":5.370737,"is_reserved":false,"is_disabled":false,"rental_uris":{"android":"levelo://app?vid=f12ba741-9faf-433a-961d-9fa4638fab8f","ios":"levelo://app?vid=f12ba741-9faf-433a-961d-9fa4638fab8f"},"vehicle_type_id":"4","last_reported":1699808734,"current_range_meters":20800,"station_id":"ce4bhhh2rcd13ifvqfk0","pricing_plan_id":"free"},{"bike_id":"179d288e-a4b8-4599-a24b-dbe03ab108f6","system_id":"levelo_inurba_marseille","lat":43.24572,"lon":5.39446,"is_reserved":false,"is_disabled":false,"rental_uris":{"android":"levelo://app?vid=179d288e-a4b8-4599-a24b-dbe03ab108f6","ios":"levelo://app?vid=179d288e-a4b8-4599-a24b-dbe03ab108f6"},"vehicle_type_id":"4","last_reported":1699808734,"current_range_meters":26400,"station_id":"","pricing_plan_id":"free"},{"bike_id":"4e0fa7ca-3b05-44a8-b823-ef779191dcab","system_id":"levelo_inurba_marseille","lat":43.24074,"lon":5.37758,"is_reserved":false,"is_disabled":false,"rental_uris":{"android":"levelo://app?vid=4e0fa7ca-3b05-44a8-b823-ef779191dcab","ios":"levelo://app?vid=4e0fa7ca-3b05-44a8-b823-ef779191dcab"},"vehicle_type_id":"4","last_reported":1699808734,"current_range_meters":26000,"station_id":"ce4bhnp2rcd13ifvqgvg","pricing_plan_id":"free"},{"bike_id":"6c6da793-c18f-456e-be29-a1e40f83fda3","system_id":"levelo_inurba_marseille","lat":43.240623,"lon":5.377642,"is_reserved":false,"is_disabled":false,"rental_uris":{"android":"levelo://app?vid=6c6da793-c18f-456e-be29-a1e40f83fda3","ios":"levelo://app?vid=6c6da793-c18f-456e-be29-a1e40f83fda3"},"vehicle_type_id":"4","last_reported":1699808734,"current_range_meters":31200,"station_id":"ce4bhnp2rcd13ifvqgvg","pricing_plan_id":"free"},{"bike_id":"ae24d0fc-964f-4b9f-a0d3-aa8c9b0c3d58","system_id":"levelo_inurba_marseille","lat":43.240623,"lon":5.377642,"is_reserved":false,"is_disabled":false,"rental_uris":{"android":"levelo://app?vid=ae24d0fc-964f-4b9f-a0d3-aa8c9b0c3d58","ios":"levelo://app?vid=ae24d0fc-964f-4b9f-a0d3-aa8c9b0c3d58"},"vehicle_type_id":"4","last_reported":1699808734,"current_range_meters":31200,"station_id":"ce4bhnp2rcd13ifvqgvg","pricing_plan_id":"free"},{"bike_id":"30680b8d-2527-4eba-83ec-30b1363e3c2c","system_id":"levelo_inurba_marseille","lat":43.240623,"lon":5.377642,"is_reserved":false,"is_disabled":false,"rental_uris":{"android":"levelo://app?vid=30680b8d-2527-4eba-83ec-30b1363e3c2c","ios":"levelo://app?vid=30680b8d-2527-4eba-83ec-30b1363e3c2c"},"vehicle_type_id":"4","last_reported":1699808734,"current_range_meters":26400,"station_id":"ce4bhnp2rcd13ifvqgvg","pricing_plan_id":"free"},{"bike_id":"73fefa4f-83f1-4cad-9fd5-1cfa441ebbf3","system_id":"levelo_inurba_marseille","lat":43.239588,"lon":5.366238,"is_reserved":false,"is_disabled":false,"rental_uris":{"android":"levelo://app?vid=73fefa4f-83f1-4cad-9fd5-1cfa441ebbf3","ios":"levelo://app?vid=73fefa4f-83f1-4cad-9fd5-1cfa441ebbf3"},"vehicle_type_id":"4","last_reported":1699808734,"current_range_meters":15600,"station_id":"ce4bhi12rcd13ifvqfp0","pricing_plan_id":"free"},{"bike_id":"ebdff912-aa81-48d2-b92e-8efd1da7d36b","system_id":"levelo_inurba_marseille","lat":43.23959,"lon":5.36638,"is_reserved":false,"is_disabled":false,"rental_uris":{"android":"levelo://app?vid=ebdff912-aa81-48d2-b92e-8efd1da7d36b","ios":"levelo://app?vid=ebdff912-aa81-48d2-b92e-8efd1da7d36b"},"vehicle_type_id":"4","last_reported":1699808734,"current_range_meters":30000,"station_id":"ce4bhi12rcd13ifvqfp0","pricing_plan_id":"free"},{"bike_id":"d67a989e-64d8-4e8a-aca7-220574c1ed4a","system_id":"levelo_inurba_marseille","lat":43.2418,"lon":5.39726,"is_reserved":false,"is_disabled":false,"rental_uris":{"android":"levelo://app?vid=d67a989e-64d8-4e8a-aca7-220574c1ed4a","ios":"levelo://app?vid=d67a989e-64d8-4e8a-aca7-220574c1ed4a"},"vehicle_type_id":"4","last_reported":1699808734,"current_range_meters":400,"station_id":"ce4bhn12rcd13ifvqgpg","pricing_plan_id":"free"},{"bike_id":"750f02f1-7123-4398-a29e-bd6de309f627","system_id":"levelo_inurba_marseille","lat":43.241782,"lon":5.397261,"is_reserved":false,"is_disabled":false,"rental_uris":{"android":"levelo://app?vid=750f02f1-7123-4398-a29e-bd6de309f627","ios":"levelo://app?vid=750f02f1-7123-4398-a29e-bd6de309f627"},"vehicle_type_id":"4","last_reported":1699808734,"current_range_meters":30400,"station_id":"ce4bhn12rcd13ifvqgpg","pricing_plan_id":"free"},{"bike_id":"4e116bed-fac4-4a4f-9500-0a5b0e267303","system_id":"levelo_inurba_marseille","lat":43.231919,"lon":5.355532,"is_reserved":false,"is_disabled":false,"rental_uris":{"android":"levelo://app?vid=4e116bed-fac4-4a4f-9500-0a5b0e267303","ios":"levelo://app?vid=4e116bed-fac4-4a4f-9500-0a5b0e267303"},"vehicle_type_id":"4","last_reported":1699808734,"current_range_meters":31200,"station_id":"ce4bhu92rcd13ifvqi70","pricing_plan_id":"free"},{"bike_id":"00fdd5e4-304b-4169-abde-577b252372d5","system_id":"levelo_inurba_marseille","lat":43.23195,"lon":5.35548,"is_reserved":false,"is_disabled":false,"rental_uris":{"android":"levelo://app?vid=00fdd5e4-304b-4169-abde-577b252372d5","ios":"levelo://app?vid=00fdd5e4-304b-4169-abde-577b252372d5"},"vehicle_type_id":"4","last_reported":1699808734,"current_range_meters":30400,"station_id":"ce4bhu92rcd13ifvqi70","pricing_plan_id":"free"},{"bike_id":"af6ba3d0-20fd-4ddd-b0fd-9e70a9096e25","system_id":"levelo_inurba_marseille","lat":43.23187,"lon":5.35558,"is_reserved":false,"is_disabled":false,"rental_uris":{"android":"levelo://app?vid=af6ba3d0-20fd-4ddd-b0fd-9e70a9096e25","ios":"levelo://app?vid=af6ba3d0-20fd-4ddd-b0fd-9e70a9096e25"},"vehicle_type_id":"4","last_reported":1699808734,"current_range_meters":22800,"station_id":"ce4bhu92rcd13ifvqi70","pricing_plan_id":"free"},{"bike_id":"10f1af30-633a-4b90-8861-a4dd02ec9a07","system_id":"levelo_inurba_marseille","lat":43.23181,"lon":5.39997,"is_reserved":false,"is_disabled":false,"rental_uris":{"android":"levelo://app?vid=10f1af30-633a-4b90-8861-a4dd02ec9a07","ios":"levelo://app?vid=10f1af30-633a-4b90-8861-a4dd02ec9a07"},"vehicle_type_id":"4","last_reported":1699808734,"current_range_meters":0,"station_id":"ce4bhn12rcd13ifvqgqg","pricing_plan_id":"free"},{"bike_id":"38b8dd6c-607b-42a8-827d-dba892882f66","system_id":"levelo_inurba_marseille","lat":43.23154,"lon":5.437,"is_reserved":false,"is_disabled":false,"rental_uris":{"android":"levelo://app?vid=38b8dd6c-607b-42a8-827d-dba892882f66","ios":"levelo://app?vid=38b8dd6c-607b-42a8-827d-dba892882f66"},"vehicle_type_id":"4","last_reported":1699808734,"current_range_meters":29200,"station_id":"ce4bhmp2rcd13ifvqgog","pricing_plan_id":"free"}]}}