{"last_updated":1706652375,"ttl":30,"version":"2.2","data":{"bikes":[{"bike_id":"7d731cec-0a6e-41af-a324-641e12930166","system_id":"levelo_inurba_marseille","lat":43.312239,"lon":5.368562,"is_reserved":false,"is_disabled":false,"rental_uris":{"android":"levelo://app?vid=7d731cec-0a6e-41af-a324-641e12930166","ios":"levelo://app?vid=7d731cec-0a6e-41af-a324-641e12930166"},"vehicle_type_id":"4","last_reported":1706652375,"current_range_meters":23600,"station_id":"ce4bgl92rcd13ifvqbq0","pricing_plan_id":"free"},{"bike_id":"757bca03-2335-48aa-b8ee-58a03d2a5848","system_id":"levelo_inurba_marseille","lat":43.314811,"lon":5.373104,"is_reserved":false,"is_disabled":false,"rental_uris":{"android":"levelo://app?vid=757bca03-2335-48aa-b8ee-58a03d2a5848","ios":"levelo://app?vid=757bca03-2335-48aa-b8ee-58a03d2a5848"},"vehicle_type_id":"4","last_reported":1706652375,"current_range_meters":0,"station_id":"ce4bgt12rcd13ifvqcd0","pricing_plan_id":"free"},{"bike_id":"6836b046-0c4d-481e-95fc-4383505f73f3","system_id":"levelo_inurba_marseille","lat":43.314811,"lon":5.373104,"is_reserved":false,"is_disabled":false,"rental_uris":{"android":"levelo://app?vid=6836b046-0c4d-481e-95fc-4383505f73f3","ios":"levelo://app?vid=6836b046-0c4d-481e-95fc-4383505f73f3"},"vehicle_type_id":"4","last_reported":1706652375,"current_range_meters":24400,"station_id":"ce4bgt12rcd13ifvqcd0","pricing_plan_id":"free"},{"bike_id":"08e9638b-81b9-4b7a-9bc1-fb2f94e10855","system_id":"levelo_inurba_marseille","lat":43.309039,"lon":5.371797,"is_reserved":false,"is_disabled":false,"rental_uris":{"android":"levelo://app?vid=08e9638b-81b9-4b7a-9bc1-fb2f94e10855","ios":"levelo://app?vid=08e9638b-81b9-4b7a-9bc1-fb2f94e10855"},"vehicle_type_id":"4","last_reported":1706652375,"current_range_meters":7600,"station_id":"ce4bguh2rcd13ifvqckg","pricing_plan_id":"free"},{"bike_id":"14becacc-5420-4107-a9ef-ad629e14bdef","system_id":"levelo_inurba_marseille","lat":43.309034,"lon":5.371783,"is_reserved":false,"is_disabled":false,"rental_uris":{"android":"levelo://app?vid=14becacc-5420-4107-a9ef-ad629e14bdef","ios":"levelo://app?vid=14becacc-5420-4107-a9ef-ad629e14bdef"},"vehicle_type_id":"4","last_reported":1706652375,"current_range_meters":22400,"station_id":"ce4bguh2rcd13ifvqckg","pricing_plan_id":"free"},{"bike_id":"dd638ec6-627e-4d63-a153-3d945cc545ec","system_id":"levelo_inurba_marseille","lat":43.30537,"lon":5.367345,"is_reserved":false,"is_disabled":false,"rental_uris":{"android":"levelo://app?vid=dd638ec6-627e-4d63-a153-3d945cc545ec","ios":"levelo://app?vid=dd638ec6-627e-4d63-a153-3d945cc545ec"},"vehicle_type_id":"4","last_reported":1706652375,"current_range_meters":0,"station_id":"ce4bgrp2rcd13ifvqc9g","pricing_plan_id":"free"},{"bike_id":"bc5b46f5-832c-4707-807a-10d8c1f9a079","system_id":"levelo_inurba_marseille","lat":43.305989,"lon":5.37225,"is_reserved":false,"is_disabled":false,"rental_uris":{"android":"levelo://app?vid=bc5b46f5-832c-4707-807a-10d8c1f9a079","ios":"levelo://app?vid=bc5b46f5-832c-4707-807a-10d8c1f9a079"},"vehicle_type_id":"4","last_reported":1706652375,"current_range_meters":28800,"station_id":"ce4bgqh2rcd13ifvqc4g","pricing_plan_id":"free"},{"bike_id":"6435a90b-3f98-4be5-b066-4658d1b55ba6","system_id":"levelo_inurba_marseille","lat":43.305989,"lon":5.37225,"is_reserved":false,"is_disabled":false,"rental_uris":{"android":"levelo://app?vid=6435a90b-3f98-4be5-b066-4658d1b55ba6","ios":"levelo://app?vid=6435a90b-3f98-4be5-b066-4658d1b55ba6"},"vehicle_type_id":"4","last_reported":1706652375,"current_range_meters":27200,"station_id":"ce4bgqh2rcd13ifvqc4g","pricing_plan_id":"free"},{"bike_id":"9d1d0217-081c-4ab6-8348-39ef111c6efd","system_id":"levelo_inurba_marseille","lat":43.311131,"lon":5.377651,"is_reserved":false,"is_disabled":false,"rental_uris":{"android":"levelo://app?vid=9d1d0217-081c-4ab6-8348-39ef111c6efd","ios":"levelo://app?vid=9d1d0217-081c-4ab6-8348-39ef111c6efd"},"vehicle_type_id":"4","last_reported":1706652375,"current_range_meters":5600,"station_id":"ce4bgt92rcd13ifvqcg0","pricing_plan_id":"free"},{"bike_id":"ae39b9d2-0e4b-4557-a850-6b565e199ede","system_id":"levelo_inurba_marseille","lat":43.311125,"lon":5.377624,"is_reserved":false,"is_disabled":false,"rental_uris":{"android":"levelo://app?vid=ae39b9d2-0e4b-4557-a850-6b565e199ede","ios":"levelo://app?vid=ae39b9d2-0e4b-4557-a850-6b565e199ede"},"vehicle_type_id":"4","last_reported":1706652375,"current_range_meters":26000,"station_id":"ce4bgt92rcd13ifvqcg0","pricing_plan_id":"free"},{"bike_id":"031e3ba2-31d4-4fa3-9744-b143087b2c37","system_id":"levelo_inurba_marseille","lat":43.311131,"lon":5.377651,"is_reserved":false,"is_disabled":false,"rental_uris":{"android":"levelo://app?vid=031e3ba2-31d4-4fa3-9744-b143087b2c37","ios":"levelo://app?vid=031e3ba2-31d4-4fa3-9744-b143087b2c37"},"vehicle_type_id":"4","last_reported":1706652375,"current_range_meters":12400,"station_id":"ce4bgt92rcd13ifvqcg0","pricing_plan_id":"free"},{"bike_id":"22331776-df67-43f7-9179-78b4bb83ed5c","system_id":"levelo_inurba_marseille","lat":43.307945,"lon":5.376487,"is_reserved":false,"is_disabled":false,"rental_uris":{"android":"levelo://app?vid=22331776-df67-43f7-9179-78b4bb83ed5c","ios":"levelo://app?vid=22331776-df67-43f7-9179-78b4bb83ed5c"},"vehicle_type_id":"4","last_reported":1706652375,"current_range_meters":24400,"station_id":"ce4bgv92rcd13ifvqcq0","pricing_plan_id":"free"},{"bike_id":"05ad81a0-6d2f-49ae-8f21-939347623a84","system_id":"levelo_inurba_marseille","lat":43.307945,"lon":5.376487,"is_reserved":false,"is_disabled":false,"rental_uris":{"android":"levelo://app?vid=05ad81a0-6d2f-49ae-8f21-939347623a84","ios":"levelo://app?vid=05ad81a0-6d2f-49ae-8f21-939347623a84"},"vehicle_type_id":"4","last_reported":1706652375,"current_range_meters":4000,"station_id":"ce4bgv92rcd13ifvqcq0","pricing_plan_id":"free"},{"bike_id":"fc16af25-929f-47d3-b2dd-59cc313bf408","system_id":"levelo_inurba_marseille","lat":43.307945,"lon":5.376487,"is_reserved":false,"is_disabled":false,"rental_uris":{"android":"levelo://app?vid=fc16af25-929f-47d3-b2dd-59cc313bf408","ios":"levelo://app?vid=fc16af25-929f-47d3-b2dd-59cc313bf408"},"vehicle_type_id":"4","last_reported":1706652375,"current_range_meters":12400,"station_id":"ce4bgv92rcd13ifvqcq0","pricing_plan_id":"free"},{"bike_id":"f11d4cde-3af7-4167-848a-dcd78644fab3","system_id":"levelo_inurba_marseille","lat":43.307945,"lon":5.376487,"is_reserved":false,"is_disabled":false,"rental_uris":{"android":"levelo://app?vid=f11d4cde-3af7-4167-848a-dcd78644fab3","ios":"levelo://app?vid=f11d4cde-3af7-4167-848a-dcd78644fab3"},"vehicle_type_id":"4","last_reported":1706652375,"current_range_meters":31200,"station_id":"ce4bgv92rcd13ifvqcq0","pricing_plan_id":"free"},{"bike_id":"28276cf1-0f07-422f-b0df-5a376dc3fc12","system_id":"levelo_inurba_marseille","lat":43.317075,"lon":5.377367,"is_reserved":false,"is_disabled":false,"rental_uris":{"android":"levelo://app?vid=28276cf1-0f07-422f-b0df-5a376dc3fc12","ios":"levelo://app?vid=28276cf1-0f07-422f-b0df-5a376dc3fc12"},"vehicle_type_id":"4","last_reported":1706652375,"current_range_meters":11200,"station_id":"ce4bgth2rcd13ifvqch0","pricing_plan_id":"free"},{"bike_id":"30eb0130-d2cd-4f72-85c3-16bf3068d200","system_id":"levelo_inurba_marseille","lat":43.317075,"lon":5.377367,"is_reserved":false,"is_disabled":false,"rental_uris":{"android":"levelo://app?vid=30eb0130-d2cd-4f72-85c3-16bf3068d200","ios":"levelo://app?vid=30eb0130-d2cd-4f72-85c3-16bf3068d200"},"vehicle_type_id":"4","last_reported":1706652375,"current_range_meters":30400,"station_id":"ce4bgth2rcd13ifvqch0","pricing_plan_id":"free"},{"bike_id":"38533471-ddf7-4c8e-8af3-c9bb91597b0c","system_id":"levelo_inurba_marseille","lat":43.317075,"lon":5.377367,"is_reserved":false,"is_disabled":false,"rental_uris":{"android":"levelo://app?vid=38533471-ddf7-4c8e-8af3-c9bb91597b0c","ios":"levelo://app?vid=38533471-ddf7-4c8e-8af3-c9bb91597b0c"},"vehicle_type_id":"4","last_reported":1706652375,"current_range_meters":24000,"station_id":"ce4bgth2rcd13ifvqch0","pricing_plan_id":"free"},{"bike_id":"f451b387-0e79-4dde-bd10-32f4ba4d50bd","system_id":"levelo_inurba_marseille","lat":43.308352,"lon":5.37929,"is_reserved":false,"is_disabled":false,"rental_uris":{"android":"levelo://app?vid=f451b387-0e79-4dde-bd10-32f4ba4d50bd","ios":"levelo://app?vid=f451b387-0e79-4dde-bd10-32f4ba4d50bd"},"vehicle_type_id":"4","last_reported":1706652375,"current_range_meters":5600,"station_id":"","pricing_plan_id":"free"},{"bike_id":"696138a0-a3eb-4c35-8771-753e63b54991","system_id":"levelo_inurba_marseille","lat":43.301939,"lon":5.366286,"is_reserved":false,"is_disabled":false,"rental_uris":{"android":"levelo://app?vid=696138a0-a3eb-4c35-8771-753e63b54991","ios":"levelo://app?vid=696138a0-a3eb-4c35-8771-753e63b54991"},"vehicle_type_id":"4","last_reported":1706652375,"current_range_meters":8000,"station_id":"ce4bgrh2rcd13ifvqc8g","pricing_plan_id":"free"},{"bike_id":"049fe1a7-520a-4152-ab19-df704915b5b1","system_id":"levelo_inurba_marseille","lat":43.301939,"lon":5.366286,"is_reserved":false,"is_disabled":false,"rental_uris":{"android":"levelo://app?vid=049fe1a7-520a-4152-ab19-df704915b5b1","ios":"levelo://app?vid=049fe1a7-520a-4152-ab19-df704915b5b1"},"vehicle_type_id":"4","last_reported":1706652375,"current_range_meters":13600,"station_id":"ce4bgrh2rcd13ifvqc8g","pricing_plan_id":"free"},{"bike_id":"c3657e6f-a656-4eb4-87fb-b59acb97cfc0","system_id":"levelo_inurba_marseille","lat":43.301939,"lon":5.366286,"is_reserved":false,"is_disabled":false,"rental_uris":{"android":"levelo://app?vid=c3657e6f-a656-4eb4-87fb-b59acb97cfc0","ios":"levelo://app?vid=c3657e6f-a656-4eb4-87fb-b59acb97cfc0"},"vehicle_type_id":"4","last_reported":1706652375,"current_range_meters":3200,"station_id":"ce4bgrh2rcd13ifvqc8g","pricing_plan_id":"free"},{"bike_id":"cdb3a056-d5f2-4cdc-85a2-fbfd4726eed8","system_id":"levelo_inurba_marseille","lat":43.301939,"lon":5.366286,"is_reserved":false,"is_disabled":false,"rental_uris":{"android":"levelo://app?vid=cdb3a056-d5f2-4cdc-85a2-fbfd4726eed8","ios":"levelo://app?vid=cdb3a056-d5f2-4cdc-85a2-fbfd4726eed8"},"vehicle_type_id":"4","last_reported":1706652375,"current_range_meters":22800,"station_id":"ce4bgrh2rcd13ifvqc8g","pricing_plan_id":"free"},{"bike_id":"429a80e1-c8be-4d55-9318-4acc418e2764","system_id":"levelo_inurba_marseille","lat":43.308012,"lon":5.381511,"is_reserved":false,"is_disabled":false,"rental_uris":{"android":"levelo://app?vid=429a80e1-c8be-4d55-9318-4acc418e2764","ios":"levelo://app?vid=429a80e1-c8be-4d55-9318-4acc418e2764"},"vehicle_type_id":"4","last_reported":1706652375,"current_range_meters":6800,"station_id":"ce4bgt12rcd13ifvqce0","pricing_plan_id":"free"},{"bike_id":"a20b7e1f-273e-45a4-bd4b-39f266d8e860","system_id":"levelo_inurba_marseille","lat":43.308012,"lon":5.381511,"is_reserved":false,"is_disabled":false,"rental_uris":{"android":"levelo://app?vid=a20b7e1f-273e-45a4-bd4b-39f266d8e860","ios":"levelo://app?vid=a20b7e1f-273e-45a4-bd4b-39f266d8e860"},"vehicle_type_id":"4","last_reported":1706652375,"current_range_meters":15600,"station_id":"ce4bgt12rcd13ifvqce0","pricing_plan_id":"free"},{"bike_id":"f9b3aa5a-40af-4040-a917-268c7acc95ae","system_id":"levelo_inurba_marseille","lat":43.32481,"lon":5.36578,"is_reserved":false,"is_disabled":false,"rental_uris":{"android":"levelo://app?vid=f9b3aa5a-40af-4040-a917-268c7acc95ae","ios":"levelo://app?vid=f9b3aa5a-40af-4040-a917-268c7acc95ae"},"vehicle_type_id":"4","last_reported":1706652375,"current_range_meters":20400,"station_id":"ce4bhs12rcd13ifvqhvg","pricing_plan_id":"free"},{"bike_id":"4736ab2f-d481-4964-88a7-047c1ca02d2a","system_id":"levelo_inurba_marseille","lat":43.324871,"lon":5.36575,"is_reserved":false,"is_disabled":false,"rental_uris":{"android":"levelo://app?vid=4736ab2f-d481-4964-88a7-047c1ca02d2a","ios":"levelo://app?vid=4736ab2f-d481-4964-88a7-047c1ca02d2a"},"vehicle_type_id":"4","last_reported":1706652375,"current_range_meters":28400,"station_id":"ce4bhs12rcd13ifvqhvg","pricing_plan_id":"free"},{"bike_id":"4c1d912b-8425-4b28-bcd4-0691a1724560","system_id":"levelo_inurba_marseille","lat":43.3249,"lon":5.36581,"is_reserved":false,"is_disabled":false,"rental_uris":{"android":"levelo://app?vid=4c1d912b-8425-4b28-bcd4-0691a1724560","ios":"levelo://app?vid=4c1d912b-8425-4b28-bcd4-0691a1724560"},"vehicle_type_id":"4","last_reported":1706652375,"current_range_meters":22000,"station_id":"ce4bhs12rcd13ifvqhvg","pricing_plan_id":"free"},{"bike_id":"96d25446-9a11-4881-b615-c81fe5bf4f80","system_id":"levelo_inurba_marseille","lat":43.302784,"lon":5.377158,"is_reserved":false,"is_disabled":false,"rental_uris":{"android":"levelo://app?vid=96d25446-9a11-4881-b615-c81fe5bf4f80","ios":"levelo://app?vid=96d25446-9a11-4881-b615-c81fe5bf4f80"},"vehicle_type_id":"4","last_reported":1706652375,"current_range_meters":0,"station_id":"ce4bguh2rcd13ifvqcj0","pricing_plan_id":"free"},{"bike_id":"b8b1dbbf-61db-4523-87cf-433d900d312a","system_id":"levelo_inurba_marseille","lat":43.319935,"lon":5.381699,"is_reserved":false,"is_disabled":false,"rental_uris":{"android":"levelo://app?vid=b8b1dbbf-61db-4523-87cf-433d900d312a","ios":"levelo://app?vid=b8b1dbbf-61db-4523-87cf-433d900d312a"},"vehicle_type_id":"4","last_reported":1706652375,"current_range_meters":6400,"station_id":"ce4bhr12rcd13ifvqhpg","pricing_plan_id":"free"},{"bike_id":"0f676460-a64e-4c5f-9934-375efbd43145","system_id":"levelo_inurba_marseille","lat":43.319935,"lon":5.381699,"is_reserved":false,"is_disabled":false,"rental_uris":{"android":"levelo://app?vid=0f676460-a64e-4c5f-9934-375efbd43145","ios":"levelo://app?vid=0f676460-a64e-4c5f-9934-375efbd43145"},"vehicle_type_id":"4","last_reported":1706652375,"current_range_meters":17200,"station_id":"ce4bhr12rcd13ifvqhpg","pricing_plan_id":"free"},{"bike_id":"3f4d96cf-b110-4a20-b31e-a4373c40e7be","system_id":"levelo_inurba_marseille","lat":43.31996,"lon":5.38157,"is_reserved":false,"is_disabled":false,"rental_uris":{"android":"levelo://app?vid=3f4d96cf-b110-4a20-b31e-a4373c40e7be","ios":"levelo://app?vid=3f4d96cf-b110-4a20-b31e-a4373c40e7be"},"vehicle_type_id":"4","last_reported":1706652375,"current_range_meters":18000,"station_id":"ce4bhr12rcd13ifvqhpg","pricing_plan_id":"free"},{"bike_id":"c4e490d7-0ea5-4f58-9a22-31a35fb1514e","system_id":"levelo_inurba_marseille","lat":43.319935,"lon":5.381699,"is_reserved":false,"is_disabled":false,"rental_uris":{"android":"levelo://app?vid=c4e490d7-0ea5-4f58-9a22-31a35fb1514e","ios":"levelo://app?vid=c4e490d7-0ea5-4f58-9a22-31a35fb1514e"},"vehicle_type_id":"4","last_reported":1706652375,"current_range_meters":2000,"station_id":"ce4bhr12rcd13ifvqhpg","pricing_plan_id":"free"},{"bike_id":"d0746e43-620f-459f-9e60-baedd4dac370","system_id":"levelo_inurba_marseille","lat":43.319935,"lon":5.381699,"is_reserved":false,"is_disabled":false,"rental_uris":{"android":"levelo://app?vid=d0746e43-620f-459f-9e60-baedd4dac370","ios":"levelo://app?vid=d0746e43-620f-459f-9e60-baedd4dac370"},"vehicle_type_id":"4","last_reported":1706652375,"current_range_meters":0,"station_id":"ce4bhr12rcd13ifvqhpg","pricing_plan_id":"free"},{"bike_id":"42abac4d-3d24-4b1f-aeed-50a348db267c","system_id":"levelo_inurba_marseille","lat":43.313571,"lon":5.384829,"is_reserved":false,"is_disabled":false,"rental_uris":{"android":"levelo://app?vid=42abac4d-3d24-4b1f-aeed-50a348db267c","ios":"levelo://app?vid=42abac4d-3d24-4b1f-aeed-50a348db267c"},"vehicle_type_id":"4","last_reported":1706652375,"current_range_meters":20800,"station_id":"ce4bgt92rcd13ifvqcf0","pricing_plan_id":"free"},{"bike_id":"ae3ee5f3-364e-4a0b-bd68-e9d1a1308673","system_id":"levelo_inurba_marseille","lat":43.313571,"lon":5.384829,"is_reserved":false,"is_disabled":false,"rental_uris":{"android":"levelo://app?vid=ae3ee5f3-364e-4a0b-bd68-e9d1a1308673","ios":"levelo://app?vid=ae3ee5f3-364e-4a0b-bd68-e9d1a1308673"},"vehicle_type_id":"4","last_reported":1706652375,"current_range_meters":13200,"station_id":"ce4bgt92rcd13ifvqcf0","pricing_plan_id":"free"},{"bike_id":"d1e58052-768b-446f-a6f7-3920b1d6d32e","system_id":"levelo_inurba_marseille","lat":43.313571,"lon":5.384829,"is_reserved":false,"is_disabled":false,"rental_uris":{"android":"levelo://app?vid=d1e58052-768b-446f-a6f7-3920b1d6d32e","ios":"levelo://app?vid=d1e58052-768b-446f-a6f7-3920b1d6d32e"},"vehicle_type_id":"4","last_reported":1706652375,"current_range_meters":30800,"station_id":"ce4bgt92rcd13ifvqcf0","pricing_plan_id":"free"},{"bike_id":"f56ab861-27be-4472-9d9e-9174060007e9","system_id":"levelo_inurba_marseille","lat":43.31357,"lon":5.38497,"is_reserved":false,"is_disabled":false,"rental_uris":{"android":"levelo://app?vid=f56ab861-27be-4472-9d9e-9174060007e9","ios":"levelo://app?vid=f56ab861-27be-4472-9d9e-9174060007e9"},"vehicle_type_id":"4","last_reported":1706652375,"current_range_meters":0,"station_id":"ce4bgt92rcd13ifvqcf0","pricing_plan_id":"free"},{"bike_id":"e2d0a3d4-e2a9-4dcc-99e6-eb940863c528","system_id":"levelo_inurba_marseille","lat":43.313654,"lon":5.384983,"is_reserved":false,"is_disabled":false,"rental_uris":{"android":"levelo://app?vid=e2d0a3d4-e2a9-4dcc-99e6-eb940863c528","ios":"levelo://app?vid=e2d0a3d4-e2a9-4dcc-99e6-eb940863c528"},"vehicle_type_id":"4","last_reported":1706652375,"current_range_meters":0,"station_id":"ce4bgt92rcd13ifvqcf0","pricing_plan_id":"free"},{"bike_id":"ef7a8756-6b4f-42c1-a5d6-bfa566148bf7","system_id":"levelo_inurba_marseille","lat":43.299873,"lon":5.371847,"is_reserved":false,"is_disabled":false,"rental_uris":{"android":"levelo://app?vid=ef7a8756-6b4f-42c1-a5d6-bfa566148bf7","ios":"levelo://app?vid=ef7a8756-6b4f-42c1-a5d6-bfa566148bf7"},"vehicle_type_id":"4","last_reported":1706652375,"current_range_meters":0,"station_id":"ce4bgr92rcd13ifvqc7g","pricing_plan_id":"free"},{"bike_id":"298b3a3c-f213-4696-8193-0f3b64c1bea6","system_id":"levelo_inurba_marseille","lat":43.299222,"lon":5.365554,"is_reserved":false,"is_disabled":false,"rental_uris":{"android":"levelo://app?vid=298b3a3c-f213-4696-8193-0f3b64c1bea6","ios":"levelo://app?vid=298b3a3c-f213-4696-8193-0f3b64c1bea6"},"vehicle_type_id":"4","last_reported":1706652375,"current_range_meters":0,"station_id":"ce4bgm92rcd13ifvqbr0","pricing_plan_id":"free"},{"bike_id":"56972abe-58ef-43b8-ae66-1bb0f9acd2f0","system_id":"levelo_inurba_marseille","lat":43.299222,"lon":5.365554,"is_reserved":false,"is_disabled":false,"rental_uris":{"android":"levelo://app?vid=56972abe-58ef-43b8-ae66-1bb0f9acd2f0","ios":"levelo://app?vid=56972abe-58ef-43b8-ae66-1bb0f9acd2f0"},"vehicle_type_id":"4","last_reported":1706652375,"current_range_meters":11600,"station_id":"ce4bgm92rcd13ifvqbr0","pricing_plan_id":"free"},{"bike_id":"f5144b56-9756-4951-a7cc-7f5d2849babc","system_id":"levelo_inurba_marseille","lat":43.299724,"lon":5.371829,"is_reserved":false,"is_disabled":false,"rental_uris":{"android":"levelo://app?vid=f5144b56-9756-4951-a7cc-7f5d2849babc","ios":"levelo://app?vid=f5144b56-9756-4951-a7cc-7f5d2849babc"},"vehicle_type_id":"4","last_reported":1706652375,"current_range_meters":11600,"station_id":"ce4bgr92rcd13ifvqc7g","pricing_plan_id":"free"},{"bike_id":"3bca8792-e6f3-42a8-88e3-a0f92c970a46","system_id":"levelo_inurba_marseille","lat":43.299222,"lon":5.365554,"is_reserved":false,"is_disabled":false,"rental_uris":{"android":"levelo://app?vid=3bca8792-e6f3-42a8-88e3-a0f92c970a46","ios":"levelo://app?vid=3bca8792-e6f3-42a8-88e3-a0f92c970a46"},"vehicle_type_id":"4","last_reported":1706652375,"current_range_meters":9200,"station_id":"ce4bgm92rcd13ifvqbr0","pricing_plan_id":"free"},{"bike_id":"e6c8d308-a545-47ad-be3b-5bb7f6165b12","system_id":"levelo_inurba_marseille","lat":43.311722,"lon":5.387247,"is_reserved":false,"is_disabled":false,"rental_uris":{"android":"levelo://app?vid=e6c8d308-a545-47ad-be3b-5bb7f6165b12","ios":"levelo://app?vid=e6c8d308-a545-47ad-be3b-5bb7f6165b12"},"vehicle_type_id":"4","last_reported":1706652375,"current_range_meters":12400,"station_id":"ce4bgv12rcd13ifvqcp0","pricing_plan_id":"free"},{"bike_id":"5eb2d574-b4eb-4a5c-9127-59f52688b205","system_id":"levelo_inurba_marseille","lat":43.311722,"lon":5.387247,"is_reserved":false,"is_disabled":false,"rental_uris":{"android":"levelo://app?vid=5eb2d574-b4eb-4a5c-9127-59f52688b205","ios":"levelo://app?vid=5eb2d574-b4eb-4a5c-9127-59f52688b205"},"vehicle_type_id":"4","last_reported":1706652375,"current_range_meters":8800,"station_id":"ce4bgv12rcd13ifvqcp0","pricing_plan_id":"free"},{"bike_id":"5c880cbd-5623-4ca1-8142-8e2e9c18028e","system_id":"levelo_inurba_marseille","lat":43.311722,"lon":5.387247,"is_reserved":false,"is_disabled":false,"rental_uris":{"android":"levelo://app?vid=5c880cbd-5623-4ca1-8142-8e2e9c18028e","ios":"levelo://app?vid=5c880cbd-5623-4ca1-8142-8e2e9c18028e"},"vehicle_type_id":"4","last_reported":1706652375,"current_range_meters":14800,"station_id":"ce4bgv12rcd13ifvqcp0","pricing_plan_id":"free"},{"bike_id":"59bac424-8b4c-4311-98e5-fd7b0e68db73","system_id":"levelo_inurba_marseille","lat":43.3118,"lon":5.38714,"is_reserved":false,"is_disabled":false,"rental_uris":{"android":"levelo://app?vid=59bac424-8b4c-4311-98e5-fd7b0e68db73","ios":"levelo://app?vid=59bac424-8b4c-4311-98e5-fd7b0e68db73"},"vehicle_type_id":"4","last_reported":1706652375,"current_range_meters":3200,"station_id":"ce4bgv12rcd13ifvqcp0","pricing_plan_id":"free"},{"bike_id":"ed0e9565-6628-432f-8fc3-3df7837af028","system_id":"levelo_inurba_marseille","lat":43.311722,"lon":5.387247,"is_reserved":false,"is_disabled":false,"rental_uris":{"android":"levelo://app?vid=ed0e9565-6628-432f-8fc3-3df7837af028","ios":"levelo://app?vid=ed0e9565-6628-432f-8fc3-3df7837af028"},"vehicle_type_id":"4","last_reported":1706652375,"current_range_meters":18000,"station_id":"ce4bgv12rcd13ifvqcp0","pricing_plan_id":"free"},{"bike_id":"5dc8401f-017f-4d19-b675-6b603251dd53","system_id":"levelo_inurba_marseille","lat":43.311722,"lon":5.387247,"is_reserved":false,"is_disabled":false,"rental_uris":{"android":"levelo://app?vid=5dc8401f-017f-4d19-b675-6b603251dd53","ios":"levelo://app?vid=5dc8401f-017f-4d19-b675-6b603251dd53"},"vehicle_type_id":"4","last_reported":1706652375,"current_range_meters":9600,"station_id":"ce4bgv12rcd13ifvqcp0","pricing_plan_id":"free"},{"bike_id":"2f8f42c0-817f-4a71-af44-ca5542d95905","system_id":"levelo_inurba_marseille","lat":43.322872,"lon":5.382756,"is_reserved":false,"is_disabled":false,"rental_uris":{"android":"levelo://app?vid=2f8f42c0-817f-4a71-af44-ca5542d95905","ios":"levelo://app?vid=2f8f42c0-817f-4a71-af44-ca5542d95905"},"vehicle_type_id":"4","last_reported":1706652375,"current_range_meters":30800,"station_id":"ce4bhr12rcd13ifvqhqg","pricing_plan_id":"free"},{"bike_id":"b63cffa0-64af-40b8-a8ad-c056792f19ed","system_id":"levelo_inurba_marseille","lat":43.322872,"lon":5.382756,"is_reserved":false,"is_disabled":false,"rental_uris":{"android":"levelo://app?vid=b63cffa0-64af-40b8-a8ad-c056792f19ed","ios":"levelo://app?vid=b63cffa0-64af-40b8-a8ad-c056792f19ed"},"vehicle_type_id":"4","last_reported":1706652375,"current_range_meters":25600,"station_id":"ce4bhr12rcd13ifvqhqg","pricing_plan_id":"free"},{"bike_id":"7f20dc7e-badd-444e-a7c8-bf3a545cc809","system_id":"levelo_inurba_marseille","lat":43.322872,"lon":5.382756,"is_reserved":false,"is_disabled":false,"rental_uris":{"android":"levelo://app?vid=7f20dc7e-badd-444e-a7c8-bf3a545cc809","ios":"levelo://app?vid=7f20dc7e-badd-444e-a7c8-bf3a545cc809"},"vehicle_type_id":"4","last_reported":1706652375,"current_range_meters":26400,"station_id":"ce4bhr12rcd13ifvqhqg","pricing_plan_id":"free"},{"bike_id":"e53b96f6-0749-4e57-9ae0-506258818dab","system_id":"levelo_inurba_marseille","lat":43.322872,"lon":5.382756,"is_reserved":false,"is_disabled":false,"rental_uris":{"android":"levelo://app?vid=e53b96f6-0749-4e57-9ae0-506258818dab","ios":"levelo://app?vid=e53b96f6-0749-4e57-9ae0-506258818dab"},"vehicle_type_id":"4","last_reported":1706652375,"current_range_meters":16800,"station_id":"ce4bhr12rcd13ifvqhqg","pricing_plan_id":"free"},{"bike_id":"e9842c34-5cb2-47ba-87a1-99bf36004d12","system_id":"levelo_inurba_marseille","lat":43.32825,"lon":5.36677,"is_reserved":false,"is_disabled":false,"rental_uris":{"android":"levelo://app?vid=e9842c34-5cb2-47ba-87a1-99bf36004d12","ios":"levelo://app?vid=e9842c34-5cb2-47ba-87a1-99bf36004d12"},"vehicle_type_id":"4","last_reported":1706652375,"current_range_meters":0,"station_id":"ce4bhs92rcd13ifvqi0g","pricing_plan_id":"free"},{"bike_id":"5e0d7018-715e-4087-a2d6-cfa7ba43c5e5","system_id":"levelo_inurba_marseille","lat":43.328371,"lon":5.366909,"is_reserved":false,"is_disabled":false,"rental_uris":{"android":"levelo://app?vid=5e0d7018-715e-4087-a2d6-cfa7ba43c5e5","ios":"levelo://app?vid=5e0d7018-715e-4087-a2d6-cfa7ba43c5e5"},"vehicle_type_id":"4","last_reported":1706652375,"current_range_meters":16400,"station_id":"ce4bhs92rcd13ifvqi0g","pricing_plan_id":"free"},{"bike_id":"92589973-d956-4826-a1e1-8b958e0b4b1a","system_id":"levelo_inurba_marseille","lat":43.328371,"lon":5.366909,"is_reserved":false,"is_disabled":false,"rental_uris":{"android":"levelo://app?vid=92589973-d956-4826-a1e1-8b958e0b4b1a","ios":"levelo://app?vid=92589973-d956-4826-a1e1-8b958e0b4b1a"},"vehicle_type_id":"4","last_reported":1706652375,"current_range_meters":0,"station_id":"ce4bhs92rcd13ifvqi0g","pricing_plan_id":"free"},{"bike_id":"d90f0439-5933-4b4c-b7c8-2f019df210a9","system_id":"levelo_inurba_marseille","lat":43.328368,"lon":5.366877,"is_reserved":false,"is_disabled":false,"rental_uris":{"android":"levelo://app?vid=d90f0439-5933-4b4c-b7c8-2f019df210a9","ios":"levelo://app?vid=d90f0439-5933-4b4c-b7c8-2f019df210a9"},"vehicle_type_id":"4","last_reported":1706652375,"current_range_meters":10400,"station_id":"ce4bhs92rcd13ifvqi0g","pricing_plan_id":"free"},{"bike_id":"12ce345f-99f1-48ab-b513-ecde7ebb6ef1","system_id":"levelo_inurba_marseille","lat":43.32367,"lon":5.388836,"is_reserved":false,"is_disabled":false,"rental_uris":{"android":"levelo://app?vid=12ce345f-99f1-48ab-b513-ecde7ebb6ef1","ios":"levelo://app?vid=12ce345f-99f1-48ab-b513-ecde7ebb6ef1"},"vehicle_type_id":"4","last_reported":1706652375,"current_range_meters":22800,"station_id":"ce4bhqp2rcd13ifvqhog","pricing_plan_id":"free"},{"bike_id":"60096579-0e4c-4a52-b427-6ed55c727208","system_id":"levelo_inurba_marseille","lat":43.29723,"lon":5.37689,"is_reserved":false,"is_disabled":false,"rental_uris":{"android":"levelo://app?vid=60096579-0e4c-4a52-b427-6ed55c727208","ios":"levelo://app?vid=60096579-0e4c-4a52-b427-6ed55c727208"},"vehicle_type_id":"4","last_reported":1706652375,"current_range_meters":0,"station_id":"ce4bgkh2rcd13ifvqbl0","pricing_plan_id":"free"},{"bike_id":"0bbad659-d04c-4f36-b030-83f0ec1f1156","system_id":"levelo_inurba_marseille","lat":43.299028,"lon":5.381509,"is_reserved":false,"is_disabled":false,"rental_uris":{"android":"levelo://app?vid=0bbad659-d04c-4f36-b030-83f0ec1f1156","ios":"levelo://app?vid=0bbad659-d04c-4f36-b030-83f0ec1f1156"},"vehicle_type_id":"4","last_reported":1706652375,"current_range_meters":14400,"station_id":"ce4bgj12rcd13ifvqbc0","pricing_plan_id":"free"},{"bike_id":"c29b5642-6b8a-4f17-93be-391d72dd2606","system_id":"levelo_inurba_marseille","lat":43.311722,"lon":5.387247,"is_reserved":false,"is_disabled":false,"rental_uris":{"android":"levelo://app?vid=c29b5642-6b8a-4f17-93be-391d72dd2606","ios":"levelo://app?vid=c29b5642-6b8a-4f17-93be-391d72dd2606"},"vehicle_type_id":"4","last_reported":1706652375,"current_range_meters":2800,"station_id":"ce4bgv12rcd13ifvqcp0","pricing_plan_id":"free"},{"bike_id":"c48d823a-8dd4-42bc-bf8a-410de52edc7a","system_id":"levelo_inurba_marseille","lat":43.296935,"lon":5.376544,"is_reserved":false,"is_disabled":false,"rental_uris":{"android":"levelo://app?vid=c48d823a-8dd4-42bc-bf8a-410de52edc7a","ios":"levelo://app?vid=c48d823a-8dd4-42bc-bf8a-410de52edc7a"},"vehicle_type_id":"4","last_reported":1706652375,"current_range_meters":28800,"station_id":"ce4bgkh2rcd13ifvqbl0","pricing_plan_id":"free"},{"bike_id":"5b48b25f-0afb-4109-a88d-92473a708087","system_id":"levelo_inurba_marseille","lat":43.309589,"lon":5.390258,"is_reserved":false,"is_disabled":false,"rental_uris":{"android":"levelo://app?vid=5b48b25f-0afb-4109-a88d-92473a708087","ios":"levelo://app?vid=5b48b25f-0afb-4109-a88d-92473a708087"},"vehicle_type_id":"4","last_reported":1706652375,"current_range_meters":7200,"station_id":"ce4bgup2rcd13ifvqco0","pricing_plan_id":"free"},{"bike_id":"39836183-30e5-4219-9ae9-fa6ab2631bc9","system_id":"levelo_inurba_marseille","lat":43.299028,"lon":5.381509,"is_reserved":false,"is_disabled":false,"rental_uris":{"android":"levelo://app?vid=39836183-30e5-4219-9ae9-fa6ab2631bc9","ios":"levelo://app?vid=39836183-30e5-4219-9ae9-fa6ab2631bc9"},"vehicle_type_id":"4","last_reported":1706652375,"current_range_meters":26400,"station_id":"ce4bgj12rcd13ifvqbc0","pricing_plan_id":"free"},{"bike_id":"984e13f5-4f0a-4d77-bfae-482cac7ab50d","system_id":"levelo_inurba_marseille","lat":43.309589,"lon":5.390258,"is_reserved":false,"is_disabled":false,"rental_uris":{"android":"levelo://app?vid=984e13f5-4f0a-4d77-bfae-482cac7ab50d","ios":"levelo://app?vid=984e13f5-4f0a-4d77-bfae-482cac7ab50d"},"vehicle_type_id":"4","last_reported":1706652375,"current_range_meters":11600,"station_id":"ce4bgup2rcd13ifvqco0","pricing_plan_id":"free"},{"bike_id":"c59ed841-abe7-4720-b327-7957d5000d8d","system_id":"levelo_inurba_marseille","lat":43.309589,"lon":5.390258,"is_reserved":false,"is_disabled":false,"rental_uris":{"android":"levelo://app?vid=c59ed841-abe7-4720-b327-7957d5000d8d","ios":"levelo://app?vid=c59ed841-abe7-4720-b327-7957d5000d8d"},"vehicle_type_id":"4","last_reported":1706652375,"current_range_meters":31200,"station_id":"ce4bgup2rcd13ifvqco0","pricing_plan_id":"free"},{"bike_id":"0042d6f0-defb-474c-a512-c060c4d8067d","system_id":"levelo_inurba_marseille","lat":43.309589,"lon":5.390258,"is_reserved":false,"is_disabled":false,"rental_uris":{"android":"levelo://app?vid=0042d6f0-defb-474c-a512-c060c4d8067d","ios":"levelo://app?vid=0042d6f0-defb-474c-a512-c060c4d8067d"},"vehicle_type_id":"4","last_reported":1706652375,"current_range_meters":4800,"station_id":"ce4bgup2rcd13ifvqco0","pricing_plan_id":"free"},{"bike_id":"aa26fe18-9c4c-4e88-a779-301d624a7582","system_id":"levelo_inurba_marseille","lat":43.309589,"lon":5.390258,"is_reserved":false,"is_disabled":false,"rental_uris":{"android":"levelo://app?vid=aa26fe18-9c4c-4e88-a779-301d624a7582","ios":"levelo://app?vid=aa26fe18-9c4c-4e88-a779-301d624a7582"},"vehicle_type_id":"4","last_reported":1706652375,"current_range_meters":4400,"station_id":"ce4bgup2rcd13ifvqco0","pricing_plan_id":"free"},{"bike_id":"5c09316b-0a2b-4750-b074-417db8bb9e14","system_id":"levelo_inurba_marseille","lat":43.317557,"lon":5.390173,"is_reserved":false,"is_disabled":false,"rental_uris":{"android":"levelo://app?vid=5c09316b-0a2b-4750-b074-417db8bb9e14","ios":"levelo://app?vid=5c09316b-0a2b-4750-b074-417db8bb9e14"},"vehicle_type_id":"4","last_reported":1706652375,"current_range_meters":400,"station_id":"ce4bhqp2rcd13ifvqhng","pricing_plan_id":"free"},{"bike_id":"6a50afe9-b390-4b14-a5d4-1b9ef566a50e","system_id":"levelo_inurba_marseille","lat":43.317557,"lon":5.390173,"is_reserved":false,"is_disabled":false,"rental_uris":{"android":"levelo://app?vid=6a50afe9-b390-4b14-a5d4-1b9ef566a50e","ios":"levelo://app?vid=6a50afe9-b390-4b14-a5d4-1b9ef566a50e"},"vehicle_type_id":"4","last_reported":1706652375,"current_range_meters":10000,"station_id":"ce4bhqp2rcd13ifvqhng","pricing_plan_id":"free"},{"bike_id":"ac6dd630-497f-41f3-b3b5-90dd58aa844c","system_id":"levelo_inurba_marseille","lat":43.29578,"lon":5.37495,"is_reserved":false,"is_disabled":false,"rental_uris":{"android":"levelo://app?vid=ac6dd630-497f-41f3-b3b5-90dd58aa844c","ios":"levelo://app?vid=ac6dd630-497f-41f3-b3b5-90dd58aa844c"},"vehicle_type_id":"4","last_reported":1706652375,"current_range_meters":0,"station_id":"ce4bgh92rcd13ifvqb50","pricing_plan_id":"free"},{"bike_id":"0d432734-f006-4d07-ba13-82a4ba93354b","system_id":"levelo_inurba_marseille","lat":43.295728,"lon":5.375,"is_reserved":false,"is_disabled":false,"rental_uris":{"android":"levelo://app?vid=0d432734-f006-4d07-ba13-82a4ba93354b","ios":"levelo://app?vid=0d432734-f006-4d07-ba13-82a4ba93354b"},"vehicle_type_id":"4","last_reported":1706652375,"current_range_meters":0,"station_id":"ce4bgh92rcd13ifvqb50","pricing_plan_id":"free"},{"bike_id":"ffeee93e-e17d-4199-b7b5-4793ff1c26bc","system_id":"levelo_inurba_marseille","lat":43.29615,"lon":5.37726,"is_reserved":false,"is_disabled":false,"rental_uris":{"android":"levelo://app?vid=ffeee93e-e17d-4199-b7b5-4793ff1c26bc","ios":"levelo://app?vid=ffeee93e-e17d-4199-b7b5-4793ff1c26bc"},"vehicle_type_id":"4","last_reported":1706652375,"current_range_meters":0,"station_id":"ce4bgi92rcd13ifvqb90","pricing_plan_id":"free"},{"bike_id":"16eebbe9-6eeb-41d7-9ea2-8086c93ba704","system_id":"levelo_inurba_marseille","lat":43.299707,"lon":5.384859,"is_reserved":false,"is_disabled":false,"rental_uris":{"android":"levelo://app?vid=16eebbe9-6eeb-41d7-9ea2-8086c93ba704","ios":"levelo://app?vid=16eebbe9-6eeb-41d7-9ea2-8086c93ba704"},"vehicle_type_id":"4","last_reported":1706652375,"current_range_meters":20400,"station_id":"ce4bgj92rcd13ifvqbd0","pricing_plan_id":"free"},{"bike_id":"452cc273-f2c7-4222-8a21-96c4d01afb7c","system_id":"levelo_inurba_marseille","lat":43.299724,"lon":5.384848,"is_reserved":false,"is_disabled":false,"rental_uris":{"android":"levelo://app?vid=452cc273-f2c7-4222-8a21-96c4d01afb7c","ios":"levelo://app?vid=452cc273-f2c7-4222-8a21-96c4d01afb7c"},"vehicle_type_id":"4","last_reported":1706652375,"current_range_meters":21200,"station_id":"ce4bgj92rcd13ifvqbd0","pricing_plan_id":"free"},{"bike_id":"de25d637-84ec-4203-b892-3e1c2d7c4ddb","system_id":"levelo_inurba_marseille","lat":43.331708,"lon":5.364465,"is_reserved":false,"is_disabled":false,"rental_uris":{"android":"levelo://app?vid=de25d637-84ec-4203-b892-3e1c2d7c4ddb","ios":"levelo://app?vid=de25d637-84ec-4203-b892-3e1c2d7c4ddb"},"vehicle_type_id":"4","last_reported":1706652375,"current_range_meters":10400,"station_id":"","pricing_plan_id":"free"},{"bike_id":"42e1b826-7d18-4d6d-8399-50a5392000d1","system_id":"levelo_inurba_marseille","lat":43.32367,"lon":5.388836,"is_reserved":false,"is_disabled":false,"rental_uris":{"android":"levelo://app?vid=42e1b826-7d18-4d6d-8399-50a5392000d1","ios":"levelo://app?vid=42e1b826-7d18-4d6d-8399-50a5392000d1"},"vehicle_type_id":"4","last_reported":1706652375,"current_range_meters":800,"station_id":"ce4bhqp2rcd13ifvqhog","pricing_plan_id":"free"},{"bike_id":"87c37e20-93d8-4821-b2fb-71a6c4f572ed","system_id":"levelo_inurba_marseille","lat":43.32364,"lon":5.38884,"is_reserved":false,"is_disabled":false,"rental_uris":{"android":"levelo://app?vid=87c37e20-93d8-4821-b2fb-71a6c4f572ed","ios":"levelo://app?vid=87c37e20-93d8-4821-b2fb-71a6c4f572ed"},"vehicle_type_id":"4","last_reported":1706652375,"current_range_meters":6000,"station_id":"ce4bhqp2rcd13ifvqhog","pricing_plan_id":"free"},{"bike_id":"6c6dcc02-6cc1-4ef9-97aa-9aca7babe880","system_id":"levelo_inurba_marseille","lat":43.32367,"lon":5.388836,"is_reserved":false,"is_disabled":false,"rental_uris":{"android":"levelo://app?vid=6c6dcc02-6cc1-4ef9-97aa-9aca7babe880","ios":"levelo://app?vid=6c6dcc02-6cc1-4ef9-97aa-9aca7babe880"},"vehicle_type_id":"4","last_reported":1706652375,"current_range_meters":400,"station_id":"ce4bhqp2rcd13ifvqhog","pricing_plan_id":"free"},{"bike_id":"83c0514d-6600-43a3-932b-83517d92af33","system_id":"levelo_inurba_marseille","lat":43.32366,"lon":5.38885,"is_reserved":false,"is_disabled":false,"rental_uris":{"android":"levelo://app?vid=83c0514d-6600-43a3-932b-83517d92af33","ios":"levelo://app?vid=83c0514d-6600-43a3-932b-83517d92af33"},"vehicle_type_id":"4","last_reported":1706652375,"current_range_meters":0,"station_id":"ce4bhqp2rcd13ifvqhog","pricing_plan_id":"free"},{"bike_id":"899d0092-7653-45db-88aa-d3f5eb3a8508","system_id":"levelo_inurba_marseille","lat":43.32367,"lon":5.388836,"is_reserved":false,"is_disabled":false,"rental_uris":{"android":"levelo://app?vid=899d0092-7653-45db-88aa-d3f5eb3a8508","ios":"levelo://app?vid=899d0092-7653-45db-88aa-d3f5eb3a8508"},"vehicle_type_id":"4","last_reported":1706652375,"current_range_meters":11200,"station_id":"ce4bhqp2rcd13ifvqhog","pricing_plan_id":"free"},{"bike_id":"b106b04c-a63a-459d-b4af-77ff59901bf1","system_id":"levelo_inurba_marseille","lat":43.29341,"lon":5.37235,"is_reserved":false,"is_disabled":false,"rental_uris":{"android":"levelo://app?vid=b106b04c-a63a-459d-b4af-77ff59901bf1","ios":"levelo://app?vid=b106b04c-a63a-459d-b4af-77ff59901bf1"},"vehicle_type_id":"4","last_reported":1706652375,"current_range_meters":2800,"station_id":"","pricing_plan_id":"free"},{"bike_id":"67cc158c-ec48-4504-835a-d11592fc516f","system_id":"levelo_inurba_marseille","lat":43.292778,"lon":5.368478,"is_reserved":false,"is_disabled":false,"rental_uris":{"android":"levelo://app?vid=67cc158c-ec48-4504-835a-d11592fc516f","ios":"levelo://app?vid=67cc158c-ec48-4504-835a-d11592fc516f"},"vehicle_type_id":"4","last_reported":1706652375,"current_range_meters":0,"station_id":"ce4bhbp2rcd13ifvqesg","pricing_plan_id":"free"},{"bike_id":"78b3bdfa-e78a-4167-a5c7-efc96f8faea3","system_id":"levelo_inurba_marseille","lat":43.292749,"lon":5.368402,"is_reserved":false,"is_disabled":false,"rental_uris":{"android":"levelo://app?vid=78b3bdfa-e78a-4167-a5c7-efc96f8faea3","ios":"levelo://app?vid=78b3bdfa-e78a-4167-a5c7-efc96f8faea3"},"vehicle_type_id":"4","last_reported":1706652375,"current_range_meters":0,"station_id":"ce4bhbp2rcd13ifvqesg","pricing_plan_id":"free"},{"bike_id":"c1dc81f8-f99c-4a61-a182-2432218e356c","system_id":"levelo_inurba_marseille","lat":43.305994,"lon":5.393687,"is_reserved":false,"is_disabled":false,"rental_uris":{"android":"levelo://app?vid=c1dc81f8-f99c-4a61-a182-2432218e356c","ios":"levelo://app?vid=c1dc81f8-f99c-4a61-a182-2432218e356c"},"vehicle_type_id":"4","last_reported":1706652375,"current_range_meters":12400,"station_id":"ce4bh0p2rcd13ifvqd80","pricing_plan_id":"free"},{"bike_id":"a32a6dcb-40d5-4d01-a27c-62bab8510410","system_id":"levelo_inurba_marseille","lat":43.305994,"lon":5.393687,"is_reserved":false,"is_disabled":false,"rental_uris":{"android":"levelo://app?vid=a32a6dcb-40d5-4d01-a27c-62bab8510410","ios":"levelo://app?vid=a32a6dcb-40d5-4d01-a27c-62bab8510410"},"vehicle_type_id":"4","last_reported":1706652375,"current_range_meters":9600,"station_id":"ce4bh0p2rcd13ifvqd80","pricing_plan_id":"free"},{"bike_id":"829b9f2d-c9fe-48f3-8414-89a85cf973d7","system_id":"levelo_inurba_marseille","lat":43.305994,"lon":5.393687,"is_reserved":false,"is_disabled":false,"rental_uris":{"android":"levelo://app?vid=829b9f2d-c9fe-48f3-8414-89a85cf973d7","ios":"levelo://app?vid=829b9f2d-c9fe-48f3-8414-89a85cf973d7"},"vehicle_type_id":"4","last_reported":1706652375,"current_range_meters":11600,"station_id":"ce4bh0p2rcd13ifvqd80","pricing_plan_id":"free"},{"bike_id":"ea6c057d-463d-4587-ad59-98293c3ff12f","system_id":"levelo_inurba_marseille","lat":43.2936,"lon":5.37835,"is_reserved":false,"is_disabled":false,"rental_uris":{"android":"levelo://app?vid=ea6c057d-463d-4587-ad59-98293c3ff12f","ios":"levelo://app?vid=ea6c057d-463d-4587-ad59-98293c3ff12f"},"vehicle_type_id":"4","last_reported":1706652375,"current_range_meters":4800,"station_id":"ce4bgjh2rcd13ifvqbf0","pricing_plan_id":"free"},{"bike_id":"c97f7ddc-65d1-4db7-90a8-cc5f31be151e","system_id":"levelo_inurba_marseille","lat":43.293728,"lon":5.378651,"is_reserved":false,"is_disabled":false,"rental_uris":{"android":"levelo://app?vid=c97f7ddc-65d1-4db7-90a8-cc5f31be151e","ios":"levelo://app?vid=c97f7ddc-65d1-4db7-90a8-cc5f31be151e"},"vehicle_type_id":"4","last_reported":1706652375,"current_range_meters":0,"station_id":"ce4bgjh2rcd13ifvqbf0","pricing_plan_id":"free"},{"bike_id":"dc845c2e-5736-4cbb-9ac5-4518f8556216","system_id":"levelo_inurba_marseille","lat":43.300852,"lon":5.390859,"is_reserved":false,"is_disabled":false,"rental_uris":{"android":"levelo://app?vid=dc845c2e-5736-4cbb-9ac5-4518f8556216","ios":"levelo://app?vid=dc845c2e-5736-4cbb-9ac5-4518f8556216"},"vehicle_type_id":"4","last_reported":1706652375,"current_range_meters":4400,"station_id":"ce4bh192rcd13ifvqdb0","pricing_plan_id":"free"},{"bike_id":"ea94f227-9972-4fa5-aead-e1014da3a35a","system_id":"levelo_inurba_marseille","lat":43.300949,"lon":5.390791,"is_reserved":false,"is_disabled":false,"rental_uris":{"android":"levelo://app?vid=ea94f227-9972-4fa5-aead-e1014da3a35a","ios":"levelo://app?vid=ea94f227-9972-4fa5-aead-e1014da3a35a"},"vehicle_type_id":"4","last_reported":1706652375,"current_range_meters":0,"station_id":"ce4bh192rcd13ifvqdb0","pricing_plan_id":"free"},{"bike_id":"1bae008f-956f-4ca3-b5e0-ff8d7cd209dc","system_id":"levelo_inurba_marseille","lat":43.30085,"lon":5.390856,"is_reserved":false,"is_disabled":false,"rental_uris":{"android":"levelo://app?vid=1bae008f-956f-4ca3-b5e0-ff8d7cd209dc","ios":"levelo://app?vid=1bae008f-956f-4ca3-b5e0-ff8d7cd209dc"},"vehicle_type_id":"4","last_reported":1706652375,"current_range_meters":0,"station_id":"ce4bh192rcd13ifvqdb0","pricing_plan_id":"free"},{"bike_id":"688cddb3-1004-47ca-8999-d7e4ffbc91be","system_id":"levelo_inurba_marseille","lat":43.29888,"lon":5.3891,"is_reserved":false,"is_disabled":false,"rental_uris":{"android":"levelo://app?vid=688cddb3-1004-47ca-8999-d7e4ffbc91be","ios":"levelo://app?vid=688cddb3-1004-47ca-8999-d7e4ffbc91be"},"vehicle_type_id":"4","last_reported":1706652375,"current_range_meters":0,"station_id":"ce4bh392rcd13ifvqdl0","pricing_plan_id":"free"},{"bike_id":"01be03bb-cebf-448a-8caf-4ad8e0ab9d1b","system_id":"levelo_inurba_marseille","lat":43.30899,"lon":5.39615,"is_reserved":false,"is_disabled":false,"rental_uris":{"android":"levelo://app?vid=01be03bb-cebf-448a-8caf-4ad8e0ab9d1b","ios":"levelo://app?vid=01be03bb-cebf-448a-8caf-4ad8e0ab9d1b"},"vehicle_type_id":"4","last_reported":1706652375,"current_range_meters":4400,"station_id":"ce4bh012rcd13ifvqcv0","pricing_plan_id":"free"},{"bike_id":"1e9ebea3-1c90-403d-a389-255819a2c3df","system_id":"levelo_inurba_marseille","lat":43.30893,"lon":5.39616,"is_reserved":false,"is_disabled":false,"rental_uris":{"android":"levelo://app?vid=1e9ebea3-1c90-403d-a389-255819a2c3df","ios":"levelo://app?vid=1e9ebea3-1c90-403d-a389-255819a2c3df"},"vehicle_type_id":"4","last_reported":1706652375,"current_range_meters":0,"station_id":"ce4bh012rcd13ifvqcv0","pricing_plan_id":"free"},{"bike_id":"0498f959-33ab-4cf6-a268-c8c1b960fc37","system_id":"levelo_inurba_marseille","lat":43.309038,"lon":5.396546,"is_reserved":false,"is_disabled":false,"rental_uris":{"android":"levelo://app?vid=0498f959-33ab-4cf6-a268-c8c1b960fc37","ios":"levelo://app?vid=0498f959-33ab-4cf6-a268-c8c1b960fc37"},"vehicle_type_id":"4","last_reported":1706652375,"current_range_meters":16000,"station_id":"ce4bh012rcd13ifvqcv0","pricing_plan_id":"free"},{"bike_id":"6a4d6e3c-422a-457f-b27b-2d58bdc5c0c6","system_id":"levelo_inurba_marseille","lat":43.30891,"lon":5.39622,"is_reserved":false,"is_disabled":false,"rental_uris":{"android":"levelo://app?vid=6a4d6e3c-422a-457f-b27b-2d58bdc5c0c6","ios":"levelo://app?vid=6a4d6e3c-422a-457f-b27b-2d58bdc5c0c6"},"vehicle_type_id":"4","last_reported":1706652375,"current_range_meters":17200,"station_id":"ce4bh012rcd13ifvqcv0","pricing_plan_id":"free"},{"bike_id":"21d015e2-db24-4902-8b40-5a8765a0c54e","system_id":"levelo_inurba_marseille","lat":43.295196,"lon":5.39397,"is_reserved":false,"is_disabled":false,"rental_uris":{"android":"levelo://app?vid=21d015e2-db24-4902-8b40-5a8765a0c54e","ios":"levelo://app?vid=21d015e2-db24-4902-8b40-5a8765a0c54e"},"vehicle_type_id":"4","last_reported":1706652375,"current_range_meters":14800,"station_id":"ce4bh292rcd13ifvqdf0","pricing_plan_id":"free"},{"bike_id":"f0551a4f-0dd0-4090-9673-6bcc261ebf84","system_id":"levelo_inurba_marseille","lat":43.30883,"lon":5.39629,"is_reserved":false,"is_disabled":false,"rental_uris":{"android":"levelo://app?vid=f0551a4f-0dd0-4090-9673-6bcc261ebf84","ios":"levelo://app?vid=f0551a4f-0dd0-4090-9673-6bcc261ebf84"},"vehicle_type_id":"4","last_reported":1706652375,"current_range_meters":12400,"station_id":"ce4bh012rcd13ifvqcv0","pricing_plan_id":"free"},{"bike_id":"113c710a-82dc-4f8b-9a03-b597ba872ec5","system_id":"levelo_inurba_marseille","lat":43.30885,"lon":5.39633,"is_reserved":false,"is_disabled":false,"rental_uris":{"android":"levelo://app?vid=113c710a-82dc-4f8b-9a03-b597ba872ec5","ios":"levelo://app?vid=113c710a-82dc-4f8b-9a03-b597ba872ec5"},"vehicle_type_id":"4","last_reported":1706652375,"current_range_meters":21200,"station_id":"ce4bh012rcd13ifvqcv0","pricing_plan_id":"free"},{"bike_id":"92670635-bf2c-40bb-a99e-17bdd5888281","system_id":"levelo_inurba_marseille","lat":43.30887,"lon":5.39638,"is_reserved":false,"is_disabled":false,"rental_uris":{"android":"levelo://app?vid=92670635-bf2c-40bb-a99e-17bdd5888281","ios":"levelo://app?vid=92670635-bf2c-40bb-a99e-17bdd5888281"},"vehicle_type_id":"4","last_reported":1706652375,"current_range_meters":2400,"station_id":"ce4bh012rcd13ifvqcv0","pricing_plan_id":"free"},{"bike_id":"00d1de33-9991-4236-84b0-31936a458efe","system_id":"levelo_inurba_marseille","lat":43.313291,"lon":5.396838,"is_reserved":false,"is_disabled":false,"rental_uris":{"android":"levelo://app?vid=00d1de33-9991-4236-84b0-31936a458efe","ios":"levelo://app?vid=00d1de33-9991-4236-84b0-31936a458efe"},"vehicle_type_id":"4","last_reported":1706652375,"current_range_meters":4800,"station_id":"ce4bgvp2rcd13ifvqcu0","pricing_plan_id":"free"},{"bike_id":"751d9503-550a-45bb-8373-25caab9ec8d7","system_id":"levelo_inurba_marseille","lat":43.313291,"lon":5.396838,"is_reserved":false,"is_disabled":false,"rental_uris":{"android":"levelo://app?vid=751d9503-550a-45bb-8373-25caab9ec8d7","ios":"levelo://app?vid=751d9503-550a-45bb-8373-25caab9ec8d7"},"vehicle_type_id":"4","last_reported":1706652375,"current_range_meters":17600,"station_id":"ce4bgvp2rcd13ifvqcu0","pricing_plan_id":"free"},{"bike_id":"747e4d93-ecde-490d-b281-aa31052ce803","system_id":"levelo_inurba_marseille","lat":43.313291,"lon":5.396838,"is_reserved":false,"is_disabled":false,"rental_uris":{"android":"levelo://app?vid=747e4d93-ecde-490d-b281-aa31052ce803","ios":"levelo://app?vid=747e4d93-ecde-490d-b281-aa31052ce803"},"vehicle_type_id":"4","last_reported":1706652375,"current_range_meters":0,"station_id":"ce4bgvp2rcd13ifvqcu0","pricing_plan_id":"free"},{"bike_id":"08c8936f-6282-4269-ac71-328472fd491d","system_id":"levelo_inurba_marseille","lat":43.313291,"lon":5.396838,"is_reserved":false,"is_disabled":false,"rental_uris":{"android":"levelo://app?vid=08c8936f-6282-4269-ac71-328472fd491d","ios":"levelo://app?vid=08c8936f-6282-4269-ac71-328472fd491d"},"vehicle_type_id":"4","last_reported":1706652375,"current_range_meters":31200,"station_id":"ce4bgvp2rcd13ifvqcu0","pricing_plan_id":"free"},{"bike_id":"8451d2e9-682e-4d62-866c-f72fdfbc4468","system_id":"levelo_inurba_marseille","lat":43.313291,"lon":5.396838,"is_reserved":false,"is_disabled":false,"rental_uris":{"android":"levelo://app?vid=8451d2e9-682e-4d62-866c-f72fdfbc4468","ios":"levelo://app?vid=8451d2e9-682e-4d62-866c-f72fdfbc4468"},"vehicle_type_id":"4","last_reported":1706652375,"current_range_meters":2400,"station_id":"ce4bgvp2rcd13ifvqcu0","pricing_plan_id":"free"},{"bike_id":"067a3f54-cdb1-4351-888c-7235aaac275f","system_id":"levelo_inurba_marseille","lat":43.313291,"lon":5.396838,"is_reserved":false,"is_disabled":false,"rental_uris":{"android":"levelo://app?vid=067a3f54-cdb1-4351-888c-7235aaac275f","ios":"levelo://app?vid=067a3f54-cdb1-4351-888c-7235aaac275f"},"vehicle_type_id":"4","last_reported":1706652375,"current_range_meters":5600,"station_id":"ce4bgvp2rcd13ifvqcu0","pricing_plan_id":"free"},{"bike_id":"dacef0ad-9800-41af-828e-19ff6aaaffb4","system_id":"levelo_inurba_marseille","lat":43.313291,"lon":5.396838,"is_reserved":false,"is_disabled":false,"rental_uris":{"android":"levelo://app?vid=dacef0ad-9800-41af-828e-19ff6aaaffb4","ios":"levelo://app?vid=dacef0ad-9800-41af-828e-19ff6aaaffb4"},"vehicle_type_id":"4","last_reported":1706652375,"current_range_meters":28800,"station_id":"ce4bgvp2rcd13ifvqcu0","pricing_plan_id":"free"},{"bike_id":"643ca9e9-6927-4ec3-bab7-5761fb86a050","system_id":"levelo_inurba_marseille","lat":43.308883,"lon":5.396447,"is_reserved":false,"is_disabled":false,"rental_uris":{"android":"levelo://app?vid=643ca9e9-6927-4ec3-bab7-5761fb86a050","ios":"levelo://app?vid=643ca9e9-6927-4ec3-bab7-5761fb86a050"},"vehicle_type_id":"4","last_reported":1706652375,"current_range_meters":19200,"station_id":"ce4bh012rcd13ifvqcv0","pricing_plan_id":"free"},{"bike_id":"7f6aa594-0861-4485-833e-2c96eb223d5a","system_id":"levelo_inurba_marseille","lat":43.313291,"lon":5.396838,"is_reserved":false,"is_disabled":false,"rental_uris":{"android":"levelo://app?vid=7f6aa594-0861-4485-833e-2c96eb223d5a","ios":"levelo://app?vid=7f6aa594-0861-4485-833e-2c96eb223d5a"},"vehicle_type_id":"4","last_reported":1706652375,"current_range_meters":17600,"station_id":"ce4bgvp2rcd13ifvqcu0","pricing_plan_id":"free"},{"bike_id":"9a015444-c4b0-41cf-b428-0705d5bd5a83","system_id":"levelo_inurba_marseille","lat":43.313291,"lon":5.396838,"is_reserved":false,"is_disabled":false,"rental_uris":{"android":"levelo://app?vid=9a015444-c4b0-41cf-b428-0705d5bd5a83","ios":"levelo://app?vid=9a015444-c4b0-41cf-b428-0705d5bd5a83"},"vehicle_type_id":"4","last_reported":1706652375,"current_range_meters":13200,"station_id":"ce4bgvp2rcd13ifvqcu0","pricing_plan_id":"free"},{"bike_id":"0e939496-2def-4b51-b8a6-8154a39f3ea3","system_id":"levelo_inurba_marseille","lat":43.313291,"lon":5.396838,"is_reserved":false,"is_disabled":false,"rental_uris":{"android":"levelo://app?vid=0e939496-2def-4b51-b8a6-8154a39f3ea3","ios":"levelo://app?vid=0e939496-2def-4b51-b8a6-8154a39f3ea3"},"vehicle_type_id":"4","last_reported":1706652375,"current_range_meters":27200,"station_id":"ce4bgvp2rcd13ifvqcu0","pricing_plan_id":"free"},{"bike_id":"6f5c9714-0235-4318-92c0-c0df621ff2bc","system_id":"levelo_inurba_marseille","lat":43.308904,"lon":5.396484,"is_reserved":false,"is_disabled":false,"rental_uris":{"android":"levelo://app?vid=6f5c9714-0235-4318-92c0-c0df621ff2bc","ios":"levelo://app?vid=6f5c9714-0235-4318-92c0-c0df621ff2bc"},"vehicle_type_id":"4","last_reported":1706652375,"current_range_meters":18000,"station_id":"ce4bh012rcd13ifvqcv0","pricing_plan_id":"free"},{"bike_id":"ef62cf81-cc32-4f0e-bdf1-8a6a90e9453b","system_id":"levelo_inurba_marseille","lat":43.313291,"lon":5.396838,"is_reserved":false,"is_disabled":false,"rental_uris":{"android":"levelo://app?vid=ef62cf81-cc32-4f0e-bdf1-8a6a90e9453b","ios":"levelo://app?vid=ef62cf81-cc32-4f0e-bdf1-8a6a90e9453b"},"vehicle_type_id":"4","last_reported":1706652375,"current_range_meters":17600,"station_id":"ce4bgvp2rcd13ifvqcu0","pricing_plan_id":"free"},{"bike_id":"b62bcfa5-473d-4221-b143-66a964158134","system_id":"levelo_inurba_marseille","lat":43.31324,"lon":5.39695,"is_reserved":false,"is_disabled":false,"rental_uris":{"android":"levelo://app?vid=b62bcfa5-473d-4221-b143-66a964158134","ios":"levelo://app?vid=b62bcfa5-473d-4221-b143-66a964158134"},"vehicle_type_id":"4","last_reported":1706652375,"current_range_meters":1600,"station_id":"ce4bgvp2rcd13ifvqcu0","pricing_plan_id":"free"},{"bike_id":"0db4327a-f873-4b61-9e5d-93ba3c4b6379","system_id":"levelo_inurba_marseille","lat":43.313291,"lon":5.396838,"is_reserved":false,"is_disabled":false,"rental_uris":{"android":"levelo://app?vid=0db4327a-f873-4b61-9e5d-93ba3c4b6379","ios":"levelo://app?vid=0db4327a-f873-4b61-9e5d-93ba3c4b6379"},"vehicle_type_id":"4","last_reported":1706652375,"current_range_meters":0,"station_id":"ce4bgvp2rcd13ifvqcu0","pricing_plan_id":"free"},{"bike_id":"7f40c595-1c4f-4ac5-898c-e19e6e7abfa5","system_id":"levelo_inurba_marseille","lat":43.313291,"lon":5.396838,"is_reserved":false,"is_disabled":false,"rental_uris":{"android":"levelo://app?vid=7f40c595-1c4f-4ac5-898c-e19e6e7abfa5","ios":"levelo://app?vid=7f40c595-1c4f-4ac5-898c-e19e6e7abfa5"},"vehicle_type_id":"4","last_reported":1706652375,"current_range_meters":18000,"station_id":"ce4bgvp2rcd13ifvqcu0","pricing_plan_id":"free"},{"bike_id":"50abaccf-dd88-40c7-8675-0ffb04196c99","system_id":"levelo_inurba_marseille","lat":43.313291,"lon":5.396838,"is_reserved":false,"is_disabled":false,"rental_uris":{"android":"levelo://app?vid=50abaccf-dd88-40c7-8675-0ffb04196c99","ios":"levelo://app?vid=50abaccf-dd88-40c7-8675-0ffb04196c99"},"vehicle_type_id":"4","last_reported":1706652375,"current_range_meters":22000,"station_id":"ce4bgvp2rcd13ifvqcu0","pricing_plan_id":"free"},{"bike_id":"b674387c-dac7-4c72-8c60-5bdca13ab48d","system_id":"levelo_inurba_marseille","lat":43.31328,"lon":5.39697,"is_reserved":false,"is_disabled":false,"rental_uris":{"android":"levelo://app?vid=b674387c-dac7-4c72-8c60-5bdca13ab48d","ios":"levelo://app?vid=b674387c-dac7-4c72-8c60-5bdca13ab48d"},"vehicle_type_id":"4","last_reported":1706652375,"current_range_meters":0,"station_id":"ce4bgvp2rcd13ifvqcu0","pricing_plan_id":"free"},{"bike_id":"961af791-ce80-4780-8123-07223dca3aae","system_id":"levelo_inurba_marseille","lat":43.313291,"lon":5.396838,"is_reserved":false,"is_disabled":false,"rental_uris":{"android":"levelo://app?vid=961af791-ce80-4780-8123-07223dca3aae","ios":"levelo://app?vid=961af791-ce80-4780-8123-07223dca3aae"},"vehicle_type_id":"4","last_reported":1706652375,"current_range_meters":13600,"station_id":"ce4bgvp2rcd13ifvqcu0","pricing_plan_id":"free"},{"bike_id":"33c94b88-26d4-4311-af85-1825f528c93a","system_id":"levelo_inurba_marseille","lat":43.30881,"lon":5.396494,"is_reserved":false,"is_disabled":false,"rental_uris":{"android":"levelo://app?vid=33c94b88-26d4-4311-af85-1825f528c93a","ios":"levelo://app?vid=33c94b88-26d4-4311-af85-1825f528c93a"},"vehicle_type_id":"4","last_reported":1706652375,"current_range_meters":11600,"station_id":"ce4bh012rcd13ifvqcv0","pricing_plan_id":"free"},{"bike_id":"6c7e1c9a-57cb-4109-b0b9-8f343f78204f","system_id":"levelo_inurba_marseille","lat":43.308798,"lon":5.396492,"is_reserved":false,"is_disabled":false,"rental_uris":{"android":"levelo://app?vid=6c7e1c9a-57cb-4109-b0b9-8f343f78204f","ios":"levelo://app?vid=6c7e1c9a-57cb-4109-b0b9-8f343f78204f"},"vehicle_type_id":"4","last_reported":1706652375,"current_range_meters":400,"station_id":"ce4bh012rcd13ifvqcv0","pricing_plan_id":"free"},{"bike_id":"1c9ce51b-33d4-41ff-a491-07c4b0b68cb0","system_id":"levelo_inurba_marseille","lat":43.31326,"lon":5.39698,"is_reserved":false,"is_disabled":false,"rental_uris":{"android":"levelo://app?vid=1c9ce51b-33d4-41ff-a491-07c4b0b68cb0","ios":"levelo://app?vid=1c9ce51b-33d4-41ff-a491-07c4b0b68cb0"},"vehicle_type_id":"4","last_reported":1706652375,"current_range_meters":4800,"station_id":"ce4bgvp2rcd13ifvqcu0","pricing_plan_id":"free"},{"bike_id":"5e982d82-ffd2-429b-9293-aeec111668e4","system_id":"levelo_inurba_marseille","lat":43.309038,"lon":5.396546,"is_reserved":false,"is_disabled":false,"rental_uris":{"android":"levelo://app?vid=5e982d82-ffd2-429b-9293-aeec111668e4","ios":"levelo://app?vid=5e982d82-ffd2-429b-9293-aeec111668e4"},"vehicle_type_id":"4","last_reported":1706652375,"current_range_meters":11200,"station_id":"ce4bh012rcd13ifvqcv0","pricing_plan_id":"free"},{"bike_id":"a81ffb1d-f7f4-41a9-a4d4-6a804b0f144a","system_id":"levelo_inurba_marseille","lat":43.313291,"lon":5.396838,"is_reserved":false,"is_disabled":false,"rental_uris":{"android":"levelo://app?vid=a81ffb1d-f7f4-41a9-a4d4-6a804b0f144a","ios":"levelo://app?vid=a81ffb1d-f7f4-41a9-a4d4-6a804b0f144a"},"vehicle_type_id":"4","last_reported":1706652375,"current_range_meters":18000,"station_id":"ce4bgvp2rcd13ifvqcu0","pricing_plan_id":"free"},{"bike_id":"79a84e50-340f-4796-8e81-e36a91cc5577","system_id":"levelo_inurba_marseille","lat":43.309038,"lon":5.396546,"is_reserved":false,"is_disabled":false,"rental_uris":{"android":"levelo://app?vid=79a84e50-340f-4796-8e81-e36a91cc5577","ios":"levelo://app?vid=79a84e50-340f-4796-8e81-e36a91cc5577"},"vehicle_type_id":"4","last_reported":1706652375,"current_range_meters":21600,"station_id":"ce4bh012rcd13ifvqcv0","pricing_plan_id":"free"},{"bike_id":"4970a1f1-2562-4cd9-ae69-8b029fbc1985","system_id":"levelo_inurba_marseille","lat":43.313291,"lon":5.396838,"is_reserved":false,"is_disabled":false,"rental_uris":{"android":"levelo://app?vid=4970a1f1-2562-4cd9-ae69-8b029fbc1985","ios":"levelo://app?vid=4970a1f1-2562-4cd9-ae69-8b029fbc1985"},"vehicle_type_id":"4","last_reported":1706652375,"current_range_meters":18000,"station_id":"ce4bgvp2rcd13ifvqcu0","pricing_plan_id":"free"},{"bike_id":"2ffc279e-2799-4474-8220-0a993408586f","system_id":"levelo_inurba_marseille","lat":43.313291,"lon":5.396838,"is_reserved":false,"is_disabled":false,"rental_uris":{"android":"levelo://app?vid=2ffc279e-2799-4474-8220-0a993408586f","ios":"levelo://app?vid=2ffc279e-2799-4474-8220-0a993408586f"},"vehicle_type_id":"4","last_reported":1706652375,"current_range_meters":31200,"station_id":"ce4bgvp2rcd13ifvqcu0","pricing_plan_id":"free"},{"bike_id":"2e0c5069-3577-4b65-9bc2-e4d774d1fe84","system_id":"levelo_inurba_marseille","lat":43.309038,"lon":5.396546,"is_reserved":false,"is_disabled":false,"rental_uris":{"android":"levelo://app?vid=2e0c5069-3577-4b65-9bc2-e4d774d1fe84","ios":"levelo://app?vid=2e0c5069-3577-4b65-9bc2-e4d774d1fe84"},"vehicle_type_id":"4","last_reported":1706652375,"current_range_meters":24400,"station_id":"ce4bh012rcd13ifvqcv0","pricing_plan_id":"free"},{"bike_id":"96772678-d17a-43c2-a5f2-9de991a51cc0","system_id":"levelo_inurba_marseille","lat":43.30835,"lon":5.396398,"is_reserved":false,"is_disabled":false,"rental_uris":{"android":"levelo://app?vid=96772678-d17a-43c2-a5f2-9de991a51cc0","ios":"levelo://app?vid=96772678-d17a-43c2-a5f2-9de991a51cc0"},"vehicle_type_id":"4","last_reported":1706652375,"current_range_meters":24800,"station_id":"ce4bh012rcd13ifvqcv0","pricing_plan_id":"free"},{"bike_id":"682cd139-a10d-4e24-b55e-a3c46b005f3b","system_id":"levelo_inurba_marseille","lat":43.30891,"lon":5.39655,"is_reserved":false,"is_disabled":false,"rental_uris":{"android":"levelo://app?vid=682cd139-a10d-4e24-b55e-a3c46b005f3b","ios":"levelo://app?vid=682cd139-a10d-4e24-b55e-a3c46b005f3b"},"vehicle_type_id":"4","last_reported":1706652375,"current_range_meters":9200,"station_id":"ce4bh012rcd13ifvqcv0","pricing_plan_id":"free"},{"bike_id":"feeb888a-249a-48c9-9c30-faafc06cbb32","system_id":"levelo_inurba_marseille","lat":43.313291,"lon":5.396838,"is_reserved":false,"is_disabled":false,"rental_uris":{"android":"levelo://app?vid=feeb888a-249a-48c9-9c30-faafc06cbb32","ios":"levelo://app?vid=feeb888a-249a-48c9-9c30-faafc06cbb32"},"vehicle_type_id":"4","last_reported":1706652375,"current_range_meters":17200,"station_id":"ce4bgvp2rcd13ifvqcu0","pricing_plan_id":"free"},{"bike_id":"ae9e9f64-f78e-4c23-9ebc-d9a59be25849","system_id":"levelo_inurba_marseille","lat":43.309038,"lon":5.396546,"is_reserved":false,"is_disabled":false,"rental_uris":{"android":"levelo://app?vid=ae9e9f64-f78e-4c23-9ebc-d9a59be25849","ios":"levelo://app?vid=ae9e9f64-f78e-4c23-9ebc-d9a59be25849"},"vehicle_type_id":"4","last_reported":1706652375,"current_range_meters":22400,"station_id":"ce4bh012rcd13ifvqcv0","pricing_plan_id":"free"},{"bike_id":"98dd1f16-4b5b-42e3-b32b-e17d5f9296dd","system_id":"levelo_inurba_marseille","lat":43.30881,"lon":5.39658,"is_reserved":false,"is_disabled":false,"rental_uris":{"android":"levelo://app?vid=98dd1f16-4b5b-42e3-b32b-e17d5f9296dd","ios":"levelo://app?vid=98dd1f16-4b5b-42e3-b32b-e17d5f9296dd"},"vehicle_type_id":"4","last_reported":1706652375,"current_range_meters":17200,"station_id":"ce4bh012rcd13ifvqcv0","pricing_plan_id":"free"},{"bike_id":"b4f3c6d0-a1a5-4b2d-8d9c-781d3dd83661","system_id":"levelo_inurba_marseille","lat":43.29529,"lon":5.385581,"is_reserved":false,"is_disabled":false,"rental_uris":{"android":"levelo://app?vid=b4f3c6d0-a1a5-4b2d-8d9c-781d3dd83661","ios":"levelo://app?vid=b4f3c6d0-a1a5-4b2d-8d9c-781d3dd83661"},"vehicle_type_id":"4","last_reported":1706652375,"current_range_meters":16400,"station_id":"ce4bgih2rcd13ifvqba0","pricing_plan_id":"free"},{"bike_id":"14e28e1a-f586-4eb5-af1b-0610b357d5da","system_id":"levelo_inurba_marseille","lat":43.290779,"lon":5.371482,"is_reserved":false,"is_disabled":false,"rental_uris":{"android":"levelo://app?vid=14e28e1a-f586-4eb5-af1b-0610b357d5da","ios":"levelo://app?vid=14e28e1a-f586-4eb5-af1b-0610b357d5da"},"vehicle_type_id":"4","last_reported":1706652375,"current_range_meters":12000,"station_id":"ce4bh5p2rcd13ifvqe4g","pricing_plan_id":"free"},{"bike_id":"98c23058-2507-4478-9e54-f634cabfda68","system_id":"levelo_inurba_marseille","lat":43.290631,"lon":5.359244,"is_reserved":false,"is_disabled":false,"rental_uris":{"android":"levelo://app?vid=98c23058-2507-4478-9e54-f634cabfda68","ios":"levelo://app?vid=98c23058-2507-4478-9e54-f634cabfda68"},"vehicle_type_id":"4","last_reported":1706652375,"current_range_meters":5600,"station_id":"ce4bha92rcd13ifvqeg0","pricing_plan_id":"free"},{"bike_id":"2c1e47ad-3478-424c-8c66-23a600b1f0dc","system_id":"levelo_inurba_marseille","lat":43.290441,"lon":5.359123,"is_reserved":false,"is_disabled":false,"rental_uris":{"android":"levelo://app?vid=2c1e47ad-3478-424c-8c66-23a600b1f0dc","ios":"levelo://app?vid=2c1e47ad-3478-424c-8c66-23a600b1f0dc"},"vehicle_type_id":"4","last_reported":1706652375,"current_range_meters":16400,"station_id":"","pricing_plan_id":"free"},{"bike_id":"4f271c4e-78dd-4785-bae2-aab10dbb136e","system_id":"levelo_inurba_marseille","lat":43.294162,"lon":5.386292,"is_reserved":false,"is_disabled":false,"rental_uris":{"android":"levelo://app?vid=4f271c4e-78dd-4785-bae2-aab10dbb136e","ios":"levelo://app?vid=4f271c4e-78dd-4785-bae2-aab10dbb136e"},"vehicle_type_id":"4","last_reported":1706652375,"current_range_meters":16400,"station_id":"ce4bh2h2rcd13ifvqdh0","pricing_plan_id":"free"},{"bike_id":"463c262c-5a74-4d9a-a48f-f4a85dba0141","system_id":"levelo_inurba_marseille","lat":43.290327,"lon":5.375711,"is_reserved":false,"is_disabled":false,"rental_uris":{"android":"levelo://app?vid=463c262c-5a74-4d9a-a48f-f4a85dba0141","ios":"levelo://app?vid=463c262c-5a74-4d9a-a48f-f4a85dba0141"},"vehicle_type_id":"4","last_reported":1706652375,"current_range_meters":24400,"station_id":"ce4bh692rcd13ifvqe90","pricing_plan_id":"free"},{"bike_id":"91bc292d-5d04-4c36-8d00-792b87f639d8","system_id":"levelo_inurba_marseille","lat":43.294153,"lon":5.386305,"is_reserved":false,"is_disabled":false,"rental_uris":{"android":"levelo://app?vid=91bc292d-5d04-4c36-8d00-792b87f639d8","ios":"levelo://app?vid=91bc292d-5d04-4c36-8d00-792b87f639d8"},"vehicle_type_id":"4","last_reported":1706652375,"current_range_meters":4400,"station_id":"ce4bh2h2rcd13ifvqdh0","pricing_plan_id":"free"},{"bike_id":"65f36854-27a1-4848-baf9-b150d3bdd5b3","system_id":"levelo_inurba_marseille","lat":43.289468,"lon":5.363719,"is_reserved":false,"is_disabled":false,"rental_uris":{"android":"levelo://app?vid=65f36854-27a1-4848-baf9-b150d3bdd5b3","ios":"levelo://app?vid=65f36854-27a1-4848-baf9-b150d3bdd5b3"},"vehicle_type_id":"4","last_reported":1706652375,"current_range_meters":800,"station_id":"ce4bhc92rcd13ifvqetg","pricing_plan_id":"free"},{"bike_id":"7dc3d1a6-3944-4cb2-8991-00a236fcb1af","system_id":"levelo_inurba_marseille","lat":43.289184,"lon":5.366408,"is_reserved":false,"is_disabled":false,"rental_uris":{"android":"levelo://app?vid=7dc3d1a6-3944-4cb2-8991-00a236fcb1af","ios":"levelo://app?vid=7dc3d1a6-3944-4cb2-8991-00a236fcb1af"},"vehicle_type_id":"4","last_reported":1706652375,"current_range_meters":0,"station_id":"ce4bhap2rcd13ifvqek0","pricing_plan_id":"free"},{"bike_id":"32239175-1969-47fc-ada3-95ef9bf3f02b","system_id":"levelo_inurba_marseille","lat":43.30425,"lon":5.39741,"is_reserved":false,"is_disabled":false,"rental_uris":{"android":"levelo://app?vid=32239175-1969-47fc-ada3-95ef9bf3f02b","ios":"levelo://app?vid=32239175-1969-47fc-ada3-95ef9bf3f02b"},"vehicle_type_id":"4","last_reported":1706652375,"current_range_meters":6000,"station_id":"ce4bh092rcd13ifvqd20","pricing_plan_id":"free"},{"bike_id":"42bf7cb0-1649-4c56-99f9-706ead73401a","system_id":"levelo_inurba_marseille","lat":43.30431,"lon":5.39745,"is_reserved":false,"is_disabled":false,"rental_uris":{"android":"levelo://app?vid=42bf7cb0-1649-4c56-99f9-706ead73401a","ios":"levelo://app?vid=42bf7cb0-1649-4c56-99f9-706ead73401a"},"vehicle_type_id":"4","last_reported":1706652375,"current_range_meters":0,"station_id":"ce4bh092rcd13ifvqd20","pricing_plan_id":"free"},{"bike_id":"558e929c-4df0-43dc-a510-9e43775110e0","system_id":"levelo_inurba_marseille","lat":43.304296,"lon":5.397513,"is_reserved":false,"is_disabled":false,"rental_uris":{"android":"levelo://app?vid=558e929c-4df0-43dc-a510-9e43775110e0","ios":"levelo://app?vid=558e929c-4df0-43dc-a510-9e43775110e0"},"vehicle_type_id":"4","last_reported":1706652375,"current_range_meters":20800,"station_id":"ce4bh092rcd13ifvqd20","pricing_plan_id":"free"},{"bike_id":"39a69b35-49af-4ff2-a03e-91ca92908be3","system_id":"levelo_inurba_marseille","lat":43.290995,"lon":5.381361,"is_reserved":false,"is_disabled":false,"rental_uris":{"android":"levelo://app?vid=39a69b35-49af-4ff2-a03e-91ca92908be3","ios":"levelo://app?vid=39a69b35-49af-4ff2-a03e-91ca92908be3"},"vehicle_type_id":"4","last_reported":1706652375,"current_range_meters":10000,"station_id":"ce4bh512rcd13ifvqe2g","pricing_plan_id":"free"},{"bike_id":"45c27a85-1e2f-4f26-a2da-7f8c52cc61ff","system_id":"levelo_inurba_marseille","lat":43.290975,"lon":5.381303,"is_reserved":false,"is_disabled":false,"rental_uris":{"android":"levelo://app?vid=45c27a85-1e2f-4f26-a2da-7f8c52cc61ff","ios":"levelo://app?vid=45c27a85-1e2f-4f26-a2da-7f8c52cc61ff"},"vehicle_type_id":"4","last_reported":1706652375,"current_range_meters":0,"station_id":"ce4bh512rcd13ifvqe2g","pricing_plan_id":"free"},{"bike_id":"2b5039d9-4c28-4b94-9e78-b7b5c21c01d4","system_id":"levelo_inurba_marseille","lat":43.2901,"lon":5.381269,"is_reserved":false,"is_disabled":false,"rental_uris":{"android":"levelo://app?vid=2b5039d9-4c28-4b94-9e78-b7b5c21c01d4","ios":"levelo://app?vid=2b5039d9-4c28-4b94-9e78-b7b5c21c01d4"},"vehicle_type_id":"4","last_reported":1706652375,"current_range_meters":18800,"station_id":"ce4bh4p2rcd13ifvqe1g","pricing_plan_id":"free"},{"bike_id":"0120c52d-e053-4dce-879b-253823978316","system_id":"levelo_inurba_marseille","lat":43.290995,"lon":5.381361,"is_reserved":false,"is_disabled":false,"rental_uris":{"android":"levelo://app?vid=0120c52d-e053-4dce-879b-253823978316","ios":"levelo://app?vid=0120c52d-e053-4dce-879b-253823978316"},"vehicle_type_id":"4","last_reported":1706652375,"current_range_meters":10800,"station_id":"ce4bh512rcd13ifvqe2g","pricing_plan_id":"free"},{"bike_id":"1cda45eb-e1de-4e0b-af66-aaf8b66fa953","system_id":"levelo_inurba_marseille","lat":43.297815,"lon":5.393548,"is_reserved":false,"is_disabled":false,"rental_uris":{"android":"levelo://app?vid=1cda45eb-e1de-4e0b-af66-aaf8b66fa953","ios":"levelo://app?vid=1cda45eb-e1de-4e0b-af66-aaf8b66fa953"},"vehicle_type_id":"4","last_reported":1706652375,"current_range_meters":30400,"station_id":"chh1huq6cuj3fo74tm60","pricing_plan_id":"free"},{"bike_id":"0881d2d9-aeb8-4abf-ba78-43949cd6c0c2","system_id":"levelo_inurba_marseille","lat":43.29792,"lon":5.39342,"is_reserved":false,"is_disabled":false,"rental_uris":{"android":"levelo://app?vid=0881d2d9-aeb8-4abf-ba78-43949cd6c0c2","ios":"levelo://app?vid=0881d2d9-aeb8-4abf-ba78-43949cd6c0c2"},"vehicle_type_id":"4","last_reported":1706652375,"current_range_meters":31600,"station_id":"","pricing_plan_id":"free"},{"bike_id":"e1144728-6a9c-4115-bd68-fbc4cfbd5978","system_id":"levelo_inurba_marseille","lat":43.297815,"lon":5.393548,"is_reserved":false,"is_disabled":false,"rental_uris":{"android":"levelo://app?vid=e1144728-6a9c-4115-bd68-fbc4cfbd5978","ios":"levelo://app?vid=e1144728-6a9c-4115-bd68-fbc4cfbd5978"},"vehicle_type_id":"4","last_reported":1706652375,"current_range_meters":18800,"station_id":"chh1huq6cuj3fo74tm60","pricing_plan_id":"free"},{"bike_id":"9c7a9839-bda3-4c8b-b68c-6ac3367bbc8e","system_id":"levelo_inurba_marseille","lat":43.330442,"lon":5.389148,"is_reserved":false,"is_disabled":false,"rental_uris":{"android":"levelo://app?vid=9c7a9839-bda3-4c8b-b68c-6ac3367bbc8e","ios":"levelo://app?vid=9c7a9839-bda3-4c8b-b68c-6ac3367bbc8e"},"vehicle_type_id":"4","last_reported":1706652375,"current_range_meters":24800,"station_id":"ce4bhr92rcd13ifvqhrg","pricing_plan_id":"free"},{"bike_id":"3888f80c-9d5f-4485-9905-375e86c010c2","system_id":"levelo_inurba_marseille","lat":43.289763,"lon":5.378273,"is_reserved":false,"is_disabled":false,"rental_uris":{"android":"levelo://app?vid=3888f80c-9d5f-4485-9905-375e86c010c2","ios":"levelo://app?vid=3888f80c-9d5f-4485-9905-375e86c010c2"},"vehicle_type_id":"4","last_reported":1706652375,"current_range_meters":23200,"station_id":"ce4bh9p2rcd13ifvqed0","pricing_plan_id":"free"},{"bike_id":"d886f36e-218b-497f-bf3c-7716ce70d8cc","system_id":"levelo_inurba_marseille","lat":43.330442,"lon":5.389148,"is_reserved":false,"is_disabled":false,"rental_uris":{"android":"levelo://app?vid=d886f36e-218b-497f-bf3c-7716ce70d8cc","ios":"levelo://app?vid=d886f36e-218b-497f-bf3c-7716ce70d8cc"},"vehicle_type_id":"4","last_reported":1706652375,"current_range_meters":2400,"station_id":"ce4bhr92rcd13ifvqhrg","pricing_plan_id":"free"},{"bike_id":"54340ca4-c385-46ed-b279-556ae3d847cc","system_id":"levelo_inurba_marseille","lat":43.330442,"lon":5.389148,"is_reserved":false,"is_disabled":false,"rental_uris":{"android":"levelo://app?vid=54340ca4-c385-46ed-b279-556ae3d847cc","ios":"levelo://app?vid=54340ca4-c385-46ed-b279-556ae3d847cc"},"vehicle_type_id":"4","last_reported":1706652375,"current_range_meters":13600,"station_id":"ce4bhr92rcd13ifvqhrg","pricing_plan_id":"free"},{"bike_id":"ce25c0cc-b379-4b1d-aa28-bc65b697b0fb","system_id":"levelo_inurba_marseille","lat":43.330442,"lon":5.389148,"is_reserved":false,"is_disabled":false,"rental_uris":{"android":"levelo://app?vid=ce25c0cc-b379-4b1d-aa28-bc65b697b0fb","ios":"levelo://app?vid=ce25c0cc-b379-4b1d-aa28-bc65b697b0fb"},"vehicle_type_id":"4","last_reported":1706652375,"current_range_meters":0,"station_id":"ce4bhr92rcd13ifvqhrg","pricing_plan_id":"free"},{"bike_id":"c11dfe63-9dbc-402f-84ab-8b8317733a63","system_id":"levelo_inurba_marseille","lat":43.330442,"lon":5.389148,"is_reserved":false,"is_disabled":false,"rental_uris":{"android":"levelo://app?vid=c11dfe63-9dbc-402f-84ab-8b8317733a63","ios":"levelo://app?vid=c11dfe63-9dbc-402f-84ab-8b8317733a63"},"vehicle_type_id":"4","last_reported":1706652375,"current_range_meters":0,"station_id":"ce4bhr92rcd13ifvqhrg","pricing_plan_id":"free"},{"bike_id":"43244c99-5db6-42f7-9190-d887fb9e70d9","system_id":"levelo_inurba_marseille","lat":43.33028,"lon":5.39065,"is_reserved":false,"is_disabled":false,"rental_uris":{"android":"levelo://app?vid=43244c99-5db6-42f7-9190-d887fb9e70d9","ios":"levelo://app?vid=43244c99-5db6-42f7-9190-d887fb9e70d9"},"vehicle_type_id":"4","last_reported":1706652375,"current_range_meters":18000,"station_id":"ce4bhr92rcd13ifvqhrg","pricing_plan_id":"free"},{"bike_id":"69be143d-2d2b-4a08-a569-4d0efe66087e","system_id":"levelo_inurba_marseille","lat":43.28856,"lon":5.358371,"is_reserved":false,"is_disabled":false,"rental_uris":{"android":"levelo://app?vid=69be143d-2d2b-4a08-a569-4d0efe66087e","ios":"levelo://app?vid=69be143d-2d2b-4a08-a569-4d0efe66087e"},"vehicle_type_id":"4","last_reported":1706652375,"current_range_meters":23600,"station_id":"ce4bhb12rcd13ifvqem0","pricing_plan_id":"free"},{"bike_id":"24bca81d-f76b-46b1-ad04-20c7073dfe30","system_id":"levelo_inurba_marseille","lat":43.28856,"lon":5.358371,"is_reserved":false,"is_disabled":false,"rental_uris":{"android":"levelo://app?vid=24bca81d-f76b-46b1-ad04-20c7073dfe30","ios":"levelo://app?vid=24bca81d-f76b-46b1-ad04-20c7073dfe30"},"vehicle_type_id":"4","last_reported":1706652375,"current_range_meters":26800,"station_id":"ce4bhb12rcd13ifvqem0","pricing_plan_id":"free"},{"bike_id":"6db454f5-9b5a-42d5-8e7e-cd67710e219d","system_id":"levelo_inurba_marseille","lat":43.28856,"lon":5.358371,"is_reserved":false,"is_disabled":false,"rental_uris":{"android":"levelo://app?vid=6db454f5-9b5a-42d5-8e7e-cd67710e219d","ios":"levelo://app?vid=6db454f5-9b5a-42d5-8e7e-cd67710e219d"},"vehicle_type_id":"4","last_reported":1706652375,"current_range_meters":3600,"station_id":"ce4bhb12rcd13ifvqem0","pricing_plan_id":"free"},{"bike_id":"a410b630-21f0-488e-b5e2-14f05f8552fd","system_id":"levelo_inurba_marseille","lat":43.28856,"lon":5.358371,"is_reserved":false,"is_disabled":false,"rental_uris":{"android":"levelo://app?vid=a410b630-21f0-488e-b5e2-14f05f8552fd","ios":"levelo://app?vid=a410b630-21f0-488e-b5e2-14f05f8552fd"},"vehicle_type_id":"4","last_reported":1706652375,"current_range_meters":21200,"station_id":"ce4bhb12rcd13ifvqem0","pricing_plan_id":"free"},{"bike_id":"081bc955-479d-4116-b8a4-1b4fbbc24c2e","system_id":"levelo_inurba_marseille","lat":43.312609,"lon":5.401662,"is_reserved":false,"is_disabled":false,"rental_uris":{"android":"levelo://app?vid=081bc955-479d-4116-b8a4-1b4fbbc24c2e","ios":"levelo://app?vid=081bc955-479d-4116-b8a4-1b4fbbc24c2e"},"vehicle_type_id":"4","last_reported":1706652375,"current_range_meters":28800,"station_id":"ce4bh092rcd13ifvqd30","pricing_plan_id":"free"},{"bike_id":"c9851bd7-15a6-40fb-9eb1-05e37b4d54d8","system_id":"levelo_inurba_marseille","lat":43.312609,"lon":5.401662,"is_reserved":false,"is_disabled":false,"rental_uris":{"android":"levelo://app?vid=c9851bd7-15a6-40fb-9eb1-05e37b4d54d8","ios":"levelo://app?vid=c9851bd7-15a6-40fb-9eb1-05e37b4d54d8"},"vehicle_type_id":"4","last_reported":1706652375,"current_range_meters":0,"station_id":"ce4bh092rcd13ifvqd30","pricing_plan_id":"free"},{"bike_id":"d73ac2b3-8363-46c6-b908-f4f3c8f7ee35","system_id":"levelo_inurba_marseille","lat":43.312609,"lon":5.401662,"is_reserved":false,"is_disabled":false,"rental_uris":{"android":"levelo://app?vid=d73ac2b3-8363-46c6-b908-f4f3c8f7ee35","ios":"levelo://app?vid=d73ac2b3-8363-46c6-b908-f4f3c8f7ee35"},"vehicle_type_id":"4","last_reported":1706652375,"current_range_meters":3600,"station_id":"ce4bh092rcd13ifvqd30","pricing_plan_id":"free"},{"bike_id":"9008239d-ce45-46c2-8381-3c063bd03566","system_id":"levelo_inurba_marseille","lat":43.337418,"lon":5.37459,"is_reserved":false,"is_disabled":false,"rental_uris":{"android":"levelo://app?vid=9008239d-ce45-46c2-8381-3c063bd03566","ios":"levelo://app?vid=9008239d-ce45-46c2-8381-3c063bd03566"},"vehicle_type_id":"4","last_reported":1706652375,"current_range_meters":17200,"station_id":"","pricing_plan_id":"free"},{"bike_id":"94c50e53-5bb1-4238-ba9f-94a274a90a23","system_id":"levelo_inurba_marseille","lat":43.309371,"lon":5.401449,"is_reserved":false,"is_disabled":false,"rental_uris":{"android":"levelo://app?vid=94c50e53-5bb1-4238-ba9f-94a274a90a23","ios":"levelo://app?vid=94c50e53-5bb1-4238-ba9f-94a274a90a23"},"vehicle_type_id":"4","last_reported":1706652375,"current_range_meters":18800,"station_id":"ce4bgvp2rcd13ifvqct0","pricing_plan_id":"free"},{"bike_id":"cbc70270-980a-48b9-94d4-53d6778afc7c","system_id":"levelo_inurba_marseille","lat":43.309371,"lon":5.401449,"is_reserved":false,"is_disabled":false,"rental_uris":{"android":"levelo://app?vid=cbc70270-980a-48b9-94d4-53d6778afc7c","ios":"levelo://app?vid=cbc70270-980a-48b9-94d4-53d6778afc7c"},"vehicle_type_id":"4","last_reported":1706652375,"current_range_meters":3600,"station_id":"ce4bgvp2rcd13ifvqct0","pricing_plan_id":"free"},{"bike_id":"ccd4d09d-aaef-44b5-8209-8a9183e20174","system_id":"levelo_inurba_marseille","lat":43.309371,"lon":5.401449,"is_reserved":false,"is_disabled":false,"rental_uris":{"android":"levelo://app?vid=ccd4d09d-aaef-44b5-8209-8a9183e20174","ios":"levelo://app?vid=ccd4d09d-aaef-44b5-8209-8a9183e20174"},"vehicle_type_id":"4","last_reported":1706652375,"current_range_meters":28000,"station_id":"ce4bgvp2rcd13ifvqct0","pricing_plan_id":"free"},{"bike_id":"9fa665cb-b57a-497b-914d-272056bde5b9","system_id":"levelo_inurba_marseille","lat":43.309371,"lon":5.401449,"is_reserved":false,"is_disabled":false,"rental_uris":{"android":"levelo://app?vid=9fa665cb-b57a-497b-914d-272056bde5b9","ios":"levelo://app?vid=9fa665cb-b57a-497b-914d-272056bde5b9"},"vehicle_type_id":"4","last_reported":1706652375,"current_range_meters":14000,"station_id":"ce4bgvp2rcd13ifvqct0","pricing_plan_id":"free"},{"bike_id":"18eaa504-1014-4da4-be71-938dfef0acb1","system_id":"levelo_inurba_marseille","lat":43.309371,"lon":5.401449,"is_reserved":false,"is_disabled":false,"rental_uris":{"android":"levelo://app?vid=18eaa504-1014-4da4-be71-938dfef0acb1","ios":"levelo://app?vid=18eaa504-1014-4da4-be71-938dfef0acb1"},"vehicle_type_id":"4","last_reported":1706652375,"current_range_meters":2000,"station_id":"ce4bgvp2rcd13ifvqct0","pricing_plan_id":"free"},{"bike_id":"3a63cf03-f3ec-48bc-b988-8a6cf6daaa0e","system_id":"levelo_inurba_marseille","lat":43.306412,"lon":5.401035,"is_reserved":false,"is_disabled":false,"rental_uris":{"android":"levelo://app?vid=3a63cf03-f3ec-48bc-b988-8a6cf6daaa0e","ios":"levelo://app?vid=3a63cf03-f3ec-48bc-b988-8a6cf6daaa0e"},"vehicle_type_id":"4","last_reported":1706652375,"current_range_meters":16400,"station_id":"ce4bh112rcd13ifvqda0","pricing_plan_id":"free"},{"bike_id":"202fdab1-5a2a-4f2b-8b56-87c4b948f3b7","system_id":"levelo_inurba_marseille","lat":43.309371,"lon":5.401449,"is_reserved":false,"is_disabled":false,"rental_uris":{"android":"levelo://app?vid=202fdab1-5a2a-4f2b-8b56-87c4b948f3b7","ios":"levelo://app?vid=202fdab1-5a2a-4f2b-8b56-87c4b948f3b7"},"vehicle_type_id":"4","last_reported":1706652375,"current_range_meters":12000,"station_id":"ce4bgvp2rcd13ifvqct0","pricing_plan_id":"free"},{"bike_id":"d56eddc5-3b96-4e84-b7f6-c2c3591a5c40","system_id":"levelo_inurba_marseille","lat":43.309371,"lon":5.401449,"is_reserved":false,"is_disabled":false,"rental_uris":{"android":"levelo://app?vid=d56eddc5-3b96-4e84-b7f6-c2c3591a5c40","ios":"levelo://app?vid=d56eddc5-3b96-4e84-b7f6-c2c3591a5c40"},"vehicle_type_id":"4","last_reported":1706652375,"current_range_meters":14000,"station_id":"ce4bgvp2rcd13ifvqct0","pricing_plan_id":"free"},{"bike_id":"62ea504b-d2ee-47ae-8aa9-75b64fd1b27a","system_id":"levelo_inurba_marseille","lat":43.309371,"lon":5.401449,"is_reserved":false,"is_disabled":false,"rental_uris":{"android":"levelo://app?vid=62ea504b-d2ee-47ae-8aa9-75b64fd1b27a","ios":"levelo://app?vid=62ea504b-d2ee-47ae-8aa9-75b64fd1b27a"},"vehicle_type_id":"4","last_reported":1706652375,"current_range_meters":20000,"station_id":"ce4bgvp2rcd13ifvqct0","pricing_plan_id":"free"},{"bike_id":"c3a3eb4a-b836-4652-9c3a-fdf607119e88","system_id":"levelo_inurba_marseille","lat":43.306412,"lon":5.401035,"is_reserved":false,"is_disabled":false,"rental_uris":{"android":"levelo://app?vid=c3a3eb4a-b836-4652-9c3a-fdf607119e88","ios":"levelo://app?vid=c3a3eb4a-b836-4652-9c3a-fdf607119e88"},"vehicle_type_id":"4","last_reported":1706652375,"current_range_meters":28800,"station_id":"ce4bh112rcd13ifvqda0","pricing_plan_id":"free"},{"bike_id":"8f471953-2835-4a95-a318-680b1fd9c1b1","system_id":"levelo_inurba_marseille","lat":43.309371,"lon":5.401449,"is_reserved":false,"is_disabled":false,"rental_uris":{"android":"levelo://app?vid=8f471953-2835-4a95-a318-680b1fd9c1b1","ios":"levelo://app?vid=8f471953-2835-4a95-a318-680b1fd9c1b1"},"vehicle_type_id":"4","last_reported":1706652375,"current_range_meters":18800,"station_id":"ce4bgvp2rcd13ifvqct0","pricing_plan_id":"free"},{"bike_id":"9568d549-cf4a-4a77-847d-e813f0d6444b","system_id":"levelo_inurba_marseille","lat":43.30645,"lon":5.40078,"is_reserved":false,"is_disabled":false,"rental_uris":{"android":"levelo://app?vid=9568d549-cf4a-4a77-847d-e813f0d6444b","ios":"levelo://app?vid=9568d549-cf4a-4a77-847d-e813f0d6444b"},"vehicle_type_id":"4","last_reported":1706652375,"current_range_meters":0,"station_id":"ce4bh112rcd13ifvqda0","pricing_plan_id":"free"},{"bike_id":"e7f5de90-1e40-49b1-b842-fb030d7f55ee","system_id":"levelo_inurba_marseille","lat":43.3093,"lon":5.40156,"is_reserved":false,"is_disabled":false,"rental_uris":{"android":"levelo://app?vid=e7f5de90-1e40-49b1-b842-fb030d7f55ee","ios":"levelo://app?vid=e7f5de90-1e40-49b1-b842-fb030d7f55ee"},"vehicle_type_id":"4","last_reported":1706652375,"current_range_meters":0,"station_id":"ce4bgvp2rcd13ifvqct0","pricing_plan_id":"free"},{"bike_id":"989a8306-5d64-41c0-80c3-439669ab7cf1","system_id":"levelo_inurba_marseille","lat":43.306412,"lon":5.401035,"is_reserved":false,"is_disabled":false,"rental_uris":{"android":"levelo://app?vid=989a8306-5d64-41c0-80c3-439669ab7cf1","ios":"levelo://app?vid=989a8306-5d64-41c0-80c3-439669ab7cf1"},"vehicle_type_id":"4","last_reported":1706652375,"current_range_meters":20000,"station_id":"ce4bh112rcd13ifvqda0","pricing_plan_id":"free"},{"bike_id":"b7d3b81d-d85a-44b5-a0c7-8f9c9f74639e","system_id":"levelo_inurba_marseille","lat":43.337587,"lon":5.374576,"is_reserved":false,"is_disabled":false,"rental_uris":{"android":"levelo://app?vid=b7d3b81d-d85a-44b5-a0c7-8f9c9f74639e","ios":"levelo://app?vid=b7d3b81d-d85a-44b5-a0c7-8f9c9f74639e"},"vehicle_type_id":"4","last_reported":1706652375,"current_range_meters":18000,"station_id":"","pricing_plan_id":"free"},{"bike_id":"0eecf6ab-a5d5-4bc0-b749-1002649d72b9","system_id":"levelo_inurba_marseille","lat":43.306412,"lon":5.401035,"is_reserved":false,"is_disabled":false,"rental_uris":{"android":"levelo://app?vid=0eecf6ab-a5d5-4bc0-b749-1002649d72b9","ios":"levelo://app?vid=0eecf6ab-a5d5-4bc0-b749-1002649d72b9"},"vehicle_type_id":"4","last_reported":1706652375,"current_range_meters":15200,"station_id":"ce4bh112rcd13ifvqda0","pricing_plan_id":"free"},{"bike_id":"65855cdf-6dc6-4343-9bff-3a881a3964d4","system_id":"levelo_inurba_marseille","lat":43.336134,"lon":5.410341,"is_reserved":false,"is_disabled":false,"rental_uris":{"android":"levelo://app?vid=65855cdf-6dc6-4343-9bff-3a881a3964d4","ios":"levelo://app?vid=65855cdf-6dc6-4343-9bff-3a881a3964d4"},"vehicle_type_id":"4","last_reported":1706652375,"current_range_meters":5200,"station_id":"ce4bhqh2rcd13ifvqhmg","pricing_plan_id":"free"},{"bike_id":"2fe24097-b1c2-4583-ba1f-cf8501171a4c","system_id":"levelo_inurba_marseille","lat":43.33755,"lon":5.37492,"is_reserved":false,"is_disabled":false,"rental_uris":{"android":"levelo://app?vid=2fe24097-b1c2-4583-ba1f-cf8501171a4c","ios":"levelo://app?vid=2fe24097-b1c2-4583-ba1f-cf8501171a4c"},"vehicle_type_id":"4","last_reported":1706652375,"current_range_meters":400,"station_id":"","pricing_plan_id":"free"},{"bike_id":"ba13a2ea-ea98-4228-a7a1-9309715ec0b3","system_id":"levelo_inurba_marseille","lat":43.30666,"lon":5.40094,"is_reserved":false,"is_disabled":false,"rental_uris":{"android":"levelo://app?vid=ba13a2ea-ea98-4228-a7a1-9309715ec0b3","ios":"levelo://app?vid=ba13a2ea-ea98-4228-a7a1-9309715ec0b3"},"vehicle_type_id":"4","last_reported":1706652375,"current_range_meters":12400,"station_id":"ce4bh112rcd13ifvqda0","pricing_plan_id":"free"},{"bike_id":"74876119-292b-46a6-9728-4ede9303c11d","system_id":"levelo_inurba_marseille","lat":43.306412,"lon":5.401035,"is_reserved":false,"is_disabled":false,"rental_uris":{"android":"levelo://app?vid=74876119-292b-46a6-9728-4ede9303c11d","ios":"levelo://app?vid=74876119-292b-46a6-9728-4ede9303c11d"},"vehicle_type_id":"4","last_reported":1706652375,"current_range_meters":16400,"station_id":"ce4bh112rcd13ifvqda0","pricing_plan_id":"free"},{"bike_id":"1facbbf3-baac-42f8-85eb-cb1e36f3e4b9","system_id":"levelo_inurba_marseille","lat":43.337573,"lon":5.37497,"is_reserved":false,"is_disabled":false,"rental_uris":{"android":"levelo://app?vid=1facbbf3-baac-42f8-85eb-cb1e36f3e4b9","ios":"levelo://app?vid=1facbbf3-baac-42f8-85eb-cb1e36f3e4b9"},"vehicle_type_id":"4","last_reported":1706652375,"current_range_meters":3600,"station_id":"","pricing_plan_id":"free"},{"bike_id":"42317b4c-ef6a-4c72-9d1d-4e9647790e67","system_id":"levelo_inurba_marseille","lat":43.306412,"lon":5.401035,"is_reserved":false,"is_disabled":false,"rental_uris":{"android":"levelo://app?vid=42317b4c-ef6a-4c72-9d1d-4e9647790e67","ios":"levelo://app?vid=42317b4c-ef6a-4c72-9d1d-4e9647790e67"},"vehicle_type_id":"4","last_reported":1706652375,"current_range_meters":21600,"station_id":"ce4bh112rcd13ifvqda0","pricing_plan_id":"free"},{"bike_id":"12568932-a9a7-4d52-8b2c-668683b75358","system_id":"levelo_inurba_marseille","lat":43.33762,"lon":5.3749,"is_reserved":false,"is_disabled":false,"rental_uris":{"android":"levelo://app?vid=12568932-a9a7-4d52-8b2c-668683b75358","ios":"levelo://app?vid=12568932-a9a7-4d52-8b2c-668683b75358"},"vehicle_type_id":"4","last_reported":1706652375,"current_range_meters":15600,"station_id":"","pricing_plan_id":"free"},{"bike_id":"9e52c3ed-dfff-49e8-aca3-da474314190d","system_id":"levelo_inurba_marseille","lat":43.30642,"lon":5.401031,"is_reserved":false,"is_disabled":false,"rental_uris":{"android":"levelo://app?vid=9e52c3ed-dfff-49e8-aca3-da474314190d","ios":"levelo://app?vid=9e52c3ed-dfff-49e8-aca3-da474314190d"},"vehicle_type_id":"4","last_reported":1706652375,"current_range_meters":24400,"station_id":"ce4bh112rcd13ifvqda0","pricing_plan_id":"free"},{"bike_id":"8a95035c-9179-48ea-8858-67db586f573a","system_id":"levelo_inurba_marseille","lat":43.301117,"lon":5.398795,"is_reserved":false,"is_disabled":false,"rental_uris":{"android":"levelo://app?vid=8a95035c-9179-48ea-8858-67db586f573a","ios":"levelo://app?vid=8a95035c-9179-48ea-8858-67db586f573a"},"vehicle_type_id":"4","last_reported":1706652375,"current_range_meters":26000,"station_id":"ce4bh0h2rcd13ifvqd40","pricing_plan_id":"free"},{"bike_id":"6b69d440-048b-4613-a91a-ab7f3f9d3f18","system_id":"levelo_inurba_marseille","lat":43.301117,"lon":5.398795,"is_reserved":false,"is_disabled":false,"rental_uris":{"android":"levelo://app?vid=6b69d440-048b-4613-a91a-ab7f3f9d3f18","ios":"levelo://app?vid=6b69d440-048b-4613-a91a-ab7f3f9d3f18"},"vehicle_type_id":"4","last_reported":1706652375,"current_range_meters":15200,"station_id":"ce4bh0h2rcd13ifvqd40","pricing_plan_id":"free"},{"bike_id":"55f7aa42-6920-44bf-af78-550869d4b484","system_id":"levelo_inurba_marseille","lat":43.301117,"lon":5.398795,"is_reserved":false,"is_disabled":false,"rental_uris":{"android":"levelo://app?vid=55f7aa42-6920-44bf-af78-550869d4b484","ios":"levelo://app?vid=55f7aa42-6920-44bf-af78-550869d4b484"},"vehicle_type_id":"4","last_reported":1706652375,"current_range_meters":16800,"station_id":"ce4bh0h2rcd13ifvqd40","pricing_plan_id":"free"},{"bike_id":"e94f11de-6c7d-498f-8abf-d170e6a84a70","system_id":"levelo_inurba_marseille","lat":43.301117,"lon":5.398795,"is_reserved":false,"is_disabled":false,"rental_uris":{"android":"levelo://app?vid=e94f11de-6c7d-498f-8abf-d170e6a84a70","ios":"levelo://app?vid=e94f11de-6c7d-498f-8abf-d170e6a84a70"},"vehicle_type_id":"4","last_reported":1706652375,"current_range_meters":22400,"station_id":"ce4bh0h2rcd13ifvqd40","pricing_plan_id":"free"},{"bike_id":"24cc31c5-1c33-4f46-b261-588e82e42f2d","system_id":"levelo_inurba_marseille","lat":43.301117,"lon":5.398795,"is_reserved":false,"is_disabled":false,"rental_uris":{"android":"levelo://app?vid=24cc31c5-1c33-4f46-b261-588e82e42f2d","ios":"levelo://app?vid=24cc31c5-1c33-4f46-b261-588e82e42f2d"},"vehicle_type_id":"4","last_reported":1706652375,"current_range_meters":26400,"station_id":"ce4bh0h2rcd13ifvqd40","pricing_plan_id":"free"},{"bike_id":"5dbefc5b-1b28-4470-8c8c-aae7bfc29848","system_id":"levelo_inurba_marseille","lat":43.28727,"lon":5.36078,"is_reserved":false,"is_disabled":false,"rental_uris":{"android":"levelo://app?vid=5dbefc5b-1b28-4470-8c8c-aae7bfc29848","ios":"levelo://app?vid=5dbefc5b-1b28-4470-8c8c-aae7bfc29848"},"vehicle_type_id":"4","last_reported":1706652375,"current_range_meters":6400,"station_id":"cki0cbj6b192h4jlfktg","pricing_plan_id":"free"},{"bike_id":"b324fdab-7869-4494-93a6-04c80673bdea","system_id":"levelo_inurba_marseille","lat":43.28727,"lon":5.36078,"is_reserved":false,"is_disabled":false,"rental_uris":{"android":"levelo://app?vid=b324fdab-7869-4494-93a6-04c80673bdea","ios":"levelo://app?vid=b324fdab-7869-4494-93a6-04c80673bdea"},"vehicle_type_id":"4","last_reported":1706652375,"current_range_meters":16400,"station_id":"cki0cbj6b192h4jlfktg","pricing_plan_id":"free"},{"bike_id":"c959d4c6-6ed9-4ea9-b8e6-9c9878134515","system_id":"levelo_inurba_marseille","lat":43.28727,"lon":5.36078,"is_reserved":false,"is_disabled":false,"rental_uris":{"android":"levelo://app?vid=c959d4c6-6ed9-4ea9-b8e6-9c9878134515","ios":"levelo://app?vid=c959d4c6-6ed9-4ea9-b8e6-9c9878134515"},"vehicle_type_id":"4","last_reported":1706652375,"current_range_meters":8400,"station_id":"cki0cbj6b192h4jlfktg","pricing_plan_id":"free"},{"bike_id":"d306605e-b014-4f4b-91ae-3d9512b93567","system_id":"levelo_inurba_marseille","lat":43.28727,"lon":5.36078,"is_reserved":false,"is_disabled":false,"rental_uris":{"android":"levelo://app?vid=d306605e-b014-4f4b-91ae-3d9512b93567","ios":"levelo://app?vid=d306605e-b014-4f4b-91ae-3d9512b93567"},"vehicle_type_id":"4","last_reported":1706652375,"current_range_meters":15600,"station_id":"cki0cbj6b192h4jlfktg","pricing_plan_id":"free"},{"bike_id":"693fbd6e-454a-4e05-90cd-5c39d1abefc4","system_id":"levelo_inurba_marseille","lat":43.30459,"lon":5.40065,"is_reserved":false,"is_disabled":false,"rental_uris":{"android":"levelo://app?vid=693fbd6e-454a-4e05-90cd-5c39d1abefc4","ios":"levelo://app?vid=693fbd6e-454a-4e05-90cd-5c39d1abefc4"},"vehicle_type_id":"4","last_reported":1706652375,"current_range_meters":26000,"station_id":"","pricing_plan_id":"free"},{"bike_id":"0555e4d1-181a-4cf9-a2af-e40de8c12013","system_id":"levelo_inurba_marseille","lat":43.28727,"lon":5.36078,"is_reserved":false,"is_disabled":false,"rental_uris":{"android":"levelo://app?vid=0555e4d1-181a-4cf9-a2af-e40de8c12013","ios":"levelo://app?vid=0555e4d1-181a-4cf9-a2af-e40de8c12013"},"vehicle_type_id":"4","last_reported":1706652375,"current_range_meters":12800,"station_id":"cki0cbj6b192h4jlfktg","pricing_plan_id":"free"},{"bike_id":"748fdd72-645a-4b7f-9598-6ad95e6252d2","system_id":"levelo_inurba_marseille","lat":43.28727,"lon":5.36078,"is_reserved":false,"is_disabled":false,"rental_uris":{"android":"levelo://app?vid=748fdd72-645a-4b7f-9598-6ad95e6252d2","ios":"levelo://app?vid=748fdd72-645a-4b7f-9598-6ad95e6252d2"},"vehicle_type_id":"4","last_reported":1706652375,"current_range_meters":10400,"station_id":"cki0cbj6b192h4jlfktg","pricing_plan_id":"free"},{"bike_id":"533dd0a7-f715-495b-8838-0d3d3ecf7e8d","system_id":"levelo_inurba_marseille","lat":43.28727,"lon":5.36078,"is_reserved":false,"is_disabled":false,"rental_uris":{"android":"levelo://app?vid=533dd0a7-f715-495b-8838-0d3d3ecf7e8d","ios":"levelo://app?vid=533dd0a7-f715-495b-8838-0d3d3ecf7e8d"},"vehicle_type_id":"4","last_reported":1706652375,"current_range_meters":9600,"station_id":"cki0cbj6b192h4jlfktg","pricing_plan_id":"free"},{"bike_id":"49e4f283-a523-4d4c-994a-dd111cc80d86","system_id":"levelo_inurba_marseille","lat":43.28727,"lon":5.36078,"is_reserved":false,"is_disabled":false,"rental_uris":{"android":"levelo://app?vid=49e4f283-a523-4d4c-994a-dd111cc80d86","ios":"levelo://app?vid=49e4f283-a523-4d4c-994a-dd111cc80d86"},"vehicle_type_id":"4","last_reported":1706652375,"current_range_meters":1200,"station_id":"cki0cbj6b192h4jlfktg","pricing_plan_id":"free"},{"bike_id":"c856ed01-6d73-42cc-b6b2-b04c95bd0898","system_id":"levelo_inurba_marseille","lat":43.286593,"lon":5.363346,"is_reserved":false,"is_disabled":false,"rental_uris":{"android":"levelo://app?vid=c856ed01-6d73-42cc-b6b2-b04c95bd0898","ios":"levelo://app?vid=c856ed01-6d73-42cc-b6b2-b04c95bd0898"},"vehicle_type_id":"4","last_reported":1706652375,"current_range_meters":25600,"station_id":"ce4bhah2rcd13ifvqej0","pricing_plan_id":"free"},{"bike_id":"2b1bb21e-b525-48b3-b80f-714724fb2985","system_id":"levelo_inurba_marseille","lat":43.29881,"lon":5.39728,"is_reserved":false,"is_disabled":false,"rental_uris":{"android":"levelo://app?vid=2b1bb21e-b525-48b3-b80f-714724fb2985","ios":"levelo://app?vid=2b1bb21e-b525-48b3-b80f-714724fb2985"},"vehicle_type_id":"4","last_reported":1706652375,"current_range_meters":23200,"station_id":"","pricing_plan_id":"free"},{"bike_id":"36cba921-9402-4dce-a231-1357ff3c2915","system_id":"levelo_inurba_marseille","lat":43.286961,"lon":5.373785,"is_reserved":false,"is_disabled":false,"rental_uris":{"android":"levelo://app?vid=36cba921-9402-4dce-a231-1357ff3c2915","ios":"levelo://app?vid=36cba921-9402-4dce-a231-1357ff3c2915"},"vehicle_type_id":"4","last_reported":1706652375,"current_range_meters":22400,"station_id":"ce4bh3p2rcd13ifvqdq0","pricing_plan_id":"free"},{"bike_id":"81b39ed8-4c1a-4f20-8266-1b24f68270d9","system_id":"levelo_inurba_marseille","lat":43.286961,"lon":5.373785,"is_reserved":false,"is_disabled":false,"rental_uris":{"android":"levelo://app?vid=81b39ed8-4c1a-4f20-8266-1b24f68270d9","ios":"levelo://app?vid=81b39ed8-4c1a-4f20-8266-1b24f68270d9"},"vehicle_type_id":"4","last_reported":1706652375,"current_range_meters":5200,"station_id":"ce4bh3p2rcd13ifvqdq0","pricing_plan_id":"free"},{"bike_id":"72313d50-1760-4dc5-88bc-f11ae7624464","system_id":"levelo_inurba_marseille","lat":43.286591,"lon":5.363346,"is_reserved":false,"is_disabled":false,"rental_uris":{"android":"levelo://app?vid=72313d50-1760-4dc5-88bc-f11ae7624464","ios":"levelo://app?vid=72313d50-1760-4dc5-88bc-f11ae7624464"},"vehicle_type_id":"4","last_reported":1706652375,"current_range_meters":22000,"station_id":"ce4bhah2rcd13ifvqej0","pricing_plan_id":"free"},{"bike_id":"14d0ef62-1764-41e7-af4c-4664d45255ba","system_id":"levelo_inurba_marseille","lat":43.295748,"lon":5.37522,"is_reserved":false,"is_disabled":false,"rental_uris":{"android":"levelo://app?vid=14d0ef62-1764-41e7-af4c-4664d45255ba","ios":"levelo://app?vid=14d0ef62-1764-41e7-af4c-4664d45255ba"},"vehicle_type_id":"4","last_reported":1706652375,"current_range_meters":24000,"station_id":"ce4bgh92rcd13ifvqb50","pricing_plan_id":"free"},{"bike_id":"2ad15ac5-1340-4112-8f06-f114e1897222","system_id":"levelo_inurba_marseille","lat":43.286961,"lon":5.373785,"is_reserved":false,"is_disabled":false,"rental_uris":{"android":"levelo://app?vid=2ad15ac5-1340-4112-8f06-f114e1897222","ios":"levelo://app?vid=2ad15ac5-1340-4112-8f06-f114e1897222"},"vehicle_type_id":"4","last_reported":1706652375,"current_range_meters":11600,"station_id":"ce4bh3p2rcd13ifvqdq0","pricing_plan_id":"free"},{"bike_id":"9e3a5539-d26c-4a6e-a0c1-1c37c2d6eb87","system_id":"levelo_inurba_marseille","lat":43.286593,"lon":5.363346,"is_reserved":false,"is_disabled":false,"rental_uris":{"android":"levelo://app?vid=9e3a5539-d26c-4a6e-a0c1-1c37c2d6eb87","ios":"levelo://app?vid=9e3a5539-d26c-4a6e-a0c1-1c37c2d6eb87"},"vehicle_type_id":"4","last_reported":1706652375,"current_range_meters":22000,"station_id":"ce4bhah2rcd13ifvqej0","pricing_plan_id":"free"},{"bike_id":"e6dc9471-46c8-4b24-b333-e97f0817de4d","system_id":"levelo_inurba_marseille","lat":43.286593,"lon":5.363346,"is_reserved":false,"is_disabled":false,"rental_uris":{"android":"levelo://app?vid=e6dc9471-46c8-4b24-b333-e97f0817de4d","ios":"levelo://app?vid=e6dc9471-46c8-4b24-b333-e97f0817de4d"},"vehicle_type_id":"4","last_reported":1706652375,"current_range_meters":26800,"station_id":"ce4bhah2rcd13ifvqej0","pricing_plan_id":"free"},{"bike_id":"9b5bc8d0-2cdc-4de0-8e84-2efaa9340f1d","system_id":"levelo_inurba_marseille","lat":43.294694,"lon":5.393094,"is_reserved":false,"is_disabled":false,"rental_uris":{"android":"levelo://app?vid=9b5bc8d0-2cdc-4de0-8e84-2efaa9340f1d","ios":"levelo://app?vid=9b5bc8d0-2cdc-4de0-8e84-2efaa9340f1d"},"vehicle_type_id":"4","last_reported":1706652375,"current_range_meters":6000,"station_id":"","pricing_plan_id":"free"},{"bike_id":"f8caade3-fc87-4260-a540-7596ca4f6c09","system_id":"levelo_inurba_marseille","lat":43.286593,"lon":5.363346,"is_reserved":false,"is_disabled":false,"rental_uris":{"android":"levelo://app?vid=f8caade3-fc87-4260-a540-7596ca4f6c09","ios":"levelo://app?vid=f8caade3-fc87-4260-a540-7596ca4f6c09"},"vehicle_type_id":"4","last_reported":1706652375,"current_range_meters":1600,"station_id":"ce4bhah2rcd13ifvqej0","pricing_plan_id":"free"},{"bike_id":"23a57e18-ef7a-43ef-a961-5b33e0876cce","system_id":"levelo_inurba_marseille","lat":43.295196,"lon":5.39397,"is_reserved":false,"is_disabled":false,"rental_uris":{"android":"levelo://app?vid=23a57e18-ef7a-43ef-a961-5b33e0876cce","ios":"levelo://app?vid=23a57e18-ef7a-43ef-a961-5b33e0876cce"},"vehicle_type_id":"4","last_reported":1706652375,"current_range_meters":13600,"station_id":"ce4bh292rcd13ifvqdf0","pricing_plan_id":"free"},{"bike_id":"5352c6c1-2a50-4028-9fc6-0826221167a3","system_id":"levelo_inurba_marseille","lat":43.286961,"lon":5.373785,"is_reserved":false,"is_disabled":false,"rental_uris":{"android":"levelo://app?vid=5352c6c1-2a50-4028-9fc6-0826221167a3","ios":"levelo://app?vid=5352c6c1-2a50-4028-9fc6-0826221167a3"},"vehicle_type_id":"4","last_reported":1706652375,"current_range_meters":24800,"station_id":"ce4bh3p2rcd13ifvqdq0","pricing_plan_id":"free"},{"bike_id":"d8159085-c152-4e2a-868b-2d42ce30a801","system_id":"levelo_inurba_marseille","lat":43.290345,"lon":5.38646,"is_reserved":false,"is_disabled":false,"rental_uris":{"android":"levelo://app?vid=d8159085-c152-4e2a-868b-2d42ce30a801","ios":"levelo://app?vid=d8159085-c152-4e2a-868b-2d42ce30a801"},"vehicle_type_id":"4","last_reported":1706652375,"current_range_meters":22000,"station_id":"ce4bh4p2rcd13ifvqe0g","pricing_plan_id":"free"},{"bike_id":"7ee04a6a-cb02-4e3c-b72c-c27817e12213","system_id":"levelo_inurba_marseille","lat":43.289307,"lon":5.38406,"is_reserved":false,"is_disabled":false,"rental_uris":{"android":"levelo://app?vid=7ee04a6a-cb02-4e3c-b72c-c27817e12213","ios":"levelo://app?vid=7ee04a6a-cb02-4e3c-b72c-c27817e12213"},"vehicle_type_id":"4","last_reported":1706652375,"current_range_meters":7600,"station_id":"ce4bh612rcd13ifvqe6g","pricing_plan_id":"free"},{"bike_id":"a84ed745-a483-4829-af47-c794bfbe700c","system_id":"levelo_inurba_marseille","lat":43.290345,"lon":5.38646,"is_reserved":false,"is_disabled":false,"rental_uris":{"android":"levelo://app?vid=a84ed745-a483-4829-af47-c794bfbe700c","ios":"levelo://app?vid=a84ed745-a483-4829-af47-c794bfbe700c"},"vehicle_type_id":"4","last_reported":1706652375,"current_range_meters":0,"station_id":"ce4bh4p2rcd13ifvqe0g","pricing_plan_id":"free"},{"bike_id":"8d328270-324c-40d0-9a61-32652d5d8de6","system_id":"levelo_inurba_marseille","lat":43.290304,"lon":5.386432,"is_reserved":false,"is_disabled":false,"rental_uris":{"android":"levelo://app?vid=8d328270-324c-40d0-9a61-32652d5d8de6","ios":"levelo://app?vid=8d328270-324c-40d0-9a61-32652d5d8de6"},"vehicle_type_id":"4","last_reported":1706652375,"current_range_meters":12000,"station_id":"ce4bh4p2rcd13ifvqe0g","pricing_plan_id":"free"},{"bike_id":"e2775a09-e572-471d-b250-5e2f864af41f","system_id":"levelo_inurba_marseille","lat":43.302759,"lon":5.400793,"is_reserved":false,"is_disabled":false,"rental_uris":{"android":"levelo://app?vid=e2775a09-e572-471d-b250-5e2f864af41f","ios":"levelo://app?vid=e2775a09-e572-471d-b250-5e2f864af41f"},"vehicle_type_id":"4","last_reported":1706652375,"current_range_meters":0,"station_id":"ce4bgvh2rcd13ifvqcs0","pricing_plan_id":"free"},{"bike_id":"4d975b91-8610-4c84-b0a7-31bfcd032afa","system_id":"levelo_inurba_marseille","lat":43.29031,"lon":5.38653,"is_reserved":false,"is_disabled":false,"rental_uris":{"android":"levelo://app?vid=4d975b91-8610-4c84-b0a7-31bfcd032afa","ios":"levelo://app?vid=4d975b91-8610-4c84-b0a7-31bfcd032afa"},"vehicle_type_id":"4","last_reported":1706652375,"current_range_meters":7200,"station_id":"ce4bh4p2rcd13ifvqe0g","pricing_plan_id":"free"},{"bike_id":"7b22ae11-7d60-422c-9043-e0231249ff83","system_id":"levelo_inurba_marseille","lat":43.302759,"lon":5.400793,"is_reserved":false,"is_disabled":false,"rental_uris":{"android":"levelo://app?vid=7b22ae11-7d60-422c-9043-e0231249ff83","ios":"levelo://app?vid=7b22ae11-7d60-422c-9043-e0231249ff83"},