{"last_updated":1737742317,"ttl":60,"version":"2.2","data":{"bikes":[{"bike_id":"71025e83-daff-40eb-8f70-b8e1fc9300fb","system_id":"levelo_inurba_marseille","lat":43.22928,"lon":5.3538,"is_reserved":false,"is_disabled":false,"rental_uris":{"android":"levelo://app?vid=71025e83-daff-40eb-8f70-b8e1fc9300fb","ios":"levelo://app?vid=71025e83-daff-40eb-8f70-b8e1fc9300fb"},"vehicle_type_id":"4","last_reported":1737742317,"current_range_meters":38800,"station_id":"cpo3532slgdg3j2ikp40","pricing_plan_id":"cebpf4jnsgd1na2vs0mg"},{"bike_id":"f18fdc0a-d704-42c1-a023-fb982e3b88fe","system_id":"levelo_inurba_marseille","lat":43.29306,"lon":5.37172,"is_reserved":false,"is_disabled":false,"rental_uris":{"android":"levelo://app?vid=f18fdc0a-d704-42c1-a023-fb982e3b88fe","ios":"levelo://app?vid=f18fdc0a-d704-42c1-a023-fb982e3b88fe"},"vehicle_type_id":"4","last_reported":1737742317,"current_range_meters":38800,"station_id":"ce4bgh92rcd13ifvqb40","pricing_plan_id":"cebpf4jnsgd1na2vs0mg"},{"bike_id":"699c36c5-01ed-44ee-95a3-7ca2434d7b39","system_id":"levelo_inurba_marseille","lat":43.27069,"lon":5.42281,"is_reserved":false,"is_disabled":false,"rental_uris":{"android":"levelo://app?vid=699c36c5-01ed-44ee-95a3-7ca2434d7b39","ios":"levelo://app?vid=699c36c5-01ed-44ee-95a3-7ca2434d7b39"},"vehicle_type_id":"4","last_reported":1737742317,"current_range_meters":38000,"station_id":"ce4bhk92rcd13ifvqgb0","pricing_plan_id":"cebpf4jnsgd1na2vs0mg"},{"bike_id":"b8616eb9-d9e4-460f-807e-1357c1bfc7f2","system_id":"levelo_inurba_marseille","lat":43.24389,"lon":5.37054,"is_reserved":false,"is_disabled":false,"rental_uris":{"android":"levelo://app?vid=b8616eb9-d9e4-460f-807e-1357c1bfc7f2","ios":"levelo://app?vid=b8616eb9-d9e4-460f-807e-1357c1bfc7f2"},"vehicle_type_id":"4","last_reported":1737742317,"current_range_meters":38800,"station_id":"ce4bhhh2rcd13ifvqfk0","pricing_plan_id":"cebpf4jnsgd1na2vs0mg"},{"bike_id":"de1552f3-ec22-48bc-ae5c-8997b03c69f8","system_id":"levelo_inurba_marseille","lat":43.31885,"lon":5.40739,"is_reserved":false,"is_disabled":false,"rental_uris":{"android":"levelo://app?vid=de1552f3-ec22-48bc-ae5c-8997b03c69f8","ios":"levelo://app?vid=de1552f3-ec22-48bc-ae5c-8997b03c69f8"},"vehicle_type_id":"4","last_reported":1737742317,"current_range_meters":30400,"station_id":"ce4bhq12rcd13ifvqhig","pricing_plan_id":"cebpf4jnsgd1na2vs0mg"},{"bike_id":"c648820d-c832-42f5-bf4e-3bfa6ead69a6","system_id":"levelo_inurba_marseille","lat":43.28354,"lon":5.38117,"is_reserved":false,"is_disabled":false,"rental_uris":{"android":"levelo://app?vid=c648820d-c832-42f5-bf4e-3bfa6ead69a6","ios":"levelo://app?vid=c648820d-c832-42f5-bf4e-3bfa6ead69a6"},"vehicle_type_id":"4","last_reported":1737742317,"current_range_meters":25200,"station_id":"ce4bh412rcd13ifvqdr0","pricing_plan_id":"cebpf4jnsgd1na2vs0mg"},{"bike_id":"0793f05d-0029-4d54-a0fe-9c0436426db5","system_id":"levelo_inurba_marseille","lat":43.23196,"lon":5.35551,"is_reserved":false,"is_disabled":false,"rental_uris":{"android":"levelo://app?vid=0793f05d-0029-4d54-a0fe-9c0436426db5","ios":"levelo://app?vid=0793f05d-0029-4d54-a0fe-9c0436426db5"},"vehicle_type_id":"4","last_reported":1737742317,"current_range_meters":34800,"station_id":"ce4bhu92rcd13ifvqi70","pricing_plan_id":"cebpf4jnsgd1na2vs0mg"},{"bike_id":"2e69219e-a32a-45dd-bfbe-a39a3389fa1c","system_id":"levelo_inurba_marseille","lat":43.25077,"lon":5.39515,"is_reserved":false,"is_disabled":false,"rental_uris":{"android":"levelo://app?vid=2e69219e-a32a-45dd-bfbe-a39a3389fa1c","ios":"levelo://app?vid=2e69219e-a32a-45dd-bfbe-a39a3389fa1c"},"vehicle_type_id":"4","last_reported":1737742317,"current_range_meters":8000,"station_id":"ce4bhm12rcd13ifvqgkg","pricing_plan_id":"cebpf4jnsgd1na2vs0mg"},{"bike_id":"4914872c-162c-4b5d-a9af-cff65f389580","system_id":"levelo_inurba_marseille","lat":43.29598,"lon":5.38102,"is_reserved":false,"is_disabled":true,"rental_uris":{"android":"levelo://app?vid=4914872c-162c-4b5d-a9af-cff65f389580","ios":"levelo://app?vid=4914872c-162c-4b5d-a9af-cff65f389580"},"vehicle_type_id":"4","last_reported":1737742317,"current_range_meters":4000,"station_id":"ce4bgl12rcd13ifvqbo0","pricing_plan_id":"cebpf4jnsgd1na2vs0mg"},{"bike_id":"78f1bcbe-297f-4d89-be9d-ff7c664d65b5","system_id":"levelo_inurba_marseille","lat":43.27196,"lon":5.40976,"is_reserved":false,"is_disabled":false,"rental_uris":{"android":"levelo://app?vid=78f1bcbe-297f-4d89-be9d-ff7c664d65b5","ios":"levelo://app?vid=78f1bcbe-297f-4d89-be9d-ff7c664d65b5"},"vehicle_type_id":"4","last_reported":1737742317,"current_range_meters":12400,"station_id":"ce4bhl12rcd13ifvqgf0","pricing_plan_id":"cebpf4jnsgd1na2vs0mg"},{"bike_id":"8404d416-0cdd-42b3-b1d9-4024b2770bb7","system_id":"levelo_inurba_marseille","lat":43.2621,"lon":5.37456,"is_reserved":false,"is_disabled":false,"rental_uris":{"android":"levelo://app?vid=8404d416-0cdd-42b3-b1d9-4024b2770bb7","ios":"levelo://app?vid=8404d416-0cdd-42b3-b1d9-4024b2770bb7"},"vehicle_type_id":"4","last_reported":1737742317,"current_range_meters":5600,"station_id":"ce4bhgp2rcd13ifvqfc0","pricing_plan_id":"cebpf4jnsgd1na2vs0mg"},{"bike_id":"0bbd3c65-1c03-47b6-a244-6ba454b4de06","system_id":"levelo_inurba_marseille","lat":43.29845,"lon":5.36274,"is_reserved":false,"is_disabled":false,"rental_uris":{"android":"levelo://app?vid=0bbd3c65-1c03-47b6-a244-6ba454b4de06","ios":"levelo://app?vid=0bbd3c65-1c03-47b6-a244-6ba454b4de06"},"vehicle_type_id":"4","last_reported":1737742317,"current_range_meters":26800,"station_id":"ce4bgpp2rcd13ifvqc3g","pricing_plan_id":"cebpf4jnsgd1na2vs0mg"},{"bike_id":"eadecfe8-1294-4c6c-a688-c77357028c6c","system_id":"levelo_inurba_marseille","lat":43.284,"lon":5.37541,"is_reserved":false,"is_disabled":false,"rental_uris":{"android":"levelo://app?vid=eadecfe8-1294-4c6c-a688-c77357028c6c","ios":"levelo://app?vid=eadecfe8-1294-4c6c-a688-c77357028c6c"},"vehicle_type_id":"4","last_reported":1737742317,"current_range_meters":36800,"station_id":"ce4bh412rcd13ifvqds0","pricing_plan_id":"cebpf4jnsgd1na2vs0mg"},{"bike_id":"6e0e02f5-b0ae-450f-ad77-51511a2e44cf","system_id":"levelo_inurba_marseille","lat":43.30934,"lon":5.40156,"is_reserved":false,"is_disabled":true,"rental_uris":{"android":"levelo://app?vid=6e0e02f5-b0ae-450f-ad77-51511a2e44cf","ios":"levelo://app?vid=6e0e02f5-b0ae-450f-ad77-51511a2e44cf"},"vehicle_type_id":"4","last_reported":1737742317,"current_range_meters":24400,"station_id":"ce4bgvp2rcd13ifvqct0","pricing_plan_id":"cebpf4jnsgd1na2vs0mg"},{"bike_id":"49a9ee61-fc08-482e-bca8-fb148468e4e3","system_id":"levelo_inurba_marseille","lat":43.29049,"lon":5.37193,"is_reserved":false,"is_disabled":false,"rental_uris":{"android":"levelo://app?vid=49a9ee61-fc08-482e-bca8-fb148468e4e3","ios":"levelo://app?vid=49a9ee61-fc08-482e-bca8-fb148468e4e3"},"vehicle_type_id":"4","last_reported":1737742317,"current_range_meters":35600,"station_id":"ce4bh5p2rcd13ifvqe4g","pricing_plan_id":"cebpf4jnsgd1na2vs0mg"},{"bike_id":"7cf33f2c-4a86-4507-ad8b-243c330e4deb","system_id":"levelo_inurba_marseille","lat":43.28609,"lon":5.37069,"is_reserved":false,"is_disabled":false,"rental_uris":{"android":"levelo://app?vid=7cf33f2c-4a86-4507-ad8b-243c330e4deb","ios":"levelo://app?vid=7cf33f2c-4a86-4507-ad8b-243c330e4deb"},"vehicle_type_id":"4","last_reported":1737742317,"current_range_meters":27600,"station_id":"ce4bht12rcd13ifvqi60","pricing_plan_id":"cebpf4jnsgd1na2vs0mg"},{"bike_id":"8f3a31ee-eba9-4d47-8a31-01a47935bdbf","system_id":"levelo_inurba_marseille","lat":43.29301,"lon":5.37444,"is_reserved":false,"is_disabled":false,"rental_uris":{"android":"levelo://app?vid=8f3a31ee-eba9-4d47-8a31-01a47935bdbf","ios":"levelo://app?vid=8f3a31ee-eba9-4d47-8a31-01a47935bdbf"},"vehicle_type_id":"4","last_reported":1737742317,"current_range_meters":37600,"station_id":"ce4bgi12rcd13ifvqb70","pricing_plan_id":"cebpf4jnsgd1na2vs0mg"},{"bike_id":"59484627-97e0-4b2b-b7b6-2023bd4dd456","system_id":"levelo_inurba_marseille","lat":43.29419,"lon":5.38629,"is_reserved":false,"is_disabled":false,"rental_uris":{"android":"levelo://app?vid=59484627-97e0-4b2b-b7b6-2023bd4dd456","ios":"levelo://app?vid=59484627-97e0-4b2b-b7b6-2023bd4dd456"},"vehicle_type_id":"4","last_reported":1737742317,"current_range_meters":38800,"station_id":"ce4bh2h2rcd13ifvqdh0","pricing_plan_id":"cebpf4jnsgd1na2vs0mg"},{"bike_id":"6df7f438-e9a2-4488-b4c5-ad9c2cc83bb9","system_id":"levelo_inurba_marseille","lat":43.26044,"lon":5.37557,"is_reserved":false,"is_disabled":false,"rental_uris":{"android":"levelo://app?vid=6df7f438-e9a2-4488-b4c5-ad9c2cc83bb9","ios":"levelo://app?vid=6df7f438-e9a2-4488-b4c5-ad9c2cc83bb9"},"vehicle_type_id":"4","last_reported":1737742317,"current_range_meters":36400,"station_id":"ce4bhgh2rcd13ifvqfa0","pricing_plan_id":"cebpf4jnsgd1na2vs0mg"},{"bike_id":"a6b6bb4c-b189-4df2-a7a0-26668100e727","system_id":"levelo_inurba_marseille","lat":43.29047,"lon":5.35902,"is_reserved":false,"is_disabled":false,"rental_uris":{"android":"levelo://app?vid=a6b6bb4c-b189-4df2-a7a0-26668100e727","ios":"levelo://app?vid=a6b6bb4c-b189-4df2-a7a0-26668100e727"},"vehicle_type_id":"4","last_reported":1737742317,"current_range_meters":8000,"station_id":"ce4bha92rcd13ifvqeg0","pricing_plan_id":"cebpf4jnsgd1na2vs0mg"},{"bike_id":"287567fb-911e-42c2-833a-a244acbef797","system_id":"levelo_inurba_marseille","lat":43.29064,"lon":5.37237,"is_reserved":false,"is_disabled":false,"rental_uris":{"android":"levelo://app?vid=287567fb-911e-42c2-833a-a244acbef797","ios":"levelo://app?vid=287567fb-911e-42c2-833a-a244acbef797"},"vehicle_type_id":"4","last_reported":1737742317,"current_range_meters":35600,"station_id":"","pricing_plan_id":"cebpf4jnsgd1na2vs0mg"},{"bike_id":"31021ea1-78ed-4838-a7cc-b30ba8d4a6ea","system_id":"levelo_inurba_marseille","lat":43.27809,"lon":5.40712,"is_reserved":false,"is_disabled":false,"rental_uris":{"android":"levelo://app?vid=31021ea1-78ed-4838-a7cc-b30ba8d4a6ea","ios":"levelo://app?vid=31021ea1-78ed-4838-a7cc-b30ba8d4a6ea"},"vehicle_type_id":"4","last_reported":1737742317,"current_range_meters":8400,"station_id":"ce4bhnh2rcd13ifvqgtg","pricing_plan_id":"cebpf4jnsgd1na2vs0mg"},{"bike_id":"25ef6f9f-4039-4133-9470-f133f116c7f7","system_id":"levelo_inurba_marseille","lat":43.28934,"lon":5.38393,"is_reserved":false,"is_disabled":false,"rental_uris":{"android":"levelo://app?vid=25ef6f9f-4039-4133-9470-f133f116c7f7","ios":"levelo://app?vid=25ef6f9f-4039-4133-9470-f133f116c7f7"},"vehicle_type_id":"4","last_reported":1737742317,"current_range_meters":10000,"station_id":"ce4bh612rcd13ifvqe6g","pricing_plan_id":"cebpf4jnsgd1na2vs0mg"},{"bike_id":"7ff41bb0-58bb-4e7a-856f-2a2aba66f15e","system_id":"levelo_inurba_marseille","lat":43.31711,"lon":5.43706,"is_reserved":false,"is_disabled":false,"rental_uris":{"android":"levelo://app?vid=7ff41bb0-58bb-4e7a-856f-2a2aba66f15e","ios":"levelo://app?vid=7ff41bb0-58bb-4e7a-856f-2a2aba66f15e"},"vehicle_type_id":"4","last_reported":1737742317,"current_range_meters":37600,"station_id":"ce4bhp92rcd13ifvqhcg","pricing_plan_id":"cebpf4jnsgd1na2vs0mg"},{"bike_id":"799818e8-263b-4acc-a4c0-b732b7fa92e7","system_id":"levelo_inurba_marseille","lat":43.32289,"lon":5.3827,"is_reserved":false,"is_disabled":false,"rental_uris":{"android":"levelo://app?vid=799818e8-263b-4acc-a4c0-b732b7fa92e7","ios":"levelo://app?vid=799818e8-263b-4acc-a4c0-b732b7fa92e7"},"vehicle_type_id":"4","last_reported":1737742317,"current_range_meters":39200,"station_id":"ce4bhr12rcd13ifvqhqg","pricing_plan_id":"cebpf4jnsgd1na2vs0mg"},{"bike_id":"6313f2f3-7ee2-4e24-89d9-3348b08aa15f","system_id":"levelo_inurba_marseille","lat":43.32659,"lon":5.40993,"is_reserved":false,"is_disabled":false,"rental_uris":{"android":"levelo://app?vid=6313f2f3-7ee2-4e24-89d9-3348b08aa15f","ios":"levelo://app?vid=6313f2f3-7ee2-4e24-89d9-3348b08aa15f"},"vehicle_type_id":"4","last_reported":1737742317,"current_range_meters":38800,"station_id":"ce4bhpp2rcd13ifvqhgg","pricing_plan_id":"cebpf4jnsgd1na2vs0mg"},{"bike_id":"279ff178-689e-45a0-a76a-a6380ff903e0","system_id":"levelo_inurba_marseille","lat":43.2918,"lon":5.39316,"is_reserved":false,"is_disabled":false,"rental_uris":{"android":"levelo://app?vid=279ff178-689e-45a0-a76a-a6380ff903e0","ios":"levelo://app?vid=279ff178-689e-45a0-a76a-a6380ff903e0"},"vehicle_type_id":"4","last_reported":1737742317,"current_range_meters":23200,"station_id":"ce4bh192rcd13ifvqdd0","pricing_plan_id":"cebpf4jnsgd1na2vs0mg"},{"bike_id":"9601235e-e3c4-4db9-83ce-418729781d1e","system_id":"levelo_inurba_marseille","lat":43.30214,"lon":5.39462,"is_reserved":false,"is_disabled":false,"rental_uris":{"android":"levelo://app?vid=9601235e-e3c4-4db9-83ce-418729781d1e","ios":"levelo://app?vid=9601235e-e3c4-4db9-83ce-418729781d1e"},"vehicle_type_id":"4","last_reported":1737742317,"current_range_meters":38800,"station_id":"ce4bh0p2rcd13ifvqd70","pricing_plan_id":"cebpf4jnsgd1na2vs0mg"},{"bike_id":"f24f4045-aa0f-4bfd-a60b-f7a7798072f9","system_id":"levelo_inurba_marseille","lat":43.29003,"lon":5.35616,"is_reserved":false,"is_disabled":false,"rental_uris":{"android":"levelo://app?vid=f24f4045-aa0f-4bfd-a60b-f7a7798072f9","ios":"levelo://app?vid=f24f4045-aa0f-4bfd-a60b-f7a7798072f9"},"vehicle_type_id":"4","last_reported":1737742317,"current_range_meters":38800,"station_id":"ce4bhb92rcd13ifvqen0","pricing_plan_id":"cebpf4jnsgd1na2vs0mg"},{"bike_id":"44362791-2b95-4210-8ac3-7c041ff0a6ce","system_id":"levelo_inurba_marseille","lat":43.26494,"lon":5.39556,"is_reserved":false,"is_disabled":false,"rental_uris":{"android":"levelo://app?vid=44362791-2b95-4210-8ac3-7c041ff0a6ce","ios":"levelo://app?vid=44362791-2b95-4210-8ac3-7c041ff0a6ce"},"vehicle_type_id":"4","last_reported":1737742317,"current_range_meters":36400,"station_id":"ce4bhi12rcd13ifvqfq0","pricing_plan_id":"cebpf4jnsgd1na2vs0mg"},{"bike_id":"637a0bb2-a55a-416c-9508-60b818c41dbe","system_id":"levelo_inurba_marseille","lat":43.25002,"lon":5.3894,"is_reserved":false,"is_disabled":false,"rental_uris":{"android":"levelo://app?vid=637a0bb2-a55a-416c-9508-60b818c41dbe","ios":"levelo://app?vid=637a0bb2-a55a-416c-9508-60b818c41dbe"},"vehicle_type_id":"4","last_reported":1737742317,"current_range_meters":38800,"station_id":"ce4bhgp2rcd13ifvqfd0","pricing_plan_id":"cebpf4jnsgd1na2vs0mg"},{"bike_id":"26272cfd-3678-439f-89d5-8bce65c24a79","system_id":"levelo_inurba_marseille","lat":43.26813,"lon":5.40262,"is_reserved":false,"is_disabled":true,"rental_uris":{"android":"levelo://app?vid=26272cfd-3678-439f-89d5-8bce65c24a79","ios":"levelo://app?vid=26272cfd-3678-439f-89d5-8bce65c24a79"},"vehicle_type_id":"4","last_reported":1737742317,"current_range_meters":0,"station_id":"ce501612rcd8frsf0b60","pricing_plan_id":"cebpf4jnsgd1na2vs0mg"},{"bike_id":"c491b9d7-9629-4215-bdb7-4fec9c846c78","system_id":"levelo_inurba_marseille","lat":43.31764,"lon":5.39019,"is_reserved":false,"is_disabled":false,"rental_uris":{"android":"levelo://app?vid=c491b9d7-9629-4215-bdb7-4fec9c846c78","ios":"levelo://app?vid=c491b9d7-9629-4215-bdb7-4fec9c846c78"},"vehicle_type_id":"4","last_reported":1737742317,"current_range_meters":36000,"station_id":"ce4bhqp2rcd13ifvqhng","pricing_plan_id":"cebpf4jnsgd1na2vs0mg"},{"bike_id":"3608a3cf-49c3-46d4-b709-f8e9629a9213","system_id":"levelo_inurba_marseille","lat":43.24652,"lon":5.38899,"is_reserved":false,"is_disabled":false,"rental_uris":{"android":"levelo://app?vid=3608a3cf-49c3-46d4-b709-f8e9629a9213","ios":"levelo://app?vid=3608a3cf-49c3-46d4-b709-f8e9629a9213"},"vehicle_type_id":"4","last_reported":1737742317,"current_range_meters":8000,"station_id":"ce4bhg12rcd13ifvqf60","pricing_plan_id":"cebpf4jnsgd1na2vs0mg"},{"bike_id":"19ba425c-824b-4731-b310-b504a9ef75cd","system_id":"levelo_inurba_marseille","lat":43.29875,"lon":5.39735,"is_reserved":false,"is_disabled":false,"rental_uris":{"android":"levelo://app?vid=19ba425c-824b-4731-b310-b504a9ef75cd","ios":"levelo://app?vid=19ba425c-824b-4731-b310-b504a9ef75cd"},"vehicle_type_id":"4","last_reported":1737742317,"current_range_meters":31200,"station_id":"ce4bh0h2rcd13ifvqd50","pricing_plan_id":"cebpf4jnsgd1na2vs0mg"},{"bike_id":"e91204e9-d4fe-4e30-81a6-71464f86006e","system_id":"levelo_inurba_marseille","lat":43.29905,"lon":5.38137,"is_reserved":false,"is_disabled":true,"rental_uris":{"android":"levelo://app?vid=e91204e9-d4fe-4e30-81a6-71464f86006e","ios":"levelo://app?vid=e91204e9-d4fe-4e30-81a6-71464f86006e"},"vehicle_type_id":"4","last_reported":1737742317,"current_range_meters":38400,"station_id":"ce4bgj12rcd13ifvqbc0","pricing_plan_id":"cebpf4jnsgd1na2vs0mg"},{"bike_id":"483bf811-6a94-4fe7-9f0d-cb4db9722c49","system_id":"levelo_inurba_marseille","lat":43.29169,"lon":5.37168,"is_reserved":false,"is_disabled":false,"rental_uris":{"android":"levelo://app?vid=483bf811-6a94-4fe7-9f0d-cb4db9722c49","ios":"levelo://app?vid=483bf811-6a94-4fe7-9f0d-cb4db9722c49"},"vehicle_type_id":"4","last_reported":1737742317,"current_range_meters":36000,"station_id":"ce4bha92rcd13ifvqeh0","pricing_plan_id":"cebpf4jnsgd1na2vs0mg"},{"bike_id":"32e8634c-b8d1-4e8e-b73b-25e20116d8c2","system_id":"levelo_inurba_marseille","lat":43.29202,"lon":5.39307,"is_reserved":false,"is_disabled":false,"rental_uris":{"android":"levelo://app?vid=32e8634c-b8d1-4e8e-b73b-25e20116d8c2","ios":"levelo://app?vid=32e8634c-b8d1-4e8e-b73b-25e20116d8c2"},"vehicle_type_id":"4","last_reported":1737742317,"current_range_meters":36000,"station_id":"ce4bh192rcd13ifvqdd0","pricing_plan_id":"cebpf4jnsgd1na2vs0mg"},{"bike_id":"1ceb8c63-17a1-4dc2-90e1-9ee2c3d9f714","system_id":"levelo_inurba_marseille","lat":43.26941,"lon":5.40258,"is_reserved":false,"is_disabled":false,"rental_uris":{"android":"levelo://app?vid=1ceb8c63-17a1-4dc2-90e1-9ee2c3d9f714","ios":"levelo://app?vid=1ceb8c63-17a1-4dc2-90e1-9ee2c3d9f714"},"vehicle_type_id":"4","last_reported":1737742317,"current_range_meters":38800,"station_id":"cjm6bp8fraef2m0cb0m0","pricing_plan_id":"cebpf4jnsgd1na2vs0mg"},{"bike_id":"80351458-c000-4359-99a8-e482078e6471","system_id":"levelo_inurba_marseille","lat":43.2957,"lon":5.39976,"is_reserved":false,"is_disabled":false,"rental_uris":{"android":"levelo://app?vid=80351458-c000-4359-99a8-e482078e6471","ios":"levelo://app?vid=80351458-c000-4359-99a8-e482078e6471"},"vehicle_type_id":"4","last_reported":1737742317,"current_range_meters":28800,"station_id":"ce4bh312rcd13ifvqdj0","pricing_plan_id":"cebpf4jnsgd1na2vs0mg"},{"bike_id":"9aace331-e729-407e-b0a8-658c1f617b62","system_id":"levelo_inurba_marseille","lat":43.30357,"lon":5.41879,"is_reserved":false,"is_disabled":false,"rental_uris":{"android":"levelo://app?vid=9aace331-e729-407e-b0a8-658c1f617b62","ios":"levelo://app?vid=9aace331-e729-407e-b0a8-658c1f617b62"},"vehicle_type_id":"4","last_reported":1737742317,"current_range_meters":11200,"station_id":"ce4bhop2rcd13ifvqh7g","pricing_plan_id":"cebpf4jnsgd1na2vs0mg"},{"bike_id":"6d1c7757-cbfa-452f-8195-daacd34f212b","system_id":"levelo_inurba_marseille","lat":43.23086,"lon":5.35514,"is_reserved":false,"is_disabled":false,"rental_uris":{"android":"levelo://app?vid=6d1c7757-cbfa-452f-8195-daacd34f212b","ios":"levelo://app?vid=6d1c7757-cbfa-452f-8195-daacd34f212b"},"vehicle_type_id":"4","last_reported":1737742317,"current_range_meters":38800,"station_id":"cpo3342slgdg3j2ifvpg","pricing_plan_id":"cebpf4jnsgd1na2vs0mg"},{"bike_id":"b3b086a7-760a-47c6-92ff-a59abab0f0d9","system_id":"levelo_inurba_marseille","lat":43.23184,"lon":5.39969,"is_reserved":false,"is_disabled":false,"rental_uris":{"android":"levelo://app?vid=b3b086a7-760a-47c6-92ff-a59abab0f0d9","ios":"levelo://app?vid=b3b086a7-760a-47c6-92ff-a59abab0f0d9"},"vehicle_type_id":"4","last_reported":1737742317,"current_range_meters":5600,"station_id":"ce4bhn12rcd13ifvqgqg","pricing_plan_id":"cebpf4jnsgd1na2vs0mg"},{"bike_id":"4ad8fef8-001a-43f3-97cd-6292881adb6f","system_id":"levelo_inurba_marseille","lat":43.29032,"lon":5.39957,"is_reserved":false,"is_disabled":true,"rental_uris":{"android":"levelo://app?vid=4ad8fef8-001a-43f3-97cd-6292881adb6f","ios":"levelo://app?vid=4ad8fef8-001a-43f3-97cd-6292881adb6f"},"vehicle_type_id":"4","last_reported":1737742317,"current_range_meters":0,"station_id":"ce4bh392rcd13ifvqdm0","pricing_plan_id":"cebpf4jnsgd1na2vs0mg"},{"bike_id":"230b9530-8756-4893-91c9-417d4f8f1ad3","system_id":"levelo_inurba_marseille","lat":43.26495,"lon":5.39556,"is_reserved":false,"is_disabled":true,"rental_uris":{"android":"levelo://app?vid=230b9530-8756-4893-91c9-417d4f8f1ad3","ios":"levelo://app?vid=230b9530-8756-4893-91c9-417d4f8f1ad3"},"vehicle_type_id":"4","last_reported":1737742317,"current_range_meters":0,"station_id":"ce4bhi12rcd13ifvqfq0","pricing_plan_id":"cebpf4jnsgd1na2vs0mg"},{"bike_id":"f253fc82-7ca1-4c38-a41a-566478bb536e","system_id":"levelo_inurba_marseille","lat":43.28048,"lon":5.36959,"is_reserved":false,"is_disabled":false,"rental_uris":{"android":"levelo://app?vid=f253fc82-7ca1-4c38-a41a-566478bb536e","ios":"levelo://app?vid=f253fc82-7ca1-4c38-a41a-566478bb536e"},"vehicle_type_id":"4","last_reported":1737742317,"current_range_meters":38800,"station_id":"ce4bha12rcd13ifvqef0","pricing_plan_id":"cebpf4jnsgd1na2vs0mg"},{"bike_id":"c287a3ed-5ab1-4fe0-a917-cf5ecb40f512","system_id":"levelo_inurba_marseille","lat":43.29267,"lon":5.38433,"is_reserved":false,"is_disabled":true,"rental_uris":{"android":"levelo://app?vid=c287a3ed-5ab1-4fe0-a917-cf5ecb40f512","ios":"levelo://app?vid=c287a3ed-5ab1-4fe0-a917-cf5ecb40f512"},"vehicle_type_id":"4","last_reported":1737742317,"current_range_meters":21600,"station_id":"ce4bh692rcd13ifvqea0","pricing_plan_id":"cebpf4jnsgd1na2vs0mg"},{"bike_id":"9838cc78-2b53-49d3-ae13-82df62c4fd64","system_id":"levelo_inurba_marseille","lat":43.28441,"lon":5.40937,"is_reserved":false,"is_disabled":true,"rental_uris":{"android":"levelo://app?vid=9838cc78-2b53-49d3-ae13-82df62c4fd64","ios":"levelo://app?vid=9838cc78-2b53-49d3-ae13-82df62c4fd64"},"vehicle_type_id":"4","last_reported":1737742317,"current_range_meters":0,"station_id":"","pricing_plan_id":"cebpf4jnsgd1na2vs0mg"},{"bike_id":"d6db8360-7a7b-4a5e-8c3e-ee74b2a817ee","system_id":"levelo_inurba_marseille","lat":43.31709,"lon":5.37727,"is_reserved":false,"is_disabled":false,"rental_uris":{"android":"levelo://app?vid=d6db8360-7a7b-4a5e-8c3e-ee74b2a817ee","ios":"levelo://app?vid=d6db8360-7a7b-4a5e-8c3e-ee74b2a817ee"},"vehicle_type_id":"4","last_reported":1737742317,"current_range_meters":6000,"station_id":"ce4bgth2rcd13ifvqch0","pricing_plan_id":"cebpf4jnsgd1na2vs0mg"},{"bike_id":"de1a3014-e75b-478f-bdd7-4e4e47dea1ca","system_id":"levelo_inurba_marseille","lat":43.31364,"lon":5.38507,"is_reserved":false,"is_disabled":false,"rental_uris":{"android":"levelo://app?vid=de1a3014-e75b-478f-bdd7-4e4e47dea1ca","ios":"levelo://app?vid=de1a3014-e75b-478f-bdd7-4e4e47dea1ca"},"vehicle_type_id":"4","last_reported":1737742317,"current_range_meters":11200,"station_id":"ce4bgt92rcd13ifvqcf0","pricing_plan_id":"cebpf4jnsgd1na2vs0mg"},{"bike_id":"bf096a89-ee72-4f37-85bd-7b3cf9f0cb41","system_id":"levelo_inurba_marseille","lat":43.31961,"lon":5.37875,"is_reserved":false,"is_disabled":false,"rental_uris":{"android":"levelo://app?vid=bf096a89-ee72-4f37-85bd-7b3cf9f0cb41","ios":"levelo://app?vid=bf096a89-ee72-4f37-85bd-7b3cf9f0cb41"},"vehicle_type_id":"4","last_reported":1737742317,"current_range_meters":34000,"station_id":"","pricing_plan_id":"cebpf4jnsgd1na2vs0mg"},{"bike_id":"e67ab139-994a-4c15-b21d-ed1e6a949ce4","system_id":"levelo_inurba_marseille","lat":43.27809,"lon":5.40709,"is_reserved":false,"is_disabled":false,"rental_uris":{"android":"levelo://app?vid=e67ab139-994a-4c15-b21d-ed1e6a949ce4","ios":"levelo://app?vid=e67ab139-994a-4c15-b21d-ed1e6a949ce4"},"vehicle_type_id":"4","last_reported":1737742317,"current_range_meters":27600,"station_id":"ce4bhnh2rcd13ifvqgtg","pricing_plan_id":"cebpf4jnsgd1na2vs0mg"},{"bike_id":"b1a31b37-3c6a-43de-ac18-6b6b299e2d44","system_id":"levelo_inurba_marseille","lat":43.2552,"lon":5.37633,"is_reserved":false,"is_disabled":false,"rental_uris":{"android":"levelo://app?vid=b1a31b37-3c6a-43de-ac18-6b6b299e2d44","ios":"levelo://app?vid=b1a31b37-3c6a-43de-ac18-6b6b299e2d44"},"vehicle_type_id":"4","last_reported":1737742317,"current_range_meters":7200,"station_id":"ce4bhh12rcd13ifvqff0","pricing_plan_id":"cebpf4jnsgd1na2vs0mg"},{"bike_id":"c433ee80-7d1c-4670-a97b-d8be37e102ea","system_id":"levelo_inurba_marseille","lat":43.26559,"lon":5.37286,"is_reserved":false,"is_disabled":true,"rental_uris":{"android":"levelo://app?vid=c433ee80-7d1c-4670-a97b-d8be37e102ea","ios":"levelo://app?vid=c433ee80-7d1c-4670-a97b-d8be37e102ea"},"vehicle_type_id":"4","last_reported":1737742317,"current_range_meters":1600,"station_id":"ce4bhg12rcd13ifvqf70","pricing_plan_id":"cebpf4jnsgd1na2vs0mg"},{"bike_id":"28147011-c67e-40a5-ada1-04f84de86554","system_id":"levelo_inurba_marseille","lat":43.31364,"lon":5.38504,"is_reserved":false,"is_disabled":true,"rental_uris":{"android":"levelo://app?vid=28147011-c67e-40a5-ada1-04f84de86554","ios":"levelo://app?vid=28147011-c67e-40a5-ada1-04f84de86554"},"vehicle_type_id":"4","last_reported":1737742317,"current_range_meters":1200,"station_id":"ce4bgt92rcd13ifvqcf0","pricing_plan_id":"cebpf4jnsgd1na2vs0mg"},{"bike_id":"1caf7243-b0f0-4484-919a-c8dcf048623a","system_id":"levelo_inurba_marseille","lat":43.23177,"lon":5.39988,"is_reserved":false,"is_disabled":false,"rental_uris":{"android":"levelo://app?vid=1caf7243-b0f0-4484-919a-c8dcf048623a","ios":"levelo://app?vid=1caf7243-b0f0-4484-919a-c8dcf048623a"},"vehicle_type_id":"4","last_reported":1737742317,"current_range_meters":11600,"station_id":"ce4bhn12rcd13ifvqgqg","pricing_plan_id":"cebpf4jnsgd1na2vs0mg"},{"bike_id":"c3429a39-26c9-44d2-888d-3fad3a682e9f","system_id":"levelo_inurba_marseille","lat":43.29531,"lon":5.39395,"is_reserved":false,"is_disabled":false,"rental_uris":{"android":"levelo://app?vid=c3429a39-26c9-44d2-888d-3fad3a682e9f","ios":"levelo://app?vid=c3429a39-26c9-44d2-888d-3fad3a682e9f"},"vehicle_type_id":"4","last_reported":1737742317,"current_range_meters":6800,"station_id":"ce4bh292rcd13ifvqdf0","pricing_plan_id":"cebpf4jnsgd1na2vs0mg"},{"bike_id":"8f868d3a-4ca0-4286-9472-18ff550a4cd1","system_id":"levelo_inurba_marseille","lat":43.24071,"lon":5.3774,"is_reserved":false,"is_disabled":false,"rental_uris":{"android":"levelo://app?vid=8f868d3a-4ca0-4286-9472-18ff550a4cd1","ios":"levelo://app?vid=8f868d3a-4ca0-4286-9472-18ff550a4cd1"},"vehicle_type_id":"4","last_reported":1737742317,"current_range_meters":38800,"station_id":"ce4bhnp2rcd13ifvqgvg","pricing_plan_id":"cebpf4jnsgd1na2vs0mg"},{"bike_id":"ca966ae9-f949-40c4-8627-735aed604528","system_id":"levelo_inurba_marseille","lat":43.2558,"lon":5.38234,"is_reserved":false,"is_disabled":false,"rental_uris":{"android":"levelo://app?vid=ca966ae9-f949-40c4-8627-735aed604528","ios":"levelo://app?vid=ca966ae9-f949-40c4-8627-735aed604528"},"vehicle_type_id":"4","last_reported":1737742317,"current_range_meters":38800,"station_id":"ce4bhih2rcd13ifvqfs0","pricing_plan_id":"cebpf4jnsgd1na2vs0mg"},{"bike_id":"d97b035b-cd76-4be6-9920-ca5e793c898b","system_id":"levelo_inurba_marseille","lat":43.25869,"lon":5.39897,"is_reserved":false,"is_disabled":false,"rental_uris":{"android":"levelo://app?vid=d97b035b-cd76-4be6-9920-ca5e793c898b","ios":"levelo://app?vid=d97b035b-cd76-4be6-9920-ca5e793c898b"},"vehicle_type_id":"4","last_reported":1737742317,"current_range_meters":20400,"station_id":"ce4bhl92rcd13ifvqghg","pricing_plan_id":"cebpf4jnsgd1na2vs0mg"},{"bike_id":"e6fed224-e420-4150-9f76-4b1a14407d3e","system_id":"levelo_inurba_marseille","lat":43.24166,"lon":5.36409,"is_reserved":false,"is_disabled":false,"rental_uris":{"android":"levelo://app?vid=e6fed224-e420-4150-9f76-4b1a14407d3e","ios":"levelo://app?vid=e6fed224-e420-4150-9f76-4b1a14407d3e"},"vehicle_type_id":"4","last_reported":1737742317,"current_range_meters":6000,"station_id":"cpo36qri1sfpv3e86is0","pricing_plan_id":"cebpf4jnsgd1na2vs0mg"},{"bike_id":"c276da85-c857-4b0d-8792-c2826228a14c","system_id":"levelo_inurba_marseille","lat":43.2396,"lon":5.36641,"is_reserved":false,"is_disabled":false,"rental_uris":{"android":"levelo://app?vid=c276da85-c857-4b0d-8792-c2826228a14c","ios":"levelo://app?vid=c276da85-c857-4b0d-8792-c2826228a14c"},"vehicle_type_id":"4","last_reported":1737742317,"current_range_meters":28800,"station_id":"ce4bhi12rcd13ifvqfp0","pricing_plan_id":"cebpf4jnsgd1na2vs0mg"},{"bike_id":"2068ce80-1659-42b4-945e-19e0e5710b37","system_id":"levelo_inurba_marseille","lat":43.2971,"lon":5.36604,"is_reserved":false,"is_disabled":true,"rental_uris":{"android":"levelo://app?vid=2068ce80-1659-42b4-945e-19e0e5710b37","ios":"levelo://app?vid=2068ce80-1659-42b4-945e-19e0e5710b37"},"vehicle_type_id":"4","last_reported":1737742317,"current_range_meters":36800,"station_id":"ce4bgn12rcd13ifvqbt0","pricing_plan_id":"cebpf4jnsgd1na2vs0mg"},{"bike_id":"867d41e1-ec2e-4484-a31e-d471983f0ab7","system_id":"levelo_inurba_marseille","lat":43.33377,"lon":5.40046,"is_reserved":false,"is_disabled":false,"rental_uris":{"android":"levelo://app?vid=867d41e1-ec2e-4484-a31e-d471983f0ab7","ios":"levelo://app?vid=867d41e1-ec2e-4484-a31e-d471983f0ab7"},"vehicle_type_id":"4","last_reported":1737742317,"current_range_meters":17600,"station_id":"","pricing_plan_id":"cebpf4jnsgd1na2vs0mg"},{"bike_id":"f677bccc-430a-4fa3-ba35-5ace5a253ef0","system_id":"levelo_inurba_marseille","lat":43.28719,"lon":5.36088,"is_reserved":false,"is_disabled":false,"rental_uris":{"android":"levelo://app?vid=f677bccc-430a-4fa3-ba35-5ace5a253ef0","ios":"levelo://app?vid=f677bccc-430a-4fa3-ba35-5ace5a253ef0"},"vehicle_type_id":"4","last_reported":1737742317,"current_range_meters":38000,"station_id":"cki0cbj6b192h4jlfktg","pricing_plan_id":"cebpf4jnsgd1na2vs0mg"},{"bike_id":"4a096e8f-a751-49a9-914d-b6802fe88b01","system_id":"levelo_inurba_marseille","lat":43.30439,"lon":5.38884,"is_reserved":false,"is_disabled":false,"rental_uris":{"android":"levelo://app?vid=4a096e8f-a751-49a9-914d-b6802fe88b01","ios":"levelo://app?vid=4a096e8f-a751-49a9-914d-b6802fe88b01"},"vehicle_type_id":"4","last_reported":1737742317,"current_range_meters":39200,"station_id":"ce4bgk12rcd13ifvqbi0","pricing_plan_id":"cebpf4jnsgd1na2vs0mg"},{"bike_id":"c2bc794a-e1ca-4f94-862d-4cbbd10a2d55","system_id":"levelo_inurba_marseille","lat":43.29,"lon":5.35609,"is_reserved":false,"is_disabled":false,"rental_uris":{"android":"levelo://app?vid=c2bc794a-e1ca-4f94-862d-4cbbd10a2d55","ios":"levelo://app?vid=c2bc794a-e1ca-4f94-862d-4cbbd10a2d55"},"vehicle_type_id":"4","last_reported":1737742317,"current_range_meters":8000,"station_id":"ce4bhb92rcd13ifvqen0","pricing_plan_id":"cebpf4jnsgd1na2vs0mg"},{"bike_id":"25550bba-d80a-41d4-a2b9-d23dea26a22e","system_id":"levelo_inurba_marseille","lat":43.33023,"lon":5.39066,"is_reserved":false,"is_disabled":false,"rental_uris":{"android":"levelo://app?vid=25550bba-d80a-41d4-a2b9-d23dea26a22e","ios":"levelo://app?vid=25550bba-d80a-41d4-a2b9-d23dea26a22e"},"vehicle_type_id":"4","last_reported":1737742317,"current_range_meters":6000,"station_id":"ce4bhr92rcd13ifvqhrg","pricing_plan_id":"cebpf4jnsgd1na2vs0mg"},{"bike_id":"5f051731-48c9-4289-a0fa-e19a22e6eee4","system_id":"levelo_inurba_marseille","lat":43.29265,"lon":5.38441,"is_reserved":false,"is_disabled":true,"rental_uris":{"android":"levelo://app?vid=5f051731-48c9-4289-a0fa-e19a22e6eee4","ios":"levelo://app?vid=5f051731-48c9-4289-a0fa-e19a22e6eee4"},"vehicle_type_id":"4","last_reported":1737742317,"current_range_meters":0,"station_id":"ce4bh692rcd13ifvqea0","pricing_plan_id":"cebpf4jnsgd1na2vs0mg"},{"bike_id":"358abbba-bcda-4dcf-ac9a-0dd24d997ac8","system_id":"levelo_inurba_marseille","lat":43.29449,"lon":5.39774,"is_reserved":false,"is_disabled":false,"rental_uris":{"android":"levelo://app?vid=358abbba-bcda-4dcf-ac9a-0dd24d997ac8","ios":"levelo://app?vid=358abbba-bcda-4dcf-ac9a-0dd24d997ac8"},"vehicle_type_id":"4","last_reported":1737742317,"current_range_meters":38800,"station_id":"ce4bh3h2rcd13ifvqdo0","pricing_plan_id":"cebpf4jnsgd1na2vs0mg"},{"bike_id":"93f4f4e4-86dd-44c9-bedb-dcbdace9162d","system_id":"levelo_inurba_marseille","lat":43.23183,"lon":5.39992,"is_reserved":false,"is_disabled":false,"rental_uris":{"android":"levelo://app?vid=93f4f4e4-86dd-44c9-bedb-dcbdace9162d","ios":"levelo://app?vid=93f4f4e4-86dd-44c9-bedb-dcbdace9162d"},"vehicle_type_id":"4","last_reported":1737742317,"current_range_meters":28000,"station_id":"ce4bhn12rcd13ifvqgqg","pricing_plan_id":"cebpf4jnsgd1na2vs0mg"},{"bike_id":"347dd29e-9a9e-4a37-8ddd-6e2050aaff03","system_id":"levelo_inurba_marseille","lat":43.33728,"lon":5.392,"is_reserved":false,"is_disabled":false,"rental_uris":{"android":"levelo://app?vid=347dd29e-9a9e-4a37-8ddd-6e2050aaff03","ios":"levelo://app?vid=347dd29e-9a9e-4a37-8ddd-6e2050aaff03"},"vehicle_type_id":"4","last_reported":1737742317,"current_range_meters":37600,"station_id":"ce4bhr92rcd13ifvqhsg","pricing_plan_id":"cebpf4jnsgd1na2vs0mg"},{"bike_id":"badee5fd-b7b4-423c-a117-af12b0d774ca","system_id":"levelo_inurba_marseille","lat":43.31728,"lon":5.42401,"is_reserved":false,"is_disabled":false,"rental_uris":{"android":"levelo://app?vid=badee5fd-b7b4-423c-a117-af12b0d774ca","ios":"levelo://app?vid=badee5fd-b7b4-423c-a117-af12b0d774ca"},"vehicle_type_id":"4","last_reported":1737742317,"current_range_meters":34000,"station_id":"ce4bhp92rcd13ifvqhbg","pricing_plan_id":"cebpf4jnsgd1na2vs0mg"},{"bike_id":"f8ea2046-cba1-432a-b3c5-e15c802e7278","system_id":"levelo_inurba_marseille","lat":43.23973,"lon":5.3662,"is_reserved":false,"is_disabled":false,"rental_uris":{"android":"levelo://app?vid=f8ea2046-cba1-432a-b3c5-e15c802e7278","ios":"levelo://app?vid=f8ea2046-cba1-432a-b3c5-e15c802e7278"},"vehicle_type_id":"4","last_reported":1737742317,"current_range_meters":33600,"station_id":"ce4bhi12rcd13ifvqfp0","pricing_plan_id":"cebpf4jnsgd1na2vs0mg"},{"bike_id":"dce4518c-3b7e-4c2c-98b1-03318c669952","system_id":"levelo_inurba_marseille","lat":43.28464,"lon":5.35897,"is_reserved":false,"is_disabled":false,"rental_uris":{"android":"levelo://app?vid=dce4518c-3b7e-4c2c-98b1-03318c669952","ios":"levelo://app?vid=dce4518c-3b7e-4c2c-98b1-03318c669952"},"vehicle_type_id":"4","last_reported":1737742317,"current_range_meters":33600,"station_id":"ce4bhah2rcd13ifvqei0","pricing_plan_id":"cebpf4jnsgd1na2vs0mg"},{"bike_id":"90b8a1b1-ad54-458d-9362-f5197bbdf048","system_id":"levelo_inurba_marseille","lat":43.22931,"lon":5.35372,"is_reserved":false,"is_disabled":false,"rental_uris":{"android":"levelo://app?vid=90b8a1b1-ad54-458d-9362-f5197bbdf048","ios":"levelo://app?vid=90b8a1b1-ad54-458d-9362-f5197bbdf048"},"vehicle_type_id":"4","last_reported":1737742317,"current_range_meters":38800,"station_id":"cpo3532slgdg3j2ikp40","pricing_plan_id":"cebpf4jnsgd1na2vs0mg"},{"bike_id":"93a7dc37-0d28-4341-92b3-f3435e0f89a6","system_id":"levelo_inurba_marseille","lat":43.29598,"lon":5.36737,"is_reserved":false,"is_disabled":false,"rental_uris":{"android":"levelo://app?vid=93a7dc37-0d28-4341-92b3-f3435e0f89a6","ios":"levelo://app?vid=93a7dc37-0d28-4341-92b3-f3435e0f89a6"},"vehicle_type_id":"4","last_reported":1737742317,"current_range_meters":30000,"station_id":"ce4bgph2rcd13ifvqc2g","pricing_plan_id":"cebpf4jnsgd1na2vs0mg"},{"bike_id":"602c04ed-94d0-4336-a78d-13e2cb23c2e8","system_id":"levelo_inurba_marseille","lat":43.27981,"lon":5.38749,"is_reserved":false,"is_disabled":false,"rental_uris":{"android":"levelo://app?vid=602c04ed-94d0-4336-a78d-13e2cb23c2e8","ios":"levelo://app?vid=602c04ed-94d0-4336-a78d-13e2cb23c2e8"},"vehicle_type_id":"4","last_reported":1737742317,"current_range_meters":7200,"station_id":"ce4bhg12rcd13ifvqf80","pricing_plan_id":"cebpf4jnsgd1na2vs0mg"},{"bike_id":"d0106136-7481-4791-8a8d-5fdfef364926","system_id":"levelo_inurba_marseille","lat":43.27902,"lon":5.38012,"is_reserved":false,"is_disabled":false,"rental_uris":{"android":"levelo://app?vid=d0106136-7481-4791-8a8d-5fdfef364926","ios":"levelo://app?vid=d0106136-7481-4791-8a8d-5fdfef364926"},"vehicle_type_id":"4","last_reported":1737742317,"current_range_meters":24000,"station_id":"ce4bhf92rcd13ifvqf50","pricing_plan_id":"cebpf4jnsgd1na2vs0mg"},{"bike_id":"31bef50f-e464-4b71-8639-fa847ee5d165","system_id":"levelo_inurba_marseille","lat":43.27813,"lon":5.40718,"is_reserved":false,"is_disabled":false,"rental_uris":{"android":"levelo://app?vid=31bef50f-e464-4b71-8639-fa847ee5d165","ios":"levelo://app?vid=31bef50f-e464-4b71-8639-fa847ee5d165"},"vehicle_type_id":"4","last_reported":1737742317,"current_range_meters":19200,"station_id":"ce4bhnh2rcd13ifvqgtg","pricing_plan_id":"cebpf4jnsgd1na2vs0mg"},{"bike_id":"17e306a9-20ff-47dc-8c6c-1b0f1e0bda0e","system_id":"levelo_inurba_marseille","lat":43.2926,"lon":5.38438,"is_reserved":false,"is_disabled":false,"rental_uris":{"android":"levelo://app?vid=17e306a9-20ff-47dc-8c6c-1b0f1e0bda0e","ios":"levelo://app?vid=17e306a9-20ff-47dc-8c6c-1b0f1e0bda0e"},"vehicle_type_id":"4","last_reported":1737742317,"current_range_meters":30000,"station_id":"ce4bh692rcd13ifvqea0","pricing_plan_id":"cebpf4jnsgd1na2vs0mg"},{"bike_id":"55158d09-7658-4409-9f9c-e5d732a8cb68","system_id":"levelo_inurba_marseille","lat":43.28442,"lon":5.39209,"is_reserved":false,"is_disabled":false,"rental_uris":{"android":"levelo://app?vid=55158d09-7658-4409-9f9c-e5d732a8cb68","ios":"levelo://app?vid=55158d09-7658-4409-9f9c-e5d732a8cb68"},"vehicle_type_id":"4","last_reported":1737742317,"current_range_meters":11200,"station_id":"ce4bhoh2rcd13ifvqh5g","pricing_plan_id":"cebpf4jnsgd1na2vs0mg"},{"bike_id":"175a1aa2-f15d-4a26-b763-5b8b408fb232","system_id":"levelo_inurba_marseille","lat":43.2407,"lon":5.37767,"is_reserved":false,"is_disabled":false,"rental_uris":{"android":"levelo://app?vid=175a1aa2-f15d-4a26-b763-5b8b408fb232","ios":"levelo://app?vid=175a1aa2-f15d-4a26-b763-5b8b408fb232"},"vehicle_type_id":"4","last_reported":1737742317,"current_range_meters":13600,"station_id":"ce4bhnp2rcd13ifvqgvg","pricing_plan_id":"cebpf4jnsgd1na2vs0mg"},{"bike_id":"2379a823-fdeb-40da-be6e-d8af4799bc36","system_id":"levelo_inurba_marseille","lat":43.30323,"lon":5.40441,"is_reserved":false,"is_disabled":true,"rental_uris":{"android":"levelo://app?vid=2379a823-fdeb-40da-be6e-d8af4799bc36","ios":"levelo://app?vid=2379a823-fdeb-40da-be6e-d8af4799bc36"},"vehicle_type_id":"4","last_reported":1737742317,"current_range_meters":400,"station_id":"ce4bh012rcd13ifvqd10","pricing_plan_id":"cebpf4jnsgd1na2vs0mg"},{"bike_id":"ce90fea6-ff2a-4d0b-bd4f-45ced0acf4c0","system_id":"levelo_inurba_marseille","lat":43.32365,"lon":5.36769,"is_reserved":false,"is_disabled":false,"rental_uris":{"android":"levelo://app?vid=ce90fea6-ff2a-4d0b-bd4f-45ced0acf4c0","ios":"levelo://app?vid=ce90fea6-ff2a-4d0b-bd4f-45ced0acf4c0"},"vehicle_type_id":"4","last_reported":1737742317,"current_range_meters":7200,"station_id":"ce4bhsh2rcd13ifvqi2g","pricing_plan_id":"cebpf4jnsgd1na2vs0mg"},{"bike_id":"511d1395-9b6a-4365-982c-ba6fd9ed2253","system_id":"levelo_inurba_marseille","lat":43.29143,"lon":5.38163,"is_reserved":false,"is_disabled":false,"rental_uris":{"android":"levelo://app?vid=511d1395-9b6a-4365-982c-ba6fd9ed2253","ios":"levelo://app?vid=511d1395-9b6a-4365-982c-ba6fd9ed2253"},"vehicle_type_id":"4","last_reported":1737742317,"current_range_meters":25600,"station_id":"","pricing_plan_id":"cebpf4jnsgd1na2vs0mg"},{"bike_id":"8d0bf438-6f14-42dc-8a42-ea54115c1c21","system_id":"levelo_inurba_marseille","lat":43.2953,"lon":5.38552,"is_reserved":false,"is_disabled":false,"rental_uris":{"android":"levelo://app?vid=8d0bf438-6f14-42dc-8a42-ea54115c1c21","ios":"levelo://app?vid=8d0bf438-6f14-42dc-8a42-ea54115c1c21"},"vehicle_type_id":"4","last_reported":1737742317,"current_range_meters":38800,"station_id":"ce4bgih2rcd13ifvqba0","pricing_plan_id":"cebpf4jnsgd1na2vs0mg"},{"bike_id":"8609669b-68c7-4651-8463-8b069e6b3840","system_id":"levelo_inurba_marseille","lat":43.31987,"lon":5.381616,"is_reserved":false,"is_disabled":false,"rental_uris":{"android":"levelo://app?vid=8609669b-68c7-4651-8463-8b069e6b3840","ios":"levelo://app?vid=8609669b-68c7-4651-8463-8b069e6b3840"},"vehicle_type_id":"4","last_reported":1737742317,"current_range_meters":38400,"station_id":"ce4bhr12rcd13ifvqhpg","pricing_plan_id":"cebpf4jnsgd1na2vs0mg"},{"bike_id":"e04d6439-d3f0-49e1-ae5b-7959ba70aeaa","system_id":"levelo_inurba_marseille","lat":43.280346,"lon":5.36947,"is_reserved":false,"is_disabled":false,"rental_uris":{"android":"levelo://app?vid=e04d6439-d3f0-49e1-ae5b-7959ba70aeaa","ios":"levelo://app?vid=e04d6439-d3f0-49e1-ae5b-7959ba70aeaa"},"vehicle_type_id":"4","last_reported":1737742317,"current_range_meters":22400,"station_id":"ce4bha12rcd13ifvqef0","pricing_plan_id":"cebpf4jnsgd1na2vs0mg"},{"bike_id":"f027691f-797f-4d27-b3df-3300c0da2902","system_id":"levelo_inurba_marseille","lat":43.27733,"lon":5.388488,"is_reserved":false,"is_disabled":false,"rental_uris":{"android":"levelo://app?vid=f027691f-797f-4d27-b3df-3300c0da2902","ios":"levelo://app?vid=f027691f-797f-4d27-b3df-3300c0da2902"},"vehicle_type_id":"4","last_reported":1737742317,"current_range_meters":14400,"station_id":"ce4bh3p2rcd13ifvqdp0","pricing_plan_id":"cebpf4jnsgd1na2vs0mg"},{"bike_id":"559276f0-b2d0-4b1d-9d44-e3bb888a665b","system_id":"levelo_inurba_marseille","lat":43.27937,"lon":5.41046,"is_reserved":false,"is_disabled":false,"rental_uris":{"android":"levelo://app?vid=559276f0-b2d0-4b1d-9d44-e3bb888a665b","ios":"levelo://app?vid=559276f0-b2d0-4b1d-9d44-e3bb888a665b"},"vehicle_type_id":"4","last_reported":1737742317,"current_range_meters":22800,"station_id":"ce4bhnp2rcd13ifvqh0g","pricing_plan_id":"cebpf4jnsgd1na2vs0mg"},{"bike_id":"e00195d8-6cc4-4f8e-aab6-589cb9da0b0f","system_id":"levelo_inurba_marseille","lat":43.29151,"lon":5.37167,"is_reserved":false,"is_disabled":false,"rental_uris":{"android":"levelo://app?vid=e00195d8-6cc4-4f8e-aab6-589cb9da0b0f","ios":"levelo://app?vid=e00195d8-6cc4-4f8e-aab6-589cb9da0b0f"},"vehicle_type_id":"4","last_reported":1737742317,"current_range_meters":38800,"station_id":"ce4bha92rcd13ifvqeh0","pricing_plan_id":"cebpf4jnsgd1na2vs0mg"},{"bike_id":"25aedf4c-8a10-4a3b-8430-7dce13f9b465","system_id":"levelo_inurba_marseille","lat":43.30879,"lon":5.39631,"is_reserved":false,"is_disabled":false,"rental_uris":{"android":"levelo://app?vid=25aedf4c-8a10-4a3b-8430-7dce13f9b465","ios":"levelo://app?vid=25aedf4c-8a10-4a3b-8430-7dce13f9b465"},"vehicle_type_id":"4","last_reported":1737742317,"current_range_meters":36400,"station_id":"ce4bh012rcd13ifvqcv0","pricing_plan_id":"cebpf4jnsgd1na2vs0mg"},{"bike_id":"3b2113c4-0076-4c57-8efa-311d67e0f390","system_id":"levelo_inurba_marseille","lat":43.2953,"lon":5.37507,"is_reserved":false,"is_disabled":false,"rental_uris":{"android":"levelo://app?vid=3b2113c4-0076-4c57-8efa-311d67e0f390","ios":"levelo://app?vid=3b2113c4-0076-4c57-8efa-311d67e0f390"},"vehicle_type_id":"4","last_reported":1737742317,"current_range_meters":35200,"station_id":"ce4bgkp2rcd13ifvqbmg","pricing_plan_id":"cebpf4jnsgd1na2vs0mg"},{"bike_id":"b820fcea-b482-447d-8cc2-b479b7e97c00","system_id":"levelo_inurba_marseille","lat":43.30886,"lon":5.3963,"is_reserved":false,"is_disabled":false,"rental_uris":{"android":"levelo://app?vid=b820fcea-b482-447d-8cc2-b479b7e97c00","ios":"levelo://app?vid=b820fcea-b482-447d-8cc2-b479b7e97c00"},"vehicle_type_id":"4","last_reported":1737742317,"current_range_meters":38800,"station_id":"ce4bh012rcd13ifvqcv0","pricing_plan_id":"cebpf4jnsgd1na2vs0mg"},{"bike_id":"9fa07e24-ca3f-4af3-9650-202e7c5077d3","system_id":"levelo_inurba_marseille","lat":43.26208,"lon":5.37444,"is_reserved":false,"is_disabled":false,"rental_uris":{"android":"levelo://app?vid=9fa07e24-ca3f-4af3-9650-202e7c5077d3","ios":"levelo://app?vid=9fa07e24-ca3f-4af3-9650-202e7c5077d3"},"vehicle_type_id":"4","last_reported":1737742317,"current_range_meters":8400,"station_id":"ce4bhgp2rcd13ifvqfc0","pricing_plan_id":"cebpf4jnsgd1na2vs0mg"},{"bike_id":"c425264b-f06d-4006-8cf2-8dc867d9adfd","system_id":"levelo_inurba_marseille","lat":43.31571,"lon":5.38839,"is_reserved":false,"is_disabled":false,"rental_uris":{"android":"levelo://app?vid=c425264b-f06d-4006-8cf2-8dc867d9adfd","ios":"levelo://app?vid=c425264b-f06d-4006-8cf2-8dc867d9adfd"},"vehicle_type_id":"4","last_reported":1737742317,"current_range_meters":10000,"station_id":"","pricing_plan_id":"cebpf4jnsgd1na2vs0mg"},{"bike_id":"bce09769-02dc-489a-bcd7-84421f3b354f","system_id":"levelo_inurba_marseille","lat":43.32367,"lon":5.38884,"is_reserved":false,"is_disabled":false,"rental_uris":{"android":"levelo://app?vid=bce09769-02dc-489a-bcd7-84421f3b354f","ios":"levelo://app?vid=bce09769-02dc-489a-bcd7-84421f3b354f"},"vehicle_type_id":"4","last_reported":1737742317,"current_range_meters":19600,"station_id":"ce4bhqp2rcd13ifvqhog","pricing_plan_id":"cebpf4jnsgd1na2vs0mg"},{"bike_id":"2aa4e9d4-8e7c-4bb8-b9e4-e08c9320e0af","system_id":"levelo_inurba_marseille","lat":43.30604,"lon":5.39322,"is_reserved":false,"is_disabled":false,"rental_uris":{"android":"levelo://app?vid=2aa4e9d4-8e7c-4bb8-b9e4-e08c9320e0af","ios":"levelo://app?vid=2aa4e9d4-8e7c-4bb8-b9e4-e08c9320e0af"},"vehicle_type_id":"4","last_reported":1737742317,"current_range_meters":38800,"station_id":"ce4bh0p2rcd13ifvqd80","pricing_plan_id":"cebpf4jnsgd1na2vs0mg"},{"bike_id":"85c4b304-0a15-4fc1-b75d-cfc16b5afe60","system_id":"levelo_inurba_marseille","lat":43.2293,"lon":5.3538,"is_reserved":false,"is_disabled":false,"rental_uris":{"android":"levelo://app?vid=85c4b304-0a15-4fc1-b75d-cfc16b5afe60","ios":"levelo://app?vid=85c4b304-0a15-4fc1-b75d-cfc16b5afe60"},"vehicle_type_id":"4","last_reported":1737742317,"current_range_meters":38800,"station_id":"cpo3532slgdg3j2ikp40","pricing_plan_id":"cebpf4jnsgd1na2vs0mg"},{"bike_id":"d06e4858-1735-4dcf-9f21-bf859f4d029b","system_id":"levelo_inurba_marseille","lat":43.28157,"lon":5.4264,"is_reserved":false,"is_disabled":true,"rental_uris":{"android":"levelo://app?vid=d06e4858-1735-4dcf-9f21-bf859f4d029b","ios":"levelo://app?vid=d06e4858-1735-4dcf-9f21-bf859f4d029b"},"vehicle_type_id":"4","last_reported":1737742317,"current_range_meters":2000,"station_id":"ce4bhnh2rcd13ifvqgug","pricing_plan_id":"cebpf4jnsgd1na2vs0mg"},{"bike_id":"4d0f5f2a-f13f-4c4a-b8b5-8662c81757a7","system_id":"levelo_inurba_marseille","lat":43.29524,"lon":5.39049,"is_reserved":false,"is_disabled":false,"rental_uris":{"android":"levelo://app?vid=4d0f5f2a-f13f-4c4a-b8b5-8662c81757a7","ios":"levelo://app?vid=4d0f5f2a-f13f-4c4a-b8b5-8662c81757a7"},"vehicle_type_id":"4","last_reported":1737742317,"current_range_meters":38800,"station_id":"ce4bh3p2rcd13ifvqdp0","pricing_plan_id":"cebpf4jnsgd1na2vs0mg"},{"bike_id":"7f95d492-e5fe-47a9-9496-ce67e4d5c2e7","system_id":"levelo_inurba_marseille","lat":43.31756,"lon":5.39022,"is_reserved":false,"is_disabled":false,"rental_uris":{"android":"levelo://app?vid=7f95d492-e5fe-47a9-9496-ce67e4d5c2e7","ios":"levelo://app?vid=7f95d492-e5fe-47a9-9496-ce67e4d5c2e7"},"vehicle_type_id":"4","last_reported":1737742317,"current_range_meters":38800,"station_id":"ce4bhqp2rcd13ifvqhng","pricing_plan_id":"cebpf4jnsgd1na2vs0mg"},{"bike_id":"f94f367d-5dfd-446c-9c2d-fc5ce6d08ea1","system_id":"levelo_inurba_marseille","lat":43.29971,"lon":5.3717,"is_reserved":false,"is_disabled":false,"rental_uris":{"android":"levelo://app?vid=f94f367d-5dfd-446c-9c2d-fc5ce6d08ea1","ios":"levelo://app?vid=f94f367d-5dfd-446c-9c2d-fc5ce6d08ea1"},"vehicle_type_id":"4","last_reported":1737742317,"current_range_meters":10800,"station_id":"ce4bgr92rcd13ifvqc7g","pricing_plan_id":"cebpf4jnsgd1na2vs0mg"},{"bike_id":"80a27ad3-149d-4d09-aa7e-c8e027a8aee3","system_id":"levelo_inurba_marseille","lat":43.2991,"lon":5.39759,"is_reserved":false,"is_disabled":false,"rental_uris":{"android":"levelo://app?vid=80a27ad3-149d-4d09-aa7e-c8e027a8aee3","ios":"levelo://app?vid=80a27ad3-149d-4d09-aa7e-c8e027a8aee3"},"vehicle_type_id":"4","last_reported":1737742317,"current_range_meters":32000,"station_id":"","pricing_plan_id":"cebpf4jnsgd1na2vs0mg"},{"bike_id":"354a0ed3-542c-4648-b29a-783f2de4680e","system_id":"levelo_inurba_marseille","lat":43.27669,"lon":5.38871,"is_reserved":false,"is_disabled":true,"rental_uris":{"android":"levelo://app?vid=354a0ed3-542c-4648-b29a-783f2de4680e","ios":"levelo://app?vid=354a0ed3-542c-4648-b29a-783f2de4680e"},"vehicle_type_id":"4","last_reported":1737742317,"current_range_meters":36400,"station_id":"ce4bhi12rcd13ifvqfo0","pricing_plan_id":"cebpf4jnsgd1na2vs0mg"},{"bike_id":"03b5d78d-90a3-460f-bab3-7f8334e280b5","system_id":"levelo_inurba_marseille","lat":43.30881,"lon":5.39625,"is_reserved":false,"is_disabled":false,"rental_uris":{"android":"levelo://app?vid=03b5d78d-90a3-460f-bab3-7f8334e280b5","ios":"levelo://app?vid=03b5d78d-90a3-460f-bab3-7f8334e280b5"},"vehicle_type_id":"4","last_reported":1737742317,"current_range_meters":38800,"station_id":"ce4bh012rcd13ifvqcv0","pricing_plan_id":"cebpf4jnsgd1na2vs0mg"},{"bike_id":"a1b1d467-2a5b-409a-9490-1d1dfec239ee","system_id":"levelo_inurba_marseille","lat":43.31326,"lon":5.39685,"is_reserved":false,"is_disabled":false,"rental_uris":{"android":"levelo://app?vid=a1b1d467-2a5b-409a-9490-1d1dfec239ee","ios":"levelo://app?vid=a1b1d467-2a5b-409a-9490-1d1dfec239ee"},"vehicle_type_id":"4","last_reported":1737742317,"current_range_meters":32000,"station_id":"ce4bgvp2rcd13ifvqcu0","pricing_plan_id":"cebpf4jnsgd1na2vs0mg"},{"bike_id":"13ffeea6-4e88-4273-a218-3c5d61ae6af5","system_id":"levelo_inurba_marseille","lat":43.32112,"lon":5.36763,"is_reserved":false,"is_disabled":false,"rental_uris":{"android":"levelo://app?vid=13ffeea6-4e88-4273-a218-3c5d61ae6af5","ios":"levelo://app?vid=13ffeea6-4e88-4273-a218-3c5d61ae6af5"},"vehicle_type_id":"4","last_reported":1737742317,"current_range_meters":36400,"station_id":"ce4bhrh2rcd13ifvqhug","pricing_plan_id":"cebpf4jnsgd1na2vs0mg"},{"bike_id":"183d99f3-c5aa-4abb-b8da-46143af25668","system_id":"levelo_inurba_marseille","lat":43.2928,"lon":5.36832,"is_reserved":false,"is_disabled":false,"rental_uris":{"android":"levelo://app?vid=183d99f3-c5aa-4abb-b8da-46143af25668","ios":"levelo://app?vid=183d99f3-c5aa-4abb-b8da-46143af25668"},"vehicle_type_id":"4","last_reported":1737742317,"current_range_meters":31200,"station_id":"ce4bhbp2rcd13ifvqesg","pricing_plan_id":"cebpf4jnsgd1na2vs0mg"},{"bike_id":"f9053674-636a-45f0-b2bf-d3c05012cad1","system_id":"levelo_inurba_marseille","lat":43.28461,"lon":5.35874,"is_reserved":false,"is_disabled":false,"rental_uris":{"android":"levelo://app?vid=f9053674-636a-45f0-b2bf-d3c05012cad1","ios":"levelo://app?vid=f9053674-636a-45f0-b2bf-d3c05012cad1"},"vehicle_type_id":"4","last_reported":1737742317,"current_range_meters":20400,"station_id":"ce4bhah2rcd13ifvqei0","pricing_plan_id":"cebpf4jnsgd1na2vs0mg"},{"bike_id":"200a4bf1-05ee-4a72-ad3d-ba9dee551928","system_id":"levelo_inurba_marseille","lat":43.29277,"lon":5.36841,"is_reserved":false,"is_disabled":false,"rental_uris":{"android":"levelo://app?vid=200a4bf1-05ee-4a72-ad3d-ba9dee551928","ios":"levelo://app?vid=200a4bf1-05ee-4a72-ad3d-ba9dee551928"},"vehicle_type_id":"4","last_reported":1737742317,"current_range_meters":36400,"station_id":"ce4bhbp2rcd13ifvqesg","pricing_plan_id":"cebpf4jnsgd1na2vs0mg"},{"bike_id":"45a8a6e8-3c09-44a7-8702-969bb083a143","system_id":"levelo_inurba_marseille","lat":43.3043,"lon":5.38895,"is_reserved":false,"is_disabled":false,"rental_uris":{"android":"levelo://app?vid=45a8a6e8-3c09-44a7-8702-969bb083a143","ios":"levelo://app?vid=45a8a6e8-3c09-44a7-8702-969bb083a143"},"vehicle_type_id":"4","last_reported":1737742317,"current_range_meters":38000,"station_id":"ce4bgk12rcd13ifvqbi0","pricing_plan_id":"cebpf4jnsgd1na2vs0mg"},{"bike_id":"79bc270a-b10a-47ec-9d80-2407f99fd77e","system_id":"levelo_inurba_marseille","lat":43.30788,"lon":5.38162,"is_reserved":false,"is_disabled":false,"rental_uris":{"android":"levelo://app?vid=79bc270a-b10a-47ec-9d80-2407f99fd77e","ios":"levelo://app?vid=79bc270a-b10a-47ec-9d80-2407f99fd77e"},"vehicle_type_id":"4","last_reported":1737742317,"current_range_meters":32800,"station_id":"ce4bgt12rcd13ifvqce0","pricing_plan_id":"cebpf4jnsgd1na2vs0mg"},{"bike_id":"bb586b6e-8bd0-41e2-8e62-1f363670fe95","system_id":"levelo_inurba_marseille","lat":43.29525,"lon":5.39033,"is_reserved":false,"is_disabled":false,"rental_uris":{"android":"levelo://app?vid=bb586b6e-8bd0-41e2-8e62-1f363670fe95","ios":"levelo://app?vid=bb586b6e-8bd0-41e2-8e62-1f363670fe95"},"vehicle_type_id":"4","last_reported":1737742317,"current_range_meters":28400,"station_id":"ce4bh3p2rcd13ifvqdp0","pricing_plan_id":"cebpf4jnsgd1na2vs0mg"},{"bike_id":"42027a5c-4cc3-4823-bbd1-6dd029b8741e","system_id":"levelo_inurba_marseille","lat":43.30303,"lon":5.39211,"is_reserved":false,"is_disabled":false,"rental_uris":{"android":"levelo://app?vid=42027a5c-4cc3-4823-bbd1-6dd029b8741e","ios":"levelo://app?vid=42027a5c-4cc3-4823-bbd1-6dd029b8741e"},"vehicle_type_id":"4","last_reported":1737742317,"current_range_meters":34800,"station_id":"ce4bgkh2rcd13ifvqbk0","pricing_plan_id":"cebpf4jnsgd1na2vs0mg"},{"bike_id":"35614ed7-a0df-4792-bca2-a1978fcd9fab","system_id":"levelo_inurba_marseille","lat":43.30794,"lon":5.43533,"is_reserved":false,"is_disabled":false,"rental_uris":{"android":"levelo://app?vid=35614ed7-a0df-4792-bca2-a1978fcd9fab","ios":"levelo://app?vid=35614ed7-a0df-4792-bca2-a1978fcd9fab"},"vehicle_type_id":"4","last_reported":1737742317,"current_range_meters":37600,"station_id":"ce4bhph2rcd13ifvqheg","pricing_plan_id":"cebpf4jnsgd1na2vs0mg"},{"bike_id":"c2f5e767-94df-4cd0-bc69-c134e1a5b092","system_id":"levelo_inurba_marseille","lat":43.31078,"lon":5.38363,"is_reserved":false,"is_disabled":false,"rental_uris":{"android":"levelo://app?vid=c2f5e767-94df-4cd0-bc69-c134e1a5b092","ios":"levelo://app?vid=c2f5e767-94df-4cd0-bc69-c134e1a5b092"},"vehicle_type_id":"4","last_reported":1737742317,"current_range_meters":4800,"station_id":"ce4bgv92rcd13ifvqcr0","pricing_plan_id":"cebpf4jnsgd1na2vs0mg"},{"bike_id":"7cea5488-2002-4229-bc99-836914b94071","system_id":"levelo_inurba_marseille","lat":43.2957,"lon":5.39976,"is_reserved":false,"is_disabled":false,"rental_uris":{"android":"levelo://app?vid=7cea5488-2002-4229-bc99-836914b94071","ios":"levelo://app?vid=7cea5488-2002-4229-bc99-836914b94071"},"vehicle_type_id":"4","last_reported":1737742317,"current_range_meters":27600,"station_id":"ce4bh312rcd13ifvqdj0","pricing_plan_id":"cebpf4jnsgd1na2vs0mg"},{"bike_id":"d2cb21d3-cc32-48d3-b773-800826051dd6","system_id":"levelo_inurba_marseille","lat":43.33026,"lon":5.39045,"is_reserved":false,"is_disabled":false,"rental_uris":{"android":"levelo://app?vid=d2cb21d3-cc32-48d3-b773-800826051dd6","ios":"levelo://app?vid=d2cb21d3-cc32-48d3-b773-800826051dd6"},"vehicle_type_id":"4","last_reported":1737742317,"current_range_meters":6800,"station_id":"ce4bhr92rcd13ifvqhrg","pricing_plan_id":"cebpf4jnsgd1na2vs0mg"},{"bike_id":"614069de-aa6c-4682-bdb4-b697111c134b","system_id":"levelo_inurba_marseille","lat":43.32288,"lon":5.38258,"is_reserved":false,"is_disabled":false,"rental_uris":{"android":"levelo://app?vid=614069de-aa6c-4682-bdb4-b697111c134b","ios":"levelo://app?vid=614069de-aa6c-4682-bdb4-b697111c134b"},"vehicle_type_id":"4","last_reported":1737742317,"current_range_meters":17200,"station_id":"ce4bhr12rcd13ifvqhqg","pricing_plan_id":"cebpf4jnsgd1na2vs0mg"},{"bike_id":"b9cd08a9-1581-4cbf-9421-3530dee5f2eb","system_id":"levelo_inurba_marseille","lat":43.2606,"lon":5.39387,"is_reserved":false,"is_disabled":false,"rental_uris":{"android":"levelo://app?vid=b9cd08a9-1581-4cbf-9421-3530dee5f2eb","ios":"levelo://app?vid=b9cd08a9-1581-4cbf-9421-3530dee5f2eb"},"vehicle_type_id":"4","last_reported":1737742317,"current_range_meters":38000,"station_id":"ce4bhh92rcd13ifvqfj0","pricing_plan_id":"cebpf4jnsgd1na2vs0mg"},{"bike_id":"1751fce2-cf09-42c4-909f-331d932110c8","system_id":"levelo_inurba_marseille","lat":43.308863,"lon":5.396307,"is_reserved":false,"is_disabled":true,"rental_uris":{"android":"levelo://app?vid=1751fce2-cf09-42c4-909f-331d932110c8","ios":"levelo://app?vid=1751fce2-cf09-42c4-909f-331d932110c8"},"vehicle_type_id":"4","last_reported":1737742317,"current_range_meters":22800,"station_id":"ce4bh012rcd13ifvqcv0","pricing_plan_id":"cebpf4jnsgd1na2vs0mg"},{"bike_id":"f556f1d2-7ef7-4abe-98f2-b40b708ce230","system_id":"levelo_inurba_marseille","lat":43.28853,"lon":5.35862,"is_reserved":false,"is_disabled":false,"rental_uris":{"android":"levelo://app?vid=f556f1d2-7ef7-4abe-98f2-b40b708ce230","ios":"levelo://app?vid=f556f1d2-7ef7-4abe-98f2-b40b708ce230"},"vehicle_type_id":"4","last_reported":1737742317,"current_range_meters":20000,"station_id":"ce4bhb12rcd13ifvqem0","pricing_plan_id":"cebpf4jnsgd1na2vs0mg"},{"bike_id":"af823cee-37f2-47b8-aa07-ad3a2a0247d6","system_id":"levelo_inurba_marseille","lat":43.298657,"lon":5.397404,"is_reserved":false,"is_disabled":false,"rental_uris":{"android":"levelo://app?vid=af823cee-37f2-47b8-aa07-ad3a2a0247d6","ios":"levelo://app?vid=af823cee-37f2-47b8-aa07-ad3a2a0247d6"},"vehicle_type_id":"4","last_reported":1737742317,"current_range_meters":24800,"station_id":"ce4bh0h2rcd13ifvqd50","pricing_plan_id":"cebpf4jnsgd1na2vs0mg"},{"bike_id":"99a00521-7f3a-4f29-9ec7-38d6b39cc644","system_id":"levelo_inurba_marseille","lat":43.28459,"lon":5.35895,"is_reserved":false,"is_disabled":false,"rental_uris":{"android":"levelo://app?vid=99a00521-7f3a-4f29-9ec7-38d6b39cc644","ios":"levelo://app?vid=99a00521-7f3a-4f29-9ec7-38d6b39cc644"},"vehicle_type_id":"4","last_reported":1737742317,"current_range_meters":38400,"station_id":"ce4bhah2rcd13ifvqei0","pricing_plan_id":"cebpf4jnsgd1na2vs0mg"},{"bike_id":"f4f3e7ac-0023-4912-b256-31f60c64f2c8","system_id":"levelo_inurba_marseille","lat":43.31266,"lon":5.4018,"is_reserved":false,"is_disabled":false,"rental_uris":{"android":"levelo://app?vid=f4f3e7ac-0023-4912-b256-31f60c64f2c8","ios":"levelo://app?vid=f4f3e7ac-0023-4912-b256-31f60c64f2c8"},"vehicle_type_id":"4","last_reported":1737742317,"current_range_meters":27600,"station_id":"ce4bh092rcd13ifvqd30","pricing_plan_id":"cebpf4jnsgd1na2vs0mg"},{"bike_id":"89e0e4a1-4c7f-46fc-97d8-76383b4053ad","system_id":"levelo_inurba_marseille","lat":43.231856,"lon":5.399897,"is_reserved":false,"is_disabled":false,"rental_uris":{"android":"levelo://app?vid=89e0e4a1-4c7f-46fc-97d8-76383b4053ad","ios":"levelo://app?vid=89e0e4a1-4c7f-46fc-97d8-76383b4053ad"},"vehicle_type_id":"4","last_reported":1737742317,"current_range_meters":17200,"station_id":"ce4bhn12rcd13ifvqgqg","pricing_plan_id":"cebpf4jnsgd1na2vs0mg"},{"bike_id":"24f954ca-c480-48da-976f-f45f280b4ebb","system_id":"levelo_inurba_marseille","lat":43.29199,"lon":5.39319,"is_reserved":false,"is_disabled":false,"rental_uris":{"android":"levelo://app?vid=24f954ca-c480-48da-976f-f45f280b4ebb","ios":"levelo://app?vid=24f954ca-c480-48da-976f-f45f280b4ebb"},"vehicle_type_id":"4","last_reported":1737742317,"current_range_meters":28000,"station_id":"ce4bh192rcd13ifvqdd0","pricing_plan_id":"cebpf4jnsgd1na2vs0mg"},{"bike_id":"9318f65b-b858-4e53-8d9a-53d12e5b85d6","system_id":"levelo_inurba_marseille","lat":43.28362,"lon":5.38638,"is_reserved":false,"is_disabled":false,"rental_uris":{"android":"levelo://app?vid=9318f65b-b858-4e53-8d9a-53d12e5b85d6","ios":"levelo://app?vid=9318f65b-b858-4e53-8d9a-53d12e5b85d6"},"vehicle_type_id":"4","last_reported":1737742317,"current_range_meters":38800,"station_id":"ce4bh492rcd13ifvqdvg","pricing_plan_id":"cebpf4jnsgd1na2vs0mg"},{"bike_id":"e7c6bf3d-e34b-4f9f-a800-8d4462a29621","system_id":"levelo_inurba_marseille","lat":43.29895,"lon":5.43647,"is_reserved":false,"is_disabled":false,"rental_uris":{"android":"levelo://app?vid=e7c6bf3d-e34b-4f9f-a800-8d4462a29621","ios":"levelo://app?vid=e7c6bf3d-e34b-4f9f-a800-8d4462a29621"},"vehicle_type_id":"4","last_reported":1737742317,"current_range_meters":32800,"station_id":"ce4bhpp2rcd13ifvqhfg","pricing_plan_id":"cebpf4jnsgd1na2vs0mg"},{"bike_id":"9863b7f9-4316-4322-9f6c-3cc66b0448e2","system_id":"levelo_inurba_marseille","lat":43.279439,"lon":5.389008,"is_reserved":false,"is_disabled":true,"rental_uris":{"android":"levelo://app?vid=9863b7f9-4316-4322-9f6c-3cc66b0448e2","ios":"levelo://app?vid=9863b7f9-4316-4322-9f6c-3cc66b0448e2"},"vehicle_type_id":"4","last_reported":1737742317,"current_range_meters":19200,"station_id":"","pricing_plan_id":"cebpf4jnsgd1na2vs0mg"},{"bike_id":"a1328b10-6de2-4784-b99e-f089c4cb70bf","system_id":"levelo_inurba_marseille","lat":43.28415,"lon":5.37505,"is_reserved":false,"is_disabled":true,"rental_uris":{"android":"levelo://app?vid=a1328b10-6de2-4784-b99e-f089c4cb70bf","ios":"levelo://app?vid=a1328b10-6de2-4784-b99e-f089c4cb70bf"},"vehicle_type_id":"4","last_reported":1737742317,"current_range_meters":400,"station_id":"ce4bh412rcd13ifvqds0","pricing_plan_id":"cebpf4jnsgd1na2vs0mg"},{"bike_id":"fee3c96a-16ca-4156-9101-a6fc44a51e07","system_id":"levelo_inurba_marseille","lat":43.28421,"lon":5.37518,"is_reserved":false,"is_disabled":false,"rental_uris":{"android":"levelo://app?vid=fee3c96a-16ca-4156-9101-a6fc44a51e07","ios":"levelo://app?vid=fee3c96a-16ca-4156-9101-a6fc44a51e07"},"vehicle_type_id":"4","last_reported":1737742317,"current_range_meters":21600,"station_id":"ce4bh412rcd13ifvqds0","pricing_plan_id":"cebpf4jnsgd1na2vs0mg"},{"bike_id":"c0449c5e-1774-43b2-9e91-92d916bc3b33","system_id":"levelo_inurba_marseille","lat":43.28726,"lon":5.36093,"is_reserved":false,"is_disabled":false,"rental_uris":{"android":"levelo://app?vid=c0449c5e-1774-43b2-9e91-92d916bc3b33","ios":"levelo://app?vid=c0449c5e-1774-43b2-9e91-92d916bc3b33"},"vehicle_type_id":"4","last_reported":1737742317,"current_range_meters":19200,"station_id":"cki0cbj6b192h4jlfktg","pricing_plan_id":"cebpf4jnsgd1na2vs0mg"},{"bike_id":"20d321be-acec-46de-a527-67babd1ed284","system_id":"levelo_inurba_marseille","lat":43.26465,"lon":5.39584,"is_reserved":false,"is_disabled":false,"rental_uris":{"android":"levelo://app?vid=20d321be-acec-46de-a527-67babd1ed284","ios":"levelo://app?vid=20d321be-acec-46de-a527-67babd1ed284"},"vehicle_type_id":"4","last_reported":1737742317,"current_range_meters":36800,"station_id":"ce4bhi12rcd13ifvqfq0","pricing_plan_id":"cebpf4jnsgd1na2vs0mg"},{"bike_id":"1fc3875f-dd6d-4287-9fbf-b9b69279a719","system_id":"levelo_inurba_marseille","lat":43.29512,"lon":5.39044,"is_reserved":false,"is_disabled":false,"rental_uris":{"android":"levelo://app?vid=1fc3875f-dd6d-4287-9fbf-b9b69279a719","ios":"levelo://app?vid=1fc3875f-dd6d-4287-9fbf-b9b69279a719"},"vehicle_type_id":"4","last_reported":1737742317,"current_range_meters":30800,"station_id":"ce4bh3p2rcd13ifvqdp0","pricing_plan_id":"cebpf4jnsgd1na2vs0mg"},{"bike_id":"ee20205f-f619-43f6-8400-ab75d5b0c9bf","system_id":"levelo_inurba_marseille","lat":43.26516,"lon":5.39536,"is_reserved":false,"is_disabled":false,"rental_uris":{"android":"levelo://app?vid=ee20205f-f619-43f6-8400-ab75d5b0c9bf","ios":"levelo://app?vid=ee20205f-f619-43f6-8400-ab75d5b0c9bf"},"vehicle_type_id":"4","last_reported":1737742317,"current_range_meters":33600,"station_id":"ce4bhi12rcd13ifvqfq0","pricing_plan_id":"cebpf4jnsgd1na2vs0mg"},{"bike_id":"47fb93bc-9361-47b9-b715-3f410aa37369","system_id":"levelo_inurba_marseille","lat":43.29306,"lon":5.3718,"is_reserved":false,"is_disabled":false,"rental_uris":{"android":"levelo://app?vid=47fb93bc-9361-47b9-b715-3f410aa37369","ios":"levelo://app?vid=47fb93bc-9361-47b9-b715-3f410aa37369"},"vehicle_type_id":"4","last_reported":1737742317,"current_range_meters":800,"station_id":"ce4bgh92rcd13ifvqb40","pricing_plan_id":"cebpf4jnsgd1na2vs0mg"},{"bike_id":"f9d6d97b-b38d-4f79-a438-6479c0fb4508","system_id":"levelo_inurba_marseille","lat":43.29432,"lon":5.39764,"is_reserved":false,"is_disabled":false,"rental_uris":{"android":"levelo://app?vid=f9d6d97b-b38d-4f79-a438-6479c0fb4508","ios":"levelo://app?vid=f9d6d97b-b38d-4f79-a438-6479c0fb4508"},"vehicle_type_id":"4","last_reported":1737742317,"current_range_meters":10800,"station_id":"ce4bh3h2rcd13ifvqdo0","pricing_plan_id":"cebpf4jnsgd1na2vs0mg"},{"bike_id":"a4f05d23-5453-47d8-bccb-077c729b02d8","system_id":"levelo_inurba_marseille","lat":43.28918,"lon":5.38384,"is_reserved":false,"is_disabled":true,"rental_uris":{"android":"levelo://app?vid=a4f05d23-5453-47d8-bccb-077c729b02d8","ios":"levelo://app?vid=a4f05d23-5453-47d8-bccb-077c729b02d8"},"vehicle_type_id":"4","last_reported":1737742317,"current_range_meters":1200,"station_id":"ce4bh612rcd13ifvqe6g","pricing_plan_id":"cebpf4jnsgd1na2vs0mg"},{"bike_id":"e2386064-66b8-4a74-bed4-842e503a041a","system_id":"levelo_inurba_marseille","lat":43.31689,"lon":5.40472,"is_reserved":false,"is_disabled":false,"rental_uris":{"android":"levelo://app?vid=e2386064-66b8-4a74-bed4-842e503a041a","ios":"levelo://app?vid=e2386064-66b8-4a74-bed4-842e503a041a"},"vehicle_type_id":"4","last_reported":1737742317,"current_range_meters":22800,"station_id":"ce4bh012rcd13ifvqd00","pricing_plan_id":"cebpf4jnsgd1na2vs0mg"},{"bike_id":"efe2f90e-419c-4d49-b923-c58e5784b6ef","system_id":"levelo_inurba_marseille","lat":43.29877,"lon":5.39738,"is_reserved":false,"is_disabled":false,"rental_uris":{"android":"levelo://app?vid=efe2f90e-419c-4d49-b923-c58e5784b6ef","ios":"levelo://app?vid=efe2f90e-419c-4d49-b923-c58e5784b6ef"},"vehicle_type_id":"4","last_reported":1737742317,"current_range_meters":19600,"station_id":"ce4bh0h2rcd13ifvqd50","pricing_plan_id":"cebpf4jnsgd1na2vs0mg"},{"bike_id":"4856d81c-63d5-4018-bf83-1c4f94601ec2","system_id":"levelo_inurba_marseille","lat":43.2622,"lon":5.3746,"is_reserved":false,"is_disabled":false,"rental_uris":{"android":"levelo://app?vid=4856d81c-63d5-4018-bf83-1c4f94601ec2","ios":"levelo://app?vid=4856d81c-63d5-4018-bf83-1c4f94601ec2"},"vehicle_type_id":"4","last_reported":1737742317,"current_range_meters":27200,"station_id":"ce4bhgp2rcd13ifvqfc0","pricing_plan_id":"cebpf4jnsgd1na2vs0mg"},{"bike_id":"37a8169f-f227-4bc0-9e8f-8b7176cb3bac","system_id":"levelo_inurba_marseille","lat":43.3013,"lon":5.38753,"is_reserved":false,"is_disabled":false,"rental_uris":{"android":"levelo://app?vid=37a8169f-f227-4bc0-9e8f-8b7176cb3bac","ios":"levelo://app?vid=37a8169f-f227-4bc0-9e8f-8b7176cb3bac"},"vehicle_type_id":"4","last_reported":1737742317,"current_range_meters":30400,"station_id":"ce4bghh2rcd13ifvqb60","pricing_plan_id":"cebpf4jnsgd1na2vs0mg"},{"bike_id":"6ef9b24f-1575-49ac-882b-3c1626d1ea55","system_id":"levelo_inurba_marseille","lat":43.29263,"lon":5.40903,"is_reserved":false,"is_disabled":false,"rental_uris":{"android":"levelo://app?vid=6ef9b24f-1575-49ac-882b-3c1626d1ea55","ios":"levelo://app?vid=6ef9b24f-1575-49ac-882b-3c1626d1ea55"},"vehicle_type_id":"4","last_reported":1737742317,"current_range_meters":4400,"station_id":"ce4bh192rcd13ifvqdc0","pricing_plan_id":"cebpf4jnsgd1na2vs0mg"},{"bike_id":"6f0e28ce-024f-4cd7-923a-80deb29961a7","system_id":"levelo_inurba_marseille","lat":43.33014,"lon":5.3903,"is_reserved":false,"is_disabled":false,"rental_uris":{"android":"levelo://app?vid=6f0e28ce-024f-4cd7-923a-80deb29961a7","ios":"levelo://app?vid=6f0e28ce-024f-4cd7-923a-80deb29961a7"},"vehicle_type_id":"4","last_reported":1737742317,"current_range_meters":34000,"station_id":"ce4bhr92rcd13ifvqhrg","pricing_plan_id":"cebpf4jnsgd1na2vs0mg"},{"bike_id":"6765b80f-109b-4245-a4de-d489673b4413","system_id":"levelo_inurba_marseille","lat":43.26955,"lon":5.40248,"is_reserved":false,"is_disabled":false,"rental_uris":{"android":"levelo://app?vid=6765b80f-109b-4245-a4de-d489673b4413","ios":"levelo://app?vid=6765b80f-109b-4245-a4de-d489673b4413"},"vehicle_type_id":"4","last_reported":1737742317,"current_range_meters":35600,"station_id":"cjm6bp8fraef2m0cb0m0","pricing_plan_id":"cebpf4jnsgd1na2vs0mg"},{"bike_id":"7c78a755-c7f5-4f07-a96b-621451d47948","system_id":"levelo_inurba_marseille","lat":43.29899,"lon":5.43663,"is_reserved":false,"is_disabled":false,"rental_uris":{"android":"levelo://app?vid=7c78a755-c7f5-4f07-a96b-621451d47948","ios":"levelo://app?vid=7c78a755-c7f5-4f07-a96b-621451d47948"},"vehicle_type_id":"4","last_reported":1737742317,"current_range_meters":38800,"station_id":"ce4bhpp2rcd13ifvqhfg","pricing_plan_id":"cebpf4jnsgd1na2vs0mg"},{"bike_id":"32b6ca88-74ef-44ca-8cf1-8c56cd1b9220","system_id":"levelo_inurba_marseille","lat":43.26677,"lon":5.38265,"is_reserved":false,"is_disabled":false,"rental_uris":{"android":"levelo://app?vid=32b6ca88-74ef-44ca-8cf1-8c56cd1b9220","ios":"levelo://app?vid=32b6ca88-74ef-44ca-8cf1-8c56cd1b9220"},"vehicle_type_id":"4","last_reported":1737742317,"current_range_meters":7200,"station_id":"ce4bhg92rcd13ifvqf90","pricing_plan_id":"cebpf4jnsgd1na2vs0mg"},{"bike_id":"d7ae66ff-828b-4120-b7b2-8ba17d450aa7","system_id":"levelo_inurba_marseille","lat":43.30309,"lon":5.39211,"is_reserved":false,"is_disabled":true,"rental_uris":{"android":"levelo://app?vid=d7ae66ff-828b-4120-b7b2-8ba17d450aa7","ios":"levelo://app?vid=d7ae66ff-828b-4120-b7b2-8ba17d450aa7"},"vehicle_type_id":"4","last_reported":1737742317,"current_range_meters":400,"station_id":"ce4bgkh2rcd13ifvqbk0","pricing_plan_id":"cebpf4jnsgd1na2vs0mg"},{"bike_id":"e041b0b7-873c-4ee1-98b9-3c0081bf8afd","system_id":"levelo_inurba_marseille","lat":43.30602,"lon":5.39367,"is_reserved":false,"is_disabled":false,"rental_uris":{"android":"levelo://app?vid=e041b0b7-873c-4ee1-98b9-3c0081bf8afd","ios":"levelo://app?vid=e041b0b7-873c-4ee1-98b9-3c0081bf8afd"},"vehicle_type_id":"4","last_reported":1737742317,"current_range_meters":14400,"station_id":"ce4bh0p2rcd13ifvqd80","pricing_plan_id":"cebpf4jnsgd1na2vs0mg"},{"bike_id":"b11414a5-86e5-4af6-af22-fa55543d352b","system_id":"levelo_inurba_marseille","lat":43.24816,"lon":5.37438,"is_reserved":false,"is_disabled":false,"rental_uris":{"android":"levelo://app?vid=b11414a5-86e5-4af6-af22-fa55543d352b","ios":"levelo://app?vid=b11414a5-86e5-4af6-af22-fa55543d352b"},"vehicle_type_id":"4","last_reported":1737742317,"current_range_meters":27600,"station_id":"ce4bhgh2rcd13ifvqfb0","pricing_plan_id":"cebpf4jnsgd1na2vs0mg"},{"bike_id":"e5ca9950-69a5-4bdb-adeb-fc0e9d08695c","system_id":"levelo_inurba_marseille","lat":43.29174,"lon":5.37165,"is_reserved":false,"is_disabled":true,"rental_uris":{"android":"levelo://app?vid=e5ca9950-69a5-4bdb-adeb-fc0e9d08695c","ios":"levelo://app?vid=e5ca9950-69a5-4bdb-adeb-fc0e9d08695c"},"vehicle_type_id":"4","last_reported":1737742317,"current_range_meters":400,"station_id":"ce4bha92rcd13ifvqeh0","pricing_plan_id":"cebpf4jnsgd1na2vs0mg"},{"bike_id":"ba521710-0183-4b96-a990-2a3003b7ca58","system_id":"levelo_inurba_marseille","lat":43.279089,"lon":5.380098,"is_reserved":false,"is_disabled":false,"rental_uris":{"android":"levelo://app?vid=ba521710-0183-4b96-a990-2a3003b7ca58","ios":"levelo://app?vid=ba521710-0183-4b96-a990-2a3003b7ca58"},"vehicle_type_id":"4","last_reported":1737742317,"current_range_meters":38800,"station_id":"ce4bhf92rcd13ifvqf50","pricing_plan_id":"cebpf4jnsgd1na2vs0mg"},{"bike_id":"a3f43fbb-d9b6-4642-860d-f85693466f12","system_id":"levelo_inurba_marseille","lat":43.23182,"lon":5.39991,"is_reserved":false,"is_disabled":false,"rental_uris":{"android":"levelo://app?vid=a3f43fbb-d9b6-4642-860d-f85693466f12","ios":"levelo://app?vid=a3f43fbb-d9b6-4642-860d-f85693466f12"},"vehicle_type_id":"4","last_reported":1737742317,"current_range_meters":38400,"station_id":"ce4bhn12rcd13ifvqgqg","pricing_plan_id":"cebpf4jnsgd1na2vs0mg"},{"bike_id":"5d61ced7-a635-45a9-8219-dc435a9d527d","system_id":"levelo_inurba_marseille","lat":43.27962,"lon":5.38716,"is_reserved":false,"is_disabled":false,"rental_uris":{"android":"levelo://app?vid=5d61ced7-a635-45a9-8219-dc435a9d527d","ios":"levelo://app?vid=5d61ced7-a635-45a9-8219-dc435a9d527d"},"vehicle_type_id":"4","last_reported":1737742317,"current_range_meters":35200,"station_id":"ce4bhg12rcd13ifvqf80","pricing_plan_id":"cebpf4jnsgd1na2vs0mg"},{"bike_id":"f1d114f7-39f7-43c5-9039-caca20aad4ce","system_id":"levelo_inurba_marseille","lat":43.31755,"lon":5.39014,"is_reserved":false,"is_disabled":false,"rental_uris":{"android":"levelo://app?vid=f1d114f7-39f7-43c5-9039-caca20aad4ce","ios":"levelo://app?vid=f1d114f7-39f7-43c5-9039-caca20aad4ce"},"vehicle_type_id":"4","last_reported":1737742317,"current_range_meters":17600,"station_id":"ce4bhqp2rcd13ifvqhng","pricing_plan_id":"cebpf4jnsgd1na2vs0mg"},{"bike_id":"f147bf4f-7cb4-4977-9cf9-688e0d525a71","system_id":"levelo_inurba_marseille","lat":43.29227,"lon":5.36074,"is_reserved":false,"is_disabled":false,"rental_uris":{"android":"levelo://app?vid=f147bf4f-7cb4-4977-9cf9-688e0d525a71","ios":"levelo://app?vid=f147bf4f-7cb4-4977-9cf9-688e0d525a71"},"vehicle_type_id":"4","last_reported":1737742317,"current_range_meters":28400,"station_id":"ce4bhbh2rcd13ifvqeqg","pricing_plan_id":"cebpf4jnsgd1na2vs0mg"},{"bike_id":"0f6f1f28-264c-42b7-9014-efb1bc5cfecb","system_id":"levelo_inurba_marseille","lat":43.29953,"lon":5.3747,"is_reserved":false,"is_disabled":false,"rental_uris":{"android":"levelo://app?vid=0f6f1f28-264c-42b7-9014-efb1bc5cfecb","ios":"levelo://app?vid=0f6f1f28-264c-42b7-9014-efb1bc5cfecb"},"vehicle_type_id":"4","last_reported":1737742317,"current_range_meters":38800,"station_id":"ce4bgjh2rcd13ifvqbg0","pricing_plan_id":"cebpf4jnsgd1na2vs0mg"},{"bike_id":"54b04d78-7b1f-4dbd-8cce-dfddd2980ad1","system_id":"levelo_inurba_marseille","lat":43.28725,"lon":5.36077,"is_reserved":false,"is_disabled":false,"rental_uris":{"android":"levelo://app?vid=54b04d78-7b1f-4dbd-8cce-dfddd2980ad1","ios":"levelo://app?vid=54b04d78-7b1f-4dbd-8cce-dfddd2980ad1"},"vehicle_type_id":"4","last_reported":1737742317,"current_range_meters":31200,"station_id":"cki0cbj6b192h4jlfktg","pricing_plan_id":"cebpf4jnsgd1na2vs0mg"},{"bike_id":"9c7b1e6c-f6a7-4443-915b-f81466fe1ec7","system_id":"levelo_inurba_marseille","lat":43.29366,"lon":5.37818,"is_reserved":false,"is_disabled":false,"rental_uris":{"android":"levelo://app?vid=9c7b1e6c-f6a7-4443-915b-f81466fe1ec7","ios":"levelo://app?vid=9c7b1e6c-f6a7-4443-915b-f81466fe1ec7"},"vehicle_type_id":"4","last_reported":1737742317,"current_range_meters":38000,"station_id":"","pricing_plan_id":"cebpf4jnsgd1na2vs0mg"},{"bike_id":"1d6c20c9-7896-4454-b570-274cf52a29d6","system_id":"levelo_inurba_marseille","lat":43.29194,"lon":5.39317,"is_reserved":false,"is_disabled":false,"rental_uris":{"android":"levelo://app?vid=1d6c20c9-7896-4454-b570-274cf52a29d6","ios":"levelo://app?vid=1d6c20c9-7896-4454-b570-274cf52a29d6"},"vehicle_type_id":"4","last_reported":1737742317,"current_range_meters":37600,"station_id":"ce4bh192rcd13ifvqdd0","pricing_plan_id":"cebpf4jnsgd1na2vs0mg"},{"bike_id":"fe3679b4-09f6-4e41-9aae-9d00892cb93e","system_id":"levelo_inurba_marseille","lat":43.23198,"lon":5.35546,"is_reserved":false,"is_disabled":false,"rental_uris":{"android":"levelo://app?vid=fe3679b4-09f6-4e41-9aae-9d00892cb93e","ios":"levelo://app?vid=fe3679b4-09f6-4e41-9aae-9d00892cb93e"},"vehicle_type_id":"4","last_reported":1737742317,"current_range_meters":16800,"station_id":"ce4bhu92rcd13ifvqi70","pricing_plan_id":"cebpf4jnsgd1na2vs0mg"},{"bike_id":"0bcdf693-2b96-4ed8-983d-0d59ed7a47aa","system_id":"levelo_inurba_marseille","lat":43.28465,"lon":5.35891,"is_reserved":false,"is_disabled":false,"rental_uris":{"android":"levelo://app?vid=0bcdf693-2b96-4ed8-983d-0d59ed7a47aa","ios":"levelo://app?vid=0bcdf693-2b96-4ed8-983d-0d59ed7a47aa"},"vehicle_type_id":"4","last_reported":1737742317,"current_range_meters":38800,"station_id":"ce4bhah2rcd13ifvqei0","pricing_plan_id":"cebpf4jnsgd1na2vs0mg"},{"bike_id":"a127b91c-2afb-494e-b712-f405a9d928e5","system_id":"levelo_inurba_marseille","lat":43.30147,"lon":5.38106,"is_reserved":false,"is_disabled":false,"rental_uris":{"android":"levelo://app?vid=a127b91c-2afb-494e-b712-f405a9d928e5","ios":"levelo://app?vid=a127b91c-2afb-494e-b712-f405a9d928e5"},"vehicle_type_id":"4","last_reported":1737742317,"current_range_meters":24000,"station_id":"ce4bgjp2rcd13ifvqbh0","pricing_plan_id":"cebpf4jnsgd1na2vs0mg"},{"bike_id":"1fa3ed75-21f9-4b4a-a2ad-a96d5bf08b88","system_id":"levelo_inurba_marseille","lat":43.29426,"lon":5.38617,"is_reserved":false,"is_disabled":true,"rental_uris":{"android":"levelo://app?vid=1fa3ed75-21f9-4b4a-a2ad-a96d5bf08b88","ios":"levelo://app?vid=1fa3ed75-21f9-4b4a-a2ad-a96d5bf08b88"},"vehicle_type_id":"4","last_reported":1737742317,"current_range_meters":0,"station_id":"ce4bh2h2rcd13ifvqdh0","pricing_plan_id":"cebpf4jnsgd1na2vs0mg"},{"bike_id":"f1306753-0741-4054-bb1e-176ba35f7013","system_id":"levelo_inurba_marseille","lat":43.24816,"lon":5.37453,"is_reserved":false,"is_disabled":false,"rental_uris":{"android":"levelo://app?vid=f1306753-0741-4054-bb1e-176ba35f7013","ios":"levelo://app?vid=f1306753-0741-4054-bb1e-176ba35f7013"},"vehicle_type_id":"4","last_reported":1737742317,"current_range_meters":10000,"station_id":"ce4bhgh2rcd13ifvqfb0","pricing_plan_id":"cebpf4jnsgd1na2vs0mg"},{"bike_id":"418b72ff-c34d-4a9d-a4e0-d7cfc277123d","system_id":"levelo_inurba_marseille","lat":43.31488,"lon":5.37314,"is_reserved":false,"is_disabled":false,"rental_uris":{"android":"levelo://app?vid=418b72ff-c34d-4a9d-a4e0-d7cfc277123d","ios":"levelo://app?vid=418b72ff-c34d-4a9d-a4e0-d7cfc277123d"},"vehicle_type_id":"4","last_reported":1737742317,"current_range_meters":38800,"station_id":"ce4bgt12rcd13ifvqcd0","pricing_plan_id":"cebpf4jnsgd1na2vs0mg"},{"bike_id":"52992c76-e8f1-43a9-8a4e-0d88bd811a27","system_id":"levelo_inurba_marseille","lat":43.29644,"lon":5.37132,"is_reserved":false,"is_disabled":false,"rental_uris":{"android":"levelo://app?vid=52992c76-e8f1-43a9-8a4e-0d88bd811a27","ios":"levelo://app?vid=52992c76-e8f1-43a9-8a4e-0d88bd811a27"},"vehicle_type_id":"4","last_reported":1737742317,"current_range_meters":28000,"station_id":"ce4bgnh2rcd13ifvqc0g","pricing_plan_id":"cebpf4jnsgd1na2vs0mg"},{"bike_id":"16cba4e1-cb10-44ef-b1a1-eca95385335f","system_id":"levelo_inurba_marseille","lat":43.28437,"lon":5.34996,"is_reserved":false,"is_disabled":true,"rental_uris":{"android":"levelo://app?vid=16cba4e1-cb10-44ef-b1a1-eca95385335f","ios":"levelo://app?vid=16cba4e1-cb10-44ef-b1a1-eca95385335f"},"vehicle_type_id":"4","last_reported":1737742317,"current_range_meters":20800,"station_id":"ce4bhbh2rcd13ifvqepg","pricing_plan_id":"cebpf4jnsgd1na2vs0mg"},{"bike_id":"09113e0e-d17e-4785-b873-facd77e99abc","system_id":"levelo_inurba_marseille","lat":43.28349,"lon":5.44378,"is_reserved":false,"is_disabled":false,"rental_uris":{"android":"levelo://app?vid=09113e0e-d17e-4785-b873-facd77e99abc","ios":"levelo://app?vid=09113e0e-d17e-4785-b873-facd77e99abc"},"vehicle_type_id":"4","last_reported":1737742317,"current_range_meters":27200,"station_id":"","pricing_plan_id":"cebpf4jnsgd1na2vs0mg"},{"bike_id":"7d7ab9b5-a11f-4cf8-99f7-1bcb508a8cd0","system_id":"levelo_inurba_marseille","lat":43.28679,"lon":5.38656,"is_reserved":false,"is_disabled":false,"rental_uris":{"android":"levelo://app?vid=7d7ab9b5-a11f-4cf8-99f7-1bcb508a8cd0","ios":"levelo://app?vid=7d7ab9b5-a11f-4cf8-99f7-1bcb508a8cd0"},"vehicle_type_id":"4","last_reported":1737742317,"current_range_meters":38800,"station_id":"ce4bh492rcd13ifvqdug","pricing_plan_id":"cebpf4jnsgd1na2vs0mg"},{"bike_id":"6fa0d9c9-44ab-4b64-bb91-291c08691d77","system_id":"levelo_inurba_marseille","lat":43.33028,"lon":5.39046,"is_reserved":false,"is_disabled":false,"rental_uris":{"android":"levelo://app?vid=6fa0d9c9-44ab-4b64-bb91-291c08691d77","ios":"levelo://app?vid=6fa0d9c9-44ab-4b64-bb91-291c08691d77"},"vehicle_type_id":"4","last_reported":1737742317,"current_range_meters":2800,"station_id":"ce4bhr92rcd13ifvqhrg","pricing_plan_id":"cebpf4jnsgd1na2vs0mg"},{"bike_id":"0f49b5e1-a5b7-4286-830d-1331f0ba5f9e","system_id":"levelo_inurba_marseille","lat":43.28935,"lon":5.38396,"is_reserved":false,"is_disabled":false,"rental_uris":{"android":"levelo://app?vid=0f49b5e1-a5b7-4286-830d-1331f0ba5f9e","ios":"levelo://app?vid=0f49b5e1-a5b7-4286-830d-1331f0ba5f9e"},"vehicle_type_id":"4","last_reported":1737742317,"current_range_meters":19200,"station_id":"ce4bh612rcd13ifvqe6g","pricing_plan_id":"cebpf4jnsgd1na2vs0mg"},{"bike_id":"209a1569-01ac-4fff-97a7-34a29e8a68c2","system_id":"levelo_inurba_marseille","lat":43.32281,"lon":5.38276,"is_reserved":false,"is_disabled":false,"rental_uris":{"android":"levelo://app?vid=209a1569-01ac-4fff-97a7-34a29e8a68c2","ios":"levelo://app?vid=209a1569-01ac-4fff-97a7-34a29e8a68c2"},"vehicle_type_id":"4","last_reported":1737742317,"current_range_meters":39200,"station_id":"ce4bhr12rcd13ifvqhqg","pricing_plan_id":"cebpf4jnsgd1na2vs0mg"},{"bike_id":"c7cc5289-5e74-4eeb-a4be-1042ece43e7c","system_id":"levelo_inurba_marseille","lat":43.3171,"lon":5.37755,"is_reserved":false,"is_disabled":false,"rental_uris":{"android":"levelo://app?vid=c7cc5289-5e74-4eeb-a4be-1042ece43e7c","ios":"levelo://app?vid=c7cc5289-5e74-4eeb-a4be-1042ece43e7c"},"vehicle_type_id":"4","last_reported":1737742317,"current_range_meters":8800,"station_id":"ce4bgth2rcd13ifvqch0","pricing_plan_id":"cebpf4jnsgd1na2vs0mg"},{"bike_id":"45b366a6-6abc-4401-bb9e-1aee69db2cae","system_id":"levelo_inurba_marseille","lat":43.28092,"lon":5.39654,"is_reserved":false,"is_disabled":false,"rental_uris":{"android":"levelo://app?vid=45b366a6-6abc-4401-bb9e-1aee69db2cae","ios":"levelo://app?vid=45b366a6-6abc-4401-bb9e-1aee69db2cae"},"vehicle_type_id":"4","last_reported":1737742317,"current_range_meters":30800,"station_id":"ce4bho12rcd13ifvqh2g","pricing_plan_id":"cebpf4jnsgd1na2vs0mg"},{"bike_id":"df177b66-d6ab-4e90-8959-cc256de87127","system_id":"levelo_inurba_marseille","lat":43.24652,"lon":5.38923,"is_reserved":false,"is_disabled":false,"rental_uris":{"android":"levelo://app?vid=df177b66-d6ab-4e90-8959-cc256de87127","ios":"levelo://app?vid=df177b66-d6ab-4e90-8959-cc256de87127"},"vehicle_type_id":"4","last_reported":1737742317,"current_range_meters":38800,"station_id":"ce4bhg12rcd13ifvqf60","pricing_plan_id":"cebpf4jnsgd1na2vs0mg"},{"bike_id":"88d65b6d-d41c-4fbf-bee2-3130f77f3715","system_id":"levelo_inurba_marseille","lat":43.29517,"lon":5.39404,"is_reserved":false,"is_disabled":false,"rental_uris":{"android":"levelo://app?vid=88d65b6d-d41c-4fbf-bee2-3130f77f3715","ios":"levelo://app?vid=88d65b6d-d41c-4fbf-bee2-3130f77f3715"},"vehicle_type_id":"4","last_reported":1737742317,"current_range_meters":18000,"station_id":"ce4bh292rcd13ifvqdf0","pricing_plan_id":"cebpf4jnsgd1na2vs0mg"},{"bike_id":"f4a67fd7-7ba0-462e-b321-724410a83bc3","system_id":"levelo_inurba_marseille","lat":43.28613,"lon":5.35118,"is_reserved":false,"is_disabled":true,"rental_uris":{"android":"levelo://app?vid=f4a67fd7-7ba0-462e-b321-724410a83bc3","ios":"levelo://app?vid=f4a67fd7-7ba0-462e-b321-724410a83bc3"},"vehicle_type_id":"4","last_reported":1737742317,"current_range_meters":20800,"station_id":"ce4bhch2rcd13ifvqeug","pricing_plan_id":"cebpf4jnsgd1na2vs0mg"},{"bike_id":"841a1767-078e-4378-8ef2-78843610d635","system_id":"levelo_inurba_marseille","lat":43.23216,"lon":5.35548,"is_reserved":false,"is_disabled":false,"rental_uris":{"android":"levelo://app?vid=841a1767-078e-4378-8ef2-78843610d635","ios":"levelo://app?vid=841a1767-078e-4378-8ef2-78843610d635"},"vehicle_type_id":"4","last_reported":1737742317,"current_range_meters":10000,"station_id":"ce4bhu92rcd13ifvqi70","pricing_plan_id":"cebpf4jnsgd1na2vs0mg"},{"bike_id":"d531adb9-2312-4b34-a321-08be0fda69cf","system_id":"levelo_inurba_marseille","lat":43.29581,"lon":5.4004,"is_reserved":false,"is_disabled":true,"rental_uris":{"android":"levelo://app?vid=d531adb9-2312-4b34-a321-08be0fda69cf","ios":"levelo://app?vid=d531adb9-2312-4b34-a321-08be0fda69cf"},"vehicle_type_id":"4","last_reported":1737742317,"current_range_meters":0,"station_id":"","pricing_plan_id":"cebpf4jnsgd1na2vs0mg"},{"bike_id":"9834e6e6-3f7d-42a4-b7db-1b6a1cc90ef9","system_id":"levelo_inurba_marseille","lat":43.30797,"lon":5.43527,"is_reserved":false,"is_disabled":false,"rental_uris":{"android":"levelo://app?vid=9834e6e6-3f7d-42a4-b7db-1b6a1cc90ef9","ios":"levelo://app?vid=9834e6e6-3f7d-42a4-b7db-1b6a1cc90ef9"},"vehicle_type_id":"4","last_reported":1737742317,"current_range_meters":38000,"station_id":"ce4bhph2rcd13ifvqheg","pricing_plan_id":"cebpf4jnsgd1na2vs0mg"},{"bike_id":"5fb18942-60c7-4c76-b45a-09d569596110","system_id":"levelo_inurba_marseille","lat":43.3091,"lon":5.36857,"is_reserved":false,"is_disabled":false,"rental_uris":{"android":"levelo://app?vid=5fb18942-60c7-4c76-b45a-09d569596110","ios":"levelo://app?vid=5fb18942-60c7-4c76-b45a-09d569596110"},"vehicle_type_id":"4","last_reported":1737742317,"current_range_meters":36800,"station_id":"ce4bgn92rcd13ifvqbvg","pricing_plan_id":"cebpf4jnsgd1na2vs0mg"},{"bike_id":"a12ae140-7d40-4453-aee3-1f900eeb57d0","system_id":"levelo_inurba_marseille","lat":43.31718,"lon":5.4241,"is_reserved":false,"is_disabled":false,"rental_uris":{"android":"levelo://app?vid=a12ae140-7d40-4453-aee3-1f900eeb57d0","ios":"levelo://app?vid=a12ae140-7d40-4453-aee3-1f900eeb57d0"},"vehicle_type_id":"4","last_reported":1737742317,"current_range_meters":38800,"station_id":"ce4bhp92rcd13ifvqhbg","pricing_plan_id":"cebpf4jnsgd1na2vs0mg"},{"bike_id":"afd53ee7-c48e-4c7a-9b64-51b0a9bab2be","system_id":"levelo_inurba_marseille","lat":43.29889,"lon":5.36395,"is_reserved":false,"is_disabled":false,"rental_uris":{"android":"levelo://app?vid=afd53ee7-c48e-4c7a-9b64-51b0a9bab2be","ios":"levelo://app?vid=afd53ee7-c48e-4c7a-9b64-51b0a9bab2be"},"vehicle_type_id":"4","last_reported":1737742317,"current_range_meters":28400,"station_id":"","pricing_plan_id":"cebpf4jnsgd1na2vs0mg"},{"bike_id":"e9020a46-61de-4306-b798-df4834758be2","system_id":"levelo_inurba_marseille","lat":43.26934,"lon":5.4026,"is_reserved":false,"is_disabled":false,"rental_uris":{"android":"levelo://app?vid=e9020a46-61de-4306-b798-df4834758be2","ios":"levelo://app?vid=e9020a46-61de-4306-b798-df4834758be2"},"vehicle_type_id":"4","last_reported":1737742317,"current_range_meters":26800,"station_id":"cjm6bp8fraef2m0cb0m0","pricing_plan_id":"cebpf4jnsgd1na2vs0mg"},{"bike_id":"4034a07b-ae03-4b25-906c-33b7649d1afd","system_id":"levelo_inurba_marseille","lat":43.29636,"lon":5.40616,"is_reserved":false,"is_disabled":false,"rental_uris":{"android":"levelo://app?vid=4034a07b-ae03-4b25-906c-33b7649d1afd","ios":"levelo://app?vid=4034a07b-ae03-4b25-906c-33b7649d1afd"},"vehicle_type_id":"4","last_reported":1737742317,"current_range_meters":3200,"station_id":"ce4bh0h2rcd13ifvqd60","pricing_plan_id":"cebpf4jnsgd1na2vs0mg"},{"bike_id":"0683b8fa-bf66-4a85-b23f-305b1ef8e2c5","system_id":"levelo_inurba_marseille","lat":43.29886,"lon":5.43677,"is_reserved":false,"is_disabled":true,"rental_uris":{"android":"levelo://app?vid=0683b8fa-bf66-4a85-b23f-305b1ef8e2c5","ios":"levelo://app?vid=0683b8fa-bf66-4a85-b23f-305b1ef8e2c5"},"vehicle_type_id":"4","last_reported":1737742317,"current_range_meters":0,"station_id":"ce4bhpp2rcd13ifvqhfg","pricing_plan_id":"cebpf4jnsgd1na2vs0mg"},{"bike_id":"d5dc9650-5381-4a45-8c70-0cc26762e92c","system_id":"levelo_inurba_marseille","lat":43.24811,"lon":5.37462,"is_reserved":false,"is_disabled":false,"rental_uris":{"android":"levelo://app?vid=d5dc9650-5381-4a45-8c70-0cc26762e92c","ios":"levelo://app?vid=d5dc9650-5381-4a45-8c70-0cc26762e92c"},"vehicle_type_id":"4","last_reported":1737742317,"current_range_meters":30000,"station_id":"ce4bhgh2rcd13ifvqfb0","pricing_plan_id":"cebpf4jnsgd1na2vs0mg"},{"bike_id":"81adb32d-e8ee-4faa-8983-0bbbe2387b8e","system_id":"levelo_inurba_marseille","lat":43.31778,"lon":5.40113,"is_reserved":false,"is_disabled":false,"rental_uris":{"android":"levelo://app?vid=81adb32d-e8ee-4faa-8983-0bbbe2387b8e","ios":"levelo://app?vid=81adb32d-e8ee-4faa-8983-0bbbe2387b8e"},"vehicle_type_id":"4","last_reported":1737742317,"current_range_meters":22800,"station_id":"ce4bgt12rcd13ifvqce0","pricing_plan_id":"cebpf4jnsgd1na2vs0mg"},{"bike_id":"9033d8d1-59c2-4940-b078-1f193790fc2b","system_id":"levelo_inurba_marseille","lat":43.29198,"lon":5.35815,"is_reserved":false,"is_disabled":false,"rental_uris":{"android":"levelo://app?vid=9033d8d1-59c2-4940-b078-1f193790fc2b","ios":"levelo://app?vid=9033d8d1-59c2-4940-b078-1f193790fc2b"},"vehicle_type_id":"4","last_reported":1737742317,"current_range_meters":8000,"station_id":"ce4bhb12rcd13ifvqel0","pricing_plan_id":"cebpf4jnsgd1na2vs0mg"},{"bike_id":"34b605df-5070-47f0-aeaf-8a077d4da0ab","system_id":"levelo_inurba_marseille","lat":43.2573,"lon":5.41091,"is_reserved":false,"is_disabled":false,"rental_uris":{"android":"levelo://app?vid=34b605df-5070-47f0-aeaf-8a077d4da0ab","ios":"levelo://app?vid=34b605df-5070-47f0-aeaf-8a077d4da0ab"},"vehicle_type_id":"4","last_reported":1737742317,"current_range_meters":5600,"station_id":"ce4bhkp2rcd13ifvqgd0","pricing_plan_id":"cebpf4jnsgd1na2vs0mg"},{"bike_id":"134bb31f-3cdf-43dd-bd6e-e294aba9663a","system_id":"levelo_inurba_marseille","lat":43.30142,"lon":5.38799,"is_reserved":false,"is_disabled":false,"rental_uris":{"android":"levelo://app?vid=134bb31f-3cdf-43dd-bd6e-e294aba9663a","ios":"levelo://app?vid=134bb31f-3cdf-43dd-bd6e-e294aba9663a"},"vehicle_type_id":"4","last_reported":1737742317,"current_range_meters":38000,"station_id":"ce4bhoh2rcd13ifvqh6g","pricing_plan_id":"cebpf4jnsgd1na2vs0mg"},{"bike_id":"88753461-a078-4b5b-99d1-faef26eceb2d","system_id":"levelo_inurba_marseille","lat":43.26779,"lon":5.39423,"is_reserved":false,"is_disabled":false,"rental_uris":{"android":"levelo://app?vid=88753461-a078-4b5b-99d1-faef26eceb2d","ios":"levelo://app?vid=88753461-a078-4b5b-99d1-faef26eceb2d"},"vehicle_type_id":"4","last_reported":1737742317,"current_range_meters":6800,"station_id":"ce4bhh12rcd13ifvqfg0","pricing_plan_id":"cebpf4jnsgd1na2vs0mg"},{"bike_id":"778f4b44-3a56-48f1-82e9-3712851661d8","system_id":"levelo_inurba_marseille","lat":43.29369,"lon":5.37852,"is_reserved":false,"is_disabled":false,"rental_uris":{"android":"levelo://app?vid=778f4b44-3a56-48f1-82e9-3712851661d8","ios":"levelo://app?vid=778f4b44-3a56-48f1-82e9-3712851661d8"},"vehicle_type_id":"4","last_reported":1737742317,"current_range_meters":10000,"station_id":"ce4bgjh2rcd13ifvqbf0","pricing_plan_id":"cebpf4jnsgd1na2vs0mg"},{"bike_id":"7499a2ec-a82f-4e82-aca9-acdf416ef9d4","system_id":"levelo_inurba_marseille","lat":43.30479,"lon":5.37911,"is_reserved":false,"is_disabled":false,"rental_uris":{"android":"levelo://app?vid=7499a2ec-a82f-4e82-aca9-acdf416ef9d4","ios":"levelo://app?vid=7499a2ec-a82f-4e82-aca9-acdf416ef9d4"},"vehicle_type_id":"4","last_reported":1737742317,"current_range_meters":28400,"station_id":"ce4bgup2rcd13ifvqcn0","pricing_plan_id":"cebpf4jnsgd1na2vs0mg"},{"bike_id":"0da05c91-b4db-4424-93fa-80e05b294f90","system_id":"levelo_inurba_marseille","lat":43.33025,"lon":5.390453,"is_reserved":false,"is_disabled":false,"rental_uris":{"android":"levelo://app?vid=0da05c91-b4db-4424-93fa-80e05b294f90","ios":"levelo://app?vid=0da05c91-b4db-4424-93fa-80e05b294f90"},"vehicle_type_id":"4","last_reported":1737742317,"current_range_meters":38000,"station_id":"ce4bhr92rcd13ifvqhrg","pricing_plan_id":"cebpf4jnsgd1na2vs0mg"},{"bike_id":"91f5291a-7658-41f6-af51-da6dcd947c3e","system_id":"levelo_inurba_marseille","lat":43.30087,"lon":5.39094,"is_reserved":false,"is_disabled":false,"rental_uris":{"android":"levelo://app?vid=91f5291a-7658-41f6-af51-da6dcd947c3e","ios":"levelo://app?vid=91f5291a-7658-41f6-af51-da6dcd947c3e"},"vehicle_type_id":"4","last_reported":1737742317,"current_range_meters":10800,"station_id":"ce4bh192rcd13ifvqdb0","pricing_plan_id":"cebpf4jnsgd1na2vs0mg"},{"bike_id":"d8a7a4b1-bd49-482f-bc8f-8b950b83f171","system_id":"levelo_inurba_marseille","lat":43.2916,"lon":5.37177,"is_reserved":false,"is_disabled":false,"rental_uris":{"android":"levelo://app?vid=d8a7a4b1-bd49-482f-bc8f-8b950b83f171","ios":"levelo://app?vid=d8a7a4b1-bd49-482f-bc8f-8b950b83f171"},"vehicle_type_id":"4","last_reported":1737742317,"current_range_meters":6400,"station_id":"ce4bha92rcd13ifvqeh0","pricing_plan_id":"cebpf4jnsgd1na2vs0mg"},{"bike_id":"3edd0654-edfc-4a90-b991-d1f9d41a34c8","system_id":"levelo_inurba_marseille","lat":43.28483,"lon":5.38403,"is_reserved":false,"is_disabled":false,"rental_uris":{"android":"levelo://app?vid=3edd0654-edfc-4a90-b991-d1f9d41a34c8","ios":"levelo://app?vid=3edd0654-edfc-4a90-b991-d1f9d41a34c8"},"vehicle_type_id":"4","last_reported":1737742317,"current_range_meters":6000,"station_id":"ce4bh512rcd13ifvqe3g","pricing_plan_id":"cebpf4jnsgd1na2vs0mg"},{"bike_id":"a6c60ad2-e593-4b0c-8875-c82d98876de9","system_id":"levelo_inurba_marseille","lat":43.27175,"lon":5.40988,"is_reserved":false,"is_disabled":false,"rental_uris":{"android":"levelo://app?vid=a6c60ad2-e593-4b0c-8875-c82d98876de9","ios":"levelo://app?vid=a6c60ad2-e593-4b0c-8875-c82d98876de9"},"vehicle_type_id":"4","last_reported":1737742317,"current_range_meters":30800,"station_id":"ce4bhl12rcd13ifvqgf0","pricing_plan_id":"cebpf4jnsgd1na2vs0mg"},{"bike_id":"4e93830c-589f-413d-9c1d-ba2ee232cc2b","system_id":"levelo_inurba_marseille","lat":43.28415,"lon":5.37532,"is_reserved":false,"is_disabled":true,"rental_uris":{"android":"levelo://app?vid=4e93830c-589f-413d-9c1d-ba2ee232cc2b","ios":"levelo://app?vid=4e93830c-589f-413d-9c1d-ba2ee232cc2b"},"vehicle_type_id":"4","last_reported":1737742317,"current_range_meters":16000,"station_id":"ce4bh412rcd13ifvqds0","pricing_plan_id":"cebpf4jnsgd1na2vs0mg"},{"bike_id":"1be64051-9507-41e6-b1d2-09cfc3099a4e","system_id":"levelo_inurba_marseille","lat":43.28491,"lon":5.38577,"is_reserved":false,"is_disabled":false,"rental_uris":{"android":"levelo://app?vid=1be64051-9507-41e6-b1d2-09cfc3099a4e","ios":"levelo://app?vid=1be64051-9507-41e6-b1d2-09cfc3099a4e"},"vehicle_type_id":"4","last_reported":1737742317,"current_range_meters":38800,"station_id":"ce4bh8p2rcd13ifvqeb0","pricing_plan_id":"cebpf4jnsgd1na2vs0mg"},{"bike_id":"033e3539-4f4c-4fa3-ad37-9f1909d3f28c","system_id":"levelo_inurba_marseille","lat":43.29802,"lon":5.404017,"is_reserved":false,"is_disabled":false,"rental_uris":{"android":"levelo://app?vid=033e3539-4f4c-4fa3-ad37-9f1909d3f28c","ios":"levelo://app?vid=033e3539-4f4c-4fa3-ad37-9f1909d3f28c"},"vehicle_type_id":"4","last_reported":1737742317,"current_range_meters":38800,"station_id":"ce4bh112rcd13ifvqd90","pricing_plan_id":"cebpf4jnsgd1na2vs0mg"},{"bike_id":"27e63fdb-8d17-4518-9bbb-a070e9d41347","system_id":"levelo_inurba_marseille","lat":43.29631,"lon":5.40601,"is_reserved":false,"is_disabled":true,"rental_uris":{"android":"levelo://app?vid=27e63fdb-8d17-4518-9bbb-a070e9d41347","ios":"levelo://app?vid=27e63fdb-8d17-4518-9bbb-a070e9d41347"},"vehicle_type_id":"4","last_reported":1737742317,"current_range_meters":800,"station_id":"ce4bh0h2rcd13ifvqd60","pricing_plan_id":"cebpf4jnsgd1na2vs0mg"},{"bike_id":"c9ced96e-74dc-401a-a2a1-5c4c76c72d23","system_id":"levelo_inurba_marseille","lat":43.26198,"lon":5.37933,"is_reserved":false,"is_disabled":false,"rental_uris":{"android":"levelo://app?vid=c9ced96e-74dc-401a-a2a1-5c4c76c72d23","ios":"levelo://app?vid=c9ced96e-74dc-401a-a2a1-5c4c76c72d23"},"vehicle_type_id":"4","last_reported":1737742317,"current_range_meters":38000,"station_id":"ce4bhjp2rcd13ifvqg90","pricing_plan_id":"cebpf4jnsgd1na2vs0mg"},{"bike_id":"bd47570f-0b51-4e6c-87d7-6f2032ba0590","system_id":"levelo_inurba_marseille","lat":43.28149,"lon":5.38671,"is_reserved":false,"is_disabled":false,"rental_uris":{"android":"levelo://app?vid=bd47570f-0b51-4e6c-87d7-6f2032ba0590","ios":"levelo://app?vid=bd47570f-0b51-4e6c-87d7-6f2032ba0590"},"vehicle_type_id":"4","last_reported":1737742317,"current_range_meters":27600,"station_id":"ce4bh2h2rcd13ifvqdh0","pricing_plan_id":"cebpf4jnsgd1na2vs0mg"},{"bike_id":"88f8270f-9827-4274-b5af-2f98e48e3f38","system_id":"levelo_inurba_marseille","lat":43.28675,"lon":5.38661,"is_reserved":false,"is_disabled":false,"rental_uris":{"android":"levelo://app?vid=88f8270f-9827-4274-b5af-2f98e48e3f38","ios":"levelo://app?vid=88f8270f-9827-4274-b5af-2f98e48e3f38"},"vehicle_type_id":"4","last_reported":1737742317,"current_range_meters":28400,"station_id":"ce4bh492rcd13ifvqdug","pricing_plan_id":"cebpf4jnsgd1na2vs0mg"},{"bike_id":"576b8657-d5e2-4d23-9b1e-461b2180cd28","system_id":"levelo_inurba_marseille","lat":43.22941,"lon":5.35372,"is_reserved":false,"is_disabled":false,"rental_uris":{"android":"levelo://app?vid=576b8657-d5e2-4d23-9b1e-461b2180cd28","ios":"levelo://app?vid=576b8657-d5e2-4d23-9b1e-461b2180cd28"},"vehicle_type_id":"4","last_reported":1737742317,"current_range_meters":38800,"station_id":"cpo3532slgdg3j2ikp40","pricing_plan_id":"cebpf4jnsgd1na2vs0mg"},{"bike_id":"9ddae075-a261-47e7-ad9b-a84e56442c32","system_id":"levelo_inurba_marseille","lat":43.29619,"lon":5.37151,"is_reserved":false,"is_disabled":false,"rental_uris":{"android":"levelo://app?vid=9ddae075-a261-47e7-ad9b-a84e56442c32","ios":"levelo://app?vid=9ddae075-a261-47e7-ad9b-a84e56442c32"},"vehicle_type_id":"4","last_reported":1737742317,"current_range_meters":7200,"station_id":"ce4bgnh2rcd13ifvqc0g","pricing_plan_id":"cebpf4jnsgd1na2vs0mg"},{"bike_id":"e0f074f0-bf6e-4d7c-b2a6-62f31602e55b","system_id":"levelo_inurba_marseille","lat":43.26803,"lon":5.40274,"is_reserved":false,"is_disabled":false,"rental_uris":{"android":"levelo://app?vid=e0f074f0-bf6e-4d7c-b2a6-62f31602e55b","ios":"levelo://app?vid=e0f074f0-bf6e-4d7c-b2a6-62f31602e55b"},"vehicle_type_id":"4","last_reported":1737742317,"current_range_meters":36400,"station_id":"ce501612rcd8frsf0b60","pricing_plan_id":"cebpf4jnsgd1na2vs0mg"},{"bike_id":"f041db4d-e050-4720-aa3f-1546fb4bf6c3","system_id":"levelo_inurba_marseille","lat":43.27373,"lon":5.36245,"is_reserved":false,"is_disabled":false,"rental_uris":{"android":"levelo://app?vid=f041db4d-e050-4720-aa3f-1546fb4bf6c3","ios":"levelo://app?vid=f041db4d-e050-4720-aa3f-1546fb4bf6c3"},"vehicle_type_id":"4","last_reported":1737742317,"current_range_meters":38800,"station_id":"ce4bhbh2rcd13ifvqeo0","pricing_plan_id":"cebpf4jnsgd1na2vs0mg"},{"bike_id":"ca33afaf-7d3e-4e29-9f36-02a6b4f98fdd","system_id":"levelo_inurba_marseille","lat":43.29503,"lon":5.39431,"is_reserved":false,"is_disabled":false,"rental_uris":{"android":"levelo://app?vid=ca33afaf-7d3e-4e29-9f36-02a6b4f98fdd","ios":"levelo://app?vid=ca33afaf-7d3e-4e29-9f36-02a6b4f98fdd"},"vehicle_type_id":"4","last_reported":1737742317,"current_range_meters":16000,"station_id":"ce4bh292rcd13ifvqdf0","pricing_plan_id":"cebpf4jnsgd1na2vs0mg"},{"bike_id":"c4c4cee0-f56f-4cea-a8ad-93a5dcdadf05","system_id":"levelo_inurba_marseille","lat":43.28569,"lon":5.39522,"is_reserved":false,"is_disabled":false,"rental_uris":{"android":"levelo://app?vid=c4c4cee0-f56f-4cea-a8ad-93a5dcdadf05","ios":"levelo://app?vid=c4c4cee0-f56f-4cea-a8ad-93a5dcdadf05"},"vehicle_type_id":"4","last_reported":1737742317,"current_range_meters":39200,"station_id":"ce4bh292rcd13ifvqdg0","pricing_plan_id":"cebpf4jnsgd1na2vs0mg"},{"bike_id":"aba9635a-2b11-43ff-81b3-7bb114eba0c8","system_id":"levelo_inurba_marseille","lat":43.30318,"lon":5.40447,"is_reserved":false,"is_disabled":true,"rental_uris":{"android":"levelo://app?vid=aba9635a-2b11-43ff-81b3-7bb114eba0c8","ios":"levelo://app?vid=aba9635a-2b11-43ff-81b3-7bb114eba0c8"},"vehicle_type_id":"4","last_reported":1737742317,"current_range_meters":400,"station_id":"ce4bh012rcd13ifvqd10","pricing_plan_id":"cebpf4jnsgd1na2vs0mg"},{"bike_id":"d8b3fb6e-c486-4561-b0cc-0b2768481f0c","system_id":"levelo_inurba_marseille","lat":43.28859,"lon":5.35858,"is_reserved":false,"is_disabled":false,"rental_uris":{"android":"levelo://app?vid=d8b3fb6e-c486-4561-b0cc-0b2768481f0c","ios":"levelo://app?vid=d8b3fb6e-c486-4561-b0cc-0b2768481f0c"},"vehicle_type_id":"4","last_reported":1737742317,"current_range_meters":22000,"station_id":"ce4bhb12rcd13ifvqem0","pricing_plan_id":"cebpf4jnsgd1na2vs0mg"},{"bike_id":"d90783ae-a12c-46d9-9139-6ee5e120262e","system_id":"levelo_inurba_marseille","lat":43.27809,"lon":5.40718,"is_reserved":false,"is_disabled":false,"rental_uris":{"android":"levelo://app?vid=d90783ae-a12c-46d9-9139-6ee5e120262e","ios":"levelo://app?vid=d90783ae-a12c-46d9-9139-6ee5e120262e"},"vehicle_type_id":"4","last_reported":1737742317,"current_range_meters":6800,"station_id":"ce4bhnh2rcd13ifvqgtg","pricing_plan_id":"cebpf4jnsgd1na2vs0mg"},