{"last_updated":1742364864,"ttl":60,"version":"2.2","data":{"bikes":[{"bike_id":"8274158b-116c-49e2-940d-4ad1163764c2","system_id":"levelo_inurba_marseille","lat":43.29965,"lon":5.3717,"is_reserved":false,"is_disabled":false,"rental_uris":{"android":"levelo://app?vid=8274158b-116c-49e2-940d-4ad1163764c2","ios":"levelo://app?vid=8274158b-116c-49e2-940d-4ad1163764c2"},"vehicle_type_id":"4","last_reported":1742364864,"current_range_meters":2000,"station_id":"ce4bgr92rcd13ifvqc7g","pricing_plan_id":"cebpf4jnsgd1na2vs0mg"},{"bike_id":"55c83ebf-913d-48a1-abee-3e29e6909fd2","system_id":"levelo_inurba_marseille","lat":43.279925,"lon":5.416641,"is_reserved":false,"is_disabled":true,"rental_uris":{"android":"levelo://app?vid=55c83ebf-913d-48a1-abee-3e29e6909fd2","ios":"levelo://app?vid=55c83ebf-913d-48a1-abee-3e29e6909fd2"},"vehicle_type_id":"4","last_reported":1742364864,"current_range_meters":2800,"station_id":"ce4bho12rcd13ifvqh1g","pricing_plan_id":"cebpf4jnsgd1na2vs0mg"},{"bike_id":"3db91aa6-845b-4ce3-9a81-55687c0461bc","system_id":"levelo_inurba_marseille","lat":43.24997,"lon":5.3894,"is_reserved":false,"is_disabled":false,"rental_uris":{"android":"levelo://app?vid=3db91aa6-845b-4ce3-9a81-55687c0461bc","ios":"levelo://app?vid=3db91aa6-845b-4ce3-9a81-55687c0461bc"},"vehicle_type_id":"4","last_reported":1742364864,"current_range_meters":3200,"station_id":"ce4bhgp2rcd13ifvqfd0","pricing_plan_id":"cebpf4jnsgd1na2vs0mg"},{"bike_id":"7daf311d-76b2-49b8-8976-58074f89690d","system_id":"levelo_inurba_marseille","lat":43.32479,"lon":5.36553,"is_reserved":false,"is_disabled":false,"rental_uris":{"android":"levelo://app?vid=7daf311d-76b2-49b8-8976-58074f89690d","ios":"levelo://app?vid=7daf311d-76b2-49b8-8976-58074f89690d"},"vehicle_type_id":"4","last_reported":1742364864,"current_range_meters":3200,"station_id":"ce4bhs12rcd13ifvqhvg","pricing_plan_id":"cebpf4jnsgd1na2vs0mg"},{"bike_id":"6d8e8090-a4c7-4966-a3f4-a833922b9e5a","system_id":"levelo_inurba_marseille","lat":43.23198,"lon":5.35567,"is_reserved":false,"is_disabled":false,"rental_uris":{"android":"levelo://app?vid=6d8e8090-a4c7-4966-a3f4-a833922b9e5a","ios":"levelo://app?vid=6d8e8090-a4c7-4966-a3f4-a833922b9e5a"},"vehicle_type_id":"4","last_reported":1742364864,"current_range_meters":3600,"station_id":"ce4bhu92rcd13ifvqi70","pricing_plan_id":"cebpf4jnsgd1na2vs0mg"},{"bike_id":"bf53558a-323c-40e3-9c37-ac64ba388e1c","system_id":"levelo_inurba_marseille","lat":43.239581,"lon":5.36634,"is_reserved":false,"is_disabled":false,"rental_uris":{"android":"levelo://app?vid=bf53558a-323c-40e3-9c37-ac64ba388e1c","ios":"levelo://app?vid=bf53558a-323c-40e3-9c37-ac64ba388e1c"},"vehicle_type_id":"4","last_reported":1742364864,"current_range_meters":3600,"station_id":"ce4bhi12rcd13ifvqfp0","pricing_plan_id":"cebpf4jnsgd1na2vs0mg"},{"bike_id":"6227a0ff-d0ca-42a3-9618-9e5a19927c8d","system_id":"levelo_inurba_marseille","lat":43.2795,"lon":5.41051,"is_reserved":false,"is_disabled":false,"rental_uris":{"android":"levelo://app?vid=6227a0ff-d0ca-42a3-9618-9e5a19927c8d","ios":"levelo://app?vid=6227a0ff-d0ca-42a3-9618-9e5a19927c8d"},"vehicle_type_id":"4","last_reported":1742364864,"current_range_meters":3600,"station_id":"ce4bhnp2rcd13ifvqh0g","pricing_plan_id":"cebpf4jnsgd1na2vs0mg"},{"bike_id":"2665cc4b-07ed-4ae6-a66f-2b09983c709d","system_id":"levelo_inurba_marseille","lat":43.33761,"lon":5.37489,"is_reserved":false,"is_disabled":false,"rental_uris":{"android":"levelo://app?vid=2665cc4b-07ed-4ae6-a66f-2b09983c709d","ios":"levelo://app?vid=2665cc4b-07ed-4ae6-a66f-2b09983c709d"},"vehicle_type_id":"4","last_reported":1742364864,"current_range_meters":4000,"station_id":"","pricing_plan_id":"cebpf4jnsgd1na2vs0mg"},{"bike_id":"0d3accb9-853e-4df0-b9d8-4607b8048f46","system_id":"levelo_inurba_marseille","lat":43.241648,"lon":5.363967,"is_reserved":false,"is_disabled":false,"rental_uris":{"android":"levelo://app?vid=0d3accb9-853e-4df0-b9d8-4607b8048f46","ios":"levelo://app?vid=0d3accb9-853e-4df0-b9d8-4607b8048f46"},"vehicle_type_id":"4","last_reported":1742364864,"current_range_meters":4000,"station_id":"cpo36qri1sfpv3e86is0","pricing_plan_id":"cebpf4jnsgd1na2vs0mg"},{"bike_id":"03fa3fa4-ba5a-4ea6-a2f5-2774c7ef9edb","system_id":"levelo_inurba_marseille","lat":43.29179,"lon":5.37142,"is_reserved":false,"is_disabled":true,"rental_uris":{"android":"levelo://app?vid=03fa3fa4-ba5a-4ea6-a2f5-2774c7ef9edb","ios":"levelo://app?vid=03fa3fa4-ba5a-4ea6-a2f5-2774c7ef9edb"},"vehicle_type_id":"4","last_reported":1742364864,"current_range_meters":4000,"station_id":"ce4bha92rcd13ifvqeh0","pricing_plan_id":"cebpf4jnsgd1na2vs0mg"},{"bike_id":"35695dd4-791c-4486-b261-10bd7a9e52e9","system_id":"levelo_inurba_marseille","lat":43.2608,"lon":5.40447,"is_reserved":false,"is_disabled":true,"rental_uris":{"android":"levelo://app?vid=35695dd4-791c-4486-b261-10bd7a9e52e9","ios":"levelo://app?vid=35695dd4-791c-4486-b261-10bd7a9e52e9"},"vehicle_type_id":"4","last_reported":1742364864,"current_range_meters":4400,"station_id":"","pricing_plan_id":"cebpf4jnsgd1na2vs0mg"},{"bike_id":"8fe7e33b-57fc-439c-ba02-015988635c80","system_id":"levelo_inurba_marseille","lat":43.2706,"lon":5.42271,"is_reserved":false,"is_disabled":true,"rental_uris":{"android":"levelo://app?vid=8fe7e33b-57fc-439c-ba02-015988635c80","ios":"levelo://app?vid=8fe7e33b-57fc-439c-ba02-015988635c80"},"vehicle_type_id":"4","last_reported":1742364864,"current_range_meters":4400,"station_id":"ce4bhk92rcd13ifvqgb0","pricing_plan_id":"cebpf4jnsgd1na2vs0mg"},{"bike_id":"f5c97f8a-2624-4b99-bdf9-59f10ff7cfce","system_id":"levelo_inurba_marseille","lat":43.27605,"lon":5.36124,"is_reserved":false,"is_disabled":false,"rental_uris":{"android":"levelo://app?vid=f5c97f8a-2624-4b99-bdf9-59f10ff7cfce","ios":"levelo://app?vid=f5c97f8a-2624-4b99-bdf9-59f10ff7cfce"},"vehicle_type_id":"4","last_reported":1742364864,"current_range_meters":4800,"station_id":"ce4bgj92rcd13ifvqbe0","pricing_plan_id":"cebpf4jnsgd1na2vs0mg"},{"bike_id":"b23ec4a4-8b22-4cee-b1a4-d5ff68cc7e4f","system_id":"levelo_inurba_marseille","lat":43.30285,"lon":5.3689,"is_reserved":false,"is_disabled":false,"rental_uris":{"android":"levelo://app?vid=b23ec4a4-8b22-4cee-b1a4-d5ff68cc7e4f","ios":"levelo://app?vid=b23ec4a4-8b22-4cee-b1a4-d5ff68cc7e4f"},"vehicle_type_id":"4","last_reported":1742364864,"current_range_meters":4800,"station_id":"ce4bgqh2rcd13ifvqc5g","pricing_plan_id":"cebpf4jnsgd1na2vs0mg"},{"bike_id":"97a1e633-c2b3-487e-8569-9036bf18d175","system_id":"levelo_inurba_marseille","lat":43.241686,"lon":5.364034,"is_reserved":false,"is_disabled":false,"rental_uris":{"android":"levelo://app?vid=97a1e633-c2b3-487e-8569-9036bf18d175","ios":"levelo://app?vid=97a1e633-c2b3-487e-8569-9036bf18d175"},"vehicle_type_id":"4","last_reported":1742364864,"current_range_meters":4800,"station_id":"cpo36qri1sfpv3e86is0","pricing_plan_id":"cebpf4jnsgd1na2vs0mg"},{"bike_id":"db85a551-7379-4999-871e-b1611c31baae","system_id":"levelo_inurba_marseille","lat":43.27824,"lon":5.39217,"is_reserved":false,"is_disabled":false,"rental_uris":{"android":"levelo://app?vid=db85a551-7379-4999-871e-b1611c31baae","ios":"levelo://app?vid=db85a551-7379-4999-871e-b1611c31baae"},"vehicle_type_id":"4","last_reported":1742364864,"current_range_meters":4800,"station_id":"ce4bhjp2rcd13ifvqga0","pricing_plan_id":"cebpf4jnsgd1na2vs0mg"},{"bike_id":"5e2fca71-0f3f-4aa4-affd-fff1472c16b4","system_id":"levelo_inurba_marseille","lat":43.24172,"lon":5.39735,"is_reserved":false,"is_disabled":false,"rental_uris":{"android":"levelo://app?vid=5e2fca71-0f3f-4aa4-affd-fff1472c16b4","ios":"levelo://app?vid=5e2fca71-0f3f-4aa4-affd-fff1472c16b4"},"vehicle_type_id":"4","last_reported":1742364864,"current_range_meters":4800,"station_id":"ce4bhn12rcd13ifvqgpg","pricing_plan_id":"cebpf4jnsgd1na2vs0mg"},{"bike_id":"fe67d4d5-2efd-4a2d-8d85-86a1e84c1bb0","system_id":"levelo_inurba_marseille","lat":43.25077,"lon":5.39523,"is_reserved":false,"is_disabled":false,"rental_uris":{"android":"levelo://app?vid=fe67d4d5-2efd-4a2d-8d85-86a1e84c1bb0","ios":"levelo://app?vid=fe67d4d5-2efd-4a2d-8d85-86a1e84c1bb0"},"vehicle_type_id":"4","last_reported":1742364864,"current_range_meters":5600,"station_id":"ce4bhm12rcd13ifvqgkg","pricing_plan_id":"cebpf4jnsgd1na2vs0mg"},{"bike_id":"df227953-74ac-4151-8017-3b7a1e24e192","system_id":"levelo_inurba_marseille","lat":43.23959,"lon":5.36651,"is_reserved":false,"is_disabled":false,"rental_uris":{"android":"levelo://app?vid=df227953-74ac-4151-8017-3b7a1e24e192","ios":"levelo://app?vid=df227953-74ac-4151-8017-3b7a1e24e192"},"vehicle_type_id":"4","last_reported":1742364864,"current_range_meters":5600,"station_id":"ce4bhi12rcd13ifvqfp0","pricing_plan_id":"cebpf4jnsgd1na2vs0mg"},{"bike_id":"a31c77d8-4378-47d6-8c3a-a5063f16fc9d","system_id":"levelo_inurba_marseille","lat":43.278156,"lon":5.407064,"is_reserved":false,"is_disabled":false,"rental_uris":{"android":"levelo://app?vid=a31c77d8-4378-47d6-8c3a-a5063f16fc9d","ios":"levelo://app?vid=a31c77d8-4378-47d6-8c3a-a5063f16fc9d"},"vehicle_type_id":"4","last_reported":1742364864,"current_range_meters":5600,"station_id":"ce4bhnh2rcd13ifvqgtg","pricing_plan_id":"cebpf4jnsgd1na2vs0mg"},{"bike_id":"a3ea1aa5-5308-41a5-bb80-121dbfe7c811","system_id":"levelo_inurba_marseille","lat":43.28701,"lon":5.39987,"is_reserved":false,"is_disabled":true,"rental_uris":{"android":"levelo://app?vid=a3ea1aa5-5308-41a5-bb80-121dbfe7c811","ios":"levelo://app?vid=a3ea1aa5-5308-41a5-bb80-121dbfe7c811"},"vehicle_type_id":"4","last_reported":1742364864,"current_range_meters":5600,"station_id":"ce4bho92rcd13ifvqh3g","pricing_plan_id":"cebpf4jnsgd1na2vs0mg"},{"bike_id":"8a4e1b2e-8fac-480b-a668-ef6a620a9814","system_id":"levelo_inurba_marseille","lat":43.2784,"lon":5.42425,"is_reserved":false,"is_disabled":false,"rental_uris":{"android":"levelo://app?vid=8a4e1b2e-8fac-480b-a668-ef6a620a9814","ios":"levelo://app?vid=8a4e1b2e-8fac-480b-a668-ef6a620a9814"},"vehicle_type_id":"4","last_reported":1742364864,"current_range_meters":5600,"station_id":"","pricing_plan_id":"cebpf4jnsgd1na2vs0mg"},{"bike_id":"97f1a9ef-23d7-46a5-a024-751b81083237","system_id":"levelo_inurba_marseille","lat":43.330194,"lon":5.390595,"is_reserved":false,"is_disabled":false,"rental_uris":{"android":"levelo://app?vid=97f1a9ef-23d7-46a5-a024-751b81083237","ios":"levelo://app?vid=97f1a9ef-23d7-46a5-a024-751b81083237"},"vehicle_type_id":"4","last_reported":1742364864,"current_range_meters":5600,"station_id":"ce4bhr92rcd13ifvqhrg","pricing_plan_id":"cebpf4jnsgd1na2vs0mg"},{"bike_id":"fe358fb5-284d-4348-9311-44f909cb15f4","system_id":"levelo_inurba_marseille","lat":43.23961,"lon":5.36635,"is_reserved":false,"is_disabled":false,"rental_uris":{"android":"levelo://app?vid=fe358fb5-284d-4348-9311-44f909cb15f4","ios":"levelo://app?vid=fe358fb5-284d-4348-9311-44f909cb15f4"},"vehicle_type_id":"4","last_reported":1742364864,"current_range_meters":6000,"station_id":"ce4bhi12rcd13ifvqfp0","pricing_plan_id":"cebpf4jnsgd1na2vs0mg"},{"bike_id":"6e874661-bb50-4aba-b5e1-20f06a0b350d","system_id":"levelo_inurba_marseille","lat":43.30796,"lon":5.38162,"is_reserved":false,"is_disabled":false,"rental_uris":{"android":"levelo://app?vid=6e874661-bb50-4aba-b5e1-20f06a0b350d","ios":"levelo://app?vid=6e874661-bb50-4aba-b5e1-20f06a0b350d"},"vehicle_type_id":"4","last_reported":1742364864,"current_range_meters":6400,"station_id":"ce4bgt12rcd13ifvqce0","pricing_plan_id":"cebpf4jnsgd1na2vs0mg"},{"bike_id":"b1d9f1af-d8f9-4b97-a270-4bf890a49af9","system_id":"levelo_inurba_marseille","lat":43.28406,"lon":5.37516,"is_reserved":false,"is_disabled":false,"rental_uris":{"android":"levelo://app?vid=b1d9f1af-d8f9-4b97-a270-4bf890a49af9","ios":"levelo://app?vid=b1d9f1af-d8f9-4b97-a270-4bf890a49af9"},"vehicle_type_id":"4","last_reported":1742364864,"current_range_meters":6400,"station_id":"ce4bh412rcd13ifvqds0","pricing_plan_id":"cebpf4jnsgd1na2vs0mg"},{"bike_id":"52bd4f14-775f-459f-9791-851d088e69cb","system_id":"levelo_inurba_marseille","lat":43.250016,"lon":5.389318,"is_reserved":false,"is_disabled":false,"rental_uris":{"android":"levelo://app?vid=52bd4f14-775f-459f-9791-851d088e69cb","ios":"levelo://app?vid=52bd4f14-775f-459f-9791-851d088e69cb"},"vehicle_type_id":"4","last_reported":1742364864,"current_range_meters":6400,"station_id":"ce4bhgp2rcd13ifvqfd0","pricing_plan_id":"cebpf4jnsgd1na2vs0mg"},{"bike_id":"bc1c6cb2-f570-411d-9fcd-cdf964b3ea03","system_id":"levelo_inurba_marseille","lat":43.313343,"lon":5.39689,"is_reserved":false,"is_disabled":false,"rental_uris":{"android":"levelo://app?vid=bc1c6cb2-f570-411d-9fcd-cdf964b3ea03","ios":"levelo://app?vid=bc1c6cb2-f570-411d-9fcd-cdf964b3ea03"},"vehicle_type_id":"4","last_reported":1742364864,"current_range_meters":6400,"station_id":"ce4bgvp2rcd13ifvqcu0","pricing_plan_id":"cebpf4jnsgd1na2vs0mg"},{"bike_id":"900606e9-1414-408c-b609-f4c9952f2d0c","system_id":"levelo_inurba_marseille","lat":43.31102,"lon":5.37768,"is_reserved":false,"is_disabled":true,"rental_uris":{"android":"levelo://app?vid=900606e9-1414-408c-b609-f4c9952f2d0c","ios":"levelo://app?vid=900606e9-1414-408c-b609-f4c9952f2d0c"},"vehicle_type_id":"4","last_reported":1742364864,"current_range_meters":6400,"station_id":"ce4bgt92rcd13ifvqcg0","pricing_plan_id":"cebpf4jnsgd1na2vs0mg"},{"bike_id":"4f6d11f4-8d23-4e35-8c59-e818e64ce7ab","system_id":"levelo_inurba_marseille","lat":43.29528,"lon":5.43899,"is_reserved":false,"is_disabled":false,"rental_uris":{"android":"levelo://app?vid=4f6d11f4-8d23-4e35-8c59-e818e64ce7ab","ios":"levelo://app?vid=4f6d11f4-8d23-4e35-8c59-e818e64ce7ab"},"vehicle_type_id":"4","last_reported":1742364864,"current_range_meters":6400,"station_id":"","pricing_plan_id":"cebpf4jnsgd1na2vs0mg"},{"bike_id":"8b298902-a6fa-4f9e-babb-1299b9fe1519","system_id":"levelo_inurba_marseille","lat":43.28553,"lon":5.39518,"is_reserved":false,"is_disabled":false,"rental_uris":{"android":"levelo://app?vid=8b298902-a6fa-4f9e-babb-1299b9fe1519","ios":"levelo://app?vid=8b298902-a6fa-4f9e-babb-1299b9fe1519"},"vehicle_type_id":"4","last_reported":1742364864,"current_range_meters":6400,"station_id":"ce4bh292rcd13ifvqdg0","pricing_plan_id":"cebpf4jnsgd1na2vs0mg"},{"bike_id":"45b82e0f-05c8-4de5-b641-e0a386935fad","system_id":"levelo_inurba_marseille","lat":43.31275,"lon":5.40183,"is_reserved":false,"is_disabled":false,"rental_uris":{"android":"levelo://app?vid=45b82e0f-05c8-4de5-b641-e0a386935fad","ios":"levelo://app?vid=45b82e0f-05c8-4de5-b641-e0a386935fad"},"vehicle_type_id":"4","last_reported":1742364864,"current_range_meters":6400,"station_id":"ce4bh092rcd13ifvqd30","pricing_plan_id":"cebpf4jnsgd1na2vs0mg"},{"bike_id":"6368f354-6da7-4884-a394-062f1a963ed6","system_id":"levelo_inurba_marseille","lat":43.292919,"lon":5.428094,"is_reserved":false,"is_disabled":false,"rental_uris":{"android":"levelo://app?vid=6368f354-6da7-4884-a394-062f1a963ed6","ios":"levelo://app?vid=6368f354-6da7-4884-a394-062f1a963ed6"},"vehicle_type_id":"4","last_reported":1742364864,"current_range_meters":6400,"station_id":"","pricing_plan_id":"cebpf4jnsgd1na2vs0mg"},{"bike_id":"da9e957d-4987-4753-a343-7caf18a7aa8d","system_id":"levelo_inurba_marseille","lat":43.28495,"lon":5.38562,"is_reserved":false,"is_disabled":false,"rental_uris":{"android":"levelo://app?vid=da9e957d-4987-4753-a343-7caf18a7aa8d","ios":"levelo://app?vid=da9e957d-4987-4753-a343-7caf18a7aa8d"},"vehicle_type_id":"4","last_reported":1742364864,"current_range_meters":6800,"station_id":"ce4bh8p2rcd13ifvqeb0","pricing_plan_id":"cebpf4jnsgd1na2vs0mg"},{"bike_id":"80ed072f-f0f7-4a90-bb63-6bdb9b26ece8","system_id":"levelo_inurba_marseille","lat":43.30266,"lon":5.39581,"is_reserved":false,"is_disabled":false,"rental_uris":{"android":"levelo://app?vid=80ed072f-f0f7-4a90-bb63-6bdb9b26ece8","ios":"levelo://app?vid=80ed072f-f0f7-4a90-bb63-6bdb9b26ece8"},"vehicle_type_id":"4","last_reported":1742364864,"current_range_meters":6800,"station_id":"ce4bgvp2rcd13ifvqct0","pricing_plan_id":"cebpf4jnsgd1na2vs0mg"},{"bike_id":"5cc7107b-4638-44b7-9016-fb56a8137a82","system_id":"levelo_inurba_marseille","lat":43.330229,"lon":5.390404,"is_reserved":false,"is_disabled":false,"rental_uris":{"android":"levelo://app?vid=5cc7107b-4638-44b7-9016-fb56a8137a82","ios":"levelo://app?vid=5cc7107b-4638-44b7-9016-fb56a8137a82"},"vehicle_type_id":"4","last_reported":1742364864,"current_range_meters":6800,"station_id":"ce4bhr92rcd13ifvqhrg","pricing_plan_id":"cebpf4jnsgd1na2vs0mg"},{"bike_id":"05f500f2-ae0f-4f51-b308-035cc001963c","system_id":"levelo_inurba_marseille","lat":43.278193,"lon":5.407168,"is_reserved":false,"is_disabled":false,"rental_uris":{"android":"levelo://app?vid=05f500f2-ae0f-4f51-b308-035cc001963c","ios":"levelo://app?vid=05f500f2-ae0f-4f51-b308-035cc001963c"},"vehicle_type_id":"4","last_reported":1742364864,"current_range_meters":6800,"station_id":"ce4bhnh2rcd13ifvqgtg","pricing_plan_id":"cebpf4jnsgd1na2vs0mg"},{"bike_id":"8528cfd6-758c-4197-aaac-800294acfea6","system_id":"levelo_inurba_marseille","lat":43.2585,"lon":5.3996,"is_reserved":false,"is_disabled":false,"rental_uris":{"android":"levelo://app?vid=8528cfd6-758c-4197-aaac-800294acfea6","ios":"levelo://app?vid=8528cfd6-758c-4197-aaac-800294acfea6"},"vehicle_type_id":"4","last_reported":1742364864,"current_range_meters":6800,"station_id":"ce4bhl92rcd13ifvqghg","pricing_plan_id":"cebpf4jnsgd1na2vs0mg"},{"bike_id":"38233fcc-45aa-475d-b774-1f1525a8fb6d","system_id":"levelo_inurba_marseille","lat":43.26036,"lon":5.39345,"is_reserved":false,"is_disabled":false,"rental_uris":{"android":"levelo://app?vid=38233fcc-45aa-475d-b774-1f1525a8fb6d","ios":"levelo://app?vid=38233fcc-45aa-475d-b774-1f1525a8fb6d"},"vehicle_type_id":"4","last_reported":1742364864,"current_range_meters":6800,"station_id":"ce4bhh92rcd13ifvqfj0","pricing_plan_id":"cebpf4jnsgd1na2vs0mg"},{"bike_id":"eca5cde3-5cbf-4c2c-97d5-ef4d7982662d","system_id":"levelo_inurba_marseille","lat":43.31322,"lon":5.39726,"is_reserved":false,"is_disabled":false,"rental_uris":{"android":"levelo://app?vid=eca5cde3-5cbf-4c2c-97d5-ef4d7982662d","ios":"levelo://app?vid=eca5cde3-5cbf-4c2c-97d5-ef4d7982662d"},"vehicle_type_id":"4","last_reported":1742364864,"current_range_meters":6800,"station_id":"ce4bgvp2rcd13ifvqcu0","pricing_plan_id":"cebpf4jnsgd1na2vs0mg"},{"bike_id":"c8aebf71-8f92-4a15-a86e-14c7cfbd9a29","system_id":"levelo_inurba_marseille","lat":43.2961,"lon":5.38033,"is_reserved":false,"is_disabled":false,"rental_uris":{"android":"levelo://app?vid=c8aebf71-8f92-4a15-a86e-14c7cfbd9a29","ios":"levelo://app?vid=c8aebf71-8f92-4a15-a86e-14c7cfbd9a29"},"vehicle_type_id":"4","last_reported":1742364864,"current_range_meters":6800,"station_id":"","pricing_plan_id":"cebpf4jnsgd1na2vs0mg"},{"bike_id":"c615b7dd-2094-4974-82b8-2a84922ae42d","system_id":"levelo_inurba_marseille","lat":43.25486,"lon":5.37647,"is_reserved":false,"is_disabled":false,"rental_uris":{"android":"levelo://app?vid=c615b7dd-2094-4974-82b8-2a84922ae42d","ios":"levelo://app?vid=c615b7dd-2094-4974-82b8-2a84922ae42d"},"vehicle_type_id":"4","last_reported":1742364864,"current_range_meters":6800,"station_id":"ce4bhh12rcd13ifvqff0","pricing_plan_id":"cebpf4jnsgd1na2vs0mg"},{"bike_id":"fc3c66cd-fcf5-49b9-9bc0-ad74e199a26d","system_id":"levelo_inurba_marseille","lat":43.3127,"lon":5.40171,"is_reserved":false,"is_disabled":false,"rental_uris":{"android":"levelo://app?vid=fc3c66cd-fcf5-49b9-9bc0-ad74e199a26d","ios":"levelo://app?vid=fc3c66cd-fcf5-49b9-9bc0-ad74e199a26d"},"vehicle_type_id":"4","last_reported":1742364864,"current_range_meters":6800,"station_id":"ce4bh092rcd13ifvqd30","pricing_plan_id":"cebpf4jnsgd1na2vs0mg"},{"bike_id":"66c04a3a-9d69-4941-9191-7796f62ff29e","system_id":"levelo_inurba_marseille","lat":43.284124,"lon":5.375179,"is_reserved":false,"is_disabled":false,"rental_uris":{"android":"levelo://app?vid=66c04a3a-9d69-4941-9191-7796f62ff29e","ios":"levelo://app?vid=66c04a3a-9d69-4941-9191-7796f62ff29e"},"vehicle_type_id":"4","last_reported":1742364864,"current_range_meters":6800,"station_id":"ce4bh412rcd13ifvqds0","pricing_plan_id":"cebpf4jnsgd1na2vs0mg"},{"bike_id":"8f79f3b7-6513-4def-bb2d-05a7d82b97a5","system_id":"levelo_inurba_marseille","lat":43.24171,"lon":5.36397,"is_reserved":false,"is_disabled":false,"rental_uris":{"android":"levelo://app?vid=8f79f3b7-6513-4def-bb2d-05a7d82b97a5","ios":"levelo://app?vid=8f79f3b7-6513-4def-bb2d-05a7d82b97a5"},"vehicle_type_id":"4","last_reported":1742364864,"current_range_meters":6800,"station_id":"cpo36qri1sfpv3e86is0","pricing_plan_id":"cebpf4jnsgd1na2vs0mg"},{"bike_id":"faccb755-09d8-4857-a76e-a52465dbf53e","system_id":"levelo_inurba_marseille","lat":43.284246,"lon":5.349952,"is_reserved":false,"is_disabled":false,"rental_uris":{"android":"levelo://app?vid=faccb755-09d8-4857-a76e-a52465dbf53e","ios":"levelo://app?vid=faccb755-09d8-4857-a76e-a52465dbf53e"},"vehicle_type_id":"4","last_reported":1742364864,"current_range_meters":7200,"station_id":"ce4bhbh2rcd13ifvqepg","pricing_plan_id":"cebpf4jnsgd1na2vs0mg"},{"bike_id":"a50ff043-cdb6-4cd7-868b-d843dcbed4b8","system_id":"levelo_inurba_marseille","lat":43.30172,"lon":5.38063,"is_reserved":false,"is_disabled":false,"rental_uris":{"android":"levelo://app?vid=a50ff043-cdb6-4cd7-868b-d843dcbed4b8","ios":"levelo://app?vid=a50ff043-cdb6-4cd7-868b-d843dcbed4b8"},"vehicle_type_id":"4","last_reported":1742364864,"current_range_meters":7200,"station_id":"ce4bgjp2rcd13ifvqbh0","pricing_plan_id":"cebpf4jnsgd1na2vs0mg"},{"bike_id":"8ef44b71-0faa-4791-9981-652ffb6ce85f","system_id":"levelo_inurba_marseille","lat":43.25934,"lon":5.40901,"is_reserved":false,"is_disabled":false,"rental_uris":{"android":"levelo://app?vid=8ef44b71-0faa-4791-9981-652ffb6ce85f","ios":"levelo://app?vid=8ef44b71-0faa-4791-9981-652ffb6ce85f"},"vehicle_type_id":"4","last_reported":1742364864,"current_range_meters":7200,"station_id":"ce4bhm92rcd13ifvqglg","pricing_plan_id":"cebpf4jnsgd1na2vs0mg"},{"bike_id":"f8e329e0-c5dd-4c4c-baeb-f2151696dbb0","system_id":"levelo_inurba_marseille","lat":43.27067,"lon":5.42278,"is_reserved":false,"is_disabled":false,"rental_uris":{"android":"levelo://app?vid=f8e329e0-c5dd-4c4c-baeb-f2151696dbb0","ios":"levelo://app?vid=f8e329e0-c5dd-4c4c-baeb-f2151696dbb0"},"vehicle_type_id":"4","last_reported":1742364864,"current_range_meters":7200,"station_id":"ce4bhk92rcd13ifvqgb0","pricing_plan_id":"cebpf4jnsgd1na2vs0mg"},{"bike_id":"98e9c1be-555f-4f86-af89-9c5ee41c7bcd","system_id":"levelo_inurba_marseille","lat":43.30931,"lon":5.40154,"is_reserved":false,"is_disabled":false,"rental_uris":{"android":"levelo://app?vid=98e9c1be-555f-4f86-af89-9c5ee41c7bcd","ios":"levelo://app?vid=98e9c1be-555f-4f86-af89-9c5ee41c7bcd"},"vehicle_type_id":"4","last_reported":1742364864,"current_range_meters":7200,"station_id":"ce4bgvp2rcd13ifvqct0","pricing_plan_id":"cebpf4jnsgd1na2vs0mg"},{"bike_id":"d0ecd06f-b344-485c-8550-9fa5bf448f53","system_id":"levelo_inurba_marseille","lat":43.25826,"lon":5.39446,"is_reserved":false,"is_disabled":false,"rental_uris":{"android":"levelo://app?vid=d0ecd06f-b344-485c-8550-9fa5bf448f53","ios":"levelo://app?vid=d0ecd06f-b344-485c-8550-9fa5bf448f53"},"vehicle_type_id":"4","last_reported":1742364864,"current_range_meters":7200,"station_id":"ce4bhip2rcd13ifvqft0","pricing_plan_id":"cebpf4jnsgd1na2vs0mg"},{"bike_id":"049b5602-ba3f-4a09-ad40-b8c54e6f1cb6","system_id":"levelo_inurba_marseille","lat":43.25015,"lon":5.38919,"is_reserved":false,"is_disabled":true,"rental_uris":{"android":"levelo://app?vid=049b5602-ba3f-4a09-ad40-b8c54e6f1cb6","ios":"levelo://app?vid=049b5602-ba3f-4a09-ad40-b8c54e6f1cb6"},"vehicle_type_id":"4","last_reported":1742364864,"current_range_meters":7200,"station_id":"ce4bhgp2rcd13ifvqfd0","pricing_plan_id":"cebpf4jnsgd1na2vs0mg"},{"bike_id":"9f1896ef-7ca1-450d-bade-5dbfe7eb3a65","system_id":"levelo_inurba_marseille","lat":43.27947,"lon":5.38689,"is_reserved":false,"is_disabled":false,"rental_uris":{"android":"levelo://app?vid=9f1896ef-7ca1-450d-bade-5dbfe7eb3a65","ios":"levelo://app?vid=9f1896ef-7ca1-450d-bade-5dbfe7eb3a65"},"vehicle_type_id":"4","last_reported":1742364864,"current_range_meters":7200,"station_id":"","pricing_plan_id":"cebpf4jnsgd1na2vs0mg"},{"bike_id":"8bfc242c-df93-4661-bdab-462c9f15b0d7","system_id":"levelo_inurba_marseille","lat":43.31174,"lon":5.38723,"is_reserved":false,"is_disabled":false,"rental_uris":{"android":"levelo://app?vid=8bfc242c-df93-4661-bdab-462c9f15b0d7","ios":"levelo://app?vid=8bfc242c-df93-4661-bdab-462c9f15b0d7"},"vehicle_type_id":"4","last_reported":1742364864,"current_range_meters":7200,"station_id":"ce4bgv12rcd13ifvqcp0","pricing_plan_id":"cebpf4jnsgd1na2vs0mg"},{"bike_id":"2fc9495d-c829-4229-a4db-5c8674880d7a","system_id":"levelo_inurba_marseille","lat":43.2305,"lon":5.35517,"is_reserved":false,"is_disabled":false,"rental_uris":{"android":"levelo://app?vid=2fc9495d-c829-4229-a4db-5c8674880d7a","ios":"levelo://app?vid=2fc9495d-c829-4229-a4db-5c8674880d7a"},"vehicle_type_id":"4","last_reported":1742364864,"current_range_meters":7200,"station_id":"cpo3342slgdg3j2ifvpg","pricing_plan_id":"cebpf4jnsgd1na2vs0mg"},{"bike_id":"244972ac-6b8e-496c-8ff7-a07dcecb25e0","system_id":"levelo_inurba_marseille","lat":43.28071,"lon":5.39659,"is_reserved":false,"is_disabled":false,"rental_uris":{"android":"levelo://app?vid=244972ac-6b8e-496c-8ff7-a07dcecb25e0","ios":"levelo://app?vid=244972ac-6b8e-496c-8ff7-a07dcecb25e0"},"vehicle_type_id":"4","last_reported":1742364864,"current_range_meters":7200,"station_id":"ce4bho12rcd13ifvqh2g","pricing_plan_id":"cebpf4jnsgd1na2vs0mg"},{"bike_id":"0b60e72b-d8b1-4266-9b63-b94b87c1ad4b","system_id":"levelo_inurba_marseille","lat":43.2319,"lon":5.39989,"is_reserved":false,"is_disabled":false,"rental_uris":{"android":"levelo://app?vid=0b60e72b-d8b1-4266-9b63-b94b87c1ad4b","ios":"levelo://app?vid=0b60e72b-d8b1-4266-9b63-b94b87c1ad4b"},"vehicle_type_id":"4","last_reported":1742364864,"current_range_meters":8000,"station_id":"ce4bhn12rcd13ifvqgqg","pricing_plan_id":"cebpf4jnsgd1na2vs0mg"},{"bike_id":"3c4f394c-0305-4c58-97e5-6826bd9d917e","system_id":"levelo_inurba_marseille","lat":43.32491,"lon":5.36566,"is_reserved":false,"is_disabled":false,"rental_uris":{"android":"levelo://app?vid=3c4f394c-0305-4c58-97e5-6826bd9d917e","ios":"levelo://app?vid=3c4f394c-0305-4c58-97e5-6826bd9d917e"},"vehicle_type_id":"4","last_reported":1742364864,"current_range_meters":8000,"station_id":"ce4bhs12rcd13ifvqhvg","pricing_plan_id":"cebpf4jnsgd1na2vs0mg"},{"bike_id":"31641444-e93f-4b5a-bf42-3bc2c8cd9f25","system_id":"levelo_inurba_marseille","lat":43.24682,"lon":5.38151,"is_reserved":false,"is_disabled":false,"rental_uris":{"android":"levelo://app?vid=31641444-e93f-4b5a-bf42-3bc2c8cd9f25","ios":"levelo://app?vid=31641444-e93f-4b5a-bf42-3bc2c8cd9f25"},"vehicle_type_id":"4","last_reported":1742364864,"current_range_meters":8000,"station_id":"ce4bhih2rcd13ifvqfr0","pricing_plan_id":"cebpf4jnsgd1na2vs0mg"},{"bike_id":"69569305-2a1b-4bab-8e82-23d9f1d8038c","system_id":"levelo_inurba_marseille","lat":43.30644,"lon":5.40099,"is_reserved":false,"is_disabled":false,"rental_uris":{"android":"levelo://app?vid=69569305-2a1b-4bab-8e82-23d9f1d8038c","ios":"levelo://app?vid=69569305-2a1b-4bab-8e82-23d9f1d8038c"},"vehicle_type_id":"4","last_reported":1742364864,"current_range_meters":8000,"station_id":"ce4bh112rcd13ifvqda0","pricing_plan_id":"cebpf4jnsgd1na2vs0mg"},{"bike_id":"6ae6f76c-6a01-4d75-9d3f-dfa610803a78","system_id":"levelo_inurba_marseille","lat":43.230684,"lon":5.35495,"is_reserved":false,"is_disabled":false,"rental_uris":{"android":"levelo://app?vid=6ae6f76c-6a01-4d75-9d3f-dfa610803a78","ios":"levelo://app?vid=6ae6f76c-6a01-4d75-9d3f-dfa610803a78"},"vehicle_type_id":"4","last_reported":1742364864,"current_range_meters":8000,"station_id":"cpo3342slgdg3j2ifvpg","pricing_plan_id":"cebpf4jnsgd1na2vs0mg"},{"bike_id":"87abaf66-9fc5-4cf1-84c5-1f3afd52d3df","system_id":"levelo_inurba_marseille","lat":43.247936,"lon":5.374804,"is_reserved":false,"is_disabled":false,"rental_uris":{"android":"levelo://app?vid=87abaf66-9fc5-4cf1-84c5-1f3afd52d3df","ios":"levelo://app?vid=87abaf66-9fc5-4cf1-84c5-1f3afd52d3df"},"vehicle_type_id":"4","last_reported":1742364864,"current_range_meters":8000,"station_id":"ce4bhgh2rcd13ifvqfb0","pricing_plan_id":"cebpf4jnsgd1na2vs0mg"},{"bike_id":"519efbbc-7577-4063-8eac-658ef30e98a3","system_id":"levelo_inurba_marseille","lat":43.24991,"lon":5.38951,"is_reserved":false,"is_disabled":false,"rental_uris":{"android":"levelo://app?vid=519efbbc-7577-4063-8eac-658ef30e98a3","ios":"levelo://app?vid=519efbbc-7577-4063-8eac-658ef30e98a3"},"vehicle_type_id":"4","last_reported":1742364864,"current_range_meters":8000,"station_id":"ce4bhgp2rcd13ifvqfd0","pricing_plan_id":"cebpf4jnsgd1na2vs0mg"},{"bike_id":"253fce13-8607-4f2f-839f-40104be19b05","system_id":"levelo_inurba_marseille","lat":43.23962,"lon":5.36637,"is_reserved":false,"is_disabled":false,"rental_uris":{"android":"levelo://app?vid=253fce13-8607-4f2f-839f-40104be19b05","ios":"levelo://app?vid=253fce13-8607-4f2f-839f-40104be19b05"},"vehicle_type_id":"4","last_reported":1742364864,"current_range_meters":8000,"station_id":"ce4bhi12rcd13ifvqfp0","pricing_plan_id":"cebpf4jnsgd1na2vs0mg"},{"bike_id":"01ec6899-9e70-425a-a91b-c49e5fc36660","system_id":"levelo_inurba_marseille","lat":43.248093,"lon":5.374598,"is_reserved":false,"is_disabled":false,"rental_uris":{"android":"levelo://app?vid=01ec6899-9e70-425a-a91b-c49e5fc36660","ios":"levelo://app?vid=01ec6899-9e70-425a-a91b-c49e5fc36660"},"vehicle_type_id":"4","last_reported":1742364864,"current_range_meters":8000,"station_id":"ce4bhgh2rcd13ifvqfb0","pricing_plan_id":"cebpf4jnsgd1na2vs0mg"},{"bike_id":"94b3696b-5482-43da-8d12-ee51a98b38d7","system_id":"levelo_inurba_marseille","lat":43.30886,"lon":5.39621,"is_reserved":false,"is_disabled":false,"rental_uris":{"android":"levelo://app?vid=94b3696b-5482-43da-8d12-ee51a98b38d7","ios":"levelo://app?vid=94b3696b-5482-43da-8d12-ee51a98b38d7"},"vehicle_type_id":"4","last_reported":1742364864,"current_range_meters":8000,"station_id":"ce4bh012rcd13ifvqcv0","pricing_plan_id":"cebpf4jnsgd1na2vs0mg"},{"bike_id":"df4642c9-c3fd-4f88-b1d5-c33a4aa2259c","system_id":"levelo_inurba_marseille","lat":43.23185,"lon":5.39995,"is_reserved":false,"is_disabled":false,"rental_uris":{"android":"levelo://app?vid=df4642c9-c3fd-4f88-b1d5-c33a4aa2259c","ios":"levelo://app?vid=df4642c9-c3fd-4f88-b1d5-c33a4aa2259c"},"vehicle_type_id":"4","last_reported":1742364864,"current_range_meters":8000,"station_id":"ce4bhn12rcd13ifvqgqg","pricing_plan_id":"cebpf4jnsgd1na2vs0mg"},{"bike_id":"3bff80ec-e94e-42a9-988b-9e0817493bec","system_id":"levelo_inurba_marseille","lat":43.2319,"lon":5.3555,"is_reserved":false,"is_disabled":false,"rental_uris":{"android":"levelo://app?vid=3bff80ec-e94e-42a9-988b-9e0817493bec","ios":"levelo://app?vid=3bff80ec-e94e-42a9-988b-9e0817493bec"},"vehicle_type_id":"4","last_reported":1742364864,"current_range_meters":8400,"station_id":"ce4bhu92rcd13ifvqi70","pricing_plan_id":"cebpf4jnsgd1na2vs0mg"},{"bike_id":"f158cb0f-0380-45cd-a82f-e7d941bda018","system_id":"levelo_inurba_marseille","lat":43.317111,"lon":5.437105,"is_reserved":false,"is_disabled":false,"rental_uris":{"android":"levelo://app?vid=f158cb0f-0380-45cd-a82f-e7d941bda018","ios":"levelo://app?vid=f158cb0f-0380-45cd-a82f-e7d941bda018"},"vehicle_type_id":"4","last_reported":1742364864,"current_range_meters":8400,"station_id":"ce4bhp92rcd13ifvqhcg","pricing_plan_id":"cebpf4jnsgd1na2vs0mg"},{"bike_id":"d1069439-00e9-4aad-ad31-ab5b44b63348","system_id":"levelo_inurba_marseille","lat":43.31765,"lon":5.40436,"is_reserved":false,"is_disabled":true,"rental_uris":{"android":"levelo://app?vid=d1069439-00e9-4aad-ad31-ab5b44b63348","ios":"levelo://app?vid=d1069439-00e9-4aad-ad31-ab5b44b63348"},"vehicle_type_id":"4","last_reported":1742364864,"current_range_meters":8400,"station_id":"","pricing_plan_id":"cebpf4jnsgd1na2vs0mg"},{"bike_id":"61c41159-7a8b-45ee-a18c-926f56b3edec","system_id":"levelo_inurba_marseille","lat":43.25815,"lon":5.39449,"is_reserved":false,"is_disabled":false,"rental_uris":{"android":"levelo://app?vid=61c41159-7a8b-45ee-a18c-926f56b3edec","ios":"levelo://app?vid=61c41159-7a8b-45ee-a18c-926f56b3edec"},"vehicle_type_id":"4","last_reported":1742364864,"current_range_meters":8400,"station_id":"ce4bhip2rcd13ifvqft0","pricing_plan_id":"cebpf4jnsgd1na2vs0mg"},{"bike_id":"2cf913f3-f9be-41c2-a2ea-01870c68e8ea","system_id":"levelo_inurba_marseille","lat":43.32286,"lon":5.38275,"is_reserved":false,"is_disabled":false,"rental_uris":{"android":"levelo://app?vid=2cf913f3-f9be-41c2-a2ea-01870c68e8ea","ios":"levelo://app?vid=2cf913f3-f9be-41c2-a2ea-01870c68e8ea"},"vehicle_type_id":"4","last_reported":1742364864,"current_range_meters":8800,"station_id":"ce4bhr12rcd13ifvqhqg","pricing_plan_id":"cebpf4jnsgd1na2vs0mg"},{"bike_id":"2a84617c-878f-4c80-8beb-fbf3ad5ff4be","system_id":"levelo_inurba_marseille","lat":43.304223,"lon":5.412711,"is_reserved":false,"is_disabled":false,"rental_uris":{"android":"levelo://app?vid=2a84617c-878f-4c80-8beb-fbf3ad5ff4be","ios":"levelo://app?vid=2a84617c-878f-4c80-8beb-fbf3ad5ff4be"},"vehicle_type_id":"4","last_reported":1742364864,"current_range_meters":8800,"station_id":"ce4bhop2rcd13ifvqh7g","pricing_plan_id":"cebpf4jnsgd1na2vs0mg"},{"bike_id":"07d80494-a426-4a76-964b-86bc079594d9","system_id":"levelo_inurba_marseille","lat":43.30432,"lon":5.37941,"is_reserved":false,"is_disabled":false,"rental_uris":{"android":"levelo://app?vid=07d80494-a426-4a76-964b-86bc079594d9","ios":"levelo://app?vid=07d80494-a426-4a76-964b-86bc079594d9"},"vehicle_type_id":"4","last_reported":1742364864,"current_range_meters":8400,"station_id":"ce4bgup2rcd13ifvqcn0","pricing_plan_id":"cebpf4jnsgd1na2vs0mg"},{"bike_id":"d00028dc-9b0d-47df-ad9d-778d21fb21b2","system_id":"levelo_inurba_marseille","lat":43.2319,"lon":5.35568,"is_reserved":false,"is_disabled":false,"rental_uris":{"android":"levelo://app?vid=d00028dc-9b0d-47df-ad9d-778d21fb21b2","ios":"levelo://app?vid=d00028dc-9b0d-47df-ad9d-778d21fb21b2"},"vehicle_type_id":"4","last_reported":1742364864,"current_range_meters":8800,"station_id":"ce4bhu92rcd13ifvqi70","pricing_plan_id":"cebpf4jnsgd1na2vs0mg"},{"bike_id":"ca1c0a28-8faf-435f-9d8b-370c3a07ff34","system_id":"levelo_inurba_marseille","lat":43.2416,"lon":5.36376,"is_reserved":false,"is_disabled":false,"rental_uris":{"android":"levelo://app?vid=ca1c0a28-8faf-435f-9d8b-370c3a07ff34","ios":"levelo://app?vid=ca1c0a28-8faf-435f-9d8b-370c3a07ff34"},"vehicle_type_id":"4","last_reported":1742364864,"current_range_meters":8800,"station_id":"cpo36qri1sfpv3e86is0","pricing_plan_id":"cebpf4jnsgd1na2vs0mg"},{"bike_id":"a342afa1-fe1b-4de5-8f98-f3f81167fac6","system_id":"levelo_inurba_marseille","lat":43.22937,"lon":5.35388,"is_reserved":false,"is_disabled":false,"rental_uris":{"android":"levelo://app?vid=a342afa1-fe1b-4de5-8f98-f3f81167fac6","ios":"levelo://app?vid=a342afa1-fe1b-4de5-8f98-f3f81167fac6"},"vehicle_type_id":"4","last_reported":1742364864,"current_range_meters":8800,"station_id":"cpo3532slgdg3j2ikp40","pricing_plan_id":"cebpf4jnsgd1na2vs0mg"},{"bike_id":"4b1455e3-a129-4c21-aa44-d1039bebb628","system_id":"levelo_inurba_marseille","lat":43.27801,"lon":5.40735,"is_reserved":false,"is_disabled":false,"rental_uris":{"android":"levelo://app?vid=4b1455e3-a129-4c21-aa44-d1039bebb628","ios":"levelo://app?vid=4b1455e3-a129-4c21-aa44-d1039bebb628"},"vehicle_type_id":"4","last_reported":1742364864,"current_range_meters":8800,"station_id":"ce4bhnh2rcd13ifvqgtg","pricing_plan_id":"cebpf4jnsgd1na2vs0mg"},{"bike_id":"539fc8c4-24e6-4af1-852f-0f9aae2257a1","system_id":"levelo_inurba_marseille","lat":43.23181,"lon":5.35575,"is_reserved":false,"is_disabled":false,"rental_uris":{"android":"levelo://app?vid=539fc8c4-24e6-4af1-852f-0f9aae2257a1","ios":"levelo://app?vid=539fc8c4-24e6-4af1-852f-0f9aae2257a1"},"vehicle_type_id":"4","last_reported":1742364864,"current_range_meters":8800,"station_id":"ce4bhu92rcd13ifvqi70","pricing_plan_id":"cebpf4jnsgd1na2vs0mg"},{"bike_id":"5bead0f2-5ada-420f-bea0-acb8d2ad9da4","system_id":"levelo_inurba_marseille","lat":43.231817,"lon":5.399884,"is_reserved":false,"is_disabled":false,"rental_uris":{"android":"levelo://app?vid=5bead0f2-5ada-420f-bea0-acb8d2ad9da4","ios":"levelo://app?vid=5bead0f2-5ada-420f-bea0-acb8d2ad9da4"},"vehicle_type_id":"4","last_reported":1742364864,"current_range_meters":8800,"station_id":"ce4bhn12rcd13ifvqgqg","pricing_plan_id":"cebpf4jnsgd1na2vs0mg"},{"bike_id":"501f7fd9-069d-4c8f-b512-803a0a667daa","system_id":"levelo_inurba_marseille","lat":43.31704,"lon":5.43741,"is_reserved":false,"is_disabled":false,"rental_uris":{"android":"levelo://app?vid=501f7fd9-069d-4c8f-b512-803a0a667daa","ios":"levelo://app?vid=501f7fd9-069d-4c8f-b512-803a0a667daa"},"vehicle_type_id":"4","last_reported":1742364864,"current_range_meters":8800,"station_id":"ce4bhp92rcd13ifvqhcg","pricing_plan_id":"cebpf4jnsgd1na2vs0mg"},{"bike_id":"2e8e2e12-65e7-450a-83a2-d80d023fe506","system_id":"levelo_inurba_marseille","lat":43.316878,"lon":5.404721,"is_reserved":false,"is_disabled":false,"rental_uris":{"android":"levelo://app?vid=2e8e2e12-65e7-450a-83a2-d80d023fe506","ios":"levelo://app?vid=2e8e2e12-65e7-450a-83a2-d80d023fe506"},"vehicle_type_id":"4","last_reported":1742364864,"current_range_meters":8800,"station_id":"ce4bh012rcd13ifvqd00","pricing_plan_id":"cebpf4jnsgd1na2vs0mg"},{"bike_id":"89cb3140-d211-4c4d-97ca-7e01c3c4da90","system_id":"levelo_inurba_marseille","lat":43.23189,"lon":5.35579,"is_reserved":false,"is_disabled":false,"rental_uris":{"android":"levelo://app?vid=89cb3140-d211-4c4d-97ca-7e01c3c4da90","ios":"levelo://app?vid=89cb3140-d211-4c4d-97ca-7e01c3c4da90"},"vehicle_type_id":"4","last_reported":1742364864,"current_range_meters":8800,"station_id":"ce4bhu92rcd13ifvqi70","pricing_plan_id":"cebpf4jnsgd1na2vs0mg"},{"bike_id":"a8c89f12-e7b0-458f-b7a3-09032d50c758","system_id":"levelo_inurba_marseille","lat":43.278198,"lon":5.407153,"is_reserved":false,"is_disabled":false,"rental_uris":{"android":"levelo://app?vid=a8c89f12-e7b0-458f-b7a3-09032d50c758","ios":"levelo://app?vid=a8c89f12-e7b0-458f-b7a3-09032d50c758"},"vehicle_type_id":"4","last_reported":1742364864,"current_range_meters":8800,"station_id":"ce4bhnh2rcd13ifvqgtg","pricing_plan_id":"cebpf4jnsgd1na2vs0mg"},{"bike_id":"e9eef05b-c5f6-4f20-9fc3-55fb9768ade2","system_id":"levelo_inurba_marseille","lat":43.28472,"lon":5.35882,"is_reserved":false,"is_disabled":false,"rental_uris":{"android":"levelo://app?vid=e9eef05b-c5f6-4f20-9fc3-55fb9768ade2","ios":"levelo://app?vid=e9eef05b-c5f6-4f20-9fc3-55fb9768ade2"},"vehicle_type_id":"4","last_reported":1742364864,"current_range_meters":8800,"station_id":"ce4bhah2rcd13ifvqei0","pricing_plan_id":"cebpf4jnsgd1na2vs0mg"},{"bike_id":"402cd330-07f1-43f7-ad4d-be190f776291","system_id":"levelo_inurba_marseille","lat":43.283679,"lon":5.386287,"is_reserved":false,"is_disabled":false,"rental_uris":{"android":"levelo://app?vid=402cd330-07f1-43f7-ad4d-be190f776291","ios":"levelo://app?vid=402cd330-07f1-43f7-ad4d-be190f776291"},"vehicle_type_id":"4","last_reported":1742364864,"current_range_meters":9200,"station_id":"ce4bh492rcd13ifvqdvg","pricing_plan_id":"cebpf4jnsgd1na2vs0mg"},{"bike_id":"cb83bb7b-da1e-4e39-8df9-8da005404b0c","system_id":"levelo_inurba_marseille","lat":43.230526,"lon":5.354998,"is_reserved":false,"is_disabled":false,"rental_uris":{"android":"levelo://app?vid=cb83bb7b-da1e-4e39-8df9-8da005404b0c","ios":"levelo://app?vid=cb83bb7b-da1e-4e39-8df9-8da005404b0c"},"vehicle_type_id":"4","last_reported":1742364864,"current_range_meters":9200,"station_id":"cpo3342slgdg3j2ifvpg","pricing_plan_id":"cebpf4jnsgd1na2vs0mg"},{"bike_id":"5e244767-2fd5-4cae-9f0c-0a11498d0074","system_id":"levelo_inurba_marseille","lat":43.27478,"lon":5.42474,"is_reserved":false,"is_disabled":false,"rental_uris":{"android":"levelo://app?vid=5e244767-2fd5-4cae-9f0c-0a11498d0074","ios":"levelo://app?vid=5e244767-2fd5-4cae-9f0c-0a11498d0074"},"vehicle_type_id":"4","last_reported":1742364864,"current_range_meters":9200,"station_id":"ce4bhn92rcd13ifvqgrg","pricing_plan_id":"cebpf4jnsgd1na2vs0mg"},{"bike_id":"8777ef92-eb8d-4856-bd98-ecafeb780344","system_id":"levelo_inurba_marseille","lat":43.27847,"lon":5.39199,"is_reserved":false,"is_disabled":false,"rental_uris":{"android":"levelo://app?vid=8777ef92-eb8d-4856-bd98-ecafeb780344","ios":"levelo://app?vid=8777ef92-eb8d-4856-bd98-ecafeb780344"},"vehicle_type_id":"4","last_reported":1742364864,"current_range_meters":9200,"station_id":"ce4bhjp2rcd13ifvqga0","pricing_plan_id":"cebpf4jnsgd1na2vs0mg"},{"bike_id":"ab11fa9b-759f-447f-a4f1-b143e2360775","system_id":"levelo_inurba_marseille","lat":43.313451,"lon":5.391627,"is_reserved":false,"is_disabled":false,"rental_uris":{"android":"levelo://app?vid=ab11fa9b-759f-447f-a4f1-b143e2360775","ios":"levelo://app?vid=ab11fa9b-759f-447f-a4f1-b143e2360775"},"vehicle_type_id":"4","last_reported":1742364864,"current_range_meters":9200,"station_id":"","pricing_plan_id":"cebpf4jnsgd1na2vs0mg"},{"bike_id":"2f1d9500-6c1e-424f-b2b7-72959f6413ad","system_id":"levelo_inurba_marseille","lat":43.30654,"lon":5.40084,"is_reserved":false,"is_disabled":false,"rental_uris":{"android":"levelo://app?vid=2f1d9500-6c1e-424f-b2b7-72959f6413ad","ios":"levelo://app?vid=2f1d9500-6c1e-424f-b2b7-72959f6413ad"},"vehicle_type_id":"4","last_reported":1742364864,"current_range_meters":9200,"station_id":"ce4bh112rcd13ifvqda0","pricing_plan_id":"cebpf4jnsgd1na2vs0mg"},{"bike_id":"1721ba57-56a5-46db-9557-5a9a3966046a","system_id":"levelo_inurba_marseille","lat":43.28856,"lon":5.39306,"is_reserved":false,"is_disabled":false,"rental_uris":{"android":"levelo://app?vid=1721ba57-56a5-46db-9557-5a9a3966046a","ios":"levelo://app?vid=1721ba57-56a5-46db-9557-5a9a3966046a"},"vehicle_type_id":"4","last_reported":1742364864,"current_range_meters":9200,"station_id":"ce4bh2p2rcd13ifvqdi0","pricing_plan_id":"cebpf4jnsgd1na2vs0mg"},{"bike_id":"7956a227-f2ef-4d59-908d-81de8fca89d3","system_id":"levelo_inurba_marseille","lat":43.29797,"lon":5.40427,"is_reserved":false,"is_disabled":false,"rental_uris":{"android":"levelo://app?vid=7956a227-f2ef-4d59-908d-81de8fca89d3","ios":"levelo://app?vid=7956a227-f2ef-4d59-908d-81de8fca89d3"},"vehicle_type_id":"4","last_reported":1742364864,"current_range_meters":9200,"station_id":"ce4bh112rcd13ifvqd90","pricing_plan_id":"cebpf4jnsgd1na2vs0mg"},{"bike_id":"e94b1f20-3e0e-4dcb-9056-1e4af333e85a","system_id":"levelo_inurba_marseille","lat":43.28935,"lon":5.39715,"is_reserved":false,"is_disabled":false,"rental_uris":{"android":"levelo://app?vid=e94b1f20-3e0e-4dcb-9056-1e4af333e85a","ios":"levelo://app?vid=e94b1f20-3e0e-4dcb-9056-1e4af333e85a"},"vehicle_type_id":"4","last_reported":1742364864,"current_range_meters":9200,"station_id":"","pricing_plan_id":"cebpf4jnsgd1na2vs0mg"},{"bike_id":"6b162ed9-3599-4156-a34b-2df90433ae5c","system_id":"levelo_inurba_marseille","lat":43.241799,"lon":5.397376,"is_reserved":false,"is_disabled":false,"rental_uris":{"android":"levelo://app?vid=6b162ed9-3599-4156-a34b-2df90433ae5c","ios":"levelo://app?vid=6b162ed9-3599-4156-a34b-2df90433ae5c"},"vehicle_type_id":"4","last_reported":1742364864,"current_range_meters":9200,"station_id":"ce4bhn12rcd13ifvqgpg","pricing_plan_id":"cebpf4jnsgd1na2vs0mg"},{"bike_id":"4ccc3f56-6ae5-4d6a-9eb1-b86c5e38aaee","system_id":"levelo_inurba_marseille","lat":43.27806,"lon":5.40744,"is_reserved":false,"is_disabled":false,"rental_uris":{"android":"levelo://app?vid=4ccc3f56-6ae5-4d6a-9eb1-b86c5e38aaee","ios":"levelo://app?vid=4ccc3f56-6ae5-4d6a-9eb1-b86c5e38aaee"},"vehicle_type_id":"4","last_reported":1742364864,"current_range_meters":9200,"station_id":"ce4bhnh2rcd13ifvqgtg","pricing_plan_id":"cebpf4jnsgd1na2vs0mg"},{"bike_id":"8ccd8af2-2f23-47a2-8cbd-02706561a504","system_id":"levelo_inurba_marseille","lat":43.30796,"lon":5.3817,"is_reserved":false,"is_disabled":false,"rental_uris":{"android":"levelo://app?vid=8ccd8af2-2f23-47a2-8cbd-02706561a504","ios":"levelo://app?vid=8ccd8af2-2f23-47a2-8cbd-02706561a504"},"vehicle_type_id":"4","last_reported":1742364864,"current_range_meters":9200,"station_id":"ce4bgt12rcd13ifvqce0","pricing_plan_id":"cebpf4jnsgd1na2vs0mg"},{"bike_id":"fe429d9e-ab88-4ad9-b9d6-1a9de48fb5c3","system_id":"levelo_inurba_marseille","lat":43.30925,"lon":5.40154,"is_reserved":false,"is_disabled":false,"rental_uris":{"android":"levelo://app?vid=fe429d9e-ab88-4ad9-b9d6-1a9de48fb5c3","ios":"levelo://app?vid=fe429d9e-ab88-4ad9-b9d6-1a9de48fb5c3"},"vehicle_type_id":"4","last_reported":1742364864,"current_range_meters":9600,"station_id":"ce4bgvp2rcd13ifvqct0","pricing_plan_id":"cebpf4jnsgd1na2vs0mg"},{"bike_id":"82fee542-6fe0-4881-abf3-bf76f21162be","system_id":"levelo_inurba_marseille","lat":43.30638,"lon":5.40109,"is_reserved":false,"is_disabled":false,"rental_uris":{"android":"levelo://app?vid=82fee542-6fe0-4881-abf3-bf76f21162be","ios":"levelo://app?vid=82fee542-6fe0-4881-abf3-bf76f21162be"},"vehicle_type_id":"4","last_reported":1742364864,"current_range_meters":9600,"station_id":"ce4bh112rcd13ifvqda0","pricing_plan_id":"cebpf4jnsgd1na2vs0mg"},{"bike_id":"1f4d04b1-8f45-4926-aad8-072dc7b7d942","system_id":"levelo_inurba_marseille","lat":43.280333,"lon":5.369439,"is_reserved":false,"is_disabled":false,"rental_uris":{"android":"levelo://app?vid=1f4d04b1-8f45-4926-aad8-072dc7b7d942","ios":"levelo://app?vid=1f4d04b1-8f45-4926-aad8-072dc7b7d942"},"vehicle_type_id":"4","last_reported":1742364864,"current_range_meters":9600,"station_id":"ce4bha12rcd13ifvqef0","pricing_plan_id":"cebpf4jnsgd1na2vs0mg"},{"bike_id":"11bffd4d-691e-479c-be44-e39bfa076b4b","system_id":"levelo_inurba_marseille","lat":43.28441,"lon":5.35909,"is_reserved":false,"is_disabled":false,"rental_uris":{"android":"levelo://app?vid=11bffd4d-691e-479c-be44-e39bfa076b4b","ios":"levelo://app?vid=11bffd4d-691e-479c-be44-e39bfa076b4b"},"vehicle_type_id":"4","last_reported":1742364864,"current_range_meters":9600,"station_id":"ce4bhah2rcd13ifvqei0","pricing_plan_id":"cebpf4jnsgd1na2vs0mg"},{"bike_id":"a8766000-078c-47ff-8301-09d21e7c8d48","system_id":"levelo_inurba_marseille","lat":43.3089,"lon":5.39605,"is_reserved":false,"is_disabled":false,"rental_uris":{"android":"levelo://app?vid=a8766000-078c-47ff-8301-09d21e7c8d48","ios":"levelo://app?vid=a8766000-078c-47ff-8301-09d21e7c8d48"},"vehicle_type_id":"4","last_reported":1742364864,"current_range_meters":9600,"station_id":"ce4bh012rcd13ifvqcv0","pricing_plan_id":"cebpf4jnsgd1na2vs0mg"},{"bike_id":"940e816e-4f07-47f8-8676-f1878d791ee8","system_id":"levelo_inurba_marseille","lat":43.25508,"lon":5.37679,"is_reserved":false,"is_disabled":false,"rental_uris":{"android":"levelo://app?vid=940e816e-4f07-47f8-8676-f1878d791ee8","ios":"levelo://app?vid=940e816e-4f07-47f8-8676-f1878d791ee8"},"vehicle_type_id":"4","last_reported":1742364864,"current_range_meters":9600,"station_id":"ce4bhh12rcd13ifvqff0","pricing_plan_id":"cebpf4jnsgd1na2vs0mg"},{"bike_id":"b132483d-1d99-4f2a-9ca2-8544144e934f","system_id":"levelo_inurba_marseille","lat":43.32358,"lon":5.38886,"is_reserved":false,"is_disabled":false,"rental_uris":{"android":"levelo://app?vid=b132483d-1d99-4f2a-9ca2-8544144e934f","ios":"levelo://app?vid=b132483d-1d99-4f2a-9ca2-8544144e934f"},"vehicle_type_id":"4","last_reported":1742364864,"current_range_meters":9600,"station_id":"ce4bhqp2rcd13ifvqhog","pricing_plan_id":"cebpf4jnsgd1na2vs0mg"},{"bike_id":"78270302-d7b6-4dac-a9b0-d0b0726e52ad","system_id":"levelo_inurba_marseille","lat":43.28941,"lon":5.36407,"is_reserved":false,"is_disabled":false,"rental_uris":{"android":"levelo://app?vid=78270302-d7b6-4dac-a9b0-d0b0726e52ad","ios":"levelo://app?vid=78270302-d7b6-4dac-a9b0-d0b0726e52ad"},"vehicle_type_id":"4","last_reported":1742364864,"current_range_meters":9600,"station_id":"ce4bhc92rcd13ifvqetg","pricing_plan_id":"cebpf4jnsgd1na2vs0mg"},{"bike_id":"cabc56a7-dd90-4978-a4aa-b0149cec9ec6","system_id":"levelo_inurba_marseille","lat":43.25499,"lon":5.376485,"is_reserved":false,"is_disabled":false,"rental_uris":{"android":"levelo://app?vid=cabc56a7-dd90-4978-a4aa-b0149cec9ec6","ios":"levelo://app?vid=cabc56a7-dd90-4978-a4aa-b0149cec9ec6"},"vehicle_type_id":"4","last_reported":1742364864,"current_range_meters":9600,"station_id":"ce4bhh12rcd13ifvqff0","pricing_plan_id":"cebpf4jnsgd1na2vs0mg"},{"bike_id":"1179b381-200b-46f2-81ad-dc9a8285a090","system_id":"levelo_inurba_marseille","lat":43.28412,"lon":5.37514,"is_reserved":false,"is_disabled":false,"rental_uris":{"android":"levelo://app?vid=1179b381-200b-46f2-81ad-dc9a8285a090","ios":"levelo://app?vid=1179b381-200b-46f2-81ad-dc9a8285a090"},"vehicle_type_id":"4","last_reported":1742364864,"current_range_meters":9600,"station_id":"ce4bh412rcd13ifvqds0","pricing_plan_id":"cebpf4jnsgd1na2vs0mg"},{"bike_id":"8abf66b0-4c7b-4a5b-9216-254c311cdf06","system_id":"levelo_inurba_marseille","lat":43.25566,"lon":5.38254,"is_reserved":false,"is_disabled":false,"rental_uris":{"android":"levelo://app?vid=8abf66b0-4c7b-4a5b-9216-254c311cdf06","ios":"levelo://app?vid=8abf66b0-4c7b-4a5b-9216-254c311cdf06"},"vehicle_type_id":"4","last_reported":1742364864,"current_range_meters":10000,"station_id":"ce4bhih2rcd13ifvqfs0","pricing_plan_id":"cebpf4jnsgd1na2vs0mg"},{"bike_id":"16ce82f4-7642-4d89-bb15-7d2b1d00ed70","system_id":"levelo_inurba_marseille","lat":43.23961,"lon":5.36642,"is_reserved":false,"is_disabled":false,"rental_uris":{"android":"levelo://app?vid=16ce82f4-7642-4d89-bb15-7d2b1d00ed70","ios":"levelo://app?vid=16ce82f4-7642-4d89-bb15-7d2b1d00ed70"},"vehicle_type_id":"4","last_reported":1742364864,"current_range_meters":10000,"station_id":"ce4bhi12rcd13ifvqfp0","pricing_plan_id":"cebpf4jnsgd1na2vs0mg"},{"bike_id":"4dfde5f1-5b7a-4544-af46-1b4f858c8262","system_id":"levelo_inurba_marseille","lat":43.28458,"lon":5.35881,"is_reserved":false,"is_disabled":false,"rental_uris":{"android":"levelo://app?vid=4dfde5f1-5b7a-4544-af46-1b4f858c8262","ios":"levelo://app?vid=4dfde5f1-5b7a-4544-af46-1b4f858c8262"},"vehicle_type_id":"4","last_reported":1742364864,"current_range_meters":10000,"station_id":"ce4bhah2rcd13ifvqei0","pricing_plan_id":"cebpf4jnsgd1na2vs0mg"},{"bike_id":"b98eff8b-8bbd-44cf-94d7-71a6341eecc2","system_id":"levelo_inurba_marseille","lat":43.23189,"lon":5.40002,"is_reserved":false,"is_disabled":false,"rental_uris":{"android":"levelo://app?vid=b98eff8b-8bbd-44cf-94d7-71a6341eecc2","ios":"levelo://app?vid=b98eff8b-8bbd-44cf-94d7-71a6341eecc2"},"vehicle_type_id":"4","last_reported":1742364864,"current_range_meters":10000,"station_id":"ce4bhn12rcd13ifvqgqg","pricing_plan_id":"cebpf4jnsgd1na2vs0mg"},{"bike_id":"5bc5565f-17ef-4d7e-b4d1-208095449a2e","system_id":"levelo_inurba_marseille","lat":43.2885,"lon":5.39337,"is_reserved":false,"is_disabled":false,"rental_uris":{"android":"levelo://app?vid=5bc5565f-17ef-4d7e-b4d1-208095449a2e","ios":"levelo://app?vid=5bc5565f-17ef-4d7e-b4d1-208095449a2e"},"vehicle_type_id":"4","last_reported":1742364864,"current_range_meters":10000,"station_id":"ce4bh2p2rcd13ifvqdi0","pricing_plan_id":"cebpf4jnsgd1na2vs0mg"},{"bike_id":"bfa40974-876e-403f-8ee9-98898195442a","system_id":"levelo_inurba_marseille","lat":43.28476,"lon":5.35895,"is_reserved":false,"is_disabled":false,"rental_uris":{"android":"levelo://app?vid=bfa40974-876e-403f-8ee9-98898195442a","ios":"levelo://app?vid=bfa40974-876e-403f-8ee9-98898195442a"},"vehicle_type_id":"4","last_reported":1742364864,"current_range_meters":10000,"station_id":"ce4bhah2rcd13ifvqei0","pricing_plan_id":"cebpf4jnsgd1na2vs0mg"},{"bike_id":"f142dc05-f5d3-4cbc-afe5-c54cd3d760d6","system_id":"levelo_inurba_marseille","lat":43.28095,"lon":5.39696,"is_reserved":false,"is_disabled":false,"rental_uris":{"android":"levelo://app?vid=f142dc05-f5d3-4cbc-afe5-c54cd3d760d6","ios":"levelo://app?vid=f142dc05-f5d3-4cbc-afe5-c54cd3d760d6"},"vehicle_type_id":"4","last_reported":1742364864,"current_range_meters":10000,"station_id":"ce4bho12rcd13ifvqh2g","pricing_plan_id":"cebpf4jnsgd1na2vs0mg"},{"bike_id":"62f7539b-b047-479e-84e9-11e5c010431d","system_id":"levelo_inurba_marseille","lat":43.300183,"lon":5.400116,"is_reserved":false,"is_disabled":false,"rental_uris":{"android":"levelo://app?vid=62f7539b-b047-479e-84e9-11e5c010431d","ios":"levelo://app?vid=62f7539b-b047-479e-84e9-11e5c010431d"},"vehicle_type_id":"4","last_reported":1742364864,"current_range_meters":10000,"station_id":"","pricing_plan_id":"cebpf4jnsgd1na2vs0mg"},{"bike_id":"7c3baf44-953e-4bba-9100-4685bf1e6739","system_id":"levelo_inurba_marseille","lat":43.2557,"lon":5.38248,"is_reserved":false,"is_disabled":false,"rental_uris":{"android":"levelo://app?vid=7c3baf44-953e-4bba-9100-4685bf1e6739","ios":"levelo://app?vid=7c3baf44-953e-4bba-9100-4685bf1e6739"},"vehicle_type_id":"4","last_reported":1742364864,"current_range_meters":10800,"station_id":"ce4bhih2rcd13ifvqfs0","pricing_plan_id":"cebpf4jnsgd1na2vs0mg"},{"bike_id":"ef512198-3f43-4d32-801b-f63c871c0ea6","system_id":"levelo_inurba_marseille","lat":43.288469,"lon":5.358456,"is_reserved":false,"is_disabled":false,"rental_uris":{"android":"levelo://app?vid=ef512198-3f43-4d32-801b-f63c871c0ea6","ios":"levelo://app?vid=ef512198-3f43-4d32-801b-f63c871c0ea6"},"vehicle_type_id":"4","last_reported":1742364864,"current_range_meters":10800,"station_id":"ce4bhb12rcd13ifvqem0","pricing_plan_id":"cebpf4jnsgd1na2vs0mg"},{"bike_id":"7f61d7be-d227-44df-9b33-b8f4965e514f","system_id":"levelo_inurba_marseille","lat":43.2319,"lon":5.35567,"is_reserved":false,"is_disabled":false,"rental_uris":{"android":"levelo://app?vid=7f61d7be-d227-44df-9b33-b8f4965e514f","ios":"levelo://app?vid=7f61d7be-d227-44df-9b33-b8f4965e514f"},"vehicle_type_id":"4","last_reported":1742364864,"current_range_meters":10800,"station_id":"ce4bhu92rcd13ifvqi70","pricing_plan_id":"cebpf4jnsgd1na2vs0mg"},{"bike_id":"26836c87-2147-41b7-afed-e66458af42b2","system_id":"levelo_inurba_marseille","lat":43.25082,"lon":5.39534,"is_reserved":false,"is_disabled":false,"rental_uris":{"android":"levelo://app?vid=26836c87-2147-41b7-afed-e66458af42b2","ios":"levelo://app?vid=26836c87-2147-41b7-afed-e66458af42b2"},"vehicle_type_id":"4","last_reported":1742364864,"current_range_meters":10800,"station_id":"ce4bhm12rcd13ifvqgkg","pricing_plan_id":"cebpf4jnsgd1na2vs0mg"},{"bike_id":"e5121f0f-7c2c-40f2-9de2-92d0b04ec3be","system_id":"levelo_inurba_marseille","lat":43.308828,"lon":5.396454,"is_reserved":false,"is_disabled":false,"rental_uris":{"android":"levelo://app?vid=e5121f0f-7c2c-40f2-9de2-92d0b04ec3be","ios":"levelo://app?vid=e5121f0f-7c2c-40f2-9de2-92d0b04ec3be"},"vehicle_type_id":"4","last_reported":1742364864,"current_range_meters":10800,"station_id":"ce4bh012rcd13ifvqcv0","pricing_plan_id":"cebpf4jnsgd1na2vs0mg"},{"bike_id":"f31fd8fc-38af-431a-83a8-4d065c63a44e","system_id":"levelo_inurba_marseille","lat":43.28351,"lon":5.38619,"is_reserved":false,"is_disabled":false,"rental_uris":{"android":"levelo://app?vid=f31fd8fc-38af-431a-83a8-4d065c63a44e","ios":"levelo://app?vid=f31fd8fc-38af-431a-83a8-4d065c63a44e"},"vehicle_type_id":"4","last_reported":1742364864,"current_range_meters":10800,"station_id":"ce4bh492rcd13ifvqdvg","pricing_plan_id":"cebpf4jnsgd1na2vs0mg"},{"bike_id":"c2f4da44-a44d-44d2-8be6-51648ee37d7f","system_id":"levelo_inurba_marseille","lat":43.24995,"lon":5.38949,"is_reserved":false,"is_disabled":false,"rental_uris":{"android":"levelo://app?vid=c2f4da44-a44d-44d2-8be6-51648ee37d7f","ios":"levelo://app?vid=c2f4da44-a44d-44d2-8be6-51648ee37d7f"},"vehicle_type_id":"4","last_reported":1742364864,"current_range_meters":10800,"station_id":"ce4bhgp2rcd13ifvqfd0","pricing_plan_id":"cebpf4jnsgd1na2vs0mg"},{"bike_id":"06a6152a-e477-491f-83ed-9b68fd573e32","system_id":"levelo_inurba_marseille","lat":43.258234,"lon":5.394324,"is_reserved":false,"is_disabled":false,"rental_uris":{"android":"levelo://app?vid=06a6152a-e477-491f-83ed-9b68fd573e32","ios":"levelo://app?vid=06a6152a-e477-491f-83ed-9b68fd573e32"},"vehicle_type_id":"4","last_reported":1742364864,"current_range_meters":10800,"station_id":"ce4bhip2rcd13ifvqft0","pricing_plan_id":"cebpf4jnsgd1na2vs0mg"},{"bike_id":"9c47177a-7452-479f-9af2-f5dddd6db58b","system_id":"levelo_inurba_marseille","lat":43.32994,"lon":5.39057,"is_reserved":false,"is_disabled":false,"rental_uris":{"android":"levelo://app?vid=9c47177a-7452-479f-9af2-f5dddd6db58b","ios":"levelo://app?vid=9c47177a-7452-479f-9af2-f5dddd6db58b"},"vehicle_type_id":"4","last_reported":1742364864,"current_range_meters":10800,"station_id":"ce4bhr92rcd13ifvqhrg","pricing_plan_id":"cebpf4jnsgd1na2vs0mg"},{"bike_id":"bb78a1d1-78ba-4f37-81f4-87b10a1775a5","system_id":"levelo_inurba_marseille","lat":43.321033,"lon":5.367828,"is_reserved":false,"is_disabled":false,"rental_uris":{"android":"levelo://app?vid=bb78a1d1-78ba-4f37-81f4-87b10a1775a5","ios":"levelo://app?vid=bb78a1d1-78ba-4f37-81f4-87b10a1775a5"},"vehicle_type_id":"4","last_reported":1742364864,"current_range_meters":11200,"station_id":"ce4bhrh2rcd13ifvqhug","pricing_plan_id":"cebpf4jnsgd1na2vs0mg"},{"bike_id":"44a4af3e-84f5-4f54-943d-83cf9fa4d793","system_id":"levelo_inurba_marseille","lat":43.278254,"lon":5.407076,"is_reserved":false,"is_disabled":false,"rental_uris":{"android":"levelo://app?vid=44a4af3e-84f5-4f54-943d-83cf9fa4d793","ios":"levelo://app?vid=44a4af3e-84f5-4f54-943d-83cf9fa4d793"},"vehicle_type_id":"4","last_reported":1742364864,"current_range_meters":11200,"station_id":"ce4bhnh2rcd13ifvqgtg","pricing_plan_id":"cebpf4jnsgd1na2vs0mg"},{"bike_id":"78c7f344-224f-4ee1-abbd-94f4d94ef023","system_id":"levelo_inurba_marseille","lat":43.23963,"lon":5.3661,"is_reserved":false,"is_disabled":true,"rental_uris":{"android":"levelo://app?vid=78c7f344-224f-4ee1-abbd-94f4d94ef023","ios":"levelo://app?vid=78c7f344-224f-4ee1-abbd-94f4d94ef023"},"vehicle_type_id":"4","last_reported":1742364864,"current_range_meters":11200,"station_id":"ce4bhi12rcd13ifvqfp0","pricing_plan_id":"cebpf4jnsgd1na2vs0mg"},{"bike_id":"53f43ab5-10e7-471f-87f4-a7548a52d35e","system_id":"levelo_inurba_marseille","lat":43.30876,"lon":5.37209,"is_reserved":false,"is_disabled":false,"rental_uris":{"android":"levelo://app?vid=53f43ab5-10e7-471f-87f4-a7548a52d35e","ios":"levelo://app?vid=53f43ab5-10e7-471f-87f4-a7548a52d35e"},"vehicle_type_id":"4","last_reported":1742364864,"current_range_meters":11200,"station_id":"ce4bguh2rcd13ifvqckg","pricing_plan_id":"cebpf4jnsgd1na2vs0mg"},{"bike_id":"9ca3bb79-a2d6-4b1d-bacb-81aee7604188","system_id":"levelo_inurba_marseille","lat":43.28567,"lon":5.395,"is_reserved":false,"is_disabled":false,"rental_uris":{"android":"levelo://app?vid=9ca3bb79-a2d6-4b1d-bacb-81aee7604188","ios":"levelo://app?vid=9ca3bb79-a2d6-4b1d-bacb-81aee7604188"},"vehicle_type_id":"4","last_reported":1742364864,"current_range_meters":11200,"station_id":"ce4bh292rcd13ifvqdg0","pricing_plan_id":"cebpf4jnsgd1na2vs0mg"},{"bike_id":"98a333cf-e91b-4758-81a4-0ca513ec8e1b","system_id":"levelo_inurba_marseille","lat":43.28933,"lon":5.36416,"is_reserved":false,"is_disabled":false,"rental_uris":{"android":"levelo://app?vid=98a333cf-e91b-4758-81a4-0ca513ec8e1b","ios":"levelo://app?vid=98a333cf-e91b-4758-81a4-0ca513ec8e1b"},"vehicle_type_id":"4","last_reported":1742364864,"current_range_meters":11200,"station_id":"ce4bhc92rcd13ifvqetg","pricing_plan_id":"cebpf4jnsgd1na2vs0mg"},{"bike_id":"3455258b-4135-46b9-9a26-10bf95160e40","system_id":"levelo_inurba_marseille","lat":43.231906,"lon":5.355544,"is_reserved":false,"is_disabled":false,"rental_uris":{"android":"levelo://app?vid=3455258b-4135-46b9-9a26-10bf95160e40","ios":"levelo://app?vid=3455258b-4135-46b9-9a26-10bf95160e40"},"vehicle_type_id":"4","last_reported":1742364864,"current_range_meters":11200,"station_id":"ce4bhu92rcd13ifvqi70","pricing_plan_id":"cebpf4jnsgd1na2vs0mg"},{"bike_id":"c86606fb-02b2-4f0b-bfbb-8669e1c8bf82","system_id":"levelo_inurba_marseille","lat":43.3117,"lon":5.38718,"is_reserved":false,"is_disabled":false,"rental_uris":{"android":"levelo://app?vid=c86606fb-02b2-4f0b-bfbb-8669e1c8bf82","ios":"levelo://app?vid=c86606fb-02b2-4f0b-bfbb-8669e1c8bf82"},"vehicle_type_id":"4","last_reported":1742364864,"current_range_meters":11200,"station_id":"ce4bgv12rcd13ifvqcp0","pricing_plan_id":"cebpf4jnsgd1na2vs0mg"},{"bike_id":"40519983-510e-4b9a-9562-e0995123f6e0","system_id":"levelo_inurba_marseille","lat":43.23185,"lon":5.35562,"is_reserved":false,"is_disabled":false,"rental_uris":{"android":"levelo://app?vid=40519983-510e-4b9a-9562-e0995123f6e0","ios":"levelo://app?vid=40519983-510e-4b9a-9562-e0995123f6e0"},"vehicle_type_id":"4","last_reported":1742364864,"current_range_meters":11200,"station_id":"ce4bhu92rcd13ifvqi70","pricing_plan_id":"cebpf4jnsgd1na2vs0mg"},{"bike_id":"d0b6bb68-002e-46bf-93dd-b7e833c43fb4","system_id":"levelo_inurba_marseille","lat":43.280994,"lon":5.378362,"is_reserved":false,"is_disabled":false,"rental_uris":{"android":"levelo://app?vid=d0b6bb68-002e-46bf-93dd-b7e833c43fb4","ios":"levelo://app?vid=d0b6bb68-002e-46bf-93dd-b7e833c43fb4"},"vehicle_type_id":"4","last_reported":1742364864,"current_range_meters":11200,"station_id":"ce4bha12rcd13ifvqee0","pricing_plan_id":"cebpf4jnsgd1na2vs0mg"},{"bike_id":"89a66d15-b2b9-456f-bf55-c28ef57a6652","system_id":"levelo_inurba_marseille","lat":43.290429,"lon":5.359036,"is_reserved":false,"is_disabled":false,"rental_uris":{"android":"levelo://app?vid=89a66d15-b2b9-456f-bf55-c28ef57a6652","ios":"levelo://app?vid=89a66d15-b2b9-456f-bf55-c28ef57a6652"},"vehicle_type_id":"4","last_reported":1742364864,"current_range_meters":11200,"station_id":"ce4bha92rcd13ifvqeg0","pricing_plan_id":"cebpf4jnsgd1na2vs0mg"},{"bike_id":"e60c1153-ceb4-4f72-92cd-2dc1051b5e4c","system_id":"levelo_inurba_marseille","lat":43.26066,"lon":5.39392,"is_reserved":false,"is_disabled":true,"rental_uris":{"android":"levelo://app?vid=e60c1153-ceb4-4f72-92cd-2dc1051b5e4c","ios":"levelo://app?vid=e60c1153-ceb4-4f72-92cd-2dc1051b5e4c"},"vehicle_type_id":"4","last_reported":1742364864,"current_range_meters":11600,"station_id":"ce4bhh92rcd13ifvqfj0","pricing_plan_id":"cebpf4jnsgd1na2vs0mg"},{"bike_id":"f4165607-80d2-4e6e-8b9c-c523c42872fb","system_id":"levelo_inurba_marseille","lat":43.248,"lon":5.37457,"is_reserved":false,"is_disabled":false,"rental_uris":{"android":"levelo://app?vid=f4165607-80d2-4e6e-8b9c-c523c42872fb","ios":"levelo://app?vid=f4165607-80d2-4e6e-8b9c-c523c42872fb"},"vehicle_type_id":"4","last_reported":1742364864,"current_range_meters":11600,"station_id":"ce4bhgh2rcd13ifvqfb0","pricing_plan_id":"cebpf4jnsgd1na2vs0mg"},{"bike_id":"116cee39-a217-4510-919a-c365ec655e68","system_id":"levelo_inurba_marseille","lat":43.27799,"lon":5.40732,"is_reserved":false,"is_disabled":false,"rental_uris":{"android":"levelo://app?vid=116cee39-a217-4510-919a-c365ec655e68","ios":"levelo://app?vid=116cee39-a217-4510-919a-c365ec655e68"},"vehicle_type_id":"4","last_reported":1742364864,"current_range_meters":11600,"station_id":"ce4bhnh2rcd13ifvqgtg","pricing_plan_id":"cebpf4jnsgd1na2vs0mg"},{"bike_id":"853e1884-4cb0-4144-8bc9-fdee30f7f87d","system_id":"levelo_inurba_marseille","lat":43.28024,"lon":5.36947,"is_reserved":false,"is_disabled":false,"rental_uris":{"android":"levelo://app?vid=853e1884-4cb0-4144-8bc9-fdee30f7f87d","ios":"levelo://app?vid=853e1884-4cb0-4144-8bc9-fdee30f7f87d"},"vehicle_type_id":"4","last_reported":1742364864,"current_range_meters":11600,"station_id":"ce4bha12rcd13ifvqef0","pricing_plan_id":"cebpf4jnsgd1na2vs0mg"},{"bike_id":"94344c0c-c86f-4e16-b61d-11aacc1b7580","system_id":"levelo_inurba_marseille","lat":43.287263,"lon":5.46593,"is_reserved":false,"is_disabled":false,"rental_uris":{"android":"levelo://app?vid=94344c0c-c86f-4e16-b61d-11aacc1b7580","ios":"levelo://app?vid=94344c0c-c86f-4e16-b61d-11aacc1b7580"},"vehicle_type_id":"4","last_reported":1742364864,"current_range_meters":11600,"station_id":"","pricing_plan_id":"cebpf4jnsgd1na2vs0mg"},{"bike_id":"26c3156d-8d38-4b11-92b6-f3f49ed4bf9b","system_id":"levelo_inurba_marseille","lat":43.279076,"lon":5.412123,"is_reserved":false,"is_disabled":false,"rental_uris":{"android":"levelo://app?vid=26c3156d-8d38-4b11-92b6-f3f49ed4bf9b","ios":"levelo://app?vid=26c3156d-8d38-4b11-92b6-f3f49ed4bf9b"},"vehicle_type_id":"4","last_reported":1742364864,"current_range_meters":11600,"station_id":"","pricing_plan_id":"cebpf4jnsgd1na2vs0mg"},{"bike_id":"3259b682-e4dc-4a27-895a-2ee089a67444","system_id":"levelo_inurba_marseille","lat":43.286129,"lon":5.412753,"is_reserved":false,"is_disabled":false,"rental_uris":{"android":"levelo://app?vid=3259b682-e4dc-4a27-895a-2ee089a67444","ios":"levelo://app?vid=3259b682-e4dc-4a27-895a-2ee089a67444"},"vehicle_type_id":"4","last_reported":1742364864,"current_range_meters":11600,"station_id":"","pricing_plan_id":"cebpf4jnsgd1na2vs0mg"},{"bike_id":"d92b2aca-e173-4b5d-8754-67afd6d56858","system_id":"levelo_inurba_marseille","lat":43.28459,"lon":5.3589,"is_reserved":false,"is_disabled":false,"rental_uris":{"android":"levelo://app?vid=d92b2aca-e173-4b5d-8754-67afd6d56858","ios":"levelo://app?vid=d92b2aca-e173-4b5d-8754-67afd6d56858"},"vehicle_type_id":"4","last_reported":1742364864,"current_range_meters":11600,"station_id":"ce4bhah2rcd13ifvqei0","pricing_plan_id":"cebpf4jnsgd1na2vs0mg"},{"bike_id":"14040204-5465-4db0-ab0e-41e91dfa7e0d","system_id":"levelo_inurba_marseille","lat":43.31406,"lon":5.374477,"is_reserved":false,"is_disabled":false,"rental_uris":{"android":"levelo://app?vid=14040204-5465-4db0-ab0e-41e91dfa7e0d","ios":"levelo://app?vid=14040204-5465-4db0-ab0e-41e91dfa7e0d"},"vehicle_type_id":"4","last_reported":1742364864,"current_range_meters":12000,"station_id":"","pricing_plan_id":"cebpf4jnsgd1na2vs0mg"},{"bike_id":"f7ec7579-ce4b-4e1f-8f96-ae037f27d71a","system_id":"levelo_inurba_marseille","lat":43.286206,"lon":5.351014,"is_reserved":false,"is_disabled":false,"rental_uris":{"android":"levelo://app?vid=f7ec7579-ce4b-4e1f-8f96-ae037f27d71a","ios":"levelo://app?vid=f7ec7579-ce4b-4e1f-8f96-ae037f27d71a"},"vehicle_type_id":"4","last_reported":1742364864,"current_range_meters":12000,"station_id":"ce4bhch2rcd13ifvqeug","pricing_plan_id":"cebpf4jnsgd1na2vs0mg"},{"bike_id":"7d68c8c3-56ef-4fff-baa3-7cd5e60180fe","system_id":"levelo_inurba_marseille","lat":43.24647,"lon":5.38905,"is_reserved":false,"is_disabled":false,"rental_uris":{"android":"levelo://app?vid=7d68c8c3-56ef-4fff-baa3-7cd5e60180fe","ios":"levelo://app?vid=7d68c8c3-56ef-4fff-baa3-7cd5e60180fe"},"vehicle_type_id":"4","last_reported":1742364864,"current_range_meters":12000,"station_id":"ce4bhg12rcd13ifvqf60","pricing_plan_id":"cebpf4jnsgd1na2vs0mg"},{"bike_id":"f1dcd5b6-294c-4f9f-a5dc-52ba2710eacb","system_id":"levelo_inurba_marseille","lat":43.23189,"lon":5.39982,"is_reserved":false,"is_disabled":false,"rental_uris":{"android":"levelo://app?vid=f1dcd5b6-294c-4f9f-a5dc-52ba2710eacb","ios":"levelo://app?vid=f1dcd5b6-294c-4f9f-a5dc-52ba2710eacb"},"vehicle_type_id":"4","last_reported":1742364864,"current_range_meters":12000,"station_id":"ce4bhn12rcd13ifvqgqg","pricing_plan_id":"cebpf4jnsgd1na2vs0mg"},{"bike_id":"a1b6a2d3-5e84-4afd-bf8d-fb4e0c1a5cd1","system_id":"levelo_inurba_marseille","lat":43.281,"lon":5.39658,"is_reserved":false,"is_disabled":false,"rental_uris":{"android":"levelo://app?vid=a1b6a2d3-5e84-4afd-bf8d-fb4e0c1a5cd1","ios":"levelo://app?vid=a1b6a2d3-5e84-4afd-bf8d-fb4e0c1a5cd1"},"vehicle_type_id":"4","last_reported":1742364864,"current_range_meters":12000,"station_id":"ce4bho12rcd13ifvqh2g","pricing_plan_id":"cebpf4jnsgd1na2vs0mg"},{"bike_id":"c03bf0bc-bd13-4839-83fb-cde67bd118c3","system_id":"levelo_inurba_marseille","lat":43.27489,"lon":5.42475,"is_reserved":false,"is_disabled":false,"rental_uris":{"android":"levelo://app?vid=c03bf0bc-bd13-4839-83fb-cde67bd118c3","ios":"levelo://app?vid=c03bf0bc-bd13-4839-83fb-cde67bd118c3"},"vehicle_type_id":"4","last_reported":1742364864,"current_range_meters":12000,"station_id":"ce4bhn92rcd13ifvqgrg","pricing_plan_id":"cebpf4jnsgd1na2vs0mg"},{"bike_id":"c956f6d8-2c15-448e-b773-af7fda1bb067","system_id":"levelo_inurba_marseille","lat":43.286109,"lon":5.370663,"is_reserved":false,"is_disabled":false,"rental_uris":{"android":"levelo://app?vid=c956f6d8-2c15-448e-b773-af7fda1bb067","ios":"levelo://app?vid=c956f6d8-2c15-448e-b773-af7fda1bb067"},"vehicle_type_id":"4","last_reported":1742364864,"current_range_meters":12000,"station_id":"ce4bht12rcd13ifvqi60","pricing_plan_id":"cebpf4jnsgd1na2vs0mg"},{"bike_id":"eb1bdab6-cce9-43ab-9ab1-efcd014e54ae","system_id":"levelo_inurba_marseille","lat":43.29033,"lon":5.35956,"is_reserved":false,"is_disabled":false,"rental_uris":{"android":"levelo://app?vid=eb1bdab6-cce9-43ab-9ab1-efcd014e54ae","ios":"levelo://app?vid=eb1bdab6-cce9-43ab-9ab1-efcd014e54ae"},"vehicle_type_id":"4","last_reported":1742364864,"current_range_meters":12000,"station_id":"ce4bha92rcd13ifvqeg0","pricing_plan_id":"cebpf4jnsgd1na2vs0mg"},{"bike_id":"4a529a04-a02c-489b-b187-392d4992e8e1","system_id":"levelo_inurba_marseille","lat":43.268043,"lon":5.402632,"is_reserved":false,"is_disabled":false,"rental_uris":{"android":"levelo://app?vid=4a529a04-a02c-489b-b187-392d4992e8e1","ios":"levelo://app?vid=4a529a04-a02c-489b-b187-392d4992e8e1"},"vehicle_type_id":"4","last_reported":1742364864,"current_range_meters":12000,"station_id":"ce501612rcd8frsf0b60","pricing_plan_id":"cebpf4jnsgd1na2vs0mg"},{"bike_id":"aadb2f8c-155c-4734-84dd-a0e3df2d0be8","system_id":"levelo_inurba_marseille","lat":43.30798,"lon":5.43528,"is_reserved":false,"is_disabled":false,"rental_uris":{"android":"levelo://app?vid=aadb2f8c-155c-4734-84dd-a0e3df2d0be8","ios":"levelo://app?vid=aadb2f8c-155c-4734-84dd-a0e3df2d0be8"},"vehicle_type_id":"4","last_reported":1742364864,"current_range_meters":12000,"station_id":"ce4bhph2rcd13ifvqheg","pricing_plan_id":"cebpf4jnsgd1na2vs0mg"},{"bike_id":"3a93b571-ed30-4cd4-aca9-8a8fdc87a1c6","system_id":"levelo_inurba_marseille","lat":43.2396,"lon":5.3665,"is_reserved":false,"is_disabled":false,"rental_uris":{"android":"levelo://app?vid=3a93b571-ed30-4cd4-aca9-8a8fdc87a1c6","ios":"levelo://app?vid=3a93b571-ed30-4cd4-aca9-8a8fdc87a1c6"},"vehicle_type_id":"4","last_reported":1742364864,"current_range_meters":12400,"station_id":"ce4bhi12rcd13ifvqfp0","pricing_plan_id":"cebpf4jnsgd1na2vs0mg"},{"bike_id":"75e8bee3-0a10-4522-9d7e-72ece2846129","system_id":"levelo_inurba_marseille","lat":43.330215,"lon":5.390398,"is_reserved":false,"is_disabled":false,"rental_uris":{"android":"levelo://app?vid=75e8bee3-0a10-4522-9d7e-72ece2846129","ios":"levelo://app?vid=75e8bee3-0a10-4522-9d7e-72ece2846129"},"vehicle_type_id":"4","last_reported":1742364864,"current_range_meters":12400,"station_id":"ce4bhr92rcd13ifvqhrg","pricing_plan_id":"cebpf4jnsgd1na2vs0mg"},{"bike_id":"a381e0d0-bcb7-45d3-b76d-d16a1ac24451","system_id":"levelo_inurba_marseille","lat":43.23946,"lon":5.36679,"is_reserved":false,"is_disabled":false,"rental_uris":{"android":"levelo://app?vid=a381e0d0-bcb7-45d3-b76d-d16a1ac24451","ios":"levelo://app?vid=a381e0d0-bcb7-45d3-b76d-d16a1ac24451"},"vehicle_type_id":"4","last_reported":1742364864,"current_range_meters":12400,"station_id":"ce4bhi12rcd13ifvqfp0","pricing_plan_id":"cebpf4jnsgd1na2vs0mg"},{"bike_id":"92d8111d-dc94-481c-a128-adb8a5cd5d90","system_id":"levelo_inurba_marseille","lat":43.26217,"lon":5.40476,"is_reserved":false,"is_disabled":false,"rental_uris":{"android":"levelo://app?vid=92d8111d-dc94-481c-a128-adb8a5cd5d90","ios":"levelo://app?vid=92d8111d-dc94-481c-a128-adb8a5cd5d90"},"vehicle_type_id":"4","last_reported":1742364864,"current_range_meters":12400,"station_id":"ce4bhmh2rcd13ifvqgmg","pricing_plan_id":"cebpf4jnsgd1na2vs0mg"},{"bike_id":"dd4f0db9-bca2-4a2e-9f5e-7dc7a58a0918","system_id":"levelo_inurba_marseille","lat":43.27846,"lon":5.39205,"is_reserved":false,"is_disabled":false,"rental_uris":{"android":"levelo://app?vid=dd4f0db9-bca2-4a2e-9f5e-7dc7a58a0918","ios":"levelo://app?vid=dd4f0db9-bca2-4a2e-9f5e-7dc7a58a0918"},"vehicle_type_id":"4","last_reported":1742364864,"current_range_meters":12400,"station_id":"ce4bhjp2rcd13ifvqga0","pricing_plan_id":"cebpf4jnsgd1na2vs0mg"},{"bike_id":"7f163f46-0b1a-48f7-a16d-cd7ab1e422bc","system_id":"levelo_inurba_marseille","lat":43.265724,"lon":5.372971,"is_reserved":false,"is_disabled":false,"rental_uris":{"android":"levelo://app?vid=7f163f46-0b1a-48f7-a16d-cd7ab1e422bc","ios":"levelo://app?vid=7f163f46-0b1a-48f7-a16d-cd7ab1e422bc"},"vehicle_type_id":"4","last_reported":1742364864,"current_range_meters":12800,"station_id":"ce4bhg12rcd13ifvqf70","pricing_plan_id":"cebpf4jnsgd1na2vs0mg"},{"bike_id":"e62c4628-e02c-4d18-93a4-2f038fe4001c","system_id":"levelo_inurba_marseille","lat":43.27477,"lon":5.42478,"is_reserved":false,"is_disabled":false,"rental_uris":{"android":"levelo://app?vid=e62c4628-e02c-4d18-93a4-2f038fe4001c","ios":"levelo://app?vid=e62c4628-e02c-4d18-93a4-2f038fe4001c"},"vehicle_type_id":"4","last_reported":1742364864,"current_range_meters":12800,"station_id":"ce4bhn92rcd13ifvqgrg","pricing_plan_id":"cebpf4jnsgd1na2vs0mg"},{"bike_id":"f8a76e32-3fd7-414e-8564-7e3717cd51c6","system_id":"levelo_inurba_marseille","lat":43.28108,"lon":5.378338,"is_reserved":false,"is_disabled":false,"rental_uris":{"android":"levelo://app?vid=f8a76e32-3fd7-414e-8564-7e3717cd51c6","ios":"levelo://app?vid=f8a76e32-3fd7-414e-8564-7e3717cd51c6"},"vehicle_type_id":"4","last_reported":1742364864,"current_range_meters":12800,"station_id":"ce4bha12rcd13ifvqee0","pricing_plan_id":"cebpf4jnsgd1na2vs0mg"},{"bike_id":"7c6336fb-eaee-4b0b-beeb-4dc3595851a6","system_id":"levelo_inurba_marseille","lat":43.29268,"lon":5.40167,"is_reserved":false,"is_disabled":false,"rental_uris":{"android":"levelo://app?vid=7c6336fb-eaee-4b0b-beeb-4dc3595851a6","ios":"levelo://app?vid=7c6336fb-eaee-4b0b-beeb-4dc3595851a6"},"vehicle_type_id":"4","last_reported":1742364864,"current_range_meters":12800,"station_id":"ce4bh312rcd13ifvqdk0","pricing_plan_id":"cebpf4jnsgd1na2vs0mg"},{"bike_id":"e4f05ff4-5880-482e-8a3a-f24bceb8d874","system_id":"levelo_inurba_marseille","lat":43.28399,"lon":5.37528,"is_reserved":false,"is_disabled":false,"rental_uris":{"android":"levelo://app?vid=e4f05ff4-5880-482e-8a3a-f24bceb8d874","ios":"levelo://app?vid=e4f05ff4-5880-482e-8a3a-f24bceb8d874"},"vehicle_type_id":"4","last_reported":1742364864,"current_range_meters":12800,"station_id":"ce4bh412rcd13ifvqds0","pricing_plan_id":"cebpf4jnsgd1na2vs0mg"},{"bike_id":"827ba91a-2c1b-4df0-8fbe-d0c133e6b435","system_id":"levelo_inurba_marseille","lat":43.29781,"lon":5.44755,"is_reserved":false,"is_disabled":false,"rental_uris":{"android":"levelo://app?vid=827ba91a-2c1b-4df0-8fbe-d0c133e6b435","ios":"levelo://app?vid=827ba91a-2c1b-4df0-8fbe-d0c133e6b435"},"vehicle_type_id":"4","last_reported":1742364864,"current_range_meters":12800,"station_id":"","pricing_plan_id":"cebpf4jnsgd1na2vs0mg"},{"bike_id":"d8f4191f-177a-4cfd-8733-1633113267d5","system_id":"levelo_inurba_marseille","lat":43.27812,"lon":5.39214,"is_reserved":false,"is_disabled":false,"rental_uris":{"android":"levelo://app?vid=d8f4191f-177a-4cfd-8733-1633113267d5","ios":"levelo://app?vid=d8f4191f-177a-4cfd-8733-1633113267d5"},"vehicle_type_id":"4","last_reported":1742364864,"current_range_meters":12800,"station_id":"ce4bhjp2rcd13ifvqga0","pricing_plan_id":"cebpf4jnsgd1na2vs0mg"},{"bike_id":"d90e3abc-164c-428e-845a-6e3ed94f24b5","system_id":"levelo_inurba_marseille","lat":43.265581,"lon":5.372947,"is_reserved":false,"is_disabled":false,"rental_uris":{"android":"levelo://app?vid=d90e3abc-164c-428e-845a-6e3ed94f24b5","ios":"levelo://app?vid=d90e3abc-164c-428e-845a-6e3ed94f24b5"},"vehicle_type_id":"4","last_reported":1742364864,"current_range_meters":12800,"station_id":"ce4bhg12rcd13ifvqf70","pricing_plan_id":"cebpf4jnsgd1na2vs0mg"},{"bike_id":"f97f3241-4274-4450-af5d-8c68f271d09d","system_id":"levelo_inurba_marseille","lat":43.29029,"lon":5.38653,"is_reserved":false,"is_disabled":true,"rental_uris":{"android":"levelo://app?vid=f97f3241-4274-4450-af5d-8c68f271d09d","ios":"levelo://app?vid=f97f3241-4274-4450-af5d-8c68f271d09d"},"vehicle_type_id":"4","last_reported":1742364864,"current_range_meters":12800,"station_id":"ce4bh4p2rcd13ifvqe0g","pricing_plan_id":"cebpf4jnsgd1na2vs0mg"},{"bike_id":"d7f2963b-8e65-4e56-856d-76ea32190275","system_id":"levelo_inurba_marseille","lat":43.284,"lon":5.37526,"is_reserved":false,"is_disabled":false,"rental_uris":{"android":"levelo://app?vid=d7f2963b-8e65-4e56-856d-76ea32190275","ios":"levelo://app?vid=d7f2963b-8e65-4e56-856d-76ea32190275"},"vehicle_type_id":"4","last_reported":1742364864,"current_range_meters":13600,"station_id":"ce4bh412rcd13ifvqds0","pricing_plan_id":"cebpf4jnsgd1na2vs0mg"},{"bike_id":"96e343bd-79d6-4e3f-b7dd-d78e5f35d6d8","system_id":"levelo_inurba_marseille","lat":43.28148,"lon":5.42662,"is_reserved":false,"is_disabled":false,"rental_uris":{"android":"levelo://app?vid=96e343bd-79d6-4e3f-b7dd-d78e5f35d6d8","ios":"levelo://app?vid=96e343bd-79d6-4e3f-b7dd-d78e5f35d6d8"},"vehicle_type_id":"4","last_reported":1742364864,"current_range_meters":13600,"station_id":"ce4bhnh2rcd13ifvqgug","pricing_plan_id":"cebpf4jnsgd1na2vs0mg"},{"bike_id":"5ba84a7a-2301-4588-acb7-3959e8f66676","system_id":"levelo_inurba_marseille","lat":43.29924,"lon":5.36547,"is_reserved":false,"is_disabled":false,"rental_uris":{"android":"levelo://app?vid=5ba84a7a-2301-4588-acb7-3959e8f66676","ios":"levelo://app?vid=5ba84a7a-2301-4588-acb7-3959e8f66676"},"vehicle_type_id":"4","last_reported":1742364864,"current_range_meters":14000,"station_id":"ce4bgm92rcd13ifvqbr0","pricing_plan_id":"cebpf4jnsgd1na2vs0mg"},{"bike_id":"058e51a4-3487-4245-ad8a-a3458153d2ed","system_id":"levelo_inurba_marseille","lat":43.30152,"lon":5.380846,"is_reserved":false,"is_disabled":false,"rental_uris":{"android":"levelo://app?vid=058e51a4-3487-4245-ad8a-a3458153d2ed","ios":"levelo://app?vid=058e51a4-3487-4245-ad8a-a3458153d2ed"},"vehicle_type_id":"4","last_reported":1742364864,"current_range_meters":14000,"station_id":"ce4bgjp2rcd13ifvqbh0","pricing_plan_id":"cebpf4jnsgd1na2vs0mg"},{"bike_id":"b0d2fd39-c5b7-4eb0-bbb9-af7d841ce0e3","system_id":"levelo_inurba_marseille","lat":43.241641,"lon":5.364079,"is_reserved":false,"is_disabled":true,"rental_uris":{"android":"levelo://app?vid=b0d2fd39-c5b7-4eb0-bbb9-af7d841ce0e3","ios":"levelo://app?vid=b0d2fd39-c5b7-4eb0-bbb9-af7d841ce0e3"},"vehicle_type_id":"4","last_reported":1742364864,"current_range_meters":14000,"station_id":"cpo36qri1sfpv3e86is0","pricing_plan_id":"cebpf4jnsgd1na2vs0mg"},{"bike_id":"202cf808-cc43-4e17-81cc-6677fd4bcb68","system_id":"levelo_inurba_marseille","lat":43.29785,"lon":5.39348,"is_reserved":false,"is_disabled":false,"rental_uris":{"android":"levelo://app?vid=202cf808-cc43-4e17-81cc-6677fd4bcb68","ios":"levelo://app?vid=202cf808-cc43-4e17-81cc-6677fd4bcb68"},"vehicle_type_id":"4","last_reported":1742364864,"current_range_meters":14000,"station_id":"chh1huq6cuj3fo74tm60","pricing_plan_id":"cebpf4jnsgd1na2vs0mg"},{"bike_id":"3caca121-c6ee-4ecb-b642-704be86e8f2d","system_id":"levelo_inurba_marseille","lat":43.231904,"lon":5.399775,"is_reserved":false,"is_disabled":false,"rental_uris":{"android":"levelo://app?vid=3caca121-c6ee-4ecb-b642-704be86e8f2d","ios":"levelo://app?vid=3caca121-c6ee-4ecb-b642-704be86e8f2d"},"vehicle_type_id":"4","last_reported":1742364864,"current_range_meters":14000,"station_id":"ce4bhn12rcd13ifvqgqg","pricing_plan_id":"cebpf4jnsgd1na2vs0mg"},{"bike_id":"9d26c008-8ec1-4269-9cd2-f45774f03ccb","system_id":"levelo_inurba_marseille","lat":43.27925,"lon":5.37945,"is_reserved":false,"is_disabled":false,"rental_uris":{"android":"levelo://app?vid=9d26c008-8ec1-4269-9cd2-f45774f03ccb","ios":"levelo://app?vid=9d26c008-8ec1-4269-9cd2-f45774f03ccb"},"vehicle_type_id":"4","last_reported":1742364864,"current_range_meters":14000,"station_id":"","pricing_plan_id":"cebpf4jnsgd1na2vs0mg"},{"bike_id":"2a8d133d-961d-4660-a78a-bb4a11ccea95","system_id":"levelo_inurba_marseille","lat":43.278086,"lon":5.407056,"is_reserved":false,"is_disabled":false,"rental_uris":{"android":"levelo://app?vid=2a8d133d-961d-4660-a78a-bb4a11ccea95","ios":"levelo://app?vid=2a8d133d-961d-4660-a78a-bb4a11ccea95"},"vehicle_type_id":"4","last_reported":1742364864,"current_range_meters":14000,"station_id":"ce4bhnh2rcd13ifvqgtg","pricing_plan_id":"cebpf4jnsgd1na2vs0mg"},{"bike_id":"176d2e0b-da43-4b98-b92e-b45d4ab12b2f","system_id":"levelo_inurba_marseille","lat":43.302131,"lon":5.384551,"is_reserved":false,"is_disabled":false,"rental_uris":{"android":"levelo://app?vid=176d2e0b-da43-4b98-b92e-b45d4ab12b2f","ios":"levelo://app?vid=176d2e0b-da43-4b98-b92e-b45d4ab12b2f"},"vehicle_type_id":"4","last_reported":1742364864,"current_range_meters":14000,"station_id":"","pricing_plan_id":"cebpf4jnsgd1na2vs0mg"},{"bike_id":"1b6c7be3-00d3-4063-b5d2-97e0e6cf22b8","system_id":"levelo_inurba_marseille","lat":43.29195,"lon":5.35825,"is_reserved":false,"is_disabled":false,"rental_uris":{"android":"levelo://app?vid=1b6c7be3-00d3-4063-b5d2-97e0e6cf22b8","ios":"levelo://app?vid=1b6c7be3-00d3-4063-b5d2-97e0e6cf22b8"},"vehicle_type_id":"4","last_reported":1742364864,"current_range_meters":14400,"station_id":"ce4bhb12rcd13ifvqel0","pricing_plan_id":"cebpf4jnsgd1na2vs0mg"},{"bike_id":"308d9482-2ea5-474f-a039-beb909d1aca5","system_id":"levelo_inurba_marseille","lat":43.279489,"lon":5.410529,"is_reserved":false,"is_disabled":true,"rental_uris":{"android":"levelo://app?vid=308d9482-2ea5-474f-a039-beb909d1aca5","ios":"levelo://app?vid=308d9482-2ea5-474f-a039-beb909d1aca5"},"vehicle_type_id":"4","last_reported":1742364864,"current_range_meters":14400,"station_id":"ce4bhnp2rcd13ifvqh0g","pricing_plan_id":"cebpf4jnsgd1na2vs0mg"},{"bike_id":"f5c3ae74-c1e7-4312-aaf8-ca982ce92b47","system_id":"levelo_inurba_marseille","lat":43.249985,"lon":5.389586,"is_reserved":false,"is_disabled":false,"rental_uris":{"android":"levelo://app?vid=f5c3ae74-c1e7-4312-aaf8-ca982ce92b47","ios":"levelo://app?vid=f5c3ae74-c1e7-4312-aaf8-ca982ce92b47"},"vehicle_type_id":"4","last_reported":1742364864,"current_range_meters":14400,"station_id":"ce4bhgp2rcd13ifvqfd0","pricing_plan_id":"cebpf4jnsgd1na2vs0mg"},{"bike_id":"02f43b01-3b74-45fa-a40e-2df823c84cda","system_id":"levelo_inurba_marseille","lat":43.24168,"lon":5.39722,"is_reserved":false,"is_disabled":false,"rental_uris":{"android":"levelo://app?vid=02f43b01-3b74-45fa-a40e-2df823c84cda","ios":"levelo://app?vid=02f43b01-3b74-45fa-a40e-2df823c84cda"},"vehicle_type_id":"4","last_reported":1742364864,"current_range_meters":14400,"station_id":"ce4bhn12rcd13ifvqgpg","pricing_plan_id":"cebpf4jnsgd1na2vs0mg"},{"bike_id":"a289cc38-5006-492c-8c94-ed76614a14d0","system_id":"levelo_inurba_marseille","lat":43.255804,"lon":5.38235,"is_reserved":false,"is_disabled":false,"rental_uris":{"android":"levelo://app?vid=a289cc38-5006-492c-8c94-ed76614a14d0","ios":"levelo://app?vid=a289cc38-5006-492c-8c94-ed76614a14d0"},"vehicle_type_id":"4","last_reported":1742364864,"current_range_meters":14400,"station_id":"ce4bhih2rcd13ifvqfs0","pricing_plan_id":"cebpf4jnsgd1na2vs0mg"},{"bike_id":"1192a421-e660-4a63-9f52-7a134e4214a8","system_id":"levelo_inurba_marseille","lat":43.30421,"lon":5.38897,"is_reserved":false,"is_disabled":false,"rental_uris":{"android":"levelo://app?vid=1192a421-e660-4a63-9f52-7a134e4214a8","ios":"levelo://app?vid=1192a421-e660-4a63-9f52-7a134e4214a8"},"vehicle_type_id":"4","last_reported":1742364864,"current_range_meters":14400,"station_id":"ce4bgk12rcd13ifvqbi0","pricing_plan_id":"cebpf4jnsgd1na2vs0mg"},{"bike_id":"0487a772-a454-40c0-9f20-9f9316872a61","system_id":"levelo_inurba_marseille","lat":43.295545,"lon":5.422769,"is_reserved":false,"is_disabled":false,"rental_uris":{"android":"levelo://app?vid=0487a772-a454-40c0-9f20-9f9316872a61","ios":"levelo://app?vid=0487a772-a454-40c0-9f20-9f9316872a61"},"vehicle_type_id":"4","last_reported":1742364864,"current_range_meters":14400,"station_id":"ce4bhph2rcd13ifvqhdg","pricing_plan_id":"cebpf4jnsgd1na2vs0mg"},{"bike_id":"84e141f2-a01b-47bf-b16e-31262f0bfcf2","system_id":"levelo_inurba_marseille","lat":43.24046,"lon":5.3779,"is_reserved":false,"is_disabled":false,"rental_uris":{"android":"levelo://app?vid=84e141f2-a01b-47bf-b16e-31262f0bfcf2","ios":"levelo://app?vid=84e141f2-a01b-47bf-b16e-31262f0bfcf2"},"vehicle_type_id":"4","last_reported":1742364864,"current_range_meters":14400,"station_id":"ce4bhnp2rcd13ifvqgvg","pricing_plan_id":"cebpf4jnsgd1na2vs0mg"},{"bike_id":"44647773-1fb5-4bbf-972a-f8fec5a4f217","system_id":"levelo_inurba_marseille","lat":43.30929,"lon":5.40154,"is_reserved":false,"is_disabled":false,"rental_uris":{"android":"levelo://app?vid=44647773-1fb5-4bbf-972a-f8fec5a4f217","ios":"levelo://app?vid=44647773-1fb5-4bbf-972a-f8fec5a4f217"},"vehicle_type_id":"4","last_reported":1742364864,"current_range_meters":14800,"station_id":"ce4bgvp2rcd13ifvqct0","pricing_plan_id":"cebpf4jnsgd1na2vs0mg"},{"bike_id":"d4971b8f-c87d-4ed6-9893-77b0613756cf","system_id":"levelo_inurba_marseille","lat":43.33014,"lon":5.3905,"is_reserved":false,"is_disabled":false,"rental_uris":{"android":"levelo://app?vid=d4971b8f-c87d-4ed6-9893-77b0613756cf","ios":"levelo://app?vid=d4971b8f-c87d-4ed6-9893-77b0613756cf"},"vehicle_type_id":"4","last_reported":1742364864,"current_range_meters":14800,"station_id":"ce4bhr92rcd13ifvqhrg","pricing_plan_id":"cebpf4jnsgd1na2vs0mg"},{"bike_id":"0c6718a3-ec5e-4e1d-b75c-00e5092427bd","system_id":"levelo_inurba_marseille","lat":43.30869,"lon":5.3965,"is_reserved":false,"is_disabled":false,"rental_uris":{"android":"levelo://app?vid=0c6718a3-ec5e-4e1d-b75c-00e5092427bd","ios":"levelo://app?vid=0c6718a3-ec5e-4e1d-b75c-00e5092427bd"},"vehicle_type_id":"4","last_reported":1742364864,"current_range_meters":14800,"station_id":"ce4bh012rcd13ifvqcv0","pricing_plan_id":"cebpf4jnsgd1na2vs0mg"},{"bike_id":"249e687c-6192-4e65-ad46-42f35855b43d","system_id":"levelo_inurba_marseille","lat":43.30129,"lon":5.381,"is_reserved":false,"is_disabled":false,"rental_uris":{"android":"levelo://app?vid=249e687c-6192-4e65-ad46-42f35855b43d","ios":"levelo://app?vid=249e687c-6192-4e65-ad46-42f35855b43d"},"vehicle_type_id":"4","last_reported":1742364864,"current_range_meters":15200,"station_id":"ce4bgjp2rcd13ifvqbh0","pricing_plan_id":"cebpf4jnsgd1na2vs0mg"},{"bike_id":"210b2a72-8464-41b3-9593-32f24d2b77ec","system_id":"levelo_inurba_marseille","lat":43.27813,"lon":5.4073,"is_reserved":false,"is_disabled":false,"rental_uris":{"android":"levelo://app?vid=210b2a72-8464-41b3-9593-32f24d2b77ec","ios":"levelo://app?vid=210b2a72-8464-41b3-9593-32f24d2b77ec"},"vehicle_type_id":"4","last_reported":1742364864,"current_range_meters":15200,"station_id":"ce4bhnh2rcd13ifvqgtg","pricing_plan_id":"cebpf4jnsgd1na2vs0mg"},{"bike_id":"5e313b50-eae1-49d2-bae5-80eb0b7a8549","system_id":"levelo_inurba_marseille","lat":43.3078,"lon":5.37668,"is_reserved":false,"is_disabled":false,"rental_uris":{"android":"levelo://app?vid=5e313b50-eae1-49d2-bae5-80eb0b7a8549","ios":"levelo://app?vid=5e313b50-eae1-49d2-bae5-80eb0b7a8549"},"vehicle_type_id":"4","last_reported":1742364864,"current_range_meters":15200,"station_id":"ce4bgv92rcd13ifvqcq0","pricing_plan_id":"cebpf4jnsgd1na2vs0mg"},{"bike_id":"1c6e69be-b184-4136-ac73-5fb94dae4903","system_id":"levelo_inurba_marseille","lat":43.32364,"lon":5.38892,"is_reserved":false,"is_disabled":false,"rental_uris":{"android":"levelo://app?vid=1c6e69be-b184-4136-ac73-5fb94dae4903","ios":"levelo://app?vid=1c6e69be-b184-4136-ac73-5fb94dae4903"},"vehicle_type_id":"4","last_reported":1742364864,"current_range_meters":15200,"station_id":"ce4bhqp2rcd13ifvqhog","pricing_plan_id":"cebpf4jnsgd1na2vs0mg"},{"bike_id":"114dc30c-343b-4079-bb31-6ac2fa3792b4","system_id":"levelo_inurba_marseille","lat":43.279756,"lon":5.387389,"is_reserved":false,"is_disabled":false,"rental_uris":{"android":"levelo://app?vid=114dc30c-343b-4079-bb31-6ac2fa3792b4","ios":"levelo://app?vid=114dc30c-343b-4079-bb31-6ac2fa3792b4"},"vehicle_type_id":"4","last_reported":1742364864,"current_range_meters":15200,"station_id":"ce4bhg12rcd13ifvqf80","pricing_plan_id":"cebpf4jnsgd1na2vs0mg"},{"bike_id":"fd78d565-e8af-4c6e-94e3-d92db15cedac","system_id":"levelo_inurba_marseille","lat":43.231615,"lon":5.437045,"is_reserved":false,"is_disabled":true,"rental_uris":{"android":"levelo://app?vid=fd78d565-e8af-4c6e-94e3-d92db15cedac","ios":"levelo://app?vid=fd78d565-e8af-4c6e-94e3-d92db15cedac"},"vehicle_type_id":"4","last_reported":1742364864,"current_range_meters":15200,"station_id":"ce4bhmp2rcd13ifvqgog","pricing_plan_id":"cebpf4jnsgd1na2vs0mg"},{"bike_id":"6e1b7554-d276-4569-91aa-b2407ae6e11d","system_id":"levelo_inurba_marseille","lat":43.231831,"lon":5.399765,"is_reserved":false,"is_disabled":false,"rental_uris":{"android":"levelo://app?vid=6e1b7554-d276-4569-91aa-b2407ae6e11d","ios":"levelo://app?vid=6e1b7554-d276-4569-91aa-b2407ae6e11d"},"vehicle_type_id":"4","last_reported":1742364864,"current_range_meters":15200,"station_id":"ce4bhn12rcd13ifvqgqg","pricing_plan_id":"cebpf4jnsgd1na2vs0mg"},{"bike_id":"671210b1-9e8f-4893-953f-985ab8b97e34","system_id":"levelo_inurba_marseille","lat":43.321075,"lon":5.367633,"is_reserved":false,"is_disabled":false,"rental_uris":{"android":"levelo://app?vid=671210b1-9e8f-4893-953f-985ab8b97e34","ios":"levelo://app?vid=671210b1-9e8f-4893-953f-985ab8b97e34"},"vehicle_type_id":"4","last_reported":1742364864,"current_range_meters":15200,"station_id":"ce4bhrh2rcd13ifvqhug","pricing_plan_id":"cebpf4jnsgd1na2vs0mg"},{"bike_id":"2650d950-4165-4c8b-babf-1d33a8c83ecd","system_id":"levelo_inurba_marseille","lat":43.3046,"lon":5.3791,"is_reserved":false,"is_disabled":false,"rental_uris":{"android":"levelo://app?vid=2650d950-4165-4c8b-babf-1d33a8c83ecd","ios":"levelo://app?vid=2650d950-4165-4c8b-babf-1d33a8c83ecd"},"vehicle_type_id":"4","last_reported":1742364864,"current_range_meters":15200,"station_id":"ce4bgup2rcd13ifvqcn0","pricing_plan_id":"cebpf4jnsgd1na2vs0mg"},{"bike_id":"7c23dcb0-31a4-457d-8cd5-05a913c017d4","system_id":"levelo_inurba_marseille","lat":43.33038,"lon":5.39027,"is_reserved":false,"is_disabled":false,"rental_uris":{"android":"levelo://app?vid=7c23dcb0-31a4-457d-8cd5-05a913c017d4","ios":"levelo://app?vid=7c23dcb0-31a4-457d-8cd5-05a913c017d4"},"vehicle_type_id":"4","last_reported":1742364864,"current_range_meters":15200,"station_id":"ce4bhr92rcd13ifvqhrg","pricing_plan_id":"cebpf4jnsgd1na2vs0mg"},{"bike_id":"966661e4-f035-4c21-a905-9390b541c83c","system_id":"levelo_inurba_marseille","lat":43.29221,"lon":5.36082,"is_reserved":false,"is_disabled":false,"rental_uris":{"android":"levelo://app?vid=966661e4-f035-4c21-a905-9390b541c83c","ios":"levelo://app?vid=966661e4-f035-4c21-a905-9390b541c83c"},"vehicle_type_id":"4","last_reported":1742364864,"current_range_meters":15200,"station_id":"ce4bhbh2rcd13ifvqeqg","pricing_plan_id":"cebpf4jnsgd1na2vs0mg"},{"bike_id":"9a407e55-d314-42fc-8c32-c5b5dcba6239","system_id":"levelo_inurba_marseille","lat":43.26201,"lon":5.40497,"is_reserved":false,"is_disabled":false,"rental_uris":{"android":"levelo://app?vid=9a407e55-d314-42fc-8c32-c5b5dcba6239","ios":"levelo://app?vid=9a407e55-d314-42fc-8c32-c5b5dcba6239"},"vehicle_type_id":"4","last_reported":1742364864,"current_range_meters":16000,"station_id":"ce4bhmh2rcd13ifvqgmg","pricing_plan_id":"cebpf4jnsgd1na2vs0mg"},{"bike_id":"34ecf0ad-ac90-4dea-bab0-e98bbc404557","system_id":"levelo_inurba_marseille","lat":43.30471,"lon":5.37911,"is_reserved":false,"is_disabled":false,"rental_uris":{"android":"levelo://app?vid=34ecf0ad-ac90-4dea-bab0-e98bbc404557","ios":"levelo://app?vid=34ecf0ad-ac90-4dea-bab0-e98bbc404557"},"vehicle_type_id":"4","last_reported":1742364864,"current_range_meters":15200,"station_id":"ce4bgup2rcd13ifvqcn0","pricing_plan_id":"cebpf4jnsgd1na2vs0mg"},{"bike_id":"cf824abf-b0e9-4815-97e1-521f1c7dc06c","system_id":"levelo_inurba_marseille","lat":43.305971,"lon":5.393584,"is_reserved":false,"is_disabled":false,"rental_uris":{"android":"levelo://app?vid=cf824abf-b0e9-4815-97e1-521f1c7dc06c","ios":"levelo://app?vid=cf824abf-b0e9-4815-97e1-521f1c7dc06c"},"vehicle_type_id":"4","last_reported":1742364864,"current_range_meters":16000,"station_id":"ce4bh0p2rcd13ifvqd80","pricing_plan_id":"cebpf4jnsgd1na2vs0mg"},{"bike_id":"2e774ebd-775d-4206-8390-ff296d2f3d19","system_id":"levelo_inurba_marseille","lat":43.30649,"lon":5.40094,"is_reserved":false,"is_disabled":false,"rental_uris":{"android":"levelo://app?vid=2e774ebd-775d-4206-8390-ff296d2f3d19","ios":"levelo://app?vid=2e774ebd-775d-4206-8390-ff296d2f3d19"},"vehicle_type_id":"4","last_reported":1742364864,"current_range_meters":16000,"station_id":"ce4bh112rcd13ifvqda0","pricing_plan_id":"cebpf4jnsgd1na2vs0mg"},{"bike_id":"36171524-784d-4f5a-84fe-e4628286a384","system_id":"levelo_inurba_marseille","lat":43.295182,"lon":5.379365,"is_reserved":false,"is_disabled":false,"rental_uris":{"android":"levelo://app?vid=36171524-784d-4f5a-84fe-e4628286a384","ios":"levelo://app?vid=36171524-784d-4f5a-84fe-e4628286a384"},"vehicle_type_id":"4","last_reported":1742364864,"current_range_meters":16000,"station_id":"","pricing_plan_id":"cebpf4jnsgd1na2vs0mg"},{"bike_id":"0af285be-0294-4c23-9728-cedd0c1ca6b2","system_id":"levelo_inurba_marseille","lat":43.231912,"lon":5.399933,"is_reserved":false,"is_disabled":false,"rental_uris":{"android":"levelo://app?vid=0af285be-0294-4c23-9728-cedd0c1ca6b2","ios":"levelo://app?vid=0af285be-0294-4c23-9728-cedd0c1ca6b2"},"vehicle_type_id":"4","last_reported":1742364864,"current_range_meters":16000,"station_id":"ce4bhn12rcd13ifvqgqg","pricing_plan_id":"cebpf4jnsgd1na2vs0mg"},{"bike_id":"471b8c1a-1a85-4080-b533-fb41f3dbfd81","system_id":"levelo_inurba_marseille","lat":43.23188,"lon":5.35583,"is_reserved":false,"is_disabled":false,"rental_uris":{"android":"levelo://app?vid=471b8c1a-1a85-4080-b533-fb41f3dbfd81","ios":"levelo://app?vid=471b8c1a-1a85-4080-b533-fb41f3dbfd81"},"vehicle_type_id":"4","last_reported":1742364864,"current_range_meters":16000,"station_id":"ce4bhu92rcd13ifvqi70","pricing_plan_id":"cebpf4jnsgd1na2vs0mg"},{"bike_id":"bc2d8957-097e-4969-a693-6681d6a8a608","system_id":"levelo_inurba_marseille","lat":43.25497,"lon":5.37665,"is_reserved":false,"is_disabled":false,"rental_uris":{"android":"levelo://app?vid=bc2d8957-097e-4969-a693-6681d6a8a608","ios":"levelo://app?vid=bc2d8957-097e-4969-a693-6681d6a8a608"},"vehicle_type_id":"4","last_reported":1742364864,"current_range_meters":16000,"station_id":"ce4bhh12rcd13ifvqff0","pricing_plan_id":"cebpf4jnsgd1na2vs0mg"},{"bike_id":"02f01ed3-9654-4a2f-b8ba-dc3cd63d5191","system_id":"levelo_inurba_marseille","lat":43.28479,"lon":5.35878,"is_reserved":false,"is_disabled":false,"rental_uris":{"android":"levelo://app?vid=02f01ed3-9654-4a2f-b8ba-dc3cd63d5191","ios":"levelo://app?vid=02f01ed3-9654-4a2f-b8ba-dc3cd63d5191"},"vehicle_type_id":"4","last_reported":1742364864,"current_range_meters":16000,"station_id":"ce4bhah2rcd13ifvqei0","pricing_plan_id":"cebpf4jnsgd1na2vs0mg"},{"bike_id":"0be6911e-c35d-4809-a4e3-5c6b5935a7b6","system_id":"levelo_inurba_marseille","lat":43.28369,"lon":5.38866,"is_reserved":false,"is_disabled":false,"rental_uris":{"android":"levelo://app?vid=0be6911e-c35d-4809-a4e3-5c6b5935a7b6","ios":"levelo://app?vid=0be6911e-c35d-4809-a4e3-5c6b5935a7b6"},"vehicle_type_id":"4","last_reported":1742364864,"current_range_meters":16000,"station_id":"","pricing_plan_id":"cebpf4jnsgd1na2vs0mg"},{"bike_id":"226af16b-419c-4c64-845f-4b14881f6daf","system_id":"levelo_inurba_marseille","lat":43.29798,"lon":5.40418,"is_reserved":false,"is_disabled":false,"rental_uris":{"android":"levelo://app?vid=226af16b-419c-4c64-845f-4b14881f6daf","ios":"levelo://app?vid=226af16b-419c-4c64-845f-4b14881f6daf"},"vehicle_type_id":"4","last_reported":1742364864,"current_range_meters":16000,"station_id":"ce4bh112rcd13ifvqd90","pricing_plan_id":"cebpf4jnsgd1na2vs0mg"},{"bike_id":"d7645557-54c5-44ed-8c44-41e433a350da","system_id":"levelo_inurba_marseille","lat":43.29473,"lon":5.35569,"is_reserved":false,"is_disabled":false,"rental_uris":{"android":"levelo://app?vid=d7645557-54c5-44ed-8c44-41e433a350da","ios":"levelo://app?vid=d7645557-54c5-44ed-8c44-41e433a350da"},"vehicle_type_id":"4","last_reported":1742364864,"current_range_meters":16000,"station_id":"","pricing_plan_id":"cebpf4jnsgd1na2vs0mg"},{"bike_id":"c6ab5d6e-9eb7-4ccf-a464-d5aa00b69f3b","system_id":"levelo_inurba_marseille","lat":43.23206,"lon":5.35562,"is_reserved":false,"is_disabled":false,"rental_uris":{"android":"levelo://app?vid=c6ab5d6e-9eb7-4ccf-a464-d5aa00b69f3b","ios":"levelo://app?vid=c6ab5d6e-9eb7-4ccf-a464-d5aa00b69f3b"},"vehicle_type_id":"4","last_reported":1742364864,"current_range_meters":16400,"station_id":"ce4bhu92rcd13ifvqi70","pricing_plan_id":"cebpf4jnsgd1na2vs0mg"},{"bike_id":"fcc0e8da-28f5-4c05-838f-9c24a67b7e54","system_id":"levelo_inurba_marseille","lat":43.23189,"lon":5.35564,"is_reserved":false,"is_disabled":false,"rental_uris":{"android":"levelo://app?vid=fcc0e8da-28f5-4c05-838f-9c24a67b7e54","ios":"levelo://app?vid=fcc0e8da-28f5-4c05-838f-9c24a67b7e54"},"vehicle_type_id":"4","last_reported":1742364864,"current_range_meters":16400,"station_id":"ce4bhu92rcd13ifvqi70","pricing_plan_id":"cebpf4jnsgd1na2vs0mg"},{"bike_id":"c6d118c4-bf73-4783-bfe5-4045d27823ce","system_id":"levelo_inurba_marseille","lat":43.28101,"lon":5.39885,"is_reserved":false,"is_disabled":false,"rental_uris":{"android":"levelo://app?vid=c6d118c4-bf73-4783-bfe5-4045d27823ce","ios":"levelo://app?vid=c6d118c4-bf73-4783-bfe5-4045d27823ce"},"vehicle_type_id":"4","last_reported":1742364864,"current_range_meters":16400,"station_id":"","pricing_plan_id":"cebpf4jnsgd1na2vs0mg"},{"bike_id":"84296d1d-9f66-43a6-8e59-69d6233a4cd0","system_id":"levelo_inurba_marseille","lat":43.278145,"lon":5.407116,"is_reserved":false,"is_disabled":false,"rental_uris":{"android":"levelo://app?vid=84296d1d-9f66-43a6-8e59-69d6233a4cd0","ios":"levelo://app?vid=84296d1d-9f66-43a6-8e59-69d6233a4cd0"},"vehicle_type_id":"4","last_reported":1742364864,"current_range_meters":16400,"station_id":"ce4bhnh2rcd13ifvqgtg","pricing_plan_id":"cebpf4jnsgd1na2vs0mg"},{"bike_id":"3b8a2f5e-015c-4b83-b0c5-7ef4858d1c4f","system_id":"levelo_inurba_marseille","lat":43.31151,"lon":5.38749,"is_reserved":false,"is_disabled":false,"rental_uris":{"android":"levelo://app?vid=3b8a2f5e-015c-4b83-b0c5-7ef4858d1c4f","ios":"levelo://app?vid=3b8a2f5e-015c-4b83-b0c5-7ef4858d1c4f"},"vehicle_type_id":"4","last_reported":1742364864,"current_range_meters":16400,"station_id":"ce4bgv12rcd13ifvqcp0","pricing_plan_id":"cebpf4jnsgd1na2vs0mg"},{"bike_id":"81a8d26a-ebff-4c66-8e78-26704417ee06","system_id":"levelo_inurba_marseille","lat":43.31755,"lon":5.39032,"is_reserved":false,"is_disabled":false,"rental_uris":{"android":"levelo://app?vid=81a8d26a-ebff-4c66-8e78-26704417ee06","ios":"levelo://app?vid=81a8d26a-ebff-4c66-8e78-26704417ee06"},"vehicle_type_id":"4","last_reported":1742364864,"current_range_meters":16400,"station_id":"ce4bhqp2rcd13ifvqhng","pricing_plan_id":"cebpf4jnsgd1na2vs0mg"},{"bike_id":"d53d27e4-d0cd-4fe8-8160-ee99471749e4","system_id":"levelo_inurba_marseille","lat":43.28345,"lon":5.38118,"is_reserved":false,"is_disabled":false,"rental_uris":{"android":"levelo://app?vid=d53d27e4-d0cd-4fe8-8160-ee99471749e4","ios":"levelo://app?vid=d53d27e4-d0cd-4fe8-8160-ee99471749e4"},"vehicle_type_id":"4","last_reported":1742364864,"current_range_meters":16400,"station_id":"ce4bh412rcd13ifvqdr0","pricing_plan_id":"cebpf4jnsgd1na2vs0mg"},{"bike_id":"25bdbc60-8915-47b8-ac49-d16a38add8f4","system_id":"levelo_inurba_marseille","lat":43.2319,"lon":5.4,"is_reserved":false,"is_disabled":false,"rental_uris":{"android":"levelo://app?vid=25bdbc60-8915-47b8-ac49-d16a38add8f4","ios":"levelo://app?vid=25bdbc60-8915-47b8-ac49-d16a38add8f4"},"vehicle_type_id":"4","last_reported":1742364864,"current_range_meters":16400,"station_id":"ce4bhn12rcd13ifvqgqg","pricing_plan_id":"cebpf4jnsgd1na2vs0mg"},{"bike_id":"fa49c5c9-8253-4923-8e27-44fac7ab1469","system_id":"levelo_inurba_marseille","lat":43.290243,"lon":5.386431,"is_reserved":false,"is_disabled":true,"rental_uris":{"android":"levelo://app?vid=fa49c5c9-8253-4923-8e27-44fac7ab1469","ios":"levelo://app?vid=fa49c5c9-8253-4923-8e27-44fac7ab1469"},