{"last_updated":1685898296,"ttl":30,"version":"2.2","data":{"bikes":[{"bike_id":"0bb9c4fd-21c4-4b6e-a105-923994551e98","system_id":"levelo_inurba_marseille","lat":43.312239,"lon":5.368562,"is_reserved":false,"is_disabled":false,"rental_uris":{"android":"levelo://app?vid=0bb9c4fd-21c4-4b6e-a105-923994551e98","ios":"levelo://app?vid=0bb9c4fd-21c4-4b6e-a105-923994551e98"},"vehicle_type_id":"4","last_reported":1685898296,"current_range_meters":24800,"station_id":"ce4bgl92rcd13ifvqbq0","pricing_plan_id":"free"},{"bike_id":"4d43e892-ec90-4fce-8475-f727fed3851f","system_id":"levelo_inurba_marseille","lat":43.31791,"lon":5.36831,"is_reserved":false,"is_disabled":false,"rental_uris":{"android":"levelo://app?vid=4d43e892-ec90-4fce-8475-f727fed3851f","ios":"levelo://app?vid=4d43e892-ec90-4fce-8475-f727fed3851f"},"vehicle_type_id":"4","last_reported":1685898296,"current_range_meters":400,"station_id":"","pricing_plan_id":"free"},{"bike_id":"048be98a-d3e1-4397-bf58-9e37d125046f","system_id":"levelo_inurba_marseille","lat":43.31809,"lon":5.36933,"is_reserved":false,"is_disabled":false,"rental_uris":{"android":"levelo://app?vid=048be98a-d3e1-4397-bf58-9e37d125046f","ios":"levelo://app?vid=048be98a-d3e1-4397-bf58-9e37d125046f"},"vehicle_type_id":"4","last_reported":1685898296,"current_range_meters":10400,"station_id":"","pricing_plan_id":"free"},{"bike_id":"a2bcefb7-d80b-474e-a9b3-abecb50796eb","system_id":"levelo_inurba_marseille","lat":43.30886,"lon":5.37412,"is_reserved":false,"is_disabled":false,"rental_uris":{"android":"levelo://app?vid=a2bcefb7-d80b-474e-a9b3-abecb50796eb","ios":"levelo://app?vid=a2bcefb7-d80b-474e-a9b3-abecb50796eb"},"vehicle_type_id":"4","last_reported":1685898296,"current_range_meters":29200,"station_id":"","pricing_plan_id":"free"},{"bike_id":"f51b3cb8-f96d-4658-a3b4-0d41559754f9","system_id":"levelo_inurba_marseille","lat":43.30853,"lon":5.37411,"is_reserved":false,"is_disabled":false,"rental_uris":{"android":"levelo://app?vid=f51b3cb8-f96d-4658-a3b4-0d41559754f9","ios":"levelo://app?vid=f51b3cb8-f96d-4658-a3b4-0d41559754f9"},"vehicle_type_id":"4","last_reported":1685898296,"current_range_meters":28000,"station_id":"","pricing_plan_id":"free"},{"bike_id":"1ebd0928-1fba-4e6c-b794-31a38f27c067","system_id":"levelo_inurba_marseille","lat":43.30819,"lon":5.37397,"is_reserved":false,"is_disabled":false,"rental_uris":{"android":"levelo://app?vid=1ebd0928-1fba-4e6c-b794-31a38f27c067","ios":"levelo://app?vid=1ebd0928-1fba-4e6c-b794-31a38f27c067"},"vehicle_type_id":"4","last_reported":1685898296,"current_range_meters":23600,"station_id":"","pricing_plan_id":"free"},{"bike_id":"b44ea8a6-f06c-47db-a6e7-36da0acc0f13","system_id":"levelo_inurba_marseille","lat":43.30537,"lon":5.367345,"is_reserved":false,"is_disabled":false,"rental_uris":{"android":"levelo://app?vid=b44ea8a6-f06c-47db-a6e7-36da0acc0f13","ios":"levelo://app?vid=b44ea8a6-f06c-47db-a6e7-36da0acc0f13"},"vehicle_type_id":"4","last_reported":1685898296,"current_range_meters":14000,"station_id":"ce4bgrp2rcd13ifvqc9g","pricing_plan_id":"free"},{"bike_id":"f3dec772-49cc-429b-acc9-dde911423fed","system_id":"levelo_inurba_marseille","lat":43.30537,"lon":5.367345,"is_reserved":false,"is_disabled":false,"rental_uris":{"android":"levelo://app?vid=f3dec772-49cc-429b-acc9-dde911423fed","ios":"levelo://app?vid=f3dec772-49cc-429b-acc9-dde911423fed"},"vehicle_type_id":"4","last_reported":1685898296,"current_range_meters":7600,"station_id":"ce4bgrp2rcd13ifvqc9g","pricing_plan_id":"free"},{"bike_id":"9b5d6a66-f06b-4c93-befb-1a2161dfb7a6","system_id":"levelo_inurba_marseille","lat":43.311175,"lon":5.377713,"is_reserved":false,"is_disabled":false,"rental_uris":{"android":"levelo://app?vid=9b5d6a66-f06b-4c93-befb-1a2161dfb7a6","ios":"levelo://app?vid=9b5d6a66-f06b-4c93-befb-1a2161dfb7a6"},"vehicle_type_id":"4","last_reported":1685898296,"current_range_meters":16800,"station_id":"","pricing_plan_id":"free"},{"bike_id":"e91e9d3d-4be1-4088-9b07-7d3f10b598d6","system_id":"levelo_inurba_marseille","lat":43.3112,"lon":5.37833,"is_reserved":false,"is_disabled":false,"rental_uris":{"android":"levelo://app?vid=e91e9d3d-4be1-4088-9b07-7d3f10b598d6","ios":"levelo://app?vid=e91e9d3d-4be1-4088-9b07-7d3f10b598d6"},"vehicle_type_id":"4","last_reported":1685898296,"current_range_meters":7200,"station_id":"","pricing_plan_id":"free"},{"bike_id":"571e3afa-55ba-4f67-87ce-85de1704e419","system_id":"levelo_inurba_marseille","lat":43.317075,"lon":5.377367,"is_reserved":false,"is_disabled":false,"rental_uris":{"android":"levelo://app?vid=571e3afa-55ba-4f67-87ce-85de1704e419","ios":"levelo://app?vid=571e3afa-55ba-4f67-87ce-85de1704e419"},"vehicle_type_id":"4","last_reported":1685898296,"current_range_meters":27200,"station_id":"ce4bgth2rcd13ifvqch0","pricing_plan_id":"free"},{"bike_id":"37d24745-bdea-449d-a32b-0cb5fbd20563","system_id":"levelo_inurba_marseille","lat":43.303046,"lon":5.368981,"is_reserved":false,"is_disabled":false,"rental_uris":{"android":"levelo://app?vid=37d24745-bdea-449d-a32b-0cb5fbd20563","ios":"levelo://app?vid=37d24745-bdea-449d-a32b-0cb5fbd20563"},"vehicle_type_id":"4","last_reported":1685898296,"current_range_meters":9200,"station_id":"ce4bgqh2rcd13ifvqc5g","pricing_plan_id":"free"},{"bike_id":"c280ad7b-c290-4548-bfbd-9eddf498f966","system_id":"levelo_inurba_marseille","lat":43.3244,"lon":5.36971,"is_reserved":false,"is_disabled":false,"rental_uris":{"android":"levelo://app?vid=c280ad7b-c290-4548-bfbd-9eddf498f966","ios":"levelo://app?vid=c280ad7b-c290-4548-bfbd-9eddf498f966"},"vehicle_type_id":"4","last_reported":1685898296,"current_range_meters":12400,"station_id":"","pricing_plan_id":"free"},{"bike_id":"994fd81e-6db6-4408-acc8-bec511d624f9","system_id":"levelo_inurba_marseille","lat":43.319935,"lon":5.381699,"is_reserved":false,"is_disabled":false,"rental_uris":{"android":"levelo://app?vid=994fd81e-6db6-4408-acc8-bec511d624f9","ios":"levelo://app?vid=994fd81e-6db6-4408-acc8-bec511d624f9"},"vehicle_type_id":"4","last_reported":1685898296,"current_range_meters":16000,"station_id":"ce4bhr12rcd13ifvqhpg","pricing_plan_id":"free"},{"bike_id":"1f1dc83b-8ccb-4689-a2db-9ce7e1fda49c","system_id":"levelo_inurba_marseille","lat":43.319935,"lon":5.381699,"is_reserved":false,"is_disabled":false,"rental_uris":{"android":"levelo://app?vid=1f1dc83b-8ccb-4689-a2db-9ce7e1fda49c","ios":"levelo://app?vid=1f1dc83b-8ccb-4689-a2db-9ce7e1fda49c"},"vehicle_type_id":"4","last_reported":1685898296,"current_range_meters":2800,"station_id":"ce4bhr12rcd13ifvqhpg","pricing_plan_id":"free"},{"bike_id":"35369de5-2325-46f5-91e2-654f2d5c1102","system_id":"levelo_inurba_marseille","lat":43.319935,"lon":5.381699,"is_reserved":false,"is_disabled":false,"rental_uris":{"android":"levelo://app?vid=35369de5-2325-46f5-91e2-654f2d5c1102","ios":"levelo://app?vid=35369de5-2325-46f5-91e2-654f2d5c1102"},"vehicle_type_id":"4","last_reported":1685898296,"current_range_meters":16400,"station_id":"ce4bhr12rcd13ifvqhpg","pricing_plan_id":"free"},{"bike_id":"551645a8-cb8f-4080-9786-5664c0090b20","system_id":"levelo_inurba_marseille","lat":43.31361,"lon":5.38498,"is_reserved":false,"is_disabled":false,"rental_uris":{"android":"levelo://app?vid=551645a8-cb8f-4080-9786-5664c0090b20","ios":"levelo://app?vid=551645a8-cb8f-4080-9786-5664c0090b20"},"vehicle_type_id":"4","last_reported":1685898296,"current_range_meters":0,"station_id":"ce4bgt92rcd13ifvqcf0","pricing_plan_id":"free"},{"bike_id":"36136d78-2be3-4b19-a90a-7711a04c3c3a","system_id":"levelo_inurba_marseille","lat":43.3137,"lon":5.38502,"is_reserved":false,"is_disabled":false,"rental_uris":{"android":"levelo://app?vid=36136d78-2be3-4b19-a90a-7711a04c3c3a","ios":"levelo://app?vid=36136d78-2be3-4b19-a90a-7711a04c3c3a"},"vehicle_type_id":"4","last_reported":1685898296,"current_range_meters":15200,"station_id":"","pricing_plan_id":"free"},{"bike_id":"4caa6f4d-273a-49ac-9254-49fd1e364ffa","system_id":"levelo_inurba_marseille","lat":43.305364,"lon":5.384119,"is_reserved":false,"is_disabled":false,"rental_uris":{"android":"levelo://app?vid=4caa6f4d-273a-49ac-9254-49fd1e364ffa","ios":"levelo://app?vid=4caa6f4d-273a-49ac-9254-49fd1e364ffa"},"vehicle_type_id":"4","last_reported":1685898296,"current_range_meters":26800,"station_id":"ce4bgg92rcd13ifvqb30","pricing_plan_id":"free"},{"bike_id":"3fc4d531-8db2-4191-b1d4-0b6bc6600c80","system_id":"levelo_inurba_marseille","lat":43.299243,"lon":5.374807,"is_reserved":false,"is_disabled":false,"rental_uris":{"android":"levelo://app?vid=3fc4d531-8db2-4191-b1d4-0b6bc6600c80","ios":"levelo://app?vid=3fc4d531-8db2-4191-b1d4-0b6bc6600c80"},"vehicle_type_id":"4","last_reported":1685898296,"current_range_meters":7200,"station_id":"ce4bgjh2rcd13ifvqbg0","pricing_plan_id":"free"},{"bike_id":"d5723095-9a5e-45b7-b7d6-20831de50d23","system_id":"levelo_inurba_marseille","lat":43.299243,"lon":5.37481,"is_reserved":false,"is_disabled":false,"rental_uris":{"android":"levelo://app?vid=d5723095-9a5e-45b7-b7d6-20831de50d23","ios":"levelo://app?vid=d5723095-9a5e-45b7-b7d6-20831de50d23"},"vehicle_type_id":"4","last_reported":1685898296,"current_range_meters":10400,"station_id":"ce4bgjh2rcd13ifvqbg0","pricing_plan_id":"free"},{"bike_id":"0d7a3e3e-fbd3-488b-a8ff-4e04679f05b4","system_id":"levelo_inurba_marseille","lat":43.31172,"lon":5.38713,"is_reserved":false,"is_disabled":false,"rental_uris":{"android":"levelo://app?vid=0d7a3e3e-fbd3-488b-a8ff-4e04679f05b4","ios":"levelo://app?vid=0d7a3e3e-fbd3-488b-a8ff-4e04679f05b4"},"vehicle_type_id":"4","last_reported":1685898296,"current_range_meters":20800,"station_id":"ce4bgv12rcd13ifvqcp0","pricing_plan_id":"free"},{"bike_id":"9089e0b8-46be-4db6-80f4-7c11463a4fda","system_id":"levelo_inurba_marseille","lat":43.31177,"lon":5.38715,"is_reserved":false,"is_disabled":false,"rental_uris":{"android":"levelo://app?vid=9089e0b8-46be-4db6-80f4-7c11463a4fda","ios":"levelo://app?vid=9089e0b8-46be-4db6-80f4-7c11463a4fda"},"vehicle_type_id":"4","last_reported":1685898296,"current_range_meters":20800,"station_id":"ce4bgv12rcd13ifvqcp0","pricing_plan_id":"free"},{"bike_id":"394a7b0d-6f86-4017-a31e-1c147e2f2d97","system_id":"levelo_inurba_marseille","lat":43.311722,"lon":5.387247,"is_reserved":false,"is_disabled":false,"rental_uris":{"android":"levelo://app?vid=394a7b0d-6f86-4017-a31e-1c147e2f2d97","ios":"levelo://app?vid=394a7b0d-6f86-4017-a31e-1c147e2f2d97"},"vehicle_type_id":"4","last_reported":1685898296,"current_range_meters":20800,"station_id":"ce4bgv12rcd13ifvqcp0","pricing_plan_id":"free"},{"bike_id":"9cdfc76d-fefe-4e3f-886b-5d7fa5465a0e","system_id":"levelo_inurba_marseille","lat":43.32822,"lon":5.36692,"is_reserved":false,"is_disabled":false,"rental_uris":{"android":"levelo://app?vid=9cdfc76d-fefe-4e3f-886b-5d7fa5465a0e","ios":"levelo://app?vid=9cdfc76d-fefe-4e3f-886b-5d7fa5465a0e"},"vehicle_type_id":"4","last_reported":1685898296,"current_range_meters":2000,"station_id":"ce4bhs92rcd13ifvqi0g","pricing_plan_id":"free"},{"bike_id":"918bba11-de7e-4c7e-b785-d577e4c23777","system_id":"levelo_inurba_marseille","lat":43.29726,"lon":5.36616,"is_reserved":false,"is_disabled":false,"rental_uris":{"android":"levelo://app?vid=918bba11-de7e-4c7e-b785-d577e4c23777","ios":"levelo://app?vid=918bba11-de7e-4c7e-b785-d577e4c23777"},"vehicle_type_id":"4","last_reported":1685898296,"current_range_meters":8800,"station_id":"","pricing_plan_id":"free"},{"bike_id":"a9f06d18-dafd-47fb-81c1-49c3c84a4e47","system_id":"levelo_inurba_marseille","lat":43.328371,"lon":5.366909,"is_reserved":false,"is_disabled":false,"rental_uris":{"android":"levelo://app?vid=a9f06d18-dafd-47fb-81c1-49c3c84a4e47","ios":"levelo://app?vid=a9f06d18-dafd-47fb-81c1-49c3c84a4e47"},"vehicle_type_id":"4","last_reported":1685898296,"current_range_meters":0,"station_id":"ce4bhs92rcd13ifvqi0g","pricing_plan_id":"free"},{"bike_id":"5a3f0615-0d94-4a62-9eb9-c286b2b38d0f","system_id":"levelo_inurba_marseille","lat":43.328371,"lon":5.366909,"is_reserved":false,"is_disabled":false,"rental_uris":{"android":"levelo://app?vid=5a3f0615-0d94-4a62-9eb9-c286b2b38d0f","ios":"levelo://app?vid=5a3f0615-0d94-4a62-9eb9-c286b2b38d0f"},"vehicle_type_id":"4","last_reported":1685898296,"current_range_meters":25200,"station_id":"ce4bhs92rcd13ifvqi0g","pricing_plan_id":"free"},{"bike_id":"fcfa8df2-9e76-4249-b61d-9fc48b640c7e","system_id":"levelo_inurba_marseille","lat":43.328371,"lon":5.366909,"is_reserved":false,"is_disabled":false,"rental_uris":{"android":"levelo://app?vid=fcfa8df2-9e76-4249-b61d-9fc48b640c7e","ios":"levelo://app?vid=fcfa8df2-9e76-4249-b61d-9fc48b640c7e"},"vehicle_type_id":"4","last_reported":1685898296,"current_range_meters":16400,"station_id":"ce4bhs92rcd13ifvqi0g","pricing_plan_id":"free"},{"bike_id":"0a8d8c78-668e-4bfd-b627-75e7821f9637","system_id":"levelo_inurba_marseille","lat":43.328371,"lon":5.366909,"is_reserved":false,"is_disabled":false,"rental_uris":{"android":"levelo://app?vid=0a8d8c78-668e-4bfd-b627-75e7821f9637","ios":"levelo://app?vid=0a8d8c78-668e-4bfd-b627-75e7821f9637"},"vehicle_type_id":"4","last_reported":1685898296,"current_range_meters":14400,"station_id":"ce4bhs92rcd13ifvqi0g","pricing_plan_id":"free"},{"bike_id":"0a2644ee-3284-46a4-b383-c1008b4493c6","system_id":"levelo_inurba_marseille","lat":43.32831,"lon":5.36679,"is_reserved":false,"is_disabled":false,"rental_uris":{"android":"levelo://app?vid=0a2644ee-3284-46a4-b383-c1008b4493c6","ios":"levelo://app?vid=0a2644ee-3284-46a4-b383-c1008b4493c6"},"vehicle_type_id":"4","last_reported":1685898296,"current_range_meters":25600,"station_id":"ce4bhs92rcd13ifvqi0g","pricing_plan_id":"free"},{"bike_id":"93fe580d-71c0-4856-a27e-71bfe60b8232","system_id":"levelo_inurba_marseille","lat":43.32836,"lon":5.36701,"is_reserved":false,"is_disabled":false,"rental_uris":{"android":"levelo://app?vid=93fe580d-71c0-4856-a27e-71bfe60b8232","ios":"levelo://app?vid=93fe580d-71c0-4856-a27e-71bfe60b8232"},"vehicle_type_id":"4","last_reported":1685898296,"current_range_meters":20400,"station_id":"ce4bhs92rcd13ifvqi0g","pricing_plan_id":"free"},{"bike_id":"c957c23a-5f71-48b3-920d-3eb9d16491cd","system_id":"levelo_inurba_marseille","lat":43.32836,"lon":5.36684,"is_reserved":false,"is_disabled":false,"rental_uris":{"android":"levelo://app?vid=c957c23a-5f71-48b3-920d-3eb9d16491cd","ios":"levelo://app?vid=c957c23a-5f71-48b3-920d-3eb9d16491cd"},"vehicle_type_id":"4","last_reported":1685898296,"current_range_meters":25600,"station_id":"ce4bhs92rcd13ifvqi0g","pricing_plan_id":"free"},{"bike_id":"b9cf6557-2db2-4828-97f1-13a369745ef6","system_id":"levelo_inurba_marseille","lat":43.32754,"lon":5.37474,"is_reserved":false,"is_disabled":false,"rental_uris":{"android":"levelo://app?vid=b9cf6557-2db2-4828-97f1-13a369745ef6","ios":"levelo://app?vid=b9cf6557-2db2-4828-97f1-13a369745ef6"},"vehicle_type_id":"4","last_reported":1685898296,"current_range_meters":4400,"station_id":"","pricing_plan_id":"free"},{"bike_id":"e5d1cdc2-b1cb-49f6-9efe-68f61b7a0753","system_id":"levelo_inurba_marseille","lat":43.29573,"lon":5.367355,"is_reserved":false,"is_disabled":false,"rental_uris":{"android":"levelo://app?vid=e5d1cdc2-b1cb-49f6-9efe-68f61b7a0753","ios":"levelo://app?vid=e5d1cdc2-b1cb-49f6-9efe-68f61b7a0753"},"vehicle_type_id":"4","last_reported":1685898296,"current_range_meters":16800,"station_id":"ce4bgph2rcd13ifvqc2g","pricing_plan_id":"free"},{"bike_id":"7c907e80-3242-4b4c-9321-fb5cfb99640a","system_id":"levelo_inurba_marseille","lat":43.29573,"lon":5.367355,"is_reserved":false,"is_disabled":false,"rental_uris":{"android":"levelo://app?vid=7c907e80-3242-4b4c-9321-fb5cfb99640a","ios":"levelo://app?vid=7c907e80-3242-4b4c-9321-fb5cfb99640a"},"vehicle_type_id":"4","last_reported":1685898296,"current_range_meters":1200,"station_id":"ce4bgph2rcd13ifvqc2g","pricing_plan_id":"free"},{"bike_id":"ee331462-9f8a-4ff4-975f-640e5831c4d6","system_id":"levelo_inurba_marseille","lat":43.317557,"lon":5.390173,"is_reserved":false,"is_disabled":false,"rental_uris":{"android":"levelo://app?vid=ee331462-9f8a-4ff4-975f-640e5831c4d6","ios":"levelo://app?vid=ee331462-9f8a-4ff4-975f-640e5831c4d6"},"vehicle_type_id":"4","last_reported":1685898296,"current_range_meters":11200,"station_id":"ce4bhqp2rcd13ifvqhng","pricing_plan_id":"free"},{"bike_id":"07f62f98-919e-4b71-a429-5882e11679b6","system_id":"levelo_inurba_marseille","lat":43.317557,"lon":5.390173,"is_reserved":false,"is_disabled":false,"rental_uris":{"android":"levelo://app?vid=07f62f98-919e-4b71-a429-5882e11679b6","ios":"levelo://app?vid=07f62f98-919e-4b71-a429-5882e11679b6"},"vehicle_type_id":"4","last_reported":1685898296,"current_range_meters":26000,"station_id":"ce4bhqp2rcd13ifvqhng","pricing_plan_id":"free"},{"bike_id":"e3814159-2750-47e0-b92d-f47a3debad41","system_id":"levelo_inurba_marseille","lat":43.297944,"lon":5.381048,"is_reserved":false,"is_disabled":false,"rental_uris":{"android":"levelo://app?vid=e3814159-2750-47e0-b92d-f47a3debad41","ios":"levelo://app?vid=e3814159-2750-47e0-b92d-f47a3debad41"},"vehicle_type_id":"4","last_reported":1685898296,"current_range_meters":0,"station_id":"","pricing_plan_id":"free"},{"bike_id":"eb8e4412-a3fa-4a69-9d75-1a8b980ed125","system_id":"levelo_inurba_marseille","lat":43.29598,"lon":5.37814,"is_reserved":false,"is_disabled":false,"rental_uris":{"android":"levelo://app?vid=eb8e4412-a3fa-4a69-9d75-1a8b980ed125","ios":"levelo://app?vid=eb8e4412-a3fa-4a69-9d75-1a8b980ed125"},"vehicle_type_id":"4","last_reported":1685898296,"current_range_meters":26000,"station_id":"","pricing_plan_id":"free"},{"bike_id":"07d4f555-0b76-4fbb-bfb4-924a0eab1d37","system_id":"levelo_inurba_marseille","lat":43.32367,"lon":5.388836,"is_reserved":false,"is_disabled":false,"rental_uris":{"android":"levelo://app?vid=07d4f555-0b76-4fbb-bfb4-924a0eab1d37","ios":"levelo://app?vid=07d4f555-0b76-4fbb-bfb4-924a0eab1d37"},"vehicle_type_id":"4","last_reported":1685898296,"current_range_meters":19600,"station_id":"ce4bhqp2rcd13ifvqhog","pricing_plan_id":"free"},{"bike_id":"7fe7d289-ac92-4ba9-be7d-6c298b53fba3","system_id":"levelo_inurba_marseille","lat":43.32367,"lon":5.388836,"is_reserved":false,"is_disabled":false,"rental_uris":{"android":"levelo://app?vid=7fe7d289-ac92-4ba9-be7d-6c298b53fba3","ios":"levelo://app?vid=7fe7d289-ac92-4ba9-be7d-6c298b53fba3"},"vehicle_type_id":"4","last_reported":1685898296,"current_range_meters":0,"station_id":"ce4bhqp2rcd13ifvqhog","pricing_plan_id":"free"},{"bike_id":"66f8c606-ccf7-4b48-a7cf-8cb90cfbfb49","system_id":"levelo_inurba_marseille","lat":43.32367,"lon":5.388836,"is_reserved":false,"is_disabled":false,"rental_uris":{"android":"levelo://app?vid=66f8c606-ccf7-4b48-a7cf-8cb90cfbfb49","ios":"levelo://app?vid=66f8c606-ccf7-4b48-a7cf-8cb90cfbfb49"},"vehicle_type_id":"4","last_reported":1685898296,"current_range_meters":4800,"station_id":"ce4bhqp2rcd13ifvqhog","pricing_plan_id":"free"},{"bike_id":"aeb5ead0-c09c-49ca-84ce-d23b7cb0491f","system_id":"levelo_inurba_marseille","lat":43.32367,"lon":5.388836,"is_reserved":false,"is_disabled":false,"rental_uris":{"android":"levelo://app?vid=aeb5ead0-c09c-49ca-84ce-d23b7cb0491f","ios":"levelo://app?vid=aeb5ead0-c09c-49ca-84ce-d23b7cb0491f"},"vehicle_type_id":"4","last_reported":1685898296,"current_range_meters":10800,"station_id":"ce4bhqp2rcd13ifvqhog","pricing_plan_id":"free"},{"bike_id":"7ef77614-1e03-4af3-9de8-e2c1fa49c33c","system_id":"levelo_inurba_marseille","lat":43.295978,"lon":5.380977,"is_reserved":false,"is_disabled":false,"rental_uris":{"android":"levelo://app?vid=7ef77614-1e03-4af3-9de8-e2c1fa49c33c","ios":"levelo://app?vid=7ef77614-1e03-4af3-9de8-e2c1fa49c33c"},"vehicle_type_id":"4","last_reported":1685898296,"current_range_meters":3200,"station_id":"","pricing_plan_id":"free"},{"bike_id":"9f8bc3a4-18ca-46a0-beaf-750f9f330af7","system_id":"levelo_inurba_marseille","lat":43.293249,"lon":5.371578,"is_reserved":false,"is_disabled":false,"rental_uris":{"android":"levelo://app?vid=9f8bc3a4-18ca-46a0-beaf-750f9f330af7","ios":"levelo://app?vid=9f8bc3a4-18ca-46a0-beaf-750f9f330af7"},"vehicle_type_id":"4","last_reported":1685898296,"current_range_meters":22400,"station_id":"ce4bgh92rcd13ifvqb40","pricing_plan_id":"free"},{"bike_id":"78378291-9a73-461e-b4e0-0e1be17c8f5a","system_id":"levelo_inurba_marseille","lat":43.293249,"lon":5.371578,"is_reserved":false,"is_disabled":false,"rental_uris":{"android":"levelo://app?vid=78378291-9a73-461e-b4e0-0e1be17c8f5a","ios":"levelo://app?vid=78378291-9a73-461e-b4e0-0e1be17c8f5a"},"vehicle_type_id":"4","last_reported":1685898296,"current_range_meters":14400,"station_id":"ce4bgh92rcd13ifvqb40","pricing_plan_id":"free"},{"bike_id":"e072a344-6f6a-4149-8780-76f73837db80","system_id":"levelo_inurba_marseille","lat":43.293249,"lon":5.371578,"is_reserved":false,"is_disabled":false,"rental_uris":{"android":"levelo://app?vid=e072a344-6f6a-4149-8780-76f73837db80","ios":"levelo://app?vid=e072a344-6f6a-4149-8780-76f73837db80"},"vehicle_type_id":"4","last_reported":1685898296,"current_range_meters":18000,"station_id":"ce4bgh92rcd13ifvqb40","pricing_plan_id":"free"},{"bike_id":"f1787adb-c721-4077-a2f6-747d5493d548","system_id":"levelo_inurba_marseille","lat":43.293009,"lon":5.374584,"is_reserved":false,"is_disabled":false,"rental_uris":{"android":"levelo://app?vid=f1787adb-c721-4077-a2f6-747d5493d548","ios":"levelo://app?vid=f1787adb-c721-4077-a2f6-747d5493d548"},"vehicle_type_id":"4","last_reported":1685898296,"current_range_meters":20800,"station_id":"ce4bgi12rcd13ifvqb70","pricing_plan_id":"free"},{"bike_id":"bd983600-3ee2-4c7c-9967-961a4748cac8","system_id":"levelo_inurba_marseille","lat":43.293009,"lon":5.374584,"is_reserved":false,"is_disabled":false,"rental_uris":{"android":"levelo://app?vid=bd983600-3ee2-4c7c-9967-961a4748cac8","ios":"levelo://app?vid=bd983600-3ee2-4c7c-9967-961a4748cac8"},"vehicle_type_id":"4","last_reported":1685898296,"current_range_meters":31200,"station_id":"ce4bgi12rcd13ifvqb70","pricing_plan_id":"free"},{"bike_id":"11f7f89d-6906-4cba-b914-ed5a2ff44a53","system_id":"levelo_inurba_marseille","lat":43.293009,"lon":5.374584,"is_reserved":false,"is_disabled":false,"rental_uris":{"android":"levelo://app?vid=11f7f89d-6906-4cba-b914-ed5a2ff44a53","ios":"levelo://app?vid=11f7f89d-6906-4cba-b914-ed5a2ff44a53"},"vehicle_type_id":"4","last_reported":1685898296,"current_range_meters":19200,"station_id":"ce4bgi12rcd13ifvqb70","pricing_plan_id":"free"},{"bike_id":"12372be6-90de-4ca7-89c3-6779b2e2c029","system_id":"levelo_inurba_marseille","lat":43.293009,"lon":5.374584,"is_reserved":false,"is_disabled":false,"rental_uris":{"android":"levelo://app?vid=12372be6-90de-4ca7-89c3-6779b2e2c029","ios":"levelo://app?vid=12372be6-90de-4ca7-89c3-6779b2e2c029"},"vehicle_type_id":"4","last_reported":1685898296,"current_range_meters":800,"station_id":"ce4bgi12rcd13ifvqb70","pricing_plan_id":"free"},{"bike_id":"1873c61f-5e56-4201-a705-8d12f786e6a8","system_id":"levelo_inurba_marseille","lat":43.293009,"lon":5.374584,"is_reserved":false,"is_disabled":false,"rental_uris":{"android":"levelo://app?vid=1873c61f-5e56-4201-a705-8d12f786e6a8","ios":"levelo://app?vid=1873c61f-5e56-4201-a705-8d12f786e6a8"},"vehicle_type_id":"4","last_reported":1685898296,"current_range_meters":29600,"station_id":"ce4bgi12rcd13ifvqb70","pricing_plan_id":"free"},{"bike_id":"7317cfda-427a-4ee3-abc9-9b164b1baad3","system_id":"levelo_inurba_marseille","lat":43.293009,"lon":5.374584,"is_reserved":false,"is_disabled":false,"rental_uris":{"android":"levelo://app?vid=7317cfda-427a-4ee3-abc9-9b164b1baad3","ios":"levelo://app?vid=7317cfda-427a-4ee3-abc9-9b164b1baad3"},"vehicle_type_id":"4","last_reported":1685898296,"current_range_meters":25600,"station_id":"ce4bgi12rcd13ifvqb70","pricing_plan_id":"free"},{"bike_id":"254d727d-b97b-4da6-8ec6-9fc5e40315db","system_id":"levelo_inurba_marseille","lat":43.29371,"lon":5.37843,"is_reserved":false,"is_disabled":false,"rental_uris":{"android":"levelo://app?vid=254d727d-b97b-4da6-8ec6-9fc5e40315db","ios":"levelo://app?vid=254d727d-b97b-4da6-8ec6-9fc5e40315db"},"vehicle_type_id":"4","last_reported":1685898296,"current_range_meters":17200,"station_id":"ce4bgjh2rcd13ifvqbf0","pricing_plan_id":"free"},{"bike_id":"a5f22737-0c10-4b69-860b-4a51055a35fa","system_id":"levelo_inurba_marseille","lat":43.298764,"lon":5.388973,"is_reserved":false,"is_disabled":false,"rental_uris":{"android":"levelo://app?vid=a5f22737-0c10-4b69-860b-4a51055a35fa","ios":"levelo://app?vid=a5f22737-0c10-4b69-860b-4a51055a35fa"},"vehicle_type_id":"4","last_reported":1685898296,"current_range_meters":400,"station_id":"ce4bh392rcd13ifvqdl0","pricing_plan_id":"free"},{"bike_id":"bb9986b5-1260-4f9c-bb86-b4574c500d35","system_id":"levelo_inurba_marseille","lat":43.29265,"lon":5.37619,"is_reserved":false,"is_disabled":false,"rental_uris":{"android":"levelo://app?vid=bb9986b5-1260-4f9c-bb86-b4574c500d35","ios":"levelo://app?vid=bb9986b5-1260-4f9c-bb86-b4574c500d35"},"vehicle_type_id":"4","last_reported":1685898296,"current_range_meters":22000,"station_id":"ce4bgi12rcd13ifvqb80","pricing_plan_id":"free"},{"bike_id":"a0b87a45-8e89-4812-802f-503604e730db","system_id":"levelo_inurba_marseille","lat":43.291675,"lon":5.371583,"is_reserved":false,"is_disabled":false,"rental_uris":{"android":"levelo://app?vid=a0b87a45-8e89-4812-802f-503604e730db","ios":"levelo://app?vid=a0b87a45-8e89-4812-802f-503604e730db"},"vehicle_type_id":"4","last_reported":1685898296,"current_range_meters":14400,"station_id":"ce4bha92rcd13ifvqeh0","pricing_plan_id":"free"},{"bike_id":"e700feb0-77fb-4a87-9a66-5659fd2435c9","system_id":"levelo_inurba_marseille","lat":43.298764,"lon":5.388973,"is_reserved":false,"is_disabled":false,"rental_uris":{"android":"levelo://app?vid=e700feb0-77fb-4a87-9a66-5659fd2435c9","ios":"levelo://app?vid=e700feb0-77fb-4a87-9a66-5659fd2435c9"},"vehicle_type_id":"4","last_reported":1685898296,"current_range_meters":7600,"station_id":"ce4bh392rcd13ifvqdl0","pricing_plan_id":"free"},{"bike_id":"e590b2fb-237f-4659-9ceb-a32ea7e48e92","system_id":"levelo_inurba_marseille","lat":43.29195,"lon":5.3581,"is_reserved":false,"is_disabled":false,"rental_uris":{"android":"levelo://app?vid=e590b2fb-237f-4659-9ceb-a32ea7e48e92","ios":"levelo://app?vid=e590b2fb-237f-4659-9ceb-a32ea7e48e92"},"vehicle_type_id":"4","last_reported":1685898296,"current_range_meters":0,"station_id":"ce4bhb12rcd13ifvqel0","pricing_plan_id":"free"},{"bike_id":"65b07f62-8bc2-42ab-adbb-b99338c90d23","system_id":"levelo_inurba_marseille","lat":43.313291,"lon":5.396838,"is_reserved":false,"is_disabled":false,"rental_uris":{"android":"levelo://app?vid=65b07f62-8bc2-42ab-adbb-b99338c90d23","ios":"levelo://app?vid=65b07f62-8bc2-42ab-adbb-b99338c90d23"},"vehicle_type_id":"4","last_reported":1685898296,"current_range_meters":800,"station_id":"ce4bgvp2rcd13ifvqcu0","pricing_plan_id":"free"},{"bike_id":"0b0f4b4f-49e7-4390-8f65-c2810c5c8e8b","system_id":"levelo_inurba_marseille","lat":43.313291,"lon":5.396838,"is_reserved":false,"is_disabled":false,"rental_uris":{"android":"levelo://app?vid=0b0f4b4f-49e7-4390-8f65-c2810c5c8e8b","ios":"levelo://app?vid=0b0f4b4f-49e7-4390-8f65-c2810c5c8e8b"},"vehicle_type_id":"4","last_reported":1685898296,"current_range_meters":17200,"station_id":"ce4bgvp2rcd13ifvqcu0","pricing_plan_id":"free"},{"bike_id":"255c4b8e-8351-4250-a652-5004d8490d8a","system_id":"levelo_inurba_marseille","lat":43.29529,"lon":5.385581,"is_reserved":false,"is_disabled":false,"rental_uris":{"android":"levelo://app?vid=255c4b8e-8351-4250-a652-5004d8490d8a","ios":"levelo://app?vid=255c4b8e-8351-4250-a652-5004d8490d8a"},"vehicle_type_id":"4","last_reported":1685898296,"current_range_meters":24800,"station_id":"ce4bgih2rcd13ifvqba0","pricing_plan_id":"free"},{"bike_id":"cc37d7a8-8da4-4655-bf93-787101990dee","system_id":"levelo_inurba_marseille","lat":43.290779,"lon":5.371482,"is_reserved":false,"is_disabled":false,"rental_uris":{"android":"levelo://app?vid=cc37d7a8-8da4-4655-bf93-787101990dee","ios":"levelo://app?vid=cc37d7a8-8da4-4655-bf93-787101990dee"},"vehicle_type_id":"4","last_reported":1685898296,"current_range_meters":0,"station_id":"ce4bh5p2rcd13ifvqe4g","pricing_plan_id":"free"},{"bike_id":"c973dbde-98b4-4efb-9b05-6176a875f1cf","system_id":"levelo_inurba_marseille","lat":43.290779,"lon":5.371482,"is_reserved":false,"is_disabled":false,"rental_uris":{"android":"levelo://app?vid=c973dbde-98b4-4efb-9b05-6176a875f1cf","ios":"levelo://app?vid=c973dbde-98b4-4efb-9b05-6176a875f1cf"},"vehicle_type_id":"4","last_reported":1685898296,"current_range_meters":0,"station_id":"ce4bh5p2rcd13ifvqe4g","pricing_plan_id":"free"},{"bike_id":"75143b07-5746-4685-b48e-58d0d77d8ed9","system_id":"levelo_inurba_marseille","lat":43.30211,"lon":5.39458,"is_reserved":false,"is_disabled":false,"rental_uris":{"android":"levelo://app?vid=75143b07-5746-4685-b48e-58d0d77d8ed9","ios":"levelo://app?vid=75143b07-5746-4685-b48e-58d0d77d8ed9"},"vehicle_type_id":"4","last_reported":1685898296,"current_range_meters":13600,"station_id":"ce4bh0p2rcd13ifvqd70","pricing_plan_id":"free"},{"bike_id":"cd2509d2-3848-4378-bdd9-f73ed7c9ce17","system_id":"levelo_inurba_marseille","lat":43.294153,"lon":5.386305,"is_reserved":false,"is_disabled":false,"rental_uris":{"android":"levelo://app?vid=cd2509d2-3848-4378-bdd9-f73ed7c9ce17","ios":"levelo://app?vid=cd2509d2-3848-4378-bdd9-f73ed7c9ce17"},"vehicle_type_id":"4","last_reported":1685898296,"current_range_meters":24400,"station_id":"ce4bh2h2rcd13ifvqdh0","pricing_plan_id":"free"},{"bike_id":"01d012b4-89c6-4e3f-b54a-f2b8e65efb16","system_id":"levelo_inurba_marseille","lat":43.290327,"lon":5.375711,"is_reserved":false,"is_disabled":false,"rental_uris":{"android":"levelo://app?vid=01d012b4-89c6-4e3f-b54a-f2b8e65efb16","ios":"levelo://app?vid=01d012b4-89c6-4e3f-b54a-f2b8e65efb16"},"vehicle_type_id":"4","last_reported":1685898296,"current_range_meters":7200,"station_id":"ce4bh692rcd13ifvqe90","pricing_plan_id":"free"},{"bike_id":"c9d67961-d00a-40a3-9d7a-41c527bf9da5","system_id":"levelo_inurba_marseille","lat":43.294162,"lon":5.386292,"is_reserved":false,"is_disabled":false,"rental_uris":{"android":"levelo://app?vid=c9d67961-d00a-40a3-9d7a-41c527bf9da5","ios":"levelo://app?vid=c9d67961-d00a-40a3-9d7a-41c527bf9da5"},"vehicle_type_id":"4","last_reported":1685898296,"current_range_meters":6800,"station_id":"ce4bh2h2rcd13ifvqdh0","pricing_plan_id":"free"},{"bike_id":"efa2b91e-1a78-4029-ab5d-86a5f9b2f08b","system_id":"levelo_inurba_marseille","lat":43.294162,"lon":5.386292,"is_reserved":false,"is_disabled":false,"rental_uris":{"android":"levelo://app?vid=efa2b91e-1a78-4029-ab5d-86a5f9b2f08b","ios":"levelo://app?vid=efa2b91e-1a78-4029-ab5d-86a5f9b2f08b"},"vehicle_type_id":"4","last_reported":1685898296,"current_range_meters":3200,"station_id":"ce4bh2h2rcd13ifvqdh0","pricing_plan_id":"free"},{"bike_id":"785b9329-d9be-472a-b5d2-d630523db555","system_id":"levelo_inurba_marseille","lat":43.28938,"lon":5.36648,"is_reserved":false,"is_disabled":false,"rental_uris":{"android":"levelo://app?vid=785b9329-d9be-472a-b5d2-d630523db555","ios":"levelo://app?vid=785b9329-d9be-472a-b5d2-d630523db555"},"vehicle_type_id":"4","last_reported":1685898296,"current_range_meters":0,"station_id":"","pricing_plan_id":"free"},{"bike_id":"9cabf8b0-cc43-452b-baee-3b50d49cc0d6","system_id":"levelo_inurba_marseille","lat":43.28937,"lon":5.36636,"is_reserved":false,"is_disabled":false,"rental_uris":{"android":"levelo://app?vid=9cabf8b0-cc43-452b-baee-3b50d49cc0d6","ios":"levelo://app?vid=9cabf8b0-cc43-452b-baee-3b50d49cc0d6"},"vehicle_type_id":"4","last_reported":1685898296,"current_range_meters":0,"station_id":"ce4bhap2rcd13ifvqek0","pricing_plan_id":"free"},{"bike_id":"80e85f9d-4e4a-4a4a-82a7-c56364bdc9e7","system_id":"levelo_inurba_marseille","lat":43.28936,"lon":5.36638,"is_reserved":false,"is_disabled":false,"rental_uris":{"android":"levelo://app?vid=80e85f9d-4e4a-4a4a-82a7-c56364bdc9e7","ios":"levelo://app?vid=80e85f9d-4e4a-4a4a-82a7-c56364bdc9e7"},"vehicle_type_id":"4","last_reported":1685898296,"current_range_meters":22400,"station_id":"ce4bhap2rcd13ifvqek0","pricing_plan_id":"free"},{"bike_id":"af1a152a-80f1-44d8-b027-f62eb8648557","system_id":"levelo_inurba_marseille","lat":43.28934,"lon":5.36643,"is_reserved":false,"is_disabled":false,"rental_uris":{"android":"levelo://app?vid=af1a152a-80f1-44d8-b027-f62eb8648557","ios":"levelo://app?vid=af1a152a-80f1-44d8-b027-f62eb8648557"},"vehicle_type_id":"4","last_reported":1685898296,"current_range_meters":3600,"station_id":"ce4bhap2rcd13ifvqek0","pricing_plan_id":"free"},{"bike_id":"13fdadd1-1fdd-4c93-a157-b819803a3a1e","system_id":"levelo_inurba_marseille","lat":43.29272,"lon":5.38435,"is_reserved":false,"is_disabled":false,"rental_uris":{"android":"levelo://app?vid=13fdadd1-1fdd-4c93-a157-b819803a3a1e","ios":"levelo://app?vid=13fdadd1-1fdd-4c93-a157-b819803a3a1e"},"vehicle_type_id":"4","last_reported":1685898296,"current_range_meters":10400,"station_id":"ce4bh692rcd13ifvqea0","pricing_plan_id":"free"},{"bike_id":"0a8aba60-b51b-427d-be66-8709066b23d1","system_id":"levelo_inurba_marseille","lat":43.33286,"lon":5.38438,"is_reserved":false,"is_disabled":false,"rental_uris":{"android":"levelo://app?vid=0a8aba60-b51b-427d-be66-8709066b23d1","ios":"levelo://app?vid=0a8aba60-b51b-427d-be66-8709066b23d1"},"vehicle_type_id":"4","last_reported":1685898296,"current_range_meters":25200,"station_id":"","pricing_plan_id":"free"},{"bike_id":"e2b942e0-3901-4124-a71d-a8535684af38","system_id":"levelo_inurba_marseille","lat":43.33044,"lon":5.38916,"is_reserved":false,"is_disabled":false,"rental_uris":{"android":"levelo://app?vid=e2b942e0-3901-4124-a71d-a8535684af38","ios":"levelo://app?vid=e2b942e0-3901-4124-a71d-a8535684af38"},"vehicle_type_id":"4","last_reported":1685898296,"current_range_meters":25600,"station_id":"ce4bhr92rcd13ifvqhrg","pricing_plan_id":"free"},{"bike_id":"dcb00244-aef9-4eec-91cd-42ea75ebd82c","system_id":"levelo_inurba_marseille","lat":43.33047,"lon":5.38915,"is_reserved":false,"is_disabled":false,"rental_uris":{"android":"levelo://app?vid=dcb00244-aef9-4eec-91cd-42ea75ebd82c","ios":"levelo://app?vid=dcb00244-aef9-4eec-91cd-42ea75ebd82c"},"vehicle_type_id":"4","last_reported":1685898296,"current_range_meters":3200,"station_id":"ce4bhr92rcd13ifvqhrg","pricing_plan_id":"free"},{"bike_id":"5157fefc-5a19-4ddb-be77-2cd57a28176d","system_id":"levelo_inurba_marseille","lat":43.289741,"lon":5.378306,"is_reserved":false,"is_disabled":false,"rental_uris":{"android":"levelo://app?vid=5157fefc-5a19-4ddb-be77-2cd57a28176d","ios":"levelo://app?vid=5157fefc-5a19-4ddb-be77-2cd57a28176d"},"vehicle_type_id":"4","last_reported":1685898296,"current_range_meters":20400,"station_id":"ce4bh9p2rcd13ifvqed0","pricing_plan_id":"free"},{"bike_id":"548c5489-a66f-4940-a340-aab9702f3ec9","system_id":"levelo_inurba_marseille","lat":43.29011,"lon":5.3813,"is_reserved":false,"is_disabled":false,"rental_uris":{"android":"levelo://app?vid=548c5489-a66f-4940-a340-aab9702f3ec9","ios":"levelo://app?vid=548c5489-a66f-4940-a340-aab9702f3ec9"},"vehicle_type_id":"4","last_reported":1685898296,"current_range_meters":1200,"station_id":"ce4bh4p2rcd13ifvqe1g","pricing_plan_id":"free"},{"bike_id":"906c92d3-e27e-493a-a6d4-6f465d8a62b6","system_id":"levelo_inurba_marseille","lat":43.29011,"lon":5.38133,"is_reserved":false,"is_disabled":false,"rental_uris":{"android":"levelo://app?vid=906c92d3-e27e-493a-a6d4-6f465d8a62b6","ios":"levelo://app?vid=906c92d3-e27e-493a-a6d4-6f465d8a62b6"},"vehicle_type_id":"4","last_reported":1685898296,"current_range_meters":0,"station_id":"ce4bh4p2rcd13ifvqe1g","pricing_plan_id":"free"},{"bike_id":"675927e0-ab95-41a0-80be-7ee111a218f5","system_id":"levelo_inurba_marseille","lat":43.3375,"lon":5.37472,"is_reserved":false,"is_disabled":false,"rental_uris":{"android":"levelo://app?vid=675927e0-ab95-41a0-80be-7ee111a218f5","ios":"levelo://app?vid=675927e0-ab95-41a0-80be-7ee111a218f5"},"vehicle_type_id":"4","last_reported":1685898296,"current_range_meters":27200,"station_id":"","pricing_plan_id":"free"},{"bike_id":"57da526b-0952-4249-a379-e6f5262607a7","system_id":"levelo_inurba_marseille","lat":43.33757,"lon":5.37455,"is_reserved":false,"is_disabled":false,"rental_uris":{"android":"levelo://app?vid=57da526b-0952-4249-a379-e6f5262607a7","ios":"levelo://app?vid=57da526b-0952-4249-a379-e6f5262607a7"},"vehicle_type_id":"4","last_reported":1685898296,"current_range_meters":30800,"station_id":"","pricing_plan_id":"free"},{"bike_id":"cf0caa37-cec8-408b-98f7-37211a80813c","system_id":"levelo_inurba_marseille","lat":43.33763,"lon":5.37424,"is_reserved":false,"is_disabled":false,"rental_uris":{"android":"levelo://app?vid=cf0caa37-cec8-408b-98f7-37211a80813c","ios":"levelo://app?vid=cf0caa37-cec8-408b-98f7-37211a80813c"},"vehicle_type_id":"4","last_reported":1685898296,"current_range_meters":30000,"station_id":"","pricing_plan_id":"free"},{"bike_id":"6fc16052-d20d-45d7-809a-ced5b6dd56f0","system_id":"levelo_inurba_marseille","lat":43.286591,"lon":5.363346,"is_reserved":false,"is_disabled":false,"rental_uris":{"android":"levelo://app?vid=6fc16052-d20d-45d7-809a-ced5b6dd56f0","ios":"levelo://app?vid=6fc16052-d20d-45d7-809a-ced5b6dd56f0"},"vehicle_type_id":"4","last_reported":1685898296,"current_range_meters":14800,"station_id":"ce4bhah2rcd13ifvqej0","pricing_plan_id":"free"},{"bike_id":"e15ecba1-cda6-4b8b-b879-cdc5d642642d","system_id":"levelo_inurba_marseille","lat":43.286591,"lon":5.363346,"is_reserved":false,"is_disabled":false,"rental_uris":{"android":"levelo://app?vid=e15ecba1-cda6-4b8b-b879-cdc5d642642d","ios":"levelo://app?vid=e15ecba1-cda6-4b8b-b879-cdc5d642642d"},"vehicle_type_id":"4","last_reported":1685898296,"current_range_meters":30000,"station_id":"ce4bhah2rcd13ifvqej0","pricing_plan_id":"free"},{"bike_id":"af98d9a2-c0db-4227-9b4d-8b2ea657f207","system_id":"levelo_inurba_marseille","lat":43.286591,"lon":5.363346,"is_reserved":false,"is_disabled":false,"rental_uris":{"android":"levelo://app?vid=af98d9a2-c0db-4227-9b4d-8b2ea657f207","ios":"levelo://app?vid=af98d9a2-c0db-4227-9b4d-8b2ea657f207"},"vehicle_type_id":"4","last_reported":1685898296,"current_range_meters":29600,"station_id":"ce4bhah2rcd13ifvqej0","pricing_plan_id":"free"},{"bike_id":"123530f4-4255-49ea-a0ee-3df58958b8a2","system_id":"levelo_inurba_marseille","lat":43.286593,"lon":5.363346,"is_reserved":false,"is_disabled":false,"rental_uris":{"android":"levelo://app?vid=123530f4-4255-49ea-a0ee-3df58958b8a2","ios":"levelo://app?vid=123530f4-4255-49ea-a0ee-3df58958b8a2"},"vehicle_type_id":"4","last_reported":1685898296,"current_range_meters":30800,"station_id":"ce4bhah2rcd13ifvqej0","pricing_plan_id":"free"},{"bike_id":"25088032-83ce-4bc7-af7e-f682ead6132f","system_id":"levelo_inurba_marseille","lat":43.286593,"lon":5.363346,"is_reserved":false,"is_disabled":false,"rental_uris":{"android":"levelo://app?vid=25088032-83ce-4bc7-af7e-f682ead6132f","ios":"levelo://app?vid=25088032-83ce-4bc7-af7e-f682ead6132f"},"vehicle_type_id":"4","last_reported":1685898296,"current_range_meters":400,"station_id":"ce4bhah2rcd13ifvqej0","pricing_plan_id":"free"},{"bike_id":"ceba13c1-1ffa-4840-8fb6-99af6a6a944d","system_id":"levelo_inurba_marseille","lat":43.287,"lon":5.37394,"is_reserved":false,"is_disabled":false,"rental_uris":{"android":"levelo://app?vid=ceba13c1-1ffa-4840-8fb6-99af6a6a944d","ios":"levelo://app?vid=ceba13c1-1ffa-4840-8fb6-99af6a6a944d"},"vehicle_type_id":"4","last_reported":1685898296,"current_range_meters":0,"station_id":"","pricing_plan_id":"free"},{"bike_id":"62ed84c2-cb8b-4acf-8c00-7076fc44bf83","system_id":"levelo_inurba_marseille","lat":43.30421,"lon":5.40104,"is_reserved":false,"is_disabled":false,"rental_uris":{"android":"levelo://app?vid=62ed84c2-cb8b-4acf-8c00-7076fc44bf83","ios":"levelo://app?vid=62ed84c2-cb8b-4acf-8c00-7076fc44bf83"},"vehicle_type_id":"4","last_reported":1685898296,"current_range_meters":11200,"station_id":"","pricing_plan_id":"free"},{"bike_id":"e837143e-5b0d-4d5e-8ad8-0d21b736b7d7","system_id":"levelo_inurba_marseille","lat":43.29525,"lon":5.39394,"is_reserved":false,"is_disabled":false,"rental_uris":{"android":"levelo://app?vid=e837143e-5b0d-4d5e-8ad8-0d21b736b7d7","ios":"levelo://app?vid=e837143e-5b0d-4d5e-8ad8-0d21b736b7d7"},"vehicle_type_id":"4","last_reported":1685898296,"current_range_meters":3200,"station_id":"ce4bh292rcd13ifvqdf0","pricing_plan_id":"free"},{"bike_id":"eeac8bb1-1e95-4e78-8eda-cdd0baf01c10","system_id":"levelo_inurba_marseille","lat":43.290345,"lon":5.38646,"is_reserved":false,"is_disabled":false,"rental_uris":{"android":"levelo://app?vid=eeac8bb1-1e95-4e78-8eda-cdd0baf01c10","ios":"levelo://app?vid=eeac8bb1-1e95-4e78-8eda-cdd0baf01c10"},"vehicle_type_id":"4","last_reported":1685898296,"current_range_meters":8400,"station_id":"ce4bh4p2rcd13ifvqe0g","pricing_plan_id":"free"},{"bike_id":"8fdb5cfb-aab0-4682-9635-4a84cd4adf81","system_id":"levelo_inurba_marseille","lat":43.290336,"lon":5.386425,"is_reserved":false,"is_disabled":false,"rental_uris":{"android":"levelo://app?vid=8fdb5cfb-aab0-4682-9635-4a84cd4adf81","ios":"levelo://app?vid=8fdb5cfb-aab0-4682-9635-4a84cd4adf81"},"vehicle_type_id":"4","last_reported":1685898296,"current_range_meters":27600,"station_id":"ce4bh4p2rcd13ifvqe0g","pricing_plan_id":"free"},{"bike_id":"c4f4c550-39d1-4851-9f37-ceef0c5779cf","system_id":"levelo_inurba_marseille","lat":43.290336,"lon":5.386425,"is_reserved":false,"is_disabled":false,"rental_uris":{"android":"levelo://app?vid=c4f4c550-39d1-4851-9f37-ceef0c5779cf","ios":"levelo://app?vid=c4f4c550-39d1-4851-9f37-ceef0c5779cf"},"vehicle_type_id":"4","last_reported":1685898296,"current_range_meters":2400,"station_id":"ce4bh4p2rcd13ifvqe0g","pricing_plan_id":"free"},{"bike_id":"c16c3e2d-258d-44fb-9594-35b9b1f1917d","system_id":"levelo_inurba_marseille","lat":43.286039,"lon":5.370681,"is_reserved":false,"is_disabled":false,"rental_uris":{"android":"levelo://app?vid=c16c3e2d-258d-44fb-9594-35b9b1f1917d","ios":"levelo://app?vid=c16c3e2d-258d-44fb-9594-35b9b1f1917d"},"vehicle_type_id":"4","last_reported":1685898296,"current_range_meters":1200,"station_id":"ce4bht12rcd13ifvqi60","pricing_plan_id":"free"},{"bike_id":"ec9dcbab-1970-4d9f-ae5d-b4809d8b5769","system_id":"levelo_inurba_marseille","lat":43.29197,"lon":5.39328,"is_reserved":false,"is_disabled":false,"rental_uris":{"android":"levelo://app?vid=ec9dcbab-1970-4d9f-ae5d-b4809d8b5769","ios":"levelo://app?vid=ec9dcbab-1970-4d9f-ae5d-b4809d8b5769"},"vehicle_type_id":"4","last_reported":1685898296,"current_range_meters":400,"station_id":"","pricing_plan_id":"free"},{"bike_id":"5bed1239-532a-41d5-8288-399b14b4b38e","system_id":"levelo_inurba_marseille","lat":43.284534,"lon":5.358662,"is_reserved":false,"is_disabled":false,"rental_uris":{"android":"levelo://app?vid=5bed1239-532a-41d5-8288-399b14b4b38e","ios":"levelo://app?vid=5bed1239-532a-41d5-8288-399b14b4b38e"},"vehicle_type_id":"4","last_reported":1685898296,"current_range_meters":11200,"station_id":"ce4bhah2rcd13ifvqei0","pricing_plan_id":"free"},{"bike_id":"6be19690-cf5c-4119-820e-cf31ce24d5cf","system_id":"levelo_inurba_marseille","lat":43.284534,"lon":5.358662,"is_reserved":false,"is_disabled":false,"rental_uris":{"android":"levelo://app?vid=6be19690-cf5c-4119-820e-cf31ce24d5cf","ios":"levelo://app?vid=6be19690-cf5c-4119-820e-cf31ce24d5cf"},"vehicle_type_id":"4","last_reported":1685898296,"current_range_meters":20800,"station_id":"ce4bhah2rcd13ifvqei0","pricing_plan_id":"free"},{"bike_id":"f2f76ee0-4cfa-4a7c-8c36-92f531fc4765","system_id":"levelo_inurba_marseille","lat":43.284534,"lon":5.358662,"is_reserved":false,"is_disabled":false,"rental_uris":{"android":"levelo://app?vid=f2f76ee0-4cfa-4a7c-8c36-92f531fc4765","ios":"levelo://app?vid=f2f76ee0-4cfa-4a7c-8c36-92f531fc4765"},"vehicle_type_id":"4","last_reported":1685898296,"current_range_meters":7200,"station_id":"ce4bhah2rcd13ifvqei0","pricing_plan_id":"free"},{"bike_id":"5ed828d1-6d0e-40ba-b9be-d15a7ac2035e","system_id":"levelo_inurba_marseille","lat":43.284534,"lon":5.358662,"is_reserved":false,"is_disabled":false,"rental_uris":{"android":"levelo://app?vid=5ed828d1-6d0e-40ba-b9be-d15a7ac2035e","ios":"levelo://app?vid=5ed828d1-6d0e-40ba-b9be-d15a7ac2035e"},"vehicle_type_id":"4","last_reported":1685898296,"current_range_meters":12400,"station_id":"ce4bhah2rcd13ifvqei0","pricing_plan_id":"free"},{"bike_id":"723fb825-7fef-41fb-b1f2-5aa161bf770a","system_id":"levelo_inurba_marseille","lat":43.284534,"lon":5.358662,"is_reserved":false,"is_disabled":false,"rental_uris":{"android":"levelo://app?vid=723fb825-7fef-41fb-b1f2-5aa161bf770a","ios":"levelo://app?vid=723fb825-7fef-41fb-b1f2-5aa161bf770a"},"vehicle_type_id":"4","last_reported":1685898296,"current_range_meters":0,"station_id":"ce4bhah2rcd13ifvqei0","pricing_plan_id":"free"},{"bike_id":"d3837176-d3c5-4293-9c1c-a4917459f093","system_id":"levelo_inurba_marseille","lat":43.284534,"lon":5.358662,"is_reserved":false,"is_disabled":false,"rental_uris":{"android":"levelo://app?vid=d3837176-d3c5-4293-9c1c-a4917459f093","ios":"levelo://app?vid=d3837176-d3c5-4293-9c1c-a4917459f093"},"vehicle_type_id":"4","last_reported":1685898296,"current_range_meters":23200,"station_id":"ce4bhah2rcd13ifvqei0","pricing_plan_id":"free"},{"bike_id":"9a875594-d13c-481d-880b-863ef7b804e7","system_id":"levelo_inurba_marseille","lat":43.284534,"lon":5.358662,"is_reserved":false,"is_disabled":false,"rental_uris":{"android":"levelo://app?vid=9a875594-d13c-481d-880b-863ef7b804e7","ios":"levelo://app?vid=9a875594-d13c-481d-880b-863ef7b804e7"},"vehicle_type_id":"4","last_reported":1685898296,"current_range_meters":14000,"station_id":"ce4bhah2rcd13ifvqei0","pricing_plan_id":"free"},{"bike_id":"1cec92cf-99c2-4305-b166-807a320efb46","system_id":"levelo_inurba_marseille","lat":43.295713,"lon":5.399639,"is_reserved":false,"is_disabled":false,"rental_uris":{"android":"levelo://app?vid=1cec92cf-99c2-4305-b166-807a320efb46","ios":"levelo://app?vid=1cec92cf-99c2-4305-b166-807a320efb46"},"vehicle_type_id":"4","last_reported":1685898296,"current_range_meters":4400,"station_id":"ce4bh312rcd13ifvqdj0","pricing_plan_id":"free"},{"bike_id":"7392decf-cddc-4c09-bf06-b28f25cda639","system_id":"levelo_inurba_marseille","lat":43.286595,"lon":5.386795,"is_reserved":false,"is_disabled":false,"rental_uris":{"android":"levelo://app?vid=7392decf-cddc-4c09-bf06-b28f25cda639","ios":"levelo://app?vid=7392decf-cddc-4c09-bf06-b28f25cda639"},"vehicle_type_id":"4","last_reported":1685898296,"current_range_meters":31200,"station_id":"ce4bh492rcd13ifvqdug","pricing_plan_id":"free"},{"bike_id":"a68263ab-a2f9-4c48-adf5-4b67d1c51af5","system_id":"levelo_inurba_marseille","lat":43.286595,"lon":5.386795,"is_reserved":false,"is_disabled":false,"rental_uris":{"android":"levelo://app?vid=a68263ab-a2f9-4c48-adf5-4b67d1c51af5","ios":"levelo://app?vid=a68263ab-a2f9-4c48-adf5-4b67d1c51af5"},"vehicle_type_id":"4","last_reported":1685898296,"current_range_meters":4800,"station_id":"ce4bh492rcd13ifvqdug","pricing_plan_id":"free"},{"bike_id":"db770889-841e-4da3-a06a-b49d371e26e1","system_id":"levelo_inurba_marseille","lat":43.284462,"lon":5.392121,"is_reserved":false,"is_disabled":false,"rental_uris":{"android":"levelo://app?vid=db770889-841e-4da3-a06a-b49d371e26e1","ios":"levelo://app?vid=db770889-841e-4da3-a06a-b49d371e26e1"},"vehicle_type_id":"4","last_reported":1685898296,"current_range_meters":23200,"station_id":"ce4bhoh2rcd13ifvqh5g","pricing_plan_id":"free"},{"bike_id":"d3fcddc3-da99-4749-babe-9c44e0da430f","system_id":"levelo_inurba_marseille","lat":43.29062,"lon":5.39445,"is_reserved":false,"is_disabled":false,"rental_uris":{"android":"levelo://app?vid=d3fcddc3-da99-4749-babe-9c44e0da430f","ios":"levelo://app?vid=d3fcddc3-da99-4749-babe-9c44e0da430f"},"vehicle_type_id":"4","last_reported":1685898296,"current_range_meters":21200,"station_id":"","pricing_plan_id":"free"},{"bike_id":"b205e703-9cc6-479d-b47b-dcec15459f4d","system_id":"levelo_inurba_marseille","lat":43.32656,"lon":5.40409,"is_reserved":false,"is_disabled":false,"rental_uris":{"android":"levelo://app?vid=b205e703-9cc6-479d-b47b-dcec15459f4d","ios":"levelo://app?vid=b205e703-9cc6-479d-b47b-dcec15459f4d"},"vehicle_type_id":"4","last_reported":1685898296,"current_range_meters":12800,"station_id":"","pricing_plan_id":"free"},{"bike_id":"231185b4-40ba-4099-b48b-e02f3c6dd1e7","system_id":"levelo_inurba_marseille","lat":43.284787,"lon":5.384116,"is_reserved":false,"is_disabled":false,"rental_uris":{"android":"levelo://app?vid=231185b4-40ba-4099-b48b-e02f3c6dd1e7","ios":"levelo://app?vid=231185b4-40ba-4099-b48b-e02f3c6dd1e7"},"vehicle_type_id":"4","last_reported":1685898296,"current_range_meters":0,"station_id":"ce4bh512rcd13ifvqe3g","pricing_plan_id":"free"},{"bike_id":"f51c7b71-16bd-4112-956c-1b4ae434dc2e","system_id":"levelo_inurba_marseille","lat":43.284793,"lon":5.384113,"is_reserved":false,"is_disabled":false,"rental_uris":{"android":"levelo://app?vid=f51c7b71-16bd-4112-956c-1b4ae434dc2e","ios":"levelo://app?vid=f51c7b71-16bd-4112-956c-1b4ae434dc2e"},"vehicle_type_id":"4","last_reported":1685898296,"current_range_meters":400,"station_id":"ce4bh512rcd13ifvqe3g","pricing_plan_id":"free"},{"bike_id":"ada21847-c14c-41b6-a31a-fe822b2d4d2b","system_id":"levelo_inurba_marseille","lat":43.288497,"lon":5.393089,"is_reserved":false,"is_disabled":false,"rental_uris":{"android":"levelo://app?vid=ada21847-c14c-41b6-a31a-fe822b2d4d2b","ios":"levelo://app?vid=ada21847-c14c-41b6-a31a-fe822b2d4d2b"},"vehicle_type_id":"4","last_reported":1685898296,"current_range_meters":20800,"station_id":"ce4bh2p2rcd13ifvqdi0","pricing_plan_id":"free"},{"bike_id":"1ee21c37-c394-4923-a12e-cd36e6d55411","system_id":"levelo_inurba_marseille","lat":43.284793,"lon":5.384119,"is_reserved":false,"is_disabled":false,"rental_uris":{"android":"levelo://app?vid=1ee21c37-c394-4923-a12e-cd36e6d55411","ios":"levelo://app?vid=1ee21c37-c394-4923-a12e-cd36e6d55411"},"vehicle_type_id":"4","last_reported":1685898296,"current_range_meters":2800,"station_id":"ce4bh512rcd13ifvqe3g","pricing_plan_id":"free"},{"bike_id":"7de91c59-8044-45e1-b52b-37c026bf0cf8","system_id":"levelo_inurba_marseille","lat":43.283502,"lon":5.386471,"is_reserved":false,"is_disabled":false,"rental_uris":{"android":"levelo://app?vid=7de91c59-8044-45e1-b52b-37c026bf0cf8","ios":"levelo://app?vid=7de91c59-8044-45e1-b52b-37c026bf0cf8"},"vehicle_type_id":"4","last_reported":1685898296,"current_range_meters":9200,"station_id":"ce4bh492rcd13ifvqdvg","pricing_plan_id":"free"},{"bike_id":"0b2d5a53-bd1b-4e91-b851-b444f51b1f9b","system_id":"levelo_inurba_marseille","lat":43.283502,"lon":5.386471,"is_reserved":false,"is_disabled":false,"rental_uris":{"android":"levelo://app?vid=0b2d5a53-bd1b-4e91-b851-b444f51b1f9b","ios":"levelo://app?vid=0b2d5a53-bd1b-4e91-b851-b444f51b1f9b"},"vehicle_type_id":"4","last_reported":1685898296,"current_range_meters":2800,"station_id":"ce4bh492rcd13ifvqdvg","pricing_plan_id":"free"},{"bike_id":"145e5cd8-cd84-459b-869a-592467798957","system_id":"levelo_inurba_marseille","lat":43.283502,"lon":5.386471,"is_reserved":false,"is_disabled":false,"rental_uris":{"android":"levelo://app?vid=145e5cd8-cd84-459b-869a-592467798957","ios":"levelo://app?vid=145e5cd8-cd84-459b-869a-592467798957"},"vehicle_type_id":"4","last_reported":1685898296,"current_range_meters":3200,"station_id":"ce4bh492rcd13ifvqdvg","pricing_plan_id":"free"},{"bike_id":"4530ed75-080f-4210-a66b-f3cba387678d","system_id":"levelo_inurba_marseille","lat":43.280784,"lon":5.396622,"is_reserved":false,"is_disabled":false,"rental_uris":{"android":"levelo://app?vid=4530ed75-080f-4210-a66b-f3cba387678d","ios":"levelo://app?vid=4530ed75-080f-4210-a66b-f3cba387678d"},"vehicle_type_id":"4","last_reported":1685898296,"current_range_meters":1600,"station_id":"ce4bho12rcd13ifvqh2g","pricing_plan_id":"free"},{"bike_id":"96a7edd1-c6e9-4031-97df-43cf06b90a48","system_id":"levelo_inurba_marseille","lat":43.28443,"lon":5.39204,"is_reserved":false,"is_disabled":false,"rental_uris":{"android":"levelo://app?vid=96a7edd1-c6e9-4031-97df-43cf06b90a48","ios":"levelo://app?vid=96a7edd1-c6e9-4031-97df-43cf06b90a48"},"vehicle_type_id":"4","last_reported":1685898296,"current_range_meters":20000,"station_id":"ce4bhoh2rcd13ifvqh5g","pricing_plan_id":"free"},{"bike_id":"6603e610-9d1d-4fda-9ac9-67fc75fd9cdd","system_id":"levelo_inurba_marseille","lat":43.28573,"lon":5.394992,"is_reserved":false,"is_disabled":false,"rental_uris":{"android":"levelo://app?vid=6603e610-9d1d-4fda-9ac9-67fc75fd9cdd","ios":"levelo://app?vid=6603e610-9d1d-4fda-9ac9-67fc75fd9cdd"},"vehicle_type_id":"4","last_reported":1685898296,"current_range_meters":24000,"station_id":"ce4bh292rcd13ifvqdg0","pricing_plan_id":"free"},{"bike_id":"17988c9c-9ea6-40e7-a6cf-b7fcd79a6a86","system_id":"levelo_inurba_marseille","lat":43.287154,"lon":5.399979,"is_reserved":false,"is_disabled":false,"rental_uris":{"android":"levelo://app?vid=17988c9c-9ea6-40e7-a6cf-b7fcd79a6a86","ios":"levelo://app?vid=17988c9c-9ea6-40e7-a6cf-b7fcd79a6a86"},"vehicle_type_id":"4","last_reported":1685898296,"current_range_meters":800,"station_id":"ce4bho92rcd13ifvqh3g","pricing_plan_id":"free"},{"bike_id":"a1087086-74df-49f8-ba06-0ad48a59311c","system_id":"levelo_inurba_marseille","lat":43.287154,"lon":5.399979,"is_reserved":false,"is_disabled":false,"rental_uris":{"android":"levelo://app?vid=a1087086-74df-49f8-ba06-0ad48a59311c","ios":"levelo://app?vid=a1087086-74df-49f8-ba06-0ad48a59311c"},"vehicle_type_id":"4","last_reported":1685898296,"current_range_meters":23200,"station_id":"ce4bho92rcd13ifvqh3g","pricing_plan_id":"free"},{"bike_id":"d0af90bf-a9d6-4e0a-bb03-ec3a7c4a21ff","system_id":"levelo_inurba_marseille","lat":43.320045,"lon":5.415046,"is_reserved":false,"is_disabled":false,"rental_uris":{"android":"levelo://app?vid=d0af90bf-a9d6-4e0a-bb03-ec3a7c4a21ff","ios":"levelo://app?vid=d0af90bf-a9d6-4e0a-bb03-ec3a7c4a21ff"},"vehicle_type_id":"4","last_reported":1685898296,"current_range_meters":31600,"station_id":"ce4bhq92rcd13ifvqhkg","pricing_plan_id":"free"},{"bike_id":"8f583682-bb3f-4a61-94d0-accd616865d0","system_id":"levelo_inurba_marseille","lat":43.32058,"lon":5.41557,"is_reserved":false,"is_disabled":false,"rental_uris":{"android":"levelo://app?vid=8f583682-bb3f-4a61-94d0-accd616865d0","ios":"levelo://app?vid=8f583682-bb3f-4a61-94d0-accd616865d0"},"vehicle_type_id":"4","last_reported":1685898296,"current_range_meters":21200,"station_id":"","pricing_plan_id":"free"},{"bike_id":"f3fe6d10-5bd1-464a-a33e-b928a7c130db","system_id":"levelo_inurba_marseille","lat":43.320045,"lon":5.415046,"is_reserved":false,"is_disabled":false,"rental_uris":{"android":"levelo://app?vid=f3fe6d10-5bd1-464a-a33e-b928a7c130db","ios":"levelo://app?vid=f3fe6d10-5bd1-464a-a33e-b928a7c130db"},"vehicle_type_id":"4","last_reported":1685898296,"current_range_meters":11200,"station_id":"ce4bhq92rcd13ifvqhkg","pricing_plan_id":"free"},{"bike_id":"781b2f7b-81ba-4c34-9163-b045dafe359c","system_id":"levelo_inurba_marseille","lat":43.32035,"lon":5.41566,"is_reserved":false,"is_disabled":false,"rental_uris":{"android":"levelo://app?vid=781b2f7b-81ba-4c34-9163-b045dafe359c","ios":"levelo://app?vid=781b2f7b-81ba-4c34-9163-b045dafe359c"},"vehicle_type_id":"4","last_reported":1685898296,"current_range_meters":31200,"station_id":"","pricing_plan_id":"free"},{"bike_id":"0c739346-4d08-4d79-a607-c879a11b59ec","system_id":"levelo_inurba_marseille","lat":43.3204,"lon":5.41567,"is_reserved":false,"is_disabled":false,"rental_uris":{"android":"levelo://app?vid=0c739346-4d08-4d79-a607-c879a11b59ec","ios":"levelo://app?vid=0c739346-4d08-4d79-a607-c879a11b59ec"},"vehicle_type_id":"4","last_reported":1685898296,"current_range_meters":29600,"station_id":"","pricing_plan_id":"free"},{"bike_id":"15292a35-debd-4d55-ab66-e14fe147b2b9","system_id":"levelo_inurba_marseille","lat":43.32039,"lon":5.41568,"is_reserved":false,"is_disabled":false,"rental_uris":{"android":"levelo://app?vid=15292a35-debd-4d55-ab66-e14fe147b2b9","ios":"levelo://app?vid=15292a35-debd-4d55-ab66-e14fe147b2b9"},"vehicle_type_id":"4","last_reported":1685898296,"current_range_meters":31200,"station_id":"","pricing_plan_id":"free"},{"bike_id":"d87c4170-9846-4bf6-aec8-6aaf25824d18","system_id":"levelo_inurba_marseille","lat":43.320336,"lon":5.415704,"is_reserved":false,"is_disabled":false,"rental_uris":{"android":"levelo://app?vid=d87c4170-9846-4bf6-aec8-6aaf25824d18","ios":"levelo://app?vid=d87c4170-9846-4bf6-aec8-6aaf25824d18"},"vehicle_type_id":"4","last_reported":1685898296,"current_range_meters":12000,"station_id":"","pricing_plan_id":"free"},{"bike_id":"ae6cf5cf-9fd5-42c0-8466-eb012fc96d25","system_id":"levelo_inurba_marseille","lat":43.32035,"lon":5.41572,"is_reserved":false,"is_disabled":false,"rental_uris":{"android":"levelo://app?vid=ae6cf5cf-9fd5-42c0-8466-eb012fc96d25","ios":"levelo://app?vid=ae6cf5cf-9fd5-42c0-8466-eb012fc96d25"},"vehicle_type_id":"4","last_reported":1685898296,"current_range_meters":31200,"station_id":"","pricing_plan_id":"free"},{"bike_id":"85080033-a16e-4ce2-a186-35d0563746cb","system_id":"levelo_inurba_marseille","lat":43.32044,"lon":5.41574,"is_reserved":false,"is_disabled":false,"rental_uris":{"android":"levelo://app?vid=85080033-a16e-4ce2-a186-35d0563746cb","ios":"levelo://app?vid=85080033-a16e-4ce2-a186-35d0563746cb"},"vehicle_type_id":"4","last_reported":1685898296,"current_range_meters":29600,"station_id":"","pricing_plan_id":"free"},{"bike_id":"90bba347-a77d-4079-939e-cb26e4e3ebc0","system_id":"levelo_inurba_marseille","lat":43.320045,"lon":5.415046,"is_reserved":false,"is_disabled":false,"rental_uris":{"android":"levelo://app?vid=90bba347-a77d-4079-939e-cb26e4e3ebc0","ios":"levelo://app?vid=90bba347-a77d-4079-939e-cb26e4e3ebc0"},"vehicle_type_id":"4","last_reported":1685898296,"current_range_meters":25200,"station_id":"ce4bhq92rcd13ifvqhkg","pricing_plan_id":"free"},{"bike_id":"bc4dc0e7-b26e-44c4-b47d-2893123703b2","system_id":"levelo_inurba_marseille","lat":43.32046,"lon":5.4158,"is_reserved":false,"is_disabled":false,"rental_uris":{"android":"levelo://app?vid=bc4dc0e7-b26e-44c4-b47d-2893123703b2","ios":"levelo://app?vid=bc4dc0e7-b26e-44c4-b47d-2893123703b2"},"vehicle_type_id":"4","last_reported":1685898296,"current_range_meters":31200,"station_id":"","pricing_plan_id":"free"},{"bike_id":"2a229e04-85ab-4c93-be61-6b83d7244f18","system_id":"levelo_inurba_marseille","lat":43.292571,"lon":5.409107,"is_reserved":false,"is_disabled":false,"rental_uris":{"android":"levelo://app?vid=2a229e04-85ab-4c93-be61-6b83d7244f18","ios":"levelo://app?vid=2a229e04-85ab-4c93-be61-6b83d7244f18"},"vehicle_type_id":"4","last_reported":1685898296,"current_range_meters":22800,"station_id":"ce4bh192rcd13ifvqdc0","pricing_plan_id":"free"},{"bike_id":"a6712b89-d487-4a8e-8db7-a8c40dcbf8b0","system_id":"levelo_inurba_marseille","lat":43.276179,"lon":5.361009,"is_reserved":false,"is_disabled":false,"rental_uris":{"android":"levelo://app?vid=a6712b89-d487-4a8e-8db7-a8c40dcbf8b0","ios":"levelo://app?vid=a6712b89-d487-4a8e-8db7-a8c40dcbf8b0"},"vehicle_type_id":"4","last_reported":1685898296,"current_range_meters":8000,"station_id":"ce4bgj92rcd13ifvqbe0","pricing_plan_id":"free"},{"bike_id":"88baa385-1405-45c7-a878-d111e814a190","system_id":"levelo_inurba_marseille","lat":43.280784,"lon":5.396622,"is_reserved":false,"is_disabled":false,"rental_uris":{"android":"levelo://app?vid=88baa385-1405-45c7-a878-d111e814a190","ios":"levelo://app?vid=88baa385-1405-45c7-a878-d111e814a190"},"vehicle_type_id":"4","last_reported":1685898296,"current_range_meters":5200,"station_id":"ce4bho12rcd13ifvqh2g","pricing_plan_id":"free"},{"bike_id":"487f7800-7051-4a56-89c8-e5e16e3785a7","system_id":"levelo_inurba_marseille","lat":43.30355,"lon":5.41882,"is_reserved":false,"is_disabled":false,"rental_uris":{"android":"levelo://app?vid=487f7800-7051-4a56-89c8-e5e16e3785a7","ios":"levelo://app?vid=487f7800-7051-4a56-89c8-e5e16e3785a7"},"vehicle_type_id":"4","last_reported":1685898296,"current_range_meters":24400,"station_id":"","pricing_plan_id":"free"},{"bike_id":"1e31b915-8e8a-4e54-b8ca-ebb05e21c605","system_id":"levelo_inurba_marseille","lat":43.33612,"lon":5.410321,"is_reserved":false,"is_disabled":false,"rental_uris":{"android":"levelo://app?vid=1e31b915-8e8a-4e54-b8ca-ebb05e21c605","ios":"levelo://app?vid=1e31b915-8e8a-4e54-b8ca-ebb05e21c605"},"vehicle_type_id":"4","last_reported":1685898296,"current_range_meters":21600,"station_id":"ce4bhqh2rcd13ifvqhmg","pricing_plan_id":"free"},{"bike_id":"614248b1-45a8-4e50-888d-7fc5e10acfb3","system_id":"levelo_inurba_marseille","lat":43.31078,"lon":5.42438,"is_reserved":false,"is_disabled":false,"rental_uris":{"android":"levelo://app?vid=614248b1-45a8-4e50-888d-7fc5e10acfb3","ios":"levelo://app?vid=614248b1-45a8-4e50-888d-7fc5e10acfb3"},"vehicle_type_id":"4","last_reported":1685898296,"current_range_meters":23200,"station_id":"ce4bhp92rcd13ifvqhag","pricing_plan_id":"free"},{"bike_id":"c4b5dd40-68ed-4b2a-978e-3db11b46faea","system_id":"levelo_inurba_marseille","lat":43.31077,"lon":5.42438,"is_reserved":false,"is_disabled":false,"rental_uris":{"android":"levelo://app?vid=c4b5dd40-68ed-4b2a-978e-3db11b46faea","ios":"levelo://app?vid=c4b5dd40-68ed-4b2a-978e-3db11b46faea"},"vehicle_type_id":"4","last_reported":1685898296,"current_range_meters":31200,"station_id":"ce4bhp92rcd13ifvqhag","pricing_plan_id":"free"},{"bike_id":"ca64bed7-0455-4a75-9384-6f4bb75fe4ac","system_id":"levelo_inurba_marseille","lat":43.31081,"lon":5.42442,"is_reserved":false,"is_disabled":false,"rental_uris":{"android":"levelo://app?vid=ca64bed7-0455-4a75-9384-6f4bb75fe4ac","ios":"levelo://app?vid=ca64bed7-0455-4a75-9384-6f4bb75fe4ac"},"vehicle_type_id":"4","last_reported":1685898296,"current_range_meters":19600,"station_id":"ce4bhp92rcd13ifvqhag","pricing_plan_id":"free"},{"bike_id":"9db9545d-f63d-42be-a674-9c25625f916b","system_id":"levelo_inurba_marseille","lat":43.29396,"lon":5.4194,"is_reserved":false,"is_disabled":false,"rental_uris":{"android":"levelo://app?vid=9db9545d-f63d-42be-a674-9c25625f916b","ios":"levelo://app?vid=9db9545d-f63d-42be-a674-9c25625f916b"},"vehicle_type_id":"4","last_reported":1685898296,"current_range_meters":7200,"station_id":"","pricing_plan_id":"free"},{"bike_id":"a073e24e-6eb6-4ba6-8e5b-74c3e5ed65b0","system_id":"levelo_inurba_marseille","lat":43.273129,"lon":5.390725,"is_reserved":false,"is_disabled":false,"rental_uris":{"android":"levelo://app?vid=a073e24e-6eb6-4ba6-8e5b-74c3e5ed65b0","ios":"levelo://app?vid=a073e24e-6eb6-4ba6-8e5b-74c3e5ed65b0"},"vehicle_type_id":"4","last_reported":1685898296,"current_range_meters":4800,"station_id":"ce4bhgp2rcd13ifvqfe0","pricing_plan_id":"free"},{"bike_id":"ebc54755-5452-4d86-82b8-e9c7aa5b9687","system_id":"levelo_inurba_marseille","lat":43.273129,"lon":5.390725,"is_reserved":false,"is_disabled":false,"rental_uris":{"android":"levelo://app?vid=ebc54755-5452-4d86-82b8-e9c7aa5b9687","ios":"levelo://app?vid=ebc54755-5452-4d86-82b8-e9c7aa5b9687"},"vehicle_type_id":"4","last_reported":1685898296,"current_range_meters":3600,"station_id":"ce4bhgp2rcd13ifvqfe0","pricing_plan_id":"free"},{"bike_id":"4d905e37-a808-4a73-a04a-3fc367476fb4","system_id":"levelo_inurba_marseille","lat":43.304096,"lon":5.425385,"is_reserved":false,"is_disabled":false,"rental_uris":{"android":"levelo://app?vid=4d905e37-a808-4a73-a04a-3fc367476fb4","ios":"levelo://app?vid=4d905e37-a808-4a73-a04a-3fc367476fb4"},"vehicle_type_id":"4","last_reported":1685898296,"current_range_meters":1200,"station_id":"ce4bhoh2rcd13ifvqh6g","pricing_plan_id":"free"},{"bike_id":"4d80717c-1ab1-4ff1-8e16-4b8981f90281","system_id":"levelo_inurba_marseille","lat":43.32713,"lon":5.4235,"is_reserved":false,"is_disabled":false,"rental_uris":{"android":"levelo://app?vid=4d80717c-1ab1-4ff1-8e16-4b8981f90281","ios":"levelo://app?vid=4d80717c-1ab1-4ff1-8e16-4b8981f90281"},"vehicle_type_id":"4","last_reported":1685898296,"current_range_meters":25600,"station_id":"","pricing_plan_id":"free"},{"bike_id":"629ddbd0-7d9b-4dc0-a7eb-09e1d9540a47","system_id":"levelo_inurba_marseille","lat":43.27113,"lon":5.38725,"is_reserved":false,"is_disabled":false,"rental_uris":{"android":"levelo://app?vid=629ddbd0-7d9b-4dc0-a7eb-09e1d9540a47","ios":"levelo://app?vid=629ddbd0-7d9b-4dc0-a7eb-09e1d9540a47"},"vehicle_type_id":"4","last_reported":1685898296,"current_range_meters":19600,"station_id":"","pricing_plan_id":"free"},{"bike_id":"12e32508-d087-4fb5-b483-3b2a5b65861e","system_id":"levelo_inurba_marseille","lat":43.27111,"lon":5.38718,"is_reserved":false,"is_disabled":false,"rental_uris":{"android":"levelo://app?vid=12e32508-d087-4fb5-b483-3b2a5b65861e","ios":"levelo://app?vid=12e32508-d087-4fb5-b483-3b2a5b65861e"},"vehicle_type_id":"4","last_reported":1685898296,"current_range_meters":28400,"station_id":"","pricing_plan_id":"free"},{"bike_id":"fea8e139-a0cf-47e5-8076-a018d242d38c","system_id":"levelo_inurba_marseille","lat":43.2721,"lon":5.39133,"is_reserved":false,"is_disabled":false,"rental_uris":{"android":"levelo://app?vid=fea8e139-a0cf-47e5-8076-a018d242d38c","ios":"levelo://app?vid=fea8e139-a0cf-47e5-8076-a018d242d38c"},"vehicle_type_id":"4","last_reported":1685898296,"current_range_meters":9600,"station_id":"","pricing_plan_id":"free"},{"bike_id":"7003f1f1-7e7d-4c88-bbde-bd54a2779e7c","system_id":"levelo_inurba_marseille","lat":43.272124,"lon":5.391768,"is_reserved":false,"is_disabled":false,"rental_uris":{"android":"levelo://app?vid=7003f1f1-7e7d-4c88-bbde-bd54a2779e7c","ios":"levelo://app?vid=7003f1f1-7e7d-4c88-bbde-bd54a2779e7c"},"vehicle_type_id":"4","last_reported":1685898296,"current_range_meters":18800,"station_id":"ce4bhhp2rcd13ifvqfm0","pricing_plan_id":"free"},{"bike_id":"1fc13570-ebf3-4949-9732-b540e5441407","system_id":"levelo_inurba_marseille","lat":43.272116,"lon":5.391747,"is_reserved":false,"is_disabled":false,"rental_uris":{"android":"levelo://app?vid=1fc13570-ebf3-4949-9732-b540e5441407","ios":"levelo://app?vid=1fc13570-ebf3-4949-9732-b540e5441407"},"vehicle_type_id":"4","last_reported":1685898296,"current_range_meters":6400,"station_id":"ce4bhhp2rcd13ifvqfm0","pricing_plan_id":"free"},{"bike_id":"a8f2c9d9-8f54-4617-a3c8-6c180f79f663","system_id":"levelo_inurba_marseille","lat":43.278128,"lon":5.407195,"is_reserved":false,"is_disabled":false,"rental_uris":{"android":"levelo://app?vid=a8f2c9d9-8f54-4617-a3c8-6c180f79f663","ios":"levelo://app?vid=a8f2c9d9-8f54-4617-a3c8-6c180f79f663"},"vehicle_type_id":"4","last_reported":1685898296,"current_range_meters":26000,"station_id":"ce4bhnh2rcd13ifvqgtg","pricing_plan_id":"free"},{"bike_id":"f1da93e0-03d2-48e7-88ab-529255bfc5e1","system_id":"levelo_inurba_marseille","lat":43.269319,"lon":5.389397,"is_reserved":false,"is_disabled":false,"rental_uris":{"android":"levelo://app?vid=f1da93e0-03d2-48e7-88ab-529255bfc5e1","ios":"levelo://app?vid=f1da93e0-03d2-48e7-88ab-529255bfc5e1"},"vehicle_type_id":"4","last_reported":1685898296,"current_range_meters":15600,"station_id":"ce4bhhh2rcd13ifvqfl0","pricing_plan_id":"free"},{"bike_id":"b750c1d2-e7fa-4d2a-abd5-a21b59a6f8b6","system_id":"levelo_inurba_marseille","lat":43.265714,"lon":5.372891,"is_reserved":false,"is_disabled":false,"rental_uris":{"android":"levelo://app?vid=b750c1d2-e7fa-4d2a-abd5-a21b59a6f8b6","ios":"levelo://app?vid=b750c1d2-e7fa-4d2a-abd5-a21b59a6f8b6"},"vehicle_type_id":"4","last_reported":1685898296,"current_range_meters":8800,"station_id":"ce4bhg12rcd13ifvqf70","pricing_plan_id":"free"},{"bike_id":"c3a362c8-d464-4dcb-89e2-ae8fc8a80997","system_id":"levelo_inurba_marseille","lat":43.26553,"lon":5.37282,"is_reserved":false,"is_disabled":false,"rental_uris":{"android":"levelo://app?vid=c3a362c8-d464-4dcb-89e2-ae8fc8a80997","ios":"levelo://app?vid=c3a362c8-d464-4dcb-89e2-ae8fc8a80997"},"vehicle_type_id":"4","last_reported":1685898296,"current_range_meters":6400,"station_id":"ce4bhg12rcd13ifvqf70","pricing_plan_id":"free"},{"bike_id":"477c9b24-a1bd-4af2-9e3a-7a10b9af13d1","system_id":"levelo_inurba_marseille","lat":43.31704,"lon":5.43325,"is_reserved":false,"is_disabled":false,"rental_uris":{"android":"levelo://app?vid=477c9b24-a1bd-4af2-9e3a-7a10b9af13d1","ios":"levelo://app?vid=477c9b24-a1bd-4af2-9e3a-7a10b9af13d1"},"vehicle_type_id":"4","last_reported":1685898296,"current_range_meters":0,"station_id":"","pricing_plan_id":"free"},{"bike_id":"f69d29f6-21ef-4c7d-b395-eec33ee72014","system_id":"levelo_inurba_marseille","lat":43.27996,"lon":5.416624,"is_reserved":false,"is_disabled":false,"rental_uris":{"android":"levelo://app?vid=f69d29f6-21ef-4c7d-b395-eec33ee72014","ios":"levelo://app?vid=f69d29f6-21ef-4c7d-b395-eec33ee72014"},"vehicle_type_id":"4","last_reported":1685898296,"current_range_meters":0,"station_id":"ce4bho12rcd13ifvqh1g","pricing_plan_id":"free"},{"bike_id":"d711aa59-4f57-4c61-ad30-07359f4c2751","system_id":"levelo_inurba_marseille","lat":43.27996,"lon":5.416624,"is_reserved":false,"is_disabled":false,"rental_uris":{"android":"levelo://app?vid=d711aa59-4f57-4c61-ad30-07359f4c2751","ios":"levelo://app?vid=d711aa59-4f57-4c61-ad30-07359f4c2751"},"vehicle_type_id":"4","last_reported":1685898296,"current_range_meters":3200,"station_id":"ce4bho12rcd13ifvqh1g","pricing_plan_id":"free"},{"bike_id":"57143554-6bd2-4ac3-a9a3-581bc0ed1a91","system_id":"levelo_inurba_marseille","lat":43.27996,"lon":5.416624,"is_reserved":false,"is_disabled":false,"rental_uris":{"android":"levelo://app?vid=57143554-6bd2-4ac3-a9a3-581bc0ed1a91","ios":"levelo://app?vid=57143554-6bd2-4ac3-a9a3-581bc0ed1a91"},"vehicle_type_id":"4","last_reported":1685898296,"current_range_meters":25600,"station_id":"ce4bho12rcd13ifvqh1g","pricing_plan_id":"free"},{"bike_id":"49b21e3a-5ba5-44b4-a97e-addecb9cc27b","system_id":"levelo_inurba_marseille","lat":43.27996,"lon":5.416624,"is_reserved":false,"is_disabled":false,"rental_uris":{"android":"levelo://app?vid=49b21e3a-5ba5-44b4-a97e-addecb9cc27b","ios":"levelo://app?vid=49b21e3a-5ba5-44b4-a97e-addecb9cc27b"},"vehicle_type_id":"4","last_reported":1685898296,"current_range_meters":29600,"station_id":"ce4bho12rcd13ifvqh1g","pricing_plan_id":"free"},{"bike_id":"0c74f5d0-f243-4e2d-8eed-c37ce69f6206","system_id":"levelo_inurba_marseille","lat":43.267966,"lon":5.393976,"is_reserved":false,"is_disabled":false,"rental_uris":{"android":"levelo://app?vid=0c74f5d0-f243-4e2d-8eed-c37ce69f6206","ios":"levelo://app?vid=0c74f5d0-f243-4e2d-8eed-c37ce69f6206"},"vehicle_type_id":"4","last_reported":1685898296,"current_range_meters":19600,"station_id":"ce4bhh12rcd13ifvqfg0","pricing_plan_id":"free"},{"bike_id":"f5236276-e859-4218-87e7-aabdce2e73d3","system_id":"levelo_inurba_marseille","lat":43.26209,"lon":5.37046,"is_reserved":false,"is_disabled":false,"rental_uris":{"android":"levelo://app?vid=f5236276-e859-4218-87e7-aabdce2e73d3","ios":"levelo://app?vid=f5236276-e859-4218-87e7-aabdce2e73d3"},"vehicle_type_id":"4","last_reported":1685898296,"current_range_meters":9200,"station_id":"","pricing_plan_id":"free"},{"bike_id":"11ed92a7-411c-4a89-88db-a112c0b22a0b","system_id":"levelo_inurba_marseille","lat":43.26184,"lon":5.37443,"is_reserved":false,"is_disabled":false,"rental_uris":{"android":"levelo://app?vid=11ed92a7-411c-4a89-88db-a112c0b22a0b","ios":"levelo://app?vid=11ed92a7-411c-4a89-88db-a112c0b22a0b"},"vehicle_type_id":"4","last_reported":1685898296,"current_range_meters":1600,"station_id":"ce4bhgp2rcd13ifvqfc0","pricing_plan_id":"free"},{"bike_id":"2a48043e-0223-418b-bf9b-d91374083f1f","system_id":"levelo_inurba_marseille","lat":43.317104,"lon":5.436818,"is_reserved":false,"is_disabled":false,"rental_uris":{"android":"levelo://app?vid=2a48043e-0223-418b-bf9b-d91374083f1f","ios":"levelo://app?vid=2a48043e-0223-418b-bf9b-d91374083f1f"},"vehicle_type_id":"4","last_reported":1685898296,"current_range_meters":24400,"station_id":"ce4bhp92rcd13ifvqhcg","pricing_plan_id":"free"},{"bike_id":"c2b397fb-dd16-4a5f-9688-8c8813307451","system_id":"levelo_inurba_marseille","lat":43.317104,"lon":5.436818,"is_reserved":false,"is_disabled":false,"rental_uris":{"android":"levelo://app?vid=c2b397fb-dd16-4a5f-9688-8c8813307451","ios":"levelo://app?vid=c2b397fb-dd16-4a5f-9688-8c8813307451"},"vehicle_type_id":"4","last_reported":1685898296,"current_range_meters":29200,"station_id":"ce4bhp92rcd13ifvqhcg","pricing_plan_id":"free"},{"bike_id":"6c3aba5a-9bd9-4645-8fde-1b923c089b7d","system_id":"levelo_inurba_marseille","lat":43.267959,"lon":5.402685,"is_reserved":false,"is_disabled":false,"rental_uris":{"android":"levelo://app?vid=6c3aba5a-9bd9-4645-8fde-1b923c089b7d","ios":"levelo://app?vid=6c3aba5a-9bd9-4645-8fde-1b923c089b7d"},"vehicle_type_id":"4","last_reported":1685898296,"current_range_meters":1200,"station_id":"ce501612rcd8frsf0b60","pricing_plan_id":"free"},{"bike_id":"6f4c1925-aeb4-4e28-bb77-e626fa8a1c4c","system_id":"levelo_inurba_marseille","lat":43.298768,"lon":5.43643,"is_reserved":false,"is_disabled":false,"rental_uris":{"android":"levelo://app?vid=6f4c1925-aeb4-4e28-bb77-e626fa8a1c4c","ios":"levelo://app?vid=6f4c1925-aeb4-4e28-bb77-e626fa8a1c4c"},"vehicle_type_id":"4","last_reported":1685898296,"current_range_meters":400,"station_id":"ce4bhpp2rcd13ifvqhfg","pricing_plan_id":"free"},{"bike_id":"b09da78d-aa40-4c04-81f0-caea31d376b6","system_id":"levelo_inurba_marseille","lat":43.260219,"lon":5.37546,"is_reserved":false,"is_disabled":false,"rental_uris":{"android":"levelo://app?vid=b09da78d-aa40-4c04-81f0-caea31d376b6","ios":"levelo://app?vid=b09da78d-aa40-4c04-81f0-caea31d376b6"},"vehicle_type_id":"4","last_reported":1685898296,"current_range_meters":2000,"station_id":"ce4bhgh2rcd13ifvqfa0","pricing_plan_id":"free"},{"bike_id":"258216bc-9c1f-474c-9c73-479637b215c8","system_id":"levelo_inurba_marseille","lat":43.2607,"lon":5.393983,"is_reserved":false,"is_disabled":false,"rental_uris":{"android":"levelo://app?vid=258216bc-9c1f-474c-9c73-479637b215c8","ios":"levelo://app?vid=258216bc-9c1f-474c-9c73-479637b215c8"},"vehicle_type_id":"4","last_reported":1685898296,"current_range_meters":6400,"station_id":"ce4bhh92rcd13ifvqfj0","pricing_plan_id":"free"},{"bike_id":"ae6a119d-3fa5-4fbd-b2b5-a3d02386a2b8","system_id":"levelo_inurba_marseille","lat":43.2607,"lon":5.393983,"is_reserved":false,"is_disabled":false,"rental_uris":{"android":"levelo://app?vid=ae6a119d-3fa5-4fbd-b2b5-a3d02386a2b8","ios":"levelo://app?vid=ae6a119d-3fa5-4fbd-b2b5-a3d02386a2b8"},"vehicle_type_id":"4","last_reported":1685898296,"current_range_meters":0,"station_id":"ce4bhh92rcd13ifvqfj0","pricing_plan_id":"free"},{"bike_id":"9ff073fc-db21-45f9-9972-a487126c7a95","system_id":"levelo_inurba_marseille","lat":43.2607,"lon":5.393983,"is_reserved":false,"is_disabled":false,"rental_uris":{"android":"levelo://app?vid=9ff073fc-db21-45f9-9972-a487126c7a95","ios":"levelo://app?vid=9ff073fc-db21-45f9-9972-a487126c7a95"},"vehicle_type_id":"4","last_reported":1685898296,"current_range_meters":22800,"station_id":"ce4bhh92rcd13ifvqfj0","pricing_plan_id":"free"},{"bike_id":"c0017406-555c-41f0-a788-fcaf5f67b3c6","system_id":"levelo_inurba_marseille","lat":43.27081,"lon":5.4228,"is_reserved":false,"is_disabled":false,"rental_uris":{"android":"levelo://app?vid=c0017406-555c-41f0-a788-fcaf5f67b3c6","ios":"levelo://app?vid=c0017406-555c-41f0-a788-fcaf5f67b3c6"},"vehicle_type_id":"4","last_reported":1685898296,"current_range_meters":29200,"station_id":"ce4bhk92rcd13ifvqgb0","pricing_plan_id":"free"},{"bike_id":"0b2e7a19-1538-43bf-9f9d-718dead8b83e","system_id":"levelo_inurba_marseille","lat":43.27084,"lon":5.42285,"is_reserved":false,"is_disabled":false,"rental_uris":{"android":"levelo://app?vid=0b2e7a19-1538-43bf-9f9d-718dead8b83e","ios":"levelo://app?vid=0b2e7a19-1538-43bf-9f9d-718dead8b83e"},"vehicle_type_id":"4","last_reported":1685898296,"current_range_meters":29200,"station_id":"ce4bhk92rcd13ifvqgb0","pricing_plan_id":"free"},{"bike_id":"8f87b84b-9bce-42d0-b2f6-5811a0549e80","system_id":"levelo_inurba_marseille","lat":43.27072,"lon":5.42278,"is_reserved":false,"is_disabled":false,"rental_uris":{"android":"levelo://app?vid=8f87b84b-9bce-42d0-b2f6-5811a0549e80","ios":"levelo://app?vid=8f87b84b-9bce-42d0-b2f6-5811a0549e80"},"vehicle_type_id":"4","last_reported":1685898296,"current_range_meters":29200,"station_id":"ce4bhk92rcd13ifvqgb0","pricing_plan_id":"free"},{"bike_id":"9d8211f6-74ca-4d7f-8a5d-e649f5c73955","system_id":"levelo_inurba_marseille","lat":43.27069,"lon":5.4228,"is_reserved":false,"is_disabled":false,"rental_uris":{"android":"levelo://app?vid=9d8211f6-74ca-4d7f-8a5d-e649f5c73955","ios":"levelo://app?vid=9d8211f6-74ca-4d7f-8a5d-e649f5c73955"},"vehicle_type_id":"4","last_reported":1685898296,"current_range_meters":8400,"station_id":"ce4bhk92rcd13ifvqgb0","pricing_plan_id":"free"},{"bike_id":"06210bb0-1c2f-44c9-a2f5-d6b247a20695","system_id":"levelo_inurba_marseille","lat":43.33318,"lon":5.44288,"is_reserved":false,"is_disabled":false,"rental_uris":{"android":"levelo://app?vid=06210bb0-1c2f-44c9-a2f5-d6b247a20695","ios":"levelo://app?vid=06210bb0-1c2f-44c9-a2f5-d6b247a20695"},"vehicle_type_id":"4","last_reported":1685898296,"current_range_meters":28800,"station_id":"","pricing_plan_id":"free"},{"bike_id":"8a065f1c-914c-4e39-9a27-b733ec5a900d","system_id":"levelo_inurba_marseille","lat":43.2529,"lon":5.37881,"is_reserved":false,"is_disabled":false,"rental_uris":{"android":"levelo://app?vid=8a065f1c-914c-4e39-9a27-b733ec5a900d","ios":"levelo://app?vid=8a065f1c-914c-4e39-9a27-b733ec5a900d"},"vehicle_type_id":"4","last_reported":1685898296,"current_range_meters":22000,"station_id":"","pricing_plan_id":"free"},{"bike_id":"161b4f00-00d6-4759-9f2a-2d5cfa704ea4","system_id":"levelo_inurba_marseille","lat":43.259009,"lon":5.40929,"is_reserved":false,"is_disabled":false,"rental_uris":{"android":"levelo://app?vid=161b4f00-00d6-4759-9f2a-2d5cfa704ea4","ios":"levelo://app?vid=161b4f00-00d6-4759-9f2a-2d5cfa704ea4"},"vehicle_type_id":"4","last_reported":1685898296,"current_range_meters":1600,"station_id":"ce4bhm92rcd13ifvqglg","pricing_plan_id":"free"},{"bike_id":"33e81459-8629-4b64-b95c-a02b3080d474","system_id":"levelo_inurba_marseille","lat":43.259013,"lon":5.409301,"is_reserved":false,"is_disabled":false,"rental_uris":{"android":"levelo://app?vid=33e81459-8629-4b64-b95c-a02b3080d474","ios":"levelo://app?vid=33e81459-8629-4b64-b95c-a02b3080d474"},"vehicle_type_id":"4","last_reported":1685898296,"current_range_meters":16800,"station_id":"ce4bhm92rcd13ifvqglg","pricing_plan_id":"free"},{"bike_id":"8e92b759-e687-4bab-9c06-b625bf0e206f","system_id":"levelo_inurba_marseille","lat":43.24814,"lon":5.37454,"is_reserved":false,"is_disabled":false,"rental_uris":{"android":"levelo://app?vid=8e92b759-e687-4bab-9c06-b625bf0e206f","ios":"levelo://app?vid=8e92b759-e687-4bab-9c06-b625bf0e206f"},"vehicle_type_id":"4","last_reported":1685898296,"current_range_meters":10000,"station_id":"","pricing_plan_id":"free"},{"bike_id":"3d70436d-4c91-416b-a752-232889d5d2d0","system_id":"levelo_inurba_marseille","lat":43.24812,"lon":5.37458,"is_reserved":false,"is_disabled":false,"rental_uris":{"android":"levelo://app?vid=3d70436d-4c91-416b-a752-232889d5d2d0","ios":"levelo://app?vid=3d70436d-4c91-416b-a752-232889d5d2d0"},"vehicle_type_id":"4","last_reported":1685898296,"current_range_meters":29200,"station_id":"ce4bhgh2rcd13ifvqfb0","pricing_plan_id":"free"},{"bike_id":"a0a5e8e3-015d-46a6-ba0a-834ebf706b18","system_id":"levelo_inurba_marseille","lat":43.24812,"lon":5.37461,"is_reserved":false,"is_disabled":false,"rental_uris":{"android":"levelo://app?vid=a0a5e8e3-015d-46a6-ba0a-834ebf706b18","ios":"levelo://app?vid=a0a5e8e3-015d-46a6-ba0a-834ebf706b18"},"vehicle_type_id":"4","last_reported":1685898296,"current_range_meters":3200,"station_id":"","pricing_plan_id":"free"},{"bike_id":"dc4c9f9b-8e6a-457e-a4db-9dd92f0336ba","system_id":"levelo_inurba_marseille","lat":43.2479,"lon":5.374457,"is_reserved":false,"is_disabled":false,"rental_uris":{"android":"levelo://app?vid=dc4c9f9b-8e6a-457e-a4db-9dd92f0336ba","ios":"levelo://app?vid=dc4c9f9b-8e6a-457e-a4db-9dd92f0336ba"},"vehicle_type_id":"4","last_reported":1685898296,"current_range_meters":25200,"station_id":"ce4bhgh2rcd13ifvqfb0","pricing_plan_id":"free"},{"bike_id":"058d48de-be8f-4a3d-bb83-388d1cf547e0","system_id":"levelo_inurba_marseille","lat":43.24805,"lon":5.3746,"is_reserved":false,"is_disabled":false,"rental_uris":{"android":"levelo://app?vid=058d48de-be8f-4a3d-bb83-388d1cf547e0","ios":"levelo://app?vid=058d48de-be8f-4a3d-bb83-388d1cf547e0"},"vehicle_type_id":"4","last_reported":1685898296,"current_range_meters":0,"station_id":"ce4bhgh2rcd13ifvqfb0","pricing_plan_id":"free"},{"bike_id":"ed1f625e-6f8a-486a-95f5-0e82d6633078","system_id":"levelo_inurba_marseille","lat":43.250966,"lon":5.395186,"is_reserved":false,"is_disabled":false,"rental_uris":{"android":"levelo://app?vid=ed1f625e-6f8a-486a-95f5-0e82d6633078","ios":"levelo://app?vid=ed1f625e-6f8a-486a-95f5-0e82d6633078"},"vehicle_type_id":"4","last_reported":1685898296,"current_range_meters":14000,"station_id":"ce4bhm12rcd13ifvqgkg","pricing_plan_id":"free"},{"bike_id":"5afecec3-e341-4b63-b11d-be3f0fa60e2f","system_id":"levelo_inurba_marseille","lat":43.24693,"lon":5.382096,"is_reserved":false,"is_disabled":false,"rental_uris":{"android":"levelo://app?vid=5afecec3-e341-4b63-b11d-be3f0fa60e2f","ios":"levelo://app?vid=5afecec3-e341-4b63-b11d-be3f0fa60e2f"},"vehicle_type_id":"4","last_reported":1685898296,"current_range_meters":23200,"station_id":"ce4bhih2rcd13ifvqfr0","pricing_plan_id":"free"},{"bike_id":"bc707ff4-64ea-4dec-b360-a8ff759a08cd","system_id":"levelo_inurba_marseille","lat":43.24666,"lon":5.38165,"is_reserved":false,"is_disabled":false,"rental_uris":{"android":"levelo://app?vid=bc707ff4-64ea-4dec-b360-a8ff759a08cd","ios":"levelo://app?vid=bc707ff4-64ea-4dec-b360-a8ff759a08cd"},"vehicle_type_id":"4","last_reported":1685898296,"current_range_meters":12800,"station_id":"","pricing_plan_id":"free"},{"bike_id":"b8c3a8b2-b9dc-444d-ba2c-c42253de426d","system_id":"levelo_inurba_marseille","lat":43.25102,"lon":5.403214,"is_reserved":false,"is_disabled":false,"rental_uris":{"android":"levelo://app?vid=b8c3a8b2-b9dc-444d-ba2c-c42253de426d","ios":"levelo://app?vid=b8c3a8b2-b9dc-444d-ba2c-c42253de426d"},"vehicle_type_id":"4","last_reported":1685898296,"current_range_meters":800,"station_id":"ce4bhlh2rcd13ifvqgig","pricing_plan_id":"free"},{"bike_id":"32ece69c-4d3f-4ada-9ce4-8c9bd9bf695a","system_id":"levelo_inurba_marseille","lat":43.25102,"lon":5.403214,"is_reserved":false,"is_disabled":false,"rental_uris":{"android":"levelo://app?vid=32ece69c-4d3f-4ada-9ce4-8c9bd9bf695a","ios":"levelo://app?vid=32ece69c-4d3f-4ada-9ce4-8c9bd9bf695a"},"vehicle_type_id":"4","last_reported":1685898296,"current_range_meters":9600,"station_id":"ce4bhlh2rcd13ifvqgig","pricing_plan_id":"free"},{"bike_id":"639dfbf7-1a8b-45bd-a250-ceba9135c29d","system_id":"levelo_inurba_marseille","lat":43.24693,"lon":5.382096,"is_reserved":false,"is_disabled":false,"rental_uris":{"android":"levelo://app?vid=639dfbf7-1a8b-45bd-a250-ceba9135c29d","ios":"levelo://app?vid=639dfbf7-1a8b-45bd-a250-ceba9135c29d"},"vehicle_type_id":"4","last_reported":1685898296,"current_range_meters":30400,"station_id":"ce4bhih2rcd13ifvqfr0","pricing_plan_id":"free"},{"bike_id":"984113de-fa23-414b-8fdf-b685976f430e","system_id":"levelo_inurba_marseille","lat":43.24693,"lon":5.382096,"is_reserved":false,"is_disabled":false,"rental_uris":{"android":"levelo://app?vid=984113de-fa23-414b-8fdf-b685976f430e","ios":"levelo://app?vid=984113de-fa23-414b-8fdf-b685976f430e"},"vehicle_type_id":"4","last_reported":1685898296,"current_range_meters":6000,"station_id":"ce4bhih2rcd13ifvqfr0","pricing_plan_id":"free"},{"bike_id":"300566af-4927-45e5-b380-2a0d6ee48cb9","system_id":"levelo_inurba_marseille","lat":43.25102,"lon":5.403214,"is_reserved":false,"is_disabled":false,"rental_uris":{"android":"levelo://app?vid=300566af-4927-45e5-b380-2a0d6ee48cb9","ios":"levelo://app?vid=300566af-4927-45e5-b380-2a0d6ee48cb9"},"vehicle_type_id":"4","last_reported":1685898296,"current_range_meters":18000,"station_id":"ce4bhlh2rcd13ifvqgig","pricing_plan_id":"free"},{"bike_id":"224bc477-78f4-4ff0-91b1-7d284adf3ff3","system_id":"levelo_inurba_marseille","lat":43.24649,"lon":5.38888,"is_reserved":false,"is_disabled":false,"rental_uris":{"android":"levelo://app?vid=224bc477-78f4-4ff0-91b1-7d284adf3ff3","ios":"levelo://app?vid=224bc477-78f4-4ff0-91b1-7d284adf3ff3"},"vehicle_type_id":"4","last_reported":1685898296,"current_range_meters":29600,"station_id":"ce4bhg12rcd13ifvqf60","pricing_plan_id":"free"},{"bike_id":"8ae77b5e-541a-4803-94e5-50e8fc075cbd","system_id":"levelo_inurba_marseille","lat":43.24457,"lon":5.36916,"is_reserved":false,"is_disabled":false,"rental_uris":{"android":"levelo://app?vid=8ae77b5e-541a-4803-94e5-50e8fc075cbd","ios":"levelo://app?vid=8ae77b5e-541a-4803-94e5-50e8fc075cbd"},"vehicle_type_id":"4","last_reported":1685898296,"current_range_meters":29600,"station_id":"","pricing_plan_id":"free"},{"bike_id":"9dd349a3-bfb2-4d90-908c-67f48d04c4e5","system_id":"levelo_inurba_marseille","lat":43.24625,"lon":5.39008,"is_reserved":false,"is_disabled":false,"rental_uris":{"android":"levelo://app?vid=9dd349a3-bfb2-4d90-908c-67f48d04c4e5","ios":"levelo://app?vid=9dd349a3-bfb2-4d90-908c-67f48d04c4e5"},"vehicle_type_id":"4","last_reported":1685898296,"current_range_meters":23200,"station_id":"","pricing_plan_id":"free"},{"bike_id":"f19d8a72-c419-4a51-ae62-bbbcb0e9bfb4","system_id":"levelo_inurba_marseille","lat":43.24613,"lon":5.39009,"is_reserved":false,"is_disabled":false,"rental_uris":{"android":"levelo://app?vid=f19d8a72-c419-4a51-ae62-bbbcb0e9bfb4","ios":"levelo://app?vid=f19d8a72-c419-4a51-ae62-bbbcb0e9bfb4"},"vehicle_type_id":"4","last_reported":1685898296,"current_range_meters":16000,"station_id":"","pricing_plan_id":"free"},{"bike_id":"46793d19-acf7-433e-978c-dcfd001c6599","system_id":"levelo_inurba_marseille","lat":43.2464,"lon":5.39178,"is_reserved":false,"is_disabled":false,"rental_uris":{"android":"levelo://app?vid=46793d19-acf7-433e-978c-dcfd001c6599","ios":"levelo://app?vid=46793d19-acf7-433e-978c-dcfd001c6599"},"vehicle_type_id":"4","last_reported":1685898296,"current_range_meters":5200,"station_id":"","pricing_plan_id":"free"},{"bike_id":"ad1925fd-5361-4f1e-96fc-cf30c3c8787b","system_id":"levelo_inurba_marseille","lat":43.243884,"lon":5.370737,"is_reserved":false,"is_disabled":false,"rental_uris":{"android":"levelo://app?vid=ad1925fd-5361-4f1e-96fc-cf30c3c8787b","ios":"levelo://app?vid=ad1925fd-5361-4f1e-96fc-cf30c3c8787b"},"vehicle_type_id":"4","last_reported":1685898296,"current_range_meters":18000,"station_id":"ce4bhhh2rcd13ifvqfk0","pricing_plan_id":"free"},{"bike_id":"2d3aba6d-33ff-46ce-804c-85ba01d4a514","system_id":"levelo_inurba_marseille","lat":43.28921,"lon":5.45694,"is_reserved":false,"is_disabled":false,"rental_uris":{"android":"levelo://app?vid=2d3aba6d-33ff-46ce-804c-85ba01d4a514","ios":"levelo://app?vid=2d3aba6d-33ff-46ce-804c-85ba01d4a514"},"vehicle_type_id":"4","last_reported":1685898296,"current_range_meters":7200,"station_id":"","pricing_plan_id":"free"},{"bike_id":"75922dd4-77ac-403f-bb44-abf66b4ee641","system_id":"levelo_inurba_marseille","lat":43.2891,"lon":5.45712,"is_reserved":false,"is_disabled":false,"rental_uris":{"android":"levelo://app?vid=75922dd4-77ac-403f-bb44-abf66b4ee641","ios":"levelo://app?vid=75922dd4-77ac-403f-bb44-abf66b4ee641"},"vehicle_type_id":"4","last_reported":1685898296,"current_range_meters":20800,"station_id":"","pricing_plan_id":"free"},{"bike_id":"81a432ee-6a6c-4424-a316-69671dc35f8c","system_id":"levelo_inurba_marseille","lat":43.245581,"lon":5.395069,"is_reserved":false,"is_disabled":false,"rental_uris":{"android":"levelo://app?vid=81a432ee-6a6c-4424-a316-69671dc35f8c","ios":"levelo://app?vid=81a432ee-6a6c-4424-a316-69671dc35f8c"},"vehicle_type_id":"4","last_reported":1685898296,"current_range_meters":28000,"station_id":"ce4bhlp2rcd13ifvqgjg","pricing_plan_id":"free"},{"bike_id":"8067a991-bd0c-41b9-8cfd-69c1ed9e6327","system_id":"levelo_inurba_marseille","lat":43.245581,"lon":5.395069,"is_reserved":false,"is_disabled":false,"rental_uris":{"android":"levelo://app?vid=8067a991-bd0c-41b9-8cfd-69c1ed9e6327","ios":"levelo://app?vid=8067a991-bd0c-41b9-8cfd-69c1ed9e6327"},"vehicle_type_id":"4","last_reported":1685898296,"current_range_meters":23200,"station_id":"ce4bhlp2rcd13ifvqgjg","pricing_plan_id":"free"},{"bike_id":"6dee02c3-26a1-4fd6-97a1-0bbe0da80fd2","system_id":"levelo_inurba_marseille","lat":43.245581,"lon":5.395069,"is_reserved":false,"is_disabled":false,"rental_uris":{"android":"levelo://app?vid=6dee02c3-26a1-4fd6-97a1-0bbe0da80fd2","ios":"levelo://app?vid=6dee02c3-26a1-4fd6-97a1-0bbe0da80fd2"},"vehicle_type_id":"4","last_reported":1685898296,"current_range_meters":3200,"station_id":"ce4bhlp2rcd13ifvqgjg","pricing_plan_id":"free"},{"bike_id":"e03518b3-1567-4de9-a6c1-6160bc0945cb","system_id":"levelo_inurba_marseille","lat":43.239588,"lon":5.366238,"is_reserved":false,"is_disabled":false,"rental_uris":{"android":"levelo://app?vid=e03518b3-1567-4de9-a6c1-6160bc0945cb","ios":"levelo://app?vid=e03518b3-1567-4de9-a6c1-6160bc0945cb"},"vehicle_type_id":"4","last_reported":1685898296,"current_range_meters":5200,"station_id":"ce4bhi12rcd13ifvqfp0","pricing_plan_id":"free"},{"bike_id":"4c1d3c44-3800-4c45-8eb3-e7f8e5d85c2f","system_id":"levelo_inurba_marseille","lat":43.23913,"lon":5.38447,"is_reserved":false,"is_disabled":false,"rental_uris":{"android":"levelo://app?vid=4c1d3c44-3800-4c45-8eb3-e7f8e5d85c2f","ios":"levelo://app?vid=4c1d3c44-3800-4c45-8eb3-e7f8e5d85c2f"},"vehicle_type_id":"4","last_reported":1685898296,"current_range_meters":12000,"station_id":"","pricing_plan_id":"free"},{"bike_id":"44ea22e9-e5cf-4221-b50c-2baa83e7cb99","system_id":"levelo_inurba_marseille","lat":43.231923,"lon":5.355545,"is_reserved":false,"is_disabled":false,"rental_uris":{"android":"levelo://app?vid=44ea22e9-e5cf-4221-b50c-2baa83e7cb99","ios":"levelo://app?vid=44ea22e9-e5cf-4221-b50c-2baa83e7cb99"},"vehicle_type_id":"4","last_reported":1685898296,"current_range_meters":22000,"station_id":"ce4bhu92rcd13ifvqi70","pricing_plan_id":"free"},{"bike_id":"b2f1686f-71f7-4790-b56a-953ea5e8f9fe","system_id":"levelo_inurba_marseille","lat":43.23186,"lon":5.39999,"is_reserved":false,"is_disabled":false,"rental_uris":{"android":"levelo://app?vid=b2f1686f-71f7-4790-b56a-953ea5e8f9fe","ios":"levelo://app?vid=b2f1686f-71f7-4790-b56a-953ea5e8f9fe"},"vehicle_type_id":"4","last_reported":1685898296,"current_range_meters":0,"station_id":"ce4bhn12rcd13ifvqgqg","pricing_plan_id":"free"}]}}