{"last_updated":1728476220,"ttl":60,"version":"2.2","data":{"bikes":[{"bike_id":"c60da232-2931-445e-9832-6a7c4cbdbe4f","system_id":"levelo_inurba_marseille","lat":43.25938,"lon":5.40897,"is_reserved":false,"is_disabled":false,"rental_uris":{"android":"levelo://app?vid=c60da232-2931-445e-9832-6a7c4cbdbe4f","ios":"levelo://app?vid=c60da232-2931-445e-9832-6a7c4cbdbe4f"},"vehicle_type_id":"4","last_reported":1728476220,"current_range_meters":28400,"station_id":"ce4bhm92rcd13ifvqglg","pricing_plan_id":"cebpf4jnsgd1na2vs0mg"},{"bike_id":"596a6ec3-b7cb-432e-a39c-929a1afb00c6","system_id":"levelo_inurba_marseille","lat":43.28274,"lon":5.35074,"is_reserved":false,"is_disabled":false,"rental_uris":{"android":"levelo://app?vid=596a6ec3-b7cb-432e-a39c-929a1afb00c6","ios":"levelo://app?vid=596a6ec3-b7cb-432e-a39c-929a1afb00c6"},"vehicle_type_id":"4","last_reported":1728476220,"current_range_meters":28000,"station_id":"ce4bhbp2rcd13ifvqerg","pricing_plan_id":"cebpf4jnsgd1na2vs0mg"},{"bike_id":"4d05d63f-111c-4b0a-b626-f412071e31cd","system_id":"levelo_inurba_marseille","lat":43.26692,"lon":5.38275,"is_reserved":false,"is_disabled":false,"rental_uris":{"android":"levelo://app?vid=4d05d63f-111c-4b0a-b626-f412071e31cd","ios":"levelo://app?vid=4d05d63f-111c-4b0a-b626-f412071e31cd"},"vehicle_type_id":"4","last_reported":1728476220,"current_range_meters":25600,"station_id":"ce4bhg92rcd13ifvqf90","pricing_plan_id":"cebpf4jnsgd1na2vs0mg"},{"bike_id":"bd9c289d-3e19-414d-9a43-17ddd0e31292","system_id":"levelo_inurba_marseille","lat":43.33606,"lon":5.41032,"is_reserved":false,"is_disabled":false,"rental_uris":{"android":"levelo://app?vid=bd9c289d-3e19-414d-9a43-17ddd0e31292","ios":"levelo://app?vid=bd9c289d-3e19-414d-9a43-17ddd0e31292"},"vehicle_type_id":"4","last_reported":1728476220,"current_range_meters":16400,"station_id":"ce4bhqh2rcd13ifvqhmg","pricing_plan_id":"cebpf4jnsgd1na2vs0mg"},{"bike_id":"1740f992-8af1-45e0-8359-38551d6de109","system_id":"levelo_inurba_marseille","lat":43.28616,"lon":5.35108,"is_reserved":false,"is_disabled":false,"rental_uris":{"android":"levelo://app?vid=1740f992-8af1-45e0-8359-38551d6de109","ios":"levelo://app?vid=1740f992-8af1-45e0-8359-38551d6de109"},"vehicle_type_id":"4","last_reported":1728476220,"current_range_meters":38800,"station_id":"ce4bhch2rcd13ifvqeug","pricing_plan_id":"cebpf4jnsgd1na2vs0mg"},{"bike_id":"6b8918a4-396b-43e5-9a7f-f056357bf660","system_id":"levelo_inurba_marseille","lat":43.230671,"lon":5.354893,"is_reserved":false,"is_disabled":false,"rental_uris":{"android":"levelo://app?vid=6b8918a4-396b-43e5-9a7f-f056357bf660","ios":"levelo://app?vid=6b8918a4-396b-43e5-9a7f-f056357bf660"},"vehicle_type_id":"4","last_reported":1728476220,"current_range_meters":8800,"station_id":"cpo3342slgdg3j2ifvpg","pricing_plan_id":"cebpf4jnsgd1na2vs0mg"},{"bike_id":"8ccca870-c25f-40ed-a541-09c2f486d75f","system_id":"levelo_inurba_marseille","lat":43.29901,"lon":5.43669,"is_reserved":false,"is_disabled":false,"rental_uris":{"android":"levelo://app?vid=8ccca870-c25f-40ed-a541-09c2f486d75f","ios":"levelo://app?vid=8ccca870-c25f-40ed-a541-09c2f486d75f"},"vehicle_type_id":"4","last_reported":1728476220,"current_range_meters":3600,"station_id":"ce4bhpp2rcd13ifvqhfg","pricing_plan_id":"cebpf4jnsgd1na2vs0mg"},{"bike_id":"e83cf189-78f3-4597-afe2-eda1ff840b61","system_id":"levelo_inurba_marseille","lat":43.28856,"lon":5.35845,"is_reserved":false,"is_disabled":false,"rental_uris":{"android":"levelo://app?vid=e83cf189-78f3-4597-afe2-eda1ff840b61","ios":"levelo://app?vid=e83cf189-78f3-4597-afe2-eda1ff840b61"},"vehicle_type_id":"4","last_reported":1728476220,"current_range_meters":22400,"station_id":"ce4bhb12rcd13ifvqem0","pricing_plan_id":"cebpf4jnsgd1na2vs0mg"},{"bike_id":"abcfee64-448a-4c4f-aad9-6190ca40c2d4","system_id":"levelo_inurba_marseille","lat":43.296082,"lon":5.381024,"is_reserved":false,"is_disabled":false,"rental_uris":{"android":"levelo://app?vid=abcfee64-448a-4c4f-aad9-6190ca40c2d4","ios":"levelo://app?vid=abcfee64-448a-4c4f-aad9-6190ca40c2d4"},"vehicle_type_id":"4","last_reported":1728476220,"current_range_meters":37600,"station_id":"ce4bgl12rcd13ifvqbo0","pricing_plan_id":"cebpf4jnsgd1na2vs0mg"},{"bike_id":"a89d8b4e-cec0-4e63-8265-e28f03f459dd","system_id":"levelo_inurba_marseille","lat":43.25823,"lon":5.39423,"is_reserved":false,"is_disabled":false,"rental_uris":{"android":"levelo://app?vid=a89d8b4e-cec0-4e63-8265-e28f03f459dd","ios":"levelo://app?vid=a89d8b4e-cec0-4e63-8265-e28f03f459dd"},"vehicle_type_id":"4","last_reported":1728476220,"current_range_meters":8400,"station_id":"ce4bhip2rcd13ifvqft0","pricing_plan_id":"cebpf4jnsgd1na2vs0mg"},{"bike_id":"75a293f1-95c2-44d2-b251-03761e29857c","system_id":"levelo_inurba_marseille","lat":43.32546,"lon":5.41435,"is_reserved":false,"is_disabled":false,"rental_uris":{"android":"levelo://app?vid=75a293f1-95c2-44d2-b251-03761e29857c","ios":"levelo://app?vid=75a293f1-95c2-44d2-b251-03761e29857c"},"vehicle_type_id":"4","last_reported":1728476220,"current_range_meters":38800,"station_id":"ce4bhq12rcd13ifvqhhg","pricing_plan_id":"cebpf4jnsgd1na2vs0mg"},{"bike_id":"24932f49-175c-4e25-82e1-c5d246dc6f75","system_id":"levelo_inurba_marseille","lat":43.30287,"lon":5.37695,"is_reserved":false,"is_disabled":false,"rental_uris":{"android":"levelo://app?vid=24932f49-175c-4e25-82e1-c5d246dc6f75","ios":"levelo://app?vid=24932f49-175c-4e25-82e1-c5d246dc6f75"},"vehicle_type_id":"4","last_reported":1728476220,"current_range_meters":20800,"station_id":"ce4bguh2rcd13ifvqcj0","pricing_plan_id":"cebpf4jnsgd1na2vs0mg"},{"bike_id":"2c3b3d69-ebd3-4aac-b08b-0c3c1dbd2cdd","system_id":"levelo_inurba_marseille","lat":43.29843,"lon":5.36265,"is_reserved":false,"is_disabled":false,"rental_uris":{"android":"levelo://app?vid=2c3b3d69-ebd3-4aac-b08b-0c3c1dbd2cdd","ios":"levelo://app?vid=2c3b3d69-ebd3-4aac-b08b-0c3c1dbd2cdd"},"vehicle_type_id":"4","last_reported":1728476220,"current_range_meters":2000,"station_id":"ce4bgpp2rcd13ifvqc3g","pricing_plan_id":"cebpf4jnsgd1na2vs0mg"},{"bike_id":"6927215a-ab4d-4c0e-98d8-b81b5ed8a902","system_id":"levelo_inurba_marseille","lat":43.29912,"lon":5.37477,"is_reserved":false,"is_disabled":false,"rental_uris":{"android":"levelo://app?vid=6927215a-ab4d-4c0e-98d8-b81b5ed8a902","ios":"levelo://app?vid=6927215a-ab4d-4c0e-98d8-b81b5ed8a902"},"vehicle_type_id":"4","last_reported":1728476220,"current_range_meters":34000,"station_id":"ce4bgjh2rcd13ifvqbg0","pricing_plan_id":"cebpf4jnsgd1na2vs0mg"},{"bike_id":"4a31d6b0-4ff9-4fe9-9683-c1f64d53f1d0","system_id":"levelo_inurba_marseille","lat":43.28931,"lon":5.36388,"is_reserved":false,"is_disabled":false,"rental_uris":{"android":"levelo://app?vid=4a31d6b0-4ff9-4fe9-9683-c1f64d53f1d0","ios":"levelo://app?vid=4a31d6b0-4ff9-4fe9-9683-c1f64d53f1d0"},"vehicle_type_id":"4","last_reported":1728476220,"current_range_meters":38800,"station_id":"ce4bhc92rcd13ifvqetg","pricing_plan_id":"cebpf4jnsgd1na2vs0mg"},{"bike_id":"641ad825-8f87-408f-ae23-4477d0a7e5e1","system_id":"levelo_inurba_marseille","lat":43.24704,"lon":5.407354,"is_reserved":false,"is_disabled":false,"rental_uris":{"android":"levelo://app?vid=641ad825-8f87-408f-ae23-4477d0a7e5e1","ios":"levelo://app?vid=641ad825-8f87-408f-ae23-4477d0a7e5e1"},"vehicle_type_id":"4","last_reported":1728476220,"current_range_meters":37600,"station_id":"","pricing_plan_id":"cebpf4jnsgd1na2vs0mg"},{"bike_id":"f1807b1b-0e65-4ca5-a2d1-3b37345b1ddc","system_id":"levelo_inurba_marseille","lat":43.31886,"lon":5.40801,"is_reserved":false,"is_disabled":false,"rental_uris":{"android":"levelo://app?vid=f1807b1b-0e65-4ca5-a2d1-3b37345b1ddc","ios":"levelo://app?vid=f1807b1b-0e65-4ca5-a2d1-3b37345b1ddc"},"vehicle_type_id":"4","last_reported":1728476220,"current_range_meters":27200,"station_id":"ce4bhq12rcd13ifvqhig","pricing_plan_id":"cebpf4jnsgd1na2vs0mg"},{"bike_id":"64c9abdc-a744-4b43-9856-a64e8ee5db15","system_id":"levelo_inurba_marseille","lat":43.23066,"lon":5.35499,"is_reserved":false,"is_disabled":false,"rental_uris":{"android":"levelo://app?vid=64c9abdc-a744-4b43-9856-a64e8ee5db15","ios":"levelo://app?vid=64c9abdc-a744-4b43-9856-a64e8ee5db15"},"vehicle_type_id":"4","last_reported":1728476220,"current_range_meters":38000,"station_id":"cpo3342slgdg3j2ifvpg","pricing_plan_id":"cebpf4jnsgd1na2vs0mg"},{"bike_id":"fa676a5e-9c79-4a67-bacd-add425a4036d","system_id":"levelo_inurba_marseille","lat":43.23185,"lon":5.39982,"is_reserved":false,"is_disabled":false,"rental_uris":{"android":"levelo://app?vid=fa676a5e-9c79-4a67-bacd-add425a4036d","ios":"levelo://app?vid=fa676a5e-9c79-4a67-bacd-add425a4036d"},"vehicle_type_id":"4","last_reported":1728476220,"current_range_meters":33200,"station_id":"ce4bhn12rcd13ifvqgqg","pricing_plan_id":"cebpf4jnsgd1na2vs0mg"},{"bike_id":"7469462f-90e1-470e-8aab-e30796ef4ddd","system_id":"levelo_inurba_marseille","lat":43.26552,"lon":5.37282,"is_reserved":false,"is_disabled":false,"rental_uris":{"android":"levelo://app?vid=7469462f-90e1-470e-8aab-e30796ef4ddd","ios":"levelo://app?vid=7469462f-90e1-470e-8aab-e30796ef4ddd"},"vehicle_type_id":"4","last_reported":1728476220,"current_range_meters":26800,"station_id":"ce4bhg12rcd13ifvqf70","pricing_plan_id":"cebpf4jnsgd1na2vs0mg"},{"bike_id":"aebe4de8-b2bc-4e90-8aff-3c0b9ec5f5ba","system_id":"levelo_inurba_marseille","lat":43.23156,"lon":5.43706,"is_reserved":false,"is_disabled":false,"rental_uris":{"android":"levelo://app?vid=aebe4de8-b2bc-4e90-8aff-3c0b9ec5f5ba","ios":"levelo://app?vid=aebe4de8-b2bc-4e90-8aff-3c0b9ec5f5ba"},"vehicle_type_id":"4","last_reported":1728476220,"current_range_meters":15200,"station_id":"ce4bhmp2rcd13ifvqgog","pricing_plan_id":"cebpf4jnsgd1na2vs0mg"},{"bike_id":"68fd8677-b0df-4a6b-8c9b-483607f3d508","system_id":"levelo_inurba_marseille","lat":43.32544,"lon":5.41453,"is_reserved":false,"is_disabled":false,"rental_uris":{"android":"levelo://app?vid=68fd8677-b0df-4a6b-8c9b-483607f3d508","ios":"levelo://app?vid=68fd8677-b0df-4a6b-8c9b-483607f3d508"},"vehicle_type_id":"4","last_reported":1728476220,"current_range_meters":25600,"station_id":"ce4bhq12rcd13ifvqhhg","pricing_plan_id":"cebpf4jnsgd1na2vs0mg"},{"bike_id":"c60371a0-e2e1-4888-a4c5-45384e96ade9","system_id":"levelo_inurba_marseille","lat":43.27814,"lon":5.40714,"is_reserved":false,"is_disabled":false,"rental_uris":{"android":"levelo://app?vid=c60371a0-e2e1-4888-a4c5-45384e96ade9","ios":"levelo://app?vid=c60371a0-e2e1-4888-a4c5-45384e96ade9"},"vehicle_type_id":"4","last_reported":1728476220,"current_range_meters":27200,"station_id":"ce4bhnh2rcd13ifvqgtg","pricing_plan_id":"cebpf4jnsgd1na2vs0mg"},{"bike_id":"d704b326-643d-48f4-a61c-11a74bcdba4b","system_id":"levelo_inurba_marseille","lat":43.29425,"lon":5.386355,"is_reserved":false,"is_disabled":false,"rental_uris":{"android":"levelo://app?vid=d704b326-643d-48f4-a61c-11a74bcdba4b","ios":"levelo://app?vid=d704b326-643d-48f4-a61c-11a74bcdba4b"},"vehicle_type_id":"4","last_reported":1728476220,"current_range_meters":9200,"station_id":"ce4bh2h2rcd13ifvqdh0","pricing_plan_id":"cebpf4jnsgd1na2vs0mg"},{"bike_id":"d211108b-3473-4cd9-8cb7-92fae10baa6a","system_id":"levelo_inurba_marseille","lat":43.277832,"lon":5.355329,"is_reserved":false,"is_disabled":false,"rental_uris":{"android":"levelo://app?vid=d211108b-3473-4cd9-8cb7-92fae10baa6a","ios":"levelo://app?vid=d211108b-3473-4cd9-8cb7-92fae10baa6a"},"vehicle_type_id":"4","last_reported":1728476220,"current_range_meters":28800,"station_id":"ce4bhbh2rcd13ifvqeo0","pricing_plan_id":"cebpf4jnsgd1na2vs0mg"},{"bike_id":"38b5cd9d-80e3-4a7b-b0e9-f895d3afd74c","system_id":"levelo_inurba_marseille","lat":43.29024,"lon":5.38643,"is_reserved":false,"is_disabled":false,"rental_uris":{"android":"levelo://app?vid=38b5cd9d-80e3-4a7b-b0e9-f895d3afd74c","ios":"levelo://app?vid=38b5cd9d-80e3-4a7b-b0e9-f895d3afd74c"},"vehicle_type_id":"4","last_reported":1728476220,"current_range_meters":27200,"station_id":"ce4bh4p2rcd13ifvqe0g","pricing_plan_id":"cebpf4jnsgd1na2vs0mg"},{"bike_id":"1396ed04-26b7-4474-93be-9b572cabd320","system_id":"levelo_inurba_marseille","lat":43.30541,"lon":5.36706,"is_reserved":false,"is_disabled":false,"rental_uris":{"android":"levelo://app?vid=1396ed04-26b7-4474-93be-9b572cabd320","ios":"levelo://app?vid=1396ed04-26b7-4474-93be-9b572cabd320"},"vehicle_type_id":"4","last_reported":1728476220,"current_range_meters":32800,"station_id":"ce4bgrp2rcd13ifvqc9g","pricing_plan_id":"cebpf4jnsgd1na2vs0mg"},{"bike_id":"d17168ca-18e2-43b4-abb5-338236f751a3","system_id":"levelo_inurba_marseille","lat":43.25105,"lon":5.40323,"is_reserved":false,"is_disabled":false,"rental_uris":{"android":"levelo://app?vid=d17168ca-18e2-43b4-abb5-338236f751a3","ios":"levelo://app?vid=d17168ca-18e2-43b4-abb5-338236f751a3"},"vehicle_type_id":"4","last_reported":1728476220,"current_range_meters":4400,"station_id":"ce4bhlh2rcd13ifvqgig","pricing_plan_id":"cebpf4jnsgd1na2vs0mg"},{"bike_id":"0f21128f-2cd6-4779-8b8b-00ba634cf7e3","system_id":"levelo_inurba_marseille","lat":43.25117,"lon":5.40321,"is_reserved":false,"is_disabled":false,"rental_uris":{"android":"levelo://app?vid=0f21128f-2cd6-4779-8b8b-00ba634cf7e3","ios":"levelo://app?vid=0f21128f-2cd6-4779-8b8b-00ba634cf7e3"},"vehicle_type_id":"4","last_reported":1728476220,"current_range_meters":37600,"station_id":"ce4bhlh2rcd13ifvqgig","pricing_plan_id":"cebpf4jnsgd1na2vs0mg"},{"bike_id":"2de0b763-ad98-4e1f-aa5d-72612c5aa4fb","system_id":"levelo_inurba_marseille","lat":43.24183,"lon":5.39722,"is_reserved":false,"is_disabled":false,"rental_uris":{"android":"levelo://app?vid=2de0b763-ad98-4e1f-aa5d-72612c5aa4fb","ios":"levelo://app?vid=2de0b763-ad98-4e1f-aa5d-72612c5aa4fb"},"vehicle_type_id":"4","last_reported":1728476220,"current_range_meters":17200,"station_id":"ce4bhn12rcd13ifvqgpg","pricing_plan_id":"cebpf4jnsgd1na2vs0mg"},{"bike_id":"824cc323-5e89-4f54-bfe9-9867899a6401","system_id":"levelo_inurba_marseille","lat":43.29959,"lon":5.41318,"is_reserved":false,"is_disabled":false,"rental_uris":{"android":"levelo://app?vid=824cc323-5e89-4f54-bfe9-9867899a6401","ios":"levelo://app?vid=824cc323-5e89-4f54-bfe9-9867899a6401"},"vehicle_type_id":"4","last_reported":1728476220,"current_range_meters":9600,"station_id":"ce4bhp12rcd13ifvqh9g","pricing_plan_id":"cebpf4jnsgd1na2vs0mg"},{"bike_id":"59a20882-e884-470e-b111-32ed424e7cc3","system_id":"levelo_inurba_marseille","lat":43.33733,"lon":5.39187,"is_reserved":false,"is_disabled":false,"rental_uris":{"android":"levelo://app?vid=59a20882-e884-470e-b111-32ed424e7cc3","ios":"levelo://app?vid=59a20882-e884-470e-b111-32ed424e7cc3"},"vehicle_type_id":"4","last_reported":1728476220,"current_range_meters":31200,"station_id":"ce4bhr92rcd13ifvqhsg","pricing_plan_id":"cebpf4jnsgd1na2vs0mg"},{"bike_id":"babbb66c-dcee-42a3-b5c8-5a6224f7251b","system_id":"levelo_inurba_marseille","lat":43.30187,"lon":5.36589,"is_reserved":false,"is_disabled":false,"rental_uris":{"android":"levelo://app?vid=babbb66c-dcee-42a3-b5c8-5a6224f7251b","ios":"levelo://app?vid=babbb66c-dcee-42a3-b5c8-5a6224f7251b"},"vehicle_type_id":"4","last_reported":1728476220,"current_range_meters":20400,"station_id":"ce4bgrh2rcd13ifvqc8g","pricing_plan_id":"cebpf4jnsgd1na2vs0mg"},{"bike_id":"b36aecc6-08e0-4f6b-8291-5358f90935db","system_id":"levelo_inurba_marseille","lat":43.28452,"lon":5.39208,"is_reserved":false,"is_disabled":false,"rental_uris":{"android":"levelo://app?vid=b36aecc6-08e0-4f6b-8291-5358f90935db","ios":"levelo://app?vid=b36aecc6-08e0-4f6b-8291-5358f90935db"},"vehicle_type_id":"4","last_reported":1728476220,"current_range_meters":34000,"station_id":"ce4bhoh2rcd13ifvqh5g","pricing_plan_id":"cebpf4jnsgd1na2vs0mg"},{"bike_id":"72078f29-e154-4c5b-836a-c7e362ba1f09","system_id":"levelo_inurba_marseille","lat":43.33754,"lon":5.3746,"is_reserved":false,"is_disabled":false,"rental_uris":{"android":"levelo://app?vid=72078f29-e154-4c5b-836a-c7e362ba1f09","ios":"levelo://app?vid=72078f29-e154-4c5b-836a-c7e362ba1f09"},"vehicle_type_id":"4","last_reported":1728476220,"current_range_meters":11200,"station_id":"","pricing_plan_id":"cebpf4jnsgd1na2vs0mg"},{"bike_id":"7d7ab187-9965-49a4-bf26-b6ade39671fc","system_id":"levelo_inurba_marseille","lat":43.23195,"lon":5.3555,"is_reserved":false,"is_disabled":false,"rental_uris":{"android":"levelo://app?vid=7d7ab187-9965-49a4-bf26-b6ade39671fc","ios":"levelo://app?vid=7d7ab187-9965-49a4-bf26-b6ade39671fc"},"vehicle_type_id":"4","last_reported":1728476220,"current_range_meters":25200,"station_id":"ce4bhu92rcd13ifvqi70","pricing_plan_id":"cebpf4jnsgd1na2vs0mg"},{"bike_id":"1d57d01c-0b05-433b-b05a-ef5f2fd397d1","system_id":"levelo_inurba_marseille","lat":43.33026,"lon":5.39042,"is_reserved":false,"is_disabled":false,"rental_uris":{"android":"levelo://app?vid=1d57d01c-0b05-433b-b05a-ef5f2fd397d1","ios":"levelo://app?vid=1d57d01c-0b05-433b-b05a-ef5f2fd397d1"},"vehicle_type_id":"4","last_reported":1728476220,"current_range_meters":17200,"station_id":"ce4bhr92rcd13ifvqhrg","pricing_plan_id":"cebpf4jnsgd1na2vs0mg"},{"bike_id":"64cbf5ad-210a-4eed-8035-947870e47e4b","system_id":"levelo_inurba_marseille","lat":43.23188,"lon":5.39985,"is_reserved":false,"is_disabled":false,"rental_uris":{"android":"levelo://app?vid=64cbf5ad-210a-4eed-8035-947870e47e4b","ios":"levelo://app?vid=64cbf5ad-210a-4eed-8035-947870e47e4b"},"vehicle_type_id":"4","last_reported":1728476220,"current_range_meters":3200,"station_id":"ce4bhn12rcd13ifvqgqg","pricing_plan_id":"cebpf4jnsgd1na2vs0mg"},{"bike_id":"5a75f0ac-29c8-4f0b-aea4-e016dee57c6d","system_id":"levelo_inurba_marseille","lat":43.279613,"lon":5.410637,"is_reserved":false,"is_disabled":false,"rental_uris":{"android":"levelo://app?vid=5a75f0ac-29c8-4f0b-aea4-e016dee57c6d","ios":"levelo://app?vid=5a75f0ac-29c8-4f0b-aea4-e016dee57c6d"},"vehicle_type_id":"4","last_reported":1728476220,"current_range_meters":22400,"station_id":"","pricing_plan_id":"cebpf4jnsgd1na2vs0mg"},{"bike_id":"62c4f28c-3c6d-41b1-ab47-4c4a59ba841c","system_id":"levelo_inurba_marseille","lat":43.31081,"lon":5.4243,"is_reserved":false,"is_disabled":false,"rental_uris":{"android":"levelo://app?vid=62c4f28c-3c6d-41b1-ab47-4c4a59ba841c","ios":"levelo://app?vid=62c4f28c-3c6d-41b1-ab47-4c4a59ba841c"},"vehicle_type_id":"4","last_reported":1728476220,"current_range_meters":32000,"station_id":"ce4bhp92rcd13ifvqhag","pricing_plan_id":"cebpf4jnsgd1na2vs0mg"},{"bike_id":"9f05c464-e2ff-40af-b71b-1315be8e0e65","system_id":"levelo_inurba_marseille","lat":43.309387,"lon":5.40133,"is_reserved":false,"is_disabled":false,"rental_uris":{"android":"levelo://app?vid=9f05c464-e2ff-40af-b71b-1315be8e0e65","ios":"levelo://app?vid=9f05c464-e2ff-40af-b71b-1315be8e0e65"},"vehicle_type_id":"4","last_reported":1728476220,"current_range_meters":19200,"station_id":"ce4bgvp2rcd13ifvqct0","pricing_plan_id":"cebpf4jnsgd1na2vs0mg"},{"bike_id":"7dd56a6b-ec2c-4470-b345-14af7dd0ef03","system_id":"levelo_inurba_marseille","lat":43.28423,"lon":5.34987,"is_reserved":false,"is_disabled":false,"rental_uris":{"android":"levelo://app?vid=7dd56a6b-ec2c-4470-b345-14af7dd0ef03","ios":"levelo://app?vid=7dd56a6b-ec2c-4470-b345-14af7dd0ef03"},"vehicle_type_id":"4","last_reported":1728476220,"current_range_meters":4800,"station_id":"ce4bhbh2rcd13ifvqepg","pricing_plan_id":"cebpf4jnsgd1na2vs0mg"},{"bike_id":"b080f55f-b3f7-475a-9fba-93b6f02b5776","system_id":"levelo_inurba_marseille","lat":43.29024,"lon":5.38133,"is_reserved":false,"is_disabled":false,"rental_uris":{"android":"levelo://app?vid=b080f55f-b3f7-475a-9fba-93b6f02b5776","ios":"levelo://app?vid=b080f55f-b3f7-475a-9fba-93b6f02b5776"},"vehicle_type_id":"4","last_reported":1728476220,"current_range_meters":39200,"station_id":"ce4bh4p2rcd13ifvqe1g","pricing_plan_id":"cebpf4jnsgd1na2vs0mg"},{"bike_id":"2c4c3de7-36cc-49ba-89f4-420d8d550649","system_id":"levelo_inurba_marseille","lat":43.25931,"lon":5.40898,"is_reserved":false,"is_disabled":false,"rental_uris":{"android":"levelo://app?vid=2c4c3de7-36cc-49ba-89f4-420d8d550649","ios":"levelo://app?vid=2c4c3de7-36cc-49ba-89f4-420d8d550649"},"vehicle_type_id":"4","last_reported":1728476220,"current_range_meters":25600,"station_id":"ce4bhm92rcd13ifvqglg","pricing_plan_id":"cebpf4jnsgd1na2vs0mg"},{"bike_id":"74e9ce9d-9e9f-4c6b-92fb-2f9a88c1f0f4","system_id":"levelo_inurba_marseille","lat":43.24178,"lon":5.36392,"is_reserved":false,"is_disabled":false,"rental_uris":{"android":"levelo://app?vid=74e9ce9d-9e9f-4c6b-92fb-2f9a88c1f0f4","ios":"levelo://app?vid=74e9ce9d-9e9f-4c6b-92fb-2f9a88c1f0f4"},"vehicle_type_id":"4","last_reported":1728476220,"current_range_meters":37600,"station_id":"cpo36qri1sfpv3e86is0","pricing_plan_id":"cebpf4jnsgd1na2vs0mg"},{"bike_id":"e94799ef-3be5-461f-9785-b2fd2c5966ee","system_id":"levelo_inurba_marseille","lat":43.29707,"lon":5.36609,"is_reserved":false,"is_disabled":false,"rental_uris":{"android":"levelo://app?vid=e94799ef-3be5-461f-9785-b2fd2c5966ee","ios":"levelo://app?vid=e94799ef-3be5-461f-9785-b2fd2c5966ee"},"vehicle_type_id":"4","last_reported":1728476220,"current_range_meters":6800,"station_id":"ce4bgn12rcd13ifvqbt0","pricing_plan_id":"cebpf4jnsgd1na2vs0mg"},{"bike_id":"6319e795-cd08-4ec4-b4b3-8e1f77ea1daf","system_id":"levelo_inurba_marseille","lat":43.2794,"lon":5.41038,"is_reserved":false,"is_disabled":false,"rental_uris":{"android":"levelo://app?vid=6319e795-cd08-4ec4-b4b3-8e1f77ea1daf","ios":"levelo://app?vid=6319e795-cd08-4ec4-b4b3-8e1f77ea1daf"},"vehicle_type_id":"4","last_reported":1728476220,"current_range_meters":30000,"station_id":"ce4bhnp2rcd13ifvqh0g","pricing_plan_id":"cebpf4jnsgd1na2vs0mg"},{"bike_id":"21971cb6-2433-42c8-a7df-fb8a15c72212","system_id":"levelo_inurba_marseille","lat":43.29319,"lon":5.37176,"is_reserved":false,"is_disabled":false,"rental_uris":{"android":"levelo://app?vid=21971cb6-2433-42c8-a7df-fb8a15c72212","ios":"levelo://app?vid=21971cb6-2433-42c8-a7df-fb8a15c72212"},"vehicle_type_id":"4","last_reported":1728476220,"current_range_meters":8400,"station_id":"ce4bgh92rcd13ifvqb40","pricing_plan_id":"cebpf4jnsgd1na2vs0mg"},{"bike_id":"92664ae4-8400-423f-a03f-55daea41cbf1","system_id":"levelo_inurba_marseille","lat":43.2997,"lon":5.37177,"is_reserved":false,"is_disabled":false,"rental_uris":{"android":"levelo://app?vid=92664ae4-8400-423f-a03f-55daea41cbf1","ios":"levelo://app?vid=92664ae4-8400-423f-a03f-55daea41cbf1"},"vehicle_type_id":"4","last_reported":1728476220,"current_range_meters":4800,"station_id":"","pricing_plan_id":"cebpf4jnsgd1na2vs0mg"},{"bike_id":"792577a6-685a-43bd-bdfe-2ef41696d1e8","system_id":"levelo_inurba_marseille","lat":43.23188,"lon":5.39994,"is_reserved":false,"is_disabled":false,"rental_uris":{"android":"levelo://app?vid=792577a6-685a-43bd-bdfe-2ef41696d1e8","ios":"levelo://app?vid=792577a6-685a-43bd-bdfe-2ef41696d1e8"},"vehicle_type_id":"4","last_reported":1728476220,"current_range_meters":32400,"station_id":"ce4bhn12rcd13ifvqgqg","pricing_plan_id":"cebpf4jnsgd1na2vs0mg"},{"bike_id":"4e6700a4-9eaa-4883-b595-cfa877cac3c2","system_id":"levelo_inurba_marseille","lat":43.22926,"lon":5.35376,"is_reserved":false,"is_disabled":false,"rental_uris":{"android":"levelo://app?vid=4e6700a4-9eaa-4883-b595-cfa877cac3c2","ios":"levelo://app?vid=4e6700a4-9eaa-4883-b595-cfa877cac3c2"},"vehicle_type_id":"4","last_reported":1728476220,"current_range_meters":16400,"station_id":"cpo3532slgdg3j2ikp40","pricing_plan_id":"cebpf4jnsgd1na2vs0mg"},{"bike_id":"9f19267f-e059-4dad-9525-580251bbe46c","system_id":"levelo_inurba_marseille","lat":43.24389,"lon":5.37052,"is_reserved":false,"is_disabled":false,"rental_uris":{"android":"levelo://app?vid=9f19267f-e059-4dad-9525-580251bbe46c","ios":"levelo://app?vid=9f19267f-e059-4dad-9525-580251bbe46c"},"vehicle_type_id":"4","last_reported":1728476220,"current_range_meters":30000,"station_id":"","pricing_plan_id":"cebpf4jnsgd1na2vs0mg"},{"bike_id":"b54e9ef9-d972-4a51-94db-ff061a7b9a07","system_id":"levelo_inurba_marseille","lat":43.25114,"lon":5.40321,"is_reserved":false,"is_disabled":false,"rental_uris":{"android":"levelo://app?vid=b54e9ef9-d972-4a51-94db-ff061a7b9a07","ios":"levelo://app?vid=b54e9ef9-d972-4a51-94db-ff061a7b9a07"},"vehicle_type_id":"4","last_reported":1728476220,"current_range_meters":13600,"station_id":"ce4bhlh2rcd13ifvqgig","pricing_plan_id":"cebpf4jnsgd1na2vs0mg"},{"bike_id":"8bea543b-214d-40ec-9431-9caab1e0e5b3","system_id":"levelo_inurba_marseille","lat":43.23156,"lon":5.43713,"is_reserved":false,"is_disabled":false,"rental_uris":{"android":"levelo://app?vid=8bea543b-214d-40ec-9431-9caab1e0e5b3","ios":"levelo://app?vid=8bea543b-214d-40ec-9431-9caab1e0e5b3"},"vehicle_type_id":"4","last_reported":1728476220,"current_range_meters":13600,"station_id":"ce4bhmp2rcd13ifvqgog","pricing_plan_id":"cebpf4jnsgd1na2vs0mg"},{"bike_id":"4093053b-c626-4a09-b5e6-1e1f073c548e","system_id":"levelo_inurba_marseille","lat":43.3254,"lon":5.4144,"is_reserved":false,"is_disabled":false,"rental_uris":{"android":"levelo://app?vid=4093053b-c626-4a09-b5e6-1e1f073c548e","ios":"levelo://app?vid=4093053b-c626-4a09-b5e6-1e1f073c548e"},"vehicle_type_id":"4","last_reported":1728476220,"current_range_meters":4800,"station_id":"ce4bhq12rcd13ifvqhhg","pricing_plan_id":"cebpf4jnsgd1na2vs0mg"},{"bike_id":"c8b0f9ec-3371-4835-b214-a1b79f4757b6","system_id":"levelo_inurba_marseille","lat":43.32548,"lon":5.41431,"is_reserved":false,"is_disabled":false,"rental_uris":{"android":"levelo://app?vid=c8b0f9ec-3371-4835-b214-a1b79f4757b6","ios":"levelo://app?vid=c8b0f9ec-3371-4835-b214-a1b79f4757b6"},"vehicle_type_id":"4","last_reported":1728476220,"current_range_meters":21600,"station_id":"ce4bhq12rcd13ifvqhhg","pricing_plan_id":"cebpf4jnsgd1na2vs0mg"},{"bike_id":"ea5635e0-80cb-496e-adfa-0885ec66db1a","system_id":"levelo_inurba_marseille","lat":43.27059,"lon":5.40258,"is_reserved":false,"is_disabled":false,"rental_uris":{"android":"levelo://app?vid=ea5635e0-80cb-496e-adfa-0885ec66db1a","ios":"levelo://app?vid=ea5635e0-80cb-496e-adfa-0885ec66db1a"},"vehicle_type_id":"4","last_reported":1728476220,"current_range_meters":23200,"station_id":"ce4bhk92rcd13ifvqgc0","pricing_plan_id":"cebpf4jnsgd1na2vs0mg"},{"bike_id":"c895b53b-46e8-4e15-8f14-c06e6de792df","system_id":"levelo_inurba_marseille","lat":43.32547,"lon":5.41444,"is_reserved":false,"is_disabled":false,"rental_uris":{"android":"levelo://app?vid=c895b53b-46e8-4e15-8f14-c06e6de792df","ios":"levelo://app?vid=c895b53b-46e8-4e15-8f14-c06e6de792df"},"vehicle_type_id":"4","last_reported":1728476220,"current_range_meters":38800,"station_id":"ce4bhq12rcd13ifvqhhg","pricing_plan_id":"cebpf4jnsgd1na2vs0mg"},{"bike_id":"beb9f97a-a5c4-4dc7-b5ca-699c205a2eda","system_id":"levelo_inurba_marseille","lat":43.30638,"lon":5.40098,"is_reserved":false,"is_disabled":false,"rental_uris":{"android":"levelo://app?vid=beb9f97a-a5c4-4dc7-b5ca-699c205a2eda","ios":"levelo://app?vid=beb9f97a-a5c4-4dc7-b5ca-699c205a2eda"},"vehicle_type_id":"4","last_reported":1728476220,"current_range_meters":27600,"station_id":"ce4bh112rcd13ifvqda0","pricing_plan_id":"cebpf4jnsgd1na2vs0mg"},{"bike_id":"be15a0d0-de29-4dfd-a225-eb0ba50bfbd8","system_id":"levelo_inurba_marseille","lat":43.30957,"lon":5.39031,"is_reserved":false,"is_disabled":false,"rental_uris":{"android":"levelo://app?vid=be15a0d0-de29-4dfd-a225-eb0ba50bfbd8","ios":"levelo://app?vid=be15a0d0-de29-4dfd-a225-eb0ba50bfbd8"},"vehicle_type_id":"4","last_reported":1728476220,"current_range_meters":9200,"station_id":"ce4bgup2rcd13ifvqco0","pricing_plan_id":"cebpf4jnsgd1na2vs0mg"},{"bike_id":"ac45a0e0-9a70-4810-97dd-a872e45e1a81","system_id":"levelo_inurba_marseille","lat":43.27614,"lon":5.3612,"is_reserved":false,"is_disabled":false,"rental_uris":{"android":"levelo://app?vid=ac45a0e0-9a70-4810-97dd-a872e45e1a81","ios":"levelo://app?vid=ac45a0e0-9a70-4810-97dd-a872e45e1a81"},"vehicle_type_id":"4","last_reported":1728476220,"current_range_meters":18000,"station_id":"ce4bgj92rcd13ifvqbe0","pricing_plan_id":"cebpf4jnsgd1na2vs0mg"},{"bike_id":"67f5c9ce-d342-43bc-a463-b94ab74a1fe0","system_id":"levelo_inurba_marseille","lat":43.33028,"lon":5.39035,"is_reserved":false,"is_disabled":false,"rental_uris":{"android":"levelo://app?vid=67f5c9ce-d342-43bc-a463-b94ab74a1fe0","ios":"levelo://app?vid=67f5c9ce-d342-43bc-a463-b94ab74a1fe0"},"vehicle_type_id":"4","last_reported":1728476220,"current_range_meters":17200,"station_id":"ce4bhr92rcd13ifvqhrg","pricing_plan_id":"cebpf4jnsgd1na2vs0mg"},{"bike_id":"8513be67-a978-4cfc-9563-19285ed6fe5a","system_id":"levelo_inurba_marseille","lat":43.23196,"lon":5.35544,"is_reserved":false,"is_disabled":false,"rental_uris":{"android":"levelo://app?vid=8513be67-a978-4cfc-9563-19285ed6fe5a","ios":"levelo://app?vid=8513be67-a978-4cfc-9563-19285ed6fe5a"},"vehicle_type_id":"4","last_reported":1728476220,"current_range_meters":12000,"station_id":"ce4bhu92rcd13ifvqi70","pricing_plan_id":"cebpf4jnsgd1na2vs0mg"},{"bike_id":"dbe3fcb8-c425-4b3c-993e-4519e57abf04","system_id":"levelo_inurba_marseille","lat":43.25085,"lon":5.39508,"is_reserved":false,"is_disabled":false,"rental_uris":{"android":"levelo://app?vid=dbe3fcb8-c425-4b3c-993e-4519e57abf04","ios":"levelo://app?vid=dbe3fcb8-c425-4b3c-993e-4519e57abf04"},"vehicle_type_id":"4","last_reported":1728476220,"current_range_meters":24400,"station_id":"ce4bhm12rcd13ifvqgkg","pricing_plan_id":"cebpf4jnsgd1na2vs0mg"},{"bike_id":"1c2ec11e-6ba7-4f58-88a5-bad5807eb350","system_id":"levelo_inurba_marseille","lat":43.279358,"lon":5.410478,"is_reserved":false,"is_disabled":false,"rental_uris":{"android":"levelo://app?vid=1c2ec11e-6ba7-4f58-88a5-bad5807eb350","ios":"levelo://app?vid=1c2ec11e-6ba7-4f58-88a5-bad5807eb350"},"vehicle_type_id":"4","last_reported":1728476220,"current_range_meters":12400,"station_id":"ce4bhnp2rcd13ifvqh0g","pricing_plan_id":"cebpf4jnsgd1na2vs0mg"},{"bike_id":"922252e8-02c2-4987-8eed-1d6d69073568","system_id":"levelo_inurba_marseille","lat":43.26693,"lon":5.38271,"is_reserved":false,"is_disabled":false,"rental_uris":{"android":"levelo://app?vid=922252e8-02c2-4987-8eed-1d6d69073568","ios":"levelo://app?vid=922252e8-02c2-4987-8eed-1d6d69073568"},"vehicle_type_id":"4","last_reported":1728476220,"current_range_meters":32000,"station_id":"ce4bhg92rcd13ifvqf90","pricing_plan_id":"cebpf4jnsgd1na2vs0mg"},{"bike_id":"c283bee0-b392-40e1-b183-58fab03c3b3d","system_id":"levelo_inurba_marseille","lat":43.28417,"lon":5.34985,"is_reserved":false,"is_disabled":false,"rental_uris":{"android":"levelo://app?vid=c283bee0-b392-40e1-b183-58fab03c3b3d","ios":"levelo://app?vid=c283bee0-b392-40e1-b183-58fab03c3b3d"},"vehicle_type_id":"4","last_reported":1728476220,"current_range_meters":20800,"station_id":"ce4bhbh2rcd13ifvqepg","pricing_plan_id":"cebpf4jnsgd1na2vs0mg"},{"bike_id":"a6b3d3c3-66cf-4ef9-93fa-38e21f9a6c77","system_id":"levelo_inurba_marseille","lat":43.26683,"lon":5.3827,"is_reserved":false,"is_disabled":false,"rental_uris":{"android":"levelo://app?vid=a6b3d3c3-66cf-4ef9-93fa-38e21f9a6c77","ios":"levelo://app?vid=a6b3d3c3-66cf-4ef9-93fa-38e21f9a6c77"},"vehicle_type_id":"4","last_reported":1728476220,"current_range_meters":38800,"station_id":"ce4bhg92rcd13ifvqf90","pricing_plan_id":"cebpf4jnsgd1na2vs0mg"},{"bike_id":"3ba0acd7-cf5a-4e20-80c8-5b6706eb167d","system_id":"levelo_inurba_marseille","lat":43.28443,"lon":5.392,"is_reserved":false,"is_disabled":false,"rental_uris":{"android":"levelo://app?vid=3ba0acd7-cf5a-4e20-80c8-5b6706eb167d","ios":"levelo://app?vid=3ba0acd7-cf5a-4e20-80c8-5b6706eb167d"},"vehicle_type_id":"4","last_reported":1728476220,"current_range_meters":38800,"station_id":"ce4bhoh2rcd13ifvqh5g","pricing_plan_id":"cebpf4jnsgd1na2vs0mg"},{"bike_id":"c4e8a3f6-9818-4238-ab01-60677df30e47","system_id":"levelo_inurba_marseille","lat":43.30139,"lon":5.37423,"is_reserved":false,"is_disabled":false,"rental_uris":{"android":"levelo://app?vid=c4e8a3f6-9818-4238-ab01-60677df30e47","ios":"levelo://app?vid=c4e8a3f6-9818-4238-ab01-60677df30e47"},"vehicle_type_id":"4","last_reported":1728476220,"current_range_meters":36000,"station_id":"ce4bgs92rcd13ifvqcc0","pricing_plan_id":"cebpf4jnsgd1na2vs0mg"},{"bike_id":"1cfcc97c-13b5-4732-a5b5-1e4422114fcd","system_id":"levelo_inurba_marseille","lat":43.31337,"lon":5.3969,"is_reserved":false,"is_disabled":false,"rental_uris":{"android":"levelo://app?vid=1cfcc97c-13b5-4732-a5b5-1e4422114fcd","ios":"levelo://app?vid=1cfcc97c-13b5-4732-a5b5-1e4422114fcd"},"vehicle_type_id":"4","last_reported":1728476220,"current_range_meters":13600,"station_id":"ce4bgvp2rcd13ifvqcu0","pricing_plan_id":"cebpf4jnsgd1na2vs0mg"},{"bike_id":"90bb1761-2368-40ac-b728-59c67bf45a98","system_id":"levelo_inurba_marseille","lat":43.32055,"lon":5.41539,"is_reserved":false,"is_disabled":false,"rental_uris":{"android":"levelo://app?vid=90bb1761-2368-40ac-b728-59c67bf45a98","ios":"levelo://app?vid=90bb1761-2368-40ac-b728-59c67bf45a98"},"vehicle_type_id":"4","last_reported":1728476220,"current_range_meters":16000,"station_id":"ce4bhq92rcd13ifvqhkg","pricing_plan_id":"cebpf4jnsgd1na2vs0mg"},{"bike_id":"abdeb7b7-9443-4a2e-90f2-c4f781442d2e","system_id":"levelo_inurba_marseille","lat":43.29905,"lon":5.43664,"is_reserved":false,"is_disabled":false,"rental_uris":{"android":"levelo://app?vid=abdeb7b7-9443-4a2e-90f2-c4f781442d2e","ios":"levelo://app?vid=abdeb7b7-9443-4a2e-90f2-c4f781442d2e"},"vehicle_type_id":"4","last_reported":1728476220,"current_range_meters":16000,"station_id":"ce4bhpp2rcd13ifvqhfg","pricing_plan_id":"cebpf4jnsgd1na2vs0mg"},{"bike_id":"4a0c4a80-24ca-4117-82f0-18bb156d4aec","system_id":"levelo_inurba_marseille","lat":43.3091,"lon":5.36839,"is_reserved":false,"is_disabled":false,"rental_uris":{"android":"levelo://app?vid=4a0c4a80-24ca-4117-82f0-18bb156d4aec","ios":"levelo://app?vid=4a0c4a80-24ca-4117-82f0-18bb156d4aec"},"vehicle_type_id":"4","last_reported":1728476220,"current_range_meters":4000,"station_id":"ce4bgn92rcd13ifvqbvg","pricing_plan_id":"cebpf4jnsgd1na2vs0mg"},{"bike_id":"527bdaef-80de-47b0-9b80-85874e027293","system_id":"levelo_inurba_marseille","lat":43.23963,"lon":5.36631,"is_reserved":false,"is_disabled":false,"rental_uris":{"android":"levelo://app?vid=527bdaef-80de-47b0-9b80-85874e027293","ios":"levelo://app?vid=527bdaef-80de-47b0-9b80-85874e027293"},"vehicle_type_id":"4","last_reported":1728476220,"current_range_meters":24000,"station_id":"ce4bhi12rcd13ifvqfp0","pricing_plan_id":"cebpf4jnsgd1na2vs0mg"},{"bike_id":"fcdc8280-1df8-4775-b684-2ffcfe60c738","system_id":"levelo_inurba_marseille","lat":43.29926,"lon":5.36536,"is_reserved":false,"is_disabled":false,"rental_uris":{"android":"levelo://app?vid=fcdc8280-1df8-4775-b684-2ffcfe60c738","ios":"levelo://app?vid=fcdc8280-1df8-4775-b684-2ffcfe60c738"},"vehicle_type_id":"4","last_reported":1728476220,"current_range_meters":36400,"station_id":"ce4bgm92rcd13ifvqbr0","pricing_plan_id":"cebpf4jnsgd1na2vs0mg"},{"bike_id":"4f245b13-78f5-4e01-893a-4c35e233e2b0","system_id":"levelo_inurba_marseille","lat":43.30442,"lon":5.37843,"is_reserved":false,"is_disabled":false,"rental_uris":{"android":"levelo://app?vid=4f245b13-78f5-4e01-893a-4c35e233e2b0","ios":"levelo://app?vid=4f245b13-78f5-4e01-893a-4c35e233e2b0"},"vehicle_type_id":"4","last_reported":1728476220,"current_range_meters":38000,"station_id":"","pricing_plan_id":"cebpf4jnsgd1na2vs0mg"},{"bike_id":"ef18b2fe-6c65-47ee-9c16-9776d2274fcf","system_id":"levelo_inurba_marseille","lat":43.26555,"lon":5.37287,"is_reserved":false,"is_disabled":false,"rental_uris":{"android":"levelo://app?vid=ef18b2fe-6c65-47ee-9c16-9776d2274fcf","ios":"levelo://app?vid=ef18b2fe-6c65-47ee-9c16-9776d2274fcf"},"vehicle_type_id":"4","last_reported":1728476220,"current_range_meters":8800,"station_id":"ce4bhg12rcd13ifvqf70","pricing_plan_id":"cebpf4jnsgd1na2vs0mg"},{"bike_id":"96d80047-32d2-45f4-bd41-195cf5cb8e0c","system_id":"levelo_inurba_marseille","lat":43.23052,"lon":5.35492,"is_reserved":false,"is_disabled":false,"rental_uris":{"android":"levelo://app?vid=96d80047-32d2-45f4-bd41-195cf5cb8e0c","ios":"levelo://app?vid=96d80047-32d2-45f4-bd41-195cf5cb8e0c"},"vehicle_type_id":"4","last_reported":1728476220,"current_range_meters":37600,"station_id":"cpo3342slgdg3j2ifvpg","pricing_plan_id":"cebpf4jnsgd1na2vs0mg"},{"bike_id":"bb8e6a34-999f-4639-9322-bde828483a45","system_id":"levelo_inurba_marseille","lat":43.32002,"lon":5.38164,"is_reserved":false,"is_disabled":false,"rental_uris":{"android":"levelo://app?vid=bb8e6a34-999f-4639-9322-bde828483a45","ios":"levelo://app?vid=bb8e6a34-999f-4639-9322-bde828483a45"},"vehicle_type_id":"4","last_reported":1728476220,"current_range_meters":9600,"station_id":"ce4bhr12rcd13ifvqhpg","pricing_plan_id":"cebpf4jnsgd1na2vs0mg"},{"bike_id":"0796fc03-cedd-4668-8767-ff9d83360f15","system_id":"levelo_inurba_marseille","lat":43.27625,"lon":5.36106,"is_reserved":false,"is_disabled":false,"rental_uris":{"android":"levelo://app?vid=0796fc03-cedd-4668-8767-ff9d83360f15","ios":"levelo://app?vid=0796fc03-cedd-4668-8767-ff9d83360f15"},"vehicle_type_id":"4","last_reported":1728476220,"current_range_meters":27600,"station_id":"ce4bgj92rcd13ifvqbe0","pricing_plan_id":"cebpf4jnsgd1na2vs0mg"},{"bike_id":"45051c07-a864-41b8-be9f-d6bc8c6d0047","system_id":"levelo_inurba_marseille","lat":43.23151,"lon":5.4372,"is_reserved":false,"is_disabled":false,"rental_uris":{"android":"levelo://app?vid=45051c07-a864-41b8-be9f-d6bc8c6d0047","ios":"levelo://app?vid=45051c07-a864-41b8-be9f-d6bc8c6d0047"},"vehicle_type_id":"4","last_reported":1728476220,"current_range_meters":30800,"station_id":"ce4bhmp2rcd13ifvqgog","pricing_plan_id":"cebpf4jnsgd1na2vs0mg"},{"bike_id":"2540b34d-8172-4ccc-9535-ea538cf31cdf","system_id":"levelo_inurba_marseille","lat":43.26557,"lon":5.37282,"is_reserved":false,"is_disabled":false,"rental_uris":{"android":"levelo://app?vid=2540b34d-8172-4ccc-9535-ea538cf31cdf","ios":"levelo://app?vid=2540b34d-8172-4ccc-9535-ea538cf31cdf"},"vehicle_type_id":"4","last_reported":1728476220,"current_range_meters":29600,"station_id":"ce4bhg12rcd13ifvqf70","pricing_plan_id":"cebpf4jnsgd1na2vs0mg"},{"bike_id":"ea9195a9-c9f1-4349-9121-6231f05d3714","system_id":"levelo_inurba_marseille","lat":43.2795,"lon":5.4104,"is_reserved":false,"is_disabled":false,"rental_uris":{"android":"levelo://app?vid=ea9195a9-c9f1-4349-9121-6231f05d3714","ios":"levelo://app?vid=ea9195a9-c9f1-4349-9121-6231f05d3714"},"vehicle_type_id":"4","last_reported":1728476220,"current_range_meters":2800,"station_id":"ce4bhnp2rcd13ifvqh0g","pricing_plan_id":"cebpf4jnsgd1na2vs0mg"},{"bike_id":"fa49a0a8-62e4-41ea-9ead-de4005e97fff","system_id":"levelo_inurba_marseille","lat":43.23203,"lon":5.35553,"is_reserved":false,"is_disabled":false,"rental_uris":{"android":"levelo://app?vid=fa49a0a8-62e4-41ea-9ead-de4005e97fff","ios":"levelo://app?vid=fa49a0a8-62e4-41ea-9ead-de4005e97fff"},"vehicle_type_id":"4","last_reported":1728476220,"current_range_meters":3200,"station_id":"ce4bhu92rcd13ifvqi70","pricing_plan_id":"cebpf4jnsgd1na2vs0mg"},{"bike_id":"a2669f3a-b54e-4fbb-9b92-5c5cfb930d28","system_id":"levelo_inurba_marseille","lat":43.25931,"lon":5.409,"is_reserved":false,"is_disabled":false,"rental_uris":{"android":"levelo://app?vid=a2669f3a-b54e-4fbb-9b92-5c5cfb930d28","ios":"levelo://app?vid=a2669f3a-b54e-4fbb-9b92-5c5cfb930d28"},"vehicle_type_id":"4","last_reported":1728476220,"current_range_meters":25600,"station_id":"ce4bhm92rcd13ifvqglg","pricing_plan_id":"cebpf4jnsgd1na2vs0mg"},{"bike_id":"c8e9291d-35ee-475b-89da-29af01fa2abe","system_id":"levelo_inurba_marseille","lat":43.32378,"lon":5.38873,"is_reserved":false,"is_disabled":false,"rental_uris":{"android":"levelo://app?vid=c8e9291d-35ee-475b-89da-29af01fa2abe","ios":"levelo://app?vid=c8e9291d-35ee-475b-89da-29af01fa2abe"},"vehicle_type_id":"4","last_reported":1728476220,"current_range_meters":8400,"station_id":"ce4bhqp2rcd13ifvqhog","pricing_plan_id":"cebpf4jnsgd1na2vs0mg"},{"bike_id":"32a47555-5b90-4e71-acec-5d7469e9cc0c","system_id":"levelo_inurba_marseille","lat":43.3249,"lon":5.3656,"is_reserved":false,"is_disabled":false,"rental_uris":{"android":"levelo://app?vid=32a47555-5b90-4e71-acec-5d7469e9cc0c","ios":"levelo://app?vid=32a47555-5b90-4e71-acec-5d7469e9cc0c"},"vehicle_type_id":"4","last_reported":1728476220,"current_range_meters":39200,"station_id":"ce4bhs12rcd13ifvqhvg","pricing_plan_id":"cebpf4jnsgd1na2vs0mg"},{"bike_id":"90085373-0aeb-4ec1-80a2-88ea15d88c2b","system_id":"levelo_inurba_marseille","lat":43.29704,"lon":5.37533,"is_reserved":false,"is_disabled":false,"rental_uris":{"android":"levelo://app?vid=90085373-0aeb-4ec1-80a2-88ea15d88c2b","ios":"levelo://app?vid=90085373-0aeb-4ec1-80a2-88ea15d88c2b"},"vehicle_type_id":"4","last_reported":1728476220,"current_range_meters":5600,"station_id":"","pricing_plan_id":"cebpf4jnsgd1na2vs0mg"},{"bike_id":"d90712d7-c141-4692-95f9-dd71034a00eb","system_id":"levelo_inurba_marseille","lat":43.29842,"lon":5.36268,"is_reserved":false,"is_disabled":false,"rental_uris":{"android":"levelo://app?vid=d90712d7-c141-4692-95f9-dd71034a00eb","ios":"levelo://app?vid=d90712d7-c141-4692-95f9-dd71034a00eb"},"vehicle_type_id":"4","last_reported":1728476220,"current_range_meters":22000,"station_id":"ce4bgpp2rcd13ifvqc3g","pricing_plan_id":"cebpf4jnsgd1na2vs0mg"},{"bike_id":"6052bbae-af22-42ff-8f6e-595e17cf0c42","system_id":"levelo_inurba_marseille","lat":43.34139,"lon":5.40887,"is_reserved":false,"is_disabled":false,"rental_uris":{"android":"levelo://app?vid=6052bbae-af22-42ff-8f6e-595e17cf0c42","ios":"levelo://app?vid=6052bbae-af22-42ff-8f6e-595e17cf0c42"},"vehicle_type_id":"4","last_reported":1728476220,"current_range_meters":20800,"station_id":"ce4bhqh2rcd13ifvqhlg","pricing_plan_id":"cebpf4jnsgd1na2vs0mg"},{"bike_id":"e24b9641-1917-43a5-aada-feca225b2098","system_id":"levelo_inurba_marseille","lat":43.29623,"lon":5.37142,"is_reserved":false,"is_disabled":false,"rental_uris":{"android":"levelo://app?vid=e24b9641-1917-43a5-aada-feca225b2098","ios":"levelo://app?vid=e24b9641-1917-43a5-aada-feca225b2098"},"vehicle_type_id":"4","last_reported":1728476220,"current_range_meters":38000,"station_id":"ce4bgnh2rcd13ifvqc0g","pricing_plan_id":"cebpf4jnsgd1na2vs0mg"},{"bike_id":"60a12285-7d72-4ba3-a81e-b72ca47f9fcb","system_id":"levelo_inurba_marseille","lat":43.32655,"lon":5.40993,"is_reserved":false,"is_disabled":false,"rental_uris":{"android":"levelo://app?vid=60a12285-7d72-4ba3-a81e-b72ca47f9fcb","ios":"levelo://app?vid=60a12285-7d72-4ba3-a81e-b72ca47f9fcb"},"vehicle_type_id":"4","last_reported":1728476220,"current_range_meters":33200,"station_id":"ce4bhpp2rcd13ifvqhgg","pricing_plan_id":"cebpf4jnsgd1na2vs0mg"},{"bike_id":"70579604-fe31-4626-8ce5-732c300fd65a","system_id":"levelo_inurba_marseille","lat":43.29938,"lon":5.36542,"is_reserved":false,"is_disabled":false,"rental_uris":{"android":"levelo://app?vid=70579604-fe31-4626-8ce5-732c300fd65a","ios":"levelo://app?vid=70579604-fe31-4626-8ce5-732c300fd65a"},"vehicle_type_id":"4","last_reported":1728476220,"current_range_meters":8800,"station_id":"ce4bgm92rcd13ifvqbr0","pricing_plan_id":"cebpf4jnsgd1na2vs0mg"},{"bike_id":"dbc7ac39-d091-40f6-b363-24616b7a4d92","system_id":"levelo_inurba_marseille","lat":43.27059,"lon":5.4026,"is_reserved":false,"is_disabled":false,"rental_uris":{"android":"levelo://app?vid=dbc7ac39-d091-40f6-b363-24616b7a4d92","ios":"levelo://app?vid=dbc7ac39-d091-40f6-b363-24616b7a4d92"},"vehicle_type_id":"4","last_reported":1728476220,"current_range_meters":22800,"station_id":"ce4bhk92rcd13ifvqgc0","pricing_plan_id":"cebpf4jnsgd1na2vs0mg"},{"bike_id":"bae677ff-b4be-44df-9b65-acf44a0f1694","system_id":"levelo_inurba_marseille","lat":43.29276,"lon":5.40115,"is_reserved":false,"is_disabled":false,"rental_uris":{"android":"levelo://app?vid=bae677ff-b4be-44df-9b65-acf44a0f1694","ios":"levelo://app?vid=bae677ff-b4be-44df-9b65-acf44a0f1694"},"vehicle_type_id":"4","last_reported":1728476220,"current_range_meters":37600,"station_id":"ce4bh312rcd13ifvqdk0","pricing_plan_id":"cebpf4jnsgd1na2vs0mg"},{"bike_id":"baba3ddf-e747-4095-9a9c-078163c7026f","system_id":"levelo_inurba_marseille","lat":43.25932,"lon":5.40904,"is_reserved":false,"is_disabled":false,"rental_uris":{"android":"levelo://app?vid=baba3ddf-e747-4095-9a9c-078163c7026f","ios":"levelo://app?vid=baba3ddf-e747-4095-9a9c-078163c7026f"},"vehicle_type_id":"4","last_reported":1728476220,"current_range_meters":6400,"station_id":"ce4bhm92rcd13ifvqglg","pricing_plan_id":"cebpf4jnsgd1na2vs0mg"},{"bike_id":"44d6dfe4-c488-4899-8de9-5ccbe0fa4e7e","system_id":"levelo_inurba_marseille","lat":43.29224,"lon":5.36058,"is_reserved":false,"is_disabled":false,"rental_uris":{"android":"levelo://app?vid=44d6dfe4-c488-4899-8de9-5ccbe0fa4e7e","ios":"levelo://app?vid=44d6dfe4-c488-4899-8de9-5ccbe0fa4e7e"},"vehicle_type_id":"4","last_reported":1728476220,"current_range_meters":33200,"station_id":"ce4bhbh2rcd13ifvqeqg","pricing_plan_id":"cebpf4jnsgd1na2vs0mg"},{"bike_id":"5a92605f-7e33-4228-a7a5-d1a4485bd1a6","system_id":"levelo_inurba_marseille","lat":43.27948,"lon":5.41038,"is_reserved":false,"is_disabled":false,"rental_uris":{"android":"levelo://app?vid=5a92605f-7e33-4228-a7a5-d1a4485bd1a6","ios":"levelo://app?vid=5a92605f-7e33-4228-a7a5-d1a4485bd1a6"},"vehicle_type_id":"4","last_reported":1728476220,"current_range_meters":2000,"station_id":"ce4bhnp2rcd13ifvqh0g","pricing_plan_id":"cebpf4jnsgd1na2vs0mg"},{"bike_id":"6217f0d4-29aa-4911-a3f9-c02e45328700","system_id":"levelo_inurba_marseille","lat":43.23202,"lon":5.35548,"is_reserved":false,"is_disabled":false,"rental_uris":{"android":"levelo://app?vid=6217f0d4-29aa-4911-a3f9-c02e45328700","ios":"levelo://app?vid=6217f0d4-29aa-4911-a3f9-c02e45328700"},"vehicle_type_id":"4","last_reported":1728476220,"current_range_meters":32800,"station_id":"ce4bhu92rcd13ifvqi70","pricing_plan_id":"cebpf4jnsgd1na2vs0mg"},{"bike_id":"195a0440-9632-458b-af2c-3092e755a7b3","system_id":"levelo_inurba_marseille","lat":43.31354,"lon":5.38506,"is_reserved":false,"is_disabled":false,"rental_uris":{"android":"levelo://app?vid=195a0440-9632-458b-af2c-3092e755a7b3","ios":"levelo://app?vid=195a0440-9632-458b-af2c-3092e755a7b3"},"vehicle_type_id":"4","last_reported":1728476220,"current_range_meters":6400,"station_id":"ce4bgt92rcd13ifvqcf0","pricing_plan_id":"cebpf4jnsgd1na2vs0mg"},{"bike_id":"9d3935c4-e49c-4d7a-9332-1bd57798c7ac","system_id":"levelo_inurba_marseille","lat":43.26944,"lon":5.40254,"is_reserved":false,"is_disabled":false,"rental_uris":{"android":"levelo://app?vid=9d3935c4-e49c-4d7a-9332-1bd57798c7ac","ios":"levelo://app?vid=9d3935c4-e49c-4d7a-9332-1bd57798c7ac"},"vehicle_type_id":"4","last_reported":1728476220,"current_range_meters":38800,"station_id":"cjm6bp8fraef2m0cb0m0","pricing_plan_id":"cebpf4jnsgd1na2vs0mg"},{"bike_id":"fde7cf76-2bbb-462c-878e-7256af82b32b","system_id":"levelo_inurba_marseille","lat":43.23206,"lon":5.35544,"is_reserved":false,"is_disabled":false,"rental_uris":{"android":"levelo://app?vid=fde7cf76-2bbb-462c-878e-7256af82b32b","ios":"levelo://app?vid=fde7cf76-2bbb-462c-878e-7256af82b32b"},"vehicle_type_id":"4","last_reported":1728476220,"current_range_meters":38800,"station_id":"ce4bhu92rcd13ifvqi70","pricing_plan_id":"cebpf4jnsgd1na2vs0mg"},{"bike_id":"fd4dd0b0-9f29-4283-b0a3-caf50dd2be11","system_id":"levelo_inurba_marseille","lat":43.33027,"lon":5.39026,"is_reserved":false,"is_disabled":false,"rental_uris":{"android":"levelo://app?vid=fd4dd0b0-9f29-4283-b0a3-caf50dd2be11","ios":"levelo://app?vid=fd4dd0b0-9f29-4283-b0a3-caf50dd2be11"},"vehicle_type_id":"4","last_reported":1728476220,"current_range_meters":38800,"station_id":"ce4bhr92rcd13ifvqhrg","pricing_plan_id":"cebpf4jnsgd1na2vs0mg"},{"bike_id":"fdebe54d-e5ee-43cc-9312-1f9bdee48dd5","system_id":"levelo_inurba_marseille","lat":43.29983,"lon":5.38501,"is_reserved":false,"is_disabled":false,"rental_uris":{"android":"levelo://app?vid=fdebe54d-e5ee-43cc-9312-1f9bdee48dd5","ios":"levelo://app?vid=fdebe54d-e5ee-43cc-9312-1f9bdee48dd5"},"vehicle_type_id":"4","last_reported":1728476220,"current_range_meters":38400,"station_id":"ce4bgj92rcd13ifvqbd0","pricing_plan_id":"cebpf4jnsgd1na2vs0mg"},{"bike_id":"6612fdc9-fc7d-4584-815b-503fdc4830dd","system_id":"levelo_inurba_marseille","lat":43.27812,"lon":5.40716,"is_reserved":false,"is_disabled":false,"rental_uris":{"android":"levelo://app?vid=6612fdc9-fc7d-4584-815b-503fdc4830dd","ios":"levelo://app?vid=6612fdc9-fc7d-4584-815b-503fdc4830dd"},"vehicle_type_id":"4","last_reported":1728476220,"current_range_meters":10800,"station_id":"ce4bhnh2rcd13ifvqgtg","pricing_plan_id":"cebpf4jnsgd1na2vs0mg"},{"bike_id":"2b6677d5-7b62-4a07-b6c3-7bf77f5bcd5c","system_id":"levelo_inurba_marseille","lat":43.28446,"lon":5.39185,"is_reserved":false,"is_disabled":false,"rental_uris":{"android":"levelo://app?vid=2b6677d5-7b62-4a07-b6c3-7bf77f5bcd5c","ios":"levelo://app?vid=2b6677d5-7b62-4a07-b6c3-7bf77f5bcd5c"},"vehicle_type_id":"4","last_reported":1728476220,"current_range_meters":37600,"station_id":"ce4bhoh2rcd13ifvqh5g","pricing_plan_id":"cebpf4jnsgd1na2vs0mg"},{"bike_id":"8ebaa87f-e11b-4585-bb64-61dc7d74e947","system_id":"levelo_inurba_marseille","lat":43.2587,"lon":5.39899,"is_reserved":false,"is_disabled":false,"rental_uris":{"android":"levelo://app?vid=8ebaa87f-e11b-4585-bb64-61dc7d74e947","ios":"levelo://app?vid=8ebaa87f-e11b-4585-bb64-61dc7d74e947"},"vehicle_type_id":"4","last_reported":1728476220,"current_range_meters":4400,"station_id":"ce4bhl92rcd13ifvqghg","pricing_plan_id":"cebpf4jnsgd1na2vs0mg"},{"bike_id":"63e1d9fc-7a12-42d0-81a5-218e6e631027","system_id":"levelo_inurba_marseille","lat":43.303986,"lon":5.367798,"is_reserved":false,"is_disabled":false,"rental_uris":{"android":"levelo://app?vid=63e1d9fc-7a12-42d0-81a5-218e6e631027","ios":"levelo://app?vid=63e1d9fc-7a12-42d0-81a5-218e6e631027"},"vehicle_type_id":"4","last_reported":1728476220,"current_range_meters":35600,"station_id":"ce4bgrp2rcd13ifvqc9g","pricing_plan_id":"cebpf4jnsgd1na2vs0mg"},{"bike_id":"14d92752-529c-4703-a058-b933dfbce5ea","system_id":"levelo_inurba_marseille","lat":43.29943,"lon":5.38828,"is_reserved":false,"is_disabled":false,"rental_uris":{"android":"levelo://app?vid=14d92752-529c-4703-a058-b933dfbce5ea","ios":"levelo://app?vid=14d92752-529c-4703-a058-b933dfbce5ea"},"vehicle_type_id":"4","last_reported":1728476220,"current_range_meters":36800,"station_id":"","pricing_plan_id":"cebpf4jnsgd1na2vs0mg"},{"bike_id":"d80bfdf3-f9a5-4093-8b7b-d5ae47861bec","system_id":"levelo_inurba_marseille","lat":43.30802,"lon":5.43519,"is_reserved":false,"is_disabled":false,"rental_uris":{"android":"levelo://app?vid=d80bfdf3-f9a5-4093-8b7b-d5ae47861bec","ios":"levelo://app?vid=d80bfdf3-f9a5-4093-8b7b-d5ae47861bec"},"vehicle_type_id":"4","last_reported":1728476220,"current_range_meters":17200,"station_id":"ce4bhph2rcd13ifvqheg","pricing_plan_id":"cebpf4jnsgd1na2vs0mg"},{"bike_id":"fe9a10ee-6346-4e84-8596-ad108789ef01","system_id":"levelo_inurba_marseille","lat":43.27059,"lon":5.40255,"is_reserved":false,"is_disabled":false,"rental_uris":{"android":"levelo://app?vid=fe9a10ee-6346-4e84-8596-ad108789ef01","ios":"levelo://app?vid=fe9a10ee-6346-4e84-8596-ad108789ef01"},"vehicle_type_id":"4","last_reported":1728476220,"current_range_meters":16800,"station_id":"ce4bhk92rcd13ifvqgc0","pricing_plan_id":"cebpf4jnsgd1na2vs0mg"},{"bike_id":"64e138a5-46f0-474c-8b49-3da3903904af","system_id":"levelo_inurba_marseille","lat":43.29551,"lon":5.42284,"is_reserved":false,"is_disabled":false,"rental_uris":{"android":"levelo://app?vid=64e138a5-46f0-474c-8b49-3da3903904af","ios":"levelo://app?vid=64e138a5-46f0-474c-8b49-3da3903904af"},"vehicle_type_id":"4","last_reported":1728476220,"current_range_meters":29600,"station_id":"ce4bhph2rcd13ifvqhdg","pricing_plan_id":"cebpf4jnsgd1na2vs0mg"},{"bike_id":"a4dd4fd0-c46e-4873-a5cb-0d69d5c83e4f","system_id":"levelo_inurba_marseille","lat":43.28442,"lon":5.39202,"is_reserved":false,"is_disabled":false,"rental_uris":{"android":"levelo://app?vid=a4dd4fd0-c46e-4873-a5cb-0d69d5c83e4f","ios":"levelo://app?vid=a4dd4fd0-c46e-4873-a5cb-0d69d5c83e4f"},"vehicle_type_id":"4","last_reported":1728476220,"current_range_meters":33600,"station_id":"ce4bhoh2rcd13ifvqh5g","pricing_plan_id":"cebpf4jnsgd1na2vs0mg"},{"bike_id":"2250666e-2423-4ec9-a242-d1f6b184ebc2","system_id":"levelo_inurba_marseille","lat":43.30142,"lon":5.37412,"is_reserved":false,"is_disabled":false,"rental_uris":{"android":"levelo://app?vid=2250666e-2423-4ec9-a242-d1f6b184ebc2","ios":"levelo://app?vid=2250666e-2423-4ec9-a242-d1f6b184ebc2"},"vehicle_type_id":"4","last_reported":1728476220,"current_range_meters":27600,"station_id":"ce4bgs92rcd13ifvqcc0","pricing_plan_id":"cebpf4jnsgd1na2vs0mg"},{"bike_id":"4ba7fd62-edb0-4310-81a4-65a69af4a962","system_id":"levelo_inurba_marseille","lat":43.32486,"lon":5.36559,"is_reserved":false,"is_disabled":false,"rental_uris":{"android":"levelo://app?vid=4ba7fd62-edb0-4310-81a4-65a69af4a962","ios":"levelo://app?vid=4ba7fd62-edb0-4310-81a4-65a69af4a962"},"vehicle_type_id":"4","last_reported":1728476220,"current_range_meters":19600,"station_id":"ce4bhs12rcd13ifvqhvg","pricing_plan_id":"cebpf4jnsgd1na2vs0mg"},{"bike_id":"1543f19a-8d98-48f2-91b2-3408b33022b4","system_id":"levelo_inurba_marseille","lat":43.22934,"lon":5.35378,"is_reserved":false,"is_disabled":false,"rental_uris":{"android":"levelo://app?vid=1543f19a-8d98-48f2-91b2-3408b33022b4","ios":"levelo://app?vid=1543f19a-8d98-48f2-91b2-3408b33022b4"},"vehicle_type_id":"4","last_reported":1728476220,"current_range_meters":29600,"station_id":"cpo3532slgdg3j2ikp40","pricing_plan_id":"cebpf4jnsgd1na2vs0mg"},{"bike_id":"72b1b23d-fbe7-42de-baf8-02588918c90b","system_id":"levelo_inurba_marseille","lat":43.27622,"lon":5.384,"is_reserved":false,"is_disabled":false,"rental_uris":{"android":"levelo://app?vid=72b1b23d-fbe7-42de-baf8-02588918c90b","ios":"levelo://app?vid=72b1b23d-fbe7-42de-baf8-02588918c90b"},"vehicle_type_id":"4","last_reported":1728476220,"current_range_meters":7200,"station_id":"","pricing_plan_id":"cebpf4jnsgd1na2vs0mg"},{"bike_id":"8f195e73-56cf-4dbf-97df-c620bbc300b1","system_id":"levelo_inurba_marseille","lat":43.23157,"lon":5.43703,"is_reserved":false,"is_disabled":false,"rental_uris":{"android":"levelo://app?vid=8f195e73-56cf-4dbf-97df-c620bbc300b1","ios":"levelo://app?vid=8f195e73-56cf-4dbf-97df-c620bbc300b1"},"vehicle_type_id":"4","last_reported":1728476220,"current_range_meters":16400,"station_id":"ce4bhmp2rcd13ifvqgog","pricing_plan_id":"cebpf4jnsgd1na2vs0mg"},{"bike_id":"25afecff-8faf-4ca5-beb4-ce74280dcb13","system_id":"levelo_inurba_marseille","lat":43.23198,"lon":5.35546,"is_reserved":false,"is_disabled":false,"rental_uris":{"android":"levelo://app?vid=25afecff-8faf-4ca5-beb4-ce74280dcb13","ios":"levelo://app?vid=25afecff-8faf-4ca5-beb4-ce74280dcb13"},"vehicle_type_id":"4","last_reported":1728476220,"current_range_meters":3600,"station_id":"ce4bhu92rcd13ifvqi70","pricing_plan_id":"cebpf4jnsgd1na2vs0mg"},{"bike_id":"b11dc5ac-ae45-4e7f-8e4d-4d9d5fc58b27","system_id":"levelo_inurba_marseille","lat":43.3026,"lon":5.40069,"is_reserved":false,"is_disabled":false,"rental_uris":{"android":"levelo://app?vid=b11dc5ac-ae45-4e7f-8e4d-4d9d5fc58b27","ios":"levelo://app?vid=b11dc5ac-ae45-4e7f-8e4d-4d9d5fc58b27"},"vehicle_type_id":"4","last_reported":1728476220,"current_range_meters":34800,"station_id":"ce4bgvh2rcd13ifvqcs0","pricing_plan_id":"cebpf4jnsgd1na2vs0mg"},{"bike_id":"7219fee0-219f-4cfa-8633-b620db7597ae","system_id":"levelo_inurba_marseille","lat":43.29838,"lon":5.37092,"is_reserved":false,"is_disabled":false,"rental_uris":{"android":"levelo://app?vid=7219fee0-219f-4cfa-8633-b620db7597ae","ios":"levelo://app?vid=7219fee0-219f-4cfa-8633-b620db7597ae"},"vehicle_type_id":"4","last_reported":1728476220,"current_range_meters":12000,"station_id":"","pricing_plan_id":"cebpf4jnsgd1na2vs0mg"},{"bike_id":"f91066a1-e8cb-48d4-8373-4e9e845c15f1","system_id":"levelo_inurba_marseille","lat":43.30802,"lon":5.4352,"is_reserved":false,"is_disabled":false,"rental_uris":{"android":"levelo://app?vid=f91066a1-e8cb-48d4-8373-4e9e845c15f1","ios":"levelo://app?vid=f91066a1-e8cb-48d4-8373-4e9e845c15f1"},"vehicle_type_id":"4","last_reported":1728476220,"current_range_meters":9200,"station_id":"ce4bhph2rcd13ifvqheg","pricing_plan_id":"cebpf4jnsgd1na2vs0mg"},{"bike_id":"7aa02c20-fb44-444a-805a-779514fda728","system_id":"levelo_inurba_marseille","lat":43.27614,"lon":5.36103,"is_reserved":false,"is_disabled":false,"rental_uris":{"android":"levelo://app?vid=7aa02c20-fb44-444a-805a-779514fda728","ios":"levelo://app?vid=7aa02c20-fb44-444a-805a-779514fda728"},"vehicle_type_id":"4","last_reported":1728476220,"current_range_meters":30800,"station_id":"ce4bgj92rcd13ifvqbe0","pricing_plan_id":"cebpf4jnsgd1na2vs0mg"},{"bike_id":"ca07085f-bbaa-407c-8491-537cbad182b2","system_id":"levelo_inurba_marseille","lat":43.30548,"lon":5.38426,"is_reserved":false,"is_disabled":false,"rental_uris":{"android":"levelo://app?vid=ca07085f-bbaa-407c-8491-537cbad182b2","ios":"levelo://app?vid=ca07085f-bbaa-407c-8491-537cbad182b2"},"vehicle_type_id":"4","last_reported":1728476220,"current_range_meters":26000,"station_id":"ce4bgk12rcd13ifvqbi0","pricing_plan_id":"cebpf4jnsgd1na2vs0mg"},{"bike_id":"a0c412cf-5683-4ede-90b8-ba04261a31f8","system_id":"levelo_inurba_marseille","lat":43.28162,"lon":5.42634,"is_reserved":false,"is_disabled":false,"rental_uris":{"android":"levelo://app?vid=a0c412cf-5683-4ede-90b8-ba04261a31f8","ios":"levelo://app?vid=a0c412cf-5683-4ede-90b8-ba04261a31f8"},"vehicle_type_id":"4","last_reported":1728476220,"current_range_meters":25600,"station_id":"ce4bhnh2rcd13ifvqgug","pricing_plan_id":"cebpf4jnsgd1na2vs0mg"},{"bike_id":"d819c6e6-0d15-4623-ab7d-7d4be1f5b1aa","system_id":"levelo_inurba_marseille","lat":43.305455,"lon":5.36534,"is_reserved":false,"is_disabled":false,"rental_uris":{"android":"levelo://app?vid=d819c6e6-0d15-4623-ab7d-7d4be1f5b1aa","ios":"levelo://app?vid=d819c6e6-0d15-4623-ab7d-7d4be1f5b1aa"},"vehicle_type_id":"4","last_reported":1728476220,"current_range_meters":16000,"station_id":"ce4bgs12rcd13ifvqcag","pricing_plan_id":"cebpf4jnsgd1na2vs0mg"},{"bike_id":"a2991533-fb61-4c0b-bcb6-f12a500175db","system_id":"levelo_inurba_marseille","lat":43.23182,"lon":5.3999,"is_reserved":false,"is_disabled":false,"rental_uris":{"android":"levelo://app?vid=a2991533-fb61-4c0b-bcb6-f12a500175db","ios":"levelo://app?vid=a2991533-fb61-4c0b-bcb6-f12a500175db"},"vehicle_type_id":"4","last_reported":1728476220,"current_range_meters":16000,"station_id":"ce4bhn12rcd13ifvqgqg","pricing_plan_id":"cebpf4jnsgd1na2vs0mg"},{"bike_id":"003dfcd1-e77c-45f7-bd34-289604a833af","system_id":"levelo_inurba_marseille","lat":43.31715,"lon":5.43704,"is_reserved":false,"is_disabled":false,"rental_uris":{"android":"levelo://app?vid=003dfcd1-e77c-45f7-bd34-289604a833af","ios":"levelo://app?vid=003dfcd1-e77c-45f7-bd34-289604a833af"},"vehicle_type_id":"4","last_reported":1728476220,"current_range_meters":27600,"station_id":"ce4bhp92rcd13ifvqhcg","pricing_plan_id":"cebpf4jnsgd1na2vs0mg"},{"bike_id":"c75f5bad-3dc4-4b51-bff3-505087a8a577","system_id":"levelo_inurba_marseille","lat":43.28937,"lon":5.36628,"is_reserved":false,"is_disabled":false,"rental_uris":{"android":"levelo://app?vid=c75f5bad-3dc4-4b51-bff3-505087a8a577","ios":"levelo://app?vid=c75f5bad-3dc4-4b51-bff3-505087a8a577"},"vehicle_type_id":"4","last_reported":1728476220,"current_range_meters":20000,"station_id":"ce4bhap2rcd13ifvqek0","pricing_plan_id":"cebpf4jnsgd1na2vs0mg"},{"bike_id":"2da6e46e-c4a1-45ae-a363-4743b2ed352c","system_id":"levelo_inurba_marseille","lat":43.232,"lon":5.35544,"is_reserved":false,"is_disabled":false,"rental_uris":{"android":"levelo://app?vid=2da6e46e-c4a1-45ae-a363-4743b2ed352c","ios":"levelo://app?vid=2da6e46e-c4a1-45ae-a363-4743b2ed352c"},"vehicle_type_id":"4","last_reported":1728476220,"current_range_meters":8000,"station_id":"ce4bhu92rcd13ifvqi70","pricing_plan_id":"cebpf4jnsgd1na2vs0mg"},{"bike_id":"afb883f1-4d22-4d26-ac09-77ee24876035","system_id":"levelo_inurba_marseille","lat":43.3254,"lon":5.4143,"is_reserved":false,"is_disabled":false,"rental_uris":{"android":"levelo://app?vid=afb883f1-4d22-4d26-ac09-77ee24876035","ios":"levelo://app?vid=afb883f1-4d22-4d26-ac09-77ee24876035"},"vehicle_type_id":"4","last_reported":1728476220,"current_range_meters":36800,"station_id":"ce4bhq12rcd13ifvqhhg","pricing_plan_id":"cebpf4jnsgd1na2vs0mg"},{"bike_id":"277380ff-98d7-4b02-9453-5cfff4dd00d4","system_id":"levelo_inurba_marseille","lat":43.30471,"lon":5.37911,"is_reserved":false,"is_disabled":false,"rental_uris":{"android":"levelo://app?vid=277380ff-98d7-4b02-9453-5cfff4dd00d4","ios":"levelo://app?vid=277380ff-98d7-4b02-9453-5cfff4dd00d4"},"vehicle_type_id":"4","last_reported":1728476220,"current_range_meters":16400,"station_id":"ce4bgup2rcd13ifvqcn0","pricing_plan_id":"cebpf4jnsgd1na2vs0mg"},{"bike_id":"b9a4d42f-555a-4f49-88bf-3fa3ead13517","system_id":"levelo_inurba_marseille","lat":43.29794,"lon":5.37099,"is_reserved":false,"is_disabled":false,"rental_uris":{"android":"levelo://app?vid=b9a4d42f-555a-4f49-88bf-3fa3ead13517","ios":"levelo://app?vid=b9a4d42f-555a-4f49-88bf-3fa3ead13517"},"vehicle_type_id":"4","last_reported":1728476220,"current_range_meters":38000,"station_id":"ce4bgop2rcd13ifvqc1g","pricing_plan_id":"cebpf4jnsgd1na2vs0mg"},{"bike_id":"166a39f5-db64-4701-9c1e-3e028fdca3cf","system_id":"levelo_inurba_marseille","lat":43.28615,"lon":5.35104,"is_reserved":false,"is_disabled":false,"rental_uris":{"android":"levelo://app?vid=166a39f5-db64-4701-9c1e-3e028fdca3cf","ios":"levelo://app?vid=166a39f5-db64-4701-9c1e-3e028fdca3cf"},"vehicle_type_id":"4","last_reported":1728476220,"current_range_meters":16000,"station_id":"ce4bhch2rcd13ifvqeug","pricing_plan_id":"cebpf4jnsgd1na2vs0mg"},{"bike_id":"1380d008-5522-4f38-9c5b-f05caee7d43b","system_id":"levelo_inurba_marseille","lat":43.27378,"lon":5.36256,"is_reserved":false,"is_disabled":false,"rental_uris":{"android":"levelo://app?vid=1380d008-5522-4f38-9c5b-f05caee7d43b","ios":"levelo://app?vid=1380d008-5522-4f38-9c5b-f05caee7d43b"},"vehicle_type_id":"4","last_reported":1728476220,"current_range_meters":26800,"station_id":"ce4bhbh2rcd13ifvqeo0","pricing_plan_id":"cebpf4jnsgd1na2vs0mg"},{"bike_id":"cd5db413-cd84-47e8-8776-565b7138cca3","system_id":"levelo_inurba_marseille","lat":43.32483,"lon":5.36563,"is_reserved":false,"is_disabled":false,"rental_uris":{"android":"levelo://app?vid=cd5db413-cd84-47e8-8776-565b7138cca3","ios":"levelo://app?vid=cd5db413-cd84-47e8-8776-565b7138cca3"},"vehicle_type_id":"4","last_reported":1728476220,"current_range_meters":36800,"station_id":"ce4bhs12rcd13ifvqhvg","pricing_plan_id":"cebpf4jnsgd1na2vs0mg"},{"bike_id":"3ef3ac12-e482-470a-ba96-08ff33b6022c","system_id":"levelo_inurba_marseille","lat":43.30144,"lon":5.37413,"is_reserved":false,"is_disabled":false,"rental_uris":{"android":"levelo://app?vid=3ef3ac12-e482-470a-ba96-08ff33b6022c","ios":"levelo://app?vid=3ef3ac12-e482-470a-ba96-08ff33b6022c"},"vehicle_type_id":"4","last_reported":1728476220,"current_range_meters":18000,"station_id":"ce4bgs92rcd13ifvqcc0","pricing_plan_id":"cebpf4jnsgd1na2vs0mg"},{"bike_id":"3bb4d3c7-e077-476e-bb21-b96a787f0c12","system_id":"levelo_inurba_marseille","lat":43.25826,"lon":5.39435,"is_reserved":false,"is_disabled":false,"rental_uris":{"android":"levelo://app?vid=3bb4d3c7-e077-476e-bb21-b96a787f0c12","ios":"levelo://app?vid=3bb4d3c7-e077-476e-bb21-b96a787f0c12"},"vehicle_type_id":"4","last_reported":1728476220,"current_range_meters":23200,"station_id":"ce4bhip2rcd13ifvqft0","pricing_plan_id":"cebpf4jnsgd1na2vs0mg"},{"bike_id":"c8e62e83-fd2e-4961-96aa-48ff55e57972","system_id":"levelo_inurba_marseille","lat":43.30598,"lon":5.37214,"is_reserved":false,"is_disabled":false,"rental_uris":{"android":"levelo://app?vid=c8e62e83-fd2e-4961-96aa-48ff55e57972","ios":"levelo://app?vid=c8e62e83-fd2e-4961-96aa-48ff55e57972"},"vehicle_type_id":"4","last_reported":1728476220,"current_range_meters":31200,"station_id":"ce4bgqh2rcd13ifvqc4g","pricing_plan_id":"cebpf4jnsgd1na2vs0mg"},{"bike_id":"d637a702-dbdd-4f5f-a98c-3814ecd02bd8","system_id":"levelo_inurba_marseille","lat":43.23152,"lon":5.4371,"is_reserved":false,"is_disabled":false,"rental_uris":{"android":"levelo://app?vid=d637a702-dbdd-4f5f-a98c-3814ecd02bd8","ios":"levelo://app?vid=d637a702-dbdd-4f5f-a98c-3814ecd02bd8"},"vehicle_type_id":"4","last_reported":1728476220,"current_range_meters":30000,"station_id":"ce4bhmp2rcd13ifvqgog","pricing_plan_id":"cebpf4jnsgd1na2vs0mg"},{"bike_id":"47cc0a78-e85b-4000-b3fd-c44c4f1b2ca9","system_id":"levelo_inurba_marseille","lat":43.282623,"lon":5.35055,"is_reserved":false,"is_disabled":false,"rental_uris":{"android":"levelo://app?vid=47cc0a78-e85b-4000-b3fd-c44c4f1b2ca9","ios":"levelo://app?vid=47cc0a78-e85b-4000-b3fd-c44c4f1b2ca9"},"vehicle_type_id":"4","last_reported":1728476220,"current_range_meters":24800,"station_id":"ce4bhbp2rcd13ifvqerg","pricing_plan_id":"cebpf4jnsgd1na2vs0mg"},{"bike_id":"bb9d23ed-0cc6-4a87-add5-2f6b84b50aeb","system_id":"levelo_inurba_marseille","lat":43.29037,"lon":5.38134,"is_reserved":false,"is_disabled":false,"rental_uris":{"android":"levelo://app?vid=bb9d23ed-0cc6-4a87-add5-2f6b84b50aeb","ios":"levelo://app?vid=bb9d23ed-0cc6-4a87-add5-2f6b84b50aeb"},"vehicle_type_id":"4","last_reported":1728476220,"current_range_meters":17600,"station_id":"ce4bh4p2rcd13ifvqe1g","pricing_plan_id":"cebpf4jnsgd1na2vs0mg"},{"bike_id":"8d06181a-6075-4139-9696-5ca6c1154ac9","system_id":"levelo_inurba_marseille","lat":43.25827,"lon":5.39431,"is_reserved":false,"is_disabled":false,"rental_uris":{"android":"levelo://app?vid=8d06181a-6075-4139-9696-5ca6c1154ac9","ios":"levelo://app?vid=8d06181a-6075-4139-9696-5ca6c1154ac9"},"vehicle_type_id":"4","last_reported":1728476220,"current_range_meters":20400,"station_id":"ce4bhip2rcd13ifvqft0","pricing_plan_id":"cebpf4jnsgd1na2vs0mg"},{"bike_id":"60ca8287-8942-452b-83cd-9e6be18ee8c3","system_id":"levelo_inurba_marseille","lat":43.26216,"lon":5.3744,"is_reserved":false,"is_disabled":false,"rental_uris":{"android":"levelo://app?vid=60ca8287-8942-452b-83cd-9e6be18ee8c3","ios":"levelo://app?vid=60ca8287-8942-452b-83cd-9e6be18ee8c3"},"vehicle_type_id":"4","last_reported":1728476220,"current_range_meters":15200,"station_id":"ce4bhgp2rcd13ifvqfc0","pricing_plan_id":"cebpf4jnsgd1na2vs0mg"},{"bike_id":"ab34ce49-6274-461c-a86b-a0d8e3edda17","system_id":"levelo_inurba_marseille","lat":43.2893,"lon":5.39622,"is_reserved":false,"is_disabled":false,"rental_uris":{"android":"levelo://app?vid=ab34ce49-6274-461c-a86b-a0d8e3edda17","ios":"levelo://app?vid=ab34ce49-6274-461c-a86b-a0d8e3edda17"},"vehicle_type_id":"4","last_reported":1728476220,"current_range_meters":15200,"station_id":"ce4bh3h2rcd13ifvqdn0","pricing_plan_id":"cebpf4jnsgd1na2vs0mg"},{"bike_id":"b122d44a-5822-45fd-bef2-bac33a049876","system_id":"levelo_inurba_marseille","lat":43.28697,"lon":5.37392,"is_reserved":false,"is_disabled":false,"rental_uris":{"android":"levelo://app?vid=b122d44a-5822-45fd-bef2-bac33a049876","ios":"levelo://app?vid=b122d44a-5822-45fd-bef2-bac33a049876"},"vehicle_type_id":"4","last_reported":1728476220,"current_range_meters":18000,"station_id":"ce4bh3p2rcd13ifvqdq0","pricing_plan_id":"cebpf4jnsgd1na2vs0mg"},{"bike_id":"31400b79-9bea-4eff-b39d-83eace75e8db","system_id":"levelo_inurba_marseille","lat":43.32543,"lon":5.41448,"is_reserved":false,"is_disabled":false,"rental_uris":{"android":"levelo://app?vid=31400b79-9bea-4eff-b39d-83eace75e8db","ios":"levelo://app?vid=31400b79-9bea-4eff-b39d-83eace75e8db"},"vehicle_type_id":"4","last_reported":1728476220,"current_range_meters":22800,"station_id":"ce4bhq12rcd13ifvqhhg","pricing_plan_id":"cebpf4jnsgd1na2vs0mg"},{"bike_id":"16ba126f-5e6e-4930-90b0-f0a0c42e6d08","system_id":"levelo_inurba_marseille","lat":43.3228,"lon":5.3676,"is_reserved":false,"is_disabled":false,"rental_uris":{"android":"levelo://app?vid=16ba126f-5e6e-4930-90b0-f0a0c42e6d08","ios":"levelo://app?vid=16ba126f-5e6e-4930-90b0-f0a0c42e6d08"},"vehicle_type_id":"4","last_reported":1728476220,"current_range_meters":26800,"station_id":"ce4bhs12rcd13ifvqhvg","pricing_plan_id":"cebpf4jnsgd1na2vs0mg"},{"bike_id":"758efd12-c239-4bfa-94ff-d0aa718c38ef","system_id":"levelo_inurba_marseille","lat":43.26216,"lon":5.37443,"is_reserved":false,"is_disabled":false,"rental_uris":{"android":"levelo://app?vid=758efd12-c239-4bfa-94ff-d0aa718c38ef","ios":"levelo://app?vid=758efd12-c239-4bfa-94ff-d0aa718c38ef"},"vehicle_type_id":"4","last_reported":1728476220,"current_range_meters":32800,"station_id":"ce4bhgp2rcd13ifvqfc0","pricing_plan_id":"cebpf4jnsgd1na2vs0mg"},{"bike_id":"7bd97e32-8cf3-40dc-b231-e7bc894fb0d5","system_id":"levelo_inurba_marseille","lat":43.30941,"lon":5.40142,"is_reserved":false,"is_disabled":false,"rental_uris":{"android":"levelo://app?vid=7bd97e32-8cf3-40dc-b231-e7bc894fb0d5","ios":"levelo://app?vid=7bd97e32-8cf3-40dc-b231-e7bc894fb0d5"},"vehicle_type_id":"4","last_reported":1728476220,"current_range_meters":30800,"station_id":"ce4bgvp2rcd13ifvqct0","pricing_plan_id":"cebpf4jnsgd1na2vs0mg"},{"bike_id":"f63cf4a2-5fba-4c54-9baa-8b1b4a02004d","system_id":"levelo_inurba_marseille","lat":43.30802,"lon":5.4352,"is_reserved":false,"is_disabled":false,"rental_uris":{"android":"levelo://app?vid=f63cf4a2-5fba-4c54-9baa-8b1b4a02004d","ios":"levelo://app?vid=f63cf4a2-5fba-4c54-9baa-8b1b4a02004d"},"vehicle_type_id":"4","last_reported":1728476220,"current_range_meters":24800,"station_id":"ce4bhph2rcd13ifvqheg","pricing_plan_id":"cebpf4jnsgd1na2vs0mg"},{"bike_id":"35414a09-375a-4130-87b0-70719c0c141c","system_id":"levelo_inurba_marseille","lat":43.311732,"lon":5.387201,"is_reserved":false,"is_disabled":false,"rental_uris":{"android":"levelo://app?vid=35414a09-375a-4130-87b0-70719c0c141c","ios":"levelo://app?vid=35414a09-375a-4130-87b0-70719c0c141c"},"vehicle_type_id":"4","last_reported":1728476220,"current_range_meters":38400,"station_id":"ce4bgv12rcd13ifvqcp0","pricing_plan_id":"cebpf4jnsgd1na2vs0mg"},{"bike_id":"981417f7-3650-4686-9c01-f3fca65dc77f","system_id":"levelo_inurba_marseille","lat":43.23069,"lon":5.35494,"is_reserved":false,"is_disabled":false,"rental_uris":{"android":"levelo://app?vid=981417f7-3650-4686-9c01-f3fca65dc77f","ios":"levelo://app?vid=981417f7-3650-4686-9c01-f3fca65dc77f"},"vehicle_type_id":"4","last_reported":1728476220,"current_range_meters":18800,"station_id":"cpo3342slgdg3j2ifvpg","pricing_plan_id":"cebpf4jnsgd1na2vs0mg"},{"bike_id":"d70851e2-f83d-4813-9783-36d9465aeed3","system_id":"levelo_inurba_marseille","lat":43.255073,"lon":5.376467,"is_reserved":false,"is_disabled":false,"rental_uris":{"android":"levelo://app?vid=d70851e2-f83d-4813-9783-36d9465aeed3","ios":"levelo://app?vid=d70851e2-f83d-4813-9783-36d9465aeed3"},"vehicle_type_id":"4","last_reported":1728476220,"current_range_meters":38000,"station_id":"ce4bhh12rcd13ifvqff0","pricing_plan_id":"cebpf4jnsgd1na2vs0mg"},{"bike_id":"a7fc21fc-96fb-4603-843c-267888a20c03","system_id":"levelo_inurba_marseille","lat":43.30546,"lon":5.36703,"is_reserved":false,"is_disabled":false,"rental_uris":{"android":"levelo://app?vid=a7fc21fc-96fb-4603-843c-267888a20c03","ios":"levelo://app?vid=a7fc21fc-96fb-4603-843c-267888a20c03"},"vehicle_type_id":"4","last_reported":1728476220,"current_range_meters":39200,"station_id":"ce4bgrp2rcd13ifvqc9g","pricing_plan_id":"cebpf4jnsgd1na2vs0mg"},{"bike_id":"86e20c2f-3e62-4bb7-8de1-5e1a26e46846","system_id":"levelo_inurba_marseille","lat":43.27199,"lon":5.39183,"is_reserved":false,"is_disabled":false,"rental_uris":{"android":"levelo://app?vid=86e20c2f-3e62-4bb7-8de1-5e1a26e46846","ios":"levelo://app?vid=86e20c2f-3e62-4bb7-8de1-5e1a26e46846"},"vehicle_type_id":"4","last_reported":1728476220,"current_range_meters":32400,"station_id":"ce4bhhp2rcd13ifvqfm0","pricing_plan_id":"cebpf4jnsgd1na2vs0mg"},{"bike_id":"ede68b2f-f53f-4ad5-a3f5-950bc936b5eb","system_id":"levelo_inurba_marseille","lat":43.33752,"lon":5.3743,"is_reserved":false,"is_disabled":false,"rental_uris":{"android":"levelo://app?vid=ede68b2f-f53f-4ad5-a3f5-950bc936b5eb","ios":"levelo://app?vid=ede68b2f-f53f-4ad5-a3f5-950bc936b5eb"},"vehicle_type_id":"4","last_reported":1728476220,"current_range_meters":33600,"station_id":"","pricing_plan_id":"cebpf4jnsgd1na2vs0mg"},{"bike_id":"5d19a48f-4ecb-4a04-8593-e3ad4a8266a2","system_id":"levelo_inurba_marseille","lat":43.29846,"lon":5.36272,"is_reserved":false,"is_disabled":false,"rental_uris":{"android":"levelo://app?vid=5d19a48f-4ecb-4a04-8593-e3ad4a8266a2","ios":"levelo://app?vid=5d19a48f-4ecb-4a04-8593-e3ad4a8266a2"},"vehicle_type_id":"4","last_reported":1728476220,"current_range_meters":37600,"station_id":"ce4bgpp2rcd13ifvqc3g","pricing_plan_id":"cebpf4jnsgd1na2vs0mg"},{"bike_id":"6c446583-78c8-43ef-9461-7bd3361ab99d","system_id":"levelo_inurba_marseille","lat":43.29044,"lon":5.37567,"is_reserved":false,"is_disabled":false,"rental_uris":{"android":"levelo://app?vid=6c446583-78c8-43ef-9461-7bd3361ab99d","ios":"levelo://app?vid=6c446583-78c8-43ef-9461-7bd3361ab99d"},"vehicle_type_id":"4","last_reported":1728476220,"current_range_meters":32800,"station_id":"ce4bh692rcd13ifvqe90","pricing_plan_id":"cebpf4jnsgd1na2vs0mg"},{"bike_id":"a1573d54-0cc2-41b1-af18-60b8894eee67","system_id":"levelo_inurba_marseille","lat":43.25934,"lon":5.40912,"is_reserved":false,"is_disabled":false,"rental_uris":{"android":"levelo://app?vid=a1573d54-0cc2-41b1-af18-60b8894eee67","ios":"levelo://app?vid=a1573d54-0cc2-41b1-af18-60b8894eee67"},"vehicle_type_id":"4","last_reported":1728476220,"current_range_meters":38800,"station_id":"ce4bhm92rcd13ifvqglg","pricing_plan_id":"cebpf4jnsgd1na2vs0mg"},{"bike_id":"825facad-f7b4-4d04-aaa8-1642e7166df5","system_id":"levelo_inurba_marseille","lat":43.30546,"lon":5.36708,"is_reserved":false,"is_disabled":false,"rental_uris":{"android":"levelo://app?vid=825facad-f7b4-4d04-aaa8-1642e7166df5","ios":"levelo://app?vid=825facad-f7b4-4d04-aaa8-1642e7166df5"},"vehicle_type_id":"4","last_reported":1728476220,"current_range_meters":27600,"station_id":"ce4bgrp2rcd13ifvqc9g","pricing_plan_id":"cebpf4jnsgd1na2vs0mg"},{"bike_id":"fb56abde-916f-4270-886b-f264464a7c0d","system_id":"levelo_inurba_marseille","lat":43.29896,"lon":5.43659,"is_reserved":false,"is_disabled":false,"rental_uris":{"android":"levelo://app?vid=fb56abde-916f-4270-886b-f264464a7c0d","ios":"levelo://app?vid=fb56abde-916f-4270-886b-f264464a7c0d"},"vehicle_type_id":"4","last_reported":1728476220,"current_range_meters":40000,"station_id":"ce4bhpp2rcd13ifvqhfg","pricing_plan_id":"cebpf4jnsgd1na2vs0mg"},{"bike_id":"92f02590-07bb-4cfa-829f-8bd0dd55de75","system_id":"levelo_inurba_marseille","lat":43.31118,"lon":5.37765,"is_reserved":false,"is_disabled":false,"rental_uris":{"android":"levelo://app?vid=92f02590-07bb-4cfa-829f-8bd0dd55de75","ios":"levelo://app?vid=92f02590-07bb-4cfa-829f-8bd0dd55de75"},"vehicle_type_id":"4","last_reported":1728476220,"current_range_meters":20800,"station_id":"ce4bgt92rcd13ifvqcg0","pricing_plan_id":"cebpf4jnsgd1na2vs0mg"},{"bike_id":"a026b92b-894f-400e-93a2-09cde356a895","system_id":"levelo_inurba_marseille","lat":43.290364,"lon":5.359205,"is_reserved":false,"is_disabled":false,"rental_uris":{"android":"levelo://app?vid=a026b92b-894f-400e-93a2-09cde356a895","ios":"levelo://app?vid=a026b92b-894f-400e-93a2-09cde356a895"},"vehicle_type_id":"4","last_reported":1728476220,"current_range_meters":38800,"station_id":"ce4bha92rcd13ifvqeg0","pricing_plan_id":"cebpf4jnsgd1na2vs0mg"},{"bike_id":"810b32d6-b30c-480b-a6ee-5bd54d112eb8","system_id":"levelo_inurba_marseille","lat":43.33749,"lon":5.37442,"is_reserved":false,"is_disabled":false,"rental_uris":{"android":"levelo://app?vid=810b32d6-b30c-480b-a6ee-5bd54d112eb8","ios":"levelo://app?vid=810b32d6-b30c-480b-a6ee-5bd54d112eb8"},"vehicle_type_id":"4","last_reported":1728476220,"current_range_meters":28000,"station_id":"ce4rr2p2rcd13i802rgg","pricing_plan_id":"cebpf4jnsgd1na2vs0mg"},{"bike_id":"9d237e41-7f62-4262-8842-e960511dd4e6","system_id":"levelo_inurba_marseille","lat":43.30289,"lon":5.37697,"is_reserved":false,"is_disabled":false,"rental_uris":{"android":"levelo://app?vid=9d237e41-7f62-4262-8842-e960511dd4e6","ios":"levelo://app?vid=9d237e41-7f62-4262-8842-e960511dd4e6"},"vehicle_type_id":"4","last_reported":1728476220,"current_range_meters":12400,"station_id":"ce4bguh2rcd13ifvqcj0","pricing_plan_id":"cebpf4jnsgd1na2vs0mg"},{"bike_id":"b29b29c4-fc47-47de-ab19-b81f2c31f968","system_id":"levelo_inurba_marseille","lat":43.29898,"lon":5.43667,"is_reserved":false,"is_disabled":false,"rental_uris":{"android":"levelo://app?vid=b29b29c4-fc47-47de-ab19-b81f2c31f968","ios":"levelo://app?vid=b29b29c4-fc47-47de-ab19-b81f2c31f968"},"vehicle_type_id":"4","last_reported":1728476220,"current_range_meters":38400,"station_id":"ce4bhpp2rcd13ifvqhfg","pricing_plan_id":"cebpf4jnsgd1na2vs0mg"},{"bike_id":"4d72216e-21f6-4c55-9cb6-d03648c19aef","system_id":"levelo_inurba_marseille","lat":43.29528,"lon":5.39043,"is_reserved":false,"is_disabled":false,"rental_uris":{"android":"levelo://app?vid=4d72216e-21f6-4c55-9cb6-d03648c19aef","ios":"levelo://app?vid=4d72216e-21f6-4c55-9cb6-d03648c19aef"},"vehicle_type_id":"4","last_reported":1728476220,"current_range_meters":0,"station_id":"ce4bh3p2rcd13ifvqdp0","pricing_plan_id":"cebpf4jnsgd1na2vs0mg"},{"bike_id":"fd88b4df-098a-4bfc-99e8-f9c72ac9a1f6","system_id":"levelo_inurba_marseille","lat":43.30331,"lon":5.40434,"is_reserved":false,"is_disabled":false,"rental_uris":{"android":"levelo://app?vid=fd88b4df-098a-4bfc-99e8-f9c72ac9a1f6","ios":"levelo://app?vid=fd88b4df-098a-4bfc-99e8-f9c72ac9a1f6"},"vehicle_type_id":"4","last_reported":1728476220,"current_range_meters":6400,"station_id":"ce4bh012rcd13ifvqd10","pricing_plan_id":"cebpf4jnsgd1na2vs0mg"},{"bike_id":"566f124d-d2dc-44d6-baaa-cd99b0a92098","system_id":"levelo_inurba_marseille","lat":43.23149,"lon":5.43717,"is_reserved":false,"is_disabled":false,"rental_uris":{"android":"levelo://app?vid=566f124d-d2dc-44d6-baaa-cd99b0a92098","ios":"levelo://app?vid=566f124d-d2dc-44d6-baaa-cd99b0a92098"},"vehicle_type_id":"4","last_reported":1728476220,"current_range_meters":38800,"station_id":"ce4bhmp2rcd13ifvqgog","pricing_plan_id":"cebpf4jnsgd1na2vs0mg"},{"bike_id":"a4622123-9102-4613-a743-ea61cc78a9b6","system_id":"levelo_inurba_marseille","lat":43.23176,"lon":5.39989,"is_reserved":false,"is_disabled":false,"rental_uris":{"android":"levelo://app?vid=a4622123-9102-4613-a743-ea61cc78a9b6","ios":"levelo://app?vid=a4622123-9102-4613-a743-ea61cc78a9b6"},"vehicle_type_id":"4","last_reported":1728476220,"current_range_meters":9600,"station_id":"ce4bhn12rcd13ifvqgqg","pricing_plan_id":"cebpf4jnsgd1na2vs0mg"},{"bike_id":"b09915f8-0dfe-458c-85e9-219cc4b313a8","system_id":"levelo_inurba_marseille","lat":43.29287,"lon":5.40118,"is_reserved":false,"is_disabled":false,"rental_uris":{"android":"levelo://app?vid=b09915f8-0dfe-458c-85e9-219cc4b313a8","ios":"levelo://app?vid=b09915f8-0dfe-458c-85e9-219cc4b313a8"},"vehicle_type_id":"4","last_reported":1728476220,"current_range_meters":11600,"station_id":"ce4bh312rcd13ifvqdk0","pricing_plan_id":"cebpf4jnsgd1na2vs0mg"},{"bike_id":"92f0f563-ea16-4c02-b287-b0ed88c8eb9d","system_id":"levelo_inurba_marseille","lat":43.26685,"lon":5.38259,"is_reserved":false,"is_disabled":false,"rental_uris":{"android":"levelo://app?vid=92f0f563-ea16-4c02-b287-b0ed88c8eb9d","ios":"levelo://app?vid=92f0f563-ea16-4c02-b287-b0ed88c8eb9d"},"vehicle_type_id":"4","last_reported":1728476220,"current_range_meters":38800,"station_id":"ce4bhg92rcd13ifvqf90","pricing_plan_id":"cebpf4jnsgd1na2vs0mg"},{"bike_id":"a1333966-6a88-422a-82c6-d4da571e999e","system_id":"levelo_inurba_marseille","lat":43.2845,"lon":5.39216,"is_reserved":false,"is_disabled":false,"rental_uris":{"android":"levelo://app?vid=a1333966-6a88-422a-82c6-d4da571e999e","ios":"levelo://app?vid=a1333966-6a88-422a-82c6-d4da571e999e"},"vehicle_type_id":"4","last_reported":1728476220,"current_range_meters":39200,"station_id":"ce4bhoh2rcd13ifvqh5g","pricing_plan_id":"cebpf4jnsgd1na2vs0mg"},{"bike_id":"d96095e4-c924-413a-939d-e8e97cdbb436","system_id":"levelo_inurba_marseille","lat":43.28437,"lon":5.39212,"is_reserved":false,"is_disabled":false,"rental_uris":{"android":"levelo://app?vid=d96095e4-c924-413a-939d-e8e97cdbb436","ios":"levelo://app?vid=d96095e4-c924-413a-939d-e8e97cdbb436"},"vehicle_type_id":"4","last_reported":1728476220,"current_range_meters":3200,"station_id":"ce4bhoh2rcd13ifvqh5g","pricing_plan_id":"cebpf4jnsgd1na2vs0mg"},{"bike_id":"e1a5c79b-b669-4f11-8eb4-af5513c136c6","system_id":"levelo_inurba_marseille","lat":43.30278,"lon":5.37701,"is_reserved":false,"is_disabled":false,"rental_uris":{"android":"levelo://app?vid=e1a5c79b-b669-4f11-8eb4-af5513c136c6","ios":"levelo://app?vid=e1a5c79b-b669-4f11-8eb4-af5513c136c6"},"vehicle_type_id":"4","last_reported":1728476220,"current_range_meters":36800,"station_id":"ce4bguh2rcd13ifvqcj0","pricing_plan_id":"cebpf4jnsgd1na2vs0mg"},{"bike_id":"40052a8b-54a1-4f3e-aaef-6370a6ee75c4","system_id":"levelo_inurba_marseille","lat":43.29034,"lon":5.37551,"is_reserved":false,"is_disabled":false,"rental_uris":{"android":"levelo://app?vid=40052a8b-54a1-4f3e-aaef-6370a6ee75c4","ios":"levelo://app?vid=40052a8b-54a1-4f3e-aaef-6370a6ee75c4"},"vehicle_type_id":"4","last_reported":1728476220,"current_range_meters":38400,"station_id":"ce4bh692rcd13ifvqe90","pricing_plan_id":"cebpf4jnsgd1na2vs0mg"},{"bike_id":"82f03b2f-1450-4d85-8a48-5d34a1bdee15","system_id":"levelo_inurba_marseille","lat":43.33755,"lon":5.37451,"is_reserved":false,"is_disabled":false,"rental_uris":{"android":"levelo://app?vid=82f03b2f-1450-4d85-8a48-5d34a1bdee15","ios":"levelo://app?vid=82f03b2f-1450-4d85-8a48-5d34a1bdee15"},"vehicle_type_id":"4","last_reported":1728476220,"current_range_meters":38000,"station_id":"","pricing_plan_id":"cebpf4jnsgd1na2vs0mg"},{"bike_id":"835e47d9-dd42-4163-8373-0b90c43779c0","system_id":"levelo_inurba_marseille","lat":43.29199,"lon":5.35801,"is_reserved":false,"is_disabled":false,"rental_uris":{"android":"levelo://app?vid=835e47d9-dd42-4163-8373-0b90c43779c0","ios":"levelo://app?vid=835e47d9-dd42-4163-8373-0b90c43779c0"},"vehicle_type_id":"4","last_reported":1728476220,"current_range_meters":38800,"station_id":"ce4bhb12rcd13ifvqel0","pricing_plan_id":"cebpf4jnsgd1na2vs0mg"},{"bike_id":"4bfd4f11-2180-4493-9b1f-d5bd71700aac","system_id":"levelo_inurba_marseille","lat":43.33769,"lon":5.3743,"is_reserved":false,"is_disabled":false,"rental_uris":{"android":"levelo://app?vid=4bfd4f11-2180-4493-9b1f-d5bd71700aac","ios":"levelo://app?vid=4bfd4f11-2180-4493-9b1f-d5bd71700aac"},"vehicle_type_id":"4","last_reported":1728476220,"current_range_meters":36000,"station_id":"","pricing_plan_id":"cebpf4jnsgd1na2vs0mg"},{"bike_id":"6b1f4d86-a162-488e-9510-c38319369daf","system_id":"levelo_inurba_marseille","lat":43.29369,"lon":5.37838,"is_reserved":false,"is_disabled":false,"rental_uris":{"android":"levelo://app?vid=6b1f4d86-a162-488e-9510-c38319369daf","ios":"levelo://app?vid=6b1f4d86-a162-488e-9510-c38319369daf"},"vehicle_type_id":"4","last_reported":1728476220,"current_range_meters":30400,"station_id":"ce4bgjh2rcd13ifvqbf0","pricing_plan_id":"cebpf4jnsgd1na2vs0mg"},{"bike_id":"46a6ba3a-87a5-402c-9abb-680b4f4490fc","system_id":"levelo_inurba_marseille","lat":43.27941,"lon":5.41049,"is_reserved":false,"is_disabled":false,"rental_uris":{"android":"levelo://app?vid=46a6ba3a-87a5-402c-9abb-680b4f4490fc","ios":"levelo://app?vid=46a6ba3a-87a5-402c-9abb-680b4f4490fc"},"vehicle_type_id":"4","last_reported":1728476220,"current_range_meters":20000,"station_id":"ce4bhnp2rcd13ifvqh0g","pricing_plan_id":"cebpf4jnsgd1na2vs0mg"},{"bike_id":"ca7dbef4-cde9-4cf8-a6be-521e7eea511d","system_id":"levelo_inurba_marseille","lat":43.2799,"lon":5.41648,"is_reserved":false,"is_disabled":false,"rental_uris":{"android":"levelo://app?vid=ca7dbef4-cde9-4cf8-a6be-521e7eea511d","ios":"levelo://app?vid=ca7dbef4-cde9-4cf8-a6be-521e7eea511d"},"vehicle_type_id":"4","last_reported":1728476220,"current_range_meters":3600,"station_id":"ce4bho12rcd13ifvqh1g","pricing_plan_id":"cebpf4jnsgd1na2vs0mg"},{"bike_id":"a3c35198-54be-4859-9915-09fd3d36b7f4","system_id":"levelo_inurba_marseille","lat":43.29791,"lon":5.37106,"is_reserved":false,"is_disabled":false,"rental_uris":{"android":"levelo://app?vid=a3c35198-54be-4859-9915-09fd3d36b7f4","ios":"levelo://app?vid=a3c35198-54be-4859-9915-09fd3d36b7f4"},"vehicle_type_id":"4","last_reported":1728476220,"current_range_meters":20400,"station_id":"ce4bgop2rcd13ifvqc1g","pricing_plan_id":"cebpf4jnsgd1na2vs0mg"},{"bike_id":"062863a1-89cf-4b9c-a3eb-1095b5a1e792","system_id":"levelo_inurba_marseille","lat":43.33026,"lon":5.390268,"is_reserved":false,"is_disabled":false,"rental_uris":{"android":"levelo://app?vid=062863a1-89cf-4b9c-a3eb-1095b5a1e792","ios":"levelo://app?vid=062863a1-89cf-4b9c-a3eb-1095b5a1e792"},"vehicle_type_id":"4","last_reported":1728476220,"current_range_meters":38800,"station_id":"ce4bhr92rcd13ifvqhrg","pricing_plan_id":"cebpf4jnsgd1na2vs0mg"},{"bike_id":"6e8c8cbf-845b-47fc-9626-2d8b3d922025","system_id":"levelo_inurba_marseille","lat":43.22932,"lon":5.35374,"is_reserved":false,"is_disabled":false,"rental_uris":{"android":"levelo://app?vid=6e8c8cbf-845b-47fc-9626-2d8b3d922025","ios":"levelo://app?vid=6e8c8cbf-845b-47fc-9626-2d8b3d922025"},"vehicle_type_id":"4","last_reported":1728476220,"current_range_meters":20000,"station_id":"cpo3532slgdg3j2ikp40","pricing_plan_id":"cebpf4jnsgd1na2vs0mg"},{"bike_id":"fbf41d51-efe2-47ed-97f7-ee39773e7916","system_id":"levelo_inurba_marseille","lat":43.30194,"lon":5.36621,"is_reserved":false,"is_disabled":false,"rental_uris":{"android":"levelo://app?vid=fbf41d51-efe2-47ed-97f7-ee39773e7916","ios":"levelo://app?vid=fbf41d51-efe2-47ed-97f7-ee39773e7916"},"vehicle_type_id":"4","last_reported":1728476220,"current_range_meters":37600,"station_id":"ce4bgrh2rcd13ifvqc8g","pricing_plan_id":"cebpf4jnsgd1na2vs0mg"},{"bike_id":"5b7c1b64-2180-4349-a949-460f6aba1aeb","system_id":"levelo_inurba_marseille","lat":43.26684,"lon":5.38266,"is_reserved":false,"is_disabled":false,"rental_uris":{"android":"levelo://app?vid=5b7c1b64-2180-4349-a949-460f6aba1aeb","ios":"levelo://app?vid=5b7c1b64-2180-4349-a949-460f6aba1aeb"},"vehicle_type_id":"4","last_reported":1728476220,"current_range_meters":38000,"station_id":"ce4bhg92rcd13ifvqf90","pricing_plan_id":"cebpf4jnsgd1na2vs0mg"},{"bike_id":"72196051-ea12-489b-8b97-cfb3ca2d0c43","system_id":"levelo_inurba_marseille","lat":43.337444,"lon":5.374475,"is_reserved":false,"is_disabled":false,"rental_uris":{"android":"levelo://app?vid=72196051-ea12-489b-8b97-cfb3ca2d0c43","ios":"levelo://app?vid=72196051-ea12-489b-8b97-cfb3ca2d0c43"},"vehicle_type_id":"4","last_reported":1728476220,"current_range_meters":32400,"station_id":"","pricing_plan_id":"cebpf4jnsgd1na2vs0mg"},{"bike_id":"7cf49a9f-e0d6-456c-9979-a6b821eedd0d","system_id":"levelo_inurba_marseille","lat":43.2706,"lon":5.40261,"is_reserved":false,"is_disabled":false,"rental_uris":{"android":"levelo://app?vid=7cf49a9f-e0d6-456c-9979-a6b821eedd0d","ios":"levelo://app?vid=7cf49a9f-e0d6-456c-9979-a6b821eedd0d"},"vehicle_type_id":"4","last_reported":1728476220,"current_range_meters":25600,"station_id":"ce4bhk92rcd13ifvqgc0","pricing_plan_id":"cebpf4jnsgd1na2vs0mg"},{"bike_id":"549c60b7-e80a-465c-9929-5897ccbe828d","system_id":"levelo_inurba_marseille","lat":43.23151,"lon":5.43717,"is_reserved":false,"is_disabled":false,"rental_uris":{"android":"levelo://app?vid=549c60b7-e80a-465c-9929-5897ccbe828d","ios":"levelo://app?vid=549c60b7-e80a-465c-9929-5897ccbe828d"},"vehicle_type_id":"4","last_reported":1728476220,"current_range_meters":36800,"station_id":"ce4bhmp2rcd13ifvqgog","pricing_plan_id":"cebpf4jnsgd1na2vs0mg"},{"bike_id":"2b143dcd-abbf-48d2-8316-43c915e5fdc3","system_id":"levelo_inurba_marseille","lat":43.25121,"lon":5.40322,"is_reserved":false,"is_disabled":false,"rental_uris":{"android":"levelo://app?vid=2b143dcd-abbf-48d2-8316-43c915e5fdc3","ios":"levelo://app?vid=2b143dcd-abbf-48d2-8316-43c915e5fdc3"},"vehicle_type_id":"4","last_reported":1728476220,"current_range_meters":24800,"station_id":"ce4bhlh2rcd13ifvqgig","pricing_plan_id":"cebpf4jnsgd1na2vs0mg"},{"bike_id":"bbeaada8-6fa8-45b4-b300-8483bfbdcbe6","system_id":"levelo_inurba_marseille","lat":43.25868,"lon":5.39898,"is_reserved":false,"is_disabled":false,"rental_uris":{"android":"levelo://app?vid=bbeaada8-6fa8-45b4-b300-8483bfbdcbe6","ios":"levelo://app?vid=bbeaada8-6fa8-45b4-b300-8483bfbdcbe6"},"vehicle_type_id":"4","last_reported":1728476220,"current_range_meters":21600,"station_id":"ce4bhl92rcd13ifvqghg","pricing_plan_id":"cebpf4jnsgd1na2vs0mg"},{"bike_id":"520aae5d-cdf3-453f-80b4-ae51cc4b6feb","system_id":"levelo_inurba_marseille","lat":43.31457,"lon":5.37372,"is_reserved":false,"is_disabled":false,"rental_uris":{"android":"levelo://app?vid=520aae5d-cdf3-453f-80b4-ae51cc4b6feb","ios":"levelo://app?vid=520aae5d-cdf3-453f-80b4-ae51cc4b6feb"},"vehicle_type_id":"4","last_reported":1728476220,"current_range_meters":38800,"station_id":"","pricing_plan_id":"cebpf4jnsgd1na2vs0mg"},{"bike_id":"86cd6b52-d63b-43cc-9966-5217b94d94be","system_id":"levelo_inurba_marseille","lat":43.30332,"lon":5.40431,"is_reserved":false,"is_disabled":false,"rental_uris":{"android":"levelo://app?vid=86cd6b52-d63b-43cc-9966-5217b94d94be","ios":"levelo://app?vid=86cd6b52-d63b-43cc-9966-5217b94d94be"},"vehicle_type_id":"4","last_reported":1728476220,"current_range_meters":4000,"station_id":"ce4bh012rcd13ifvqd10","pricing_plan_id":"cebpf4jnsgd1na2vs0mg"},{"bike_id":"19024301-9196-4f3a-95cf-7d6474e47dbb","system_id":"levelo_inurba_marseille","lat":43.28467,"lon":5.35901,"is_reserved":false,"is_disabled":false,"rental_uris":{"android":"levelo://app?vid=19024301-9196-4f3a-95cf-7d6474e47dbb","ios":"levelo://app?vid=19024301-9196-4f3a-95cf-7d6474e47dbb"},"vehicle_type_id":"4","last_reported":1728476220,"current_range_meters":29600,"station_id":"ce4bhah2rcd13ifvqei0","pricing_plan_id":"cebpf4jnsgd1na2vs0mg"},{"bike_id":"25e9c74d-4543-43de-8bf4-871a0083c4c7","system_id":"levelo_inurba_marseille","lat":43.3038,"lon":5.39288,"is_reserved":false,"is_disabled":false,"rental_uris":{"android":"levelo://app?vid=25e9c74d-4543-43de-8bf4-871a0083c4c7","ios":"levelo://app?vid=25e9c74d-4543-43de-8bf4-871a0083c4c7"},"vehicle_type_id":"4","last_reported":1728476220,"current_range_meters":34800,"station_id":"ce4bh2h2rcd13ifvqdh0","pricing_plan_id":"cebpf4jnsgd1na2vs0mg"},{"bike_id":"e595cea1-c9d9-48c1-a588-7623d5e1e94a","system_id":"levelo_inurba_marseille","lat":43.2396,"lon":5.36626,"is_reserved":false,"is_disabled":false,"rental_uris":{"android":"levelo://app?vid=e595cea1-c9d9-48c1-a588-7623d5e1e94a","ios":"levelo://app?vid=e595cea1-c9d9-48c1-a588-7623d5e1e94a"},"vehicle_type_id":"4","last_reported":1728476220,"current_range_meters":10000,"station_id":"ce4bhi12rcd13ifvqfp0","pricing_plan_id":"cebpf4jnsgd1na2vs0mg"},{"bike_id":"014b88f0-6a7e-4b7d-b10e-16027fb07f08","system_id":"levelo_inurba_marseille","lat":43.2655,"lon":5.37281,"is_reserved":false,"is_disabled":false,"rental_uris":{"android":"levelo://app?vid=014b88f0-6a7e-4b7d-b10e-16027fb07f08","ios":"levelo://app?vid=014b88f0-6a7e-4b7d-b10e-16027fb07f08"},"vehicle_type_id":"4","last_reported":1728476220,"current_range_meters":28800,"station_id":"ce4bhg12rcd13ifvqf70","pricing_plan_id":"cebpf4jnsgd1na2vs0mg"},{"bike_id":"c033a0df-99b6-4df5-98f8-56c27ea22d6c","system_id":"levelo_inurba_marseille","lat":43.30031,"lon":5.38832,"is_reserved":false,"is_disabled":false,"rental_uris":{"android":"levelo://app?vid=c033a0df-99b6-4df5-98f8-56c27ea22d6c","ios":"levelo://app?vid=c033a0df-99b6-4df5-98f8-56c27ea22d6c"},"vehicle_type_id":"4","last_reported":1728476220,"current_range_meters":33600,"station_id":"ce4bh4p2rcd13ifvqe0g","pricing_plan_id":"cebpf4jnsgd1na2vs0mg"},{"bike_id":"314258a4-23f1-4a6b-8b4c-a1b8452ec4cf","system_id":"levelo_inurba_marseille","lat":43.27057,"lon":5.40259,"is_reserved":false,"is_disabled":false,"rental_uris":{"android":"levelo://app?vid=314258a4-23f1-4a6b-8b4c-a1b8452ec4cf","ios":"levelo://app?vid=314258a4-23f1-4a6b-8b4c-a1b8452ec4cf"},"vehicle_type_id":"4","last_reported":1728476220,"current_range_meters":11200,"station_id":"ce4bhk92rcd13ifvqgc0","pricing_plan_id":"cebpf4jnsgd1na2vs0mg"},{"bike_id":"9233c09d-6c0c-46e7-bf02-50c96683169b","system_id":"levelo_inurba_marseille","lat":43.30142,"lon":5.37415,"is_reserved":false,"is_disabled":false,"rental_uris":{"android":"levelo://app?vid=9233c09d-6c0c-46e7-bf02-50c96683169b","ios":"levelo://app?vid=9233c09d-6c0c-46e7-bf02-50c96683169b"},"vehicle_type_id":"4","last_reported":1728476220,"current_range_meters":39200,"station_id":"ce4bgs92rcd13ifvqcc0","pricing_plan_id":"cebpf4jnsgd1na2vs0mg"},{"bike_id":"c77fe8a1-c7e2-4f38-8619-057433efd385","system_id":"levelo_inurba_marseille","lat":43.26212,"lon":5.37438,"is_reserved":false,"is_disabled":false,"rental_uris":{"android":"levelo://app?vid=c77fe8a1-c7e2-4f38-8619-057433efd385","ios":"levelo://app?vid=c77fe8a1-c7e2-4f38-8619-057433efd385"},"vehicle_type_id":"4","last_reported":1728476220,"current_range_meters":7200,"station_id":"ce4bhgp2rcd13ifvqfc0","pricing_plan_id":"cebpf4jnsgd1na2vs0mg"},{"bike_id":"5b912482-b567-465c-9426-faff038130da","system_id":"levelo_inurba_marseille","lat":43.29194,"lon":5.35806,"is_reserved":false,"is_disabled":false,"rental_uris":{"android":"levelo://app?vid=5b912482-b567-465c-9426-faff038130da","ios":"levelo://app?vid=5b912482-b567-465c-9426-faff038130da"},"vehicle_type_id":"4","last_reported":1728476220,"current_range_meters":38800,"station_id":"ce4bhb12rcd13ifvqel0","pricing_plan_id":"cebpf4jnsgd1na2vs0mg"},{"bike_id":"c053c19d-380f-4999-a32e-890a40f95536","system_id":"levelo_inurba_marseille","lat":43.24549,"lon":5.39521,"is_reserved":false,"is_disabled":false,"rental_uris":{"android":"levelo://app?vid=c053c19d-380f-4999-a32e-890a40f95536","ios":"levelo://app?vid=c053c19d-380f-4999-a32e-890a40f95536"},"vehicle_type_id":"4","last_reported":1728476220,"current_range_meters":8400,"station_id":"ce4bhlp2rcd13ifvqgjg","pricing_plan_id":"cebpf4jnsgd1na2vs0mg"},{"bike_id":"962a692d-7e39-45ee-b56a-68d1339f2e0c","system_id":"levelo_inurba_marseille","lat":43.23153,"lon":5.43708,"is_reserved":false,"is_disabled":false,"rental_uris":{"android":"levelo://app?vid=962a692d-7e39-45ee-b56a-68d1339f2e0c","ios":"levelo://app?vid=962a692d-7e39-45ee-b56a-68d1339f2e0c"},"vehicle_type_id":"4","last_reported":1728476220,"current_range_meters":38800,"station_id":"ce4bhmp2rcd13ifvqgog","pricing_plan_id":"cebpf4jnsgd1na2vs0mg"},{"bike_id":"bf244315-477f-4562-a3e4-cc788276852a","system_id":"levelo_inurba_marseille","lat":43.28034,"lon":5.36946,"is_reserved":false,"is_disabled":false,"rental_uris":{"android":"levelo://app?vid=bf244315-477f-4562-a3e4-cc788276852a","ios":"levelo://app?vid=bf244315-477f-4562-a3e4-cc788276852a"},"vehicle_type_id":"4","last_reported":1728476220,"current_range_meters":15200,"station_id":"ce4bha12rcd13ifvqef0","pricing_plan_id":"cebpf4jnsgd1na2vs0mg"},{"bike_id":"61633579-2163-4e1c-8196-b84e75141326","system_id":"levelo_inurba_marseille","lat":43.30551,"lon":5.36528,"is_reserved":false,"is_disabled":false,"rental_uris":{"android":"levelo://app?vid=61633579-2163-4e1c-8196-b84e75141326","ios":"levelo://app?vid=61633579-2163-4e1c-8196-b84e75141326"},"vehicle_type_id":"4","last_reported":1728476220,"current_range_meters":38000,"station_id":"ce4bgs12rcd13ifvqcag","pricing_plan_id":"cebpf4jnsgd1na2vs0mg"},{"bike_id":"e7afecaf-c4b3-4234-81f0-cd0a17c08bd6","system_id":"levelo_inurba_marseille","lat":43.2668,"lon":5.38264,"is_reserved":false,"is_disabled":false,"rental_uris":{"android":"levelo://app?vid=e7afecaf-c4b3-4234-81f0-cd0a17c08bd6","ios":"levelo://app?vid=e7afecaf-c4b3-4234-81f0-cd0a17c08bd6"},"vehicle_type_id":"4","last_reported":1728476220,"current_range_meters":11600,"station_id":"ce4bhg92rcd13ifvqf90","pricing_plan_id":"cebpf4jnsgd1na2vs0mg"},{"bike_id":"aa003d3b-27b2-43da-9459-424f57d471d2","system_id":"levelo_inurba_marseille","lat":43.29266,"lon":5.38447,"is_reserved":false,"is_disabled":false,"rental_uris":{"android":"levelo://app?vid=aa003d3b-27b2-43da-9459-424f57d471d2","ios":"levelo://app?vid=aa003d3b-27b2-43da-9459-424f57d471d2"},"vehicle_type_id":"4","last_reported":1728476220,"current_range_meters":34000,"station_id":"ce4bh692rcd13ifvqea0","pricing_plan_id":"cebpf4jnsgd1na2vs0mg"},{"bike_id":"456b53be-20d1-46cf-a3ae-a98d01e6b552","system_id":"levelo_inurba_marseille","lat":43.26692,"lon":5.38269,"is_reserved":false,"is_disabled":false,"rental_uris":{"android":"levelo://app?vid=456b53be-20d1-46cf-a3ae-a98d01e6b552","ios":"levelo://app?vid=456b53be-20d1-46cf-a3ae-a98d01e6b552"},"vehicle_type_id":"4","last_reported":1728476220,"current_range_meters":38800,"station_id":"ce4bhg92rcd13ifvqf90","pricing_plan_id":"cebpf4jnsgd1na2vs0mg"},{"bike_id":"72240933-15a9-4889-8fe7-0a4fbd8b9c3e","system_id":"levelo_inurba_marseille","lat":43.29726,"lon":5.37692,"is_reserved":false,"is_disabled":false,"rental_uris":{"android":"levelo://app?vid=72240933-15a9-4889-8fe7-0a4fbd8b9c3e","ios":"levelo://app?vid=72240933-15a9-4889-8fe7-0a4fbd8b9c3e"},"vehicle_type_id":"4","last_reported":1728476220,"current_range_meters":14800,"station_id":"ce4bgkh2rcd13ifvqbl0","pricing_plan_id":"cebpf4jnsgd1na2vs0mg"},{"bike_id":"faf49b77-a5b7-45ff-b48d-58a8c7667b47","system_id":"levelo_inurba_marseille","lat":43.30543,"lon":5.36693,"is_reserved":false,"is_disabled":false,"rental_uris":{"android":"levelo://app?vid=faf49b77-a5b7-45ff-b48d-58a8c7667b47","ios":"levelo://app?vid=faf49b77-a5b7-45ff-b48d-58a8c7667b47"},"vehicle_type_id":"4","last_reported":1728476220,"current_range_meters":26000,"station_id":"ce4bgrp2rcd13ifvqc9g","pricing_plan_id":"cebpf4jnsgd1na2vs0mg"},{"bike_id":"53f7dab7-29d9-4c2a-b423-39eabd582cfd","system_id":"levelo_inurba_marseille","lat":43.24387,"lon":5.37056,"is_reserved":false,"is_disabled":false,"rental_uris":{"android":"levelo://app?vid=53f7dab7-29d9-4c2a-b423-39eabd582cfd","ios":"levelo://app?vid=53f7dab7-29d9-4c2a-b423-39eabd582cfd"},"vehicle_type_id":"4","last_reported":1728476220,"current_range_meters":39200,"station_id":"ce4bhhh2rcd13ifvqfk0","pricing_plan_id":"cebpf4jnsgd1na2vs0mg"},{"bike_id":"448a8c7b-252b-4375-b971-56fd15636a8f","system_id":"levelo_inurba_marseille","lat":43.32665,"lon":5.40986,"is_reserved":false,"is_disabled":false,"rental_uris":{"android":"levelo://app?vid=448a8c7b-252b-4375-b971-56fd15636a8f","ios":"levelo://app?vid=448a8c7b-252b-4375-b971-56fd15636a8f"},"vehicle_type_id":"4","last_reported":1728476220,"current_range_meters":1200,"station_id":"ce4bhpp2rcd13ifvqhgg","pricing_plan_id":"cebpf4jnsgd1na2vs0mg"},{"bike_id":"cb5095a1-11ac-494a-8055-eec60d86fb1c","system_id":"levelo_inurba_marseille","lat":43.31218,"lon":5.3684,"is_reserved":false,"is_disabled":false,"rental_uris":{"android":"levelo://app?vid=cb5095a1-11ac-494a-8055-eec60d86fb1c","ios":"levelo://app?vid=cb5095a1-11ac-494a-8055-eec60d86fb1c"},"vehicle_type_id":"4","last_reported":1728476220,"current_range_meters":35200,"station_id":"ce4bgl92rcd13ifvqbq0","pricing_plan_id":"cebpf4jnsgd1na2vs0mg"},{"bike_id":"ab793054-e94f-46db-9b76-38477c7e818b","system_id":"levelo_inurba_marseille","lat":43.32544,"lon":5.4144,"is_reserved":false,"is_disabled":false,"rental_uris":{"android":"levelo://app?vid=ab793054-e94f-46db-9b76-38477c7e818b","ios":"levelo://app?vid=ab793054-e94f-46db-9b76-38477c7e818b"},"vehicle_type_id":"4","last_reported":1728476220,"current_range_meters":6000,"station_id":"ce4bhq12rcd13ifvqhhg","pricing_plan_id":"cebpf4jnsgd1na2vs0mg"},{"bike_id":"b8034255-6ec0-4bed-ac40-f649b450ecd8","system_id":"levelo_inurba_marseille","lat":43.28448,"lon":5.39206,"is_reserved":false,"is_disabled":false,"rental_uris":{"android":"levelo://app?vid=b8034255-6ec0-4bed-ac40-f649b450ecd8","ios":"levelo://app?vid=b8034255-6ec0-4bed-ac40-f649b450ecd8"},"vehicle_type_id":"4","last_reported":1728476220,"current_range_meters":30800,"station_id":"ce4bhoh2rcd13ifvqh5g","pricing_plan_id":"cebpf4jnsgd1na2vs0mg"},