{"last_updated":1733768058,"ttl":60,"version":"2.2","data":{"bikes":[{"bike_id":"fff6d518-10ee-4fd1-9c09-3218d9eb7e1c","system_id":"levelo_inurba_marseille","lat":43.30947,"lon":5.39027,"is_reserved":false,"is_disabled":false,"rental_uris":{"android":"levelo://app?vid=fff6d518-10ee-4fd1-9c09-3218d9eb7e1c","ios":"levelo://app?vid=fff6d518-10ee-4fd1-9c09-3218d9eb7e1c"},"vehicle_type_id":"4","last_reported":1733768058,"current_range_meters":38800,"station_id":"ce4bgup2rcd13ifvqco0","pricing_plan_id":"cebpf4jnsgd1na2vs0mg"},{"bike_id":"8e029eaf-e104-4c5d-858d-6cd39de73d09","system_id":"levelo_inurba_marseille","lat":43.24196,"lon":5.36397,"is_reserved":false,"is_disabled":false,"rental_uris":{"android":"levelo://app?vid=8e029eaf-e104-4c5d-858d-6cd39de73d09","ios":"levelo://app?vid=8e029eaf-e104-4c5d-858d-6cd39de73d09"},"vehicle_type_id":"4","last_reported":1733768058,"current_range_meters":21600,"station_id":"cpo36qri1sfpv3e86is0","pricing_plan_id":"cebpf4jnsgd1na2vs0mg"},{"bike_id":"49890e82-aa27-4846-9659-88aa2ac9ae8b","system_id":"levelo_inurba_marseille","lat":43.24683,"lon":5.38156,"is_reserved":false,"is_disabled":false,"rental_uris":{"android":"levelo://app?vid=49890e82-aa27-4846-9659-88aa2ac9ae8b","ios":"levelo://app?vid=49890e82-aa27-4846-9659-88aa2ac9ae8b"},"vehicle_type_id":"4","last_reported":1733768058,"current_range_meters":38000,"station_id":"ce4bhih2rcd13ifvqfr0","pricing_plan_id":"cebpf4jnsgd1na2vs0mg"},{"bike_id":"6ce2b2d2-d6d8-4021-89de-a52489417845","system_id":"levelo_inurba_marseille","lat":43.27806,"lon":5.40704,"is_reserved":false,"is_disabled":false,"rental_uris":{"android":"levelo://app?vid=6ce2b2d2-d6d8-4021-89de-a52489417845","ios":"levelo://app?vid=6ce2b2d2-d6d8-4021-89de-a52489417845"},"vehicle_type_id":"4","last_reported":1733768058,"current_range_meters":33200,"station_id":"ce4bhnh2rcd13ifvqgtg","pricing_plan_id":"cebpf4jnsgd1na2vs0mg"},{"bike_id":"e6287468-f98b-4727-8dd2-6732688b3747","system_id":"levelo_inurba_marseille","lat":43.28035,"lon":5.36952,"is_reserved":false,"is_disabled":false,"rental_uris":{"android":"levelo://app?vid=e6287468-f98b-4727-8dd2-6732688b3747","ios":"levelo://app?vid=e6287468-f98b-4727-8dd2-6732688b3747"},"vehicle_type_id":"4","last_reported":1733768058,"current_range_meters":7200,"station_id":"ce4bha12rcd13ifvqef0","pricing_plan_id":"cebpf4jnsgd1na2vs0mg"},{"bike_id":"67888e06-6219-4626-acd2-c4aece606332","system_id":"levelo_inurba_marseille","lat":43.31362,"lon":5.38492,"is_reserved":false,"is_disabled":false,"rental_uris":{"android":"levelo://app?vid=67888e06-6219-4626-acd2-c4aece606332","ios":"levelo://app?vid=67888e06-6219-4626-acd2-c4aece606332"},"vehicle_type_id":"4","last_reported":1733768058,"current_range_meters":39200,"station_id":"ce4bgt92rcd13ifvqcf0","pricing_plan_id":"cebpf4jnsgd1na2vs0mg"},{"bike_id":"ba5e9603-9efa-46a1-a491-af58be8cd5cb","system_id":"levelo_inurba_marseille","lat":43.3235,"lon":5.36752,"is_reserved":false,"is_disabled":false,"rental_uris":{"android":"levelo://app?vid=ba5e9603-9efa-46a1-a491-af58be8cd5cb","ios":"levelo://app?vid=ba5e9603-9efa-46a1-a491-af58be8cd5cb"},"vehicle_type_id":"4","last_reported":1733768058,"current_range_meters":35600,"station_id":"ce4bhsh2rcd13ifvqi2g","pricing_plan_id":"cebpf4jnsgd1na2vs0mg"},{"bike_id":"d7c8c15b-fef7-401a-88a6-d231e1fbaaef","system_id":"levelo_inurba_marseille","lat":43.30642,"lon":5.4008,"is_reserved":false,"is_disabled":false,"rental_uris":{"android":"levelo://app?vid=d7c8c15b-fef7-401a-88a6-d231e1fbaaef","ios":"levelo://app?vid=d7c8c15b-fef7-401a-88a6-d231e1fbaaef"},"vehicle_type_id":"4","last_reported":1733768058,"current_range_meters":35600,"station_id":"ce4bh112rcd13ifvqda0","pricing_plan_id":"cebpf4jnsgd1na2vs0mg"},{"bike_id":"69587c30-12f3-44e8-ba83-b8212447cd85","system_id":"levelo_inurba_marseille","lat":43.3095,"lon":5.39036,"is_reserved":false,"is_disabled":false,"rental_uris":{"android":"levelo://app?vid=69587c30-12f3-44e8-ba83-b8212447cd85","ios":"levelo://app?vid=69587c30-12f3-44e8-ba83-b8212447cd85"},"vehicle_type_id":"4","last_reported":1733768058,"current_range_meters":37600,"station_id":"ce4bgup2rcd13ifvqco0","pricing_plan_id":"cebpf4jnsgd1na2vs0mg"},{"bike_id":"8bd642b2-0279-44c7-9ee2-fc3b57332c83","system_id":"levelo_inurba_marseille","lat":43.27455,"lon":5.40073,"is_reserved":false,"is_disabled":true,"rental_uris":{"android":"levelo://app?vid=8bd642b2-0279-44c7-9ee2-fc3b57332c83","ios":"levelo://app?vid=8bd642b2-0279-44c7-9ee2-fc3b57332c83"},"vehicle_type_id":"4","last_reported":1733768058,"current_range_meters":0,"station_id":"","pricing_plan_id":"cebpf4jnsgd1na2vs0mg"},{"bike_id":"a0f1ee90-789a-4b1b-b04b-392b97c6abfc","system_id":"levelo_inurba_marseille","lat":43.29035,"lon":5.35909,"is_reserved":false,"is_disabled":false,"rental_uris":{"android":"levelo://app?vid=a0f1ee90-789a-4b1b-b04b-392b97c6abfc","ios":"levelo://app?vid=a0f1ee90-789a-4b1b-b04b-392b97c6abfc"},"vehicle_type_id":"4","last_reported":1733768058,"current_range_meters":37600,"station_id":"ce4bha92rcd13ifvqeg0","pricing_plan_id":"cebpf4jnsgd1na2vs0mg"},{"bike_id":"f09914a1-032a-4233-965f-c73f49a269ba","system_id":"levelo_inurba_marseille","lat":43.337444,"lon":5.374475,"is_reserved":false,"is_disabled":true,"rental_uris":{"android":"levelo://app?vid=f09914a1-032a-4233-965f-c73f49a269ba","ios":"levelo://app?vid=f09914a1-032a-4233-965f-c73f49a269ba"},"vehicle_type_id":"4","last_reported":1733768058,"current_range_meters":0,"station_id":"","pricing_plan_id":"cebpf4jnsgd1na2vs0mg"},{"bike_id":"d8037fe8-1ae6-486e-82e6-5c27ba5ddb10","system_id":"levelo_inurba_marseille","lat":43.25582,"lon":5.3823,"is_reserved":false,"is_disabled":true,"rental_uris":{"android":"levelo://app?vid=d8037fe8-1ae6-486e-82e6-5c27ba5ddb10","ios":"levelo://app?vid=d8037fe8-1ae6-486e-82e6-5c27ba5ddb10"},"vehicle_type_id":"4","last_reported":1733768058,"current_range_meters":0,"station_id":"ce4bhih2rcd13ifvqfs0","pricing_plan_id":"cebpf4jnsgd1na2vs0mg"},{"bike_id":"f6ceca24-19af-4ed8-b20b-dad7699688ae","system_id":"levelo_inurba_marseille","lat":43.32477,"lon":5.36573,"is_reserved":false,"is_disabled":true,"rental_uris":{"android":"levelo://app?vid=f6ceca24-19af-4ed8-b20b-dad7699688ae","ios":"levelo://app?vid=f6ceca24-19af-4ed8-b20b-dad7699688ae"},"vehicle_type_id":"4","last_reported":1733768058,"current_range_meters":27200,"station_id":"ce4bhs12rcd13ifvqhvg","pricing_plan_id":"cebpf4jnsgd1na2vs0mg"},{"bike_id":"a955f565-33db-4fdc-bdbf-249121ea420f","system_id":"levelo_inurba_marseille","lat":43.29182,"lon":5.35793,"is_reserved":false,"is_disabled":true,"rental_uris":{"android":"levelo://app?vid=a955f565-33db-4fdc-bdbf-249121ea420f","ios":"levelo://app?vid=a955f565-33db-4fdc-bdbf-249121ea420f"},"vehicle_type_id":"4","last_reported":1733768058,"current_range_meters":30800,"station_id":"ce4bhb12rcd13ifvqel0","pricing_plan_id":"cebpf4jnsgd1na2vs0mg"},{"bike_id":"1aa44ed9-e118-4ef3-bc76-ec2ddb64bcd0","system_id":"levelo_inurba_marseille","lat":43.27298,"lon":5.3912,"is_reserved":false,"is_disabled":true,"rental_uris":{"android":"levelo://app?vid=1aa44ed9-e118-4ef3-bc76-ec2ddb64bcd0","ios":"levelo://app?vid=1aa44ed9-e118-4ef3-bc76-ec2ddb64bcd0"},"vehicle_type_id":"4","last_reported":1733768058,"current_range_meters":17600,"station_id":"ce4bhgp2rcd13ifvqfe0","pricing_plan_id":"cebpf4jnsgd1na2vs0mg"},{"bike_id":"14c257dc-06bf-4a29-939b-9abb4cc4885a","system_id":"levelo_inurba_marseille","lat":43.28488,"lon":5.36813,"is_reserved":false,"is_disabled":false,"rental_uris":{"android":"levelo://app?vid=14c257dc-06bf-4a29-939b-9abb4cc4885a","ios":"levelo://app?vid=14c257dc-06bf-4a29-939b-9abb4cc4885a"},"vehicle_type_id":"4","last_reported":1733768058,"current_range_meters":6400,"station_id":"","pricing_plan_id":"cebpf4jnsgd1na2vs0mg"},{"bike_id":"79533f17-2510-4978-b3f7-d9e54ffe07ac","system_id":"levelo_inurba_marseille","lat":43.29629,"lon":5.40595,"is_reserved":false,"is_disabled":false,"rental_uris":{"android":"levelo://app?vid=79533f17-2510-4978-b3f7-d9e54ffe07ac","ios":"levelo://app?vid=79533f17-2510-4978-b3f7-d9e54ffe07ac"},"vehicle_type_id":"4","last_reported":1733768058,"current_range_meters":10000,"station_id":"ce4bh0h2rcd13ifvqd60","pricing_plan_id":"cebpf4jnsgd1na2vs0mg"},{"bike_id":"0e57d714-949d-4e62-a856-8d524104f737","system_id":"levelo_inurba_marseille","lat":43.29625,"lon":5.40594,"is_reserved":false,"is_disabled":false,"rental_uris":{"android":"levelo://app?vid=0e57d714-949d-4e62-a856-8d524104f737","ios":"levelo://app?vid=0e57d714-949d-4e62-a856-8d524104f737"},"vehicle_type_id":"4","last_reported":1733768058,"current_range_meters":6400,"station_id":"ce4bh0h2rcd13ifvqd60","pricing_plan_id":"cebpf4jnsgd1na2vs0mg"},{"bike_id":"3584fe42-a225-447a-a28a-f1865249a2d1","system_id":"levelo_inurba_marseille","lat":43.25114,"lon":5.40321,"is_reserved":false,"is_disabled":false,"rental_uris":{"android":"levelo://app?vid=3584fe42-a225-447a-a28a-f1865249a2d1","ios":"levelo://app?vid=3584fe42-a225-447a-a28a-f1865249a2d1"},"vehicle_type_id":"4","last_reported":1733768058,"current_range_meters":12400,"station_id":"ce4bhlh2rcd13ifvqgig","pricing_plan_id":"cebpf4jnsgd1na2vs0mg"},{"bike_id":"748ed380-cc04-447e-a269-40aa2d7d60b0","system_id":"levelo_inurba_marseille","lat":43.27554,"lon":5.38424,"is_reserved":false,"is_disabled":false,"rental_uris":{"android":"levelo://app?vid=748ed380-cc04-447e-a269-40aa2d7d60b0","ios":"levelo://app?vid=748ed380-cc04-447e-a269-40aa2d7d60b0"},"vehicle_type_id":"4","last_reported":1733768058,"current_range_meters":37600,"station_id":"ce4bhh92rcd13ifvqfi0","pricing_plan_id":"cebpf4jnsgd1na2vs0mg"},{"bike_id":"6dba43c6-c405-4200-aca9-3ec857142ab3","system_id":"levelo_inurba_marseille","lat":43.2781,"lon":5.40719,"is_reserved":false,"is_disabled":true,"rental_uris":{"android":"levelo://app?vid=6dba43c6-c405-4200-aca9-3ec857142ab3","ios":"levelo://app?vid=6dba43c6-c405-4200-aca9-3ec857142ab3"},"vehicle_type_id":"4","last_reported":1733768058,"current_range_meters":0,"station_id":"ce4bhnh2rcd13ifvqgtg","pricing_plan_id":"cebpf4jnsgd1na2vs0mg"},{"bike_id":"4cc1bbde-3c5a-4224-a53b-ecc35c086af7","system_id":"levelo_inurba_marseille","lat":43.28517,"lon":5.3724,"is_reserved":false,"is_disabled":false,"rental_uris":{"android":"levelo://app?vid=4cc1bbde-3c5a-4224-a53b-ecc35c086af7","ios":"levelo://app?vid=4cc1bbde-3c5a-4224-a53b-ecc35c086af7"},"vehicle_type_id":"4","last_reported":1733768058,"current_range_meters":16400,"station_id":"ce4bht12rcd13ifvqi60","pricing_plan_id":"cebpf4jnsgd1na2vs0mg"},{"bike_id":"480f28a2-7fc0-4293-a84e-a1f8167b279b","system_id":"levelo_inurba_marseille","lat":43.25861,"lon":5.39905,"is_reserved":false,"is_disabled":false,"rental_uris":{"android":"levelo://app?vid=480f28a2-7fc0-4293-a84e-a1f8167b279b","ios":"levelo://app?vid=480f28a2-7fc0-4293-a84e-a1f8167b279b"},"vehicle_type_id":"4","last_reported":1733768058,"current_range_meters":38800,"station_id":"ce4bhl92rcd13ifvqghg","pricing_plan_id":"cebpf4jnsgd1na2vs0mg"},{"bike_id":"0262ddd9-f869-4fe5-a781-6931725a380d","system_id":"levelo_inurba_marseille","lat":43.27939,"lon":5.41045,"is_reserved":false,"is_disabled":false,"rental_uris":{"android":"levelo://app?vid=0262ddd9-f869-4fe5-a781-6931725a380d","ios":"levelo://app?vid=0262ddd9-f869-4fe5-a781-6931725a380d"},"vehicle_type_id":"4","last_reported":1733768058,"current_range_meters":16400,"station_id":"ce4bhnp2rcd13ifvqh0g","pricing_plan_id":"cebpf4jnsgd1na2vs0mg"},{"bike_id":"938640b4-f78c-4def-9b16-e6205edb88bc","system_id":"levelo_inurba_marseille","lat":43.28154,"lon":5.42636,"is_reserved":false,"is_disabled":true,"rental_uris":{"android":"levelo://app?vid=938640b4-f78c-4def-9b16-e6205edb88bc","ios":"levelo://app?vid=938640b4-f78c-4def-9b16-e6205edb88bc"},"vehicle_type_id":"4","last_reported":1733768058,"current_range_meters":34800,"station_id":"ce4bhnh2rcd13ifvqgug","pricing_plan_id":"cebpf4jnsgd1na2vs0mg"},{"bike_id":"eb22e943-8ab4-45a8-a3de-f55254f3275d","system_id":"levelo_inurba_marseille","lat":43.28926,"lon":5.38407,"is_reserved":false,"is_disabled":false,"rental_uris":{"android":"levelo://app?vid=eb22e943-8ab4-45a8-a3de-f55254f3275d","ios":"levelo://app?vid=eb22e943-8ab4-45a8-a3de-f55254f3275d"},"vehicle_type_id":"4","last_reported":1733768058,"current_range_meters":14400,"station_id":"ce4bh612rcd13ifvqe6g","pricing_plan_id":"cebpf4jnsgd1na2vs0mg"},{"bike_id":"ea9d4249-69ee-4a2d-857e-bb5f7820465f","system_id":"levelo_inurba_marseille","lat":43.29443,"lon":5.39744,"is_reserved":false,"is_disabled":false,"rental_uris":{"android":"levelo://app?vid=ea9d4249-69ee-4a2d-857e-bb5f7820465f","ios":"levelo://app?vid=ea9d4249-69ee-4a2d-857e-bb5f7820465f"},"vehicle_type_id":"4","last_reported":1733768058,"current_range_meters":39200,"station_id":"ce4bh3h2rcd13ifvqdo0","pricing_plan_id":"cebpf4jnsgd1na2vs0mg"},{"bike_id":"cf55b169-9388-4819-bfa4-c55a8fa03873","system_id":"levelo_inurba_marseille","lat":43.27613,"lon":5.36105,"is_reserved":false,"is_disabled":true,"rental_uris":{"android":"levelo://app?vid=cf55b169-9388-4819-bfa4-c55a8fa03873","ios":"levelo://app?vid=cf55b169-9388-4819-bfa4-c55a8fa03873"},"vehicle_type_id":"4","last_reported":1733768058,"current_range_meters":28800,"station_id":"ce4bgj92rcd13ifvqbe0","pricing_plan_id":"cebpf4jnsgd1na2vs0mg"},{"bike_id":"2f3968e7-9336-4ee4-ba78-8e92c0a818cc","system_id":"levelo_inurba_marseille","lat":43.31322,"lon":5.36647,"is_reserved":false,"is_disabled":true,"rental_uris":{"android":"levelo://app?vid=2f3968e7-9336-4ee4-ba78-8e92c0a818cc","ios":"levelo://app?vid=2f3968e7-9336-4ee4-ba78-8e92c0a818cc"},"vehicle_type_id":"4","last_reported":1733768058,"current_range_meters":0,"station_id":"","pricing_plan_id":"cebpf4jnsgd1na2vs0mg"},{"bike_id":"ba0855e1-a344-4ad4-b7ef-fa9c8edb2b41","system_id":"levelo_inurba_marseille","lat":43.28149,"lon":5.42641,"is_reserved":false,"is_disabled":false,"rental_uris":{"android":"levelo://app?vid=ba0855e1-a344-4ad4-b7ef-fa9c8edb2b41","ios":"levelo://app?vid=ba0855e1-a344-4ad4-b7ef-fa9c8edb2b41"},"vehicle_type_id":"4","last_reported":1733768058,"current_range_meters":8800,"station_id":"ce4bhnh2rcd13ifvqgug","pricing_plan_id":"cebpf4jnsgd1na2vs0mg"},{"bike_id":"b2eccbb3-a55b-440e-a8e1-5dfbf23b943b","system_id":"levelo_inurba_marseille","lat":43.26941,"lon":5.40247,"is_reserved":false,"is_disabled":false,"rental_uris":{"android":"levelo://app?vid=b2eccbb3-a55b-440e-a8e1-5dfbf23b943b","ios":"levelo://app?vid=b2eccbb3-a55b-440e-a8e1-5dfbf23b943b"},"vehicle_type_id":"4","last_reported":1733768058,"current_range_meters":19600,"station_id":"cjm6bp8fraef2m0cb0m0","pricing_plan_id":"cebpf4jnsgd1na2vs0mg"},{"bike_id":"32818863-0b19-40fb-81e1-93b68c6542c0","system_id":"levelo_inurba_marseille","lat":43.30135,"lon":5.39861,"is_reserved":false,"is_disabled":true,"rental_uris":{"android":"levelo://app?vid=32818863-0b19-40fb-81e1-93b68c6542c0","ios":"levelo://app?vid=32818863-0b19-40fb-81e1-93b68c6542c0"},"vehicle_type_id":"4","last_reported":1733768058,"current_range_meters":1200,"station_id":"ce4bh0h2rcd13ifvqd40","pricing_plan_id":"cebpf4jnsgd1na2vs0mg"},{"bike_id":"13b217e9-49a2-4f06-9057-c4d60ce598f1","system_id":"levelo_inurba_marseille","lat":43.30591,"lon":5.39354,"is_reserved":false,"is_disabled":false,"rental_uris":{"android":"levelo://app?vid=13b217e9-49a2-4f06-9057-c4d60ce598f1","ios":"levelo://app?vid=13b217e9-49a2-4f06-9057-c4d60ce598f1"},"vehicle_type_id":"4","last_reported":1733768058,"current_range_meters":38800,"station_id":"ce4bh0p2rcd13ifvqd80","pricing_plan_id":"cebpf4jnsgd1na2vs0mg"},{"bike_id":"4c634b51-f78c-4188-bb5c-dedfedf1caf0","system_id":"levelo_inurba_marseille","lat":43.2807,"lon":5.3965,"is_reserved":false,"is_disabled":false,"rental_uris":{"android":"levelo://app?vid=4c634b51-f78c-4188-bb5c-dedfedf1caf0","ios":"levelo://app?vid=4c634b51-f78c-4188-bb5c-dedfedf1caf0"},"vehicle_type_id":"4","last_reported":1733768058,"current_range_meters":28000,"station_id":"ce4bho12rcd13ifvqh2g","pricing_plan_id":"cebpf4jnsgd1na2vs0mg"},{"bike_id":"7f0b121b-7748-43bd-b861-318cbdf6fb69","system_id":"levelo_inurba_marseille","lat":43.28454,"lon":5.35889,"is_reserved":false,"is_disabled":true,"rental_uris":{"android":"levelo://app?vid=7f0b121b-7748-43bd-b861-318cbdf6fb69","ios":"levelo://app?vid=7f0b121b-7748-43bd-b861-318cbdf6fb69"},"vehicle_type_id":"4","last_reported":1733768058,"current_range_meters":32000,"station_id":"ce4bhah2rcd13ifvqei0","pricing_plan_id":"cebpf4jnsgd1na2vs0mg"},{"bike_id":"6583aefc-6815-4bd5-8f5c-a9c5d794f47e","system_id":"levelo_inurba_marseille","lat":43.36385,"lon":5.3418,"is_reserved":false,"is_disabled":false,"rental_uris":{"android":"levelo://app?vid=6583aefc-6815-4bd5-8f5c-a9c5d794f47e","ios":"levelo://app?vid=6583aefc-6815-4bd5-8f5c-a9c5d794f47e"},"vehicle_type_id":"4","last_reported":1733768058,"current_range_meters":12400,"station_id":"","pricing_plan_id":"cebpf4jnsgd1na2vs0mg"},{"bike_id":"c8beff43-7449-4aa4-86a7-476ca29a8130","system_id":"levelo_inurba_marseille","lat":43.31721,"lon":5.42392,"is_reserved":false,"is_disabled":false,"rental_uris":{"android":"levelo://app?vid=c8beff43-7449-4aa4-86a7-476ca29a8130","ios":"levelo://app?vid=c8beff43-7449-4aa4-86a7-476ca29a8130"},"vehicle_type_id":"4","last_reported":1733768058,"current_range_meters":37600,"station_id":"ce4bhp92rcd13ifvqhbg","pricing_plan_id":"cebpf4jnsgd1na2vs0mg"},{"bike_id":"1ea75704-24c4-4a36-9d48-d8cdff10644f","system_id":"levelo_inurba_marseille","lat":43.33021,"lon":5.39042,"is_reserved":false,"is_disabled":true,"rental_uris":{"android":"levelo://app?vid=1ea75704-24c4-4a36-9d48-d8cdff10644f","ios":"levelo://app?vid=1ea75704-24c4-4a36-9d48-d8cdff10644f"},"vehicle_type_id":"4","last_reported":1733768058,"current_range_meters":1600,"station_id":"ce4bhr92rcd13ifvqhrg","pricing_plan_id":"cebpf4jnsgd1na2vs0mg"},{"bike_id":"72a40c74-61ce-4e85-9c26-7501b1062d7a","system_id":"levelo_inurba_marseille","lat":43.32335,"lon":5.40619,"is_reserved":false,"is_disabled":false,"rental_uris":{"android":"levelo://app?vid=72a40c74-61ce-4e85-9c26-7501b1062d7a","ios":"levelo://app?vid=72a40c74-61ce-4e85-9c26-7501b1062d7a"},"vehicle_type_id":"4","last_reported":1733768058,"current_range_meters":16400,"station_id":"ce4bhq92rcd13ifvqhjg","pricing_plan_id":"cebpf4jnsgd1na2vs0mg"},{"bike_id":"b97d7574-49b3-4eea-b4a7-8d4ca9df8845","system_id":"levelo_inurba_marseille","lat":43.27175,"lon":5.40997,"is_reserved":false,"is_disabled":false,"rental_uris":{"android":"levelo://app?vid=b97d7574-49b3-4eea-b4a7-8d4ca9df8845","ios":"levelo://app?vid=b97d7574-49b3-4eea-b4a7-8d4ca9df8845"},"vehicle_type_id":"4","last_reported":1733768058,"current_range_meters":19600,"station_id":"ce4bhl12rcd13ifvqgf0","pricing_plan_id":"cebpf4jnsgd1na2vs0mg"},{"bike_id":"1a2b6172-f1b7-4198-b8b3-047d7cf7feb2","system_id":"levelo_inurba_marseille","lat":43.2989,"lon":5.43663,"is_reserved":false,"is_disabled":false,"rental_uris":{"android":"levelo://app?vid=1a2b6172-f1b7-4198-b8b3-047d7cf7feb2","ios":"levelo://app?vid=1a2b6172-f1b7-4198-b8b3-047d7cf7feb2"},"vehicle_type_id":"4","last_reported":1733768058,"current_range_meters":39200,"station_id":"ce4bhpp2rcd13ifvqhfg","pricing_plan_id":"cebpf4jnsgd1na2vs0mg"},{"bike_id":"ad2f90d1-2f44-4830-9c20-e8aa5d565d92","system_id":"levelo_inurba_marseille","lat":43.25578,"lon":5.38224,"is_reserved":false,"is_disabled":true,"rental_uris":{"android":"levelo://app?vid=ad2f90d1-2f44-4830-9c20-e8aa5d565d92","ios":"levelo://app?vid=ad2f90d1-2f44-4830-9c20-e8aa5d565d92"},"vehicle_type_id":"4","last_reported":1733768058,"current_range_meters":0,"station_id":"ce4bhih2rcd13ifvqfs0","pricing_plan_id":"cebpf4jnsgd1na2vs0mg"},{"bike_id":"be11bf77-dce6-4575-b3d6-de65c68412a2","system_id":"levelo_inurba_marseille","lat":43.26076,"lon":5.39406,"is_reserved":false,"is_disabled":false,"rental_uris":{"android":"levelo://app?vid=be11bf77-dce6-4575-b3d6-de65c68412a2","ios":"levelo://app?vid=be11bf77-dce6-4575-b3d6-de65c68412a2"},"vehicle_type_id":"4","last_reported":1733768058,"current_range_meters":36400,"station_id":"ce4bhh92rcd13ifvqfj0","pricing_plan_id":"cebpf4jnsgd1na2vs0mg"},{"bike_id":"f10c5e90-601b-4bd4-87e7-4cbb6a13a4fb","system_id":"levelo_inurba_marseille","lat":43.26123,"lon":5.39268,"is_reserved":false,"is_disabled":true,"rental_uris":{"android":"levelo://app?vid=f10c5e90-601b-4bd4-87e7-4cbb6a13a4fb","ios":"levelo://app?vid=f10c5e90-601b-4bd4-87e7-4cbb6a13a4fb"},"vehicle_type_id":"4","last_reported":1733768058,"current_range_meters":0,"station_id":"","pricing_plan_id":"cebpf4jnsgd1na2vs0mg"},{"bike_id":"061cbab5-1cdc-4f7a-8064-31e205ee09c2","system_id":"levelo_inurba_marseille","lat":43.31075,"lon":5.38356,"is_reserved":false,"is_disabled":false,"rental_uris":{"android":"levelo://app?vid=061cbab5-1cdc-4f7a-8064-31e205ee09c2","ios":"levelo://app?vid=061cbab5-1cdc-4f7a-8064-31e205ee09c2"},"vehicle_type_id":"4","last_reported":1733768058,"current_range_meters":12800,"station_id":"ce4bgv92rcd13ifvqcr0","pricing_plan_id":"cebpf4jnsgd1na2vs0mg"},{"bike_id":"8179a502-24d2-4fc0-958c-6bce9d778e94","system_id":"levelo_inurba_marseille","lat":43.27821,"lon":5.40709,"is_reserved":false,"is_disabled":false,"rental_uris":{"android":"levelo://app?vid=8179a502-24d2-4fc0-958c-6bce9d778e94","ios":"levelo://app?vid=8179a502-24d2-4fc0-958c-6bce9d778e94"},"vehicle_type_id":"4","last_reported":1733768058,"current_range_meters":32400,"station_id":"ce4bhnh2rcd13ifvqgtg","pricing_plan_id":"cebpf4jnsgd1na2vs0mg"},{"bike_id":"4b799a83-3267-4ff9-a319-edb45c4d8b56","system_id":"levelo_inurba_marseille","lat":43.28609,"lon":5.37062,"is_reserved":false,"is_disabled":false,"rental_uris":{"android":"levelo://app?vid=4b799a83-3267-4ff9-a319-edb45c4d8b56","ios":"levelo://app?vid=4b799a83-3267-4ff9-a319-edb45c4d8b56"},"vehicle_type_id":"4","last_reported":1733768058,"current_range_meters":27600,"station_id":"ce4bht12rcd13ifvqi60","pricing_plan_id":"cebpf4jnsgd1na2vs0mg"},{"bike_id":"c00f0587-6e07-48cd-b5c4-2930fb081189","system_id":"levelo_inurba_marseille","lat":43.2931,"lon":5.41193,"is_reserved":false,"is_disabled":false,"rental_uris":{"android":"levelo://app?vid=c00f0587-6e07-48cd-b5c4-2930fb081189","ios":"levelo://app?vid=c00f0587-6e07-48cd-b5c4-2930fb081189"},"vehicle_type_id":"4","last_reported":1733768058,"current_range_meters":28800,"station_id":"","pricing_plan_id":"cebpf4jnsgd1na2vs0mg"},{"bike_id":"c1af07c0-ed11-49c8-aa2e-1104638a28b7","system_id":"levelo_inurba_marseille","lat":43.23067,"lon":5.35495,"is_reserved":false,"is_disabled":false,"rental_uris":{"android":"levelo://app?vid=c1af07c0-ed11-49c8-aa2e-1104638a28b7","ios":"levelo://app?vid=c1af07c0-ed11-49c8-aa2e-1104638a28b7"},"vehicle_type_id":"4","last_reported":1733768058,"current_range_meters":24000,"station_id":"cpo3342slgdg3j2ifvpg","pricing_plan_id":"cebpf4jnsgd1na2vs0mg"},{"bike_id":"a1b7d0a9-885b-4563-80bb-c16c77a2747b","system_id":"levelo_inurba_marseille","lat":43.31076,"lon":5.38356,"is_reserved":false,"is_disabled":true,"rental_uris":{"android":"levelo://app?vid=a1b7d0a9-885b-4563-80bb-c16c77a2747b","ios":"levelo://app?vid=a1b7d0a9-885b-4563-80bb-c16c77a2747b"},"vehicle_type_id":"4","last_reported":1733768058,"current_range_meters":0,"station_id":"ce4bgv92rcd13ifvqcr0","pricing_plan_id":"cebpf4jnsgd1na2vs0mg"},{"bike_id":"169e14f5-d110-464e-80da-ab97874f1b45","system_id":"levelo_inurba_marseille","lat":43.30329,"lon":5.4043,"is_reserved":false,"is_disabled":false,"rental_uris":{"android":"levelo://app?vid=169e14f5-d110-464e-80da-ab97874f1b45","ios":"levelo://app?vid=169e14f5-d110-464e-80da-ab97874f1b45"},"vehicle_type_id":"4","last_reported":1733768058,"current_range_meters":20800,"station_id":"ce4bh012rcd13ifvqd10","pricing_plan_id":"cebpf4jnsgd1na2vs0mg"},{"bike_id":"6f5aafc4-06b9-4dba-b612-5d926167490b","system_id":"levelo_inurba_marseille","lat":43.32479,"lon":5.36576,"is_reserved":false,"is_disabled":true,"rental_uris":{"android":"levelo://app?vid=6f5aafc4-06b9-4dba-b612-5d926167490b","ios":"levelo://app?vid=6f5aafc4-06b9-4dba-b612-5d926167490b"},"vehicle_type_id":"4","last_reported":1733768058,"current_range_meters":400,"station_id":"ce4bhs12rcd13ifvqhvg","pricing_plan_id":"cebpf4jnsgd1na2vs0mg"},{"bike_id":"f930f8e1-4780-4824-b739-56f3c0a30182","system_id":"levelo_inurba_marseille","lat":43.29193,"lon":5.35801,"is_reserved":false,"is_disabled":false,"rental_uris":{"android":"levelo://app?vid=f930f8e1-4780-4824-b739-56f3c0a30182","ios":"levelo://app?vid=f930f8e1-4780-4824-b739-56f3c0a30182"},"vehicle_type_id":"4","last_reported":1733768058,"current_range_meters":28000,"station_id":"ce4bhb12rcd13ifvqel0","pricing_plan_id":"cebpf4jnsgd1na2vs0mg"},{"bike_id":"19b06128-e0d1-48bb-8561-de6b4c9be47a","system_id":"levelo_inurba_marseille","lat":43.30805,"lon":5.43523,"is_reserved":false,"is_disabled":false,"rental_uris":{"android":"levelo://app?vid=19b06128-e0d1-48bb-8561-de6b4c9be47a","ios":"levelo://app?vid=19b06128-e0d1-48bb-8561-de6b4c9be47a"},"vehicle_type_id":"4","last_reported":1733768058,"current_range_meters":17600,"station_id":"ce4bhph2rcd13ifvqheg","pricing_plan_id":"cebpf4jnsgd1na2vs0mg"},{"bike_id":"b089d5a6-e8e6-4265-b578-f28e18d6c5ed","system_id":"levelo_inurba_marseille","lat":43.254972,"lon":5.376123,"is_reserved":false,"is_disabled":true,"rental_uris":{"android":"levelo://app?vid=b089d5a6-e8e6-4265-b578-f28e18d6c5ed","ios":"levelo://app?vid=b089d5a6-e8e6-4265-b578-f28e18d6c5ed"},"vehicle_type_id":"4","last_reported":1733768058,"current_range_meters":0,"station_id":"ce4bhh12rcd13ifvqff0","pricing_plan_id":"cebpf4jnsgd1na2vs0mg"},{"bike_id":"74ddbdc3-b082-4f44-a075-38dfc2e6b2cd","system_id":"levelo_inurba_marseille","lat":43.24162,"lon":5.36386,"is_reserved":false,"is_disabled":false,"rental_uris":{"android":"levelo://app?vid=74ddbdc3-b082-4f44-a075-38dfc2e6b2cd","ios":"levelo://app?vid=74ddbdc3-b082-4f44-a075-38dfc2e6b2cd"},"vehicle_type_id":"4","last_reported":1733768058,"current_range_meters":26000,"station_id":"cpo36qri1sfpv3e86is0","pricing_plan_id":"cebpf4jnsgd1na2vs0mg"},{"bike_id":"75c4dd61-e04d-4e2f-91b5-42123cf63f7b","system_id":"levelo_inurba_marseille","lat":43.28932,"lon":5.38386,"is_reserved":false,"is_disabled":false,"rental_uris":{"android":"levelo://app?vid=75c4dd61-e04d-4e2f-91b5-42123cf63f7b","ios":"levelo://app?vid=75c4dd61-e04d-4e2f-91b5-42123cf63f7b"},"vehicle_type_id":"4","last_reported":1733768058,"current_range_meters":27200,"station_id":"ce4bh612rcd13ifvqe6g","pricing_plan_id":"cebpf4jnsgd1na2vs0mg"},{"bike_id":"778cfa67-5e48-43ac-bad2-c30d515ff32e","system_id":"levelo_inurba_marseille","lat":43.30795,"lon":5.4352,"is_reserved":false,"is_disabled":true,"rental_uris":{"android":"levelo://app?vid=778cfa67-5e48-43ac-bad2-c30d515ff32e","ios":"levelo://app?vid=778cfa67-5e48-43ac-bad2-c30d515ff32e"},"vehicle_type_id":"4","last_reported":1733768058,"current_range_meters":0,"station_id":"ce4bhph2rcd13ifvqheg","pricing_plan_id":"cebpf4jnsgd1na2vs0mg"},{"bike_id":"ad097085-7b57-49a3-bedb-4c90eff64f11","system_id":"levelo_inurba_marseille","lat":43.28421,"lon":5.37508,"is_reserved":false,"is_disabled":false,"rental_uris":{"android":"levelo://app?vid=ad097085-7b57-49a3-bedb-4c90eff64f11","ios":"levelo://app?vid=ad097085-7b57-49a3-bedb-4c90eff64f11"},"vehicle_type_id":"4","last_reported":1733768058,"current_range_meters":33200,"station_id":"ce4bh412rcd13ifvqds0","pricing_plan_id":"cebpf4jnsgd1na2vs0mg"},{"bike_id":"f942e722-5039-4601-9971-0207b150598d","system_id":"levelo_inurba_marseille","lat":43.29854,"lon":5.36294,"is_reserved":false,"is_disabled":false,"rental_uris":{"android":"levelo://app?vid=f942e722-5039-4601-9971-0207b150598d","ios":"levelo://app?vid=f942e722-5039-4601-9971-0207b150598d"},"vehicle_type_id":"4","last_reported":1733768058,"current_range_meters":16400,"station_id":"ce4bgpp2rcd13ifvqc3g","pricing_plan_id":"cebpf4jnsgd1na2vs0mg"},{"bike_id":"9cd79aab-6f4c-4919-b570-803a9e8b35c5","system_id":"levelo_inurba_marseille","lat":43.30468,"lon":5.36716,"is_reserved":false,"is_disabled":true,"rental_uris":{"android":"levelo://app?vid=9cd79aab-6f4c-4919-b570-803a9e8b35c5","ios":"levelo://app?vid=9cd79aab-6f4c-4919-b570-803a9e8b35c5"},"vehicle_type_id":"4","last_reported":1733768058,"current_range_meters":27200,"station_id":"","pricing_plan_id":"cebpf4jnsgd1na2vs0mg"},{"bike_id":"97e5ff00-4aa1-4fe7-8691-7de15495d17e","system_id":"levelo_inurba_marseille","lat":43.29843,"lon":5.36268,"is_reserved":false,"is_disabled":false,"rental_uris":{"android":"levelo://app?vid=97e5ff00-4aa1-4fe7-8691-7de15495d17e","ios":"levelo://app?vid=97e5ff00-4aa1-4fe7-8691-7de15495d17e"},"vehicle_type_id":"4","last_reported":1733768058,"current_range_meters":30800,"station_id":"ce4bgpp2rcd13ifvqc3g","pricing_plan_id":"cebpf4jnsgd1na2vs0mg"},{"bike_id":"cf80ef54-0b0f-4dfe-80d1-0c382470e0e9","system_id":"levelo_inurba_marseille","lat":43.250775,"lon":5.395393,"is_reserved":false,"is_disabled":false,"rental_uris":{"android":"levelo://app?vid=cf80ef54-0b0f-4dfe-80d1-0c382470e0e9","ios":"levelo://app?vid=cf80ef54-0b0f-4dfe-80d1-0c382470e0e9"},"vehicle_type_id":"4","last_reported":1733768058,"current_range_meters":17600,"station_id":"","pricing_plan_id":"cebpf4jnsgd1na2vs0mg"},{"bike_id":"6812e31c-6539-4208-9b50-24648584764a","system_id":"levelo_inurba_marseille","lat":43.30189,"lon":5.36622,"is_reserved":false,"is_disabled":false,"rental_uris":{"android":"levelo://app?vid=6812e31c-6539-4208-9b50-24648584764a","ios":"levelo://app?vid=6812e31c-6539-4208-9b50-24648584764a"},"vehicle_type_id":"4","last_reported":1733768058,"current_range_meters":39200,"station_id":"ce4bgrh2rcd13ifvqc8g","pricing_plan_id":"cebpf4jnsgd1na2vs0mg"},{"bike_id":"08605414-6341-4da1-9495-a803ffb33ec0","system_id":"levelo_inurba_marseille","lat":43.29909,"lon":5.3748,"is_reserved":false,"is_disabled":false,"rental_uris":{"android":"levelo://app?vid=08605414-6341-4da1-9495-a803ffb33ec0","ios":"levelo://app?vid=08605414-6341-4da1-9495-a803ffb33ec0"},"vehicle_type_id":"4","last_reported":1733768058,"current_range_meters":16000,"station_id":"ce4bgjh2rcd13ifvqbg0","pricing_plan_id":"cebpf4jnsgd1na2vs0mg"},{"bike_id":"f97ddc52-5758-4192-8ca1-71254ad1a77e","system_id":"levelo_inurba_marseille","lat":43.26193,"lon":5.37448,"is_reserved":false,"is_disabled":false,"rental_uris":{"android":"levelo://app?vid=f97ddc52-5758-4192-8ca1-71254ad1a77e","ios":"levelo://app?vid=f97ddc52-5758-4192-8ca1-71254ad1a77e"},"vehicle_type_id":"4","last_reported":1733768058,"current_range_meters":22400,"station_id":"ce4bhgp2rcd13ifvqfc0","pricing_plan_id":"cebpf4jnsgd1na2vs0mg"},{"bike_id":"11e86528-eb6b-4391-86a5-9b1822d069a4","system_id":"levelo_inurba_marseille","lat":43.278805,"lon":5.388003,"is_reserved":false,"is_disabled":true,"rental_uris":{"android":"levelo://app?vid=11e86528-eb6b-4391-86a5-9b1822d069a4","ios":"levelo://app?vid=11e86528-eb6b-4391-86a5-9b1822d069a4"},"vehicle_type_id":"4","last_reported":1733768058,"current_range_meters":0,"station_id":"","pricing_plan_id":"cebpf4jnsgd1na2vs0mg"},{"bike_id":"6cc6805f-c0ca-4585-bdf1-b5a0339762b0","system_id":"levelo_inurba_marseille","lat":43.29027,"lon":5.42744,"is_reserved":false,"is_disabled":true,"rental_uris":{"android":"levelo://app?vid=6cc6805f-c0ca-4585-bdf1-b5a0339762b0","ios":"levelo://app?vid=6cc6805f-c0ca-4585-bdf1-b5a0339762b0"},"vehicle_type_id":"4","last_reported":1733768058,"current_range_meters":0,"station_id":"","pricing_plan_id":"cebpf4jnsgd1na2vs0mg"},{"bike_id":"9d37360f-80a6-44a0-9711-5ae2bd9bf710","system_id":"levelo_inurba_marseille","lat":43.27175,"lon":5.41,"is_reserved":false,"is_disabled":false,"rental_uris":{"android":"levelo://app?vid=9d37360f-80a6-44a0-9711-5ae2bd9bf710","ios":"levelo://app?vid=9d37360f-80a6-44a0-9711-5ae2bd9bf710"},"vehicle_type_id":"4","last_reported":1733768058,"current_range_meters":10800,"station_id":"ce4bhl12rcd13ifvqgf0","pricing_plan_id":"cebpf4jnsgd1na2vs0mg"},{"bike_id":"a478bcff-2af8-4db5-8351-cdbe6b849a6d","system_id":"levelo_inurba_marseille","lat":43.33416,"lon":5.36198,"is_reserved":false,"is_disabled":true,"rental_uris":{"android":"levelo://app?vid=a478bcff-2af8-4db5-8351-cdbe6b849a6d","ios":"levelo://app?vid=a478bcff-2af8-4db5-8351-cdbe6b849a6d"},"vehicle_type_id":"4","last_reported":1733768058,"current_range_meters":0,"station_id":"","pricing_plan_id":"cebpf4jnsgd1na2vs0mg"},{"bike_id":"477d14c4-13e7-425d-8b94-41a252ac0a3a","system_id":"levelo_inurba_marseille","lat":43.29967,"lon":5.38493,"is_reserved":false,"is_disabled":true,"rental_uris":{"android":"levelo://app?vid=477d14c4-13e7-425d-8b94-41a252ac0a3a","ios":"levelo://app?vid=477d14c4-13e7-425d-8b94-41a252ac0a3a"},"vehicle_type_id":"4","last_reported":1733768058,"current_range_meters":0,"station_id":"ce4bgj92rcd13ifvqbd0","pricing_plan_id":"cebpf4jnsgd1na2vs0mg"},{"bike_id":"cd635b0a-0d15-4636-98dd-4470e473b819","system_id":"levelo_inurba_marseille","lat":43.29308,"lon":5.41196,"is_reserved":false,"is_disabled":false,"rental_uris":{"android":"levelo://app?vid=cd635b0a-0d15-4636-98dd-4470e473b819","ios":"levelo://app?vid=cd635b0a-0d15-4636-98dd-4470e473b819"},"vehicle_type_id":"4","last_reported":1733768058,"current_range_meters":17200,"station_id":"","pricing_plan_id":"cebpf4jnsgd1na2vs0mg"},{"bike_id":"9f03dca4-237a-49dc-8f4b-3b6a07909c99","system_id":"levelo_inurba_marseille","lat":43.23196,"lon":5.35557,"is_reserved":false,"is_disabled":false,"rental_uris":{"android":"levelo://app?vid=9f03dca4-237a-49dc-8f4b-3b6a07909c99","ios":"levelo://app?vid=9f03dca4-237a-49dc-8f4b-3b6a07909c99"},"vehicle_type_id":"4","last_reported":1733768058,"current_range_meters":7200,"station_id":"ce4bhu92rcd13ifvqi70","pricing_plan_id":"cebpf4jnsgd1na2vs0mg"},{"bike_id":"b6fcd388-ab74-408f-9e17-a2445b649a56","system_id":"levelo_inurba_marseille","lat":43.28459,"lon":5.35904,"is_reserved":false,"is_disabled":false,"rental_uris":{"android":"levelo://app?vid=b6fcd388-ab74-408f-9e17-a2445b649a56","ios":"levelo://app?vid=b6fcd388-ab74-408f-9e17-a2445b649a56"},"vehicle_type_id":"4","last_reported":1733768058,"current_range_meters":19600,"station_id":"ce4bhah2rcd13ifvqei0","pricing_plan_id":"cebpf4jnsgd1na2vs0mg"},{"bike_id":"7660bc6e-55ac-4e1e-8168-89c5b25389ba","system_id":"levelo_inurba_marseille","lat":43.25081,"lon":5.39507,"is_reserved":false,"is_disabled":false,"rental_uris":{"android":"levelo://app?vid=7660bc6e-55ac-4e1e-8168-89c5b25389ba","ios":"levelo://app?vid=7660bc6e-55ac-4e1e-8168-89c5b25389ba"},"vehicle_type_id":"4","last_reported":1733768058,"current_range_meters":24800,"station_id":"ce4bhm12rcd13ifvqgkg","pricing_plan_id":"cebpf4jnsgd1na2vs0mg"},{"bike_id":"76d86cca-8908-43f7-81fb-163dd1b3dd34","system_id":"levelo_inurba_marseille","lat":43.29041,"lon":5.39979,"is_reserved":false,"is_disabled":true,"rental_uris":{"android":"levelo://app?vid=76d86cca-8908-43f7-81fb-163dd1b3dd34","ios":"levelo://app?vid=76d86cca-8908-43f7-81fb-163dd1b3dd34"},"vehicle_type_id":"4","last_reported":1733768058,"current_range_meters":0,"station_id":"ce4bh392rcd13ifvqdm0","pricing_plan_id":"cebpf4jnsgd1na2vs0mg"},{"bike_id":"aa9050e6-a6d8-46f7-8e4a-741171c50581","system_id":"levelo_inurba_marseille","lat":43.2508,"lon":5.39511,"is_reserved":false,"is_disabled":false,"rental_uris":{"android":"levelo://app?vid=aa9050e6-a6d8-46f7-8e4a-741171c50581","ios":"levelo://app?vid=aa9050e6-a6d8-46f7-8e4a-741171c50581"},"vehicle_type_id":"4","last_reported":1733768058,"current_range_meters":33200,"station_id":"ce4bhm12rcd13ifvqgkg","pricing_plan_id":"cebpf4jnsgd1na2vs0mg"},{"bike_id":"7333942c-71f7-4562-b13a-2c26906220ce","system_id":"levelo_inurba_marseille","lat":43.26787,"lon":5.39408,"is_reserved":false,"is_disabled":false,"rental_uris":{"android":"levelo://app?vid=7333942c-71f7-4562-b13a-2c26906220ce","ios":"levelo://app?vid=7333942c-71f7-4562-b13a-2c26906220ce"},"vehicle_type_id":"4","last_reported":1733768058,"current_range_meters":20400,"station_id":"ce4bhh12rcd13ifvqfg0","pricing_plan_id":"cebpf4jnsgd1na2vs0mg"},{"bike_id":"cf995f0f-a2d6-4303-85db-6d52c33aec36","system_id":"levelo_inurba_marseille","lat":43.33015,"lon":5.39028,"is_reserved":false,"is_disabled":false,"rental_uris":{"android":"levelo://app?vid=cf995f0f-a2d6-4303-85db-6d52c33aec36","ios":"levelo://app?vid=cf995f0f-a2d6-4303-85db-6d52c33aec36"},"vehicle_type_id":"4","last_reported":1733768058,"current_range_meters":38800,"station_id":"ce4bhr92rcd13ifvqhrg","pricing_plan_id":"cebpf4jnsgd1na2vs0mg"},{"bike_id":"cbf9c981-cbe9-407f-b4c6-5d2065d44b78","system_id":"levelo_inurba_marseille","lat":43.3302,"lon":5.39048,"is_reserved":false,"is_disabled":false,"rental_uris":{"android":"levelo://app?vid=cbf9c981-cbe9-407f-b4c6-5d2065d44b78","ios":"levelo://app?vid=cbf9c981-cbe9-407f-b4c6-5d2065d44b78"},"vehicle_type_id":"4","last_reported":1733768058,"current_range_meters":23200,"station_id":"ce4bhr92rcd13ifvqhrg","pricing_plan_id":"cebpf4jnsgd1na2vs0mg"},{"bike_id":"243c0fa9-fb27-4111-81f0-175e30eaaaed","system_id":"levelo_inurba_marseille","lat":43.2904,"lon":5.35913,"is_reserved":false,"is_disabled":true,"rental_uris":{"android":"levelo://app?vid=243c0fa9-fb27-4111-81f0-175e30eaaaed","ios":"levelo://app?vid=243c0fa9-fb27-4111-81f0-175e30eaaaed"},"vehicle_type_id":"4","last_reported":1733768058,"current_range_meters":38800,"station_id":"ce4bha92rcd13ifvqeg0","pricing_plan_id":"cebpf4jnsgd1na2vs0mg"},{"bike_id":"ec50719b-4d96-4e25-bc96-5c048872ab73","system_id":"levelo_inurba_marseille","lat":43.28662,"lon":5.36361,"is_reserved":false,"is_disabled":false,"rental_uris":{"android":"levelo://app?vid=ec50719b-4d96-4e25-bc96-5c048872ab73","ios":"levelo://app?vid=ec50719b-4d96-4e25-bc96-5c048872ab73"},"vehicle_type_id":"4","last_reported":1733768058,"current_range_meters":28400,"station_id":"ce4bhah2rcd13ifvqej0","pricing_plan_id":"cebpf4jnsgd1na2vs0mg"},{"bike_id":"a873af9b-a353-4469-b239-adbb5bf5dc0d","system_id":"levelo_inurba_marseille","lat":43.25864,"lon":5.39905,"is_reserved":false,"is_disabled":false,"rental_uris":{"android":"levelo://app?vid=a873af9b-a353-4469-b239-adbb5bf5dc0d","ios":"levelo://app?vid=a873af9b-a353-4469-b239-adbb5bf5dc0d"},"vehicle_type_id":"4","last_reported":1733768058,"current_range_meters":38800,"station_id":"ce4bhl92rcd13ifvqghg","pricing_plan_id":"cebpf4jnsgd1na2vs0mg"},{"bike_id":"736f6ae6-7558-432f-bac9-25b0b9abee75","system_id":"levelo_inurba_marseille","lat":43.31482,"lon":5.37302,"is_reserved":false,"is_disabled":false,"rental_uris":{"android":"levelo://app?vid=736f6ae6-7558-432f-bac9-25b0b9abee75","ios":"levelo://app?vid=736f6ae6-7558-432f-bac9-25b0b9abee75"},"vehicle_type_id":"4","last_reported":1733768058,"current_range_meters":9200,"station_id":"ce4bgt12rcd13ifvqcd0","pricing_plan_id":"cebpf4jnsgd1na2vs0mg"},{"bike_id":"95b68163-8c31-4ce4-989b-0d594a1f53e9","system_id":"levelo_inurba_marseille","lat":43.29679,"lon":5.37248,"is_reserved":false,"is_disabled":false,"rental_uris":{"android":"levelo://app?vid=95b68163-8c31-4ce4-989b-0d594a1f53e9","ios":"levelo://app?vid=95b68163-8c31-4ce4-989b-0d594a1f53e9"},"vehicle_type_id":"4","last_reported":1733768058,"current_range_meters":26000,"station_id":"ce4bgk12rcd13ifvqbj0","pricing_plan_id":"cebpf4jnsgd1na2vs0mg"},{"bike_id":"2c004771-7bc5-45c3-a1fc-162d09ef914b","system_id":"levelo_inurba_marseille","lat":43.26787,"lon":5.39413,"is_reserved":false,"is_disabled":false,"rental_uris":{"android":"levelo://app?vid=2c004771-7bc5-45c3-a1fc-162d09ef914b","ios":"levelo://app?vid=2c004771-7bc5-45c3-a1fc-162d09ef914b"},"vehicle_type_id":"4","last_reported":1733768058,"current_range_meters":27200,"station_id":"ce4bhh12rcd13ifvqfg0","pricing_plan_id":"cebpf4jnsgd1na2vs0mg"},{"bike_id":"03eb82d1-74fe-4272-8bc8-ed71145ff5b3","system_id":"levelo_inurba_marseille","lat":43.239635,"lon":5.366618,"is_reserved":false,"is_disabled":false,"rental_uris":{"android":"levelo://app?vid=03eb82d1-74fe-4272-8bc8-ed71145ff5b3","ios":"levelo://app?vid=03eb82d1-74fe-4272-8bc8-ed71145ff5b3"},"vehicle_type_id":"4","last_reported":1733768058,"current_range_meters":27200,"station_id":"ce4bhi12rcd13ifvqfp0","pricing_plan_id":"cebpf4jnsgd1na2vs0mg"},{"bike_id":"1381d957-9c22-4679-9945-3cee5159e1e0","system_id":"levelo_inurba_marseille","lat":43.251114,"lon":5.40321,"is_reserved":false,"is_disabled":false,"rental_uris":{"android":"levelo://app?vid=1381d957-9c22-4679-9945-3cee5159e1e0","ios":"levelo://app?vid=1381d957-9c22-4679-9945-3cee5159e1e0"},"vehicle_type_id":"4","last_reported":1733768058,"current_range_meters":28000,"station_id":"ce4bhlh2rcd13ifvqgig","pricing_plan_id":"cebpf4jnsgd1na2vs0mg"},{"bike_id":"dba007e6-8889-4e76-a4bf-87bc5db880a0","system_id":"levelo_inurba_marseille","lat":43.33019,"lon":5.39036,"is_reserved":false,"is_disabled":false,"rental_uris":{"android":"levelo://app?vid=dba007e6-8889-4e76-a4bf-87bc5db880a0","ios":"levelo://app?vid=dba007e6-8889-4e76-a4bf-87bc5db880a0"},"vehicle_type_id":"4","last_reported":1733768058,"current_range_meters":38800,"station_id":"ce4bhr92rcd13ifvqhrg","pricing_plan_id":"cebpf4jnsgd1na2vs0mg"},{"bike_id":"b4706b6c-8b19-44d0-8340-ffe3ae8ea79b","system_id":"levelo_inurba_marseille","lat":43.31352,"lon":5.36693,"is_reserved":false,"is_disabled":false,"rental_uris":{"android":"levelo://app?vid=b4706b6c-8b19-44d0-8340-ffe3ae8ea79b","ios":"levelo://app?vid=b4706b6c-8b19-44d0-8340-ffe3ae8ea79b"},"vehicle_type_id":"4","last_reported":1733768058,"current_range_meters":25200,"station_id":"ce4bgr92rcd13ifvqc6g","pricing_plan_id":"cebpf4jnsgd1na2vs0mg"},{"bike_id":"5fa91bad-b486-4700-aee0-3d40cbe09516","system_id":"levelo_inurba_marseille","lat":43.24171,"lon":5.36397,"is_reserved":false,"is_disabled":false,"rental_uris":{"android":"levelo://app?vid=5fa91bad-b486-4700-aee0-3d40cbe09516","ios":"levelo://app?vid=5fa91bad-b486-4700-aee0-3d40cbe09516"},"vehicle_type_id":"4","last_reported":1733768058,"current_range_meters":4400,"station_id":"cpo36qri1sfpv3e86is0","pricing_plan_id":"cebpf4jnsgd1na2vs0mg"},{"bike_id":"58d3480e-9a25-4142-9952-995aac0b5e71","system_id":"levelo_inurba_marseille","lat":43.31103,"lon":5.36755,"is_reserved":false,"is_disabled":false,"rental_uris":{"android":"levelo://app?vid=58d3480e-9a25-4142-9952-995aac0b5e71","ios":"levelo://app?vid=58d3480e-9a25-4142-9952-995aac0b5e71"},"vehicle_type_id":"4","last_reported":1733768058,"current_range_meters":36800,"station_id":"","pricing_plan_id":"cebpf4jnsgd1na2vs0mg"},{"bike_id":"067d4f8e-eded-4040-9b89-eb14aebc4852","system_id":"levelo_inurba_marseille","lat":43.29903,"lon":5.43681,"is_reserved":false,"is_disabled":false,"rental_uris":{"android":"levelo://app?vid=067d4f8e-eded-4040-9b89-eb14aebc4852","ios":"levelo://app?vid=067d4f8e-eded-4040-9b89-eb14aebc4852"},"vehicle_type_id":"4","last_reported":1733768058,"current_range_meters":36800,"station_id":"ce4bhpp2rcd13ifvqhfg","pricing_plan_id":"cebpf4jnsgd1na2vs0mg"},{"bike_id":"23504e84-62de-4322-9c7d-5dbe7fb79461","system_id":"levelo_inurba_marseille","lat":43.2866,"lon":5.36342,"is_reserved":false,"is_disabled":true,"rental_uris":{"android":"levelo://app?vid=23504e84-62de-4322-9c7d-5dbe7fb79461","ios":"levelo://app?vid=23504e84-62de-4322-9c7d-5dbe7fb79461"},"vehicle_type_id":"4","last_reported":1733768058,"current_range_meters":0,"station_id":"ce4bhah2rcd13ifvqej0","pricing_plan_id":"cebpf4jnsgd1na2vs0mg"},{"bike_id":"093a7027-cf42-43ba-bdc0-8bd9d48a332b","system_id":"levelo_inurba_marseille","lat":43.26024,"lon":5.37545,"is_reserved":false,"is_disabled":false,"rental_uris":{"android":"levelo://app?vid=093a7027-cf42-43ba-bdc0-8bd9d48a332b","ios":"levelo://app?vid=093a7027-cf42-43ba-bdc0-8bd9d48a332b"},"vehicle_type_id":"4","last_reported":1733768058,"current_range_meters":38800,"station_id":"ce4bhgh2rcd13ifvqfa0","pricing_plan_id":"cebpf4jnsgd1na2vs0mg"},{"bike_id":"9f3769a7-f392-475e-913a-8ad10d3e2daf","system_id":"levelo_inurba_marseille","lat":43.24167,"lon":5.36396,"is_reserved":false,"is_disabled":false,"rental_uris":{"android":"levelo://app?vid=9f3769a7-f392-475e-913a-8ad10d3e2daf","ios":"levelo://app?vid=9f3769a7-f392-475e-913a-8ad10d3e2daf"},"vehicle_type_id":"4","last_reported":1733768058,"current_range_meters":20000,"station_id":"cpo36qri1sfpv3e86is0","pricing_plan_id":"cebpf4jnsgd1na2vs0mg"},{"bike_id":"896d4ccf-3d83-4122-b2f2-1a77a517b0e7","system_id":"levelo_inurba_marseille","lat":43.23962,"lon":5.36618,"is_reserved":false,"is_disabled":false,"rental_uris":{"android":"levelo://app?vid=896d4ccf-3d83-4122-b2f2-1a77a517b0e7","ios":"levelo://app?vid=896d4ccf-3d83-4122-b2f2-1a77a517b0e7"},"vehicle_type_id":"4","last_reported":1733768058,"current_range_meters":38400,"station_id":"ce4bhi12rcd13ifvqfp0","pricing_plan_id":"cebpf4jnsgd1na2vs0mg"},{"bike_id":"9f1e516b-ea28-4c1c-8fda-b24449880743","system_id":"levelo_inurba_marseille","lat":43.28452,"lon":5.38556,"is_reserved":false,"is_disabled":false,"rental_uris":{"android":"levelo://app?vid=9f1e516b-ea28-4c1c-8fda-b24449880743","ios":"levelo://app?vid=9f1e516b-ea28-4c1c-8fda-b24449880743"},"vehicle_type_id":"4","last_reported":1733768058,"current_range_meters":19200,"station_id":"ce4bh8p2rcd13ifvqeb0","pricing_plan_id":"cebpf4jnsgd1na2vs0mg"},{"bike_id":"c575d94c-1c3c-41da-bfd2-302bcedd0cad","system_id":"levelo_inurba_marseille","lat":43.31164,"lon":5.38723,"is_reserved":false,"is_disabled":true,"rental_uris":{"android":"levelo://app?vid=c575d94c-1c3c-41da-bfd2-302bcedd0cad","ios":"levelo://app?vid=c575d94c-1c3c-41da-bfd2-302bcedd0cad"},"vehicle_type_id":"4","last_reported":1733768058,"current_range_meters":0,"station_id":"ce4bgv12rcd13ifvqcp0","pricing_plan_id":"cebpf4jnsgd1na2vs0mg"},{"bike_id":"e3494c2d-fb2c-4ed1-872d-74059733c7c0","system_id":"levelo_inurba_marseille","lat":43.31374,"lon":5.38498,"is_reserved":false,"is_disabled":false,"rental_uris":{"android":"levelo://app?vid=e3494c2d-fb2c-4ed1-872d-74059733c7c0","ios":"levelo://app?vid=e3494c2d-fb2c-4ed1-872d-74059733c7c0"},"vehicle_type_id":"4","last_reported":1733768058,"current_range_meters":39200,"station_id":"ce4bgt92rcd13ifvqcf0","pricing_plan_id":"cebpf4jnsgd1na2vs0mg"},{"bike_id":"bb98a7ac-c025-4204-9d92-d2689dd6da6f","system_id":"levelo_inurba_marseille","lat":43.27316,"lon":5.3907,"is_reserved":false,"is_disabled":false,"rental_uris":{"android":"levelo://app?vid=bb98a7ac-c025-4204-9d92-d2689dd6da6f","ios":"levelo://app?vid=bb98a7ac-c025-4204-9d92-d2689dd6da6f"},"vehicle_type_id":"4","last_reported":1733768058,"current_range_meters":36000,"station_id":"ce4bhgp2rcd13ifvqfe0","pricing_plan_id":"cebpf4jnsgd1na2vs0mg"},{"bike_id":"456ee3e2-7425-4120-bc59-2e964fa693a8","system_id":"levelo_inurba_marseille","lat":43.24388,"lon":5.37066,"is_reserved":false,"is_disabled":false,"rental_uris":{"android":"levelo://app?vid=456ee3e2-7425-4120-bc59-2e964fa693a8","ios":"levelo://app?vid=456ee3e2-7425-4120-bc59-2e964fa693a8"},"vehicle_type_id":"4","last_reported":1733768058,"current_range_meters":38800,"station_id":"ce4bhhh2rcd13ifvqfk0","pricing_plan_id":"cebpf4jnsgd1na2vs0mg"},{"bike_id":"3c2062af-ee33-42a5-bf68-d8b0edbf6fcf","system_id":"levelo_inurba_marseille","lat":43.31986,"lon":5.3815,"is_reserved":false,"is_disabled":false,"rental_uris":{"android":"levelo://app?vid=3c2062af-ee33-42a5-bf68-d8b0edbf6fcf","ios":"levelo://app?vid=3c2062af-ee33-42a5-bf68-d8b0edbf6fcf"},"vehicle_type_id":"4","last_reported":1733768058,"current_range_meters":38800,"station_id":"ce4bhr12rcd13ifvqhpg","pricing_plan_id":"cebpf4jnsgd1na2vs0mg"},{"bike_id":"2df2c603-7f05-4f43-a92d-22c85fe3c124","system_id":"levelo_inurba_marseille","lat":43.2737,"lon":5.36255,"is_reserved":false,"is_disabled":true,"rental_uris":{"android":"levelo://app?vid=2df2c603-7f05-4f43-a92d-22c85fe3c124","ios":"levelo://app?vid=2df2c603-7f05-4f43-a92d-22c85fe3c124"},"vehicle_type_id":"4","last_reported":1733768058,"current_range_meters":1200,"station_id":"ce4bhbh2rcd13ifvqeo0","pricing_plan_id":"cebpf4jnsgd1na2vs0mg"},{"bike_id":"25a20b03-9830-4773-bc6b-d425633d2c5c","system_id":"levelo_inurba_marseille","lat":43.24762,"lon":5.40016,"is_reserved":false,"is_disabled":true,"rental_uris":{"android":"levelo://app?vid=25a20b03-9830-4773-bc6b-d425633d2c5c","ios":"levelo://app?vid=25a20b03-9830-4773-bc6b-d425633d2c5c"},"vehicle_type_id":"4","last_reported":1733768058,"current_range_meters":0,"station_id":"","pricing_plan_id":"cebpf4jnsgd1na2vs0mg"},{"bike_id":"66381ce7-4373-4194-919a-e52873b105b7","system_id":"levelo_inurba_marseille","lat":43.248,"lon":5.37453,"is_reserved":false,"is_disabled":false,"rental_uris":{"android":"levelo://app?vid=66381ce7-4373-4194-919a-e52873b105b7","ios":"levelo://app?vid=66381ce7-4373-4194-919a-e52873b105b7"},"vehicle_type_id":"4","last_reported":1733768058,"current_range_meters":8000,"station_id":"ce4bhgh2rcd13ifvqfb0","pricing_plan_id":"cebpf4jnsgd1na2vs0mg"},{"bike_id":"9dfa7fc8-d604-4d2d-a43b-7839aeea0c13","system_id":"levelo_inurba_marseille","lat":43.2795,"lon":5.41043,"is_reserved":false,"is_disabled":true,"rental_uris":{"android":"levelo://app?vid=9dfa7fc8-d604-4d2d-a43b-7839aeea0c13","ios":"levelo://app?vid=9dfa7fc8-d604-4d2d-a43b-7839aeea0c13"},"vehicle_type_id":"4","last_reported":1733768058,"current_range_meters":0,"station_id":"ce4bhnp2rcd13ifvqh0g","pricing_plan_id":"cebpf4jnsgd1na2vs0mg"},{"bike_id":"7a04e6ef-80fd-4997-8182-6db8c94d2917","system_id":"levelo_inurba_marseille","lat":43.2794,"lon":5.41048,"is_reserved":false,"is_disabled":false,"rental_uris":{"android":"levelo://app?vid=7a04e6ef-80fd-4997-8182-6db8c94d2917","ios":"levelo://app?vid=7a04e6ef-80fd-4997-8182-6db8c94d2917"},"vehicle_type_id":"4","last_reported":1733768058,"current_range_meters":10000,"station_id":"ce4bhnp2rcd13ifvqh0g","pricing_plan_id":"cebpf4jnsgd1na2vs0mg"},{"bike_id":"96b4e0a8-8f98-4fc6-8d19-c0dca4f16ba5","system_id":"levelo_inurba_marseille","lat":43.28447,"lon":5.35881,"is_reserved":false,"is_disabled":false,"rental_uris":{"android":"levelo://app?vid=96b4e0a8-8f98-4fc6-8d19-c0dca4f16ba5","ios":"levelo://app?vid=96b4e0a8-8f98-4fc6-8d19-c0dca4f16ba5"},"vehicle_type_id":"4","last_reported":1733768058,"current_range_meters":22000,"station_id":"ce4bhah2rcd13ifvqei0","pricing_plan_id":"cebpf4jnsgd1na2vs0mg"},{"bike_id":"b497ad4d-1643-419c-aba6-8e8a5474d77a","system_id":"levelo_inurba_marseille","lat":43.29896,"lon":5.43658,"is_reserved":false,"is_disabled":false,"rental_uris":{"android":"levelo://app?vid=b497ad4d-1643-419c-aba6-8e8a5474d77a","ios":"levelo://app?vid=b497ad4d-1643-419c-aba6-8e8a5474d77a"},"vehicle_type_id":"4","last_reported":1733768058,"current_range_meters":38400,"station_id":"ce4bhpp2rcd13ifvqhfg","pricing_plan_id":"cebpf4jnsgd1na2vs0mg"},{"bike_id":"29811ae2-e73a-45e1-8bdf-2040549a52d4","system_id":"levelo_inurba_marseille","lat":43.27987,"lon":5.40017,"is_reserved":false,"is_disabled":false,"rental_uris":{"android":"levelo://app?vid=29811ae2-e73a-45e1-8bdf-2040549a52d4","ios":"levelo://app?vid=29811ae2-e73a-45e1-8bdf-2040549a52d4"},"vehicle_type_id":"4","last_reported":1733768058,"current_range_meters":32400,"station_id":"ce4bho92rcd13ifvqh4g","pricing_plan_id":"cebpf4jnsgd1na2vs0mg"},{"bike_id":"55e60e63-47ce-424d-ad59-1c9ec610c8a6","system_id":"levelo_inurba_marseille","lat":43.28471,"lon":5.35887,"is_reserved":false,"is_disabled":false,"rental_uris":{"android":"levelo://app?vid=55e60e63-47ce-424d-ad59-1c9ec610c8a6","ios":"levelo://app?vid=55e60e63-47ce-424d-ad59-1c9ec610c8a6"},"vehicle_type_id":"4","last_reported":1733768058,"current_range_meters":39200,"station_id":"ce4bhah2rcd13ifvqei0","pricing_plan_id":"cebpf4jnsgd1na2vs0mg"},{"bike_id":"79eec760-3148-415c-9486-9ff642f00208","system_id":"levelo_inurba_marseille","lat":43.34654,"lon":5.34566,"is_reserved":false,"is_disabled":false,"rental_uris":{"android":"levelo://app?vid=79eec760-3148-415c-9486-9ff642f00208","ios":"levelo://app?vid=79eec760-3148-415c-9486-9ff642f00208"},"vehicle_type_id":"4","last_reported":1733768058,"current_range_meters":3200,"station_id":"","pricing_plan_id":"cebpf4jnsgd1na2vs0mg"},{"bike_id":"9a8f466b-8790-45e8-9233-f61a1cfa1f24","system_id":"levelo_inurba_marseille","lat":43.28459,"lon":5.35891,"is_reserved":false,"is_disabled":false,"rental_uris":{"android":"levelo://app?vid=9a8f466b-8790-45e8-9233-f61a1cfa1f24","ios":"levelo://app?vid=9a8f466b-8790-45e8-9233-f61a1cfa1f24"},"vehicle_type_id":"4","last_reported":1733768058,"current_range_meters":20400,"station_id":"ce4bhah2rcd13ifvqei0","pricing_plan_id":"cebpf4jnsgd1na2vs0mg"},{"bike_id":"10eeb2d7-4b2f-4a9a-999b-cb4f6e28cca0","system_id":"levelo_inurba_marseille","lat":43.27065,"lon":5.42272,"is_reserved":false,"is_disabled":false,"rental_uris":{"android":"levelo://app?vid=10eeb2d7-4b2f-4a9a-999b-cb4f6e28cca0","ios":"levelo://app?vid=10eeb2d7-4b2f-4a9a-999b-cb4f6e28cca0"},"vehicle_type_id":"4","last_reported":1733768058,"current_range_meters":38800,"station_id":"ce4bhk92rcd13ifvqgb0","pricing_plan_id":"cebpf4jnsgd1na2vs0mg"},{"bike_id":"f0e5277a-0fcd-481e-a8cc-38a26ba018ce","system_id":"levelo_inurba_marseille","lat":43.29265,"lon":5.38437,"is_reserved":false,"is_disabled":false,"rental_uris":{"android":"levelo://app?vid=f0e5277a-0fcd-481e-a8cc-38a26ba018ce","ios":"levelo://app?vid=f0e5277a-0fcd-481e-a8cc-38a26ba018ce"},"vehicle_type_id":"4","last_reported":1733768058,"current_range_meters":2800,"station_id":"ce4bh692rcd13ifvqea0","pricing_plan_id":"cebpf4jnsgd1na2vs0mg"},{"bike_id":"0f6874ea-7b75-4878-8881-4d374a9c2ddc","system_id":"levelo_inurba_marseille","lat":43.31075,"lon":5.38352,"is_reserved":false,"is_disabled":false,"rental_uris":{"android":"levelo://app?vid=0f6874ea-7b75-4878-8881-4d374a9c2ddc","ios":"levelo://app?vid=0f6874ea-7b75-4878-8881-4d374a9c2ddc"},"vehicle_type_id":"4","last_reported":1733768058,"current_range_meters":18800,"station_id":"ce4bgv92rcd13ifvqcr0","pricing_plan_id":"cebpf4jnsgd1na2vs0mg"},{"bike_id":"da793deb-438f-4b61-88cb-495701590aaa","system_id":"levelo_inurba_marseille","lat":43.31066,"lon":5.38347,"is_reserved":false,"is_disabled":false,"rental_uris":{"android":"levelo://app?vid=da793deb-438f-4b61-88cb-495701590aaa","ios":"levelo://app?vid=da793deb-438f-4b61-88cb-495701590aaa"},"vehicle_type_id":"4","last_reported":1733768058,"current_range_meters":35600,"station_id":"ce4bgv92rcd13ifvqcr0","pricing_plan_id":"cebpf4jnsgd1na2vs0mg"},{"bike_id":"4c15403f-68cb-4b36-a22b-c8fa1c372b4b","system_id":"levelo_inurba_marseille","lat":43.27996,"lon":5.40007,"is_reserved":false,"is_disabled":false,"rental_uris":{"android":"levelo://app?vid=4c15403f-68cb-4b36-a22b-c8fa1c372b4b","ios":"levelo://app?vid=4c15403f-68cb-4b36-a22b-c8fa1c372b4b"},"vehicle_type_id":"4","last_reported":1733768058,"current_range_meters":38800,"station_id":"ce4bho92rcd13ifvqh4g","pricing_plan_id":"cebpf4jnsgd1na2vs0mg"},{"bike_id":"e3650a39-7faf-4bef-874a-053482a93766","system_id":"levelo_inurba_marseille","lat":43.29722,"lon":5.37686,"is_reserved":false,"is_disabled":true,"rental_uris":{"android":"levelo://app?vid=e3650a39-7faf-4bef-874a-053482a93766","ios":"levelo://app?vid=e3650a39-7faf-4bef-874a-053482a93766"},"vehicle_type_id":"4","last_reported":1733768058,"current_range_meters":30400,"station_id":"ce4bgkh2rcd13ifvqbl0","pricing_plan_id":"cebpf4jnsgd1na2vs0mg"},{"bike_id":"e652bd0e-f25c-4f49-88d2-3023d62cd5aa","system_id":"levelo_inurba_marseille","lat":43.295892,"lon":5.37506,"is_reserved":false,"is_disabled":true,"rental_uris":{"android":"levelo://app?vid=e652bd0e-f25c-4f49-88d2-3023d62cd5aa","ios":"levelo://app?vid=e652bd0e-f25c-4f49-88d2-3023d62cd5aa"},"vehicle_type_id":"4","last_reported":1733768058,"current_range_meters":0,"station_id":"","pricing_plan_id":"cebpf4jnsgd1na2vs0mg"},{"bike_id":"fe5707ac-071f-4824-98b8-d6b028bc38f8","system_id":"levelo_inurba_marseille","lat":43.25868,"lon":5.39906,"is_reserved":false,"is_disabled":false,"rental_uris":{"android":"levelo://app?vid=fe5707ac-071f-4824-98b8-d6b028bc38f8","ios":"levelo://app?vid=fe5707ac-071f-4824-98b8-d6b028bc38f8"},"vehicle_type_id":"4","last_reported":1733768058,"current_range_meters":30800,"station_id":"ce4bhl92rcd13ifvqghg","pricing_plan_id":"cebpf4jnsgd1na2vs0mg"},{"bike_id":"50f52497-54ca-47ea-a19e-1fc86f8c6045","system_id":"levelo_inurba_marseille","lat":43.2823,"lon":5.424,"is_reserved":false,"is_disabled":true,"rental_uris":{"android":"levelo://app?vid=50f52497-54ca-47ea-a19e-1fc86f8c6045","ios":"levelo://app?vid=50f52497-54ca-47ea-a19e-1fc86f8c6045"},"vehicle_type_id":"4","last_reported":1733768058,"current_range_meters":8000,"station_id":"","pricing_plan_id":"cebpf4jnsgd1na2vs0mg"},{"bike_id":"752f0fcf-d3c3-41e2-a1e9-51894dcb343a","system_id":"levelo_inurba_marseille","lat":43.23193,"lon":5.35548,"is_reserved":false,"is_disabled":false,"rental_uris":{"android":"levelo://app?vid=752f0fcf-d3c3-41e2-a1e9-51894dcb343a","ios":"levelo://app?vid=752f0fcf-d3c3-41e2-a1e9-51894dcb343a"},"vehicle_type_id":"4","last_reported":1733768058,"current_range_meters":17600,"station_id":"ce4bhu92rcd13ifvqi70","pricing_plan_id":"cebpf4jnsgd1na2vs0mg"},{"bike_id":"561f1b87-0f16-45bb-9060-6ce7723ae9e8","system_id":"levelo_inurba_marseille","lat":43.2694,"lon":5.40246,"is_reserved":false,"is_disabled":false,"rental_uris":{"android":"levelo://app?vid=561f1b87-0f16-45bb-9060-6ce7723ae9e8","ios":"levelo://app?vid=561f1b87-0f16-45bb-9060-6ce7723ae9e8"},"vehicle_type_id":"4","last_reported":1733768058,"current_range_meters":36800,"station_id":"cjm6bp8fraef2m0cb0m0","pricing_plan_id":"cebpf4jnsgd1na2vs0mg"},{"bike_id":"5fdd27f7-11e2-4d7e-a1f4-c3aea6418467","system_id":"levelo_inurba_marseille","lat":43.30309,"lon":5.36909,"is_reserved":false,"is_disabled":true,"rental_uris":{"android":"levelo://app?vid=5fdd27f7-11e2-4d7e-a1f4-c3aea6418467","ios":"levelo://app?vid=5fdd27f7-11e2-4d7e-a1f4-c3aea6418467"},"vehicle_type_id":"4","last_reported":1733768058,"current_range_meters":2800,"station_id":"ce4bgqh2rcd13ifvqc5g","pricing_plan_id":"cebpf4jnsgd1na2vs0mg"},{"bike_id":"33f1a526-a5a3-4261-b1e0-d90c46ff918d","system_id":"levelo_inurba_marseille","lat":43.28151,"lon":5.42643,"is_reserved":false,"is_disabled":true,"rental_uris":{"android":"levelo://app?vid=33f1a526-a5a3-4261-b1e0-d90c46ff918d","ios":"levelo://app?vid=33f1a526-a5a3-4261-b1e0-d90c46ff918d"},"vehicle_type_id":"4","last_reported":1733768058,"current_range_meters":20000,"station_id":"ce4bhnh2rcd13ifvqgug","pricing_plan_id":"cebpf4jnsgd1na2vs0mg"},{"bike_id":"3e9e2561-6f54-485e-84b2-cff5e0916c34","system_id":"levelo_inurba_marseille","lat":43.32329,"lon":5.40618,"is_reserved":false,"is_disabled":false,"rental_uris":{"android":"levelo://app?vid=3e9e2561-6f54-485e-84b2-cff5e0916c34","ios":"levelo://app?vid=3e9e2561-6f54-485e-84b2-cff5e0916c34"},"vehicle_type_id":"4","last_reported":1733768058,"current_range_meters":16000,"station_id":"ce4bhq92rcd13ifvqhjg","pricing_plan_id":"cebpf4jnsgd1na2vs0mg"},{"bike_id":"aae32562-ceaf-49bd-b629-fbe5977d1592","system_id":"levelo_inurba_marseille","lat":43.26562,"lon":5.39012,"is_reserved":false,"is_disabled":false,"rental_uris":{"android":"levelo://app?vid=aae32562-ceaf-49bd-b629-fbe5977d1592","ios":"levelo://app?vid=aae32562-ceaf-49bd-b629-fbe5977d1592"},"vehicle_type_id":"4","last_reported":1733768058,"current_range_meters":19600,"station_id":"ce4bhe12rcd13ifvqf30","pricing_plan_id":"cebpf4jnsgd1na2vs0mg"},{"bike_id":"235fde9b-42f7-4529-abae-e385239f9cb2","system_id":"levelo_inurba_marseille","lat":43.29226,"lon":5.36074,"is_reserved":false,"is_disabled":false,"rental_uris":{"android":"levelo://app?vid=235fde9b-42f7-4529-abae-e385239f9cb2","ios":"levelo://app?vid=235fde9b-42f7-4529-abae-e385239f9cb2"},"vehicle_type_id":"4","last_reported":1733768058,"current_range_meters":26800,"station_id":"ce4bhbh2rcd13ifvqeqg","pricing_plan_id":"cebpf4jnsgd1na2vs0mg"},{"bike_id":"1c5491e3-5640-4dec-a041-cae84c60627c","system_id":"levelo_inurba_marseille","lat":43.28997,"lon":5.3561,"is_reserved":false,"is_disabled":true,"rental_uris":{"android":"levelo://app?vid=1c5491e3-5640-4dec-a041-cae84c60627c","ios":"levelo://app?vid=1c5491e3-5640-4dec-a041-cae84c60627c"},"vehicle_type_id":"4","last_reported":1733768058,"current_range_meters":23200,"station_id":"ce4bhb92rcd13ifvqen0","pricing_plan_id":"cebpf4jnsgd1na2vs0mg"},{"bike_id":"5d9d33ed-3cf9-4f40-bcf4-4fd075009d99","system_id":"levelo_inurba_marseille","lat":43.26934,"lon":5.40254,"is_reserved":false,"is_disabled":false,"rental_uris":{"android":"levelo://app?vid=5d9d33ed-3cf9-4f40-bcf4-4fd075009d99","ios":"levelo://app?vid=5d9d33ed-3cf9-4f40-bcf4-4fd075009d99"},"vehicle_type_id":"4","last_reported":1733768058,"current_range_meters":13600,"station_id":"cjm6bp8fraef2m0cb0m0","pricing_plan_id":"cebpf4jnsgd1na2vs0mg"},{"bike_id":"b8ec9b64-e348-44c1-9548-0544741a8e35","system_id":"levelo_inurba_marseille","lat":43.31759,"lon":5.39008,"is_reserved":false,"is_disabled":true,"rental_uris":{"android":"levelo://app?vid=b8ec9b64-e348-44c1-9548-0544741a8e35","ios":"levelo://app?vid=b8ec9b64-e348-44c1-9548-0544741a8e35"},"vehicle_type_id":"4","last_reported":1733768058,"current_range_meters":0,"station_id":"ce4bhqp2rcd13ifvqhng","pricing_plan_id":"cebpf4jnsgd1na2vs0mg"},{"bike_id":"2765efb2-7c76-484b-a4f5-6c6bd065d11b","system_id":"levelo_inurba_marseille","lat":43.28638,"lon":5.38601,"is_reserved":false,"is_disabled":false,"rental_uris":{"android":"levelo://app?vid=2765efb2-7c76-484b-a4f5-6c6bd065d11b","ios":"levelo://app?vid=2765efb2-7c76-484b-a4f5-6c6bd065d11b"},"vehicle_type_id":"4","last_reported":1733768058,"current_range_meters":19200,"station_id":"ce4bh492rcd13ifvqdug","pricing_plan_id":"cebpf4jnsgd1na2vs0mg"},{"bike_id":"f44c4128-7be2-4a46-a438-dfb677b443d7","system_id":"levelo_inurba_marseille","lat":43.31331,"lon":5.39677,"is_reserved":false,"is_disabled":false,"rental_uris":{"android":"levelo://app?vid=f44c4128-7be2-4a46-a438-dfb677b443d7","ios":"levelo://app?vid=f44c4128-7be2-4a46-a438-dfb677b443d7"},"vehicle_type_id":"4","last_reported":1733768058,"current_range_meters":28400,"station_id":"ce4bgvp2rcd13ifvqcu0","pricing_plan_id":"cebpf4jnsgd1na2vs0mg"},{"bike_id":"2cdc68bc-783f-42f1-8a2a-30a830fd99d3","system_id":"levelo_inurba_marseille","lat":43.30142,"lon":5.37404,"is_reserved":false,"is_disabled":true,"rental_uris":{"android":"levelo://app?vid=2cdc68bc-783f-42f1-8a2a-30a830fd99d3","ios":"levelo://app?vid=2cdc68bc-783f-42f1-8a2a-30a830fd99d3"},"vehicle_type_id":"4","last_reported":1733768058,"current_range_meters":38000,"station_id":"ce4bgs92rcd13ifvqcc0","pricing_plan_id":"cebpf4jnsgd1na2vs0mg"},{"bike_id":"ac3858f4-4179-4fef-a133-d553fcaf3557","system_id":"levelo_inurba_marseille","lat":43.26933,"lon":5.40246,"is_reserved":false,"is_disabled":false,"rental_uris":{"android":"levelo://app?vid=ac3858f4-4179-4fef-a133-d553fcaf3557","ios":"levelo://app?vid=ac3858f4-4179-4fef-a133-d553fcaf3557"},"vehicle_type_id":"4","last_reported":1733768058,"current_range_meters":32000,"station_id":"cjm6bp8fraef2m0cb0m0","pricing_plan_id":"cebpf4jnsgd1na2vs0mg"},{"bike_id":"f04c662a-4856-4b9e-9ba1-300effb74f28","system_id":"levelo_inurba_marseille","lat":43.29976,"lon":5.38488,"is_reserved":false,"is_disabled":true,"rental_uris":{"android":"levelo://app?vid=f04c662a-4856-4b9e-9ba1-300effb74f28","ios":"levelo://app?vid=f04c662a-4856-4b9e-9ba1-300effb74f28"},"vehicle_type_id":"4","last_reported":1733768058,"current_range_meters":36800,"station_id":"ce4bgj92rcd13ifvqbd0","pricing_plan_id":"cebpf4jnsgd1na2vs0mg"},{"bike_id":"ac678e73-d27e-419d-895b-380a318f19a9","system_id":"levelo_inurba_marseille","lat":43.31755,"lon":5.39011,"is_reserved":false,"is_disabled":false,"rental_uris":{"android":"levelo://app?vid=ac678e73-d27e-419d-895b-380a318f19a9","ios":"levelo://app?vid=ac678e73-d27e-419d-895b-380a318f19a9"},"vehicle_type_id":"4","last_reported":1733768058,"current_range_meters":24000,"station_id":"ce4bhqp2rcd13ifvqhng","pricing_plan_id":"cebpf4jnsgd1na2vs0mg"},{"bike_id":"b7704992-265d-44ce-8e30-e3b1a140a380","system_id":"levelo_inurba_marseille","lat":43.29788,"lon":5.38118,"is_reserved":false,"is_disabled":true,"rental_uris":{"android":"levelo://app?vid=b7704992-265d-44ce-8e30-e3b1a140a380","ios":"levelo://app?vid=b7704992-265d-44ce-8e30-e3b1a140a380"},"vehicle_type_id":"4","last_reported":1733768058,"current_range_meters":38400,"station_id":"ce4bgip2rcd13ifvqbb0","pricing_plan_id":"cebpf4jnsgd1na2vs0mg"},{"bike_id":"d5b0a8fb-fdf5-40c8-b954-4958ab94eff3","system_id":"levelo_inurba_marseille","lat":43.31116,"lon":5.37776,"is_reserved":false,"is_disabled":false,"rental_uris":{"android":"levelo://app?vid=d5b0a8fb-fdf5-40c8-b954-4958ab94eff3","ios":"levelo://app?vid=d5b0a8fb-fdf5-40c8-b954-4958ab94eff3"},"vehicle_type_id":"4","last_reported":1733768058,"current_range_meters":10000,"station_id":"ce4bgt92rcd13ifvqcg0","pricing_plan_id":"cebpf4jnsgd1na2vs0mg"},{"bike_id":"d43e5ea8-13b0-4ee3-b5ea-caee40935a00","system_id":"levelo_inurba_marseille","lat":43.27174,"lon":5.40994,"is_reserved":false,"is_disabled":false,"rental_uris":{"android":"levelo://app?vid=d43e5ea8-13b0-4ee3-b5ea-caee40935a00","ios":"levelo://app?vid=d43e5ea8-13b0-4ee3-b5ea-caee40935a00"},"vehicle_type_id":"4","last_reported":1733768058,"current_range_meters":7200,"station_id":"ce4bhl12rcd13ifvqgf0","pricing_plan_id":"cebpf4jnsgd1na2vs0mg"},{"bike_id":"5260ced4-7564-448d-9818-7245cb224691","system_id":"levelo_inurba_marseille","lat":43.27635,"lon":5.36135,"is_reserved":false,"is_disabled":false,"rental_uris":{"android":"levelo://app?vid=5260ced4-7564-448d-9818-7245cb224691","ios":"levelo://app?vid=5260ced4-7564-448d-9818-7245cb224691"},"vehicle_type_id":"4","last_reported":1733768058,"current_range_meters":36000,"station_id":"ce4bgj92rcd13ifvqbe0","pricing_plan_id":"cebpf4jnsgd1na2vs0mg"},{"bike_id":"7469519f-c02d-464a-b5e8-94b4a0332a36","system_id":"levelo_inurba_marseille","lat":43.29589,"lon":5.380908,"is_reserved":false,"is_disabled":true,"rental_uris":{"android":"levelo://app?vid=7469519f-c02d-464a-b5e8-94b4a0332a36","ios":"levelo://app?vid=7469519f-c02d-464a-b5e8-94b4a0332a36"},"vehicle_type_id":"4","last_reported":1733768058,"current_range_meters":0,"station_id":"ce4bgl12rcd13ifvqbo0","pricing_plan_id":"cebpf4jnsgd1na2vs0mg"},{"bike_id":"742814b3-cdce-46bf-86da-34bc2ce2d700","system_id":"levelo_inurba_marseille","lat":43.27808,"lon":5.40696,"is_reserved":false,"is_disabled":false,"rental_uris":{"android":"levelo://app?vid=742814b3-cdce-46bf-86da-34bc2ce2d700","ios":"levelo://app?vid=742814b3-cdce-46bf-86da-34bc2ce2d700"},"vehicle_type_id":"4","last_reported":1733768058,"current_range_meters":20400,"station_id":"ce4bhnh2rcd13ifvqgtg","pricing_plan_id":"cebpf4jnsgd1na2vs0mg"},{"bike_id":"eb4e32cd-a02d-4e92-a013-1fdc0dd71ccb","system_id":"levelo_inurba_marseille","lat":43.324799,"lon":5.365716,"is_reserved":false,"is_disabled":true,"rental_uris":{"android":"levelo://app?vid=eb4e32cd-a02d-4e92-a013-1fdc0dd71ccb","ios":"levelo://app?vid=eb4e32cd-a02d-4e92-a013-1fdc0dd71ccb"},"vehicle_type_id":"4","last_reported":1733768058,"current_range_meters":0,"station_id":"","pricing_plan_id":"cebpf4jnsgd1na2vs0mg"},{"bike_id":"ad24f16e-2206-4a3c-9b57-73b59ffe17ba","system_id":"levelo_inurba_marseille","lat":43.24167,"lon":5.36391,"is_reserved":false,"is_disabled":false,"rental_uris":{"android":"levelo://app?vid=ad24f16e-2206-4a3c-9b57-73b59ffe17ba","ios":"levelo://app?vid=ad24f16e-2206-4a3c-9b57-73b59ffe17ba"},"vehicle_type_id":"4","last_reported":1733768058,"current_range_meters":38400,"station_id":"cpo36qri1sfpv3e86is0","pricing_plan_id":"cebpf4jnsgd1na2vs0mg"},{"bike_id":"0d85aea1-3dc9-4857-8032-fe4189ddab21","system_id":"levelo_inurba_marseille","lat":43.251,"lon":5.40307,"is_reserved":false,"is_disabled":false,"rental_uris":{"android":"levelo://app?vid=0d85aea1-3dc9-4857-8032-fe4189ddab21","ios":"levelo://app?vid=0d85aea1-3dc9-4857-8032-fe4189ddab21"},"vehicle_type_id":"4","last_reported":1733768058,"current_range_meters":38800,"station_id":"ce4bhlh2rcd13ifvqgig","pricing_plan_id":"cebpf4jnsgd1na2vs0mg"},{"bike_id":"35ae6d33-ce47-435d-a71b-7607511d72da","system_id":"levelo_inurba_marseille","lat":43.28415,"lon":5.37514,"is_reserved":false,"is_disabled":false,"rental_uris":{"android":"levelo://app?vid=35ae6d33-ce47-435d-a71b-7607511d72da","ios":"levelo://app?vid=35ae6d33-ce47-435d-a71b-7607511d72da"},"vehicle_type_id":"4","last_reported":1733768058,"current_range_meters":31200,"station_id":"ce4bh412rcd13ifvqds0","pricing_plan_id":"cebpf4jnsgd1na2vs0mg"},{"bike_id":"7a062d0e-56ae-4e2d-8fc7-0b081010e3f2","system_id":"levelo_inurba_marseille","lat":43.29866,"lon":5.38903,"is_reserved":false,"is_disabled":false,"rental_uris":{"android":"levelo://app?vid=7a062d0e-56ae-4e2d-8fc7-0b081010e3f2","ios":"levelo://app?vid=7a062d0e-56ae-4e2d-8fc7-0b081010e3f2"},"vehicle_type_id":"4","last_reported":1733768058,"current_range_meters":22400,"station_id":"ce4bh392rcd13ifvqdl0","pricing_plan_id":"cebpf4jnsgd1na2vs0mg"},{"bike_id":"a7315204-04ec-4ba8-a095-857e3593e956","system_id":"levelo_inurba_marseille","lat":43.26805,"lon":5.402738,"is_reserved":false,"is_disabled":false,"rental_uris":{"android":"levelo://app?vid=a7315204-04ec-4ba8-a095-857e3593e956","ios":"levelo://app?vid=a7315204-04ec-4ba8-a095-857e3593e956"},"vehicle_type_id":"4","last_reported":1733768058,"current_range_meters":34800,"station_id":"ce501612rcd8frsf0b60","pricing_plan_id":"cebpf4jnsgd1na2vs0mg"},{"bike_id":"0fdd6727-2bc3-47df-b102-b89c7db134be","system_id":"levelo_inurba_marseille","lat":43.29707,"lon":5.36621,"is_reserved":false,"is_disabled":false,"rental_uris":{"android":"levelo://app?vid=0fdd6727-2bc3-47df-b102-b89c7db134be","ios":"levelo://app?vid=0fdd6727-2bc3-47df-b102-b89c7db134be"},"vehicle_type_id":"4","last_reported":1733768058,"current_range_meters":38000,"station_id":"ce4bgn12rcd13ifvqbt0","pricing_plan_id":"cebpf4jnsgd1na2vs0mg"},{"bike_id":"26924fb9-4179-4abe-8b03-e0d47c141d92","system_id":"levelo_inurba_marseille","lat":43.27175,"lon":5.40989,"is_reserved":false,"is_disabled":false,"rental_uris":{"android":"levelo://app?vid=26924fb9-4179-4abe-8b03-e0d47c141d92","ios":"levelo://app?vid=26924fb9-4179-4abe-8b03-e0d47c141d92"},"vehicle_type_id":"4","last_reported":1733768058,"current_range_meters":30400,"station_id":"ce4bhl12rcd13ifvqgf0","pricing_plan_id":"cebpf4jnsgd1na2vs0mg"},{"bike_id":"db14e876-0fd6-46a7-8620-bb06967f83cc","system_id":"levelo_inurba_marseille","lat":43.31322,"lon":5.39723,"is_reserved":false,"is_disabled":true,"rental_uris":{"android":"levelo://app?vid=db14e876-0fd6-46a7-8620-bb06967f83cc","ios":"levelo://app?vid=db14e876-0fd6-46a7-8620-bb06967f83cc"},"vehicle_type_id":"4","last_reported":1733768058,"current_range_meters":37600,"station_id":"ce4bgvp2rcd13ifvqcu0","pricing_plan_id":"cebpf4jnsgd1na2vs0mg"},{"bike_id":"0189967e-58f8-420c-9fe1-42c0800eb5ea","system_id":"levelo_inurba_marseille","lat":43.32647,"lon":5.40983,"is_reserved":false,"is_disabled":false,"rental_uris":{"android":"levelo://app?vid=0189967e-58f8-420c-9fe1-42c0800eb5ea","ios":"levelo://app?vid=0189967e-58f8-420c-9fe1-42c0800eb5ea"},"vehicle_type_id":"4","last_reported":1733768058,"current_range_meters":38800,"station_id":"ce4bhpp2rcd13ifvqhgg","pricing_plan_id":"cebpf4jnsgd1na2vs0mg"},{"bike_id":"0931b039-b8ee-4a7c-a3e4-11fddb201f7d","system_id":"levelo_inurba_marseille","lat":43.30946,"lon":5.39037,"is_reserved":false,"is_disabled":false,"rental_uris":{"android":"levelo://app?vid=0931b039-b8ee-4a7c-a3e4-11fddb201f7d","ios":"levelo://app?vid=0931b039-b8ee-4a7c-a3e4-11fddb201f7d"},"vehicle_type_id":"4","last_reported":1733768058,"current_range_meters":39200,"station_id":"ce4bgup2rcd13ifvqco0","pricing_plan_id":"cebpf4jnsgd1na2vs0mg"},{"bike_id":"e0cd8b9e-001b-42cc-9850-bb3239ea0234","system_id":"levelo_inurba_marseille","lat":43.2861,"lon":5.37061,"is_reserved":false,"is_disabled":false,"rental_uris":{"android":"levelo://app?vid=e0cd8b9e-001b-42cc-9850-bb3239ea0234","ios":"levelo://app?vid=e0cd8b9e-001b-42cc-9850-bb3239ea0234"},"vehicle_type_id":"4","last_reported":1733768058,"current_range_meters":22000,"station_id":"ce4bht12rcd13ifvqi60","pricing_plan_id":"cebpf4jnsgd1na2vs0mg"},{"bike_id":"0404262f-da4a-4a2e-9fa8-eedac272ba97","system_id":"levelo_inurba_marseille","lat":43.28856,"lon":5.35837,"is_reserved":false,"is_disabled":false,"rental_uris":{"android":"levelo://app?vid=0404262f-da4a-4a2e-9fa8-eedac272ba97","ios":"levelo://app?vid=0404262f-da4a-4a2e-9fa8-eedac272ba97"},"vehicle_type_id":"4","last_reported":1733768058,"current_range_meters":38000,"station_id":"ce4bhb12rcd13ifvqem0","pricing_plan_id":"cebpf4jnsgd1na2vs0mg"},{"bike_id":"e7393bb6-03e4-4426-92a1-64ff07305777","system_id":"levelo_inurba_marseille","lat":43.2984,"lon":5.36268,"is_reserved":false,"is_disabled":false,"rental_uris":{"android":"levelo://app?vid=e7393bb6-03e4-4426-92a1-64ff07305777","ios":"levelo://app?vid=e7393bb6-03e4-4426-92a1-64ff07305777"},"vehicle_type_id":"4","last_reported":1733768058,"current_range_meters":38000,"station_id":"ce4bgpp2rcd13ifvqc3g","pricing_plan_id":"cebpf4jnsgd1na2vs0mg"},{"bike_id":"5c986032-9da4-406e-a79e-259c18ab5fbe","system_id":"levelo_inurba_marseille","lat":43.30202,"lon":5.39462,"is_reserved":false,"is_disabled":false,"rental_uris":{"android":"levelo://app?vid=5c986032-9da4-406e-a79e-259c18ab5fbe","ios":"levelo://app?vid=5c986032-9da4-406e-a79e-259c18ab5fbe"},"vehicle_type_id":"4","last_reported":1733768058,"current_range_meters":39200,"station_id":"ce4bh0p2rcd13ifvqd70","pricing_plan_id":"cebpf4jnsgd1na2vs0mg"},{"bike_id":"77cb5c0e-cd1d-4a2c-b3ba-2693fa34da39","system_id":"levelo_inurba_marseille","lat":43.28345,"lon":5.38107,"is_reserved":false,"is_disabled":false,"rental_uris":{"android":"levelo://app?vid=77cb5c0e-cd1d-4a2c-b3ba-2693fa34da39","ios":"levelo://app?vid=77cb5c0e-cd1d-4a2c-b3ba-2693fa34da39"},"vehicle_type_id":"4","last_reported":1733768058,"current_range_meters":38800,"station_id":"ce4bh412rcd13ifvqdr0","pricing_plan_id":"cebpf4jnsgd1na2vs0mg"},{"bike_id":"0ccd581d-9c76-4795-b702-2d923b116e9d","system_id":"levelo_inurba_marseille","lat":43.27171,"lon":5.40987,"is_reserved":false,"is_disabled":false,"rental_uris":{"android":"levelo://app?vid=0ccd581d-9c76-4795-b702-2d923b116e9d","ios":"levelo://app?vid=0ccd581d-9c76-4795-b702-2d923b116e9d"},"vehicle_type_id":"4","last_reported":1733768058,"current_range_meters":36400,"station_id":"ce4bhl12rcd13ifvqgf0","pricing_plan_id":"cebpf4jnsgd1na2vs0mg"},{"bike_id":"61f40b40-267d-4f59-9ab8-553b9e619d34","system_id":"levelo_inurba_marseille","lat":43.29621,"lon":5.38141,"is_reserved":false,"is_disabled":false,"rental_uris":{"android":"levelo://app?vid=61f40b40-267d-4f59-9ab8-553b9e619d34","ios":"levelo://app?vid=61f40b40-267d-4f59-9ab8-553b9e619d34"},"vehicle_type_id":"4","last_reported":1733768058,"current_range_meters":9200,"station_id":"ce4bh692rcd13ifvqea0","pricing_plan_id":"cebpf4jnsgd1na2vs0mg"},{"bike_id":"95d8628d-10b1-47e7-9a42-9b126ec315c6","system_id":"levelo_inurba_marseille","lat":43.23204,"lon":5.35542,"is_reserved":false,"is_disabled":false,"rental_uris":{"android":"levelo://app?vid=95d8628d-10b1-47e7-9a42-9b126ec315c6","ios":"levelo://app?vid=95d8628d-10b1-47e7-9a42-9b126ec315c6"},"vehicle_type_id":"4","last_reported":1733768058,"current_range_meters":28000,"station_id":"ce4bhu92rcd13ifvqi70","pricing_plan_id":"cebpf4jnsgd1na2vs0mg"},{"bike_id":"84160b40-ce7b-44a2-a7ca-4591eb995185","system_id":"levelo_inurba_marseille","lat":43.32073,"lon":5.38814,"is_reserved":false,"is_disabled":false,"rental_uris":{"android":"levelo://app?vid=84160b40-ce7b-44a2-a7ca-4591eb995185","ios":"levelo://app?vid=84160b40-ce7b-44a2-a7ca-4591eb995185"},"vehicle_type_id":"4","last_reported":1733768058,"current_range_meters":9200,"station_id":"","pricing_plan_id":"cebpf4jnsgd1na2vs0mg"},{"bike_id":"d6476c12-9601-48bb-81d1-c130012be534","system_id":"levelo_inurba_marseille","lat":43.24663,"lon":5.38164,"is_reserved":false,"is_disabled":false,"rental_uris":{"android":"levelo://app?vid=d6476c12-9601-48bb-81d1-c130012be534","ios":"levelo://app?vid=d6476c12-9601-48bb-81d1-c130012be534"},"vehicle_type_id":"4","last_reported":1733768058,"current_range_meters":22400,"station_id":"ce4bhih2rcd13ifvqfr0","pricing_plan_id":"cebpf4jnsgd1na2vs0mg"},{"bike_id":"0fee292b-f658-424f-b752-9421f5a4935c","system_id":"levelo_inurba_marseille","lat":43.31218,"lon":5.3685,"is_reserved":false,"is_disabled":false,"rental_uris":{"android":"levelo://app?vid=0fee292b-f658-424f-b752-9421f5a4935c","ios":"levelo://app?vid=0fee292b-f658-424f-b752-9421f5a4935c"},"vehicle_type_id":"4","last_reported":1733768058,"current_range_meters":22800,"station_id":"ce4bgl92rcd13ifvqbq0","pricing_plan_id":"cebpf4jnsgd1na2vs0mg"},{"bike_id":"a69fe387-3b68-46fa-b4ca-5132ea17ba7b","system_id":"levelo_inurba_marseille","lat":43.28724,"lon":5.36089,"is_reserved":false,"is_disabled":false,"rental_uris":{"android":"levelo://app?vid=a69fe387-3b68-46fa-b4ca-5132ea17ba7b","ios":"levelo://app?vid=a69fe387-3b68-46fa-b4ca-5132ea17ba7b"},"vehicle_type_id":"4","last_reported":1733768058,"current_range_meters":38800,"station_id":"cki0cbj6b192h4jlfktg","pricing_plan_id":"cebpf4jnsgd1na2vs0mg"},{"bike_id":"2123cd6c-9203-46fa-a8aa-c510db496bf1","system_id":"levelo_inurba_marseille","lat":43.31274,"lon":5.40176,"is_reserved":false,"is_disabled":false,"rental_uris":{"android":"levelo://app?vid=2123cd6c-9203-46fa-a8aa-c510db496bf1","ios":"levelo://app?vid=2123cd6c-9203-46fa-a8aa-c510db496bf1"},"vehicle_type_id":"4","last_reported":1733768058,"current_range_meters":30400,"station_id":"ce4bh092rcd13ifvqd30","pricing_plan_id":"cebpf4jnsgd1na2vs0mg"},{"bike_id":"570bad79-da0a-4f0e-bd71-fcfb4fde31b3","system_id":"levelo_inurba_marseille","lat":43.23967,"lon":5.36633,"is_reserved":false,"is_disabled":false,"rental_uris":{"android":"levelo://app?vid=570bad79-da0a-4f0e-bd71-fcfb4fde31b3","ios":"levelo://app?vid=570bad79-da0a-4f0e-bd71-fcfb4fde31b3"},"vehicle_type_id":"4","last_reported":1733768058,"current_range_meters":36800,"station_id":"ce4bhi12rcd13ifvqfp0","pricing_plan_id":"cebpf4jnsgd1na2vs0mg"},{"bike_id":"0f20b602-7b45-4989-92b6-4d1c64ab5468","system_id":"levelo_inurba_marseille","lat":43.26552,"lon":5.37288,"is_reserved":false,"is_disabled":false,"rental_uris":{"android":"levelo://app?vid=0f20b602-7b45-4989-92b6-4d1c64ab5468","ios":"levelo://app?vid=0f20b602-7b45-4989-92b6-4d1c64ab5468"},"vehicle_type_id":"4","last_reported":1733768058,"current_range_meters":36800,"station_id":"ce4bhg12rcd13ifvqf70","pricing_plan_id":"cebpf4jnsgd1na2vs0mg"},{"bike_id":"a82d634a-a49c-4d39-abc7-6109fc7823f3","system_id":"levelo_inurba_marseille","lat":43.26945,"lon":5.40251,"is_reserved":false,"is_disabled":false,"rental_uris":{"android":"levelo://app?vid=a82d634a-a49c-4d39-abc7-6109fc7823f3","ios":"levelo://app?vid=a82d634a-a49c-4d39-abc7-6109fc7823f3"},"vehicle_type_id":"4","last_reported":1733768058,"current_range_meters":37600,"station_id":"cjm6bp8fraef2m0cb0m0","pricing_plan_id":"cebpf4jnsgd1na2vs0mg"},{"bike_id":"049387ec-9b46-43b9-9ff7-0a9e1204b07e","system_id":"levelo_inurba_marseille","lat":43.2963,"lon":5.40599,"is_reserved":false,"is_disabled":false,"rental_uris":{"android":"levelo://app?vid=049387ec-9b46-43b9-9ff7-0a9e1204b07e","ios":"levelo://app?vid=049387ec-9b46-43b9-9ff7-0a9e1204b07e"},"vehicle_type_id":"4","last_reported":1733768058,"current_range_meters":18000,"station_id":"ce4bh0h2rcd13ifvqd60","pricing_plan_id":"cebpf4jnsgd1na2vs0mg"},{"bike_id":"542b6e00-6e1f-43d7-a5c9-75a058c60f20","system_id":"levelo_inurba_marseille","lat":43.29778,"lon":5.37101,"is_reserved":false,"is_disabled":false,"rental_uris":{"android":"levelo://app?vid=542b6e00-6e1f-43d7-a5c9-75a058c60f20","ios":"levelo://app?vid=542b6e00-6e1f-43d7-a5c9-75a058c60f20"},"vehicle_type_id":"4","last_reported":1733768058,"current_range_meters":36000,"station_id":"ce4bgop2rcd13ifvqc1g","pricing_plan_id":"cebpf4jnsgd1na2vs0mg"},{"bike_id":"418d73d5-d881-4e9d-bda9-9d2e01151eb7","system_id":"levelo_inurba_marseille","lat":43.28851,"lon":5.35851,"is_reserved":false,"is_disabled":false,"rental_uris":{"android":"levelo://app?vid=418d73d5-d881-4e9d-bda9-9d2e01151eb7","ios":"levelo://app?vid=418d73d5-d881-4e9d-bda9-9d2e01151eb7"},"vehicle_type_id":"4","last_reported":1733768058,"current_range_meters":17600,"station_id":"ce4bhb12rcd13ifvqem0","pricing_plan_id":"cebpf4jnsgd1na2vs0mg"},{"bike_id":"7bdd6ea7-bb42-4e6e-800a-52cdbbc2d2d3","system_id":"levelo_inurba_marseille","lat":43.30316,"lon":5.4044,"is_reserved":false,"is_disabled":false,"rental_uris":{"android":"levelo://app?vid=7bdd6ea7-bb42-4e6e-800a-52cdbbc2d2d3","ios":"levelo://app?vid=7bdd6ea7-bb42-4e6e-800a-52cdbbc2d2d3"},"vehicle_type_id":"4","last_reported":1733768058,"current_range_meters":38800,"station_id":"ce4bh012rcd13ifvqd10","pricing_plan_id":"cebpf4jnsgd1na2vs0mg"},{"bike_id":"b8e7f883-5b9b-422d-81e9-d00c2442da3b","system_id":"levelo_inurba_marseille","lat":43.23061,"lon":5.35491,"is_reserved":false,"is_disabled":false,"rental_uris":{"android":"levelo://app?vid=b8e7f883-5b9b-422d-81e9-d00c2442da3b","ios":"levelo://app?vid=b8e7f883-5b9b-422d-81e9-d00c2442da3b"},"vehicle_type_id":"4","last_reported":1733768058,"current_range_meters":38800,"station_id":"cpo3342slgdg3j2ifvpg","pricing_plan_id":"cebpf4jnsgd1na2vs0mg"},{"bike_id":"df530ce9-7550-4bc0-857d-aa2d9daf2958","system_id":"levelo_inurba_marseille","lat":43.33021,"lon":5.3904,"is_reserved":false,"is_disabled":false,"rental_uris":{"android":"levelo://app?vid=df530ce9-7550-4bc0-857d-aa2d9daf2958","ios":"levelo://app?vid=df530ce9-7550-4bc0-857d-aa2d9daf2958"},"vehicle_type_id":"4","last_reported":1733768058,"current_range_meters":38800,"station_id":"ce4bhr92rcd13ifvqhrg","pricing_plan_id":"cebpf4jnsgd1na2vs0mg"},{"bike_id":"78c329a1-6679-4d36-bcae-14e50cad3aba","system_id":"levelo_inurba_marseille","lat":43.27058,"lon":5.4026,"is_reserved":false,"is_disabled":false,"rental_uris":{"android":"levelo://app?vid=78c329a1-6679-4d36-bcae-14e50cad3aba","ios":"levelo://app?vid=78c329a1-6679-4d36-bcae-14e50cad3aba"},"vehicle_type_id":"4","last_reported":1733768058,"current_range_meters":17200,"station_id":"ce4bhk92rcd13ifvqgc0","pricing_plan_id":"cebpf4jnsgd1na2vs0mg"},{"bike_id":"906df3e2-6732-4a7d-a642-3070115e11a9","system_id":"levelo_inurba_marseille","lat":43.29904,"lon":5.43675,"is_reserved":false,"is_disabled":false,"rental_uris":{"android":"levelo://app?vid=906df3e2-6732-4a7d-a642-3070115e11a9","ios":"levelo://app?vid=906df3e2-6732-4a7d-a642-3070115e11a9"},"vehicle_type_id":"4","last_reported":1733768058,"current_range_meters":20000,"station_id":"ce4bhpp2rcd13ifvqhfg","pricing_plan_id":"cebpf4jnsgd1na2vs0mg"},{"bike_id":"8c773509-0447-476a-8a92-d1489fe1691e","system_id":"levelo_inurba_marseille","lat":43.29626,"lon":5.40588,"is_reserved":false,"is_disabled":false,"rental_uris":{"android":"levelo://app?vid=8c773509-0447-476a-8a92-d1489fe1691e","ios":"levelo://app?vid=8c773509-0447-476a-8a92-d1489fe1691e"},"vehicle_type_id":"4","last_reported":1733768058,"current_range_meters":32800,"station_id":"ce4bh0h2rcd13ifvqd60","pricing_plan_id":"cebpf4jnsgd1na2vs0mg"},{"bike_id":"48bb7f30-23bf-4cd9-a2de-2229a8eb1cc0","system_id":"levelo_inurba_marseille","lat":43.2861,"lon":5.3706,"is_reserved":false,"is_disabled":false,"rental_uris":{"android":"levelo://app?vid=48bb7f30-23bf-4cd9-a2de-2229a8eb1cc0","ios":"levelo://app?vid=48bb7f30-23bf-4cd9-a2de-2229a8eb1cc0"},"vehicle_type_id":"4","last_reported":1733768058,"current_range_meters":26800,"station_id":"ce4bht12rcd13ifvqi60","pricing_plan_id":"cebpf4jnsgd1na2vs0mg"},{"bike_id":"a0b44e86-9121-4df3-b62a-0fc9a0d1110c","system_id":"levelo_inurba_marseille","lat":43.23064,"lon":5.35496,"is_reserved":false,"is_disabled":false,"rental_uris":{"android":"levelo://app?vid=a0b44e86-9121-4df3-b62a-0fc9a0d1110c","ios":"levelo://app?vid=a0b44e86-9121-4df3-b62a-0fc9a0d1110c"},"vehicle_type_id":"4","last_reported":1733768058,"current_range_meters":38800,"station_id":"cpo3342slgdg3j2ifvpg","pricing_plan_id":"cebpf4jnsgd1na2vs0mg"},{"bike_id":"a0c230af-183e-4db9-b10f-8c1a6d844ebf","system_id":"levelo_inurba_marseille","lat":43.3013,"lon":5.38787,"is_reserved":false,"is_disabled":true,"rental_uris":{"android":"levelo://app?vid=a0c230af-183e-4db9-b10f-8c1a6d844ebf","ios":"levelo://app?vid=a0c230af-183e-4db9-b10f-8c1a6d844ebf"},"vehicle_type_id":"4","last_reported":1733768058,"current_range_meters":0,"station_id":"ce4bghh2rcd13ifvqb60","pricing_plan_id":"cebpf4jnsgd1na2vs0mg"},{"bike_id":"f87cf9e6-dfc9-4626-bb94-2221a897c82e","system_id":"levelo_inurba_marseille","lat":43.25502,"lon":5.3765,"is_reserved":false,"is_disabled":false,"rental_uris":{"android":"levelo://app?vid=f87cf9e6-dfc9-4626-bb94-2221a897c82e","ios":"levelo://app?vid=f87cf9e6-dfc9-4626-bb94-2221a897c82e"},"vehicle_type_id":"4","last_reported":1733768058,"current_range_meters":28000,"station_id":"ce4bhh12rcd13ifvqff0","pricing_plan_id":"cebpf4jnsgd1na2vs0mg"},{"bike_id":"4ae5fe7f-a755-40fe-9b35-59fbb2437146","system_id":"levelo_inurba_marseille","lat":43.24166,"lon":5.36388,"is_reserved":false,"is_disabled":false,"rental_uris":{"android":"levelo://app?vid=4ae5fe7f-a755-40fe-9b35-59fbb2437146","ios":"levelo://app?vid=4ae5fe7f-a755-40fe-9b35-59fbb2437146"},"vehicle_type_id":"4","last_reported":1733768058,"current_range_meters":22000,"station_id":"cpo36qri1sfpv3e86is0","pricing_plan_id":"cebpf4jnsgd1na2vs0mg"},{"bike_id":"420a01ca-f20c-4d9b-a3a0-da0e358edd17","system_id":"levelo_inurba_marseille","lat":43.28152,"lon":5.42644,"is_reserved":false,"is_disabled":false,"rental_uris":{"android":"levelo://app?vid=420a01ca-f20c-4d9b-a3a0-da0e358edd17","ios":"levelo://app?vid=420a01ca-f20c-4d9b-a3a0-da0e358edd17"},"vehicle_type_id":"4","last_reported":1733768058,"current_range_meters":4000,"station_id":"ce4bhnh2rcd13ifvqgug","pricing_plan_id":"cebpf4jnsgd1na2vs0mg"},{"bike_id":"28a24d05-8010-4639-9ae5-2790f225bf4d","system_id":"levelo_inurba_marseille","lat":43.28564,"lon":5.39486,"is_reserved":false,"is_disabled":false,"rental_uris":{"android":"levelo://app?vid=28a24d05-8010-4639-9ae5-2790f225bf4d","ios":"levelo://app?vid=28a24d05-8010-4639-9ae5-2790f225bf4d"},"vehicle_type_id":"4","last_reported":1733768058,"current_range_meters":38800,"station_id":"ce4bh292rcd13ifvqdg0","pricing_plan_id":"cebpf4jnsgd1na2vs0mg"},{"bike_id":"4175272a-002b-45de-af9a-905422d35a8c","system_id":"levelo_inurba_marseille","lat":43.28156,"lon":5.42644,"is_reserved":false,"is_disabled":false,"rental_uris":{"android":"levelo://app?vid=4175272a-002b-45de-af9a-905422d35a8c","ios":"levelo://app?vid=4175272a-002b-45de-af9a-905422d35a8c"},"vehicle_type_id":"4","last_reported":1733768058,"current_range_meters":20400,"station_id":"ce4bhnh2rcd13ifvqgug","pricing_plan_id":"cebpf4jnsgd1na2vs0mg"},{"bike_id":"8fe11311-9ea0-413c-a2d5-e33d8df0bfb7","system_id":"levelo_inurba_marseille","lat":43.27177,"lon":5.40997,"is_reserved":false,"is_disabled":true,"rental_uris":{"android":"levelo://app?vid=8fe11311-9ea0-413c-a2d5-e33d8df0bfb7","ios":"levelo://app?vid=8fe11311-9ea0-413c-a2d5-e33d8df0bfb7"},"vehicle_type_id":"4","last_reported":1733768058,"current_range_meters":1200,"station_id":"ce4bhl12rcd13ifvqgf0","pricing_plan_id":"cebpf4jnsgd1na2vs0mg"},{"bike_id":"41b109e1-7867-4eed-b84d-27444e7d34b9","system_id":"levelo_inurba_marseille","lat":43.29371,"lon":5.37861,"is_reserved":false,"is_disabled":true,"rental_uris":{"android":"levelo://app?vid=41b109e1-7867-4eed-b84d-27444e7d34b9","ios":"levelo://app?vid=41b109e1-7867-4eed-b84d-27444e7d34b9"},"vehicle_type_id":"4","last_reported":1733768058,"current_range_meters":26000,"station_id":"ce4bgjh2rcd13ifvqbf0","pricing_plan_id":"cebpf4jnsgd1na2vs0mg"},{"bike_id":"76e85b42-6ef4-4ebe-a2d2-66a968f1b669","system_id":"levelo_inurba_marseille","lat":43.28852,"lon":5.35853,"is_reserved":false,"is_disabled":false,"rental_uris":{"android":"levelo://app?vid=76e85b42-6ef4-4ebe-a2d2-66a968f1b669","ios":"levelo://app?vid=76e85b42-6ef4-4ebe-a2d2-66a968f1b669"},"vehicle_type_id":"4","last_reported":1733768058,"current_range_meters":38400,"station_id":"ce4bhb12rcd13ifvqem0","pricing_plan_id":"cebpf4jnsgd1na2vs0mg"},{"bike_id":"5bd6bd78-4585-4412-88b0-3de4a55947a6","system_id":"levelo_inurba_marseille","lat":43.3228,"lon":5.38252,"is_reserved":false,"is_disabled":false,"rental_uris":{"android":"levelo://app?vid=5bd6bd78-4585-4412-88b0-3de4a55947a6","ios":"levelo://app?vid=5bd6bd78-4585-4412-88b0-3de4a55947a6"},"vehicle_type_id":"4","last_reported":1733768058,"current_range_meters":38800,"station_id":"ce4bhr12rcd13ifvqhqg","pricing_plan_id":"cebpf4jnsgd1na2vs0mg"},{"bike_id":"ba5e4c54-9e0f-419d-acd3-894b4507a88b","system_id":"levelo_inurba_marseille","lat":43.23056,"lon":5.35489,"is_reserved":false,"is_disabled":false,"rental_uris":{"android":"levelo://app?vid=ba5e4c54-9e0f-419d-acd3-894b4507a88b","ios":"levelo://app?vid=ba5e4c54-9e0f-419d-acd3-894b4507a88b"},"vehicle_type_id":"4","last_reported":1733768058,"current_range_meters":29600,"station_id":"cpo3342slgdg3j2ifvpg","pricing_plan_id":"cebpf4jnsgd1na2vs0mg"},{"bike_id":"69054ccc-7ceb-483d-9c75-3a542a4fbde6","system_id":"levelo_inurba_marseille","lat":43.25083,"lon":5.39514,"is_reserved":false,"is_disabled":true,"rental_uris":{"android":"levelo://app?vid=69054ccc-7ceb-483d-9c75-3a542a4fbde6","ios":"levelo://app?vid=69054ccc-7ceb-483d-9c75-3a542a4fbde6"},"vehicle_type_id":"4","last_reported":1733768058,"current_range_meters":800,"station_id":"ce4bhm12rcd13ifvqgkg","pricing_plan_id":"cebpf4jnsgd1na2vs0mg"},{"bike_id":"eaa53cca-26e1-4a88-93cc-cc0e9d64fc97","system_id":"levelo_inurba_marseille","lat":43.33732,"lon":5.39177,"is_reserved":false,"is_disabled":false,"rental_uris":{"android":"levelo://app?vid=eaa53cca-26e1-4a88-93cc-cc0e9d64fc97","ios":"levelo://app?vid=eaa53cca-26e1-4a88-93cc-cc0e9d64fc97"},"vehicle_type_id":"4","last_reported":1733768058,"current_range_meters":33200,"station_id":"ce4bhr92rcd13ifvqhsg","pricing_plan_id":"cebpf4jnsgd1na2vs0mg"},{"bike_id":"3c22221f-1bf3-4cd3-8bd0-9295be576f81","system_id":"levelo_inurba_marseille","lat":43.25103,"lon":5.40324,"is_reserved":false,"is_disabled":false,"rental_uris":{"android":"levelo://app?vid=3c22221f-1bf3-4cd3-8bd0-9295be576f81","ios":"levelo://app?vid=3c22221f-1bf3-4cd3-8bd0-9295be576f81"},"vehicle_type_id":"4","last_reported":1733768058,"current_range_meters":20000,"station_id":"ce4bhlh2rcd13ifvqgig","pricing_plan_id":"cebpf4jnsgd1na2vs0mg"},{"bike_id":"155e4552-adf3-45a5-aa6c-6e25fcaf05e5","system_id":"levelo_inurba_marseille","lat":43.27174,"lon":5.40989,"is_reserved":false,"is_disabled":false,"rental_uris":{"android":"levelo://app?vid=155e4552-adf3-45a5-aa6c-6e25fcaf05e5","ios":"levelo://app?vid=155e4552-adf3-45a5-aa6c-6e25fcaf05e5"},"vehicle_type_id":"4","last_reported":1733768058,"current_range_meters":38800,"station_id":"ce4bhl12rcd13ifvqgf0","pricing_plan_id":"cebpf4jnsgd1na2vs0mg"},{"bike_id":"3933b701-ca82-4b18-a882-72a61c67a1e4","system_id":"levelo_inurba_marseille","lat":43.24389,"lon":5.37063,"is_reserved":false,"is_disabled":false,"rental_uris":{"android":"levelo://app?vid=3933b701-ca82-4b18-a882-72a61c67a1e4","ios":"levelo://app?vid=3933b701-ca82-4b18-a882-72a61c67a1e4"},"vehicle_type_id":"4","last_reported":1733768058,"current_range_meters":38400,"station_id":"ce4bhhh2rcd13ifvqfk0","pricing_plan_id":"cebpf4jnsgd1na2vs0mg"},{"bike_id":"35f3c44e-0e88-42b6-9d0a-a15513a6f190","system_id":"levelo_inurba_marseille","lat":43.31109,"lon":5.36726,"is_reserved":false,"is_disabled":false,"rental_uris":{"android":"levelo://app?vid=35f3c44e-0e88-42b6-9d0a-a15513a6f190","ios":"levelo://app?vid=35f3c44e-0e88-42b6-9d0a-a15513a6f190"},"vehicle_type_id":"4","last_reported":1733768058,"current_range_meters":24400,"station_id":"","pricing_plan_id":"cebpf4jnsgd1na2vs0mg"},{"bike_id":"cb6ad8d9-09ff-4ce9-8e19-ec442b23eaa2","system_id":"levelo_inurba_marseille","lat":43.2943,"lon":5.39758,"is_reserved":false,"is_disabled":false,"rental_uris":{"android":"levelo://app?vid=cb6ad8d9-09ff-4ce9-8e19-ec442b23eaa2","ios":"levelo://app?vid=cb6ad8d9-09ff-4ce9-8e19-ec442b23eaa2"},"vehicle_type_id":"4","last_reported":1733768058,"current_range_meters":25600,"station_id":"ce4bh3h2rcd13ifvqdo0","pricing_plan_id":"cebpf4jnsgd1na2vs0mg"},{"bike_id":"bd45d4b8-a794-47d3-b71a-c238d420c3d9","system_id":"levelo_inurba_marseille","lat":43.28995,"lon":5.35608,"is_reserved":false,"is_disabled":true,"rental_uris":{"android":"levelo://app?vid=bd45d4b8-a794-47d3-b71a-c238d420c3d9","ios":"levelo://app?vid=bd45d4b8-a794-47d3-b71a-c238d420c3d9"},"vehicle_type_id":"4","last_reported":1733768058,"current_range_meters":30400,"station_id":"ce4bhb92rcd13ifvqen0","pricing_plan_id":"cebpf4jnsgd1na2vs0mg"},{"bike_id":"f44039b6-87e5-4610-bcc6-5293c96f7eb3","system_id":"levelo_inurba_marseille","lat":43.28265,"lon":5.35071,"is_reserved":false,"is_disabled":false,"rental_uris":{"android":"levelo://app?vid=f44039b6-87e5-4610-bcc6-5293c96f7eb3","ios":"levelo://app?vid=f44039b6-87e5-4610-bcc6-5293c96f7eb3"},"vehicle_type_id":"4","last_reported":1733768058,"current_range_meters":2800,"station_id":"ce4bhbp2rcd13ifvqerg","pricing_plan_id":"cebpf4jnsgd1na2vs0mg"},{"bike_id":"416de291-868b-4423-b856-d86d16461f0f","system_id":"levelo_inurba_marseille","lat":43.28108,"lon":5.37843,"is_reserved":false,"is_disabled":false,"rental_uris":{"android":"levelo://app?vid=416de291-868b-4423-b856-d86d16461f0f","ios":"levelo://app?vid=416de291-868b-4423-b856-d86d16461f0f"},"vehicle_type_id":"4","last_reported":1733768058,"current_range_meters":13600,"station_id":"ce4bha12rcd13ifvqee0","pricing_plan_id":"cebpf4jnsgd1na2vs0mg"},{"bike_id":"b69a25c4-cb4a-4398-bd49-a12912254e2e","system_id":"levelo_inurba_marseille","lat":43.29894,"lon":5.43659,"is_reserved":false,"is_disabled":false,"rental_uris":{"android":"levelo://app?vid=b69a25c4-cb4a-4398-bd49-a12912254e2e","ios":"levelo://app?vid=b69a25c4-cb4a-4398-bd49-a12912254e2e"},"vehicle_type_id":"4","last_reported":1733768058,"current_range_meters":36400,"station_id":"ce4bhpp2rcd13ifvqhfg","pricing_plan_id":"cebpf4jnsgd1na2vs0mg"},{"bike_id":"b275cee9-afe6-42f4-a952-044dbc6fade8","system_id":"levelo_inurba_marseille","lat":43.30323,"lon":5.40437,"is_reserved":false,"is_disabled":false,"rental_uris":{"android":"levelo://app?vid=b275cee9-afe6-42f4-a952-044dbc6fade8","ios":"levelo://app?vid=b275cee9-afe6-42f4-a952-044dbc6fade8"},"vehicle_type_id":"4","last_reported":1733768058,"current_range_meters":38800,"station_id":"ce4bh012rcd13ifvqd10","pricing_plan_id":"cebpf4jnsgd1na2vs0mg"},{"bike_id":"e7f8227e-7a1f-4687-b266-114f083a71f7","system_id":"levelo_inurba_marseille","lat":43.25001,"lon":5.38924,"is_reserved":false,"is_disabled":false,"rental_uris":{"android":"levelo://app?vid=e7f8227e-7a1f-4687-b266-114f083a71f7","ios":"levelo://app?vid=e7f8227e-7a1f-4687-b266-114f083a71f7"},"vehicle_type_id":"4","last_reported":1733768058,"current_range_meters":14400,"station_id":"ce4bhgp2rcd13ifvqfd0","pricing_plan_id":"cebpf4jnsgd1na2vs0mg"},{"bike_id":"2800a21b-428c-484d-944c-7f3c13c8f656","system_id":"levelo_inurba_marseille","lat":43.32338,"lon":5.40625,"is_reserved":false,"is_disabled":true,"rental_uris":{"android":"levelo://app?vid=2800a21b-428c-484d-944c-7f3c13c8f656","ios":"levelo://app?vid=2800a21b-428c-484d-944c-7f3c13c8f656"},"vehicle_type_id":"4","last_reported":1733768058,"current_range_meters":20800,"station_id":"ce4bhq92rcd13ifvqhjg","pricing_plan_id":"cebpf4jnsgd1na2vs0mg"},{"bike_id":"6149d10a-ee53-4413-9592-38357ced78cb","system_id":"levelo_inurba_marseille","lat":43.26189,"lon":5.3745,"is_reserved":false,"is_disabled":false,"rental_uris":{"android":"levelo://app?vid=6149d10a-ee53-4413-9592-38357ced78cb","ios":"levelo://app?vid=6149d10a-ee53-4413-9592-38357ced78cb"},"vehicle_type_id":"4","last_reported":1733768058,"current_range_meters":38400,"station_id":"ce4bhgp2rcd13ifvqfc0","pricing_plan_id":"cebpf4jnsgd1na2vs0mg"},{"bike_id":"f03a0fd2-8b78-4caf-823d-2d72f29eb1fc","system_id":"levelo_inurba_marseille","lat":43.27176,"lon":5.40995,"is_reserved":false,"is_disabled":false,"rental_uris":{"android":"levelo://app?vid=f03a0fd2-8b78-4caf-823d-2d72f29eb1fc","ios":"levelo://app?vid=f03a0fd2-8b78-4caf-823d-2d72f29eb1fc"},"vehicle_type_id":"4","last_reported":1733768058,"current_range_meters":38800,"station_id":"ce4bhl12rcd13ifvqgf0","pricing_plan_id":"cebpf4jnsgd1na2vs0mg"},{"bike_id":"20e9db8d-d68b-4418-94af-d9d63f8c2b96","system_id":"levelo_inurba_marseille","lat":43.337444,"lon":5.374475,"is_reserved":false,"is_disabled":true,"rental_uris":{"android":"levelo://app?vid=20e9db8d-d68b-4418-94af-d9d63f8c2b96","ios":"levelo://app?vid=20e9db8d-d68b-4418-94af-d9d63f8c2b96"},"vehicle_type_id":"4","last_reported":1733768058,"current_range_meters":0,"station_id":"","pricing_plan_id":"cebpf4jnsgd1na2vs0mg"},{"bike_id":"11ae10a6-aeaa-4bc8-a94c-90354a1b28ea","system_id":"levelo_inurba_marseille","lat":43.26543,"lon":5.37271,"is_reserved":false,"is_disabled":false,"rental_uris":{"android":"levelo://app?vid=11ae10a6-aeaa-4bc8-a94c-90354a1b28ea","ios":"levelo://app?vid=11ae10a6-aeaa-4bc8-a94c-90354a1b28ea"},"vehicle_type_id":"4","last_reported":1733768058,"current_range_meters":8000,"station_id":"ce4bhg12rcd13ifvqf70","pricing_plan_id":"cebpf4jnsgd1na2vs0mg"},{"bike_id":"02f974cc-2f22-4996-bacb-4f2c11e19505","system_id":"levelo_inurba_marseille","lat":43.29034,"lon":5.39965,"is_reserved":false,"is_disabled":false,"rental_uris":{"android":"levelo://app?vid=02f974cc-2f22-4996-bacb-4f2c11e19505","ios":"levelo://app?vid=02f974cc-2f22-4996-bacb-4f2c11e19505"},"vehicle_type_id":"4","last_reported":1733768058,"current_range_meters":30000,"station_id":"ce4bh392rcd13ifvqdm0","pricing_plan_id":"cebpf4jnsgd1na2vs0mg"},{"bike_id":"034c0a8b-c305-4a7c-88a5-84c6583cc140","system_id":"levelo_inurba_marseille","lat":43.25106,"lon":5.40324,"is_reserved":false,"is_disabled":false,"rental_uris":{"android":"levelo://app?vid=034c0a8b-c305-4a7c-88a5-84c6583cc140","ios":"levelo://app?vid=034c0a8b-c305-4a7c-88a5-84c6583cc140"},"vehicle_type_id":"4","last_reported":1733768058,"current_range_meters":31200,"station_id":"ce4bhlh2rcd13ifvqgig","pricing_plan_id":"cebpf4jnsgd1na2vs0mg"},{"bike_id":"8d298818-a427-455d-87b8-203e283c5409","system_id":"levelo_inurba_marseille","lat":43.25079,"lon":5.39509,"is_reserved":false,"is_disabled":false,"rental_uris":{"android":"levelo://app?vid=8d298818-a427-455d-87b8-203e283c5409","ios":"levelo://app?vid=8d298818-a427-455d-87b8-203e283c5409"},"vehicle_type_id":"4","last_reported":1733768058,"current_range_meters":38800,"station_id":"ce4bhm12rcd13ifvqgkg","pricing_plan_id":"cebpf4jnsgd1na2vs0mg"},{"bike_id":"244a44e8-98ca-4136-934d-d2d818bb4434","system_id":"levelo_inurba_marseille","lat":43.3087,"lon":5.37178,"is_reserved":false,"is_disabled":false,"rental_uris":{"android":"levelo://app?vid=244a44e8-98ca-4136-934d-d2d818bb4434","ios":"levelo://app?vid=244a44e8-98ca-4136-934d-d2d818bb4434"},"vehicle_type_id":"4","last_reported":1733768058,"current_range_meters":36800,"station_id":"ce4bguh2rcd13ifvqckg","pricing_plan_id":"cebpf4jnsgd1na2vs0mg"},{"bike_id":"f6f6210d-5e07-46dd-93e4-3e102dd7cb0e","system_id":"levelo_inurba_marseille","lat":43.29395,"lon":5.38885,"is_reserved":false,"is_disabled":true,"rental_uris":{"android":"levelo://app?vid=f6f6210d-5e07-46dd-93e4-3e102dd7cb0e","ios":"levelo://app?vid=f6f6210d-5e07-46dd-93e4-3e102dd7cb0e"},"vehicle_type_id":"4","last_reported":1733768058,"current_range_meters":0,"station_id":"","pricing_plan_id":"cebpf4jnsgd1na2vs0mg"},{"bike_id":"a1ad616f-616a-4cda-8501-52793b245df3","system_id":"levelo_inurba_marseille","lat":43.312041,"lon":5.379354,"is_reserved":false,"is_disabled":false,"rental_uris":{"android":"levelo://app?vid=a1ad616f-616a-4cda-8501-52793b245df3","ios":"levelo://app?vid=a1ad616f-616a-4cda-8501-52793b245df3"},"vehicle_type_id":"4","last_reported":1733768058,"current_range_meters":37600,"station_id":"ce4bgup2rcd13ifvqco0","pricing_plan_id":"cebpf4jnsgd1na2vs0mg"},{"bike_id":"f3b36430-cd45-4ab5-bba8-e402ae8b6d44","system_id":"levelo_inurba_marseille","lat":43.32536,"lon":5.41444,"is_reserved":false,"is_disabled":false,"rental_uris":{"android":"levelo://app?vid=f3b36430-cd45-4ab5-bba8-e402ae8b6d44","ios":"levelo://app?vid=f3b36430-cd45-4ab5-bba8-e402ae8b6d44"},"vehicle_type_id":"4","last_reported":1733768058,"current_range_meters":38800,"station_id":"ce4bhq12rcd13ifvqhhg","pricing_plan_id":"cebpf4jnsgd1na2vs0mg"},