{"last_updated":1721675208,"ttl":30,"version":"2.2","data":{"bikes":[{"bike_id":"a2610bec-28cf-4e46-bfa7-b619ea248969","system_id":"levelo_inurba_marseille","lat":43.31257,"lon":5.36767,"is_reserved":false,"is_disabled":false,"rental_uris":{"android":"levelo://app?vid=a2610bec-28cf-4e46-bfa7-b619ea248969","ios":"levelo://app?vid=a2610bec-28cf-4e46-bfa7-b619ea248969"},"vehicle_type_id":"4","last_reported":1721675208,"current_range_meters":11600,"station_id":"","pricing_plan_id":"cebpf4jnsgd1na2vs0mg"},{"bike_id":"a55d2bc4-6c82-47ad-b826-93416204ddee","system_id":"levelo_inurba_marseille","lat":43.309039,"lon":5.371797,"is_reserved":false,"is_disabled":false,"rental_uris":{"android":"levelo://app?vid=a55d2bc4-6c82-47ad-b826-93416204ddee","ios":"levelo://app?vid=a55d2bc4-6c82-47ad-b826-93416204ddee"},"vehicle_type_id":"4","last_reported":1721675208,"current_range_meters":28000,"station_id":"ce4bguh2rcd13ifvqckg","pricing_plan_id":"cebpf4jnsgd1na2vs0mg"},{"bike_id":"e03c36a1-077b-474f-be2e-4652db99f312","system_id":"levelo_inurba_marseille","lat":43.309034,"lon":5.371783,"is_reserved":false,"is_disabled":false,"rental_uris":{"android":"levelo://app?vid=e03c36a1-077b-474f-be2e-4652db99f312","ios":"levelo://app?vid=e03c36a1-077b-474f-be2e-4652db99f312"},"vehicle_type_id":"4","last_reported":1721675208,"current_range_meters":11600,"station_id":"ce4bguh2rcd13ifvqckg","pricing_plan_id":"cebpf4jnsgd1na2vs0mg"},{"bike_id":"aa578223-1125-4641-9004-1787a3932e85","system_id":"levelo_inurba_marseille","lat":43.309034,"lon":5.371783,"is_reserved":false,"is_disabled":false,"rental_uris":{"android":"levelo://app?vid=aa578223-1125-4641-9004-1787a3932e85","ios":"levelo://app?vid=aa578223-1125-4641-9004-1787a3932e85"},"vehicle_type_id":"4","last_reported":1721675208,"current_range_meters":31200,"station_id":"ce4bguh2rcd13ifvqckg","pricing_plan_id":"cebpf4jnsgd1na2vs0mg"},{"bike_id":"7499afab-cf52-4925-bb5e-87c1a9cedd0d","system_id":"levelo_inurba_marseille","lat":43.305368,"lon":5.367343,"is_reserved":false,"is_disabled":false,"rental_uris":{"android":"levelo://app?vid=7499afab-cf52-4925-bb5e-87c1a9cedd0d","ios":"levelo://app?vid=7499afab-cf52-4925-bb5e-87c1a9cedd0d"},"vehicle_type_id":"4","last_reported":1721675208,"current_range_meters":30400,"station_id":"ce4bgrp2rcd13ifvqc9g","pricing_plan_id":"cebpf4jnsgd1na2vs0mg"},{"bike_id":"08b553d0-2747-40d8-94e5-b32711654e44","system_id":"levelo_inurba_marseille","lat":43.315247,"lon":5.374763,"is_reserved":false,"is_disabled":false,"rental_uris":{"android":"levelo://app?vid=08b553d0-2747-40d8-94e5-b32711654e44","ios":"levelo://app?vid=08b553d0-2747-40d8-94e5-b32711654e44"},"vehicle_type_id":"4","last_reported":1721675208,"current_range_meters":18000,"station_id":"","pricing_plan_id":"cebpf4jnsgd1na2vs0mg"},{"bike_id":"3719e2a1-d08c-4f72-b9e2-1715bfd585d2","system_id":"levelo_inurba_marseille","lat":43.305596,"lon":5.365807,"is_reserved":false,"is_disabled":false,"rental_uris":{"android":"levelo://app?vid=3719e2a1-d08c-4f72-b9e2-1715bfd585d2","ios":"levelo://app?vid=3719e2a1-d08c-4f72-b9e2-1715bfd585d2"},"vehicle_type_id":"4","last_reported":1721675208,"current_range_meters":2000,"station_id":"","pricing_plan_id":"cebpf4jnsgd1na2vs0mg"},{"bike_id":"5b0b014c-6058-4318-acf5-15a3ea370a7c","system_id":"levelo_inurba_marseille","lat":43.305714,"lon":5.365633,"is_reserved":false,"is_disabled":false,"rental_uris":{"android":"levelo://app?vid=5b0b014c-6058-4318-acf5-15a3ea370a7c","ios":"levelo://app?vid=5b0b014c-6058-4318-acf5-15a3ea370a7c"},"vehicle_type_id":"4","last_reported":1721675208,"current_range_meters":28000,"station_id":"ce4bgs12rcd13ifvqcag","pricing_plan_id":"cebpf4jnsgd1na2vs0mg"},{"bike_id":"0475fc04-30a6-4927-99f5-1b025aeece76","system_id":"levelo_inurba_marseille","lat":43.315643,"lon":5.376469,"is_reserved":false,"is_disabled":false,"rental_uris":{"android":"levelo://app?vid=0475fc04-30a6-4927-99f5-1b025aeece76","ios":"levelo://app?vid=0475fc04-30a6-4927-99f5-1b025aeece76"},"vehicle_type_id":"4","last_reported":1721675208,"current_range_meters":3200,"station_id":"","pricing_plan_id":"cebpf4jnsgd1na2vs0mg"},{"bike_id":"f412971c-23fe-4a87-a962-03023ce9277e","system_id":"levelo_inurba_marseille","lat":43.30777,"lon":5.37474,"is_reserved":false,"is_disabled":false,"rental_uris":{"android":"levelo://app?vid=f412971c-23fe-4a87-a962-03023ce9277e","ios":"levelo://app?vid=f412971c-23fe-4a87-a962-03023ce9277e"},"vehicle_type_id":"4","last_reported":1721675208,"current_range_meters":31200,"station_id":"","pricing_plan_id":"cebpf4jnsgd1na2vs0mg"},{"bike_id":"ee1443de-7e2f-409e-8f1d-85b22c88c3f0","system_id":"levelo_inurba_marseille","lat":43.305989,"lon":5.37225,"is_reserved":false,"is_disabled":false,"rental_uris":{"android":"levelo://app?vid=ee1443de-7e2f-409e-8f1d-85b22c88c3f0","ios":"levelo://app?vid=ee1443de-7e2f-409e-8f1d-85b22c88c3f0"},"vehicle_type_id":"4","last_reported":1721675208,"current_range_meters":6000,"station_id":"ce4bgqh2rcd13ifvqc4g","pricing_plan_id":"cebpf4jnsgd1na2vs0mg"},{"bike_id":"4cacb7c7-0f98-4dcc-9a96-0808a86613e7","system_id":"levelo_inurba_marseille","lat":43.305989,"lon":5.37225,"is_reserved":false,"is_disabled":false,"rental_uris":{"android":"levelo://app?vid=4cacb7c7-0f98-4dcc-9a96-0808a86613e7","ios":"levelo://app?vid=4cacb7c7-0f98-4dcc-9a96-0808a86613e7"},"vehicle_type_id":"4","last_reported":1721675208,"current_range_meters":5600,"station_id":"ce4bgqh2rcd13ifvqc4g","pricing_plan_id":"cebpf4jnsgd1na2vs0mg"},{"bike_id":"55aa4bff-8b29-47a2-adb4-74a617c04b17","system_id":"levelo_inurba_marseille","lat":43.30606,"lon":5.37229,"is_reserved":false,"is_disabled":false,"rental_uris":{"android":"levelo://app?vid=55aa4bff-8b29-47a2-adb4-74a617c04b17","ios":"levelo://app?vid=55aa4bff-8b29-47a2-adb4-74a617c04b17"},"vehicle_type_id":"4","last_reported":1721675208,"current_range_meters":9200,"station_id":"ce4bgqh2rcd13ifvqc4g","pricing_plan_id":"cebpf4jnsgd1na2vs0mg"},{"bike_id":"cde6bd36-ed8c-4c89-9302-c6609638319f","system_id":"levelo_inurba_marseille","lat":43.30593,"lon":5.37222,"is_reserved":false,"is_disabled":false,"rental_uris":{"android":"levelo://app?vid=cde6bd36-ed8c-4c89-9302-c6609638319f","ios":"levelo://app?vid=cde6bd36-ed8c-4c89-9302-c6609638319f"},"vehicle_type_id":"4","last_reported":1721675208,"current_range_meters":8400,"station_id":"ce4bgqh2rcd13ifvqc4g","pricing_plan_id":"cebpf4jnsgd1na2vs0mg"},{"bike_id":"fe149c67-da77-473c-8791-42b60c0c6cdd","system_id":"levelo_inurba_marseille","lat":43.317075,"lon":5.377367,"is_reserved":false,"is_disabled":false,"rental_uris":{"android":"levelo://app?vid=fe149c67-da77-473c-8791-42b60c0c6cdd","ios":"levelo://app?vid=fe149c67-da77-473c-8791-42b60c0c6cdd"},"vehicle_type_id":"4","last_reported":1721675208,"current_range_meters":12400,"station_id":"ce4bgth2rcd13ifvqch0","pricing_plan_id":"cebpf4jnsgd1na2vs0mg"},{"bike_id":"935debec-bc12-4685-a241-6ade3b71bec0","system_id":"levelo_inurba_marseille","lat":43.311448,"lon":5.379836,"is_reserved":false,"is_disabled":false,"rental_uris":{"android":"levelo://app?vid=935debec-bc12-4685-a241-6ade3b71bec0","ios":"levelo://app?vid=935debec-bc12-4685-a241-6ade3b71bec0"},"vehicle_type_id":"4","last_reported":1721675208,"current_range_meters":4000,"station_id":"","pricing_plan_id":"cebpf4jnsgd1na2vs0mg"},{"bike_id":"f889b21f-6554-46c2-969e-34e159b6bc56","system_id":"levelo_inurba_marseille","lat":43.303046,"lon":5.368981,"is_reserved":false,"is_disabled":false,"rental_uris":{"android":"levelo://app?vid=f889b21f-6554-46c2-969e-34e159b6bc56","ios":"levelo://app?vid=f889b21f-6554-46c2-969e-34e159b6bc56"},"vehicle_type_id":"4","last_reported":1721675208,"current_range_meters":31600,"station_id":"ce4bgqh2rcd13ifvqc5g","pricing_plan_id":"cebpf4jnsgd1na2vs0mg"},{"bike_id":"8fc89e5a-2b4c-4ff3-b6f6-65c10182a5e7","system_id":"levelo_inurba_marseille","lat":43.303046,"lon":5.368981,"is_reserved":false,"is_disabled":false,"rental_uris":{"android":"levelo://app?vid=8fc89e5a-2b4c-4ff3-b6f6-65c10182a5e7","ios":"levelo://app?vid=8fc89e5a-2b4c-4ff3-b6f6-65c10182a5e7"},"vehicle_type_id":"4","last_reported":1721675208,"current_range_meters":8000,"station_id":"ce4bgqh2rcd13ifvqc5g","pricing_plan_id":"cebpf4jnsgd1na2vs0mg"},{"bike_id":"b9bd958e-ad6b-4665-b0a2-a23735e3d071","system_id":"levelo_inurba_marseille","lat":43.303046,"lon":5.368981,"is_reserved":false,"is_disabled":false,"rental_uris":{"android":"levelo://app?vid=b9bd958e-ad6b-4665-b0a2-a23735e3d071","ios":"levelo://app?vid=b9bd958e-ad6b-4665-b0a2-a23735e3d071"},"vehicle_type_id":"4","last_reported":1721675208,"current_range_meters":4000,"station_id":"ce4bgqh2rcd13ifvqc5g","pricing_plan_id":"cebpf4jnsgd1na2vs0mg"},{"bike_id":"71426251-2044-4a90-a1ad-9b075256ee75","system_id":"levelo_inurba_marseille","lat":43.303046,"lon":5.368981,"is_reserved":false,"is_disabled":false,"rental_uris":{"android":"levelo://app?vid=71426251-2044-4a90-a1ad-9b075256ee75","ios":"levelo://app?vid=71426251-2044-4a90-a1ad-9b075256ee75"},"vehicle_type_id":"4","last_reported":1721675208,"current_range_meters":23200,"station_id":"ce4bgqh2rcd13ifvqc5g","pricing_plan_id":"cebpf4jnsgd1na2vs0mg"},{"bike_id":"8dc10b81-9b51-41b9-88b1-ecb473567c9f","system_id":"levelo_inurba_marseille","lat":43.30203,"lon":5.36615,"is_reserved":false,"is_disabled":false,"rental_uris":{"android":"levelo://app?vid=8dc10b81-9b51-41b9-88b1-ecb473567c9f","ios":"levelo://app?vid=8dc10b81-9b51-41b9-88b1-ecb473567c9f"},"vehicle_type_id":"4","last_reported":1721675208,"current_range_meters":2800,"station_id":"ce4bgrh2rcd13ifvqc8g","pricing_plan_id":"cebpf4jnsgd1na2vs0mg"},{"bike_id":"1283e0a3-ed2f-4d23-a97a-b8bedca354bd","system_id":"levelo_inurba_marseille","lat":43.301939,"lon":5.366286,"is_reserved":false,"is_disabled":false,"rental_uris":{"android":"levelo://app?vid=1283e0a3-ed2f-4d23-a97a-b8bedca354bd","ios":"levelo://app?vid=1283e0a3-ed2f-4d23-a97a-b8bedca354bd"},"vehicle_type_id":"4","last_reported":1721675208,"current_range_meters":0,"station_id":"ce4bgrh2rcd13ifvqc8g","pricing_plan_id":"cebpf4jnsgd1na2vs0mg"},{"bike_id":"d74bd1d8-23a8-4996-b4ef-091357562a7f","system_id":"levelo_inurba_marseille","lat":43.301831,"lon":5.3661,"is_reserved":false,"is_disabled":false,"rental_uris":{"android":"levelo://app?vid=d74bd1d8-23a8-4996-b4ef-091357562a7f","ios":"levelo://app?vid=d74bd1d8-23a8-4996-b4ef-091357562a7f"},"vehicle_type_id":"4","last_reported":1721675208,"current_range_meters":20000,"station_id":"ce4bgrh2rcd13ifvqc8g","pricing_plan_id":"cebpf4jnsgd1na2vs0mg"},{"bike_id":"53f80b66-2305-4245-a742-62fd010e6d98","system_id":"levelo_inurba_marseille","lat":43.324771,"lon":5.36557,"is_reserved":false,"is_disabled":false,"rental_uris":{"android":"levelo://app?vid=53f80b66-2305-4245-a742-62fd010e6d98","ios":"levelo://app?vid=53f80b66-2305-4245-a742-62fd010e6d98"},"vehicle_type_id":"4","last_reported":1721675208,"current_range_meters":800,"station_id":"ce4bhs12rcd13ifvqhvg","pricing_plan_id":"cebpf4jnsgd1na2vs0mg"},{"bike_id":"4b08878e-0a22-4e3b-91b5-c21dafba9ec1","system_id":"levelo_inurba_marseille","lat":43.324771,"lon":5.36557,"is_reserved":false,"is_disabled":false,"rental_uris":{"android":"levelo://app?vid=4b08878e-0a22-4e3b-91b5-c21dafba9ec1","ios":"levelo://app?vid=4b08878e-0a22-4e3b-91b5-c21dafba9ec1"},"vehicle_type_id":"4","last_reported":1721675208,"current_range_meters":30400,"station_id":"ce4bhs12rcd13ifvqhvg","pricing_plan_id":"cebpf4jnsgd1na2vs0mg"},{"bike_id":"a91df9b3-5855-45a2-8b1a-dc7251a401d9","system_id":"levelo_inurba_marseille","lat":43.323043,"lon":5.375775,"is_reserved":false,"is_disabled":false,"rental_uris":{"android":"levelo://app?vid=a91df9b3-5855-45a2-8b1a-dc7251a401d9","ios":"levelo://app?vid=a91df9b3-5855-45a2-8b1a-dc7251a401d9"},"vehicle_type_id":"4","last_reported":1721675208,"current_range_meters":6400,"station_id":"","pricing_plan_id":"cebpf4jnsgd1na2vs0mg"},{"bike_id":"891ed4df-4f37-4087-8d2f-7eeb2a112323","system_id":"levelo_inurba_marseille","lat":43.310804,"lon":5.38359,"is_reserved":false,"is_disabled":false,"rental_uris":{"android":"levelo://app?vid=891ed4df-4f37-4087-8d2f-7eeb2a112323","ios":"levelo://app?vid=891ed4df-4f37-4087-8d2f-7eeb2a112323"},"vehicle_type_id":"4","last_reported":1721675208,"current_range_meters":0,"station_id":"ce4bgv92rcd13ifvqcr0","pricing_plan_id":"cebpf4jnsgd1na2vs0mg"},{"bike_id":"b22c3d17-4d38-4800-bf69-927bb72ae759","system_id":"levelo_inurba_marseille","lat":43.30606,"lon":5.38209,"is_reserved":false,"is_disabled":false,"rental_uris":{"android":"levelo://app?vid=b22c3d17-4d38-4800-bf69-927bb72ae759","ios":"levelo://app?vid=b22c3d17-4d38-4800-bf69-927bb72ae759"},"vehicle_type_id":"4","last_reported":1721675208,"current_range_meters":26000,"station_id":"","pricing_plan_id":"cebpf4jnsgd1na2vs0mg"},{"bike_id":"087df5fd-2d95-45a1-b325-cdedf9587285","system_id":"levelo_inurba_marseille","lat":43.299724,"lon":5.371829,"is_reserved":false,"is_disabled":false,"rental_uris":{"android":"levelo://app?vid=087df5fd-2d95-45a1-b325-cdedf9587285","ios":"levelo://app?vid=087df5fd-2d95-45a1-b325-cdedf9587285"},"vehicle_type_id":"4","last_reported":1721675208,"current_range_meters":13200,"station_id":"ce4bgr92rcd13ifvqc7g","pricing_plan_id":"cebpf4jnsgd1na2vs0mg"},{"bike_id":"ca1595fc-d706-47ec-b3ff-3afecc477154","system_id":"levelo_inurba_marseille","lat":43.301055,"lon":5.375839,"is_reserved":false,"is_disabled":false,"rental_uris":{"android":"levelo://app?vid=ca1595fc-d706-47ec-b3ff-3afecc477154","ios":"levelo://app?vid=ca1595fc-d706-47ec-b3ff-3afecc477154"},"vehicle_type_id":"4","last_reported":1721675208,"current_range_meters":0,"station_id":"ce4bgi92rcd13ifvqb90","pricing_plan_id":"cebpf4jnsgd1na2vs0mg"},{"bike_id":"793f8a27-8a9c-4af8-a51c-fe1715e1de18","system_id":"levelo_inurba_marseille","lat":43.299724,"lon":5.371829,"is_reserved":false,"is_disabled":false,"rental_uris":{"android":"levelo://app?vid=793f8a27-8a9c-4af8-a51c-fe1715e1de18","ios":"levelo://app?vid=793f8a27-8a9c-4af8-a51c-fe1715e1de18"},"vehicle_type_id":"4","last_reported":1721675208,"current_range_meters":0,"station_id":"ce4bgr92rcd13ifvqc7g","pricing_plan_id":"cebpf4jnsgd1na2vs0mg"},{"bike_id":"1f6d4c79-0bf3-43dc-ab72-d8c4e27e17f6","system_id":"levelo_inurba_marseille","lat":43.299222,"lon":5.365554,"is_reserved":false,"is_disabled":false,"rental_uris":{"android":"levelo://app?vid=1f6d4c79-0bf3-43dc-ab72-d8c4e27e17f6","ios":"levelo://app?vid=1f6d4c79-0bf3-43dc-ab72-d8c4e27e17f6"},"vehicle_type_id":"4","last_reported":1721675208,"current_range_meters":12000,"station_id":"ce4bgm92rcd13ifvqbr0","pricing_plan_id":"cebpf4jnsgd1na2vs0mg"},{"bike_id":"fed688bb-5a44-4a4c-9157-e96b6e5f7b80","system_id":"levelo_inurba_marseille","lat":43.299724,"lon":5.371829,"is_reserved":false,"is_disabled":false,"rental_uris":{"android":"levelo://app?vid=fed688bb-5a44-4a4c-9157-e96b6e5f7b80","ios":"levelo://app?vid=fed688bb-5a44-4a4c-9157-e96b6e5f7b80"},"vehicle_type_id":"4","last_reported":1721675208,"current_range_meters":28400,"station_id":"ce4bgr92rcd13ifvqc7g","pricing_plan_id":"cebpf4jnsgd1na2vs0mg"},{"bike_id":"8fbea577-10c1-4da3-9af4-a41e62d5e2c2","system_id":"levelo_inurba_marseille","lat":43.299724,"lon":5.371829,"is_reserved":false,"is_disabled":false,"rental_uris":{"android":"levelo://app?vid=8fbea577-10c1-4da3-9af4-a41e62d5e2c2","ios":"levelo://app?vid=8fbea577-10c1-4da3-9af4-a41e62d5e2c2"},"vehicle_type_id":"4","last_reported":1721675208,"current_range_meters":18400,"station_id":"ce4bgr92rcd13ifvqc7g","pricing_plan_id":"cebpf4jnsgd1na2vs0mg"},{"bike_id":"3600a95a-f085-48e2-966c-897fccd68eda","system_id":"levelo_inurba_marseille","lat":43.30123,"lon":5.377797,"is_reserved":false,"is_disabled":false,"rental_uris":{"android":"levelo://app?vid=3600a95a-f085-48e2-966c-897fccd68eda","ios":"levelo://app?vid=3600a95a-f085-48e2-966c-897fccd68eda"},"vehicle_type_id":"4","last_reported":1721675208,"current_range_meters":15200,"station_id":"","pricing_plan_id":"cebpf4jnsgd1na2vs0mg"},{"bike_id":"7fb216f5-a8b1-4f8e-82d4-b0d8a5c2ad38","system_id":"levelo_inurba_marseille","lat":43.313571,"lon":5.384829,"is_reserved":false,"is_disabled":false,"rental_uris":{"android":"levelo://app?vid=7fb216f5-a8b1-4f8e-82d4-b0d8a5c2ad38","ios":"levelo://app?vid=7fb216f5-a8b1-4f8e-82d4-b0d8a5c2ad38"},"vehicle_type_id":"4","last_reported":1721675208,"current_range_meters":5600,"station_id":"ce4bgt92rcd13ifvqcf0","pricing_plan_id":"cebpf4jnsgd1na2vs0mg"},{"bike_id":"720c2e34-e8d6-44b0-9934-39545d9183ea","system_id":"levelo_inurba_marseille","lat":43.298433,"lon":5.362774,"is_reserved":false,"is_disabled":false,"rental_uris":{"android":"levelo://app?vid=720c2e34-e8d6-44b0-9934-39545d9183ea","ios":"levelo://app?vid=720c2e34-e8d6-44b0-9934-39545d9183ea"},"vehicle_type_id":"4","last_reported":1721675208,"current_range_meters":13200,"station_id":"ce4bgpp2rcd13ifvqc3g","pricing_plan_id":"cebpf4jnsgd1na2vs0mg"},{"bike_id":"af809cd6-e9e9-46df-8104-ed46fc7bc3b8","system_id":"levelo_inurba_marseille","lat":43.29848,"lon":5.36286,"is_reserved":false,"is_disabled":false,"rental_uris":{"android":"levelo://app?vid=af809cd6-e9e9-46df-8104-ed46fc7bc3b8","ios":"levelo://app?vid=af809cd6-e9e9-46df-8104-ed46fc7bc3b8"},"vehicle_type_id":"4","last_reported":1721675208,"current_range_meters":1600,"station_id":"ce4bgpp2rcd13ifvqc3g","pricing_plan_id":"cebpf4jnsgd1na2vs0mg"},{"bike_id":"0bcdd5b8-bcf4-4437-b6ea-cf3d8ceca09f","system_id":"levelo_inurba_marseille","lat":43.298433,"lon":5.362774,"is_reserved":false,"is_disabled":false,"rental_uris":{"android":"levelo://app?vid=0bcdd5b8-bcf4-4437-b6ea-cf3d8ceca09f","ios":"levelo://app?vid=0bcdd5b8-bcf4-4437-b6ea-cf3d8ceca09f"},"vehicle_type_id":"4","last_reported":1721675208,"current_range_meters":16400,"station_id":"ce4bgpp2rcd13ifvqc3g","pricing_plan_id":"cebpf4jnsgd1na2vs0mg"},{"bike_id":"5d3c3ab5-9a1e-49ba-95bf-b9b0001276e7","system_id":"levelo_inurba_marseille","lat":43.298433,"lon":5.362774,"is_reserved":false,"is_disabled":false,"rental_uris":{"android":"levelo://app?vid=5d3c3ab5-9a1e-49ba-95bf-b9b0001276e7","ios":"levelo://app?vid=5d3c3ab5-9a1e-49ba-95bf-b9b0001276e7"},"vehicle_type_id":"4","last_reported":1721675208,"current_range_meters":3200,"station_id":"ce4bgpp2rcd13ifvqc3g","pricing_plan_id":"cebpf4jnsgd1na2vs0mg"},{"bike_id":"3de558ef-b815-445d-abb9-731addbd01d2","system_id":"levelo_inurba_marseille","lat":43.311722,"lon":5.387247,"is_reserved":false,"is_disabled":false,"rental_uris":{"android":"levelo://app?vid=3de558ef-b815-445d-abb9-731addbd01d2","ios":"levelo://app?vid=3de558ef-b815-445d-abb9-731addbd01d2"},"vehicle_type_id":"4","last_reported":1721675208,"current_range_meters":0,"station_id":"ce4bgv12rcd13ifvqcp0","pricing_plan_id":"cebpf4jnsgd1na2vs0mg"},{"bike_id":"cd6a3336-9aa0-4d1e-88d3-48a0e878ea53","system_id":"levelo_inurba_marseille","lat":43.31181,"lon":5.38711,"is_reserved":false,"is_disabled":false,"rental_uris":{"android":"levelo://app?vid=cd6a3336-9aa0-4d1e-88d3-48a0e878ea53","ios":"levelo://app?vid=cd6a3336-9aa0-4d1e-88d3-48a0e878ea53"},"vehicle_type_id":"4","last_reported":1721675208,"current_range_meters":0,"station_id":"ce4bgv12rcd13ifvqcp0","pricing_plan_id":"cebpf4jnsgd1na2vs0mg"},{"bike_id":"3fef4d92-2ec7-4fb9-bb52-c1307f20b8a6","system_id":"levelo_inurba_marseille","lat":43.299243,"lon":5.37481,"is_reserved":false,"is_disabled":false,"rental_uris":{"android":"levelo://app?vid=3fef4d92-2ec7-4fb9-bb52-c1307f20b8a6","ios":"levelo://app?vid=3fef4d92-2ec7-4fb9-bb52-c1307f20b8a6"},"vehicle_type_id":"4","last_reported":1721675208,"current_range_meters":26000,"station_id":"ce4bgjh2rcd13ifvqbg0","pricing_plan_id":"cebpf4jnsgd1na2vs0mg"},{"bike_id":"bd2438cd-719c-444e-8d8b-1167130d6394","system_id":"levelo_inurba_marseille","lat":43.311717,"lon":5.38714,"is_reserved":false,"is_disabled":false,"rental_uris":{"android":"levelo://app?vid=bd2438cd-719c-444e-8d8b-1167130d6394","ios":"levelo://app?vid=bd2438cd-719c-444e-8d8b-1167130d6394"},"vehicle_type_id":"4","last_reported":1721675208,"current_range_meters":0,"station_id":"ce4bgv12rcd13ifvqcp0","pricing_plan_id":"cebpf4jnsgd1na2vs0mg"},{"bike_id":"c8682c92-7f3a-4825-aa07-c9c3e19d7fcc","system_id":"levelo_inurba_marseille","lat":43.29918,"lon":5.37572,"is_reserved":false,"is_disabled":false,"rental_uris":{"android":"levelo://app?vid=c8682c92-7f3a-4825-aa07-c9c3e19d7fcc","ios":"levelo://app?vid=c8682c92-7f3a-4825-aa07-c9c3e19d7fcc"},"vehicle_type_id":"4","last_reported":1721675208,"current_range_meters":11600,"station_id":"","pricing_plan_id":"cebpf4jnsgd1na2vs0mg"},{"bike_id":"5b9ae97e-d4b2-4902-91cb-98ca3f3982dc","system_id":"levelo_inurba_marseille","lat":43.297794,"lon":5.370888,"is_reserved":false,"is_disabled":false,"rental_uris":{"android":"levelo://app?vid=5b9ae97e-d4b2-4902-91cb-98ca3f3982dc","ios":"levelo://app?vid=5b9ae97e-d4b2-4902-91cb-98ca3f3982dc"},"vehicle_type_id":"4","last_reported":1721675208,"current_range_meters":24000,"station_id":"ce4bgop2rcd13ifvqc1g","pricing_plan_id":"cebpf4jnsgd1na2vs0mg"},{"bike_id":"98130cc7-b273-4dee-89a1-15b990d570f8","system_id":"levelo_inurba_marseille","lat":43.32283,"lon":5.38265,"is_reserved":false,"is_disabled":false,"rental_uris":{"android":"levelo://app?vid=98130cc7-b273-4dee-89a1-15b990d570f8","ios":"levelo://app?vid=98130cc7-b273-4dee-89a1-15b990d570f8"},"vehicle_type_id":"4","last_reported":1721675208,"current_range_meters":11200,"station_id":"ce4bhr12rcd13ifvqhqg","pricing_plan_id":"cebpf4jnsgd1na2vs0mg"},{"bike_id":"143a5345-056d-4796-a2f3-a8769f98ba9d","system_id":"levelo_inurba_marseille","lat":43.297774,"lon":5.370875,"is_reserved":false,"is_disabled":false,"rental_uris":{"android":"levelo://app?vid=143a5345-056d-4796-a2f3-a8769f98ba9d","ios":"levelo://app?vid=143a5345-056d-4796-a2f3-a8769f98ba9d"},"vehicle_type_id":"4","last_reported":1721675208,"current_range_meters":13200,"station_id":"ce4bgop2rcd13ifvqc1g","pricing_plan_id":"cebpf4jnsgd1na2vs0mg"},{"bike_id":"3d0a25f2-54fd-474d-89eb-c5f7d4c81d64","system_id":"levelo_inurba_marseille","lat":43.322872,"lon":5.382756,"is_reserved":false,"is_disabled":false,"rental_uris":{"android":"levelo://app?vid=3d0a25f2-54fd-474d-89eb-c5f7d4c81d64","ios":"levelo://app?vid=3d0a25f2-54fd-474d-89eb-c5f7d4c81d64"},"vehicle_type_id":"4","last_reported":1721675208,"current_range_meters":21200,"station_id":"ce4bhr12rcd13ifvqhqg","pricing_plan_id":"cebpf4jnsgd1na2vs0mg"},{"bike_id":"3198afba-1e22-4226-bfdf-ce414f4d5e7e","system_id":"levelo_inurba_marseille","lat":43.32288,"lon":5.38279,"is_reserved":false,"is_disabled":false,"rental_uris":{"android":"levelo://app?vid=3198afba-1e22-4226-bfdf-ce414f4d5e7e","ios":"levelo://app?vid=3198afba-1e22-4226-bfdf-ce414f4d5e7e"},"vehicle_type_id":"4","last_reported":1721675208,"current_range_meters":26800,"station_id":"ce4bhr12rcd13ifvqhqg","pricing_plan_id":"cebpf4jnsgd1na2vs0mg"},{"bike_id":"a2427621-0f29-4c08-8567-65b1988f906e","system_id":"levelo_inurba_marseille","lat":43.297163,"lon":5.365866,"is_reserved":false,"is_disabled":false,"rental_uris":{"android":"levelo://app?vid=a2427621-0f29-4c08-8567-65b1988f906e","ios":"levelo://app?vid=a2427621-0f29-4c08-8567-65b1988f906e"},"vehicle_type_id":"4","last_reported":1721675208,"current_range_meters":13600,"station_id":"ce4bgn12rcd13ifvqbt0","pricing_plan_id":"cebpf4jnsgd1na2vs0mg"},{"bike_id":"843157ad-a632-4400-89c5-591301131496","system_id":"levelo_inurba_marseille","lat":43.297163,"lon":5.365866,"is_reserved":false,"is_disabled":false,"rental_uris":{"android":"levelo://app?vid=843157ad-a632-4400-89c5-591301131496","ios":"levelo://app?vid=843157ad-a632-4400-89c5-591301131496"},"vehicle_type_id":"4","last_reported":1721675208,"current_range_meters":15600,"station_id":"ce4bgn12rcd13ifvqbt0","pricing_plan_id":"cebpf4jnsgd1na2vs0mg"},{"bike_id":"3f72b8b7-2794-49f7-86a6-067d94188b15","system_id":"levelo_inurba_marseille","lat":43.297163,"lon":5.365866,"is_reserved":false,"is_disabled":false,"rental_uris":{"android":"levelo://app?vid=3f72b8b7-2794-49f7-86a6-067d94188b15","ios":"levelo://app?vid=3f72b8b7-2794-49f7-86a6-067d94188b15"},"vehicle_type_id":"4","last_reported":1721675208,"current_range_meters":27200,"station_id":"ce4bgn12rcd13ifvqbt0","pricing_plan_id":"cebpf4jnsgd1na2vs0mg"},{"bike_id":"9140ea83-be8e-483f-9fe6-cfe48f8bc667","system_id":"levelo_inurba_marseille","lat":43.29716,"lon":5.37697,"is_reserved":false,"is_disabled":false,"rental_uris":{"android":"levelo://app?vid=9140ea83-be8e-483f-9fe6-cfe48f8bc667","ios":"levelo://app?vid=9140ea83-be8e-483f-9fe6-cfe48f8bc667"},"vehicle_type_id":"4","last_reported":1721675208,"current_range_meters":0,"station_id":"ce4bgkh2rcd13ifvqbl0","pricing_plan_id":"cebpf4jnsgd1na2vs0mg"},{"bike_id":"3769b91f-8698-4fb5-8343-c2cacddbe75d","system_id":"levelo_inurba_marseille","lat":43.299028,"lon":5.381509,"is_reserved":false,"is_disabled":false,"rental_uris":{"android":"levelo://app?vid=3769b91f-8698-4fb5-8343-c2cacddbe75d","ios":"levelo://app?vid=3769b91f-8698-4fb5-8343-c2cacddbe75d"},"vehicle_type_id":"4","last_reported":1721675208,"current_range_meters":26400,"station_id":"ce4bgj12rcd13ifvqbc0","pricing_plan_id":"cebpf4jnsgd1na2vs0mg"},{"bike_id":"3452bc4d-7291-4390-b9a6-929e42e1e718","system_id":"levelo_inurba_marseille","lat":43.299028,"lon":5.381509,"is_reserved":false,"is_disabled":false,"rental_uris":{"android":"levelo://app?vid=3452bc4d-7291-4390-b9a6-929e42e1e718","ios":"levelo://app?vid=3452bc4d-7291-4390-b9a6-929e42e1e718"},"vehicle_type_id":"4","last_reported":1721675208,"current_range_meters":16400,"station_id":"ce4bgj12rcd13ifvqbc0","pricing_plan_id":"cebpf4jnsgd1na2vs0mg"},{"bike_id":"78312550-8037-4546-9abb-e25771ac8c66","system_id":"levelo_inurba_marseille","lat":43.296935,"lon":5.376544,"is_reserved":false,"is_disabled":false,"rental_uris":{"android":"levelo://app?vid=78312550-8037-4546-9abb-e25771ac8c66","ios":"levelo://app?vid=78312550-8037-4546-9abb-e25771ac8c66"},"vehicle_type_id":"4","last_reported":1721675208,"current_range_meters":800,"station_id":"ce4bgkh2rcd13ifvqbl0","pricing_plan_id":"cebpf4jnsgd1na2vs0mg"},{"bike_id":"b56329f5-4fd6-477b-990f-5b10680ff3ee","system_id":"levelo_inurba_marseille","lat":43.299028,"lon":5.381509,"is_reserved":false,"is_disabled":false,"rental_uris":{"android":"levelo://app?vid=b56329f5-4fd6-477b-990f-5b10680ff3ee","ios":"levelo://app?vid=b56329f5-4fd6-477b-990f-5b10680ff3ee"},"vehicle_type_id":"4","last_reported":1721675208,"current_range_meters":24800,"station_id":"ce4bgj12rcd13ifvqbc0","pricing_plan_id":"cebpf4jnsgd1na2vs0mg"},{"bike_id":"4a88a139-715b-4a25-aed5-13f518582e1e","system_id":"levelo_inurba_marseille","lat":43.283998,"lon":5.375062,"is_reserved":false,"is_disabled":false,"rental_uris":{"android":"levelo://app?vid=4a88a139-715b-4a25-aed5-13f518582e1e","ios":"levelo://app?vid=4a88a139-715b-4a25-aed5-13f518582e1e"},"vehicle_type_id":"4","last_reported":1721675208,"current_range_meters":6000,"station_id":"ce4bh412rcd13ifvqds0","pricing_plan_id":"cebpf4jnsgd1na2vs0mg"},{"bike_id":"2575fbd7-7461-460d-b1ed-bbb2553b6e10","system_id":"levelo_inurba_marseille","lat":43.299028,"lon":5.381509,"is_reserved":false,"is_disabled":false,"rental_uris":{"android":"levelo://app?vid=2575fbd7-7461-460d-b1ed-bbb2553b6e10","ios":"levelo://app?vid=2575fbd7-7461-460d-b1ed-bbb2553b6e10"},"vehicle_type_id":"4","last_reported":1721675208,"current_range_meters":9200,"station_id":"ce4bgj12rcd13ifvqbc0","pricing_plan_id":"cebpf4jnsgd1na2vs0mg"},{"bike_id":"038c9c2c-8754-4b1b-8e86-bf3fd159b5c2","system_id":"levelo_inurba_marseille","lat":43.296921,"lon":5.376579,"is_reserved":false,"is_disabled":false,"rental_uris":{"android":"levelo://app?vid=038c9c2c-8754-4b1b-8e86-bf3fd159b5c2","ios":"levelo://app?vid=038c9c2c-8754-4b1b-8e86-bf3fd159b5c2"},"vehicle_type_id":"4","last_reported":1721675208,"current_range_meters":0,"station_id":"ce4bgkh2rcd13ifvqbl0","pricing_plan_id":"cebpf4jnsgd1na2vs0mg"},{"bike_id":"c3b01b2d-d6be-4a62-84d0-c85d7539cc39","system_id":"levelo_inurba_marseille","lat":43.309589,"lon":5.390258,"is_reserved":false,"is_disabled":false,"rental_uris":{"android":"levelo://app?vid=c3b01b2d-d6be-4a62-84d0-c85d7539cc39","ios":"levelo://app?vid=c3b01b2d-d6be-4a62-84d0-c85d7539cc39"},"vehicle_type_id":"4","last_reported":1721675208,"current_range_meters":24000,"station_id":"ce4bgup2rcd13ifvqco0","pricing_plan_id":"cebpf4jnsgd1na2vs0mg"},{"bike_id":"ab22cb64-7af5-4b77-a1d3-69266b871611","system_id":"levelo_inurba_marseille","lat":43.317557,"lon":5.390173,"is_reserved":false,"is_disabled":false,"rental_uris":{"android":"levelo://app?vid=ab22cb64-7af5-4b77-a1d3-69266b871611","ios":"levelo://app?vid=ab22cb64-7af5-4b77-a1d3-69266b871611"},"vehicle_type_id":"4","last_reported":1721675208,"current_range_meters":22400,"station_id":"ce4bhqp2rcd13ifvqhng","pricing_plan_id":"cebpf4jnsgd1na2vs0mg"},{"bike_id":"61dbb7ec-36fe-42e9-808b-d6e26ee30983","system_id":"levelo_inurba_marseille","lat":43.317557,"lon":5.390173,"is_reserved":false,"is_disabled":false,"rental_uris":{"android":"levelo://app?vid=61dbb7ec-36fe-42e9-808b-d6e26ee30983","ios":"levelo://app?vid=61dbb7ec-36fe-42e9-808b-d6e26ee30983"},"vehicle_type_id":"4","last_reported":1721675208,"current_range_meters":5600,"station_id":"ce4bhqp2rcd13ifvqhng","pricing_plan_id":"cebpf4jnsgd1na2vs0mg"},{"bike_id":"6481e595-ab17-4534-a707-ae6dc36ae34d","system_id":"levelo_inurba_marseille","lat":43.317557,"lon":5.390173,"is_reserved":false,"is_disabled":false,"rental_uris":{"android":"levelo://app?vid=6481e595-ab17-4534-a707-ae6dc36ae34d","ios":"levelo://app?vid=6481e595-ab17-4534-a707-ae6dc36ae34d"},"vehicle_type_id":"4","last_reported":1721675208,"current_range_meters":27600,"station_id":"ce4bhqp2rcd13ifvqhng","pricing_plan_id":"cebpf4jnsgd1na2vs0mg"},{"bike_id":"12225c7a-0d2b-4ff0-91fb-8641a0d94c4f","system_id":"levelo_inurba_marseille","lat":43.317557,"lon":5.390173,"is_reserved":false,"is_disabled":false,"rental_uris":{"android":"levelo://app?vid=12225c7a-0d2b-4ff0-91fb-8641a0d94c4f","ios":"levelo://app?vid=12225c7a-0d2b-4ff0-91fb-8641a0d94c4f"},"vehicle_type_id":"4","last_reported":1721675208,"current_range_meters":28800,"station_id":"ce4bhqp2rcd13ifvqhng","pricing_plan_id":"cebpf4jnsgd1na2vs0mg"},{"bike_id":"ac77aa3a-8ac0-4e5c-8a42-3a4663fee238","system_id":"levelo_inurba_marseille","lat":43.298037,"lon":5.381066,"is_reserved":false,"is_disabled":false,"rental_uris":{"android":"levelo://app?vid=ac77aa3a-8ac0-4e5c-8a42-3a4663fee238","ios":"levelo://app?vid=ac77aa3a-8ac0-4e5c-8a42-3a4663fee238"},"vehicle_type_id":"4","last_reported":1721675208,"current_range_meters":31200,"station_id":"ce4bgip2rcd13ifvqbb0","pricing_plan_id":"cebpf4jnsgd1na2vs0mg"},{"bike_id":"b4af10f8-1406-4cd1-b0e8-8c785bb1b34d","system_id":"levelo_inurba_marseille","lat":43.29794,"lon":5.38093,"is_reserved":false,"is_disabled":false,"rental_uris":{"android":"levelo://app?vid=b4af10f8-1406-4cd1-b0e8-8c785bb1b34d","ios":"levelo://app?vid=b4af10f8-1406-4cd1-b0e8-8c785bb1b34d"},"vehicle_type_id":"4","last_reported":1721675208,"current_range_meters":31200,"station_id":"ce4bgip2rcd13ifvqbb0","pricing_plan_id":"cebpf4jnsgd1na2vs0mg"},{"bike_id":"f1f517a6-0c61-4f46-b7f5-b4728bec086c","system_id":"levelo_inurba_marseille","lat":43.29576,"lon":5.37518,"is_reserved":false,"is_disabled":false,"rental_uris":{"android":"levelo://app?vid=f1f517a6-0c61-4f46-b7f5-b4728bec086c","ios":"levelo://app?vid=f1f517a6-0c61-4f46-b7f5-b4728bec086c"},"vehicle_type_id":"4","last_reported":1721675208,"current_range_meters":0,"station_id":"ce4bgh92rcd13ifvqb50","pricing_plan_id":"cebpf4jnsgd1na2vs0mg"},{"bike_id":"27f3bc7a-500c-44a6-b937-8a94477bb693","system_id":"levelo_inurba_marseille","lat":43.29777,"lon":5.38089,"is_reserved":false,"is_disabled":false,"rental_uris":{"android":"levelo://app?vid=27f3bc7a-500c-44a6-b937-8a94477bb693","ios":"levelo://app?vid=27f3bc7a-500c-44a6-b937-8a94477bb693"},"vehicle_type_id":"4","last_reported":1721675208,"current_range_meters":31200,"station_id":"ce4bgip2rcd13ifvqbb0","pricing_plan_id":"cebpf4jnsgd1na2vs0mg"},{"bike_id":"278a6959-9ccc-404d-9652-0119283d282d","system_id":"levelo_inurba_marseille","lat":43.29784,"lon":5.38108,"is_reserved":false,"is_disabled":false,"rental_uris":{"android":"levelo://app?vid=278a6959-9ccc-404d-9652-0119283d282d","ios":"levelo://app?vid=278a6959-9ccc-404d-9652-0119283d282d"},"vehicle_type_id":"4","last_reported":1721675208,"current_range_meters":11200,"station_id":"ce4bgip2rcd13ifvqbb0","pricing_plan_id":"cebpf4jnsgd1na2vs0mg"},{"bike_id":"7aa6619b-e44a-4681-b5ba-6c073bb1ec27","system_id":"levelo_inurba_marseille","lat":43.296263,"lon":5.377094,"is_reserved":false,"is_disabled":false,"rental_uris":{"android":"levelo://app?vid=7aa6619b-e44a-4681-b5ba-6c073bb1ec27","ios":"levelo://app?vid=7aa6619b-e44a-4681-b5ba-6c073bb1ec27"},"vehicle_type_id":"4","last_reported":1721675208,"current_range_meters":29600,"station_id":"ce4bgi92rcd13ifvqb90","pricing_plan_id":"cebpf4jnsgd1na2vs0mg"},{"bike_id":"9e31d021-d28f-4239-ba8b-f6b8a06f131a","system_id":"levelo_inurba_marseille","lat":43.296277,"lon":5.377108,"is_reserved":false,"is_disabled":false,"rental_uris":{"android":"levelo://app?vid=9e31d021-d28f-4239-ba8b-f6b8a06f131a","ios":"levelo://app?vid=9e31d021-d28f-4239-ba8b-f6b8a06f131a"},"vehicle_type_id":"4","last_reported":1721675208,"current_range_meters":31200,"station_id":"ce4bgi92rcd13ifvqb90","pricing_plan_id":"cebpf4jnsgd1na2vs0mg"},{"bike_id":"8f7e60f6-e23c-4612-b669-5d118289290c","system_id":"levelo_inurba_marseille","lat":43.297597,"lon":5.38104,"is_reserved":false,"is_disabled":false,"rental_uris":{"android":"levelo://app?vid=8f7e60f6-e23c-4612-b669-5d118289290c","ios":"levelo://app?vid=8f7e60f6-e23c-4612-b669-5d118289290c"},"vehicle_type_id":"4","last_reported":1721675208,"current_range_meters":16800,"station_id":"ce4bgip2rcd13ifvqbb0","pricing_plan_id":"cebpf4jnsgd1na2vs0mg"},{"bike_id":"87e2c7ed-08ba-47e4-8a25-ae9c6108b071","system_id":"levelo_inurba_marseille","lat":43.299707,"lon":5.384859,"is_reserved":false,"is_disabled":false,"rental_uris":{"android":"levelo://app?vid=87e2c7ed-08ba-47e4-8a25-ae9c6108b071","ios":"levelo://app?vid=87e2c7ed-08ba-47e4-8a25-ae9c6108b071"},"vehicle_type_id":"4","last_reported":1721675208,"current_range_meters":16000,"station_id":"ce4bgj92rcd13ifvqbd0","pricing_plan_id":"cebpf4jnsgd1na2vs0mg"},{"bike_id":"10d85473-3b58-4f82-a8bf-32664fbe7811","system_id":"levelo_inurba_marseille","lat":43.32364,"lon":5.38873,"is_reserved":false,"is_disabled":false,"rental_uris":{"android":"levelo://app?vid=10d85473-3b58-4f82-a8bf-32664fbe7811","ios":"levelo://app?vid=10d85473-3b58-4f82-a8bf-32664fbe7811"},"vehicle_type_id":"4","last_reported":1721675208,"current_range_meters":4800,"station_id":"ce4bhqp2rcd13ifvqhog","pricing_plan_id":"cebpf4jnsgd1na2vs0mg"},{"bike_id":"0d8d9d26-69b3-4c04-b064-050ddff29fcc","system_id":"levelo_inurba_marseille","lat":43.325079,"lon":5.387819,"is_reserved":false,"is_disabled":false,"rental_uris":{"android":"levelo://app?vid=0d8d9d26-69b3-4c04-b064-050ddff29fcc","ios":"levelo://app?vid=0d8d9d26-69b3-4c04-b064-050ddff29fcc"},"vehicle_type_id":"4","last_reported":1721675208,"current_range_meters":800,"station_id":"","pricing_plan_id":"cebpf4jnsgd1na2vs0mg"},{"bike_id":"d513d5c3-80ae-4dba-8b0a-72c8b9409e50","system_id":"levelo_inurba_marseille","lat":43.29601,"lon":5.38107,"is_reserved":false,"is_disabled":false,"rental_uris":{"android":"levelo://app?vid=d513d5c3-80ae-4dba-8b0a-72c8b9409e50","ios":"levelo://app?vid=d513d5c3-80ae-4dba-8b0a-72c8b9409e50"},"vehicle_type_id":"4","last_reported":1721675208,"current_range_meters":10800,"station_id":"ce4bgl12rcd13ifvqbo0","pricing_plan_id":"cebpf4jnsgd1na2vs0mg"},{"bike_id":"b0c85d5c-803d-4e01-9b59-2e0a2306ff3a","system_id":"levelo_inurba_marseille","lat":43.293259,"lon":5.371586,"is_reserved":false,"is_disabled":false,"rental_uris":{"android":"levelo://app?vid=b0c85d5c-803d-4e01-9b59-2e0a2306ff3a","ios":"levelo://app?vid=b0c85d5c-803d-4e01-9b59-2e0a2306ff3a"},"vehicle_type_id":"4","last_reported":1721675208,"current_range_meters":12400,"station_id":"ce4bgh92rcd13ifvqb40","pricing_plan_id":"cebpf4jnsgd1na2vs0mg"},{"bike_id":"d69ce823-6c1e-49d4-868b-2dff1e991fb5","system_id":"levelo_inurba_marseille","lat":43.29278,"lon":5.36844,"is_reserved":false,"is_disabled":false,"rental_uris":{"android":"levelo://app?vid=d69ce823-6c1e-49d4-868b-2dff1e991fb5","ios":"levelo://app?vid=d69ce823-6c1e-49d4-868b-2dff1e991fb5"},"vehicle_type_id":"4","last_reported":1721675208,"current_range_meters":0,"station_id":"ce4bhbp2rcd13ifvqesg","pricing_plan_id":"cebpf4jnsgd1na2vs0mg"},{"bike_id":"4cbdbe31-10f9-4f59-8d01-69e9c5b767da","system_id":"levelo_inurba_marseille","lat":43.29305,"lon":5.37168,"is_reserved":false,"is_disabled":false,"rental_uris":{"android":"levelo://app?vid=4cbdbe31-10f9-4f59-8d01-69e9c5b767da","ios":"levelo://app?vid=4cbdbe31-10f9-4f59-8d01-69e9c5b767da"},"vehicle_type_id":"4","last_reported":1721675208,"current_range_meters":18400,"station_id":"ce4bgh92rcd13ifvqb40","pricing_plan_id":"cebpf4jnsgd1na2vs0mg"},{"bike_id":"c22380d4-4829-4fe2-a0eb-315b40651407","system_id":"levelo_inurba_marseille","lat":43.292749,"lon":5.368402,"is_reserved":false,"is_disabled":false,"rental_uris":{"android":"levelo://app?vid=c22380d4-4829-4fe2-a0eb-315b40651407","ios":"levelo://app?vid=c22380d4-4829-4fe2-a0eb-315b40651407"},"vehicle_type_id":"4","last_reported":1721675208,"current_range_meters":12800,"station_id":"ce4bhbp2rcd13ifvqesg","pricing_plan_id":"cebpf4jnsgd1na2vs0mg"},{"bike_id":"83e9094c-0197-462d-bcdb-22c123ca1d98","system_id":"levelo_inurba_marseille","lat":43.29595,"lon":5.38189,"is_reserved":false,"is_disabled":false,"rental_uris":{"android":"levelo://app?vid=83e9094c-0197-462d-bcdb-22c123ca1d98","ios":"levelo://app?vid=83e9094c-0197-462d-bcdb-22c123ca1d98"},"vehicle_type_id":"4","last_reported":1721675208,"current_range_meters":0,"station_id":"","pricing_plan_id":"cebpf4jnsgd1na2vs0mg"},{"bike_id":"98c9cac8-0907-431c-9f5a-1f0a8efebd4a","system_id":"levelo_inurba_marseille","lat":43.292749,"lon":5.368402,"is_reserved":false,"is_disabled":false,"rental_uris":{"android":"levelo://app?vid=98c9cac8-0907-431c-9f5a-1f0a8efebd4a","ios":"levelo://app?vid=98c9cac8-0907-431c-9f5a-1f0a8efebd4a"},"vehicle_type_id":"4","last_reported":1721675208,"current_range_meters":2000,"station_id":"ce4bhbp2rcd13ifvqesg","pricing_plan_id":"cebpf4jnsgd1na2vs0mg"},{"bike_id":"a665f7f9-a8e5-496b-a25e-d216916bdc6f","system_id":"levelo_inurba_marseille","lat":43.29275,"lon":5.36844,"is_reserved":false,"is_disabled":false,"rental_uris":{"android":"levelo://app?vid=a665f7f9-a8e5-496b-a25e-d216916bdc6f","ios":"levelo://app?vid=a665f7f9-a8e5-496b-a25e-d216916bdc6f"},"vehicle_type_id":"4","last_reported":1721675208,"current_range_meters":0,"station_id":"ce4bhbp2rcd13ifvqesg","pricing_plan_id":"cebpf4jnsgd1na2vs0mg"},{"bike_id":"c0b8d72e-5db6-41e3-b295-62e493d647d0","system_id":"levelo_inurba_marseille","lat":43.29272,"lon":5.3684,"is_reserved":false,"is_disabled":false,"rental_uris":{"android":"levelo://app?vid=c0b8d72e-5db6-41e3-b295-62e493d647d0","ios":"levelo://app?vid=c0b8d72e-5db6-41e3-b295-62e493d647d0"},"vehicle_type_id":"4","last_reported":1721675208,"current_range_meters":0,"station_id":"ce4bhbp2rcd13ifvqesg","pricing_plan_id":"cebpf4jnsgd1na2vs0mg"},{"bike_id":"f7daeb5a-3ff9-4060-9418-eb9cbff934a7","system_id":"levelo_inurba_marseille","lat":43.29272,"lon":5.368477,"is_reserved":false,"is_disabled":false,"rental_uris":{"android":"levelo://app?vid=f7daeb5a-3ff9-4060-9418-eb9cbff934a7","ios":"levelo://app?vid=f7daeb5a-3ff9-4060-9418-eb9cbff934a7"},"vehicle_type_id":"4","last_reported":1721675208,"current_range_meters":0,"station_id":"ce4bhbp2rcd13ifvqesg","pricing_plan_id":"cebpf4jnsgd1na2vs0mg"},{"bike_id":"5701faea-8080-4998-8b7f-aef34b9aab77","system_id":"levelo_inurba_marseille","lat":43.303084,"lon":5.391739,"is_reserved":false,"is_disabled":false,"rental_uris":{"android":"levelo://app?vid=5701faea-8080-4998-8b7f-aef34b9aab77","ios":"levelo://app?vid=5701faea-8080-4998-8b7f-aef34b9aab77"},"vehicle_type_id":"4","last_reported":1721675208,"current_range_meters":0,"station_id":"","pricing_plan_id":"cebpf4jnsgd1na2vs0mg"},{"bike_id":"37d4dc96-e906-47d7-b802-e45db89b7b45","system_id":"levelo_inurba_marseille","lat":43.29302,"lon":5.37458,"is_reserved":false,"is_disabled":false,"rental_uris":{"android":"levelo://app?vid=37d4dc96-e906-47d7-b802-e45db89b7b45","ios":"levelo://app?vid=37d4dc96-e906-47d7-b802-e45db89b7b45"},"vehicle_type_id":"4","last_reported":1721675208,"current_range_meters":0,"station_id":"ce4bgi12rcd13ifvqb70","pricing_plan_id":"cebpf4jnsgd1na2vs0mg"},{"bike_id":"f9b0b475-3f8c-4f58-bc4f-fc7f6c335560","system_id":"levelo_inurba_marseille","lat":43.303002,"lon":5.392142,"is_reserved":false,"is_disabled":false,"rental_uris":{"android":"levelo://app?vid=f9b0b475-3f8c-4f58-bc4f-fc7f6c335560","ios":"levelo://app?vid=f9b0b475-3f8c-4f58-bc4f-fc7f6c335560"},"vehicle_type_id":"4","last_reported":1721675208,"current_range_meters":28000,"station_id":"ce4bgkh2rcd13ifvqbk0","pricing_plan_id":"cebpf4jnsgd1na2vs0mg"},{"bike_id":"1f56f90b-f03c-4284-8ccf-b3bf783ac3b7","system_id":"levelo_inurba_marseille","lat":43.303002,"lon":5.392142,"is_reserved":false,"is_disabled":false,"rental_uris":{"android":"levelo://app?vid=1f56f90b-f03c-4284-8ccf-b3bf783ac3b7","ios":"levelo://app?vid=1f56f90b-f03c-4284-8ccf-b3bf783ac3b7"},"vehicle_type_id":"4","last_reported":1721675208,"current_range_meters":31200,"station_id":"ce4bgkh2rcd13ifvqbk0","pricing_plan_id":"cebpf4jnsgd1na2vs0mg"},{"bike_id":"830f1a12-51d2-46ea-b4a2-424bb2d36422","system_id":"levelo_inurba_marseille","lat":43.302992,"lon":5.392136,"is_reserved":false,"is_disabled":false,"rental_uris":{"android":"levelo://app?vid=830f1a12-51d2-46ea-b4a2-424bb2d36422","ios":"levelo://app?vid=830f1a12-51d2-46ea-b4a2-424bb2d36422"},"vehicle_type_id":"4","last_reported":1721675208,"current_range_meters":27200,"station_id":"ce4bgkh2rcd13ifvqbk0","pricing_plan_id":"cebpf4jnsgd1na2vs0mg"},{"bike_id":"b09d2a2b-8789-47f0-a715-27df10a74ad5","system_id":"levelo_inurba_marseille","lat":43.29378,"lon":5.37855,"is_reserved":false,"is_disabled":false,"rental_uris":{"android":"levelo://app?vid=b09d2a2b-8789-47f0-a715-27df10a74ad5","ios":"levelo://app?vid=b09d2a2b-8789-47f0-a715-27df10a74ad5"},"vehicle_type_id":"4","last_reported":1721675208,"current_range_meters":0,"station_id":"ce4bgjh2rcd13ifvqbf0","pricing_plan_id":"cebpf4jnsgd1na2vs0mg"},{"bike_id":"3b8b8f54-9dd9-4bd2-a7c9-fef2df803c18","system_id":"levelo_inurba_marseille","lat":43.2936,"lon":5.37835,"is_reserved":false,"is_disabled":false,"rental_uris":{"android":"levelo://app?vid=3b8b8f54-9dd9-4bd2-a7c9-fef2df803c18","ios":"levelo://app?vid=3b8b8f54-9dd9-4bd2-a7c9-fef2df803c18"},"vehicle_type_id":"4","last_reported":1721675208,"current_range_meters":2000,"station_id":"ce4bgjh2rcd13ifvqbf0","pricing_plan_id":"cebpf4jnsgd1na2vs0mg"},{"bike_id":"79836ec6-0908-46dc-83a5-ff70faba7898","system_id":"levelo_inurba_marseille","lat":43.2936,"lon":5.37835,"is_reserved":false,"is_disabled":false,"rental_uris":{"android":"levelo://app?vid=79836ec6-0908-46dc-83a5-ff70faba7898","ios":"levelo://app?vid=79836ec6-0908-46dc-83a5-ff70faba7898"},"vehicle_type_id":"4","last_reported":1721675208,"current_range_meters":23600,"station_id":"ce4bgjh2rcd13ifvqbf0","pricing_plan_id":"cebpf4jnsgd1na2vs0mg"},{"bike_id":"d74ec077-827d-4ed4-ab47-e1c3ec763311","system_id":"levelo_inurba_marseille","lat":43.2936,"lon":5.37835,"is_reserved":false,"is_disabled":false,"rental_uris":{"android":"levelo://app?vid=d74ec077-827d-4ed4-ab47-e1c3ec763311","ios":"levelo://app?vid=d74ec077-827d-4ed4-ab47-e1c3ec763311"},"vehicle_type_id":"4","last_reported":1721675208,"current_range_meters":20800,"station_id":"ce4bgjh2rcd13ifvqbf0","pricing_plan_id":"cebpf4jnsgd1na2vs0mg"},{"bike_id":"38f54d3f-2897-4e93-aaa6-2f1b8911d020","system_id":"levelo_inurba_marseille","lat":43.2936,"lon":5.37835,"is_reserved":false,"is_disabled":false,"rental_uris":{"android":"levelo://app?vid=38f54d3f-2897-4e93-aaa6-2f1b8911d020","ios":"levelo://app?vid=38f54d3f-2897-4e93-aaa6-2f1b8911d020"},"vehicle_type_id":"4","last_reported":1721675208,"current_range_meters":17200,"station_id":"ce4bgjh2rcd13ifvqbf0","pricing_plan_id":"cebpf4jnsgd1na2vs0mg"},{"bike_id":"53b47660-1d21-4630-b45b-6f8293682016","system_id":"levelo_inurba_marseille","lat":43.2936,"lon":5.37835,"is_reserved":false,"is_disabled":false,"rental_uris":{"android":"levelo://app?vid=53b47660-1d21-4630-b45b-6f8293682016","ios":"levelo://app?vid=53b47660-1d21-4630-b45b-6f8293682016"},"vehicle_type_id":"4","last_reported":1721675208,"current_range_meters":4000,"station_id":"ce4bgjh2rcd13ifvqbf0","pricing_plan_id":"cebpf4jnsgd1na2vs0mg"},{"bike_id":"f1876e4c-192b-4d29-9110-a1e4598fa04e","system_id":"levelo_inurba_marseille","lat":43.292311,"lon":5.360731,"is_reserved":false,"is_disabled":false,"rental_uris":{"android":"levelo://app?vid=f1876e4c-192b-4d29-9110-a1e4598fa04e","ios":"levelo://app?vid=f1876e4c-192b-4d29-9110-a1e4598fa04e"},"vehicle_type_id":"4","last_reported":1721675208,"current_range_meters":4000,"station_id":"ce4bhbh2rcd13ifvqeqg","pricing_plan_id":"cebpf4jnsgd1na2vs0mg"},{"bike_id":"9b2572d1-b093-415b-8e25-15cac4278c97","system_id":"levelo_inurba_marseille","lat":43.30085,"lon":5.390856,"is_reserved":false,"is_disabled":false,"rental_uris":{"android":"levelo://app?vid=9b2572d1-b093-415b-8e25-15cac4278c97","ios":"levelo://app?vid=9b2572d1-b093-415b-8e25-15cac4278c97"},"vehicle_type_id":"4","last_reported":1721675208,"current_range_meters":1200,"station_id":"ce4bh192rcd13ifvqdb0","pricing_plan_id":"cebpf4jnsgd1na2vs0mg"},{"bike_id":"511dfba4-1926-4823-ab21-1fa983b98c45","system_id":"levelo_inurba_marseille","lat":43.292212,"lon":5.360676,"is_reserved":false,"is_disabled":false,"rental_uris":{"android":"levelo://app?vid=511dfba4-1926-4823-ab21-1fa983b98c45","ios":"levelo://app?vid=511dfba4-1926-4823-ab21-1fa983b98c45"},"vehicle_type_id":"4","last_reported":1721675208,"current_range_meters":0,"station_id":"","pricing_plan_id":"cebpf4jnsgd1na2vs0mg"},{"bike_id":"9e789e51-0c57-4061-b652-179d2446521d","system_id":"levelo_inurba_marseille","lat":43.292311,"lon":5.360731,"is_reserved":false,"is_disabled":false,"rental_uris":{"android":"levelo://app?vid=9e789e51-0c57-4061-b652-179d2446521d","ios":"levelo://app?vid=9e789e51-0c57-4061-b652-179d2446521d"},"vehicle_type_id":"4","last_reported":1721675208,"current_range_meters":0,"station_id":"ce4bhbh2rcd13ifvqeqg","pricing_plan_id":"cebpf4jnsgd1na2vs0mg"},{"bike_id":"384af0e3-d9de-4573-b3e3-fe4c80a8fd69","system_id":"levelo_inurba_marseille","lat":43.30085,"lon":5.390856,"is_reserved":false,"is_disabled":false,"rental_uris":{"android":"levelo://app?vid=384af0e3-d9de-4573-b3e3-fe4c80a8fd69","ios":"levelo://app?vid=384af0e3-d9de-4573-b3e3-fe4c80a8fd69"},"vehicle_type_id":"4","last_reported":1721675208,"current_range_meters":5200,"station_id":"ce4bh192rcd13ifvqdb0","pricing_plan_id":"cebpf4jnsgd1na2vs0mg"},{"bike_id":"a894578e-5f08-424a-80b4-2886275701ac","system_id":"levelo_inurba_marseille","lat":43.298764,"lon":5.388973,"is_reserved":false,"is_disabled":false,"rental_uris":{"android":"levelo://app?vid=a894578e-5f08-424a-80b4-2886275701ac","ios":"levelo://app?vid=a894578e-5f08-424a-80b4-2886275701ac"},"vehicle_type_id":"4","last_reported":1721675208,"current_range_meters":400,"station_id":"ce4bh392rcd13ifvqdl0","pricing_plan_id":"cebpf4jnsgd1na2vs0mg"},{"bike_id":"2fef63b7-c790-4f2f-85a2-118bb2517be1","system_id":"levelo_inurba_marseille","lat":43.291291,"lon":5.369763,"is_reserved":false,"is_disabled":false,"rental_uris":{"android":"levelo://app?vid=2fef63b7-c790-4f2f-85a2-118bb2517be1","ios":"levelo://app?vid=2fef63b7-c790-4f2f-85a2-118bb2517be1"},"vehicle_type_id":"4","last_reported":1721675208,"current_range_meters":0,"station_id":"","pricing_plan_id":"cebpf4jnsgd1na2vs0mg"},{"bike_id":"cd6fa2ec-edaa-4dbe-a649-7a4acdfcd16b","system_id":"levelo_inurba_marseille","lat":43.29192,"lon":5.35806,"is_reserved":false,"is_disabled":false,"rental_uris":{"android":"levelo://app?vid=cd6fa2ec-edaa-4dbe-a649-7a4acdfcd16b","ios":"levelo://app?vid=cd6fa2ec-edaa-4dbe-a649-7a4acdfcd16b"},"vehicle_type_id":"4","last_reported":1721675208,"current_range_meters":21600,"station_id":"ce4bhb12rcd13ifvqel0","pricing_plan_id":"cebpf4jnsgd1na2vs0mg"},{"bike_id":"a6a13b56-002e-409f-818c-caa674cca414","system_id":"levelo_inurba_marseille","lat":43.313291,"lon":5.396838,"is_reserved":false,"is_disabled":false,"rental_uris":{"android":"levelo://app?vid=a6a13b56-002e-409f-818c-caa674cca414","ios":"levelo://app?vid=a6a13b56-002e-409f-818c-caa674cca414"},"vehicle_type_id":"4","last_reported":1721675208,"current_range_meters":24000,"station_id":"ce4bgvp2rcd13ifvqcu0","pricing_plan_id":"cebpf4jnsgd1na2vs0mg"},{"bike_id":"dc77515d-a9c9-404f-87bc-27bd93bed2bf","system_id":"levelo_inurba_marseille","lat":43.30886,"lon":5.39643,"is_reserved":false,"is_disabled":false,"rental_uris":{"android":"levelo://app?vid=dc77515d-a9c9-404f-87bc-27bd93bed2bf","ios":"levelo://app?vid=dc77515d-a9c9-404f-87bc-27bd93bed2bf"},"vehicle_type_id":"4","last_reported":1721675208,"current_range_meters":0,"station_id":"ce4bh012rcd13ifvqcv0","pricing_plan_id":"cebpf4jnsgd1na2vs0mg"},{"bike_id":"850396af-d5dd-45d7-9f94-fd605b7fb345","system_id":"levelo_inurba_marseille","lat":43.313291,"lon":5.396838,"is_reserved":false,"is_disabled":false,"rental_uris":{"android":"levelo://app?vid=850396af-d5dd-45d7-9f94-fd605b7fb345","ios":"levelo://app?vid=850396af-d5dd-45d7-9f94-fd605b7fb345"},"vehicle_type_id":"4","last_reported":1721675208,"current_range_meters":8400,"station_id":"ce4bgvp2rcd13ifvqcu0","pricing_plan_id":"cebpf4jnsgd1na2vs0mg"},{"bike_id":"da061ab9-bbbd-44af-8152-c8c41c9a4b77","system_id":"levelo_inurba_marseille","lat":43.31328,"lon":5.39691,"is_reserved":false,"is_disabled":false,"rental_uris":{"android":"levelo://app?vid=da061ab9-bbbd-44af-8152-c8c41c9a4b77","ios":"levelo://app?vid=da061ab9-bbbd-44af-8152-c8c41c9a4b77"},"vehicle_type_id":"4","last_reported":1721675208,"current_range_meters":0,"station_id":"ce4bgvp2rcd13ifvqcu0","pricing_plan_id":"cebpf4jnsgd1na2vs0mg"},{"bike_id":"34cb4ae9-98f0-4dd7-9936-714a02aaf1d4","system_id":"levelo_inurba_marseille","lat":43.29188,"lon":5.358,"is_reserved":false,"is_disabled":false,"rental_uris":{"android":"levelo://app?vid=34cb4ae9-98f0-4dd7-9936-714a02aaf1d4","ios":"levelo://app?vid=34cb4ae9-98f0-4dd7-9936-714a02aaf1d4"},"vehicle_type_id":"4","last_reported":1721675208,"current_range_meters":22800,"station_id":"ce4bhb12rcd13ifvqel0","pricing_plan_id":"cebpf4jnsgd1na2vs0mg"},{"bike_id":"e8160f1a-b438-457e-a47f-404bf016a438","system_id":"levelo_inurba_marseille","lat":43.313291,"lon":5.396838,"is_reserved":false,"is_disabled":false,"rental_uris":{"android":"levelo://app?vid=e8160f1a-b438-457e-a47f-404bf016a438","ios":"levelo://app?vid=e8160f1a-b438-457e-a47f-404bf016a438"},"vehicle_type_id":"4","last_reported":1721675208,"current_range_meters":20800,"station_id":"ce4bgvp2rcd13ifvqcu0","pricing_plan_id":"cebpf4jnsgd1na2vs0mg"},{"bike_id":"b86eb106-da4d-49ae-bea7-0b6f5d139e31","system_id":"levelo_inurba_marseille","lat":43.309047,"lon":5.396551,"is_reserved":false,"is_disabled":false,"rental_uris":{"android":"levelo://app?vid=b86eb106-da4d-49ae-bea7-0b6f5d139e31","ios":"levelo://app?vid=b86eb106-da4d-49ae-bea7-0b6f5d139e31"},"vehicle_type_id":"4","last_reported":1721675208,"current_range_meters":29600,"station_id":"ce4bh012rcd13ifvqcv0","pricing_plan_id":"cebpf4jnsgd1na2vs0mg"},{"bike_id":"0b6434be-b1b5-449d-84f0-aa2f8e20d008","system_id":"levelo_inurba_marseille","lat":43.309038,"lon":5.396546,"is_reserved":false,"is_disabled":false,"rental_uris":{"android":"levelo://app?vid=0b6434be-b1b5-449d-84f0-aa2f8e20d008","ios":"levelo://app?vid=0b6434be-b1b5-449d-84f0-aa2f8e20d008"},"vehicle_type_id":"4","last_reported":1721675208,"current_range_meters":7200,"station_id":"ce4bh012rcd13ifvqcv0","pricing_plan_id":"cebpf4jnsgd1na2vs0mg"},{"bike_id":"11658ab2-746b-4e21-bcf2-9d2bd8800ca7","system_id":"levelo_inurba_marseille","lat":43.309047,"lon":5.396551,"is_reserved":false,"is_disabled":false,"rental_uris":{"android":"levelo://app?vid=11658ab2-746b-4e21-bcf2-9d2bd8800ca7","ios":"levelo://app?vid=11658ab2-746b-4e21-bcf2-9d2bd8800ca7"},"vehicle_type_id":"4","last_reported":1721675208,"current_range_meters":22400,"station_id":"ce4bh012rcd13ifvqcv0","pricing_plan_id":"cebpf4jnsgd1na2vs0mg"},{"bike_id":"70f78c17-9589-4b5e-a97c-f32223b6c3ee","system_id":"levelo_inurba_marseille","lat":43.29535,"lon":5.38545,"is_reserved":false,"is_disabled":false,"rental_uris":{"android":"levelo://app?vid=70f78c17-9589-4b5e-a97c-f32223b6c3ee","ios":"levelo://app?vid=70f78c17-9589-4b5e-a97c-f32223b6c3ee"},"vehicle_type_id":"4","last_reported":1721675208,"current_range_meters":0,"station_id":"ce4bgih2rcd13ifvqba0","pricing_plan_id":"cebpf4jnsgd1na2vs0mg"},{"bike_id":"2550b5be-2d8f-4ce2-8aad-6d1cabf76186","system_id":"levelo_inurba_marseille","lat":43.29529,"lon":5.385581,"is_reserved":false,"is_disabled":false,"rental_uris":{"android":"levelo://app?vid=2550b5be-2d8f-4ce2-8aad-6d1cabf76186","ios":"levelo://app?vid=2550b5be-2d8f-4ce2-8aad-6d1cabf76186"},"vehicle_type_id":"4","last_reported":1721675208,"current_range_meters":21200,"station_id":"ce4bgih2rcd13ifvqba0","pricing_plan_id":"cebpf4jnsgd1na2vs0mg"},{"bike_id":"e9880015-ebab-469f-9d55-1b2dbac1c1dc","system_id":"levelo_inurba_marseille","lat":43.2907,"lon":5.37156,"is_reserved":false,"is_disabled":false,"rental_uris":{"android":"levelo://app?vid=e9880015-ebab-469f-9d55-1b2dbac1c1dc","ios":"levelo://app?vid=e9880015-ebab-469f-9d55-1b2dbac1c1dc"},"vehicle_type_id":"4","last_reported":1721675208,"current_range_meters":13200,"station_id":"ce4bh5p2rcd13ifvqe4g","pricing_plan_id":"cebpf4jnsgd1na2vs0mg"},{"bike_id":"a8af059f-94ea-45c8-9021-ce54d498c5e3","system_id":"levelo_inurba_marseille","lat":43.290779,"lon":5.371482,"is_reserved":false,"is_disabled":false,"rental_uris":{"android":"levelo://app?vid=a8af059f-94ea-45c8-9021-ce54d498c5e3","ios":"levelo://app?vid=a8af059f-94ea-45c8-9021-ce54d498c5e3"},"vehicle_type_id":"4","last_reported":1721675208,"current_range_meters":1200,"station_id":"ce4bh5p2rcd13ifvqe4g","pricing_plan_id":"cebpf4jnsgd1na2vs0mg"},{"bike_id":"d0418c50-d85b-4ee6-8da4-766833a7629f","system_id":"levelo_inurba_marseille","lat":43.29062,"lon":5.37167,"is_reserved":false,"is_disabled":false,"rental_uris":{"android":"levelo://app?vid=d0418c50-d85b-4ee6-8da4-766833a7629f","ios":"levelo://app?vid=d0418c50-d85b-4ee6-8da4-766833a7629f"},"vehicle_type_id":"4","last_reported":1721675208,"current_range_meters":3200,"station_id":"ce4bh5p2rcd13ifvqe4g","pricing_plan_id":"cebpf4jnsgd1na2vs0mg"},{"bike_id":"a535a8b7-1e1e-40e6-868a-6f2ebf54f76c","system_id":"levelo_inurba_marseille","lat":43.29044,"lon":5.370453,"is_reserved":false,"is_disabled":false,"rental_uris":{"android":"levelo://app?vid=a535a8b7-1e1e-40e6-868a-6f2ebf54f76c","ios":"levelo://app?vid=a535a8b7-1e1e-40e6-868a-6f2ebf54f76c"},"vehicle_type_id":"4","last_reported":1721675208,"current_range_meters":6000,"station_id":"","pricing_plan_id":"cebpf4jnsgd1na2vs0mg"},{"bike_id":"b9f24b68-7d47-41a5-a149-f7d87dab59f5","system_id":"levelo_inurba_marseille","lat":43.289184,"lon":5.366408,"is_reserved":false,"is_disabled":false,"rental_uris":{"android":"levelo://app?vid=b9f24b68-7d47-41a5-a149-f7d87dab59f5","ios":"levelo://app?vid=b9f24b68-7d47-41a5-a149-f7d87dab59f5"},"vehicle_type_id":"4","last_reported":1721675208,"current_range_meters":19200,"station_id":"ce4bhap2rcd13ifvqek0","pricing_plan_id":"cebpf4jnsgd1na2vs0mg"},{"bike_id":"f08e2528-5f49-42c8-a800-118e03ebecbe","system_id":"levelo_inurba_marseille","lat":43.302008,"lon":5.394694,"is_reserved":false,"is_disabled":false,"rental_uris":{"android":"levelo://app?vid=f08e2528-5f49-42c8-a800-118e03ebecbe","ios":"levelo://app?vid=f08e2528-5f49-42c8-a800-118e03ebecbe"},"vehicle_type_id":"4","last_reported":1721675208,"current_range_meters":0,"station_id":"ce4bh0p2rcd13ifvqd70","pricing_plan_id":"cebpf4jnsgd1na2vs0mg"},{"bike_id":"8be30041-c5df-4d95-84ac-36d973e3e368","system_id":"levelo_inurba_marseille","lat":43.289527,"lon":5.364633,"is_reserved":false,"is_disabled":false,"rental_uris":{"android":"levelo://app?vid=8be30041-c5df-4d95-84ac-36d973e3e368","ios":"levelo://app?vid=8be30041-c5df-4d95-84ac-36d973e3e368"},"vehicle_type_id":"4","last_reported":1721675208,"current_range_meters":3200,"station_id":"","pricing_plan_id":"cebpf4jnsgd1na2vs0mg"},{"bike_id":"01a6972f-2799-4081-836e-094576faa636","system_id":"levelo_inurba_marseille","lat":43.28947,"lon":5.36635,"is_reserved":false,"is_disabled":false,"rental_uris":{"android":"levelo://app?vid=01a6972f-2799-4081-836e-094576faa636","ios":"levelo://app?vid=01a6972f-2799-4081-836e-094576faa636"},"vehicle_type_id":"4","last_reported":1721675208,"current_range_meters":5600,"station_id":"ce4bhap2rcd13ifvqek0","pricing_plan_id":"cebpf4jnsgd1na2vs0mg"},{"bike_id":"9c7db638-4287-4c5f-a9c6-33e256e00b69","system_id":"levelo_inurba_marseille","lat":43.28946,"lon":5.36624,"is_reserved":false,"is_disabled":false,"rental_uris":{"android":"levelo://app?vid=9c7db638-4287-4c5f-a9c6-33e256e00b69","ios":"levelo://app?vid=9c7db638-4287-4c5f-a9c6-33e256e00b69"},"vehicle_type_id":"4","last_reported":1721675208,"current_range_meters":14000,"station_id":"ce4bhap2rcd13ifvqek0","pricing_plan_id":"cebpf4jnsgd1na2vs0mg"},{"bike_id":"b43e7e4c-9857-4774-941a-6c7a38899ba2","system_id":"levelo_inurba_marseille","lat":43.29416,"lon":5.38628,"is_reserved":false,"is_disabled":false,"rental_uris":{"android":"levelo://app?vid=b43e7e4c-9857-4774-941a-6c7a38899ba2","ios":"levelo://app?vid=b43e7e4c-9857-4774-941a-6c7a38899ba2"},"vehicle_type_id":"4","last_reported":1721675208,"current_range_meters":0,"station_id":"ce4bh2h2rcd13ifvqdh0","pricing_plan_id":"cebpf4jnsgd1na2vs0mg"},{"bike_id":"4cdf53a9-74c0-48c3-835b-ec33c0bb8545","system_id":"levelo_inurba_marseille","lat":43.290319,"lon":5.375732,"is_reserved":false,"is_disabled":false,"rental_uris":{"android":"levelo://app?vid=4cdf53a9-74c0-48c3-835b-ec33c0bb8545","ios":"levelo://app?vid=4cdf53a9-74c0-48c3-835b-ec33c0bb8545"},"vehicle_type_id":"4","last_reported":1721675208,"current_range_meters":29200,"station_id":"ce4bh692rcd13ifvqe90","pricing_plan_id":"cebpf4jnsgd1na2vs0mg"},{"bike_id":"c05c6b5a-ce75-4e29-b1eb-40e0b10d2d5e","system_id":"levelo_inurba_marseille","lat":43.28942,"lon":5.36632,"is_reserved":false,"is_disabled":false,"rental_uris":{"android":"levelo://app?vid=c05c6b5a-ce75-4e29-b1eb-40e0b10d2d5e","ios":"levelo://app?vid=c05c6b5a-ce75-4e29-b1eb-40e0b10d2d5e"},"vehicle_type_id":"4","last_reported":1721675208,"current_range_meters":28000,"station_id":"ce4bhap2rcd13ifvqek0","pricing_plan_id":"cebpf4jnsgd1na2vs0mg"},{"bike_id":"9f307a35-2734-4720-a875-6262ca622ed5","system_id":"levelo_inurba_marseille","lat":43.289184,"lon":5.366408,"is_reserved":false,"is_disabled":false,"rental_uris":{"android":"levelo://app?vid=9f307a35-2734-4720-a875-6262ca622ed5","ios":"levelo://app?vid=9f307a35-2734-4720-a875-6262ca622ed5"},"vehicle_type_id":"4","last_reported":1721675208,"current_range_meters":2800,"station_id":"ce4bhap2rcd13ifvqek0","pricing_plan_id":"cebpf4jnsgd1na2vs0mg"},{"bike_id":"b6729c1e-dec7-4623-9fcb-6d869efd476d","system_id":"levelo_inurba_marseille","lat":43.289184,"lon":5.366408,"is_reserved":false,"is_disabled":false,"rental_uris":{"android":"levelo://app?vid=b6729c1e-dec7-4623-9fcb-6d869efd476d","ios":"levelo://app?vid=b6729c1e-dec7-4623-9fcb-6d869efd476d"},"vehicle_type_id":"4","last_reported":1721675208,"current_range_meters":22800,"station_id":"ce4bhap2rcd13ifvqek0","pricing_plan_id":"cebpf4jnsgd1na2vs0mg"},{"bike_id":"59f9b04b-3e5a-4f03-a1a3-6dfe2fc4b4d8","system_id":"levelo_inurba_marseille","lat":43.28939,"lon":5.36627,"is_reserved":false,"is_disabled":false,"rental_uris":{"android":"levelo://app?vid=59f9b04b-3e5a-4f03-a1a3-6dfe2fc4b4d8","ios":"levelo://app?vid=59f9b04b-3e5a-4f03-a1a3-6dfe2fc4b4d8"},"vehicle_type_id":"4","last_reported":1721675208,"current_range_meters":800,"station_id":"ce4bhap2rcd13ifvqek0","pricing_plan_id":"cebpf4jnsgd1na2vs0mg"},{"bike_id":"b0a60893-496f-420a-9884-1cc3c9cc2f48","system_id":"levelo_inurba_marseille","lat":43.289468,"lon":5.363719,"is_reserved":false,"is_disabled":false,"rental_uris":{"android":"levelo://app?vid=b0a60893-496f-420a-9884-1cc3c9cc2f48","ios":"levelo://app?vid=b0a60893-496f-420a-9884-1cc3c9cc2f48"},"vehicle_type_id":"4","last_reported":1721675208,"current_range_meters":20400,"station_id":"ce4bhc92rcd13ifvqetg","pricing_plan_id":"cebpf4jnsgd1na2vs0mg"},{"bike_id":"2966e724-8322-4cd8-a8a0-e646561e1ac7","system_id":"levelo_inurba_marseille","lat":43.28938,"lon":5.36633,"is_reserved":false,"is_disabled":false,"rental_uris":{"android":"levelo://app?vid=2966e724-8322-4cd8-a8a0-e646561e1ac7","ios":"levelo://app?vid=2966e724-8322-4cd8-a8a0-e646561e1ac7"},"vehicle_type_id":"4","last_reported":1721675208,"current_range_meters":0,"station_id":"ce4bhap2rcd13ifvqek0","pricing_plan_id":"cebpf4jnsgd1na2vs0mg"},{"bike_id":"30ac96b6-7865-485d-8704-09ba36682d95","system_id":"levelo_inurba_marseille","lat":43.289184,"lon":5.366408,"is_reserved":false,"is_disabled":false,"rental_uris":{"android":"levelo://app?vid=30ac96b6-7865-485d-8704-09ba36682d95","ios":"levelo://app?vid=30ac96b6-7865-485d-8704-09ba36682d95"},"vehicle_type_id":"4","last_reported":1721675208,"current_range_meters":26000,"station_id":"ce4bhap2rcd13ifvqek0","pricing_plan_id":"cebpf4jnsgd1na2vs0mg"},{"bike_id":"95a4806a-5cce-4871-9b13-0b725da8ab9d","system_id":"levelo_inurba_marseille","lat":43.28934,"lon":5.36632,"is_reserved":false,"is_disabled":false,"rental_uris":{"android":"levelo://app?vid=95a4806a-5cce-4871-9b13-0b725da8ab9d","ios":"levelo://app?vid=95a4806a-5cce-4871-9b13-0b725da8ab9d"},"vehicle_type_id":"4","last_reported":1721675208,"current_range_meters":0,"station_id":"ce4bhap2rcd13ifvqek0","pricing_plan_id":"cebpf4jnsgd1na2vs0mg"},{"bike_id":"f3e91ed2-d09b-462c-80bf-0d01071ff441","system_id":"levelo_inurba_marseille","lat":43.289468,"lon":5.363719,"is_reserved":false,"is_disabled":false,"rental_uris":{"android":"levelo://app?vid=f3e91ed2-d09b-462c-80bf-0d01071ff441","ios":"levelo://app?vid=f3e91ed2-d09b-462c-80bf-0d01071ff441"},"vehicle_type_id":"4","last_reported":1721675208,"current_range_meters":0,"station_id":"ce4bhc92rcd13ifvqetg","pricing_plan_id":"cebpf4jnsgd1na2vs0mg"},{"bike_id":"72d574d1-5942-46f9-894a-2c8e4a99fee2","system_id":"levelo_inurba_marseille","lat":43.289394,"lon":5.363982,"is_reserved":false,"is_disabled":false,"rental_uris":{"android":"levelo://app?vid=72d574d1-5942-46f9-894a-2c8e4a99fee2","ios":"levelo://app?vid=72d574d1-5942-46f9-894a-2c8e4a99fee2"},"vehicle_type_id":"4","last_reported":1721675208,"current_range_meters":0,"station_id":"ce4bhc92rcd13ifvqetg","pricing_plan_id":"cebpf4jnsgd1na2vs0mg"},{"bike_id":"38ae46c8-7de8-4311-b4d3-4501124810fe","system_id":"levelo_inurba_marseille","lat":43.289468,"lon":5.363719,"is_reserved":false,"is_disabled":false,"rental_uris":{"android":"levelo://app?vid=38ae46c8-7de8-4311-b4d3-4501124810fe","ios":"levelo://app?vid=38ae46c8-7de8-4311-b4d3-4501124810fe"},"vehicle_type_id":"4","last_reported":1721675208,"current_range_meters":10800,"station_id":"ce4bhc92rcd13ifvqetg","pricing_plan_id":"cebpf4jnsgd1na2vs0mg"},{"bike_id":"ab0d166a-c4aa-4a2a-aa2d-7270dcf6e9cb","system_id":"levelo_inurba_marseille","lat":43.289468,"lon":5.363719,"is_reserved":false,"is_disabled":false,"rental_uris":{"android":"levelo://app?vid=ab0d166a-c4aa-4a2a-aa2d-7270dcf6e9cb","ios":"levelo://app?vid=ab0d166a-c4aa-4a2a-aa2d-7270dcf6e9cb"},"vehicle_type_id":"4","last_reported":1721675208,"current_range_meters":29600,"station_id":"ce4bhc92rcd13ifvqetg","pricing_plan_id":"cebpf4jnsgd1na2vs0mg"},{"bike_id":"e3120f09-2cc3-41bd-b360-e84240e16d8e","system_id":"levelo_inurba_marseille","lat":43.29139,"lon":5.3806,"is_reserved":false,"is_disabled":false,"rental_uris":{"android":"levelo://app?vid=e3120f09-2cc3-41bd-b360-e84240e16d8e","ios":"levelo://app?vid=e3120f09-2cc3-41bd-b360-e84240e16d8e"},"vehicle_type_id":"4","last_reported":1721675208,"current_range_meters":22000,"station_id":"","pricing_plan_id":"cebpf4jnsgd1na2vs0mg"},{"bike_id":"2180bad4-929b-4b5d-81b2-1c267dc7a720","system_id":"levelo_inurba_marseille","lat":43.29135,"lon":5.38065,"is_reserved":false,"is_disabled":false,"rental_uris":{"android":"levelo://app?vid=2180bad4-929b-4b5d-81b2-1c267dc7a720","ios":"levelo://app?vid=2180bad4-929b-4b5d-81b2-1c267dc7a720"},"vehicle_type_id":"4","last_reported":1721675208,"current_range_meters":0,"station_id":"","pricing_plan_id":"cebpf4jnsgd1na2vs0mg"},{"bike_id":"6b3fbdb7-f106-45b0-b9ac-f47bfd846db1","system_id":"levelo_inurba_marseille","lat":43.292642,"lon":5.384254,"is_reserved":false,"is_disabled":false,"rental_uris":{"android":"levelo://app?vid=6b3fbdb7-f106-45b0-b9ac-f47bfd846db1","ios":"levelo://app?vid=6b3fbdb7-f106-45b0-b9ac-f47bfd846db1"},"vehicle_type_id":"4","last_reported":1721675208,"current_range_meters":0,"station_id":"ce4bh692rcd13ifvqea0","pricing_plan_id":"cebpf4jnsgd1na2vs0mg"},{"bike_id":"7cd60dd7-8228-4fa3-ac32-56ae27682814","system_id":"levelo_inurba_marseille","lat":43.292642,"lon":5.384254,"is_reserved":false,"is_disabled":false,"rental_uris":{"android":"levelo://app?vid=7cd60dd7-8228-4fa3-ac32-56ae27682814","ios":"levelo://app?vid=7cd60dd7-8228-4fa3-ac32-56ae27682814"},"vehicle_type_id":"4","last_reported":1721675208,"current_range_meters":25600,"station_id":"ce4bh692rcd13ifvqea0","pricing_plan_id":"cebpf4jnsgd1na2vs0mg"},{"bike_id":"b61782b6-168e-41bb-b019-da7edbb020a9","system_id":"levelo_inurba_marseille","lat":43.29271,"lon":5.38444,"is_reserved":false,"is_disabled":false,"rental_uris":{"android":"levelo://app?vid=b61782b6-168e-41bb-b019-da7edbb020a9","ios":"levelo://app?vid=b61782b6-168e-41bb-b019-da7edbb020a9"},"vehicle_type_id":"4","last_reported":1721675208,"current_range_meters":0,"station_id":"ce4bh692rcd13ifvqea0","pricing_plan_id":"cebpf4jnsgd1na2vs0mg"},{"bike_id":"9cd42aaa-b6ee-42ae-b925-6cb679e53b5a","system_id":"levelo_inurba_marseille","lat":43.29275,"lon":5.38454,"is_reserved":false,"is_disabled":false,"rental_uris":{"android":"levelo://app?vid=9cd42aaa-b6ee-42ae-b925-6cb679e53b5a","ios":"levelo://app?vid=9cd42aaa-b6ee-42ae-b925-6cb679e53b5a"},"vehicle_type_id":"4","last_reported":1721675208,"current_range_meters":10800,"station_id":"ce4bh692rcd13ifvqea0","pricing_plan_id":"cebpf4jnsgd1na2vs0mg"},{"bike_id":"5243b981-882e-4f63-9067-5fe107db13f9","system_id":"levelo_inurba_marseille","lat":43.29271,"lon":5.3845,"is_reserved":false,"is_disabled":false,"rental_uris":{"android":"levelo://app?vid=5243b981-882e-4f63-9067-5fe107db13f9","ios":"levelo://app?vid=5243b981-882e-4f63-9067-5fe107db13f9"},"vehicle_type_id":"4","last_reported":1721675208,"current_range_meters":6000,"station_id":"ce4bh692rcd13ifvqea0","pricing_plan_id":"cebpf4jnsgd1na2vs0mg"},{"bike_id":"c4dd7b9f-8ba1-4a4b-b8fd-063ef599bd45","system_id":"levelo_inurba_marseille","lat":43.29262,"lon":5.38433,"is_reserved":false,"is_disabled":false,"rental_uris":{"android":"levelo://app?vid=c4dd7b9f-8ba1-4a4b-b8fd-063ef599bd45","ios":"levelo://app?vid=c4dd7b9f-8ba1-4a4b-b8fd-063ef599bd45"},"vehicle_type_id":"4","last_reported":1721675208,"current_range_meters":16400,"station_id":"ce4bh692rcd13ifvqea0","pricing_plan_id":"cebpf4jnsgd1na2vs0mg"},{"bike_id":"55fc5f90-50f6-48e8-990e-90b22b6c4777","system_id":"levelo_inurba_marseille","lat":43.30422,"lon":5.39743,"is_reserved":false,"is_disabled":false,"rental_uris":{"android":"levelo://app?vid=55fc5f90-50f6-48e8-990e-90b22b6c4777","ios":"levelo://app?vid=55fc5f90-50f6-48e8-990e-90b22b6c4777"},"vehicle_type_id":"4","last_reported":1721675208,"current_range_meters":30400,"station_id":"ce4bh092rcd13ifvqd20","pricing_plan_id":"cebpf4jnsgd1na2vs0mg"},{"bike_id":"fd74e4ae-b52b-4241-b34e-59c3799a3a99","system_id":"levelo_inurba_marseille","lat":43.29264,"lon":5.38441,"is_reserved":false,"is_disabled":false,"rental_uris":{"android":"levelo://app?vid=fd74e4ae-b52b-4241-b34e-59c3799a3a99","ios":"levelo://app?vid=fd74e4ae-b52b-4241-b34e-59c3799a3a99"},"vehicle_type_id":"4","last_reported":1721675208,"current_range_meters":0,"station_id":"ce4bh692rcd13ifvqea0","pricing_plan_id":"cebpf4jnsgd1na2vs0mg"},{"bike_id":"43f4d871-f78d-4425-8ea6-0335d96c0366","system_id":"levelo_inurba_marseille","lat":43.29263,"lon":5.38439,"is_reserved":false,"is_disabled":false,"rental_uris":{"android":"levelo://app?vid=43f4d871-f78d-4425-8ea6-0335d96c0366","ios":"levelo://app?vid=43f4d871-f78d-4425-8ea6-0335d96c0366"},"vehicle_type_id":"4","last_reported":1721675208,"current_range_meters":17200,"station_id":"ce4bh692rcd13ifvqea0","pricing_plan_id":"cebpf4jnsgd1na2vs0mg"},{"bike_id":"3aa6c6e0-05e6-4661-a09c-3e5d5c2afc33","system_id":"levelo_inurba_marseille","lat":43.29268,"lon":5.38452,"is_reserved":false,"is_disabled":false,"rental_uris":{"android":"levelo://app?vid=3aa6c6e0-05e6-4661-a09c-3e5d5c2afc33","ios":"levelo://app?vid=3aa6c6e0-05e6-4661-a09c-3e5d5c2afc33"},"vehicle_type_id":"4","last_reported":1721675208,"current_range_meters":19600,"station_id":"ce4bh692rcd13ifvqea0","pricing_plan_id":"cebpf4jnsgd1na2vs0mg"},{"bike_id":"39570ada-380b-4de6-998d-cb45ff584c34","system_id":"levelo_inurba_marseille","lat":43.29262,"lon":5.38442,"is_reserved":false,"is_disabled":false,"rental_uris":{"android":"levelo://app?vid=39570ada-380b-4de6-998d-cb45ff584c34","ios":"levelo://app?vid=39570ada-380b-4de6-998d-cb45ff584c34"},"vehicle_type_id":"4","last_reported":1721675208,"current_range_meters":0,"station_id":"ce4bh692rcd13ifvqea0","pricing_plan_id":"cebpf4jnsgd1na2vs0mg"},{"bike_id":"b30ad7ee-c0fc-4bd7-953f-2b430d4c4690","system_id":"levelo_inurba_marseille","lat":43.29003,"lon":5.35615,"is_reserved":false,"is_disabled":false,"rental_uris":{"android":"levelo://app?vid=b30ad7ee-c0fc-4bd7-953f-2b430d4c4690","ios":"levelo://app?vid=b30ad7ee-c0fc-4bd7-953f-2b430d4c4690"},"vehicle_type_id":"4","last_reported":1721675208,"current_range_meters":30000,"station_id":"ce4bhb92rcd13ifvqen0","pricing_plan_id":"cebpf4jnsgd1na2vs0mg"},{"bike_id":"36e65f1f-a2d9-4d25-bfe7-0106e9b084bb","system_id":"levelo_inurba_marseille","lat":43.290103,"lon":5.356114,"is_reserved":false,"is_disabled":false,"rental_uris":{"android":"levelo://app?vid=36e65f1f-a2d9-4d25-bfe7-0106e9b084bb","ios":"levelo://app?vid=36e65f1f-a2d9-4d25-bfe7-0106e9b084bb"},"vehicle_type_id":"4","last_reported":1721675208,"current_range_meters":0,"station_id":"ce4bhb92rcd13ifvqen0","pricing_plan_id":"cebpf4jnsgd1na2vs0mg"},{"bike_id":"88803c32-4e78-4ece-afb5-52d1c043ea11","system_id":"levelo_inurba_marseille","lat":43.295169,"lon":5.390426,"is_reserved":false,"is_disabled":false,"rental_uris":{"android":"levelo://app?vid=88803c32-4e78-4ece-afb5-52d1c043ea11","ios":"levelo://app?vid=88803c32-4e78-4ece-afb5-52d1c043ea11"},"vehicle_type_id":"4","last_reported":1721675208,"current_range_meters":24800,"station_id":"ce4bh3p2rcd13ifvqdp0","pricing_plan_id":"cebpf4jnsgd1na2vs0mg"},{"bike_id":"3b28b090-f03e-4d97-b70e-fb7575b4bdf7","system_id":"levelo_inurba_marseille","lat":43.297807,"lon":5.393533,"is_reserved":false,"is_disabled":false,"rental_uris":{"android":"levelo://app?vid=3b28b090-f03e-4d97-b70e-fb7575b4bdf7","ios":"levelo://app?vid=3b28b090-f03e-4d97-b70e-fb7575b4bdf7"},"vehicle_type_id":"4","last_reported":1721675208,"current_range_meters":3200,"station_id":"chh1huq6cuj3fo74tm60","pricing_plan_id":"cebpf4jnsgd1na2vs0mg"},{"bike_id":"f869b3b5-1e75-4d3d-88a5-e36d93548ccc","system_id":"levelo_inurba_marseille","lat":43.295169,"lon":5.390426,"is_reserved":false,"is_disabled":false,"rental_uris":{"android":"levelo://app?vid=f869b3b5-1e75-4d3d-88a5-e36d93548ccc","ios":"levelo://app?vid=f869b3b5-1e75-4d3d-88a5-e36d93548ccc"},"vehicle_type_id":"4","last_reported":1721675208,"current_range_meters":0,"station_id":"ce4bh3p2rcd13ifvqdp0","pricing_plan_id":"cebpf4jnsgd1na2vs0mg"},{"bike_id":"e3a94db4-0088-4c6c-b921-9c7de04efd17","system_id":"levelo_inurba_marseille","lat":43.33017,"lon":5.39043,"is_reserved":false,"is_disabled":false,"rental_uris":{"android":"levelo://app?vid=e3a94db4-0088-4c6c-b921-9c7de04efd17","ios":"levelo://app?vid=e3a94db4-0088-4c6c-b921-9c7de04efd17"},"vehicle_type_id":"4","last_reported":1721675208,"current_range_meters":26800,"station_id":"ce4bhr92rcd13ifvqhrg","pricing_plan_id":"cebpf4jnsgd1na2vs0mg"},{"bike_id":"63334e39-55c3-4e46-970b-4cc8ffb5ad84","system_id":"levelo_inurba_marseille","lat":43.330442,"lon":5.389148,"is_reserved":false,"is_disabled":false,"rental_uris":{"android":"levelo://app?vid=63334e39-55c3-4e46-970b-4cc8ffb5ad84","ios":"levelo://app?vid=63334e39-55c3-4e46-970b-4cc8ffb5ad84"},"vehicle_type_id":"4","last_reported":1721675208,"current_range_meters":14400,"station_id":"ce4bhr92rcd13ifvqhrg","pricing_plan_id":"cebpf4jnsgd1na2vs0mg"},{"bike_id":"d34d060d-37c0-4a8d-a02a-a07a0cd21a44","system_id":"levelo_inurba_marseille","lat":43.330442,"lon":5.389148,"is_reserved":false,"is_disabled":false,"rental_uris":{"android":"levelo://app?vid=d34d060d-37c0-4a8d-a02a-a07a0cd21a44","ios":"levelo://app?vid=d34d060d-37c0-4a8d-a02a-a07a0cd21a44"},"vehicle_type_id":"4","last_reported":1721675208,"current_range_meters":18000,"station_id":"ce4bhr92rcd13ifvqhrg","pricing_plan_id":"cebpf4jnsgd1na2vs0mg"},{"bike_id":"e16275fa-b087-4e21-9474-9f0ae48aa585","system_id":"levelo_inurba_marseille","lat":43.28974,"lon":5.37839,"is_reserved":false,"is_disabled":false,"rental_uris":{"android":"levelo://app?vid=e16275fa-b087-4e21-9474-9f0ae48aa585","ios":"levelo://app?vid=e16275fa-b087-4e21-9474-9f0ae48aa585"},"vehicle_type_id":"4","last_reported":1721675208,"current_range_meters":0,"station_id":"ce4bh9p2rcd13ifvqed0","pricing_plan_id":"cebpf4jnsgd1na2vs0mg"},{"bike_id":"f7120f16-7260-45cc-a3ed-76a87f3850b4","system_id":"levelo_inurba_marseille","lat":43.33025,"lon":5.39044,"is_reserved":false,"is_disabled":false,"rental_uris":{"android":"levelo://app?vid=f7120f16-7260-45cc-a3ed-76a87f3850b4","ios":"levelo://app?vid=f7120f16-7260-45cc-a3ed-76a87f3850b4"},"vehicle_type_id":"4","last_reported":1721675208,"current_range_meters":31200,"station_id":"ce4bhr92rcd13ifvqhrg","pricing_plan_id":"cebpf4jnsgd1na2vs0mg"},{"bike_id":"53afa447-57c8-4ba3-b646-d1a9df056026","system_id":"levelo_inurba_marseille","lat":43.295169,"lon":5.390426,"is_reserved":false,"is_disabled":false,"rental_uris":{"android":"levelo://app?vid=53afa447-57c8-4ba3-b646-d1a9df056026","ios":"levelo://app?vid=53afa447-57c8-4ba3-b646-d1a9df056026"},"vehicle_type_id":"4","last_reported":1721675208,"current_range_meters":0,"station_id":"ce4bh3p2rcd13ifvqdp0","pricing_plan_id":"cebpf4jnsgd1na2vs0mg"},{"bike_id":"c030485f-4e1e-4cc8-acbe-c065e5409b16","system_id":"levelo_inurba_marseille","lat":43.289741,"lon":5.378306,"is_reserved":false,"is_disabled":false,"rental_uris":{"android":"levelo://app?vid=c030485f-4e1e-4cc8-acbe-c065e5409b16","ios":"levelo://app?vid=c030485f-4e1e-4cc8-acbe-c065e5409b16"},"vehicle_type_id":"4","last_reported":1721675208,"current_range_meters":2400,"station_id":"ce4bh9p2rcd13ifvqed0","pricing_plan_id":"cebpf4jnsgd1na2vs0mg"},{"bike_id":"cea683e1-97f9-4233-9930-b9e281992054","system_id":"levelo_inurba_marseille","lat":43.330442,"lon":5.389148,"is_reserved":false,"is_disabled":false,"rental_uris":{"android":"levelo://app?vid=cea683e1-97f9-4233-9930-b9e281992054","ios":"levelo://app?vid=cea683e1-97f9-4233-9930-b9e281992054"},"vehicle_type_id":"4","last_reported":1721675208,"current_range_meters":24800,"station_id":"ce4bhr92rcd13ifvqhrg","pricing_plan_id":"cebpf4jnsgd1na2vs0mg"},{"bike_id":"a46e0f0a-2750-42b7-a663-c349e625a0a4","system_id":"levelo_inurba_marseille","lat":43.289741,"lon":5.378306,"is_reserved":false,"is_disabled":false,"rental_uris":{"android":"levelo://app?vid=a46e0f0a-2750-42b7-a663-c349e625a0a4","ios":"levelo://app?vid=a46e0f0a-2750-42b7-a663-c349e625a0a4"},"vehicle_type_id":"4","last_reported":1721675208,"current_range_meters":30000,"station_id":"ce4bh9p2rcd13ifvqed0","pricing_plan_id":"cebpf4jnsgd1na2vs0mg"},{"bike_id":"1f8838fa-6b20-4873-8db4-fc3fe63005c3","system_id":"levelo_inurba_marseille","lat":43.295169,"lon":5.390426,"is_reserved":false,"is_disabled":false,"rental_uris":{"android":"levelo://app?vid=1f8838fa-6b20-4873-8db4-fc3fe63005c3","ios":"levelo://app?vid=1f8838fa-6b20-4873-8db4-fc3fe63005c3"},"vehicle_type_id":"4","last_reported":1721675208,"current_range_meters":6800,"station_id":"ce4bh3p2rcd13ifvqdp0","pricing_plan_id":"cebpf4jnsgd1na2vs0mg"},{"bike_id":"9f05d5da-a394-4681-9001-0d91fad21df2","system_id":"levelo_inurba_marseille","lat":43.29023,"lon":5.38127,"is_reserved":false,"is_disabled":false,"rental_uris":{"android":"levelo://app?vid=9f05d5da-a394-4681-9001-0d91fad21df2","ios":"levelo://app?vid=9f05d5da-a394-4681-9001-0d91fad21df2"},"vehicle_type_id":"4","last_reported":1721675208,"current_range_meters":0,"station_id":"ce4bh4p2rcd13ifvqe1g","pricing_plan_id":"cebpf4jnsgd1na2vs0mg"},{"bike_id":"439fd07a-b0b9-40c3-879a-1876067f8075","system_id":"levelo_inurba_marseille","lat":43.290179,"lon":5.38136,"is_reserved":false,"is_disabled":false,"rental_uris":{"android":"levelo://app?vid=439fd07a-b0b9-40c3-879a-1876067f8075","ios":"levelo://app?vid=439fd07a-b0b9-40c3-879a-1876067f8075"},"vehicle_type_id":"4","last_reported":1721675208,"current_range_meters":0,"station_id":"ce4bh4p2rcd13ifvqe1g","pricing_plan_id":"cebpf4jnsgd1na2vs0mg"},{"bike_id":"4c665fbc-fb84-419c-ac80-895f0ec108b6","system_id":"levelo_inurba_marseille","lat":43.289741,"lon":5.378306,"is_reserved":false,"is_disabled":false,"rental_uris":{"android":"levelo://app?vid=4c665fbc-fb84-419c-ac80-895f0ec108b6","ios":"levelo://app?vid=4c665fbc-fb84-419c-ac80-895f0ec108b6"},"vehicle_type_id":"4","last_reported":1721675208,"current_range_meters":2800,"station_id":"ce4bh9p2rcd13ifvqed0","pricing_plan_id":"cebpf4jnsgd1na2vs0mg"},{"bike_id":"27cde9a9-3acd-4622-9901-82e9a214bd06","system_id":"levelo_inurba_marseille","lat":43.29012,"lon":5.38128,"is_reserved":false,"is_disabled":false,"rental_uris":{"android":"levelo://app?vid=27cde9a9-3acd-4622-9901-82e9a214bd06","ios":"levelo://app?vid=27cde9a9-3acd-4622-9901-82e9a214bd06"},"vehicle_type_id":"4","last_reported":1721675208,"current_range_meters":24000,"station_id":"ce4bh4p2rcd13ifvqe1g","pricing_plan_id":"cebpf4jnsgd1na2vs0mg"},{"bike_id":"a515e054-aa46-48a2-8674-4dc842769c49","system_id":"levelo_inurba_marseille","lat":43.28852,"lon":5.35856,"is_reserved":false,"is_disabled":false,"rental_uris":{"android":"levelo://app?vid=a515e054-aa46-48a2-8674-4dc842769c49","ios":"levelo://app?vid=a515e054-aa46-48a2-8674-4dc842769c49"},"vehicle_type_id":"4","last_reported":1721675208,"current_range_meters":27600,"station_id":"ce4bhb12rcd13ifvqem0","pricing_plan_id":"cebpf4jnsgd1na2vs0mg"},{"bike_id":"b3a4c41c-f087-4dad-bb0a-90e50c4afcba","system_id":"levelo_inurba_marseille","lat":43.2885,"lon":5.35858,"is_reserved":false,"is_disabled":false,"rental_uris":{"android":"levelo://app?vid=b3a4c41c-f087-4dad-bb0a-90e50c4afcba","ios":"levelo://app?vid=b3a4c41c-f087-4dad-bb0a-90e50c4afcba"},"vehicle_type_id":"4","last_reported":1721675208,"current_range_meters":25200,"station_id":"","pricing_plan_id":"cebpf4jnsgd1na2vs0mg"},{"bike_id":"359ab6b4-d1a1-48e7-ba6d-40a1b4502e14","system_id":"levelo_inurba_marseille","lat":43.28856,"lon":5.358371,"is_reserved":false,"is_disabled":false,"rental_uris":{"android":"levelo://app?vid=359ab6b4-d1a1-48e7-ba6d-40a1b4502e14","ios":"levelo://app?vid=359ab6b4-d1a1-48e7-ba6d-40a1b4502e14"},"vehicle_type_id":"4","last_reported":1721675208,"current_range_meters":10400,"station_id":"ce4bhb12rcd13ifvqem0","pricing_plan_id":"cebpf4jnsgd1na2vs0mg"},{"bike_id":"6c934202-12d1-4038-a8d1-9e46af55bab3","system_id":"levelo_inurba_marseille","lat":43.28848,"lon":5.35847,"is_reserved":false,"is_disabled":false,"rental_uris":{"android":"levelo://app?vid=6c934202-12d1-4038-a8d1-9e46af55bab3","ios":"levelo://app?vid=6c934202-12d1-4038-a8d1-9e46af55bab3"},"vehicle_type_id":"4","last_reported":1721675208,"current_range_meters":23200,"station_id":"ce4bhb12rcd13ifvqem0","pricing_plan_id":"cebpf4jnsgd1na2vs0mg"},{"bike_id":"33ac5600-1c9f-4f29-9b07-971e73b1cfca","system_id":"levelo_inurba_marseille","lat":43.28842,"lon":5.35844,"is_reserved":false,"is_disabled":false,"rental_uris":{"android":"levelo://app?vid=33ac5600-1c9f-4f29-9b07-971e73b1cfca","ios":"levelo://app?vid=33ac5600-1c9f-4f29-9b07-971e73b1cfca"},"vehicle_type_id":"4","last_reported":1721675208,"current_range_meters":30800,"station_id":"ce4bhb12rcd13ifvqem0","pricing_plan_id":"cebpf4jnsgd1na2vs0mg"},{"bike_id":"f28d2496-cef9-4b90-adb9-3af58c8f40fd","system_id":"levelo_inurba_marseille","lat":43.28839,"lon":5.35846,"is_reserved":false,"is_disabled":false,"rental_uris":{"android":"levelo://app?vid=f28d2496-cef9-4b90-adb9-3af58c8f40fd","ios":"levelo://app?vid=f28d2496-cef9-4b90-adb9-3af58c8f40fd"},"vehicle_type_id":"4","last_reported":1721675208,"current_range_meters":31200,"station_id":"ce4bhb12rcd13ifvqem0","pricing_plan_id":"cebpf4jnsgd1na2vs0mg"},{"bike_id":"21199813-4dfe-4c27-8a5d-528815474ba9","system_id":"levelo_inurba_marseille","lat":43.312609,"lon":5.401662,"is_reserved":false,"is_disabled":false,"rental_uris":{"android":"levelo://app?vid=21199813-4dfe-4c27-8a5d-528815474ba9","ios":"levelo://app?vid=21199813-4dfe-4c27-8a5d-528815474ba9"},"vehicle_type_id":"4","last_reported":1721675208,"current_range_meters":0,"station_id":"ce4bh092rcd13ifvqd30","pricing_plan_id":"cebpf4jnsgd1na2vs0mg"},{"bike_id":"b802a498-0809-4663-b535-c85d0fbf5e31","system_id":"levelo_inurba_marseille","lat":43.309371,"lon":5.401449,"is_reserved":false,"is_disabled":false,"rental_uris":{"android":"levelo://app?vid=b802a498-0809-4663-b535-c85d0fbf5e31","ios":"levelo://app?vid=b802a498-0809-4663-b535-c85d0fbf5e31"},"vehicle_type_id":"4","last_reported":1721675208,"current_range_meters":25200,"station_id":"ce4bgvp2rcd13ifvqct0","pricing_plan_id":"cebpf4jnsgd1na2vs0mg"},{"bike_id":"84d87ca1-81e8-444d-96c2-0c67fc5f3572","system_id":"levelo_inurba_marseille","lat":43.309371,"lon":5.401449,"is_reserved":false,"is_disabled":false,"rental_uris":{"android":"levelo://app?vid=84d87ca1-81e8-444d-96c2-0c67fc5f3572","ios":"levelo://app?vid=84d87ca1-81e8-444d-96c2-0c67fc5f3572"},"vehicle_type_id":"4","last_reported":1721675208,"current_range_meters":23200,"station_id":"ce4bgvp2rcd13ifvqct0","pricing_plan_id":"cebpf4jnsgd1na2vs0mg"},{"bike_id":"2fa75b7e-def1-4555-95f4-25083259dc68","system_id":"levelo_inurba_marseille","lat":43.33751,"lon":5.37437,"is_reserved":false,"is_disabled":false,"rental_uris":{"android":"levelo://app?vid=2fa75b7e-def1-4555-95f4-25083259dc68","ios":"levelo://app?vid=2fa75b7e-def1-4555-95f4-25083259dc68"},"vehicle_type_id":"4","last_reported":1721675208,"current_range_meters":20800,"station_id":"","pricing_plan_id":"cebpf4jnsgd1na2vs0mg"},{"bike_id":"d30176d3-57cf-4662-85ac-4d2def454fa4","system_id":"levelo_inurba_marseille","lat":43.337497,"lon":5.374523,"is_reserved":false,"is_disabled":false,"rental_uris":{"android":"levelo://app?vid=d30176d3-57cf-4662-85ac-4d2def454fa4","ios":"levelo://app?vid=d30176d3-57cf-4662-85ac-4d2def454fa4"},"vehicle_type_id":"4","last_reported":1721675208,"current_range_meters":26400,"station_id":"","pricing_plan_id":"cebpf4jnsgd1na2vs0mg"},{"bike_id":"5597d3ad-9e62-46fc-b8ff-1ca2163dbd74","system_id":"levelo_inurba_marseille","lat":43.33746,"lon":5.37481,"is_reserved":false,"is_disabled":false,"rental_uris":{"android":"levelo://app?vid=5597d3ad-9e62-46fc-b8ff-1ca2163dbd74","ios":"levelo://app?vid=5597d3ad-9e62-46fc-b8ff-1ca2163dbd74"},"vehicle_type_id":"4","last_reported":1721675208,"current_range_meters":21200,"station_id":"","pricing_plan_id":"cebpf4jnsgd1na2vs0mg"},{"bike_id":"8aad4b3a-5383-408e-ab3c-637816395348","system_id":"levelo_inurba_marseille","lat":43.33753,"lon":5.37451,"is_reserved":false,"is_disabled":false,"rental_uris":{"android":"levelo://app?vid=8aad4b3a-5383-408e-ab3c-637816395348","ios":"levelo://app?vid=8aad4b3a-5383-408e-ab3c-637816395348"},"vehicle_type_id":"4","last_reported":1721675208,"current_range_meters":19600,"station_id":"","pricing_plan_id":"cebpf4jnsgd1na2vs0mg"},{"bike_id":"84d1c30f-f7d1-4e6c-93c9-8a677f8fa2ec","system_id":"levelo_inurba_marseille","lat":43.309371,"lon":5.401449,"is_reserved":false,"is_disabled":false,"rental_uris":{"android":"levelo://app?vid=84d1c30f-f7d1-4e6c-93c9-8a677f8fa2ec","ios":"levelo://app?vid=84d1c30f-f7d1-4e6c-93c9-8a677f8fa2ec"},"vehicle_type_id":"4","last_reported":1721675208,"current_range_meters":12800,"station_id":"ce4bgvp2rcd13ifvqct0","pricing_plan_id":"cebpf4jnsgd1na2vs0mg"},{"bike_id":"729da992-572f-4e25-b807-f56a27b5dd22","system_id":"levelo_inurba_marseille","lat":43.33754,"lon":5.37464,"is_reserved":false,"is_disabled":false,"rental_uris":{"android":"levelo://app?vid=729da992-572f-4e25-b807-f56a27b5dd22","ios":"levelo://app?vid=729da992-572f-4e25-b807-f56a27b5dd22"},"vehicle_type_id":"4","last_reported":1721675208,"current_range_meters":15600,"station_id":"","pricing_plan_id":"cebpf4jnsgd1na2vs0mg"},{"bike_id":"8fb70ba9-4b35-4b70-b9be-b4e8a31e8208","system_id":"levelo_inurba_marseille","lat":43.309371,"lon":5.401449,"is_reserved":false,"is_disabled":false,"rental_uris":{"android":"levelo://app?vid=8fb70ba9-4b35-4b70-b9be-b4e8a31e8208","ios":"levelo://app?vid=8fb70ba9-4b35-4b70-b9be-b4e8a31e8208"},"vehicle_type_id":"4","last_reported":1721675208,"current_range_meters":31200,"station_id":"ce4bgvp2rcd13ifvqct0","pricing_plan_id":"cebpf4jnsgd1na2vs0mg"},{"bike_id":"4eaef2c7-71f5-4744-ab23-cf70bd4039ee","system_id":"levelo_inurba_marseille","lat":43.33757,"lon":5.3745,"is_reserved":false,"is_disabled":false,"rental_uris":{"android":"levelo://app?vid=4eaef2c7-71f5-4744-ab23-cf70bd4039ee","ios":"levelo://app?vid=4eaef2c7-71f5-4744-ab23-cf70bd4039ee"},"vehicle_type_id":"4","last_reported":1721675208,"current_range_meters":24000,"station_id":"","pricing_plan_id":"cebpf4jnsgd1na2vs0mg"},{"bike_id":"9f4f7a69-64d9-4e57-a016-472cdb89d3bd","system_id":"levelo_inurba_marseille","lat":43.33759,"lon":5.37446,"is_reserved":false,"is_disabled":false,"rental_uris":{"android":"levelo://app?vid=9f4f7a69-64d9-4e57-a016-472cdb89d3bd","ios":"levelo://app?vid=9f4f7a69-64d9-4e57-a016-472cdb89d3bd"},"vehicle_type_id":"4","last_reported":1721675208,"current_range_meters":21200,"station_id":"","pricing_plan_id":"cebpf4jnsgd1na2vs0mg"},{"bike_id":"192a866a-6f86-404d-812c-31129be9ed74","system_id":"levelo_inurba_marseille","lat":43.33763,"lon":5.37446,"is_reserved":false,"is_disabled":false,"rental_uris":{"android":"levelo://app?vid=192a866a-6f86-404d-812c-31129be9ed74","ios":"levelo://app?vid=192a866a-6f86-404d-812c-31129be9ed74"},"vehicle_type_id":"4","last_reported":1721675208,"current_range_meters":26800,"station_id":"","pricing_plan_id":"cebpf4jnsgd1na2vs0mg"},{"bike_id":"5e1407ed-917f-45a1-845b-7a53f7e206cb","system_id":"levelo_inurba_marseille","lat":43.30642,"lon":5.401031,"is_reserved":false,"is_disabled":false,"rental_uris":{"android":"levelo://app?vid=5e1407ed-917f-45a1-845b-7a53f7e206cb","ios":"levelo://app?vid=5e1407ed-917f-45a1-845b-7a53f7e206cb"},"vehicle_type_id":"4","last_reported":1721675208,"current_range_meters":1200,"station_id":"ce4bh112rcd13ifvqda0","pricing_plan_id":"cebpf4jnsgd1na2vs0mg"},{"bike_id":"edbe71c6-2013-4b71-bac8-c300e365b0c7","system_id":"levelo_inurba_marseille","lat":43.306412,"lon":5.401035,"is_reserved":false,"is_disabled":false,"rental_uris":{"android":"levelo://app?vid=edbe71c6-2013-4b71-bac8-c300e365b0c7","ios":"levelo://app?vid=edbe71c6-2013-4b71-bac8-c300e365b0c7"},"vehicle_type_id":"4","last_reported":1721675208,"current_range_meters":5600,"station_id":"ce4bh112rcd13ifvqda0","pricing_plan_id":"cebpf4jnsgd1na2vs0mg"},{"bike_id":"bd61dc59-e318-4466-a02c-085f75e2e999","system_id":"levelo_inurba_marseille","lat":43.30642,"lon":5.401031,"is_reserved":false,"is_disabled":false,"rental_uris":{"android":"levelo://app?vid=bd61dc59-e318-4466-a02c-085f75e2e999","ios":"levelo://app?vid=bd61dc59-e318-4466-a02c-085f75e2e999"},"vehicle_type_id":"4","last_reported":1721675208,"current_range_meters":7600,"station_id":"ce4bh112rcd13ifvqda0","pricing_plan_id":"cebpf4jnsgd1na2vs0mg"},{"bike_id":"6845fc20-3002-4ecd-a772-d17b4dadccb0","system_id":"levelo_inurba_marseille","lat":43.28727,"lon":5.36078,"is_reserved":false,"is_disabled":false,"rental_uris":{"android":"levelo://app?vid=6845fc20-3002-4ecd-a772-d17b4dadccb0","ios":"levelo://app?vid=6845fc20-3002-4ecd-a772-d17b4dadccb0"},"vehicle_type_id":"4","last_reported":1721675208,"current_range_meters":16800,"station_id":"cki0cbj6b192h4jlfktg","pricing_plan_id":"cebpf4jnsgd1na2vs0mg"},{"bike_id":"03670571-db3c-4d50-bbb6-03009a5250df","system_id":"levelo_inurba_marseille","lat":43.28727,"lon":5.36078,"is_reserved":false,"is_disabled":false,"rental_uris":{"android":"levelo://app?vid=03670571-db3c-4d50-bbb6-03009a5250df","ios":"levelo://app?vid=03670571-db3c-4d50-bbb6-03009a5250df"},"vehicle_type_id":"4","last_reported":1721675208,"current_range_meters":17200,"station_id":"cki0cbj6b192h4jlfktg","pricing_plan_id":"cebpf4jnsgd1na2vs0mg"},{"bike_id":"67e05690-1837-44bd-93a7-44aba1f9004c","system_id":"levelo_inurba_marseille","lat":43.28727,"lon":5.36078,"is_reserved":false,"is_disabled":false,"rental_uris":{"android":"levelo://app?vid=67e05690-1837-44bd-93a7-44aba1f9004c","ios":"levelo://app?vid=67e05690-1837-44bd-93a7-44aba1f9004c"},"vehicle_type_id":"4","last_reported":1721675208,"current_range_meters":400,"station_id":"cki0cbj6b192h4jlfktg","pricing_plan_id":"cebpf4jnsgd1na2vs0mg"},{"bike_id":"12001f8b-4ad5-46cf-9435-fd28ff5b6700","system_id":"levelo_inurba_marseille","lat":43.28727,"lon":5.36078,"is_reserved":false,"is_disabled":false,"rental_uris":{"android":"levelo://app?vid=12001f8b-4ad5-46cf-9435-fd28ff5b6700","ios":"levelo://app?vid=12001f8b-4ad5-46cf-9435-fd28ff5b6700"},"vehicle_type_id":"4","last_reported":1721675208,"current_range_meters":10400,"station_id":"cki0cbj6b192h4jlfktg","pricing_plan_id":"cebpf4jnsgd1na2vs0mg"},{"bike_id":"d37e8f64-fe3d-4636-89d9-28632b51af26","system_id":"levelo_inurba_marseille","lat":43.28727,"lon":5.36078,"is_reserved":false,"is_disabled":false,"rental_uris":{"android":"levelo://app?vid=d37e8f64-fe3d-4636-89d9-28632b51af26","ios":"levelo://app?vid=d37e8f64-fe3d-4636-89d9-28632b51af26"},"vehicle_type_id":"4","last_reported":1721675208,"current_range_meters":2000,"station_id":"cki0cbj6b192h4jlfktg","pricing_plan_id":"cebpf4jnsgd1na2vs0mg"},{"bike_id":"83e2ff14-eb8f-4b09-bb65-83e14f52b082","system_id":"levelo_inurba_marseille","lat":43.28724,"lon":5.36078,"is_reserved":false,"is_disabled":false,"rental_uris":{"android":"levelo://app?vid=83e2ff14-eb8f-4b09-bb65-83e14f52b082","ios":"levelo://app?vid=83e2ff14-eb8f-4b09-bb65-83e14f52b082"},"vehicle_type_id":"4","last_reported":1721675208,"current_range_meters":30400,"station_id":"","pricing_plan_id":"cebpf4jnsgd1na2vs0mg"},{"bike_id":"8dffd0ab-582d-4f45-9542-92713b8fc4bd","system_id":"levelo_inurba_marseille","lat":43.2867,"lon":5.3635,"is_reserved":false,"is_disabled":false,"rental_uris":{"android":"levelo://app?vid=8dffd0ab-582d-4f45-9542-92713b8fc4bd","ios":"levelo://app?vid=8dffd0ab-582d-4f45-9542-92713b8fc4bd"},"vehicle_type_id":"4","last_reported":1721675208,"current_range_meters":10400,"station_id":"","pricing_plan_id":"cebpf4jnsgd1na2vs0mg"},{"bike_id":"7f1a616d-e41f-4783-aff7-ec8fe8995318","system_id":"levelo_inurba_marseille","lat":43.286593,"lon":5.363346,"is_reserved":false,"is_disabled":false,"rental_uris":{"android":"levelo://app?vid=7f1a616d-e41f-4783-aff7-ec8fe8995318","ios":"levelo://app?vid=7f1a616d-e41f-4783-aff7-ec8fe8995318"},"vehicle_type_id":"4","last_reported":1721675208,"current_range_meters":20000,"station_id":"ce4bhah2rcd13ifvqej0","pricing_plan_id":"cebpf4jnsgd1na2vs0mg"},{"bike_id":"848f2a18-440b-4ec2-9eb8-94b3044dcd60","system_id":"levelo_inurba_marseille","lat":43.286961,"lon":5.373785,"is_reserved":false,"is_disabled":false,"rental_uris":{"android":"levelo://app?vid=848f2a18-440b-4ec2-9eb8-94b3044dcd60","ios":"levelo://app?vid=848f2a18-440b-4ec2-9eb8-94b3044dcd60"},"vehicle_type_id":"4","last_reported":1721675208,"current_range_meters":29200,"station_id":"ce4bh3p2rcd13ifvqdq0","pricing_plan_id":"cebpf4jnsgd1na2vs0mg"},{"bike_id":"7428ec09-1352-4d5a-9635-ba7cc19f53b8","system_id":"levelo_inurba_marseille","lat":43.286973,"lon":5.373908,"is_reserved":false,"is_disabled":false,"rental_uris":{"android":"levelo://app?vid=7428ec09-1352-4d5a-9635-ba7cc19f53b8","ios":"levelo://app?vid=7428ec09-1352-4d5a-9635-ba7cc19f53b8"},"vehicle_type_id":"4","last_reported":1721675208,"current_range_meters":0,"station_id":"ce4bh3p2rcd13ifvqdq0","pricing_plan_id":"cebpf4jnsgd1na2vs0mg"},{"bike_id":"95d1e25b-230f-4a2f-be11-795602e93395","system_id":"levelo_inurba_marseille","lat":43.286593,"lon":5.363346,"is_reserved":false,"is_disabled":false,"rental_uris":{"android":"levelo://app?vid=95d1e25b-230f-4a2f-be11-795602e93395","ios":"levelo://app?vid=95d1e25b-230f-4a2f-be11-795602e93395"},"vehicle_type_id":"4","last_reported":1721675208,"current_range_meters":0,"station_id":"ce4bhah2rcd13ifvqej0","pricing_plan_id":"cebpf4jnsgd1na2vs0mg"},{"bike_id":"bbd577dc-3ef4-42c6-8104-c019d7a9dda0","system_id":"levelo_inurba_marseille","lat":43.29526,"lon":5.39399,"is_reserved":false,"is_disabled":false,"rental_uris":{"android":"levelo://app?vid=bbd577dc-3ef4-42c6-8104-c019d7a9dda0","ios":"levelo://app?vid=bbd577dc-3ef4-42c6-8104-c019d7a9dda0"},"vehicle_type_id":"4","last_reported":1721675208,"current_range_meters":4400,"station_id":"","pricing_plan_id":"cebpf4jnsgd1na2vs0mg"},{"bike_id":"c921d337-1a70-4398-bbbe-d2771a743115","system_id":"levelo_inurba_marseille","lat":43.298681,"lon":5.397225,"is_reserved":false,"is_disabled":false,"rental_uris":{"android":"levelo://app?vid=c921d337-1a70-4398-bbbe-d2771a743115","ios":"levelo://app?vid=c921d337-1a70-4398-bbbe-d2771a743115"},"vehicle_type_id":"4","last_reported":1721675208,"current_range_meters":2800,"station_id":"ce4bh0h2rcd13ifvqd50","pricing_plan_id":"cebpf4jnsgd1na2vs0mg"},{"bike_id":"9217fd3e-4fa9-4b2e-a343-0f7f3c6b505a","system_id":"levelo_inurba_marseille","lat":43.302759,"lon":5.400793,"is_reserved":false,"is_disabled":false,"rental_uris":{"android":"levelo://app?vid=9217fd3e-4fa9-4b2e-a343-0f7f3c6b505a","ios":"levelo://app?vid=9217fd3e-4fa9-4b2e-a343-0f7f3c6b505a"},"vehicle_type_id":"4","last_reported":1721675208,"current_range_meters":0,"station_id":"ce4bgvh2rcd13ifvqcs0","pricing_plan_id":"cebpf4jnsgd1na2vs0mg"},{"bike_id":"02519b64-9d4a-4706-8047-57af44014deb","system_id":"levelo_inurba_marseille","lat":43.290336,"lon":5.386425,"is_reserved":false,"is_disabled":false,"rental_uris":{"android":"levelo://app?vid=02519b64-9d4a-4706-8047-57af44014deb","ios":"levelo://app?vid=02519b64-9d4a-4706-8047-57af44014deb"},"vehicle_type_id":"4","last_reported":1721675208,"current_range_meters":27600,"station_id":"ce4bh4p2rcd13ifvqe0g","pricing_plan_id":"cebpf4jnsgd1na2vs0mg"},{"bike_id":"f99b253a-7b9e-4e78-af51-8a9edbd63a82","system_id":"levelo_inurba_marseille","lat":43.290336,"lon":5.386425,"is_reserved":false,"is_disabled":false,"rental_uris":{"android":"levelo://app?vid=f99b253a-7b9e-4e78-af51-8a9edbd63a82","ios":"levelo://app?vid=f99b253a-7b9e-4e78-af51-8a9edbd63a82"},"vehicle_type_id":"4","last_reported":1721675208,"current_range_meters":29200,"station_id":"ce4bh4p2rcd13ifvqe0g","pricing_plan_id":"cebpf4jnsgd1na2vs0mg"},{"bike_id":"b021df47-f6fd-4c3e-9c4e-b51963f5352b","system_id":"levelo_inurba_marseille","lat":43.290336,"lon":5.386425,"is_reserved":false,"is_disabled":false,"rental_uris":{"android":"levelo://app?vid=b021df47-f6fd-4c3e-9c4e-b51963f5352b","ios":"levelo://app?vid=b021df47-f6fd-4c3e-9c4e-b51963f5352b"},"vehicle_type_id":"4","last_reported":1721675208,"current_range_meters":28800,"station_id":"ce4bh4p2rcd13ifvqe0g","pricing_plan_id":"cebpf4jnsgd1na2vs0mg"},{"bike_id":"af34fe00-b9d8-4dd7-911b-d2760232a1b7","system_id":"levelo_inurba_marseille","lat":43.302759,"lon":5.400793,"is_reserved":false,"is_disabled":false,"rental_uris":{"android":"levelo://app?vid=af34fe00-b9d8-4dd7-911b-d2760232a1b7","ios":"levelo://app?vid=af34fe00-b9d8-4dd7-911b-d2760232a1b7"},"vehicle_type_id":"4","last_reported":1721675208,"current_range_meters":0,"station_id":"ce4bgvh2rcd13ifvqcs0","pricing_plan_id":"cebpf4jnsgd1na2vs0mg"},{"bike_id":"16e74a3b-1651-4a90-b04f-4a45676720b3","system_id":"levelo_inurba_marseille","lat":43.289307,"lon":5.38406,"is_reserved":false,"is_disabled":false,"rental_uris":{"android":"levelo://app?vid=16e74a3b-1651-4a90-b04f-4a45676720b3","ios":"levelo://app?vid=16e74a3b-1651-4a90-b04f-4a45676720b3"},"vehicle_type_id":"4","last_reported":1721675208,"current_range_meters":0,"station_id":"ce4bh612rcd13ifvqe6g","pricing_plan_id":"cebpf4jnsgd1na2vs0mg"},{"bike_id":"91d6aa1e-7d66-48f2-8a77-7f7b2fc07af0","system_id":"levelo_inurba_marseille","lat":43.29026,"lon":5.38645,"is_reserved":false,"is_disabled":false,"rental_uris":{"android":"levelo://app?vid=91d6aa1e-7d66-48f2-8a77-7f7b2fc07af0","ios":"levelo://app?vid=91d6aa1e-7d66-48f2-8a77-7f7b2fc07af0"},"vehicle_type_id":"4","last_reported":1721675208,"current_range_meters":0,"station_id":"ce4bh4p2rcd13ifvqe0g","pricing_plan_id":"cebpf4jnsgd1na2vs0mg"},{"bike_id":"d7b34426-5019-4c9a-99dd-4927bfaf6cf0","system_id":"levelo_inurba_marseille","lat":43.302759,"lon":5.400793,"is_reserved":false,"is_disabled":false,"rental_uris":{"android":"levelo://app?vid=d7b34426-5019-4c9a-99dd-4927bfaf6cf0","ios":"levelo://app?vid=d7b34426-5019-4c9a-99dd-4927bfaf6cf0"},"vehicle_type_id":"4","last_reported":1721675208,"current_range_meters":26000,"station_id":"ce4bgvh2rcd13ifvqcs0","pricing_plan_id":"cebpf4jnsgd1na2vs0mg"},{"bike_id":"bd82e3c8-4945-446b-a1b0-fc0bbaa433fc","system_id":"levelo_inurba_marseille","lat":43.302759,"lon":5.400793,"is_reserved":false,"is_disabled":false,"rental_uris":{"android":"levelo://app?vid=bd82e3c8-4945-446b-a1b0-fc0bbaa433fc","ios":"levelo://app?vid=bd82e3c8-4945-446b-a1b0-fc0bbaa433fc"},"vehicle_type_id":"4","last_reported":1721675208,"current_range_meters":7200,"station_id":"ce4bgvh2rcd13ifvqcs0","pricing_plan_id":"cebpf4jnsgd1na2vs0mg"},{"bike_id":"e4891437-1ae2-4de1-984d-b981989d486c","system_id":"levelo_inurba_marseille","lat":43.302759,"lon":5.400793,"is_reserved":false,"is_disabled":false,"rental_uris":{"android":"levelo://app?vid=e4891437-1ae2-4de1-984d-b981989d486c","ios":"levelo://app?vid=e4891437-1ae2-4de1-984d-b981989d486c"},"vehicle_type_id":"4","last_reported":1721675208,"current_range_meters":17200,"station_id":"ce4bgvh2rcd13ifvqcs0","pricing_plan_id":"cebpf4jnsgd1na2vs0mg"},{"bike_id":"9a32701d-0ec3-4c9e-b795-87d880afae29","system_id":"levelo_inurba_marseille","lat":43.286593,"lon":5.363346,"is_reserved":false,"is_disabled":false,"rental_uris":{"android":"levelo://app?vid=9a32701d-0ec3-4c9e-b795-87d880afae29","ios":"levelo://app?vid=9a32701d-0ec3-4c9e-b795-87d880afae29"},"vehicle_type_id":"4","last_reported":1721675208,"current_range_meters":5600,"station_id":"ce4bhah2rcd13ifvqej0","pricing_plan_id":"cebpf4jnsgd1na2vs0mg"},{"bike_id":"e5674f66-747b-419a-bd36-1b3aff1fb03e","system_id":"levelo_inurba_marseille","lat":43.28718,"lon":5.37931,"is_reserved":false,"is_disabled":false,"rental_uris":{"android":"levelo://app?vid=e5674f66-747b-419a-bd36-1b3aff1fb03e","ios":"levelo://app?vid=e5674f66-747b-419a-bd36-1b3aff1fb03e"},"vehicle_type_id":"4","last_reported":1721675208,"current_range_meters":4000,"station_id":"ce4bh9p2rcd13ifvqec0","pricing_plan_id":"cebpf4jnsgd1na2vs0mg"},{"bike_id":"efc462e7-31c8-4601-8d9f-29f0de4fa751","system_id":"levelo_inurba_marseille","lat":43.28717,"lon":5.37937,"is_reserved":false,"is_disabled":false,"rental_uris":{"android":"levelo://app?vid=efc462e7-31c8-4601-8d9f-29f0de4fa751","ios":"levelo://app?vid=efc462e7-31c8-4601-8d9f-29f0de4fa751"},"vehicle_type_id":"4","last_reported":1721675208,"current_range_meters":0,"station_id":"ce4bh9p2rcd13ifvqec0","pricing_plan_id":"cebpf4jnsgd1na2vs0mg"},