{"last_updated":1679227959,"ttl":30,"version":"2.2","data":{"bikes":[{"bike_id":"fad57cde-1181-4bf9-a65e-5dfcc8be40af","system_id":"levelo_inurba_marseille","lat":43.3091,"lon":5.36849,"is_reserved":false,"is_disabled":false,"rental_uris":{"android":"levelo://app?vid=fad57cde-1181-4bf9-a65e-5dfcc8be40af","ios":"levelo://app?vid=fad57cde-1181-4bf9-a65e-5dfcc8be40af"},"vehicle_type_id":"4","last_reported":1679227960,"current_range_meters":29200,"station_id":"","pricing_plan_id":"free"},{"bike_id":"d0b93edf-3e73-4ab7-aedb-1dd3d01df945","system_id":"levelo_inurba_marseille","lat":43.309076,"lon":5.368465,"is_reserved":false,"is_disabled":false,"rental_uris":{"android":"levelo://app?vid=d0b93edf-3e73-4ab7-aedb-1dd3d01df945","ios":"levelo://app?vid=d0b93edf-3e73-4ab7-aedb-1dd3d01df945"},"vehicle_type_id":"4","last_reported":1679227960,"current_range_meters":31600,"station_id":"ce4bgn92rcd13ifvqbvg","pricing_plan_id":"free"},{"bike_id":"934d270b-7c4a-4fe1-be97-4bd204bfb8a4","system_id":"levelo_inurba_marseille","lat":43.309044,"lon":5.36837,"is_reserved":false,"is_disabled":false,"rental_uris":{"android":"levelo://app?vid=934d270b-7c4a-4fe1-be97-4bd204bfb8a4","ios":"levelo://app?vid=934d270b-7c4a-4fe1-be97-4bd204bfb8a4"},"vehicle_type_id":"4","last_reported":1679227960,"current_range_meters":29200,"station_id":"","pricing_plan_id":"free"},{"bike_id":"eb4710f8-f8fb-42b4-bf8e-cb5e094ee875","system_id":"levelo_inurba_marseille","lat":43.309047,"lon":5.368477,"is_reserved":false,"is_disabled":false,"rental_uris":{"android":"levelo://app?vid=eb4710f8-f8fb-42b4-bf8e-cb5e094ee875","ios":"levelo://app?vid=eb4710f8-f8fb-42b4-bf8e-cb5e094ee875"},"vehicle_type_id":"4","last_reported":1679227960,"current_range_meters":31600,"station_id":"","pricing_plan_id":"free"},{"bike_id":"e8c6e592-c7b2-472b-94dd-b6c2dc58e09e","system_id":"levelo_inurba_marseille","lat":43.308853,"lon":5.37194,"is_reserved":false,"is_disabled":false,"rental_uris":{"android":"levelo://app?vid=e8c6e592-c7b2-472b-94dd-b6c2dc58e09e","ios":"levelo://app?vid=e8c6e592-c7b2-472b-94dd-b6c2dc58e09e"},"vehicle_type_id":"4","last_reported":1679227960,"current_range_meters":31600,"station_id":"ce4bguh2rcd13ifvqckg","pricing_plan_id":"free"},{"bike_id":"e1509daf-3370-41be-a3a8-7c97dab67bf8","system_id":"levelo_inurba_marseille","lat":43.30887,"lon":5.37198,"is_reserved":false,"is_disabled":false,"rental_uris":{"android":"levelo://app?vid=e1509daf-3370-41be-a3a8-7c97dab67bf8","ios":"levelo://app?vid=e1509daf-3370-41be-a3a8-7c97dab67bf8"},"vehicle_type_id":"4","last_reported":1679227960,"current_range_meters":16800,"station_id":"ce4bguh2rcd13ifvqckg","pricing_plan_id":"free"},{"bike_id":"c5ed7c03-994c-4b65-a612-2f74a272495b","system_id":"levelo_inurba_marseille","lat":43.308787,"lon":5.37188,"is_reserved":false,"is_disabled":false,"rental_uris":{"android":"levelo://app?vid=c5ed7c03-994c-4b65-a612-2f74a272495b","ios":"levelo://app?vid=c5ed7c03-994c-4b65-a612-2f74a272495b"},"vehicle_type_id":"4","last_reported":1679227960,"current_range_meters":31600,"station_id":"ce4bguh2rcd13ifvqckg","pricing_plan_id":"free"},{"bike_id":"a6bec0e0-f008-4152-8ac0-6f23abb0fb70","system_id":"levelo_inurba_marseille","lat":43.306129,"lon":5.368868,"is_reserved":false,"is_disabled":false,"rental_uris":{"android":"levelo://app?vid=a6bec0e0-f008-4152-8ac0-6f23abb0fb70","ios":"levelo://app?vid=a6bec0e0-f008-4152-8ac0-6f23abb0fb70"},"vehicle_type_id":"4","last_reported":1679227960,"current_range_meters":0,"station_id":"","pricing_plan_id":"free"},{"bike_id":"f4889068-4225-4fac-834e-6384caf41579","system_id":"levelo_inurba_marseille","lat":43.317075,"lon":5.377367,"is_reserved":false,"is_disabled":false,"rental_uris":{"android":"levelo://app?vid=f4889068-4225-4fac-834e-6384caf41579","ios":"levelo://app?vid=f4889068-4225-4fac-834e-6384caf41579"},"vehicle_type_id":"4","last_reported":1679227960,"current_range_meters":27200,"station_id":"ce4bgth2rcd13ifvqch0","pricing_plan_id":"free"},{"bike_id":"138de9d6-5689-47f7-abbb-2dada61839fe","system_id":"levelo_inurba_marseille","lat":43.317075,"lon":5.377367,"is_reserved":false,"is_disabled":false,"rental_uris":{"android":"levelo://app?vid=138de9d6-5689-47f7-abbb-2dada61839fe","ios":"levelo://app?vid=138de9d6-5689-47f7-abbb-2dada61839fe"},"vehicle_type_id":"4","last_reported":1679227960,"current_range_meters":28400,"station_id":"ce4bgth2rcd13ifvqch0","pricing_plan_id":"free"},{"bike_id":"49930819-0800-4162-ab0a-6b8325b389ff","system_id":"levelo_inurba_marseille","lat":43.301947,"lon":5.366029,"is_reserved":false,"is_disabled":false,"rental_uris":{"android":"levelo://app?vid=49930819-0800-4162-ab0a-6b8325b389ff","ios":"levelo://app?vid=49930819-0800-4162-ab0a-6b8325b389ff"},"vehicle_type_id":"4","last_reported":1679227960,"current_range_meters":21600,"station_id":"ce4bgrh2rcd13ifvqc8g","pricing_plan_id":"free"},{"bike_id":"1695898b-1497-4433-9572-d642040e8bfa","system_id":"levelo_inurba_marseille","lat":43.301939,"lon":5.366286,"is_reserved":false,"is_disabled":false,"rental_uris":{"android":"levelo://app?vid=1695898b-1497-4433-9572-d642040e8bfa","ios":"levelo://app?vid=1695898b-1497-4433-9572-d642040e8bfa"},"vehicle_type_id":"4","last_reported":1679227960,"current_range_meters":22800,"station_id":"ce4bgrh2rcd13ifvqc8g","pricing_plan_id":"free"},{"bike_id":"da5f3a57-1a48-4e5b-ae9e-c147de615f12","system_id":"levelo_inurba_marseille","lat":43.308012,"lon":5.381511,"is_reserved":false,"is_disabled":false,"rental_uris":{"android":"levelo://app?vid=da5f3a57-1a48-4e5b-ae9e-c147de615f12","ios":"levelo://app?vid=da5f3a57-1a48-4e5b-ae9e-c147de615f12"},"vehicle_type_id":"4","last_reported":1679227960,"current_range_meters":0,"station_id":"ce4bgt12rcd13ifvqce0","pricing_plan_id":"free"},{"bike_id":"3e6d08e6-04ec-4188-88d1-8ce0f48ade7d","system_id":"levelo_inurba_marseille","lat":43.308012,"lon":5.381511,"is_reserved":false,"is_disabled":false,"rental_uris":{"android":"levelo://app?vid=3e6d08e6-04ec-4188-88d1-8ce0f48ade7d","ios":"levelo://app?vid=3e6d08e6-04ec-4188-88d1-8ce0f48ade7d"},"vehicle_type_id":"4","last_reported":1679227960,"current_range_meters":14800,"station_id":"ce4bgt12rcd13ifvqce0","pricing_plan_id":"free"},{"bike_id":"04b2b0bc-d782-4b67-8a2b-0b1b120417e5","system_id":"levelo_inurba_marseille","lat":43.304606,"lon":5.379026,"is_reserved":false,"is_disabled":false,"rental_uris":{"android":"levelo://app?vid=04b2b0bc-d782-4b67-8a2b-0b1b120417e5","ios":"levelo://app?vid=04b2b0bc-d782-4b67-8a2b-0b1b120417e5"},"vehicle_type_id":"4","last_reported":1679227960,"current_range_meters":27600,"station_id":"ce4bgup2rcd13ifvqcn0","pricing_plan_id":"free"},{"bike_id":"fe1cdb4d-2326-4a23-9c81-50b860bb4d0f","system_id":"levelo_inurba_marseille","lat":43.304606,"lon":5.379026,"is_reserved":false,"is_disabled":false,"rental_uris":{"android":"levelo://app?vid=fe1cdb4d-2326-4a23-9c81-50b860bb4d0f","ios":"levelo://app?vid=fe1cdb4d-2326-4a23-9c81-50b860bb4d0f"},"vehicle_type_id":"4","last_reported":1679227960,"current_range_meters":20000,"station_id":"ce4bgup2rcd13ifvqcn0","pricing_plan_id":"free"},{"bike_id":"9d53955b-325b-40da-a3cb-495fec26ad7d","system_id":"levelo_inurba_marseille","lat":43.31527,"lon":5.38334,"is_reserved":false,"is_disabled":false,"rental_uris":{"android":"levelo://app?vid=9d53955b-325b-40da-a3cb-495fec26ad7d","ios":"levelo://app?vid=9d53955b-325b-40da-a3cb-495fec26ad7d"},"vehicle_type_id":"4","last_reported":1679227960,"current_range_meters":18800,"station_id":"","pricing_plan_id":"free"},{"bike_id":"ff97be41-e309-4753-95de-383f818b6d37","system_id":"levelo_inurba_marseille","lat":43.30143,"lon":5.37413,"is_reserved":false,"is_disabled":false,"rental_uris":{"android":"levelo://app?vid=ff97be41-e309-4753-95de-383f818b6d37","ios":"levelo://app?vid=ff97be41-e309-4753-95de-383f818b6d37"},"vehicle_type_id":"4","last_reported":1679227960,"current_range_meters":22000,"station_id":"ce4bgs92rcd13ifvqcc0","pricing_plan_id":"free"},{"bike_id":"94874877-9747-46a2-9ac4-d09d4760bceb","system_id":"levelo_inurba_marseille","lat":43.30143,"lon":5.37413,"is_reserved":false,"is_disabled":false,"rental_uris":{"android":"levelo://app?vid=94874877-9747-46a2-9ac4-d09d4760bceb","ios":"levelo://app?vid=94874877-9747-46a2-9ac4-d09d4760bceb"},"vehicle_type_id":"4","last_reported":1679227960,"current_range_meters":21200,"station_id":"ce4bgs92rcd13ifvqcc0","pricing_plan_id":"free"},{"bike_id":"2ecee704-d4a1-45f7-b59e-9aad8ab597fe","system_id":"levelo_inurba_marseille","lat":43.30143,"lon":5.37413,"is_reserved":false,"is_disabled":false,"rental_uris":{"android":"levelo://app?vid=2ecee704-d4a1-45f7-b59e-9aad8ab597fe","ios":"levelo://app?vid=2ecee704-d4a1-45f7-b59e-9aad8ab597fe"},"vehicle_type_id":"4","last_reported":1679227960,"current_range_meters":24000,"station_id":"ce4bgs92rcd13ifvqcc0","pricing_plan_id":"free"},{"bike_id":"e5aade11-d8c6-4169-89a2-d131d684330b","system_id":"levelo_inurba_marseille","lat":43.30134,"lon":5.37421,"is_reserved":false,"is_disabled":false,"rental_uris":{"android":"levelo://app?vid=e5aade11-d8c6-4169-89a2-d131d684330b","ios":"levelo://app?vid=e5aade11-d8c6-4169-89a2-d131d684330b"},"vehicle_type_id":"4","last_reported":1679227960,"current_range_meters":29600,"station_id":"","pricing_plan_id":"free"},{"bike_id":"21ac33cc-a3c4-4798-8f43-105eb82606a6","system_id":"levelo_inurba_marseille","lat":43.313571,"lon":5.384829,"is_reserved":false,"is_disabled":false,"rental_uris":{"android":"levelo://app?vid=21ac33cc-a3c4-4798-8f43-105eb82606a6","ios":"levelo://app?vid=21ac33cc-a3c4-4798-8f43-105eb82606a6"},"vehicle_type_id":"4","last_reported":1679227960,"current_range_meters":28400,"station_id":"ce4bgt92rcd13ifvqcf0","pricing_plan_id":"free"},{"bike_id":"da607404-61c4-4036-8264-f8eb4773f352","system_id":"levelo_inurba_marseille","lat":43.29852,"lon":5.36287,"is_reserved":false,"is_disabled":false,"rental_uris":{"android":"levelo://app?vid=da607404-61c4-4036-8264-f8eb4773f352","ios":"levelo://app?vid=da607404-61c4-4036-8264-f8eb4773f352"},"vehicle_type_id":"4","last_reported":1679227960,"current_range_meters":0,"station_id":"ce4bgpp2rcd13ifvqc3g","pricing_plan_id":"free"},{"bike_id":"1055b41c-9874-48ea-9389-ab24ed438046","system_id":"levelo_inurba_marseille","lat":43.311722,"lon":5.387247,"is_reserved":false,"is_disabled":false,"rental_uris":{"android":"levelo://app?vid=1055b41c-9874-48ea-9389-ab24ed438046","ios":"levelo://app?vid=1055b41c-9874-48ea-9389-ab24ed438046"},"vehicle_type_id":"4","last_reported":1679227960,"current_range_meters":22800,"station_id":"ce4bgv12rcd13ifvqcp0","pricing_plan_id":"free"},{"bike_id":"ea78a5cc-5479-4c70-a0bb-b14a087ffca4","system_id":"levelo_inurba_marseille","lat":43.29573,"lon":5.367355,"is_reserved":false,"is_disabled":false,"rental_uris":{"android":"levelo://app?vid=ea78a5cc-5479-4c70-a0bb-b14a087ffca4","ios":"levelo://app?vid=ea78a5cc-5479-4c70-a0bb-b14a087ffca4"},"vehicle_type_id":"4","last_reported":1679227960,"current_range_meters":14800,"station_id":"ce4bgph2rcd13ifvqc2g","pricing_plan_id":"free"},{"bike_id":"06edb848-d9e7-43b1-8e00-b44876fbbbec","system_id":"levelo_inurba_marseille","lat":43.29573,"lon":5.367355,"is_reserved":false,"is_disabled":false,"rental_uris":{"android":"levelo://app?vid=06edb848-d9e7-43b1-8e00-b44876fbbbec","ios":"levelo://app?vid=06edb848-d9e7-43b1-8e00-b44876fbbbec"},"vehicle_type_id":"4","last_reported":1679227960,"current_range_meters":26800,"station_id":"ce4bgph2rcd13ifvqc2g","pricing_plan_id":"free"},{"bike_id":"79efaf7e-e099-4da4-a124-97dbcc8fe84b","system_id":"levelo_inurba_marseille","lat":43.29573,"lon":5.367355,"is_reserved":false,"is_disabled":false,"rental_uris":{"android":"levelo://app?vid=79efaf7e-e099-4da4-a124-97dbcc8fe84b","ios":"levelo://app?vid=79efaf7e-e099-4da4-a124-97dbcc8fe84b"},"vehicle_type_id":"4","last_reported":1679227960,"current_range_meters":10000,"station_id":"ce4bgph2rcd13ifvqc2g","pricing_plan_id":"free"},{"bike_id":"64c51bb0-af1a-4874-8945-3e97236943ae","system_id":"levelo_inurba_marseille","lat":43.297261,"lon":5.376965,"is_reserved":false,"is_disabled":false,"rental_uris":{"android":"levelo://app?vid=64c51bb0-af1a-4874-8945-3e97236943ae","ios":"levelo://app?vid=64c51bb0-af1a-4874-8945-3e97236943ae"},"vehicle_type_id":"4","last_reported":1679227960,"current_range_meters":0,"station_id":"","pricing_plan_id":"free"},{"bike_id":"b0ce428f-0afa-4ee7-9bc9-a6f23c9bb229","system_id":"levelo_inurba_marseille","lat":43.297206,"lon":5.376852,"is_reserved":false,"is_disabled":false,"rental_uris":{"android":"levelo://app?vid=b0ce428f-0afa-4ee7-9bc9-a6f23c9bb229","ios":"levelo://app?vid=b0ce428f-0afa-4ee7-9bc9-a6f23c9bb229"},"vehicle_type_id":"4","last_reported":1679227960,"current_range_meters":16800,"station_id":"","pricing_plan_id":"free"},{"bike_id":"14faa6a5-6d71-48ae-859e-58d5046fddfb","system_id":"levelo_inurba_marseille","lat":43.299028,"lon":5.381509,"is_reserved":false,"is_disabled":false,"rental_uris":{"android":"levelo://app?vid=14faa6a5-6d71-48ae-859e-58d5046fddfb","ios":"levelo://app?vid=14faa6a5-6d71-48ae-859e-58d5046fddfb"},"vehicle_type_id":"4","last_reported":1679227960,"current_range_meters":24000,"station_id":"ce4bgj12rcd13ifvqbc0","pricing_plan_id":"free"},{"bike_id":"a0f19035-978f-4ff6-8359-1546e4d4ab8e","system_id":"levelo_inurba_marseille","lat":43.299028,"lon":5.381509,"is_reserved":false,"is_disabled":false,"rental_uris":{"android":"levelo://app?vid=a0f19035-978f-4ff6-8359-1546e4d4ab8e","ios":"levelo://app?vid=a0f19035-978f-4ff6-8359-1546e4d4ab8e"},"vehicle_type_id":"4","last_reported":1679227960,"current_range_meters":17200,"station_id":"ce4bgj12rcd13ifvqbc0","pricing_plan_id":"free"},{"bike_id":"7acf979e-3c86-4160-b8d9-bf7af2b894b1","system_id":"levelo_inurba_marseille","lat":43.317571,"lon":5.390167,"is_reserved":false,"is_disabled":false,"rental_uris":{"android":"levelo://app?vid=7acf979e-3c86-4160-b8d9-bf7af2b894b1","ios":"levelo://app?vid=7acf979e-3c86-4160-b8d9-bf7af2b894b1"},"vehicle_type_id":"4","last_reported":1679227960,"current_range_meters":0,"station_id":"","pricing_plan_id":"free"},{"bike_id":"abf139ef-092e-4a96-b9f0-b153de3a6168","system_id":"levelo_inurba_marseille","lat":43.29798,"lon":5.380755,"is_reserved":false,"is_disabled":false,"rental_uris":{"android":"levelo://app?vid=abf139ef-092e-4a96-b9f0-b153de3a6168","ios":"levelo://app?vid=abf139ef-092e-4a96-b9f0-b153de3a6168"},"vehicle_type_id":"4","last_reported":1679227960,"current_range_meters":21600,"station_id":"","pricing_plan_id":"free"},{"bike_id":"c2687482-00af-4a6a-9042-ae9ce9307cce","system_id":"levelo_inurba_marseille","lat":43.298027,"lon":5.380901,"is_reserved":false,"is_disabled":false,"rental_uris":{"android":"levelo://app?vid=c2687482-00af-4a6a-9042-ae9ce9307cce","ios":"levelo://app?vid=c2687482-00af-4a6a-9042-ae9ce9307cce"},"vehicle_type_id":"4","last_reported":1679227960,"current_range_meters":19200,"station_id":"ce4bgip2rcd13ifvqbb0","pricing_plan_id":"free"},{"bike_id":"8f0253d3-dd17-42cf-841b-2d4082d06618","system_id":"levelo_inurba_marseille","lat":43.298006,"lon":5.38101,"is_reserved":false,"is_disabled":false,"rental_uris":{"android":"levelo://app?vid=8f0253d3-dd17-42cf-841b-2d4082d06618","ios":"levelo://app?vid=8f0253d3-dd17-42cf-841b-2d4082d06618"},"vehicle_type_id":"4","last_reported":1679227960,"current_range_meters":0,"station_id":"ce4bgip2rcd13ifvqbb0","pricing_plan_id":"free"},{"bike_id":"e1dbdf8f-c115-4685-981c-1c49d68ae9d5","system_id":"levelo_inurba_marseille","lat":43.295748,"lon":5.37522,"is_reserved":false,"is_disabled":false,"rental_uris":{"android":"levelo://app?vid=e1dbdf8f-c115-4685-981c-1c49d68ae9d5","ios":"levelo://app?vid=e1dbdf8f-c115-4685-981c-1c49d68ae9d5"},"vehicle_type_id":"4","last_reported":1679227960,"current_range_meters":24800,"station_id":"ce4bgh92rcd13ifvqb50","pricing_plan_id":"free"},{"bike_id":"4a0cd032-6a0d-4f25-be62-1f1baa3e1b24","system_id":"levelo_inurba_marseille","lat":43.296188,"lon":5.376903,"is_reserved":false,"is_disabled":false,"rental_uris":{"android":"levelo://app?vid=4a0cd032-6a0d-4f25-be62-1f1baa3e1b24","ios":"levelo://app?vid=4a0cd032-6a0d-4f25-be62-1f1baa3e1b24"},"vehicle_type_id":"4","last_reported":1679227960,"current_range_meters":25600,"station_id":"","pricing_plan_id":"free"},{"bike_id":"5d5a95fa-7de0-4c5f-a505-6349f5081711","system_id":"levelo_inurba_marseille","lat":43.29787,"lon":5.38108,"is_reserved":false,"is_disabled":false,"rental_uris":{"android":"levelo://app?vid=5d5a95fa-7de0-4c5f-a505-6349f5081711","ios":"levelo://app?vid=5d5a95fa-7de0-4c5f-a505-6349f5081711"},"vehicle_type_id":"4","last_reported":1679227960,"current_range_meters":28800,"station_id":"ce4bgip2rcd13ifvqbb0","pricing_plan_id":"free"},{"bike_id":"d043d581-d8cd-4562-980a-4b52c9a2b460","system_id":"levelo_inurba_marseille","lat":43.31369,"lon":5.39389,"is_reserved":false,"is_disabled":false,"rental_uris":{"android":"levelo://app?vid=d043d581-d8cd-4562-980a-4b52c9a2b460","ios":"levelo://app?vid=d043d581-d8cd-4562-980a-4b52c9a2b460"},"vehicle_type_id":"4","last_reported":1679227960,"current_range_meters":12000,"station_id":"ce4bgg92rcd13ifvqb30","pricing_plan_id":"free"},{"bike_id":"e4b0e191-7f83-40df-8a83-d86ec2da4fcf","system_id":"levelo_inurba_marseille","lat":43.29313,"lon":5.37103,"is_reserved":false,"is_disabled":false,"rental_uris":{"android":"levelo://app?vid=e4b0e191-7f83-40df-8a83-d86ec2da4fcf","ios":"levelo://app?vid=e4b0e191-7f83-40df-8a83-d86ec2da4fcf"},"vehicle_type_id":"4","last_reported":1679227960,"current_range_meters":31600,"station_id":"","pricing_plan_id":"free"},{"bike_id":"474070fb-3ab9-48c6-bac4-5417be8f1f4b","system_id":"levelo_inurba_marseille","lat":43.300124,"lon":5.388969,"is_reserved":false,"is_disabled":false,"rental_uris":{"android":"levelo://app?vid=474070fb-3ab9-48c6-bac4-5417be8f1f4b","ios":"levelo://app?vid=474070fb-3ab9-48c6-bac4-5417be8f1f4b"},"vehicle_type_id":"4","last_reported":1679227960,"current_range_meters":0,"station_id":"","pricing_plan_id":"free"},{"bike_id":"fb789d18-a0f7-45d4-9d19-6c6a75c511b1","system_id":"levelo_inurba_marseille","lat":43.2936,"lon":5.37835,"is_reserved":false,"is_disabled":false,"rental_uris":{"android":"levelo://app?vid=fb789d18-a0f7-45d4-9d19-6c6a75c511b1","ios":"levelo://app?vid=fb789d18-a0f7-45d4-9d19-6c6a75c511b1"},"vehicle_type_id":"4","last_reported":1679227960,"current_range_meters":31600,"station_id":"ce4bgjh2rcd13ifvqbf0","pricing_plan_id":"free"},{"bike_id":"536644cb-7e07-4d97-8264-b1f40c0ec340","system_id":"levelo_inurba_marseille","lat":43.30085,"lon":5.390856,"is_reserved":false,"is_disabled":false,"rental_uris":{"android":"levelo://app?vid=536644cb-7e07-4d97-8264-b1f40c0ec340","ios":"levelo://app?vid=536644cb-7e07-4d97-8264-b1f40c0ec340"},"vehicle_type_id":"4","last_reported":1679227960,"current_range_meters":26400,"station_id":"ce4bh192rcd13ifvqdb0","pricing_plan_id":"free"},{"bike_id":"9362388f-52c8-452a-bbaf-2e5e655cd32c","system_id":"levelo_inurba_marseille","lat":43.30085,"lon":5.390856,"is_reserved":false,"is_disabled":false,"rental_uris":{"android":"levelo://app?vid=9362388f-52c8-452a-bbaf-2e5e655cd32c","ios":"levelo://app?vid=9362388f-52c8-452a-bbaf-2e5e655cd32c"},"vehicle_type_id":"4","last_reported":1679227960,"current_range_meters":20800,"station_id":"ce4bh192rcd13ifvqdb0","pricing_plan_id":"free"},{"bike_id":"ee965ee8-1182-45b0-9947-3b60afa84cf2","system_id":"levelo_inurba_marseille","lat":43.291675,"lon":5.371583,"is_reserved":false,"is_disabled":false,"rental_uris":{"android":"levelo://app?vid=ee965ee8-1182-45b0-9947-3b60afa84cf2","ios":"levelo://app?vid=ee965ee8-1182-45b0-9947-3b60afa84cf2"},"vehicle_type_id":"4","last_reported":1679227960,"current_range_meters":3600,"station_id":"ce4bha92rcd13ifvqeh0","pricing_plan_id":"free"},{"bike_id":"db60c165-6c9f-49ff-8dc8-cd9b1657206a","system_id":"levelo_inurba_marseille","lat":43.291675,"lon":5.371583,"is_reserved":false,"is_disabled":false,"rental_uris":{"android":"levelo://app?vid=db60c165-6c9f-49ff-8dc8-cd9b1657206a","ios":"levelo://app?vid=db60c165-6c9f-49ff-8dc8-cd9b1657206a"},"vehicle_type_id":"4","last_reported":1679227960,"current_range_meters":31600,"station_id":"ce4bha92rcd13ifvqeh0","pricing_plan_id":"free"},{"bike_id":"c5f57dee-e39b-4c76-9c4e-467fa17a0bbf","system_id":"levelo_inurba_marseille","lat":43.313291,"lon":5.396838,"is_reserved":false,"is_disabled":false,"rental_uris":{"android":"levelo://app?vid=c5f57dee-e39b-4c76-9c4e-467fa17a0bbf","ios":"levelo://app?vid=c5f57dee-e39b-4c76-9c4e-467fa17a0bbf"},"vehicle_type_id":"4","last_reported":1679227960,"current_range_meters":27600,"station_id":"ce4bgvp2rcd13ifvqcu0","pricing_plan_id":"free"},{"bike_id":"a945b72f-0b8f-4747-bcb8-3c556df4cc73","system_id":"levelo_inurba_marseille","lat":43.313291,"lon":5.396838,"is_reserved":false,"is_disabled":false,"rental_uris":{"android":"levelo://app?vid=a945b72f-0b8f-4747-bcb8-3c556df4cc73","ios":"levelo://app?vid=a945b72f-0b8f-4747-bcb8-3c556df4cc73"},"vehicle_type_id":"4","last_reported":1679227960,"current_range_meters":27200,"station_id":"ce4bgvp2rcd13ifvqcu0","pricing_plan_id":"free"},{"bike_id":"5c78248e-910e-4106-87b4-827570492049","system_id":"levelo_inurba_marseille","lat":43.313291,"lon":5.396838,"is_reserved":false,"is_disabled":false,"rental_uris":{"android":"levelo://app?vid=5c78248e-910e-4106-87b4-827570492049","ios":"levelo://app?vid=5c78248e-910e-4106-87b4-827570492049"},"vehicle_type_id":"4","last_reported":1679227960,"current_range_meters":28400,"station_id":"ce4bgvp2rcd13ifvqcu0","pricing_plan_id":"free"},{"bike_id":"ad60a594-8834-4db9-8563-99e5af3a2e92","system_id":"levelo_inurba_marseille","lat":43.313291,"lon":5.396838,"is_reserved":false,"is_disabled":false,"rental_uris":{"android":"levelo://app?vid=ad60a594-8834-4db9-8563-99e5af3a2e92","ios":"levelo://app?vid=ad60a594-8834-4db9-8563-99e5af3a2e92"},"vehicle_type_id":"4","last_reported":1679227960,"current_range_meters":20800,"station_id":"ce4bgvp2rcd13ifvqcu0","pricing_plan_id":"free"},{"bike_id":"b684db64-fb57-42bb-8a33-13244a857d82","system_id":"levelo_inurba_marseille","lat":43.29529,"lon":5.385581,"is_reserved":false,"is_disabled":false,"rental_uris":{"android":"levelo://app?vid=b684db64-fb57-42bb-8a33-13244a857d82","ios":"levelo://app?vid=b684db64-fb57-42bb-8a33-13244a857d82"},"vehicle_type_id":"4","last_reported":1679227960,"current_range_meters":0,"station_id":"ce4bgih2rcd13ifvqba0","pricing_plan_id":"free"},{"bike_id":"0bcdee28-657f-4741-93c5-eee861291c10","system_id":"levelo_inurba_marseille","lat":43.289575,"lon":5.364096,"is_reserved":false,"is_disabled":false,"rental_uris":{"android":"levelo://app?vid=0bcdee28-657f-4741-93c5-eee861291c10","ios":"levelo://app?vid=0bcdee28-657f-4741-93c5-eee861291c10"},"vehicle_type_id":"4","last_reported":1679227960,"current_range_meters":20400,"station_id":"ce4bhc92rcd13ifvqetg","pricing_plan_id":"free"},{"bike_id":"ae1b6f53-324b-4516-ba5d-0047b330f412","system_id":"levelo_inurba_marseille","lat":43.294162,"lon":5.386292,"is_reserved":false,"is_disabled":false,"rental_uris":{"android":"levelo://app?vid=ae1b6f53-324b-4516-ba5d-0047b330f412","ios":"levelo://app?vid=ae1b6f53-324b-4516-ba5d-0047b330f412"},"vehicle_type_id":"4","last_reported":1679227960,"current_range_meters":1600,"station_id":"ce4bh2h2rcd13ifvqdh0","pricing_plan_id":"free"},{"bike_id":"aa913928-1006-483d-addc-8a6799eea336","system_id":"levelo_inurba_marseille","lat":43.290319,"lon":5.375732,"is_reserved":false,"is_disabled":false,"rental_uris":{"android":"levelo://app?vid=aa913928-1006-483d-addc-8a6799eea336","ios":"levelo://app?vid=aa913928-1006-483d-addc-8a6799eea336"},"vehicle_type_id":"4","last_reported":1679227960,"current_range_meters":26400,"station_id":"ce4bh692rcd13ifvqe90","pricing_plan_id":"free"},{"bike_id":"6fe263f4-d110-4c37-b5e2-04c09bec1012","system_id":"levelo_inurba_marseille","lat":43.292644,"lon":5.384257,"is_reserved":false,"is_disabled":false,"rental_uris":{"android":"levelo://app?vid=6fe263f4-d110-4c37-b5e2-04c09bec1012","ios":"levelo://app?vid=6fe263f4-d110-4c37-b5e2-04c09bec1012"},"vehicle_type_id":"4","last_reported":1679227960,"current_range_meters":13200,"station_id":"ce4bh692rcd13ifvqea0","pricing_plan_id":"free"},{"bike_id":"c3ff741f-71c6-49c4-a127-1a38a8b450b6","system_id":"levelo_inurba_marseille","lat":43.290324,"lon":5.356005,"is_reserved":false,"is_disabled":false,"rental_uris":{"android":"levelo://app?vid=c3ff741f-71c6-49c4-a127-1a38a8b450b6","ios":"levelo://app?vid=c3ff741f-71c6-49c4-a127-1a38a8b450b6"},"vehicle_type_id":"4","last_reported":1679227960,"current_range_meters":0,"station_id":"","pricing_plan_id":"free"},{"bike_id":"07a1a71b-3fe9-4dbe-955b-7e707feeea68","system_id":"levelo_inurba_marseille","lat":43.33042,"lon":5.38919,"is_reserved":false,"is_disabled":false,"rental_uris":{"android":"levelo://app?vid=07a1a71b-3fe9-4dbe-955b-7e707feeea68","ios":"levelo://app?vid=07a1a71b-3fe9-4dbe-955b-7e707feeea68"},"vehicle_type_id":"4","last_reported":1679227960,"current_range_meters":14800,"station_id":"","pricing_plan_id":"free"},{"bike_id":"db03173b-a891-46b4-a89d-84367354c76c","system_id":"levelo_inurba_marseille","lat":43.330442,"lon":5.389148,"is_reserved":false,"is_disabled":false,"rental_uris":{"android":"levelo://app?vid=db03173b-a891-46b4-a89d-84367354c76c","ios":"levelo://app?vid=db03173b-a891-46b4-a89d-84367354c76c"},"vehicle_type_id":"4","last_reported":1679227960,"current_range_meters":20400,"station_id":"ce4bhr92rcd13ifvqhrg","pricing_plan_id":"free"},{"bike_id":"9bf04903-4a7c-4c4f-b1fe-0ec7f12bbcfe","system_id":"levelo_inurba_marseille","lat":43.33044,"lon":5.38921,"is_reserved":false,"is_disabled":false,"rental_uris":{"android":"levelo://app?vid=9bf04903-4a7c-4c4f-b1fe-0ec7f12bbcfe","ios":"levelo://app?vid=9bf04903-4a7c-4c4f-b1fe-0ec7f12bbcfe"},"vehicle_type_id":"4","last_reported":1679227960,"current_range_meters":5600,"station_id":"","pricing_plan_id":"free"},{"bike_id":"bd9d1f46-3ab2-4a87-92bc-cc18458f208b","system_id":"levelo_inurba_marseille","lat":43.290995,"lon":5.381361,"is_reserved":false,"is_disabled":false,"rental_uris":{"android":"levelo://app?vid=bd9d1f46-3ab2-4a87-92bc-cc18458f208b","ios":"levelo://app?vid=bd9d1f46-3ab2-4a87-92bc-cc18458f208b"},"vehicle_type_id":"4","last_reported":1679227960,"current_range_meters":18800,"station_id":"ce4bh512rcd13ifvqe2g","pricing_plan_id":"free"},{"bike_id":"bf39574d-23f7-4aff-8bee-9faefdc4c4c3","system_id":"levelo_inurba_marseille","lat":43.290995,"lon":5.381361,"is_reserved":false,"is_disabled":false,"rental_uris":{"android":"levelo://app?vid=bf39574d-23f7-4aff-8bee-9faefdc4c4c3","ios":"levelo://app?vid=bf39574d-23f7-4aff-8bee-9faefdc4c4c3"},"vehicle_type_id":"4","last_reported":1679227960,"current_range_meters":20400,"station_id":"ce4bh512rcd13ifvqe2g","pricing_plan_id":"free"},{"bike_id":"a52bf4c4-3007-4d28-acb3-aeb57f886758","system_id":"levelo_inurba_marseille","lat":43.29042,"lon":5.37955,"is_reserved":false,"is_disabled":false,"rental_uris":{"android":"levelo://app?vid=a52bf4c4-3007-4d28-acb3-aeb57f886758","ios":"levelo://app?vid=a52bf4c4-3007-4d28-acb3-aeb57f886758"},"vehicle_type_id":"4","last_reported":1679227960,"current_range_meters":6400,"station_id":"","pricing_plan_id":"free"},{"bike_id":"920592f5-1e26-4cab-bb4a-604823459f27","system_id":"levelo_inurba_marseille","lat":43.289743,"lon":5.378304,"is_reserved":false,"is_disabled":false,"rental_uris":{"android":"levelo://app?vid=920592f5-1e26-4cab-bb4a-604823459f27","ios":"levelo://app?vid=920592f5-1e26-4cab-bb4a-604823459f27"},"vehicle_type_id":"4","last_reported":1679227960,"current_range_meters":29200,"station_id":"ce4bh9p2rcd13ifvqed0","pricing_plan_id":"free"},{"bike_id":"d0d7df32-c37a-428a-9862-70b0480dd19b","system_id":"levelo_inurba_marseille","lat":43.337455,"lon":5.374605,"is_reserved":false,"is_disabled":false,"rental_uris":{"android":"levelo://app?vid=d0d7df32-c37a-428a-9862-70b0480dd19b","ios":"levelo://app?vid=d0d7df32-c37a-428a-9862-70b0480dd19b"},"vehicle_type_id":"4","last_reported":1679227960,"current_range_meters":6400,"station_id":"","pricing_plan_id":"free"},{"bike_id":"3691d997-1cad-46ed-b7e6-586680d35f2f","system_id":"levelo_inurba_marseille","lat":43.337476,"lon":5.374581,"is_reserved":false,"is_disabled":false,"rental_uris":{"android":"levelo://app?vid=3691d997-1cad-46ed-b7e6-586680d35f2f","ios":"levelo://app?vid=3691d997-1cad-46ed-b7e6-586680d35f2f"},"vehicle_type_id":"4","last_reported":1679227960,"current_range_meters":18800,"station_id":"","pricing_plan_id":"free"},{"bike_id":"f3e60a9c-2b74-43cb-ac11-5dfafdbb73c0","system_id":"levelo_inurba_marseille","lat":43.337581,"lon":5.374679,"is_reserved":false,"is_disabled":false,"rental_uris":{"android":"levelo://app?vid=f3e60a9c-2b74-43cb-ac11-5dfafdbb73c0","ios":"levelo://app?vid=f3e60a9c-2b74-43cb-ac11-5dfafdbb73c0"},"vehicle_type_id":"4","last_reported":1679227960,"current_range_meters":22000,"station_id":"","pricing_plan_id":"free"},{"bike_id":"70a0786e-d397-4ce6-952a-18c36ac8c965","system_id":"levelo_inurba_marseille","lat":43.298681,"lon":5.397225,"is_reserved":false,"is_disabled":false,"rental_uris":{"android":"levelo://app?vid=70a0786e-d397-4ce6-952a-18c36ac8c965","ios":"levelo://app?vid=70a0786e-d397-4ce6-952a-18c36ac8c965"},"vehicle_type_id":"4","last_reported":1679227960,"current_range_meters":26800,"station_id":"ce4bh0h2rcd13ifvqd50","pricing_plan_id":"free"},{"bike_id":"cea7b733-f0af-4a91-9b8c-2d830651aa8c","system_id":"levelo_inurba_marseille","lat":43.29509,"lon":5.39395,"is_reserved":false,"is_disabled":false,"rental_uris":{"android":"levelo://app?vid=cea7b733-f0af-4a91-9b8c-2d830651aa8c","ios":"levelo://app?vid=cea7b733-f0af-4a91-9b8c-2d830651aa8c"},"vehicle_type_id":"4","last_reported":1679227960,"current_range_meters":25200,"station_id":"ce4bh212rcd13ifvqde0","pricing_plan_id":"free"},{"bike_id":"f58a559a-b14a-43ec-be08-380c1f9a8974","system_id":"levelo_inurba_marseille","lat":43.303161,"lon":5.403062,"is_reserved":false,"is_disabled":false,"rental_uris":{"android":"levelo://app?vid=f58a559a-b14a-43ec-be08-380c1f9a8974","ios":"levelo://app?vid=f58a559a-b14a-43ec-be08-380c1f9a8974"},"vehicle_type_id":"4","last_reported":1679227960,"current_range_meters":0,"station_id":"","pricing_plan_id":"free"},{"bike_id":"f8029951-a1a3-486f-b4a5-8e17f0cf09b8","system_id":"levelo_inurba_marseille","lat":43.32334,"lon":5.406227,"is_reserved":false,"is_disabled":false,"rental_uris":{"android":"levelo://app?vid=f8029951-a1a3-486f-b4a5-8e17f0cf09b8","ios":"levelo://app?vid=f8029951-a1a3-486f-b4a5-8e17f0cf09b8"},"vehicle_type_id":"4","last_reported":1679227960,"current_range_meters":5600,"station_id":"","pricing_plan_id":"free"},{"bike_id":"09042915-7ebd-4335-b7ca-7181a2cb4a6a","system_id":"levelo_inurba_marseille","lat":43.32342,"lon":5.40624,"is_reserved":false,"is_disabled":false,"rental_uris":{"android":"levelo://app?vid=09042915-7ebd-4335-b7ca-7181a2cb4a6a","ios":"levelo://app?vid=09042915-7ebd-4335-b7ca-7181a2cb4a6a"},"vehicle_type_id":"4","last_reported":1679227960,"current_range_meters":9200,"station_id":"ce4bhq92rcd13ifvqhjg","pricing_plan_id":"free"},{"bike_id":"1b9b2cdd-8c97-4a51-83da-c5e904a13bf2","system_id":"levelo_inurba_marseille","lat":43.284793,"lon":5.384113,"is_reserved":false,"is_disabled":false,"rental_uris":{"android":"levelo://app?vid=1b9b2cdd-8c97-4a51-83da-c5e904a13bf2","ios":"levelo://app?vid=1b9b2cdd-8c97-4a51-83da-c5e904a13bf2"},"vehicle_type_id":"4","last_reported":1679227960,"current_range_meters":18800,"station_id":"ce4bh512rcd13ifvqe3g","pricing_plan_id":"free"},{"bike_id":"8dc50e78-8999-44e5-b910-2a0a3d1a5721","system_id":"levelo_inurba_marseille","lat":43.28482,"lon":5.38415,"is_reserved":false,"is_disabled":false,"rental_uris":{"android":"levelo://app?vid=8dc50e78-8999-44e5-b910-2a0a3d1a5721","ios":"levelo://app?vid=8dc50e78-8999-44e5-b910-2a0a3d1a5721"},"vehicle_type_id":"4","last_reported":1679227960,"current_range_meters":24800,"station_id":"","pricing_plan_id":"free"},{"bike_id":"d150c513-c2cc-4776-9d34-b47777d25759","system_id":"levelo_inurba_marseille","lat":43.284219,"lon":5.3497,"is_reserved":false,"is_disabled":false,"rental_uris":{"android":"levelo://app?vid=d150c513-c2cc-4776-9d34-b47777d25759","ios":"levelo://app?vid=d150c513-c2cc-4776-9d34-b47777d25759"},"vehicle_type_id":"4","last_reported":1679227960,"current_range_meters":22800,"station_id":"ce4bhbh2rcd13ifvqepg","pricing_plan_id":"free"},{"bike_id":"445d4f2b-651e-4433-ad84-88cd86a5687a","system_id":"levelo_inurba_marseille","lat":43.28413,"lon":5.34974,"is_reserved":false,"is_disabled":false,"rental_uris":{"android":"levelo://app?vid=445d4f2b-651e-4433-ad84-88cd86a5687a","ios":"levelo://app?vid=445d4f2b-651e-4433-ad84-88cd86a5687a"},"vehicle_type_id":"4","last_reported":1679227960,"current_range_meters":19200,"station_id":"","pricing_plan_id":"free"},{"bike_id":"a94dc779-cd61-456a-a7f6-b029850b8c1c","system_id":"levelo_inurba_marseille","lat":43.282754,"lon":5.350519,"is_reserved":false,"is_disabled":false,"rental_uris":{"android":"levelo://app?vid=a94dc779-cd61-456a-a7f6-b029850b8c1c","ios":"levelo://app?vid=a94dc779-cd61-456a-a7f6-b029850b8c1c"},"vehicle_type_id":"4","last_reported":1679227960,"current_range_meters":28400,"station_id":"ce4bhbp2rcd13ifvqerg","pricing_plan_id":"free"},{"bike_id":"2662e2b5-27bf-41e2-b673-19cfa09da27b","system_id":"levelo_inurba_marseille","lat":43.282754,"lon":5.350519,"is_reserved":false,"is_disabled":false,"rental_uris":{"android":"levelo://app?vid=2662e2b5-27bf-41e2-b673-19cfa09da27b","ios":"levelo://app?vid=2662e2b5-27bf-41e2-b673-19cfa09da27b"},"vehicle_type_id":"4","last_reported":1679227960,"current_range_meters":16400,"station_id":"ce4bhbp2rcd13ifvqerg","pricing_plan_id":"free"},{"bike_id":"88c42679-4155-4574-ae36-1c94a10b7343","system_id":"levelo_inurba_marseille","lat":43.28105,"lon":5.37838,"is_reserved":false,"is_disabled":false,"rental_uris":{"android":"levelo://app?vid=88c42679-4155-4574-ae36-1c94a10b7343","ios":"levelo://app?vid=88c42679-4155-4574-ae36-1c94a10b7343"},"vehicle_type_id":"4","last_reported":1679227960,"current_range_meters":22000,"station_id":"ce4bha12rcd13ifvqee0","pricing_plan_id":"free"},{"bike_id":"edabc1c3-bace-4ee4-9fc9-26bd3094c0be","system_id":"levelo_inurba_marseille","lat":43.284462,"lon":5.392121,"is_reserved":false,"is_disabled":false,"rental_uris":{"android":"levelo://app?vid=edabc1c3-bace-4ee4-9fc9-26bd3094c0be","ios":"levelo://app?vid=edabc1c3-bace-4ee4-9fc9-26bd3094c0be"},"vehicle_type_id":"4","last_reported":1679227960,"current_range_meters":2000,"station_id":"ce4bhoh2rcd13ifvqh5g","pricing_plan_id":"free"},{"bike_id":"4e627a28-d93a-454f-9c4f-8ded17cedcea","system_id":"levelo_inurba_marseille","lat":43.284462,"lon":5.392121,"is_reserved":false,"is_disabled":false,"rental_uris":{"android":"levelo://app?vid=4e627a28-d93a-454f-9c4f-8ded17cedcea","ios":"levelo://app?vid=4e627a28-d93a-454f-9c4f-8ded17cedcea"},"vehicle_type_id":"4","last_reported":1679227960,"current_range_meters":28400,"station_id":"ce4bhoh2rcd13ifvqh5g","pricing_plan_id":"free"},{"bike_id":"e58f39eb-1034-4d2d-85de-30ec94873634","system_id":"levelo_inurba_marseille","lat":43.279742,"lon":5.38744,"is_reserved":false,"is_disabled":false,"rental_uris":{"android":"levelo://app?vid=e58f39eb-1034-4d2d-85de-30ec94873634","ios":"levelo://app?vid=e58f39eb-1034-4d2d-85de-30ec94873634"},"vehicle_type_id":"4","last_reported":1679227960,"current_range_meters":24800,"station_id":"ce4bhg12rcd13ifvqf80","pricing_plan_id":"free"},{"bike_id":"f24e4062-e26b-472a-8072-6438082ba844","system_id":"levelo_inurba_marseille","lat":43.279742,"lon":5.38744,"is_reserved":false,"is_disabled":false,"rental_uris":{"android":"levelo://app?vid=f24e4062-e26b-472a-8072-6438082ba844","ios":"levelo://app?vid=f24e4062-e26b-472a-8072-6438082ba844"},"vehicle_type_id":"4","last_reported":1679227960,"current_range_meters":25600,"station_id":"ce4bhg12rcd13ifvqf80","pricing_plan_id":"free"},{"bike_id":"c37213cb-6f9c-4096-8b72-d50ecf4f4835","system_id":"levelo_inurba_marseille","lat":43.2797,"lon":5.38754,"is_reserved":false,"is_disabled":false,"rental_uris":{"android":"levelo://app?vid=c37213cb-6f9c-4096-8b72-d50ecf4f4835","ios":"levelo://app?vid=c37213cb-6f9c-4096-8b72-d50ecf4f4835"},"vehicle_type_id":"4","last_reported":1679227960,"current_range_meters":22000,"station_id":"","pricing_plan_id":"free"},{"bike_id":"d2527e26-e519-4bbd-9181-1e1e85c2fb7a","system_id":"levelo_inurba_marseille","lat":43.279742,"lon":5.38744,"is_reserved":false,"is_disabled":false,"rental_uris":{"android":"levelo://app?vid=d2527e26-e519-4bbd-9181-1e1e85c2fb7a","ios":"levelo://app?vid=d2527e26-e519-4bbd-9181-1e1e85c2fb7a"},"vehicle_type_id":"4","last_reported":1679227960,"current_range_meters":17600,"station_id":"ce4bhg12rcd13ifvqf80","pricing_plan_id":"free"},{"bike_id":"89aad27e-8761-41c6-9c0a-52a7dbdc5cef","system_id":"levelo_inurba_marseille","lat":43.324737,"lon":5.414309,"is_reserved":false,"is_disabled":false,"rental_uris":{"android":"levelo://app?vid=89aad27e-8761-41c6-9c0a-52a7dbdc5cef","ios":"levelo://app?vid=89aad27e-8761-41c6-9c0a-52a7dbdc5cef"},"vehicle_type_id":"4","last_reported":1679227960,"current_range_meters":5600,"station_id":"","pricing_plan_id":"free"},{"bike_id":"d824c792-d775-4220-9e5d-24752289c9f9","system_id":"levelo_inurba_marseille","lat":43.325233,"lon":5.414318,"is_reserved":false,"is_disabled":false,"rental_uris":{"android":"levelo://app?vid=d824c792-d775-4220-9e5d-24752289c9f9","ios":"levelo://app?vid=d824c792-d775-4220-9e5d-24752289c9f9"},"vehicle_type_id":"4","last_reported":1679227960,"current_range_meters":10400,"station_id":"ce4bhq12rcd13ifvqhhg","pricing_plan_id":"free"},{"bike_id":"a8d55e7f-415f-4afa-9662-dd37fa82abf3","system_id":"levelo_inurba_marseille","lat":43.325233,"lon":5.414318,"is_reserved":false,"is_disabled":false,"rental_uris":{"android":"levelo://app?vid=a8d55e7f-415f-4afa-9662-dd37fa82abf3","ios":"levelo://app?vid=a8d55e7f-415f-4afa-9662-dd37fa82abf3"},"vehicle_type_id":"4","last_reported":1679227960,"current_range_meters":4800,"station_id":"ce4bhq12rcd13ifvqhhg","pricing_plan_id":"free"},{"bike_id":"9a610f62-e7bc-4fa1-a0d1-d3843fe52985","system_id":"levelo_inurba_marseille","lat":43.27618,"lon":5.361009,"is_reserved":false,"is_disabled":false,"rental_uris":{"android":"levelo://app?vid=9a610f62-e7bc-4fa1-a0d1-d3843fe52985","ios":"levelo://app?vid=9a610f62-e7bc-4fa1-a0d1-d3843fe52985"},"vehicle_type_id":"4","last_reported":1679227960,"current_range_meters":21600,"station_id":"ce4bgj92rcd13ifvqbe0","pricing_plan_id":"free"},{"bike_id":"ea297699-17f9-407c-8aec-1bf2021263be","system_id":"levelo_inurba_marseille","lat":43.276192,"lon":5.361051,"is_reserved":false,"is_disabled":false,"rental_uris":{"android":"levelo://app?vid=ea297699-17f9-407c-8aec-1bf2021263be","ios":"levelo://app?vid=ea297699-17f9-407c-8aec-1bf2021263be"},"vehicle_type_id":"4","last_reported":1679227960,"current_range_meters":3200,"station_id":"ce4bgj92rcd13ifvqbe0","pricing_plan_id":"free"},{"bike_id":"a236139c-54c0-45c3-9cb7-b00a395e820c","system_id":"levelo_inurba_marseille","lat":43.323964,"lon":5.415173,"is_reserved":false,"is_disabled":false,"rental_uris":{"android":"levelo://app?vid=a236139c-54c0-45c3-9cb7-b00a395e820c","ios":"levelo://app?vid=a236139c-54c0-45c3-9cb7-b00a395e820c"},"vehicle_type_id":"4","last_reported":1679227960,"current_range_meters":4800,"station_id":"","pricing_plan_id":"free"},{"bike_id":"6d7258c2-8de6-410a-951d-64de189c8c51","system_id":"levelo_inurba_marseille","lat":43.280784,"lon":5.396622,"is_reserved":false,"is_disabled":false,"rental_uris":{"android":"levelo://app?vid=6d7258c2-8de6-410a-951d-64de189c8c51","ios":"levelo://app?vid=6d7258c2-8de6-410a-951d-64de189c8c51"},"vehicle_type_id":"4","last_reported":1679227960,"current_range_meters":20000,"station_id":"ce4bho12rcd13ifvqh2g","pricing_plan_id":"free"},{"bike_id":"2b031e8d-606f-4c09-9c69-2b2b9da01354","system_id":"levelo_inurba_marseille","lat":43.280784,"lon":5.396622,"is_reserved":false,"is_disabled":false,"rental_uris":{"android":"levelo://app?vid=2b031e8d-606f-4c09-9c69-2b2b9da01354","ios":"levelo://app?vid=2b031e8d-606f-4c09-9c69-2b2b9da01354"},"vehicle_type_id":"4","last_reported":1679227960,"current_range_meters":31600,"station_id":"ce4bho12rcd13ifvqh2g","pricing_plan_id":"free"},{"bike_id":"d43b11a1-2390-4f57-9412-993f23da0f9a","system_id":"levelo_inurba_marseille","lat":43.280784,"lon":5.396622,"is_reserved":false,"is_disabled":false,"rental_uris":{"android":"levelo://app?vid=d43b11a1-2390-4f57-9412-993f23da0f9a","ios":"levelo://app?vid=d43b11a1-2390-4f57-9412-993f23da0f9a"},"vehicle_type_id":"4","last_reported":1679227960,"current_range_meters":20400,"station_id":"ce4bho12rcd13ifvqh2g","pricing_plan_id":"free"},{"bike_id":"5229e1ff-7654-41a1-aa02-be472939a83e","system_id":"levelo_inurba_marseille","lat":43.27382,"lon":5.3625,"is_reserved":false,"is_disabled":false,"rental_uris":{"android":"levelo://app?vid=5229e1ff-7654-41a1-aa02-be472939a83e","ios":"levelo://app?vid=5229e1ff-7654-41a1-aa02-be472939a83e"},"vehicle_type_id":"4","last_reported":1679227960,"current_range_meters":18000,"station_id":"","pricing_plan_id":"free"},{"bike_id":"3c2f2a68-310f-4455-97be-b1a3eb7d2fdc","system_id":"levelo_inurba_marseille","lat":43.27382,"lon":5.36246,"is_reserved":false,"is_disabled":false,"rental_uris":{"android":"levelo://app?vid=3c2f2a68-310f-4455-97be-b1a3eb7d2fdc","ios":"levelo://app?vid=3c2f2a68-310f-4455-97be-b1a3eb7d2fdc"},"vehicle_type_id":"4","last_reported":1679227960,"current_range_meters":0,"station_id":"","pricing_plan_id":"free"},{"bike_id":"f426d1ac-499c-4766-88cd-c2c514a3f9c4","system_id":"levelo_inurba_marseille","lat":43.273613,"lon":5.362705,"is_reserved":false,"is_disabled":false,"rental_uris":{"android":"levelo://app?vid=f426d1ac-499c-4766-88cd-c2c514a3f9c4","ios":"levelo://app?vid=f426d1ac-499c-4766-88cd-c2c514a3f9c4"},"vehicle_type_id":"4","last_reported":1679227960,"current_range_meters":24800,"station_id":"ce4bhbh2rcd13ifvqeo0","pricing_plan_id":"free"},{"bike_id":"eb462c0b-2666-46c8-b365-bcbf64fc0073","system_id":"levelo_inurba_marseille","lat":43.27379,"lon":5.36251,"is_reserved":false,"is_disabled":false,"rental_uris":{"android":"levelo://app?vid=eb462c0b-2666-46c8-b365-bcbf64fc0073","ios":"levelo://app?vid=eb462c0b-2666-46c8-b365-bcbf64fc0073"},"vehicle_type_id":"4","last_reported":1679227960,"current_range_meters":5200,"station_id":"","pricing_plan_id":"free"},{"bike_id":"c2544b5b-1bbd-43df-8926-d9290682548f","system_id":"levelo_inurba_marseille","lat":43.273613,"lon":5.362705,"is_reserved":false,"is_disabled":false,"rental_uris":{"android":"levelo://app?vid=c2544b5b-1bbd-43df-8926-d9290682548f","ios":"levelo://app?vid=c2544b5b-1bbd-43df-8926-d9290682548f"},"vehicle_type_id":"4","last_reported":1679227960,"current_range_meters":24400,"station_id":"ce4bhbh2rcd13ifvqeo0","pricing_plan_id":"free"},{"bike_id":"ba3bd07f-81eb-49ab-9b25-d4efea593a49","system_id":"levelo_inurba_marseille","lat":43.273613,"lon":5.362705,"is_reserved":false,"is_disabled":false,"rental_uris":{"android":"levelo://app?vid=ba3bd07f-81eb-49ab-9b25-d4efea593a49","ios":"levelo://app?vid=ba3bd07f-81eb-49ab-9b25-d4efea593a49"},"vehicle_type_id":"4","last_reported":1679227960,"current_range_meters":25200,"station_id":"ce4bhbh2rcd13ifvqeo0","pricing_plan_id":"free"},{"bike_id":"0a9f75ee-d189-41f8-ae92-07a1da76ecfa","system_id":"levelo_inurba_marseille","lat":43.273613,"lon":5.362705,"is_reserved":false,"is_disabled":false,"rental_uris":{"android":"levelo://app?vid=0a9f75ee-d189-41f8-ae92-07a1da76ecfa","ios":"levelo://app?vid=0a9f75ee-d189-41f8-ae92-07a1da76ecfa"},"vehicle_type_id":"4","last_reported":1679227960,"current_range_meters":22400,"station_id":"ce4bhbh2rcd13ifvqeo0","pricing_plan_id":"free"},{"bike_id":"d8baee70-1fae-4f19-a99b-416b21244030","system_id":"levelo_inurba_marseille","lat":43.27998,"lon":5.39954,"is_reserved":false,"is_disabled":false,"rental_uris":{"android":"levelo://app?vid=d8baee70-1fae-4f19-a99b-416b21244030","ios":"levelo://app?vid=d8baee70-1fae-4f19-a99b-416b21244030"},"vehicle_type_id":"4","last_reported":1679227960,"current_range_meters":0,"station_id":"","pricing_plan_id":"free"},{"bike_id":"ab36292c-8f11-4e24-b214-cb80b401bf2d","system_id":"levelo_inurba_marseille","lat":43.273125,"lon":5.390731,"is_reserved":false,"is_disabled":false,"rental_uris":{"android":"levelo://app?vid=ab36292c-8f11-4e24-b214-cb80b401bf2d","ios":"levelo://app?vid=ab36292c-8f11-4e24-b214-cb80b401bf2d"},"vehicle_type_id":"4","last_reported":1679227960,"current_range_meters":8800,"station_id":"ce4bhgp2rcd13ifvqfe0","pricing_plan_id":"free"},{"bike_id":"d6e318f2-ae29-4f9f-a351-9bb85fdd0fab","system_id":"levelo_inurba_marseille","lat":43.273127,"lon":5.39074,"is_reserved":false,"is_disabled":false,"rental_uris":{"android":"levelo://app?vid=d6e318f2-ae29-4f9f-a351-9bb85fdd0fab","ios":"levelo://app?vid=d6e318f2-ae29-4f9f-a351-9bb85fdd0fab"},"vehicle_type_id":"4","last_reported":1679227960,"current_range_meters":14800,"station_id":"ce4bhgp2rcd13ifvqfe0","pricing_plan_id":"free"},{"bike_id":"0364770d-7f05-4935-b32e-89a3e29986ee","system_id":"levelo_inurba_marseille","lat":43.274103,"lon":5.394016,"is_reserved":false,"is_disabled":false,"rental_uris":{"android":"levelo://app?vid=0364770d-7f05-4935-b32e-89a3e29986ee","ios":"levelo://app?vid=0364770d-7f05-4935-b32e-89a3e29986ee"},"vehicle_type_id":"4","last_reported":1679227960,"current_range_meters":800,"station_id":"ce4bhdp2rcd13ifvqf20","pricing_plan_id":"free"},{"bike_id":"064fe924-c383-419e-8178-6b28370346c2","system_id":"levelo_inurba_marseille","lat":43.295523,"lon":5.422926,"is_reserved":false,"is_disabled":false,"rental_uris":{"android":"levelo://app?vid=064fe924-c383-419e-8178-6b28370346c2","ios":"levelo://app?vid=064fe924-c383-419e-8178-6b28370346c2"},"vehicle_type_id":"4","last_reported":1679227960,"current_range_meters":12800,"station_id":"ce4bhph2rcd13ifvqhdg","pricing_plan_id":"free"},{"bike_id":"b170044d-c7bc-4687-8c61-d20e1d905ffc","system_id":"levelo_inurba_marseille","lat":43.295523,"lon":5.422926,"is_reserved":false,"is_disabled":false,"rental_uris":{"android":"levelo://app?vid=b170044d-c7bc-4687-8c61-d20e1d905ffc","ios":"levelo://app?vid=b170044d-c7bc-4687-8c61-d20e1d905ffc"},"vehicle_type_id":"4","last_reported":1679227960,"current_range_meters":6000,"station_id":"ce4bhph2rcd13ifvqhdg","pricing_plan_id":"free"},{"bike_id":"31c2dfa5-53d2-4c7d-a340-8d003c44c0f9","system_id":"levelo_inurba_marseille","lat":43.272133,"lon":5.391907,"is_reserved":false,"is_disabled":false,"rental_uris":{"android":"levelo://app?vid=31c2dfa5-53d2-4c7d-a340-8d003c44c0f9","ios":"levelo://app?vid=31c2dfa5-53d2-4c7d-a340-8d003c44c0f9"},"vehicle_type_id":"4","last_reported":1679227960,"current_range_meters":31600,"station_id":"ce4bhhp2rcd13ifvqfm0","pricing_plan_id":"free"},{"bike_id":"955718bd-4774-45c0-bd98-55a7f9f35561","system_id":"levelo_inurba_marseille","lat":43.27208,"lon":5.39188,"is_reserved":false,"is_disabled":false,"rental_uris":{"android":"levelo://app?vid=955718bd-4774-45c0-bd98-55a7f9f35561","ios":"levelo://app?vid=955718bd-4774-45c0-bd98-55a7f9f35561"},"vehicle_type_id":"4","last_reported":1679227960,"current_range_meters":24400,"station_id":"ce4bhhp2rcd13ifvqfm0","pricing_plan_id":"free"},{"bike_id":"f94da57c-e627-4734-955a-0616e0097418","system_id":"levelo_inurba_marseille","lat":43.27815,"lon":5.40719,"is_reserved":false,"is_disabled":false,"rental_uris":{"android":"levelo://app?vid=f94da57c-e627-4734-955a-0616e0097418","ios":"levelo://app?vid=f94da57c-e627-4734-955a-0616e0097418"},"vehicle_type_id":"4","last_reported":1679227960,"current_range_meters":0,"station_id":"","pricing_plan_id":"free"},{"bike_id":"4408b93a-186b-48ba-8a5f-950dee786433","system_id":"levelo_inurba_marseille","lat":43.269467,"lon":5.386439,"is_reserved":false,"is_disabled":false,"rental_uris":{"android":"levelo://app?vid=4408b93a-186b-48ba-8a5f-950dee786433","ios":"levelo://app?vid=4408b93a-186b-48ba-8a5f-950dee786433"},"vehicle_type_id":"4","last_reported":1679227960,"current_range_meters":25200,"station_id":"ce4bhh92rcd13ifvqfh0","pricing_plan_id":"free"},{"bike_id":"d8656ef6-d1ee-4137-a0c2-6111ed7a86d0","system_id":"levelo_inurba_marseille","lat":43.269319,"lon":5.389397,"is_reserved":false,"is_disabled":false,"rental_uris":{"android":"levelo://app?vid=d8656ef6-d1ee-4137-a0c2-6111ed7a86d0","ios":"levelo://app?vid=d8656ef6-d1ee-4137-a0c2-6111ed7a86d0"},"vehicle_type_id":"4","last_reported":1679227960,"current_range_meters":23600,"station_id":"ce4bhhh2rcd13ifvqfl0","pricing_plan_id":"free"},{"bike_id":"ce168763-6989-4af3-8a52-760ab3877627","system_id":"levelo_inurba_marseille","lat":43.26681,"lon":5.382694,"is_reserved":false,"is_disabled":false,"rental_uris":{"android":"levelo://app?vid=ce168763-6989-4af3-8a52-760ab3877627","ios":"levelo://app?vid=ce168763-6989-4af3-8a52-760ab3877627"},"vehicle_type_id":"4","last_reported":1679227960,"current_range_meters":26400,"station_id":"ce4bhg92rcd13ifvqf90","pricing_plan_id":"free"},{"bike_id":"939a00c7-af6f-4ae3-9e1c-f909a041c128","system_id":"levelo_inurba_marseille","lat":43.265714,"lon":5.372891,"is_reserved":false,"is_disabled":false,"rental_uris":{"android":"levelo://app?vid=939a00c7-af6f-4ae3-9e1c-f909a041c128","ios":"levelo://app?vid=939a00c7-af6f-4ae3-9e1c-f909a041c128"},"vehicle_type_id":"4","last_reported":1679227960,"current_range_meters":26800,"station_id":"ce4bhg12rcd13ifvqf70","pricing_plan_id":"free"},{"bike_id":"2ae1bdf4-0433-418b-8f60-46ea51553a32","system_id":"levelo_inurba_marseille","lat":43.26681,"lon":5.382694,"is_reserved":false,"is_disabled":false,"rental_uris":{"android":"levelo://app?vid=2ae1bdf4-0433-418b-8f60-46ea51553a32","ios":"levelo://app?vid=2ae1bdf4-0433-418b-8f60-46ea51553a32"},"vehicle_type_id":"4","last_reported":1679227960,"current_range_meters":31600,"station_id":"ce4bhg92rcd13ifvqf90","pricing_plan_id":"free"},{"bike_id":"b37150fc-47d9-48d6-84c3-5ac297a72725","system_id":"levelo_inurba_marseille","lat":43.265714,"lon":5.372891,"is_reserved":false,"is_disabled":false,"rental_uris":{"android":"levelo://app?vid=b37150fc-47d9-48d6-84c3-5ac297a72725","ios":"levelo://app?vid=b37150fc-47d9-48d6-84c3-5ac297a72725"},"vehicle_type_id":"4","last_reported":1679227960,"current_range_meters":29600,"station_id":"ce4bhg12rcd13ifvqf70","pricing_plan_id":"free"},{"bike_id":"c5342d07-d2fa-4c43-99f6-8f189eb0d038","system_id":"levelo_inurba_marseille","lat":43.273613,"lon":5.362705,"is_reserved":false,"is_disabled":false,"rental_uris":{"android":"levelo://app?vid=c5342d07-d2fa-4c43-99f6-8f189eb0d038","ios":"levelo://app?vid=c5342d07-d2fa-4c43-99f6-8f189eb0d038"},"vehicle_type_id":"4","last_reported":1679227960,"current_range_meters":23600,"station_id":"ce4bhbh2rcd13ifvqeo0","pricing_plan_id":"free"},{"bike_id":"b5ae88ba-e8b4-4648-a35c-cfada7b5686e","system_id":"levelo_inurba_marseille","lat":43.27998,"lon":5.41663,"is_reserved":false,"is_disabled":false,"rental_uris":{"android":"levelo://app?vid=b5ae88ba-e8b4-4648-a35c-cfada7b5686e","ios":"levelo://app?vid=b5ae88ba-e8b4-4648-a35c-cfada7b5686e"},"vehicle_type_id":"4","last_reported":1679227960,"current_range_meters":19200,"station_id":"ce4bho12rcd13ifvqh1g","pricing_plan_id":"free"},{"bike_id":"fc263092-ec80-4cb7-a851-fd8e566092ef","system_id":"levelo_inurba_marseille","lat":43.267966,"lon":5.393976,"is_reserved":false,"is_disabled":false,"rental_uris":{"android":"levelo://app?vid=fc263092-ec80-4cb7-a851-fd8e566092ef","ios":"levelo://app?vid=fc263092-ec80-4cb7-a851-fd8e566092ef"},"vehicle_type_id":"4","last_reported":1679227960,"current_range_meters":2800,"station_id":"ce4bhh12rcd13ifvqfg0","pricing_plan_id":"free"},{"bike_id":"647e004b-a8bd-4761-83dc-964d1360154f","system_id":"levelo_inurba_marseille","lat":43.267966,"lon":5.393976,"is_reserved":false,"is_disabled":false,"rental_uris":{"android":"levelo://app?vid=647e004b-a8bd-4761-83dc-964d1360154f","ios":"levelo://app?vid=647e004b-a8bd-4761-83dc-964d1360154f"},"vehicle_type_id":"4","last_reported":1679227960,"current_range_meters":22000,"station_id":"ce4bhh12rcd13ifvqfg0","pricing_plan_id":"free"},{"bike_id":"76393d96-c583-4486-bc54-e9c4b431c457","system_id":"levelo_inurba_marseille","lat":43.267966,"lon":5.393976,"is_reserved":false,"is_disabled":false,"rental_uris":{"android":"levelo://app?vid=76393d96-c583-4486-bc54-e9c4b431c457","ios":"levelo://app?vid=76393d96-c583-4486-bc54-e9c4b431c457"},"vehicle_type_id":"4","last_reported":1679227960,"current_range_meters":22800,"station_id":"ce4bhh12rcd13ifvqfg0","pricing_plan_id":"free"},{"bike_id":"7c3e4dc0-a7e8-4178-b3c7-70ceb02652cc","system_id":"levelo_inurba_marseille","lat":43.308051,"lon":5.43527,"is_reserved":false,"is_disabled":false,"rental_uris":{"android":"levelo://app?vid=7c3e4dc0-a7e8-4178-b3c7-70ceb02652cc","ios":"levelo://app?vid=7c3e4dc0-a7e8-4178-b3c7-70ceb02652cc"},"vehicle_type_id":"4","last_reported":1679227960,"current_range_meters":6000,"station_id":"ce4bhph2rcd13ifvqheg","pricing_plan_id":"free"},{"bike_id":"e64489c4-592d-410b-ab06-d7f4db460c24","system_id":"levelo_inurba_marseille","lat":43.308051,"lon":5.43527,"is_reserved":false,"is_disabled":false,"rental_uris":{"android":"levelo://app?vid=e64489c4-592d-410b-ab06-d7f4db460c24","ios":"levelo://app?vid=e64489c4-592d-410b-ab06-d7f4db460c24"},"vehicle_type_id":"4","last_reported":1679227960,"current_range_meters":2400,"station_id":"ce4bhph2rcd13ifvqheg","pricing_plan_id":"free"},{"bike_id":"cf104348-ea20-4b4a-a376-22267b40e59f","system_id":"levelo_inurba_marseille","lat":43.307994,"lon":5.435252,"is_reserved":false,"is_disabled":false,"rental_uris":{"android":"levelo://app?vid=cf104348-ea20-4b4a-a376-22267b40e59f","ios":"levelo://app?vid=cf104348-ea20-4b4a-a376-22267b40e59f"},"vehicle_type_id":"4","last_reported":1679227960,"current_range_meters":0,"station_id":"ce4bhph2rcd13ifvqheg","pricing_plan_id":"free"},{"bike_id":"e651345b-5632-477d-b311-e5090b529272","system_id":"levelo_inurba_marseille","lat":43.308051,"lon":5.43527,"is_reserved":false,"is_disabled":false,"rental_uris":{"android":"levelo://app?vid=e651345b-5632-477d-b311-e5090b529272","ios":"levelo://app?vid=e651345b-5632-477d-b311-e5090b529272"},"vehicle_type_id":"4","last_reported":1679227960,"current_range_meters":1200,"station_id":"ce4bhph2rcd13ifvqheg","pricing_plan_id":"free"},{"bike_id":"8bbbcc37-39f2-481d-9c0f-90371390543a","system_id":"levelo_inurba_marseille","lat":43.308051,"lon":5.43527,"is_reserved":false,"is_disabled":false,"rental_uris":{"android":"levelo://app?vid=8bbbcc37-39f2-481d-9c0f-90371390543a","ios":"levelo://app?vid=8bbbcc37-39f2-481d-9c0f-90371390543a"},"vehicle_type_id":"4","last_reported":1679227960,"current_range_meters":2800,"station_id":"ce4bhph2rcd13ifvqheg","pricing_plan_id":"free"},{"bike_id":"5f6679d7-4f4d-4ce4-bd2c-2992d4a7cbbd","system_id":"levelo_inurba_marseille","lat":43.307956,"lon":5.435264,"is_reserved":false,"is_disabled":false,"rental_uris":{"android":"levelo://app?vid=5f6679d7-4f4d-4ce4-bd2c-2992d4a7cbbd","ios":"levelo://app?vid=5f6679d7-4f4d-4ce4-bd2c-2992d4a7cbbd"},"vehicle_type_id":"4","last_reported":1679227960,"current_range_meters":2000,"station_id":"ce4bhph2rcd13ifvqheg","pricing_plan_id":"free"},{"bike_id":"6b1a707b-b921-4dbe-84ea-c799961db391","system_id":"levelo_inurba_marseille","lat":43.261782,"lon":5.374515,"is_reserved":false,"is_disabled":false,"rental_uris":{"android":"levelo://app?vid=6b1a707b-b921-4dbe-84ea-c799961db391","ios":"levelo://app?vid=6b1a707b-b921-4dbe-84ea-c799961db391"},"vehicle_type_id":"4","last_reported":1679227960,"current_range_meters":26800,"station_id":"ce4bhgp2rcd13ifvqfc0","pricing_plan_id":"free"},{"bike_id":"9d4e2407-c5bb-4b83-8350-898b6cc025ae","system_id":"levelo_inurba_marseille","lat":43.261782,"lon":5.374515,"is_reserved":false,"is_disabled":false,"rental_uris":{"android":"levelo://app?vid=9d4e2407-c5bb-4b83-8350-898b6cc025ae","ios":"levelo://app?vid=9d4e2407-c5bb-4b83-8350-898b6cc025ae"},"vehicle_type_id":"4","last_reported":1679227960,"current_range_meters":28400,"station_id":"ce4bhgp2rcd13ifvqfc0","pricing_plan_id":"free"},{"bike_id":"604f087f-54c1-4da7-91ae-d5e310e30188","system_id":"levelo_inurba_marseille","lat":43.26202,"lon":5.379299,"is_reserved":false,"is_disabled":false,"rental_uris":{"android":"levelo://app?vid=604f087f-54c1-4da7-91ae-d5e310e30188","ios":"levelo://app?vid=604f087f-54c1-4da7-91ae-d5e310e30188"},"vehicle_type_id":"4","last_reported":1679227960,"current_range_meters":11600,"station_id":"ce4bhjp2rcd13ifvqg90","pricing_plan_id":"free"},{"bike_id":"4c30002f-16a9-4e84-8565-fe997127d52a","system_id":"levelo_inurba_marseille","lat":43.267959,"lon":5.402685,"is_reserved":false,"is_disabled":false,"rental_uris":{"android":"levelo://app?vid=4c30002f-16a9-4e84-8565-fe997127d52a","ios":"levelo://app?vid=4c30002f-16a9-4e84-8565-fe997127d52a"},"vehicle_type_id":"4","last_reported":1679227960,"current_range_meters":18400,"station_id":"ce501612rcd8frsf0b60","pricing_plan_id":"free"},{"bike_id":"20dd7c45-8830-414e-b0d7-1c3b6d82d2ab","system_id":"levelo_inurba_marseille","lat":43.267959,"lon":5.402685,"is_reserved":false,"is_disabled":false,"rental_uris":{"android":"levelo://app?vid=20dd7c45-8830-414e-b0d7-1c3b6d82d2ab","ios":"levelo://app?vid=20dd7c45-8830-414e-b0d7-1c3b6d82d2ab"},"vehicle_type_id":"4","last_reported":1679227960,"current_range_meters":24400,"station_id":"ce501612rcd8frsf0b60","pricing_plan_id":"free"},{"bike_id":"8efbc5f2-2999-4a83-acca-1fabed511c41","system_id":"levelo_inurba_marseille","lat":43.26066,"lon":5.393902,"is_reserved":false,"is_disabled":false,"rental_uris":{"android":"levelo://app?vid=8efbc5f2-2999-4a83-acca-1fabed511c41","ios":"levelo://app?vid=8efbc5f2-2999-4a83-acca-1fabed511c41"},"vehicle_type_id":"4","last_reported":1679227960,"current_range_meters":0,"station_id":"ce4bhh92rcd13ifvqfj0","pricing_plan_id":"free"},{"bike_id":"e1685687-d368-45d1-9584-578c31974db0","system_id":"levelo_inurba_marseille","lat":43.2607,"lon":5.393983,"is_reserved":false,"is_disabled":false,"rental_uris":{"android":"levelo://app?vid=e1685687-d368-45d1-9584-578c31974db0","ios":"levelo://app?vid=e1685687-d368-45d1-9584-578c31974db0"},"vehicle_type_id":"4","last_reported":1679227960,"current_range_meters":24400,"station_id":"ce4bhh92rcd13ifvqfj0","pricing_plan_id":"free"},{"bike_id":"b33163a4-2dfe-4593-81b6-290e23e35033","system_id":"levelo_inurba_marseille","lat":43.260909,"lon":5.397591,"is_reserved":false,"is_disabled":false,"rental_uris":{"android":"levelo://app?vid=b33163a4-2dfe-4593-81b6-290e23e35033","ios":"levelo://app?vid=b33163a4-2dfe-4593-81b6-290e23e35033"},"vehicle_type_id":"4","last_reported":1679227960,"current_range_meters":23200,"station_id":"ce4bhi12rcd13ifvqfq0","pricing_plan_id":"free"},{"bike_id":"c62abf6f-644f-490b-ae74-9b0cf51109f8","system_id":"levelo_inurba_marseille","lat":43.260909,"lon":5.397591,"is_reserved":false,"is_disabled":false,"rental_uris":{"android":"levelo://app?vid=c62abf6f-644f-490b-ae74-9b0cf51109f8","ios":"levelo://app?vid=c62abf6f-644f-490b-ae74-9b0cf51109f8"},"vehicle_type_id":"4","last_reported":1679227960,"current_range_meters":24000,"station_id":"ce4bhi12rcd13ifvqfq0","pricing_plan_id":"free"},{"bike_id":"180bbe87-f6f7-4a34-951c-7750af786517","system_id":"levelo_inurba_marseille","lat":43.260909,"lon":5.397591,"is_reserved":false,"is_disabled":false,"rental_uris":{"android":"levelo://app?vid=180bbe87-f6f7-4a34-951c-7750af786517","ios":"levelo://app?vid=180bbe87-f6f7-4a34-951c-7750af786517"},"vehicle_type_id":"4","last_reported":1679227960,"current_range_meters":19200,"station_id":"ce4bhi12rcd13ifvqfq0","pricing_plan_id":"free"},{"bike_id":"b3567da6-6e95-44e8-8f06-873f0bb7ee23","system_id":"levelo_inurba_marseille","lat":43.260848,"lon":5.397609,"is_reserved":false,"is_disabled":false,"rental_uris":{"android":"levelo://app?vid=b3567da6-6e95-44e8-8f06-873f0bb7ee23","ios":"levelo://app?vid=b3567da6-6e95-44e8-8f06-873f0bb7ee23"},"vehicle_type_id":"4","last_reported":1679227960,"current_range_meters":16000,"station_id":"","pricing_plan_id":"free"},{"bike_id":"5c0e266e-5d31-4c32-b970-2b7712121665","system_id":"levelo_inurba_marseille","lat":43.29248,"lon":5.44137,"is_reserved":false,"is_disabled":false,"rental_uris":{"android":"levelo://app?vid=5c0e266e-5d31-4c32-b970-2b7712121665","ios":"levelo://app?vid=5c0e266e-5d31-4c32-b970-2b7712121665"},"vehicle_type_id":"4","last_reported":1679227960,"current_range_meters":20000,"station_id":"","pricing_plan_id":"free"},{"bike_id":"503ff26e-d472-45a8-9de9-09f5dd2d81ba","system_id":"levelo_inurba_marseille","lat":43.25498,"lon":5.37647,"is_reserved":false,"is_disabled":false,"rental_uris":{"android":"levelo://app?vid=503ff26e-d472-45a8-9de9-09f5dd2d81ba","ios":"levelo://app?vid=503ff26e-d472-45a8-9de9-09f5dd2d81ba"},"vehicle_type_id":"4","last_reported":1679227960,"current_range_meters":22400,"station_id":"ce4bhh12rcd13ifvqff0","pricing_plan_id":"free"},{"bike_id":"a01705d3-e360-4b4a-a9a2-fefa6889ad5a","system_id":"levelo_inurba_marseille","lat":43.254947,"lon":5.376454,"is_reserved":false,"is_disabled":false,"rental_uris":{"android":"levelo://app?vid=a01705d3-e360-4b4a-a9a2-fefa6889ad5a","ios":"levelo://app?vid=a01705d3-e360-4b4a-a9a2-fefa6889ad5a"},"vehicle_type_id":"4","last_reported":1679227960,"current_range_meters":6800,"station_id":"ce4bhh12rcd13ifvqff0","pricing_plan_id":"free"},{"bike_id":"f3c7fb6d-6cb2-4410-9d62-88890b18538d","system_id":"levelo_inurba_marseille","lat":43.258658,"lon":5.398935,"is_reserved":false,"is_disabled":false,"rental_uris":{"android":"levelo://app?vid=f3c7fb6d-6cb2-4410-9d62-88890b18538d","ios":"levelo://app?vid=f3c7fb6d-6cb2-4410-9d62-88890b18538d"},"vehicle_type_id":"4","last_reported":1679227960,"current_range_meters":29200,"station_id":"ce4bhl92rcd13ifvqghg","pricing_plan_id":"free"},{"bike_id":"f0ebe68a-dec1-4a05-82d2-4eaa949d2be9","system_id":"levelo_inurba_marseille","lat":43.258658,"lon":5.398935,"is_reserved":false,"is_disabled":false,"rental_uris":{"android":"levelo://app?vid=f0ebe68a-dec1-4a05-82d2-4eaa949d2be9","ios":"levelo://app?vid=f0ebe68a-dec1-4a05-82d2-4eaa949d2be9"},"vehicle_type_id":"4","last_reported":1679227960,"current_range_meters":28000,"station_id":"ce4bhl92rcd13ifvqghg","pricing_plan_id":"free"},{"bike_id":"b48db9eb-c8cc-427d-82b0-0102e57a21c8","system_id":"levelo_inurba_marseille","lat":43.258658,"lon":5.398935,"is_reserved":false,"is_disabled":false,"rental_uris":{"android":"levelo://app?vid=b48db9eb-c8cc-427d-82b0-0102e57a21c8","ios":"levelo://app?vid=b48db9eb-c8cc-427d-82b0-0102e57a21c8"},"vehicle_type_id":"4","last_reported":1679227960,"current_range_meters":30000,"station_id":"ce4bhl92rcd13ifvqghg","pricing_plan_id":"free"},{"bike_id":"767ae27c-405a-4f1a-853b-26d2f3f94bf0","system_id":"levelo_inurba_marseille","lat":43.2501,"lon":5.3892,"is_reserved":false,"is_disabled":false,"rental_uris":{"android":"levelo://app?vid=767ae27c-405a-4f1a-853b-26d2f3f94bf0","ios":"levelo://app?vid=767ae27c-405a-4f1a-853b-26d2f3f94bf0"},"vehicle_type_id":"4","last_reported":1679227960,"current_range_meters":21600,"station_id":"ce4bhgp2rcd13ifvqfd0","pricing_plan_id":"free"},{"bike_id":"f4631ba2-4319-4920-81a2-1dcea93f84d5","system_id":"levelo_inurba_marseille","lat":43.2479,"lon":5.374457,"is_reserved":false,"is_disabled":false,"rental_uris":{"android":"levelo://app?vid=f4631ba2-4319-4920-81a2-1dcea93f84d5","ios":"levelo://app?vid=f4631ba2-4319-4920-81a2-1dcea93f84d5"},"vehicle_type_id":"4","last_reported":1679227960,"current_range_meters":22400,"station_id":"ce4bhgh2rcd13ifvqfb0","pricing_plan_id":"free"},{"bike_id":"4df466a5-28b8-454b-8cd1-69962577b07a","system_id":"levelo_inurba_marseille","lat":43.2479,"lon":5.374457,"is_reserved":false,"is_disabled":false,"rental_uris":{"android":"levelo://app?vid=4df466a5-28b8-454b-8cd1-69962577b07a","ios":"levelo://app?vid=4df466a5-28b8-454b-8cd1-69962577b07a"},"vehicle_type_id":"4","last_reported":1679227960,"current_range_meters":26400,"station_id":"ce4bhgh2rcd13ifvqfb0","pricing_plan_id":"free"},{"bike_id":"e0e12789-57d7-470d-832f-11a17a51d9be","system_id":"levelo_inurba_marseille","lat":43.2479,"lon":5.374457,"is_reserved":false,"is_disabled":false,"rental_uris":{"android":"levelo://app?vid=e0e12789-57d7-470d-832f-11a17a51d9be","ios":"levelo://app?vid=e0e12789-57d7-470d-832f-11a17a51d9be"},"vehicle_type_id":"4","last_reported":1679227960,"current_range_meters":30800,"station_id":"ce4bhgh2rcd13ifvqfb0","pricing_plan_id":"free"},{"bike_id":"931bddc5-a26c-49d8-9edf-8d0dea0cdfbb","system_id":"levelo_inurba_marseille","lat":43.2479,"lon":5.374457,"is_reserved":false,"is_disabled":false,"rental_uris":{"android":"levelo://app?vid=931bddc5-a26c-49d8-9edf-8d0dea0cdfbb","ios":"levelo://app?vid=931bddc5-a26c-49d8-9edf-8d0dea0cdfbb"},"vehicle_type_id":"4","last_reported":1679227960,"current_range_meters":27600,"station_id":"ce4bhgh2rcd13ifvqfb0","pricing_plan_id":"free"},{"bike_id":"063966c5-4431-4d11-9b74-dd41dad694b0","system_id":"levelo_inurba_marseille","lat":43.25102,"lon":5.403214,"is_reserved":false,"is_disabled":false,"rental_uris":{"android":"levelo://app?vid=063966c5-4431-4d11-9b74-dd41dad694b0","ios":"levelo://app?vid=063966c5-4431-4d11-9b74-dd41dad694b0"},"vehicle_type_id":"4","last_reported":1679227960,"current_range_meters":29600,"station_id":"ce4bhlh2rcd13ifvqgig","pricing_plan_id":"free"},{"bike_id":"406576c1-eab8-45df-9760-3472762261ac","system_id":"levelo_inurba_marseille","lat":43.25102,"lon":5.403214,"is_reserved":false,"is_disabled":false,"rental_uris":{"android":"levelo://app?vid=406576c1-eab8-45df-9760-3472762261ac","ios":"levelo://app?vid=406576c1-eab8-45df-9760-3472762261ac"},"vehicle_type_id":"4","last_reported":1679227960,"current_range_meters":8000,"station_id":"ce4bhlh2rcd13ifvqgig","pricing_plan_id":"free"},{"bike_id":"bd447acb-c946-47f9-b4b2-7677fc5d2a07","system_id":"levelo_inurba_marseille","lat":43.25102,"lon":5.403214,"is_reserved":false,"is_disabled":false,"rental_uris":{"android":"levelo://app?vid=bd447acb-c946-47f9-b4b2-7677fc5d2a07","ios":"levelo://app?vid=bd447acb-c946-47f9-b4b2-7677fc5d2a07"},"vehicle_type_id":"4","last_reported":1679227960,"current_range_meters":24800,"station_id":"ce4bhlh2rcd13ifvqgig","pricing_plan_id":"free"},{"bike_id":"22d11032-2806-4438-9544-571fecc5aba1","system_id":"levelo_inurba_marseille","lat":43.25108,"lon":5.40322,"is_reserved":false,"is_disabled":false,"rental_uris":{"android":"levelo://app?vid=22d11032-2806-4438-9544-571fecc5aba1","ios":"levelo://app?vid=22d11032-2806-4438-9544-571fecc5aba1"},"vehicle_type_id":"4","last_reported":1679227960,"current_range_meters":22000,"station_id":"","pricing_plan_id":"free"},{"bike_id":"159e568d-b336-4696-b9c6-ea6d53e3dcf2","system_id":"levelo_inurba_marseille","lat":43.25102,"lon":5.403214,"is_reserved":false,"is_disabled":false,"rental_uris":{"android":"levelo://app?vid=159e568d-b336-4696-b9c6-ea6d53e3dcf2","ios":"levelo://app?vid=159e568d-b336-4696-b9c6-ea6d53e3dcf2"},"vehicle_type_id":"4","last_reported":1679227960,"current_range_meters":29600,"station_id":"ce4bhlh2rcd13ifvqgig","pricing_plan_id":"free"},{"bike_id":"58d659a2-1404-47f2-a754-92c0904f655b","system_id":"levelo_inurba_marseille","lat":43.25102,"lon":5.403214,"is_reserved":false,"is_disabled":false,"rental_uris":{"android":"levelo://app?vid=58d659a2-1404-47f2-a754-92c0904f655b","ios":"levelo://app?vid=58d659a2-1404-47f2-a754-92c0904f655b"},"vehicle_type_id":"4","last_reported":1679227960,"current_range_meters":2400,"station_id":"ce4bhlh2rcd13ifvqgig","pricing_plan_id":"free"},{"bike_id":"d252650f-6ac1-4988-9e75-0fdd2fd5ce2f","system_id":"levelo_inurba_marseille","lat":43.25102,"lon":5.403214,"is_reserved":false,"is_disabled":false,"rental_uris":{"android":"levelo://app?vid=d252650f-6ac1-4988-9e75-0fdd2fd5ce2f","ios":"levelo://app?vid=d252650f-6ac1-4988-9e75-0fdd2fd5ce2f"},"vehicle_type_id":"4","last_reported":1679227960,"current_range_meters":20000,"station_id":"ce4bhlh2rcd13ifvqgig","pricing_plan_id":"free"},{"bike_id":"9b6851ef-1fbf-46f9-a21a-4f72b31079a7","system_id":"levelo_inurba_marseille","lat":43.243884,"lon":5.370736,"is_reserved":false,"is_disabled":false,"rental_uris":{"android":"levelo://app?vid=9b6851ef-1fbf-46f9-a21a-4f72b31079a7","ios":"levelo://app?vid=9b6851ef-1fbf-46f9-a21a-4f72b31079a7"},"vehicle_type_id":"4","last_reported":1679227960,"current_range_meters":29600,"station_id":"ce4bhhh2rcd13ifvqfk0","pricing_plan_id":"free"},{"bike_id":"dec9f3cd-1429-41e5-927b-cf70515517f6","system_id":"levelo_inurba_marseille","lat":43.243884,"lon":5.370736,"is_reserved":false,"is_disabled":false,"rental_uris":{"android":"levelo://app?vid=dec9f3cd-1429-41e5-927b-cf70515517f6","ios":"levelo://app?vid=dec9f3cd-1429-41e5-927b-cf70515517f6"},"vehicle_type_id":"4","last_reported":1679227960,"current_range_meters":23600,"station_id":"ce4bhhh2rcd13ifvqfk0","pricing_plan_id":"free"},{"bike_id":"b4935991-5761-48c0-b673-c2c51265676d","system_id":"levelo_inurba_marseille","lat":43.245581,"lon":5.395069,"is_reserved":false,"is_disabled":false,"rental_uris":{"android":"levelo://app?vid=b4935991-5761-48c0-b673-c2c51265676d","ios":"levelo://app?vid=b4935991-5761-48c0-b673-c2c51265676d"},"vehicle_type_id":"4","last_reported":1679227960,"current_range_meters":20800,"station_id":"ce4bhlp2rcd13ifvqgjg","pricing_plan_id":"free"},{"bike_id":"6ea350ca-b9e2-4cf4-a986-ecfed5561e7a","system_id":"levelo_inurba_marseille","lat":43.245581,"lon":5.395069,"is_reserved":false,"is_disabled":false,"rental_uris":{"android":"levelo://app?vid=6ea350ca-b9e2-4cf4-a986-ecfed5561e7a","ios":"levelo://app?vid=6ea350ca-b9e2-4cf4-a986-ecfed5561e7a"},"vehicle_type_id":"4","last_reported":1679227960,"current_range_meters":22000,"station_id":"ce4bhlp2rcd13ifvqgjg","pricing_plan_id":"free"},{"bike_id":"afd9d1df-a4ec-4e3a-b1c7-2d2faa43b8f9","system_id":"levelo_inurba_marseille","lat":43.239588,"lon":5.366238,"is_reserved":false,"is_disabled":false,"rental_uris":{"android":"levelo://app?vid=afd9d1df-a4ec-4e3a-b1c7-2d2faa43b8f9","ios":"levelo://app?vid=afd9d1df-a4ec-4e3a-b1c7-2d2faa43b8f9"},"vehicle_type_id":"4","last_reported":1679227960,"current_range_meters":31200,"station_id":"ce4bhi12rcd13ifvqfp0","pricing_plan_id":"free"},{"bike_id":"84d1834a-f1ad-4a72-8b4a-feed56e98980","system_id":"levelo_inurba_marseille","lat":43.239701,"lon":5.366216,"is_reserved":false,"is_disabled":false,"rental_uris":{"android":"levelo://app?vid=84d1834a-f1ad-4a72-8b4a-feed56e98980","ios":"levelo://app?vid=84d1834a-f1ad-4a72-8b4a-feed56e98980"},"vehicle_type_id":"4","last_reported":1679227960,"current_range_meters":2400,"station_id":"","pricing_plan_id":"free"},{"bike_id":"b9eb7df5-4549-486d-acf3-adcd910c731d","system_id":"levelo_inurba_marseille","lat":43.239588,"lon":5.366238,"is_reserved":false,"is_disabled":false,"rental_uris":{"android":"levelo://app?vid=b9eb7df5-4549-486d-acf3-adcd910c731d","ios":"levelo://app?vid=b9eb7df5-4549-486d-acf3-adcd910c731d"},"vehicle_type_id":"4","last_reported":1679227960,"current_range_meters":31600,"station_id":"ce4bhi12rcd13ifvqfp0","pricing_plan_id":"free"},{"bike_id":"dcfbe225-2601-4561-81df-92cf185c56f6","system_id":"levelo_inurba_marseille","lat":43.239588,"lon":5.366238,"is_reserved":false,"is_disabled":false,"rental_uris":{"android":"levelo://app?vid=dcfbe225-2601-4561-81df-92cf185c56f6","ios":"levelo://app?vid=dcfbe225-2601-4561-81df-92cf185c56f6"},"vehicle_type_id":"4","last_reported":1679227960,"current_range_meters":31600,"station_id":"ce4bhi12rcd13ifvqfp0","pricing_plan_id":"free"},{"bike_id":"6f91f443-89f6-439a-8dfb-a79650995a43","system_id":"levelo_inurba_marseille","lat":43.239588,"lon":5.366238,"is_reserved":false,"is_disabled":false,"rental_uris":{"android":"levelo://app?vid=6f91f443-89f6-439a-8dfb-a79650995a43","ios":"levelo://app?vid=6f91f443-89f6-439a-8dfb-a79650995a43"},"vehicle_type_id":"4","last_reported":1679227960,"current_range_meters":27200,"station_id":"ce4bhi12rcd13ifvqfp0","pricing_plan_id":"free"},{"bike_id":"1699a451-a92c-4c7e-98e5-9fcbddaedfa4","system_id":"levelo_inurba_marseille","lat":43.239588,"lon":5.366238,"is_reserved":false,"is_disabled":false,"rental_uris":{"android":"levelo://app?vid=1699a451-a92c-4c7e-98e5-9fcbddaedfa4","ios":"levelo://app?vid=1699a451-a92c-4c7e-98e5-9fcbddaedfa4"},"vehicle_type_id":"4","last_reported":1679227960,"current_range_meters":31200,"station_id":"ce4bhi12rcd13ifvqfp0","pricing_plan_id":"free"},{"bike_id":"1734dda6-91dc-4d61-bae1-8b7a0e2878c3","system_id":"levelo_inurba_marseille","lat":43.241782,"lon":5.397264,"is_reserved":false,"is_disabled":false,"rental_uris":{"android":"levelo://app?vid=1734dda6-91dc-4d61-bae1-8b7a0e2878c3","ios":"levelo://app?vid=1734dda6-91dc-4d61-bae1-8b7a0e2878c3"},"vehicle_type_id":"4","last_reported":1679227960,"current_range_meters":28000,"station_id":"ce4bhn12rcd13ifvqgpg","pricing_plan_id":"free"},{"bike_id":"4701504d-db0c-4545-a8ce-c65f97ccdef8","system_id":"levelo_inurba_marseille","lat":43.241782,"lon":5.397264,"is_reserved":false,"is_disabled":false,"rental_uris":{"android":"levelo://app?vid=4701504d-db0c-4545-a8ce-c65f97ccdef8","ios":"levelo://app?vid=4701504d-db0c-4545-a8ce-c65f97ccdef8"},"vehicle_type_id":"4","last_reported":1679227960,"current_range_meters":20800,"station_id":"ce4bhn12rcd13ifvqgpg","pricing_plan_id":"free"},{"bike_id":"fc7b84c9-7649-485c-9772-352f568c37b3","system_id":"levelo_inurba_marseille","lat":43.241782,"lon":5.397264,"is_reserved":false,"is_disabled":false,"rental_uris":{"android":"levelo://app?vid=fc7b84c9-7649-485c-9772-352f568c37b3","ios":"levelo://app?vid=fc7b84c9-7649-485c-9772-352f568c37b3"},"vehicle_type_id":"4","last_reported":1679227960,"current_range_meters":22000,"station_id":"ce4bhn12rcd13ifvqgpg","pricing_plan_id":"free"},{"bike_id":"32bfdfa5-1c59-4a81-a4b9-6a3152845cfe","system_id":"levelo_inurba_marseille","lat":43.241782,"lon":5.397264,"is_reserved":false,"is_disabled":false,"rental_uris":{"android":"levelo://app?vid=32bfdfa5-1c59-4a81-a4b9-6a3152845cfe","ios":"levelo://app?vid=32bfdfa5-1c59-4a81-a4b9-6a3152845cfe"},"vehicle_type_id":"4","last_reported":1679227960,"current_range_meters":31600,"station_id":"ce4bhn12rcd13ifvqgpg","pricing_plan_id":"free"},{"bike_id":"badd26db-d74e-47d1-a8af-80511d09ad4e","system_id":"levelo_inurba_marseille","lat":43.241782,"lon":5.397264,"is_reserved":false,"is_disabled":false,"rental_uris":{"android":"levelo://app?vid=badd26db-d74e-47d1-a8af-80511d09ad4e","ios":"levelo://app?vid=badd26db-d74e-47d1-a8af-80511d09ad4e"},"vehicle_type_id":"4","last_reported":1679227960,"current_range_meters":31600,"station_id":"ce4bhn12rcd13ifvqgpg","pricing_plan_id":"free"},{"bike_id":"b9f6f4f0-f36b-4f70-8715-1fede5862196","system_id":"levelo_inurba_marseille","lat":43.23201,"lon":5.35558,"is_reserved":false,"is_disabled":false,"rental_uris":{"android":"levelo://app?vid=b9f6f4f0-f36b-4f70-8715-1fede5862196","ios":"levelo://app?vid=b9f6f4f0-f36b-4f70-8715-1fede5862196"},"vehicle_type_id":"4","last_reported":1679227960,"current_range_meters":26800,"station_id":"ce4bhu92rcd13ifvqi70","pricing_plan_id":"free"},{"bike_id":"2f1e89bb-26de-4f28-9f9c-8145daa23f89","system_id":"levelo_inurba_marseille","lat":43.23201,"lon":5.35556,"is_reserved":false,"is_disabled":false,"rental_uris":{"android":"levelo://app?vid=2f1e89bb-26de-4f28-9f9c-8145daa23f89","ios":"levelo://app?vid=2f1e89bb-26de-4f28-9f9c-8145daa23f89"},"vehicle_type_id":"4","last_reported":1679227960,"current_range_meters":29200,"station_id":"ce4bhu92rcd13ifvqi70","pricing_plan_id":"free"},{"bike_id":"e8fea5b7-48a9-48c9-b449-fe6211bd9de6","system_id":"levelo_inurba_marseille","lat":43.231923,"lon":5.355545,"is_reserved":false,"is_disabled":false,"rental_uris":{"android":"levelo://app?vid=e8fea5b7-48a9-48c9-b449-fe6211bd9de6","ios":"levelo://app?vid=e8fea5b7-48a9-48c9-b449-fe6211bd9de6"},"vehicle_type_id":"4","last_reported":1679227960,"current_range_meters":29600,"station_id":"ce4bhu92rcd13ifvqi70","pricing_plan_id":"free"},{"bike_id":"9396a642-8421-4ca9-b20d-a2492104caf9","system_id":"levelo_inurba_marseille","lat":43.231981,"lon":5.355529,"is_reserved":false,"is_disabled":false,"rental_uris":{"android":"levelo://app?vid=9396a642-8421-4ca9-b20d-a2492104caf9","ios":"levelo://app?vid=9396a642-8421-4ca9-b20d-a2492104caf9"},"vehicle_type_id":"4","last_reported":1679227960,"current_range_meters":28000,"station_id":"ce4bhu92rcd13ifvqi70","pricing_plan_id":"free"},{"bike_id":"c4a765e8-1981-4501-b559-fd423b924ef4","system_id":"levelo_inurba_marseille","lat":43.231923,"lon":5.355545,"is_reserved":false,"is_disabled":false,"rental_uris":{"android":"levelo://app?vid=c4a765e8-1981-4501-b559-fd423b924ef4","ios":"levelo://app?vid=c4a765e8-1981-4501-b559-fd423b924ef4"},"vehicle_type_id":"4","last_reported":1679227960,"current_range_meters":27600,"station_id":"ce4bhu92rcd13ifvqi70","pricing_plan_id":"free"},{"bike_id":"ff98316f-748f-4069-a942-b27635abd352","system_id":"levelo_inurba_marseille","lat":43.231923,"lon":5.355545,"is_reserved":false,"is_disabled":false,"rental_uris":{"android":"levelo://app?vid=ff98316f-748f-4069-a942-b27635abd352","ios":"levelo://app?vid=ff98316f-748f-4069-a942-b27635abd352"},"vehicle_type_id":"4","last_reported":1679227960,"current_range_meters":31600,"station_id":"ce4bhu92rcd13ifvqi70","pricing_plan_id":"free"},{"bike_id":"956fe110-a343-4414-91a1-6e3d50bfa094","system_id":"levelo_inurba_marseille","lat":43.231923,"lon":5.355545,"is_reserved":false,"is_disabled":false,"rental_uris":{"android":"levelo://app?vid=956fe110-a343-4414-91a1-6e3d50bfa094","ios":"levelo://app?vid=956fe110-a343-4414-91a1-6e3d50bfa094"},"vehicle_type_id":"4","last_reported":1679227960,"current_range_meters":30400,"station_id":"ce4bhu92rcd13ifvqi70","pricing_plan_id":"free"},{"bike_id":"7a0386b8-bc02-42af-8db3-47ad8e33cb98","system_id":"levelo_inurba_marseille","lat":43.231923,"lon":5.355545,"is_reserved":false,"is_disabled":false,"rental_uris":{"android":"levelo://app?vid=7a0386b8-bc02-42af-8db3-47ad8e33cb98","ios":"levelo://app?vid=7a0386b8-bc02-42af-8db3-47ad8e33cb98"},"vehicle_type_id":"4","last_reported":1679227960,"current_range_meters":22800,"station_id":"ce4bhu92rcd13ifvqi70","pricing_plan_id":"free"},{"bike_id":"beaf722f-8cce-48cc-9f08-62b9af3ed634","system_id":"levelo_inurba_marseille","lat":43.23193,"lon":5.35553,"is_reserved":false,"is_disabled":false,"rental_uris":{"android":"levelo://app?vid=beaf722f-8cce-48cc-9f08-62b9af3ed634","ios":"levelo://app?vid=beaf722f-8cce-48cc-9f08-62b9af3ed634"},"vehicle_type_id":"4","last_reported":1679227960,"current_range_meters":21600,"station_id":"ce4bhu92rcd13ifvqi70","pricing_plan_id":"free"},{"bike_id":"a3fadb5e-9fdc-40fb-bc20-adc563525449","system_id":"levelo_inurba_marseille","lat":43.231923,"lon":5.355545,"is_reserved":false,"is_disabled":false,"rental_uris":{"android":"levelo://app?vid=a3fadb5e-9fdc-40fb-bc20-adc563525449","ios":"levelo://app?vid=a3fadb5e-9fdc-40fb-bc20-adc563525449"},"vehicle_type_id":"4","last_reported":1679227960,"current_range_meters":21600,"station_id":"ce4bhu92rcd13ifvqi70","pricing_plan_id":"free"}]}}