{"last_updated":1702480058,"ttl":30,"version":"2.2","data":{"bikes":[{"bike_id":"0bfcc9c7-db91-4b0a-880e-d509b19bc2a3","system_id":"levelo_inurba_marseille","lat":43.314811,"lon":5.373104,"is_reserved":false,"is_disabled":false,"rental_uris":{"android":"levelo://app?vid=0bfcc9c7-db91-4b0a-880e-d509b19bc2a3","ios":"levelo://app?vid=0bfcc9c7-db91-4b0a-880e-d509b19bc2a3"},"vehicle_type_id":"4","last_reported":1702480058,"current_range_meters":25600,"station_id":"ce4bgt12rcd13ifvqcd0","pricing_plan_id":"free"},{"bike_id":"b9d76248-b9a8-4f8d-a408-3530d744684a","system_id":"levelo_inurba_marseille","lat":43.309039,"lon":5.371797,"is_reserved":false,"is_disabled":false,"rental_uris":{"android":"levelo://app?vid=b9d76248-b9a8-4f8d-a408-3530d744684a","ios":"levelo://app?vid=b9d76248-b9a8-4f8d-a408-3530d744684a"},"vehicle_type_id":"4","last_reported":1702480058,"current_range_meters":23200,"station_id":"ce4bguh2rcd13ifvqckg","pricing_plan_id":"free"},{"bike_id":"3f8b821f-e430-4a35-bf14-f8b6e777ea11","system_id":"levelo_inurba_marseille","lat":43.313939,"lon":5.375306,"is_reserved":false,"is_disabled":false,"rental_uris":{"android":"levelo://app?vid=3f8b821f-e430-4a35-bf14-f8b6e777ea11","ios":"levelo://app?vid=3f8b821f-e430-4a35-bf14-f8b6e777ea11"},"vehicle_type_id":"4","last_reported":1702480058,"current_range_meters":7200,"station_id":"","pricing_plan_id":"free"},{"bike_id":"94ab53dc-0c20-44fb-a251-c03fda60aed5","system_id":"levelo_inurba_marseille","lat":43.305714,"lon":5.365633,"is_reserved":false,"is_disabled":false,"rental_uris":{"android":"levelo://app?vid=94ab53dc-0c20-44fb-a251-c03fda60aed5","ios":"levelo://app?vid=94ab53dc-0c20-44fb-a251-c03fda60aed5"},"vehicle_type_id":"4","last_reported":1702480058,"current_range_meters":19600,"station_id":"ce4bgs12rcd13ifvqcag","pricing_plan_id":"free"},{"bike_id":"e43bd6c5-ddb7-4c7e-bbc6-bdc01ee35ca3","system_id":"levelo_inurba_marseille","lat":43.305706,"lon":5.365654,"is_reserved":false,"is_disabled":false,"rental_uris":{"android":"levelo://app?vid=e43bd6c5-ddb7-4c7e-bbc6-bdc01ee35ca3","ios":"levelo://app?vid=e43bd6c5-ddb7-4c7e-bbc6-bdc01ee35ca3"},"vehicle_type_id":"4","last_reported":1702480058,"current_range_meters":22400,"station_id":"ce4bgs12rcd13ifvqcag","pricing_plan_id":"free"},{"bike_id":"955e4ab2-16e5-44e8-a986-a2f50ff96c06","system_id":"levelo_inurba_marseille","lat":43.305382,"lon":5.365389,"is_reserved":false,"is_disabled":false,"rental_uris":{"android":"levelo://app?vid=955e4ab2-16e5-44e8-a986-a2f50ff96c06","ios":"levelo://app?vid=955e4ab2-16e5-44e8-a986-a2f50ff96c06"},"vehicle_type_id":"4","last_reported":1702480058,"current_range_meters":26800,"station_id":"","pricing_plan_id":"free"},{"bike_id":"8ab9bfc5-9047-4b63-83dc-2d9b97f165c2","system_id":"levelo_inurba_marseille","lat":43.305706,"lon":5.365654,"is_reserved":false,"is_disabled":false,"rental_uris":{"android":"levelo://app?vid=8ab9bfc5-9047-4b63-83dc-2d9b97f165c2","ios":"levelo://app?vid=8ab9bfc5-9047-4b63-83dc-2d9b97f165c2"},"vehicle_type_id":"4","last_reported":1702480058,"current_range_meters":22400,"station_id":"ce4bgs12rcd13ifvqcag","pricing_plan_id":"free"},{"bike_id":"a67b3e44-cab8-46ae-b449-13aa47fe66e7","system_id":"levelo_inurba_marseille","lat":43.305989,"lon":5.37225,"is_reserved":false,"is_disabled":false,"rental_uris":{"android":"levelo://app?vid=a67b3e44-cab8-46ae-b449-13aa47fe66e7","ios":"levelo://app?vid=a67b3e44-cab8-46ae-b449-13aa47fe66e7"},"vehicle_type_id":"4","last_reported":1702480058,"current_range_meters":28000,"station_id":"ce4bgqh2rcd13ifvqc4g","pricing_plan_id":"free"},{"bike_id":"ba98b6cc-93d2-4ea0-85d6-739501837f88","system_id":"levelo_inurba_marseille","lat":43.311125,"lon":5.377624,"is_reserved":false,"is_disabled":false,"rental_uris":{"android":"levelo://app?vid=ba98b6cc-93d2-4ea0-85d6-739501837f88","ios":"levelo://app?vid=ba98b6cc-93d2-4ea0-85d6-739501837f88"},"vehicle_type_id":"4","last_reported":1702480058,"current_range_meters":30000,"station_id":"ce4bgt92rcd13ifvqcg0","pricing_plan_id":"free"},{"bike_id":"e6c9e251-bcef-4cc9-b9bb-54e5e82e1bf5","system_id":"levelo_inurba_marseille","lat":43.31124,"lon":5.37777,"is_reserved":false,"is_disabled":false,"rental_uris":{"android":"levelo://app?vid=e6c9e251-bcef-4cc9-b9bb-54e5e82e1bf5","ios":"levelo://app?vid=e6c9e251-bcef-4cc9-b9bb-54e5e82e1bf5"},"vehicle_type_id":"4","last_reported":1702480058,"current_range_meters":0,"station_id":"ce4bgt92rcd13ifvqcg0","pricing_plan_id":"free"},{"bike_id":"98421c4e-e096-460e-a28f-ae8f79c5f555","system_id":"levelo_inurba_marseille","lat":43.31072,"lon":5.3782,"is_reserved":false,"is_disabled":false,"rental_uris":{"android":"levelo://app?vid=98421c4e-e096-460e-a28f-ae8f79c5f555","ios":"levelo://app?vid=98421c4e-e096-460e-a28f-ae8f79c5f555"},"vehicle_type_id":"4","last_reported":1702480058,"current_range_meters":18000,"station_id":"","pricing_plan_id":"free"},{"bike_id":"a824c355-6df4-412f-844f-2ecb8e37f84e","system_id":"levelo_inurba_marseille","lat":43.307945,"lon":5.376487,"is_reserved":false,"is_disabled":false,"rental_uris":{"android":"levelo://app?vid=a824c355-6df4-412f-844f-2ecb8e37f84e","ios":"levelo://app?vid=a824c355-6df4-412f-844f-2ecb8e37f84e"},"vehicle_type_id":"4","last_reported":1702480058,"current_range_meters":15200,"station_id":"ce4bgv92rcd13ifvqcq0","pricing_plan_id":"free"},{"bike_id":"dc68debd-6203-4696-b9a5-55eea857c5a0","system_id":"levelo_inurba_marseille","lat":43.31721,"lon":5.37686,"is_reserved":false,"is_disabled":false,"rental_uris":{"android":"levelo://app?vid=dc68debd-6203-4696-b9a5-55eea857c5a0","ios":"levelo://app?vid=dc68debd-6203-4696-b9a5-55eea857c5a0"},"vehicle_type_id":"4","last_reported":1702480058,"current_range_meters":23200,"station_id":"ce4bgth2rcd13ifvqch0","pricing_plan_id":"free"},{"bike_id":"6c9ededb-79e2-4693-a25f-878222115455","system_id":"levelo_inurba_marseille","lat":43.317075,"lon":5.377367,"is_reserved":false,"is_disabled":false,"rental_uris":{"android":"levelo://app?vid=6c9ededb-79e2-4693-a25f-878222115455","ios":"levelo://app?vid=6c9ededb-79e2-4693-a25f-878222115455"},"vehicle_type_id":"4","last_reported":1702480058,"current_range_meters":20000,"station_id":"ce4bgth2rcd13ifvqch0","pricing_plan_id":"free"},{"bike_id":"9e7d5d49-7422-45e5-9174-457a3d490ef7","system_id":"levelo_inurba_marseille","lat":43.317075,"lon":5.377367,"is_reserved":false,"is_disabled":false,"rental_uris":{"android":"levelo://app?vid=9e7d5d49-7422-45e5-9174-457a3d490ef7","ios":"levelo://app?vid=9e7d5d49-7422-45e5-9174-457a3d490ef7"},"vehicle_type_id":"4","last_reported":1702480058,"current_range_meters":16800,"station_id":"ce4bgth2rcd13ifvqch0","pricing_plan_id":"free"},{"bike_id":"4ea96588-0477-48a4-88e4-7f27228799b5","system_id":"levelo_inurba_marseille","lat":43.303046,"lon":5.368981,"is_reserved":false,"is_disabled":false,"rental_uris":{"android":"levelo://app?vid=4ea96588-0477-48a4-88e4-7f27228799b5","ios":"levelo://app?vid=4ea96588-0477-48a4-88e4-7f27228799b5"},"vehicle_type_id":"4","last_reported":1702480058,"current_range_meters":6400,"station_id":"ce4bgqh2rcd13ifvqc5g","pricing_plan_id":"free"},{"bike_id":"390b2cac-8f04-47bd-ae25-e409ad39e867","system_id":"levelo_inurba_marseille","lat":43.30304,"lon":5.368987,"is_reserved":false,"is_disabled":false,"rental_uris":{"android":"levelo://app?vid=390b2cac-8f04-47bd-ae25-e409ad39e867","ios":"levelo://app?vid=390b2cac-8f04-47bd-ae25-e409ad39e867"},"vehicle_type_id":"4","last_reported":1702480058,"current_range_meters":5600,"station_id":"ce4bgqh2rcd13ifvqc5g","pricing_plan_id":"free"},{"bike_id":"227b454f-cbfd-4a97-b4c2-968569f53a3b","system_id":"levelo_inurba_marseille","lat":43.315293,"lon":5.380349,"is_reserved":false,"is_disabled":false,"rental_uris":{"android":"levelo://app?vid=227b454f-cbfd-4a97-b4c2-968569f53a3b","ios":"levelo://app?vid=227b454f-cbfd-4a97-b4c2-968569f53a3b"},"vehicle_type_id":"4","last_reported":1702480058,"current_range_meters":28800,"station_id":"ce4bhsp2rcd13ifvqi50","pricing_plan_id":"free"},{"bike_id":"4a102059-7bf0-4035-b721-14f284fa761d","system_id":"levelo_inurba_marseille","lat":43.304606,"lon":5.379026,"is_reserved":false,"is_disabled":false,"rental_uris":{"android":"levelo://app?vid=4a102059-7bf0-4035-b721-14f284fa761d","ios":"levelo://app?vid=4a102059-7bf0-4035-b721-14f284fa761d"},"vehicle_type_id":"4","last_reported":1702480058,"current_range_meters":30800,"station_id":"ce4bgup2rcd13ifvqcn0","pricing_plan_id":"free"},{"bike_id":"e297dd2b-62b7-41da-8de3-c8442572f04b","system_id":"levelo_inurba_marseille","lat":43.304606,"lon":5.379026,"is_reserved":false,"is_disabled":false,"rental_uris":{"android":"levelo://app?vid=e297dd2b-62b7-41da-8de3-c8442572f04b","ios":"levelo://app?vid=e297dd2b-62b7-41da-8de3-c8442572f04b"},"vehicle_type_id":"4","last_reported":1702480058,"current_range_meters":31200,"station_id":"ce4bgup2rcd13ifvqcn0","pricing_plan_id":"free"},{"bike_id":"aebb6064-85b7-47c8-a55e-4444cb06c67d","system_id":"levelo_inurba_marseille","lat":43.304606,"lon":5.379026,"is_reserved":false,"is_disabled":false,"rental_uris":{"android":"levelo://app?vid=aebb6064-85b7-47c8-a55e-4444cb06c67d","ios":"levelo://app?vid=aebb6064-85b7-47c8-a55e-4444cb06c67d"},"vehicle_type_id":"4","last_reported":1702480058,"current_range_meters":31200,"station_id":"ce4bgup2rcd13ifvqcn0","pricing_plan_id":"free"},{"bike_id":"30929db1-4f0c-41cb-8d09-478d2956baed","system_id":"levelo_inurba_marseille","lat":43.304606,"lon":5.379026,"is_reserved":false,"is_disabled":false,"rental_uris":{"android":"levelo://app?vid=30929db1-4f0c-41cb-8d09-478d2956baed","ios":"levelo://app?vid=30929db1-4f0c-41cb-8d09-478d2956baed"},"vehicle_type_id":"4","last_reported":1702480058,"current_range_meters":31200,"station_id":"ce4bgup2rcd13ifvqcn0","pricing_plan_id":"free"},{"bike_id":"b795cd07-df6b-4c4c-8507-2dcae79f9bad","system_id":"levelo_inurba_marseille","lat":43.309039,"lon":5.371797,"is_reserved":false,"is_disabled":false,"rental_uris":{"android":"levelo://app?vid=b795cd07-df6b-4c4c-8507-2dcae79f9bad","ios":"levelo://app?vid=b795cd07-df6b-4c4c-8507-2dcae79f9bad"},"vehicle_type_id":"4","last_reported":1702480058,"current_range_meters":4400,"station_id":"ce4bguh2rcd13ifvqckg","pricing_plan_id":"free"},{"bike_id":"aa3cdc10-a2b4-4348-a58d-ea513d683fe2","system_id":"levelo_inurba_marseille","lat":43.324821,"lon":5.365588,"is_reserved":false,"is_disabled":false,"rental_uris":{"android":"levelo://app?vid=aa3cdc10-a2b4-4348-a58d-ea513d683fe2","ios":"levelo://app?vid=aa3cdc10-a2b4-4348-a58d-ea513d683fe2"},"vehicle_type_id":"4","last_reported":1702480058,"current_range_meters":22400,"station_id":"ce4bhs12rcd13ifvqhvg","pricing_plan_id":"free"},{"bike_id":"7c3bd0a5-c309-48fc-b089-dae980955961","system_id":"levelo_inurba_marseille","lat":43.319935,"lon":5.381699,"is_reserved":false,"is_disabled":false,"rental_uris":{"android":"levelo://app?vid=7c3bd0a5-c309-48fc-b089-dae980955961","ios":"levelo://app?vid=7c3bd0a5-c309-48fc-b089-dae980955961"},"vehicle_type_id":"4","last_reported":1702480058,"current_range_meters":28800,"station_id":"ce4bhr12rcd13ifvqhpg","pricing_plan_id":"free"},{"bike_id":"4956179e-483b-4c26-bdef-b95af16fab8d","system_id":"levelo_inurba_marseille","lat":43.319935,"lon":5.381699,"is_reserved":false,"is_disabled":false,"rental_uris":{"android":"levelo://app?vid=4956179e-483b-4c26-bdef-b95af16fab8d","ios":"levelo://app?vid=4956179e-483b-4c26-bdef-b95af16fab8d"},"vehicle_type_id":"4","last_reported":1702480058,"current_range_meters":18800,"station_id":"ce4bhr12rcd13ifvqhpg","pricing_plan_id":"free"},{"bike_id":"77a6c46d-d898-4e4f-8846-efa91689c7f0","system_id":"levelo_inurba_marseille","lat":43.302006,"lon":5.38065,"is_reserved":false,"is_disabled":false,"rental_uris":{"android":"levelo://app?vid=77a6c46d-d898-4e4f-8846-efa91689c7f0","ios":"levelo://app?vid=77a6c46d-d898-4e4f-8846-efa91689c7f0"},"vehicle_type_id":"4","last_reported":1702480058,"current_range_meters":0,"station_id":"","pricing_plan_id":"free"},{"bike_id":"013f3a49-842d-49a1-ae71-20da11670df4","system_id":"levelo_inurba_marseille","lat":43.29916,"lon":5.3748,"is_reserved":false,"is_disabled":false,"rental_uris":{"android":"levelo://app?vid=013f3a49-842d-49a1-ae71-20da11670df4","ios":"levelo://app?vid=013f3a49-842d-49a1-ae71-20da11670df4"},"vehicle_type_id":"4","last_reported":1702480058,"current_range_meters":22400,"station_id":"ce4bgjh2rcd13ifvqbg0","pricing_plan_id":"free"},{"bike_id":"f229b8a0-f3b3-4477-aa9b-4b54d45c934c","system_id":"levelo_inurba_marseille","lat":43.3282,"lon":5.36678,"is_reserved":false,"is_disabled":false,"rental_uris":{"android":"levelo://app?vid=f229b8a0-f3b3-4477-aa9b-4b54d45c934c","ios":"levelo://app?vid=f229b8a0-f3b3-4477-aa9b-4b54d45c934c"},"vehicle_type_id":"4","last_reported":1702480058,"current_range_meters":22000,"station_id":"ce4bhs92rcd13ifvqi0g","pricing_plan_id":"free"},{"bike_id":"2de7a2e0-c6cd-423b-87da-985298a56eb5","system_id":"levelo_inurba_marseille","lat":43.32826,"lon":5.3669,"is_reserved":false,"is_disabled":false,"rental_uris":{"android":"levelo://app?vid=2de7a2e0-c6cd-423b-87da-985298a56eb5","ios":"levelo://app?vid=2de7a2e0-c6cd-423b-87da-985298a56eb5"},"vehicle_type_id":"4","last_reported":1702480058,"current_range_meters":22800,"station_id":"ce4bhs92rcd13ifvqi0g","pricing_plan_id":"free"},{"bike_id":"b8efbe84-5e0e-471b-8b37-ff7a492c1dcf","system_id":"levelo_inurba_marseille","lat":43.29686,"lon":5.372828,"is_reserved":false,"is_disabled":false,"rental_uris":{"android":"levelo://app?vid=b8efbe84-5e0e-471b-8b37-ff7a492c1dcf","ios":"levelo://app?vid=b8efbe84-5e0e-471b-8b37-ff7a492c1dcf"},"vehicle_type_id":"4","last_reported":1702480058,"current_range_meters":16400,"station_id":"ce4bgk12rcd13ifvqbj0","pricing_plan_id":"free"},{"bike_id":"267c32ca-2bcf-4399-b6aa-edc8016426cf","system_id":"levelo_inurba_marseille","lat":43.29587,"lon":5.36734,"is_reserved":false,"is_disabled":false,"rental_uris":{"android":"levelo://app?vid=267c32ca-2bcf-4399-b6aa-edc8016426cf","ios":"levelo://app?vid=267c32ca-2bcf-4399-b6aa-edc8016426cf"},"vehicle_type_id":"4","last_reported":1702480058,"current_range_meters":13600,"station_id":"ce4bgph2rcd13ifvqc2g","pricing_plan_id":"free"},{"bike_id":"319a9fad-669b-44bb-91bd-1f1fc91b5f49","system_id":"levelo_inurba_marseille","lat":43.296921,"lon":5.376579,"is_reserved":false,"is_disabled":false,"rental_uris":{"android":"levelo://app?vid=319a9fad-669b-44bb-91bd-1f1fc91b5f49","ios":"levelo://app?vid=319a9fad-669b-44bb-91bd-1f1fc91b5f49"},"vehicle_type_id":"4","last_reported":1702480058,"current_range_meters":3600,"station_id":"ce4bgkh2rcd13ifvqbl0","pricing_plan_id":"free"},{"bike_id":"1ea5a4c5-69f3-40ce-b190-59e82deaf26f","system_id":"levelo_inurba_marseille","lat":43.309589,"lon":5.390258,"is_reserved":false,"is_disabled":false,"rental_uris":{"android":"levelo://app?vid=1ea5a4c5-69f3-40ce-b190-59e82deaf26f","ios":"levelo://app?vid=1ea5a4c5-69f3-40ce-b190-59e82deaf26f"},"vehicle_type_id":"4","last_reported":1702480058,"current_range_meters":19200,"station_id":"ce4bgup2rcd13ifvqco0","pricing_plan_id":"free"},{"bike_id":"db980bea-c37f-4831-ae38-6b5c9d5b6e0d","system_id":"levelo_inurba_marseille","lat":43.31761,"lon":5.39005,"is_reserved":false,"is_disabled":false,"rental_uris":{"android":"levelo://app?vid=db980bea-c37f-4831-ae38-6b5c9d5b6e0d","ios":"levelo://app?vid=db980bea-c37f-4831-ae38-6b5c9d5b6e0d"},"vehicle_type_id":"4","last_reported":1702480058,"current_range_meters":28800,"station_id":"ce4bhqp2rcd13ifvqhng","pricing_plan_id":"free"},{"bike_id":"23bbe805-c94b-4a71-b6b3-02557ecd6b8b","system_id":"levelo_inurba_marseille","lat":43.31746,"lon":5.39014,"is_reserved":false,"is_disabled":false,"rental_uris":{"android":"levelo://app?vid=23bbe805-c94b-4a71-b6b3-02557ecd6b8b","ios":"levelo://app?vid=23bbe805-c94b-4a71-b6b3-02557ecd6b8b"},"vehicle_type_id":"4","last_reported":1702480058,"current_range_meters":24800,"station_id":"ce4bhqp2rcd13ifvqhng","pricing_plan_id":"free"},{"bike_id":"ed3c4390-c3a0-4bee-b298-02f1bd05a7b8","system_id":"levelo_inurba_marseille","lat":43.317557,"lon":5.390173,"is_reserved":false,"is_disabled":false,"rental_uris":{"android":"levelo://app?vid=ed3c4390-c3a0-4bee-b298-02f1bd05a7b8","ios":"levelo://app?vid=ed3c4390-c3a0-4bee-b298-02f1bd05a7b8"},"vehicle_type_id":"4","last_reported":1702480058,"current_range_meters":19200,"station_id":"ce4bhqp2rcd13ifvqhng","pricing_plan_id":"free"},{"bike_id":"fb11fdf9-c18a-49dd-8bd6-d123b844e17f","system_id":"levelo_inurba_marseille","lat":43.31758,"lon":5.390188,"is_reserved":false,"is_disabled":false,"rental_uris":{"android":"levelo://app?vid=fb11fdf9-c18a-49dd-8bd6-d123b844e17f","ios":"levelo://app?vid=fb11fdf9-c18a-49dd-8bd6-d123b844e17f"},"vehicle_type_id":"4","last_reported":1702480058,"current_range_meters":31200,"station_id":"ce4bhqp2rcd13ifvqhng","pricing_plan_id":"free"},{"bike_id":"dea78052-13c5-4e01-8843-f717116ae0a3","system_id":"levelo_inurba_marseille","lat":43.317518,"lon":5.390226,"is_reserved":false,"is_disabled":false,"rental_uris":{"android":"levelo://app?vid=dea78052-13c5-4e01-8843-f717116ae0a3","ios":"levelo://app?vid=dea78052-13c5-4e01-8843-f717116ae0a3"},"vehicle_type_id":"4","last_reported":1702480058,"current_range_meters":13200,"station_id":"ce4bhqp2rcd13ifvqhng","pricing_plan_id":"free"},{"bike_id":"e9d78157-ab4a-41df-a9e7-085811189ed4","system_id":"levelo_inurba_marseille","lat":43.317557,"lon":5.390173,"is_reserved":false,"is_disabled":false,"rental_uris":{"android":"levelo://app?vid=e9d78157-ab4a-41df-a9e7-085811189ed4","ios":"levelo://app?vid=e9d78157-ab4a-41df-a9e7-085811189ed4"},"vehicle_type_id":"4","last_reported":1702480058,"current_range_meters":12800,"station_id":"ce4bhqp2rcd13ifvqhng","pricing_plan_id":"free"},{"bike_id":"7d8afd03-d097-4846-8629-17b96aa6117a","system_id":"levelo_inurba_marseille","lat":43.317557,"lon":5.390173,"is_reserved":false,"is_disabled":false,"rental_uris":{"android":"levelo://app?vid=7d8afd03-d097-4846-8629-17b96aa6117a","ios":"levelo://app?vid=7d8afd03-d097-4846-8629-17b96aa6117a"},"vehicle_type_id":"4","last_reported":1702480058,"current_range_meters":11600,"station_id":"ce4bhqp2rcd13ifvqhng","pricing_plan_id":"free"},{"bike_id":"de1a4ec6-9c6a-4e67-8130-67429d84f80d","system_id":"levelo_inurba_marseille","lat":43.311125,"lon":5.377624,"is_reserved":false,"is_disabled":false,"rental_uris":{"android":"levelo://app?vid=de1a4ec6-9c6a-4e67-8130-67429d84f80d","ios":"levelo://app?vid=de1a4ec6-9c6a-4e67-8130-67429d84f80d"},"vehicle_type_id":"4","last_reported":1702480058,"current_range_meters":9200,"station_id":"ce4bgt92rcd13ifvqcg0","pricing_plan_id":"free"},{"bike_id":"515d4756-1c48-453f-960a-4b473e525f28","system_id":"levelo_inurba_marseille","lat":43.295748,"lon":5.37522,"is_reserved":false,"is_disabled":false,"rental_uris":{"android":"levelo://app?vid=515d4756-1c48-453f-960a-4b473e525f28","ios":"levelo://app?vid=515d4756-1c48-453f-960a-4b473e525f28"},"vehicle_type_id":"4","last_reported":1702480058,"current_range_meters":18800,"station_id":"ce4bgh92rcd13ifvqb50","pricing_plan_id":"free"},{"bike_id":"57289300-a2d6-4e44-8e6c-ca8a80b9dfb2","system_id":"levelo_inurba_marseille","lat":43.295279,"lon":5.375048,"is_reserved":false,"is_disabled":false,"rental_uris":{"android":"levelo://app?vid=57289300-a2d6-4e44-8e6c-ca8a80b9dfb2","ios":"levelo://app?vid=57289300-a2d6-4e44-8e6c-ca8a80b9dfb2"},"vehicle_type_id":"4","last_reported":1702480058,"current_range_meters":18000,"station_id":"ce4bgkp2rcd13ifvqbmg","pricing_plan_id":"free"},{"bike_id":"7aa43ffc-78db-484a-8d60-858527897509","system_id":"levelo_inurba_marseille","lat":43.32367,"lon":5.388836,"is_reserved":false,"is_disabled":false,"rental_uris":{"android":"levelo://app?vid=7aa43ffc-78db-484a-8d60-858527897509","ios":"levelo://app?vid=7aa43ffc-78db-484a-8d60-858527897509"},"vehicle_type_id":"4","last_reported":1702480058,"current_range_meters":15200,"station_id":"ce4bhqp2rcd13ifvqhog","pricing_plan_id":"free"},{"bike_id":"e9e1c847-e99c-449a-9b01-e7cb7dd32f73","system_id":"levelo_inurba_marseille","lat":43.32367,"lon":5.388836,"is_reserved":false,"is_disabled":false,"rental_uris":{"android":"levelo://app?vid=e9e1c847-e99c-449a-9b01-e7cb7dd32f73","ios":"levelo://app?vid=e9e1c847-e99c-449a-9b01-e7cb7dd32f73"},"vehicle_type_id":"4","last_reported":1702480058,"current_range_meters":0,"station_id":"ce4bhqp2rcd13ifvqhog","pricing_plan_id":"free"},{"bike_id":"5515ee18-e232-42f5-b5dc-9d2710814282","system_id":"levelo_inurba_marseille","lat":43.32304,"lon":5.38992,"is_reserved":false,"is_disabled":false,"rental_uris":{"android":"levelo://app?vid=5515ee18-e232-42f5-b5dc-9d2710814282","ios":"levelo://app?vid=5515ee18-e232-42f5-b5dc-9d2710814282"},"vehicle_type_id":"4","last_reported":1702480058,"current_range_meters":18000,"station_id":"","pricing_plan_id":"free"},{"bike_id":"1ad828b4-6940-4ad1-9324-7ae665a742aa","system_id":"levelo_inurba_marseille","lat":43.29602,"lon":5.381084,"is_reserved":false,"is_disabled":false,"rental_uris":{"android":"levelo://app?vid=1ad828b4-6940-4ad1-9324-7ae665a742aa","ios":"levelo://app?vid=1ad828b4-6940-4ad1-9324-7ae665a742aa"},"vehicle_type_id":"4","last_reported":1702480058,"current_range_meters":31200,"station_id":"ce4bgl12rcd13ifvqbo0","pricing_plan_id":"free"},{"bike_id":"ec1fb68f-3064-43e0-9c86-2250a8acc8c1","system_id":"levelo_inurba_marseille","lat":43.293259,"lon":5.371586,"is_reserved":false,"is_disabled":false,"rental_uris":{"android":"levelo://app?vid=ec1fb68f-3064-43e0-9c86-2250a8acc8c1","ios":"levelo://app?vid=ec1fb68f-3064-43e0-9c86-2250a8acc8c1"},"vehicle_type_id":"4","last_reported":1702480058,"current_range_meters":27200,"station_id":"ce4bgh92rcd13ifvqb40","pricing_plan_id":"free"},{"bike_id":"eae69a4b-cf1b-4e21-add9-a8c1b1249a64","system_id":"levelo_inurba_marseille","lat":43.2928,"lon":5.36851,"is_reserved":false,"is_disabled":false,"rental_uris":{"android":"levelo://app?vid=eae69a4b-cf1b-4e21-add9-a8c1b1249a64","ios":"levelo://app?vid=eae69a4b-cf1b-4e21-add9-a8c1b1249a64"},"vehicle_type_id":"4","last_reported":1702480058,"current_range_meters":14400,"station_id":"ce4bhbp2rcd13ifvqesg","pricing_plan_id":"free"},{"bike_id":"6e59dec2-71f8-4156-b78f-01feb981b9dc","system_id":"levelo_inurba_marseille","lat":43.293259,"lon":5.371586,"is_reserved":false,"is_disabled":false,"rental_uris":{"android":"levelo://app?vid=6e59dec2-71f8-4156-b78f-01feb981b9dc","ios":"levelo://app?vid=6e59dec2-71f8-4156-b78f-01feb981b9dc"},"vehicle_type_id":"4","last_reported":1702480058,"current_range_meters":14000,"station_id":"ce4bgh92rcd13ifvqb40","pricing_plan_id":"free"},{"bike_id":"9333527b-b813-4ae4-9adb-d25eda92f3bc","system_id":"levelo_inurba_marseille","lat":43.293009,"lon":5.374584,"is_reserved":false,"is_disabled":false,"rental_uris":{"android":"levelo://app?vid=9333527b-b813-4ae4-9adb-d25eda92f3bc","ios":"levelo://app?vid=9333527b-b813-4ae4-9adb-d25eda92f3bc"},"vehicle_type_id":"4","last_reported":1702480058,"current_range_meters":800,"station_id":"ce4bgi12rcd13ifvqb70","pricing_plan_id":"free"},{"bike_id":"c4674b3c-8ed9-4007-88d2-7e94ddeb41b7","system_id":"levelo_inurba_marseille","lat":43.2936,"lon":5.37835,"is_reserved":false,"is_disabled":false,"rental_uris":{"android":"levelo://app?vid=c4674b3c-8ed9-4007-88d2-7e94ddeb41b7","ios":"levelo://app?vid=c4674b3c-8ed9-4007-88d2-7e94ddeb41b7"},"vehicle_type_id":"4","last_reported":1702480058,"current_range_meters":12800,"station_id":"ce4bgjh2rcd13ifvqbf0","pricing_plan_id":"free"},{"bike_id":"1749d0fb-bc5e-421f-ad87-cc4dd04b3d70","system_id":"levelo_inurba_marseille","lat":43.2936,"lon":5.37835,"is_reserved":false,"is_disabled":false,"rental_uris":{"android":"levelo://app?vid=1749d0fb-bc5e-421f-ad87-cc4dd04b3d70","ios":"levelo://app?vid=1749d0fb-bc5e-421f-ad87-cc4dd04b3d70"},"vehicle_type_id":"4","last_reported":1702480058,"current_range_meters":24400,"station_id":"ce4bgjh2rcd13ifvqbf0","pricing_plan_id":"free"},{"bike_id":"68216389-2bc8-442d-a2b6-0dbf16bad8d2","system_id":"levelo_inurba_marseille","lat":43.2936,"lon":5.37835,"is_reserved":false,"is_disabled":false,"rental_uris":{"android":"levelo://app?vid=68216389-2bc8-442d-a2b6-0dbf16bad8d2","ios":"levelo://app?vid=68216389-2bc8-442d-a2b6-0dbf16bad8d2"},"vehicle_type_id":"4","last_reported":1702480058,"current_range_meters":22800,"station_id":"ce4bgjh2rcd13ifvqbf0","pricing_plan_id":"free"},{"bike_id":"bdf07bef-20d7-4853-b5e7-454e1dfc787e","system_id":"levelo_inurba_marseille","lat":43.2936,"lon":5.37835,"is_reserved":false,"is_disabled":false,"rental_uris":{"android":"levelo://app?vid=bdf07bef-20d7-4853-b5e7-454e1dfc787e","ios":"levelo://app?vid=bdf07bef-20d7-4853-b5e7-454e1dfc787e"},"vehicle_type_id":"4","last_reported":1702480058,"current_range_meters":20400,"station_id":"ce4bgjh2rcd13ifvqbf0","pricing_plan_id":"free"},{"bike_id":"0bd70139-b894-44cc-ab44-0474f3ebffb0","system_id":"levelo_inurba_marseille","lat":43.291994,"lon":5.357886,"is_reserved":false,"is_disabled":false,"rental_uris":{"android":"levelo://app?vid=0bd70139-b894-44cc-ab44-0474f3ebffb0","ios":"levelo://app?vid=0bd70139-b894-44cc-ab44-0474f3ebffb0"},"vehicle_type_id":"4","last_reported":1702480058,"current_range_meters":12800,"station_id":"ce4bhb12rcd13ifvqel0","pricing_plan_id":"free"},{"bike_id":"0b2eeb5a-88f5-492e-80fc-28f7c85988bd","system_id":"levelo_inurba_marseille","lat":43.29529,"lon":5.385581,"is_reserved":false,"is_disabled":false,"rental_uris":{"android":"levelo://app?vid=0b2eeb5a-88f5-492e-80fc-28f7c85988bd","ios":"levelo://app?vid=0b2eeb5a-88f5-492e-80fc-28f7c85988bd"},"vehicle_type_id":"4","last_reported":1702480058,"current_range_meters":9200,"station_id":"ce4bgih2rcd13ifvqba0","pricing_plan_id":"free"},{"bike_id":"c169c292-5f5b-4102-a8be-904941264fca","system_id":"levelo_inurba_marseille","lat":43.290631,"lon":5.359244,"is_reserved":false,"is_disabled":false,"rental_uris":{"android":"levelo://app?vid=c169c292-5f5b-4102-a8be-904941264fca","ios":"levelo://app?vid=c169c292-5f5b-4102-a8be-904941264fca"},"vehicle_type_id":"4","last_reported":1702480058,"current_range_meters":13600,"station_id":"ce4bha92rcd13ifvqeg0","pricing_plan_id":"free"},{"bike_id":"1672b59d-2ada-479c-b84e-1b3d3c6fb11c","system_id":"levelo_inurba_marseille","lat":43.294153,"lon":5.386305,"is_reserved":false,"is_disabled":false,"rental_uris":{"android":"levelo://app?vid=1672b59d-2ada-479c-b84e-1b3d3c6fb11c","ios":"levelo://app?vid=1672b59d-2ada-479c-b84e-1b3d3c6fb11c"},"vehicle_type_id":"4","last_reported":1702480058,"current_range_meters":26400,"station_id":"ce4bh2h2rcd13ifvqdh0","pricing_plan_id":"free"},{"bike_id":"81228e25-a805-4bdb-afc6-9562c2b9658a","system_id":"levelo_inurba_marseille","lat":43.290327,"lon":5.375711,"is_reserved":false,"is_disabled":false,"rental_uris":{"android":"levelo://app?vid=81228e25-a805-4bdb-afc6-9562c2b9658a","ios":"levelo://app?vid=81228e25-a805-4bdb-afc6-9562c2b9658a"},"vehicle_type_id":"4","last_reported":1702480058,"current_range_meters":24000,"station_id":"ce4bh692rcd13ifvqe90","pricing_plan_id":"free"},{"bike_id":"5310f40f-47ed-44f9-b452-6b727c911bc9","system_id":"levelo_inurba_marseille","lat":43.2905,"lon":5.35686,"is_reserved":false,"is_disabled":false,"rental_uris":{"android":"levelo://app?vid=5310f40f-47ed-44f9-b452-6b727c911bc9","ios":"levelo://app?vid=5310f40f-47ed-44f9-b452-6b727c911bc9"},"vehicle_type_id":"4","last_reported":1702480058,"current_range_meters":15200,"station_id":"","pricing_plan_id":"free"},{"bike_id":"2e863488-93c8-46ae-8d77-5873109072e1","system_id":"levelo_inurba_marseille","lat":43.292644,"lon":5.384257,"is_reserved":false,"is_disabled":false,"rental_uris":{"android":"levelo://app?vid=2e863488-93c8-46ae-8d77-5873109072e1","ios":"levelo://app?vid=2e863488-93c8-46ae-8d77-5873109072e1"},"vehicle_type_id":"4","last_reported":1702480058,"current_range_meters":8400,"station_id":"ce4bh692rcd13ifvqea0","pricing_plan_id":"free"},{"bike_id":"54f13c74-2234-458b-a377-8add409d9cde","system_id":"levelo_inurba_marseille","lat":43.304274,"lon":5.397513,"is_reserved":false,"is_disabled":false,"rental_uris":{"android":"levelo://app?vid=54f13c74-2234-458b-a377-8add409d9cde","ios":"levelo://app?vid=54f13c74-2234-458b-a377-8add409d9cde"},"vehicle_type_id":"4","last_reported":1702480058,"current_range_meters":24800,"station_id":"ce4bh092rcd13ifvqd20","pricing_plan_id":"free"},{"bike_id":"32fa939e-0124-4084-811e-0eb8d84d3659","system_id":"levelo_inurba_marseille","lat":43.289741,"lon":5.378306,"is_reserved":false,"is_disabled":false,"rental_uris":{"android":"levelo://app?vid=32fa939e-0124-4084-811e-0eb8d84d3659","ios":"levelo://app?vid=32fa939e-0124-4084-811e-0eb8d84d3659"},"vehicle_type_id":"4","last_reported":1702480058,"current_range_meters":15600,"station_id":"ce4bh9p2rcd13ifvqed0","pricing_plan_id":"free"},{"bike_id":"06ca8534-65b4-4774-a7c8-03b5af893c6a","system_id":"levelo_inurba_marseille","lat":43.33053,"lon":5.39014,"is_reserved":false,"is_disabled":false,"rental_uris":{"android":"levelo://app?vid=06ca8534-65b4-4774-a7c8-03b5af893c6a","ios":"levelo://app?vid=06ca8534-65b4-4774-a7c8-03b5af893c6a"},"vehicle_type_id":"4","last_reported":1702480058,"current_range_meters":8800,"station_id":"","pricing_plan_id":"free"},{"bike_id":"8331eefb-e3fa-4ac5-a8dd-abd730cc2aca","system_id":"levelo_inurba_marseille","lat":43.30927,"lon":5.40141,"is_reserved":false,"is_disabled":false,"rental_uris":{"android":"levelo://app?vid=8331eefb-e3fa-4ac5-a8dd-abd730cc2aca","ios":"levelo://app?vid=8331eefb-e3fa-4ac5-a8dd-abd730cc2aca"},"vehicle_type_id":"4","last_reported":1702480058,"current_range_meters":11600,"station_id":"ce4bgvp2rcd13ifvqct0","pricing_plan_id":"free"},{"bike_id":"af6279ba-4ae4-431c-b3f7-f22b55e749ba","system_id":"levelo_inurba_marseille","lat":43.312609,"lon":5.401662,"is_reserved":false,"is_disabled":false,"rental_uris":{"android":"levelo://app?vid=af6279ba-4ae4-431c-b3f7-f22b55e749ba","ios":"levelo://app?vid=af6279ba-4ae4-431c-b3f7-f22b55e749ba"},"vehicle_type_id":"4","last_reported":1702480058,"current_range_meters":24000,"station_id":"ce4bh092rcd13ifvqd30","pricing_plan_id":"free"},{"bike_id":"987789d3-62ca-4939-866b-cc58730b1ccc","system_id":"levelo_inurba_marseille","lat":43.30927,"lon":5.40145,"is_reserved":false,"is_disabled":false,"rental_uris":{"android":"levelo://app?vid=987789d3-62ca-4939-866b-cc58730b1ccc","ios":"levelo://app?vid=987789d3-62ca-4939-866b-cc58730b1ccc"},"vehicle_type_id":"4","last_reported":1702480058,"current_range_meters":20400,"station_id":"ce4bgvp2rcd13ifvqct0","pricing_plan_id":"free"},{"bike_id":"fa23bc4c-3492-4ba5-ab13-c42e18316583","system_id":"levelo_inurba_marseille","lat":43.33755,"lon":5.37466,"is_reserved":false,"is_disabled":false,"rental_uris":{"android":"levelo://app?vid=fa23bc4c-3492-4ba5-ab13-c42e18316583","ios":"levelo://app?vid=fa23bc4c-3492-4ba5-ab13-c42e18316583"},"vehicle_type_id":"4","last_reported":1702480058,"current_range_meters":31200,"station_id":"","pricing_plan_id":"free"},{"bike_id":"e4cdc973-337d-483e-ab4e-46be51c01415","system_id":"levelo_inurba_marseille","lat":43.306412,"lon":5.401035,"is_reserved":false,"is_disabled":false,"rental_uris":{"android":"levelo://app?vid=e4cdc973-337d-483e-ab4e-46be51c01415","ios":"levelo://app?vid=e4cdc973-337d-483e-ab4e-46be51c01415"},"vehicle_type_id":"4","last_reported":1702480058,"current_range_meters":14400,"station_id":"ce4bh112rcd13ifvqda0","pricing_plan_id":"free"},{"bike_id":"b698d345-e37b-495c-bc7e-7029b0395a6b","system_id":"levelo_inurba_marseille","lat":43.337664,"lon":5.374555,"is_reserved":false,"is_disabled":false,"rental_uris":{"android":"levelo://app?vid=b698d345-e37b-495c-bc7e-7029b0395a6b","ios":"levelo://app?vid=b698d345-e37b-495c-bc7e-7029b0395a6b"},"vehicle_type_id":"4","last_reported":1702480058,"current_range_meters":7600,"station_id":"","pricing_plan_id":"free"},{"bike_id":"b2189af0-9914-41d7-89f0-2f6ec3848095","system_id":"levelo_inurba_marseille","lat":43.306412,"lon":5.401035,"is_reserved":false,"is_disabled":false,"rental_uris":{"android":"levelo://app?vid=b2189af0-9914-41d7-89f0-2f6ec3848095","ios":"levelo://app?vid=b2189af0-9914-41d7-89f0-2f6ec3848095"},"vehicle_type_id":"4","last_reported":1702480058,"current_range_meters":6000,"station_id":"ce4bh112rcd13ifvqda0","pricing_plan_id":"free"},{"bike_id":"8003b314-deca-4f35-8400-c81b02f4d4d1","system_id":"levelo_inurba_marseille","lat":43.295196,"lon":5.39397,"is_reserved":false,"is_disabled":false,"rental_uris":{"android":"levelo://app?vid=8003b314-deca-4f35-8400-c81b02f4d4d1","ios":"levelo://app?vid=8003b314-deca-4f35-8400-c81b02f4d4d1"},"vehicle_type_id":"4","last_reported":1702480058,"current_range_meters":30800,"station_id":"ce4bh292rcd13ifvqdf0","pricing_plan_id":"free"},{"bike_id":"be0fd31d-9661-473c-9692-aca577707805","system_id":"levelo_inurba_marseille","lat":43.298681,"lon":5.397225,"is_reserved":false,"is_disabled":false,"rental_uris":{"android":"levelo://app?vid=be0fd31d-9661-473c-9692-aca577707805","ios":"levelo://app?vid=be0fd31d-9661-473c-9692-aca577707805"},"vehicle_type_id":"4","last_reported":1702480058,"current_range_meters":21600,"station_id":"ce4bh0h2rcd13ifvqd50","pricing_plan_id":"free"},{"bike_id":"fae04389-8b23-4597-a10c-23f1ceb04f9b","system_id":"levelo_inurba_marseille","lat":43.286591,"lon":5.363346,"is_reserved":false,"is_disabled":false,"rental_uris":{"android":"levelo://app?vid=fae04389-8b23-4597-a10c-23f1ceb04f9b","ios":"levelo://app?vid=fae04389-8b23-4597-a10c-23f1ceb04f9b"},"vehicle_type_id":"4","last_reported":1702480058,"current_range_meters":17600,"station_id":"ce4bhah2rcd13ifvqej0","pricing_plan_id":"free"},{"bike_id":"732b6961-f7f4-4792-90ff-383fb481ccfa","system_id":"levelo_inurba_marseille","lat":43.28697,"lon":5.3739,"is_reserved":false,"is_disabled":false,"rental_uris":{"android":"levelo://app?vid=732b6961-f7f4-4792-90ff-383fb481ccfa","ios":"levelo://app?vid=732b6961-f7f4-4792-90ff-383fb481ccfa"},"vehicle_type_id":"4","last_reported":1702480058,"current_range_meters":0,"station_id":"ce4bh3p2rcd13ifvqdq0","pricing_plan_id":"free"},{"bike_id":"26ca1185-bc2d-4d74-aa9d-ef3e3425481c","system_id":"levelo_inurba_marseille","lat":43.295196,"lon":5.39397,"is_reserved":false,"is_disabled":false,"rental_uris":{"android":"levelo://app?vid=26ca1185-bc2d-4d74-aa9d-ef3e3425481c","ios":"levelo://app?vid=26ca1185-bc2d-4d74-aa9d-ef3e3425481c"},"vehicle_type_id":"4","last_reported":1702480058,"current_range_meters":31200,"station_id":"ce4bh292rcd13ifvqdf0","pricing_plan_id":"free"},{"bike_id":"37932f4b-dbe2-4ff9-803a-25716bc2fb7b","system_id":"levelo_inurba_marseille","lat":43.290345,"lon":5.38646,"is_reserved":false,"is_disabled":false,"rental_uris":{"android":"levelo://app?vid=37932f4b-dbe2-4ff9-803a-25716bc2fb7b","ios":"levelo://app?vid=37932f4b-dbe2-4ff9-803a-25716bc2fb7b"},"vehicle_type_id":"4","last_reported":1702480058,"current_range_meters":13600,"station_id":"ce4bh4p2rcd13ifvqe0g","pricing_plan_id":"free"},{"bike_id":"26896ee8-5339-4ab2-b5d7-0b0fa2beb521","system_id":"levelo_inurba_marseille","lat":43.290345,"lon":5.38646,"is_reserved":false,"is_disabled":false,"rental_uris":{"android":"levelo://app?vid=26896ee8-5339-4ab2-b5d7-0b0fa2beb521","ios":"levelo://app?vid=26896ee8-5339-4ab2-b5d7-0b0fa2beb521"},"vehicle_type_id":"4","last_reported":1702480058,"current_range_meters":27200,"station_id":"ce4bh4p2rcd13ifvqe0g","pricing_plan_id":"free"},{"bike_id":"766491f1-b1ce-40c9-8460-212c00b0b5da","system_id":"levelo_inurba_marseille","lat":43.302759,"lon":5.400793,"is_reserved":false,"is_disabled":false,"rental_uris":{"android":"levelo://app?vid=766491f1-b1ce-40c9-8460-212c00b0b5da","ios":"levelo://app?vid=766491f1-b1ce-40c9-8460-212c00b0b5da"},"vehicle_type_id":"4","last_reported":1702480058,"current_range_meters":18800,"station_id":"ce4bgvh2rcd13ifvqcs0","pricing_plan_id":"free"},{"bike_id":"df99aec9-5b6c-4212-83b0-d445c71703b6","system_id":"levelo_inurba_marseille","lat":43.302759,"lon":5.400793,"is_reserved":false,"is_disabled":false,"rental_uris":{"android":"levelo://app?vid=df99aec9-5b6c-4212-83b0-d445c71703b6","ios":"levelo://app?vid=df99aec9-5b6c-4212-83b0-d445c71703b6"},"vehicle_type_id":"4","last_reported":1702480058,"current_range_meters":1200,"station_id":"ce4bgvh2rcd13ifvqcs0","pricing_plan_id":"free"},{"bike_id":"e5eb05b0-08bc-4714-99fb-12e8386688df","system_id":"levelo_inurba_marseille","lat":43.286039,"lon":5.370681,"is_reserved":false,"is_disabled":false,"rental_uris":{"android":"levelo://app?vid=e5eb05b0-08bc-4714-99fb-12e8386688df","ios":"levelo://app?vid=e5eb05b0-08bc-4714-99fb-12e8386688df"},"vehicle_type_id":"4","last_reported":1702480058,"current_range_meters":10000,"station_id":"ce4bht12rcd13ifvqi60","pricing_plan_id":"free"},{"bike_id":"17ad54fa-30dd-43a6-8536-35935c3c0b86","system_id":"levelo_inurba_marseille","lat":43.286039,"lon":5.370681,"is_reserved":false,"is_disabled":false,"rental_uris":{"android":"levelo://app?vid=17ad54fa-30dd-43a6-8536-35935c3c0b86","ios":"levelo://app?vid=17ad54fa-30dd-43a6-8536-35935c3c0b86"},"vehicle_type_id":"4","last_reported":1702480058,"current_range_meters":5600,"station_id":"ce4bht12rcd13ifvqi60","pricing_plan_id":"free"},{"bike_id":"5899d958-485a-4871-8738-a912d0db309c","system_id":"levelo_inurba_marseille","lat":43.316828,"lon":5.404723,"is_reserved":false,"is_disabled":false,"rental_uris":{"android":"levelo://app?vid=5899d958-485a-4871-8738-a912d0db309c","ios":"levelo://app?vid=5899d958-485a-4871-8738-a912d0db309c"},"vehicle_type_id":"4","last_reported":1702480058,"current_range_meters":7200,"station_id":"ce4bh012rcd13ifvqd00","pricing_plan_id":"free"},{"bike_id":"1d5290ba-be61-4a45-aafa-7270b154cc19","system_id":"levelo_inurba_marseille","lat":43.31694,"lon":5.40472,"is_reserved":false,"is_disabled":false,"rental_uris":{"android":"levelo://app?vid=1d5290ba-be61-4a45-aafa-7270b154cc19","ios":"levelo://app?vid=1d5290ba-be61-4a45-aafa-7270b154cc19"},"vehicle_type_id":"4","last_reported":1702480058,"current_range_meters":29600,"station_id":"ce4bh012rcd13ifvqd00","pricing_plan_id":"free"},{"bike_id":"f267e6bb-b233-475b-974d-fa55253bb6db","system_id":"levelo_inurba_marseille","lat":43.316828,"lon":5.404723,"is_reserved":false,"is_disabled":false,"rental_uris":{"android":"levelo://app?vid=f267e6bb-b233-475b-974d-fa55253bb6db","ios":"levelo://app?vid=f267e6bb-b233-475b-974d-fa55253bb6db"},"vehicle_type_id":"4","last_reported":1702480058,"current_range_meters":17600,"station_id":"ce4bh012rcd13ifvqd00","pricing_plan_id":"free"},{"bike_id":"a4804932-43e6-43b7-bb20-911d17ec156d","system_id":"levelo_inurba_marseille","lat":43.31694,"lon":5.40473,"is_reserved":false,"is_disabled":false,"rental_uris":{"android":"levelo://app?vid=a4804932-43e6-43b7-bb20-911d17ec156d","ios":"levelo://app?vid=a4804932-43e6-43b7-bb20-911d17ec156d"},"vehicle_type_id":"4","last_reported":1702480058,"current_range_meters":29200,"station_id":"ce4bh012rcd13ifvqd00","pricing_plan_id":"free"},{"bike_id":"c4d1012c-0835-472c-9982-bcb6e2a88638","system_id":"levelo_inurba_marseille","lat":43.3169,"lon":5.40478,"is_reserved":false,"is_disabled":false,"rental_uris":{"android":"levelo://app?vid=c4d1012c-0835-472c-9982-bcb6e2a88638","ios":"levelo://app?vid=c4d1012c-0835-472c-9982-bcb6e2a88638"},"vehicle_type_id":"4","last_reported":1702480058,"current_range_meters":30800,"station_id":"ce4bh012rcd13ifvqd00","pricing_plan_id":"free"},{"bike_id":"4357167c-b14c-4b27-b514-9f62017b8c87","system_id":"levelo_inurba_marseille","lat":43.291994,"lon":5.392907,"is_reserved":false,"is_disabled":false,"rental_uris":{"android":"levelo://app?vid=4357167c-b14c-4b27-b514-9f62017b8c87","ios":"levelo://app?vid=4357167c-b14c-4b27-b514-9f62017b8c87"},"vehicle_type_id":"4","last_reported":1702480058,"current_range_meters":0,"station_id":"ce4bh192rcd13ifvqdd0","pricing_plan_id":"free"},{"bike_id":"70c87376-431e-42c6-b37d-6475b37cabef","system_id":"levelo_inurba_marseille","lat":43.284538,"lon":5.358657,"is_reserved":false,"is_disabled":false,"rental_uris":{"android":"levelo://app?vid=70c87376-431e-42c6-b37d-6475b37cabef","ios":"levelo://app?vid=70c87376-431e-42c6-b37d-6475b37cabef"},"vehicle_type_id":"4","last_reported":1702480058,"current_range_meters":22800,"station_id":"ce4bhah2rcd13ifvqei0","pricing_plan_id":"free"},{"bike_id":"741ae927-3e19-4a4b-bf85-fd41cc538587","system_id":"levelo_inurba_marseille","lat":43.284538,"lon":5.358657,"is_reserved":false,"is_disabled":false,"rental_uris":{"android":"levelo://app?vid=741ae927-3e19-4a4b-bf85-fd41cc538587","ios":"levelo://app?vid=741ae927-3e19-4a4b-bf85-fd41cc538587"},"vehicle_type_id":"4","last_reported":1702480058,"current_range_meters":14400,"station_id":"ce4bhah2rcd13ifvqei0","pricing_plan_id":"free"},{"bike_id":"d00b3427-a098-4c57-849b-0e038212460e","system_id":"levelo_inurba_marseille","lat":43.294314,"lon":5.397498,"is_reserved":false,"is_disabled":false,"rental_uris":{"android":"levelo://app?vid=d00b3427-a098-4c57-849b-0e038212460e","ios":"levelo://app?vid=d00b3427-a098-4c57-849b-0e038212460e"},"vehicle_type_id":"4","last_reported":1702480058,"current_range_meters":17200,"station_id":"ce4bh3h2rcd13ifvqdo0","pricing_plan_id":"free"},{"bike_id":"1ce9df44-7f9e-422f-b047-2a3d6abb7287","system_id":"levelo_inurba_marseille","lat":43.295713,"lon":5.399639,"is_reserved":false,"is_disabled":false,"rental_uris":{"android":"levelo://app?vid=1ce9df44-7f9e-422f-b047-2a3d6abb7287","ios":"levelo://app?vid=1ce9df44-7f9e-422f-b047-2a3d6abb7287"},"vehicle_type_id":"4","last_reported":1702480058,"current_range_meters":0,"station_id":"ce4bh312rcd13ifvqdj0","pricing_plan_id":"free"},{"bike_id":"5d22406b-a966-458f-9af0-8e1f44b85e79","system_id":"levelo_inurba_marseille","lat":43.319179,"lon":5.407725,"is_reserved":false,"is_disabled":false,"rental_uris":{"android":"levelo://app?vid=5d22406b-a966-458f-9af0-8e1f44b85e79","ios":"levelo://app?vid=5d22406b-a966-458f-9af0-8e1f44b85e79"},"vehicle_type_id":"4","last_reported":1702480058,"current_range_meters":11600,"station_id":"ce4bhq12rcd13ifvqhig","pricing_plan_id":"free"},{"bike_id":"1f65327b-4a3e-4bd2-9e6e-00a7ea4a16aa","system_id":"levelo_inurba_marseille","lat":43.337204,"lon":5.391917,"is_reserved":false,"is_disabled":false,"rental_uris":{"android":"levelo://app?vid=1f65327b-4a3e-4bd2-9e6e-00a7ea4a16aa","ios":"levelo://app?vid=1f65327b-4a3e-4bd2-9e6e-00a7ea4a16aa"},"vehicle_type_id":"4","last_reported":1702480058,"current_range_meters":18800,"station_id":"","pricing_plan_id":"free"},{"bike_id":"67466364-3a66-4317-bd5b-d9e0a472080b","system_id":"levelo_inurba_marseille","lat":43.323464,"lon":5.406297,"is_reserved":false,"is_disabled":false,"rental_uris":{"android":"levelo://app?vid=67466364-3a66-4317-bd5b-d9e0a472080b","ios":"levelo://app?vid=67466364-3a66-4317-bd5b-d9e0a472080b"},"vehicle_type_id":"4","last_reported":1702480058,"current_range_meters":19200,"station_id":"ce4bhq92rcd13ifvqhjg","pricing_plan_id":"free"},{"bike_id":"c2dfd2b7-626c-4359-9520-29c79d4e3011","system_id":"levelo_inurba_marseille","lat":43.288501,"lon":5.393087,"is_reserved":false,"is_disabled":false,"rental_uris":{"android":"levelo://app?vid=c2dfd2b7-626c-4359-9520-29c79d4e3011","ios":"levelo://app?vid=c2dfd2b7-626c-4359-9520-29c79d4e3011"},"vehicle_type_id":"4","last_reported":1702480058,"current_range_meters":21600,"station_id":"ce4bh2p2rcd13ifvqdi0","pricing_plan_id":"free"},{"bike_id":"9a8ad6a8-2528-418d-8860-405f482ab975","system_id":"levelo_inurba_marseille","lat":43.289363,"lon":5.396322,"is_reserved":false,"is_disabled":false,"rental_uris":{"android":"levelo://app?vid=9a8ad6a8-2528-418d-8860-405f482ab975","ios":"levelo://app?vid=9a8ad6a8-2528-418d-8860-405f482ab975"},"vehicle_type_id":"4","last_reported":1702480058,"current_range_meters":17600,"station_id":"ce4bh3h2rcd13ifvqdn0","pricing_plan_id":"free"},{"bike_id":"d7196853-03a7-4e27-b238-d59fdc0e513c","system_id":"levelo_inurba_marseille","lat":43.289363,"lon":5.396322,"is_reserved":false,"is_disabled":false,"rental_uris":{"android":"levelo://app?vid=d7196853-03a7-4e27-b238-d59fdc0e513c","ios":"levelo://app?vid=d7196853-03a7-4e27-b238-d59fdc0e513c"},"vehicle_type_id":"4","last_reported":1702480058,"current_range_meters":4400,"station_id":"ce4bh3h2rcd13ifvqdn0","pricing_plan_id":"free"},{"bike_id":"6681f8dd-9b5a-4435-b29f-07b79f93426d","system_id":"levelo_inurba_marseille","lat":43.282754,"lon":5.350519,"is_reserved":false,"is_disabled":false,"rental_uris":{"android":"levelo://app?vid=6681f8dd-9b5a-4435-b29f-07b79f93426d","ios":"levelo://app?vid=6681f8dd-9b5a-4435-b29f-07b79f93426d"},"vehicle_type_id":"4","last_reported":1702480058,"current_range_meters":2000,"station_id":"ce4bhbp2rcd13ifvqerg","pricing_plan_id":"free"},{"bike_id":"84935074-0720-4cb2-b12d-3f4718e7a062","system_id":"levelo_inurba_marseille","lat":43.284462,"lon":5.392121,"is_reserved":false,"is_disabled":false,"rental_uris":{"android":"levelo://app?vid=84935074-0720-4cb2-b12d-3f4718e7a062","ios":"levelo://app?vid=84935074-0720-4cb2-b12d-3f4718e7a062"},"vehicle_type_id":"4","last_reported":1702480058,"current_range_meters":20800,"station_id":"ce4bhoh2rcd13ifvqh5g","pricing_plan_id":"free"},{"bike_id":"35cfaed9-6d62-4e8a-b379-9b1fca83ad09","system_id":"levelo_inurba_marseille","lat":43.28573,"lon":5.394992,"is_reserved":false,"is_disabled":false,"rental_uris":{"android":"levelo://app?vid=35cfaed9-6d62-4e8a-b379-9b1fca83ad09","ios":"levelo://app?vid=35cfaed9-6d62-4e8a-b379-9b1fca83ad09"},"vehicle_type_id":"4","last_reported":1702480058,"current_range_meters":29600,"station_id":"ce4bh292rcd13ifvqdg0","pricing_plan_id":"free"},{"bike_id":"3a4d2c9d-3dd0-44b2-bd24-6f65c04f3652","system_id":"levelo_inurba_marseille","lat":43.32646,"lon":5.40998,"is_reserved":false,"is_disabled":false,"rental_uris":{"android":"levelo://app?vid=3a4d2c9d-3dd0-44b2-bd24-6f65c04f3652","ios":"levelo://app?vid=3a4d2c9d-3dd0-44b2-bd24-6f65c04f3652"},"vehicle_type_id":"4","last_reported":1702480058,"current_range_meters":27200,"station_id":"ce4bhpp2rcd13ifvqhgg","pricing_plan_id":"free"},{"bike_id":"34a2c4b4-a020-46a4-ae85-e5b60413f992","system_id":"levelo_inurba_marseille","lat":43.30414,"lon":5.41283,"is_reserved":false,"is_disabled":false,"rental_uris":{"android":"levelo://app?vid=34a2c4b4-a020-46a4-ae85-e5b60413f992","ios":"levelo://app?vid=34a2c4b4-a020-46a4-ae85-e5b60413f992"},"vehicle_type_id":"4","last_reported":1702480058,"current_range_meters":24400,"station_id":"ce4bhop2rcd13ifvqh8g","pricing_plan_id":"free"},{"bike_id":"161be74c-c10c-4e62-acca-4faff962d812","system_id":"levelo_inurba_marseille","lat":43.304188,"lon":5.412904,"is_reserved":false,"is_disabled":false,"rental_uris":{"android":"levelo://app?vid=161be74c-c10c-4e62-acca-4faff962d812","ios":"levelo://app?vid=161be74c-c10c-4e62-acca-4faff962d812"},"vehicle_type_id":"4","last_reported":1702480058,"current_range_meters":26800,"station_id":"ce4bhop2rcd13ifvqh8g","pricing_plan_id":"free"},{"bike_id":"add3a9a7-f075-4f1f-88e2-25e6bedf8f20","system_id":"levelo_inurba_marseille","lat":43.279087,"lon":5.380114,"is_reserved":false,"is_disabled":false,"rental_uris":{"android":"levelo://app?vid=add3a9a7-f075-4f1f-88e2-25e6bedf8f20","ios":"levelo://app?vid=add3a9a7-f075-4f1f-88e2-25e6bedf8f20"},"vehicle_type_id":"4","last_reported":1702480058,"current_range_meters":27200,"station_id":"ce4bhf92rcd13ifvqf50","pricing_plan_id":"free"},{"bike_id":"d3e5c4fe-6849-4125-a91b-7fbdce542187","system_id":"levelo_inurba_marseille","lat":43.279742,"lon":5.38744,"is_reserved":false,"is_disabled":false,"rental_uris":{"android":"levelo://app?vid=d3e5c4fe-6849-4125-a91b-7fbdce542187","ios":"levelo://app?vid=d3e5c4fe-6849-4125-a91b-7fbdce542187"},"vehicle_type_id":"4","last_reported":1702480058,"current_range_meters":27600,"station_id":"ce4bhg12rcd13ifvqf80","pricing_plan_id":"free"},{"bike_id":"619e535c-ad42-4982-a74e-78672e16b26c","system_id":"levelo_inurba_marseille","lat":43.325233,"lon":5.414318,"is_reserved":false,"is_disabled":false,"rental_uris":{"android":"levelo://app?vid=619e535c-ad42-4982-a74e-78672e16b26c","ios":"levelo://app?vid=619e535c-ad42-4982-a74e-78672e16b26c"},"vehicle_type_id":"4","last_reported":1702480058,"current_range_meters":27200,"station_id":"ce4bhq12rcd13ifvqhhg","pricing_plan_id":"free"},{"bike_id":"fd742d58-919a-4269-a846-6d4a55c1b297","system_id":"levelo_inurba_marseille","lat":43.30382,"lon":5.416983,"is_reserved":false,"is_disabled":false,"rental_uris":{"android":"levelo://app?vid=fd742d58-919a-4269-a846-6d4a55c1b297","ios":"levelo://app?vid=fd742d58-919a-4269-a846-6d4a55c1b297"},"vehicle_type_id":"4","last_reported":1702480058,"current_range_meters":26800,"station_id":"ce4bhop2rcd13ifvqh8g","pricing_plan_id":"free"},{"bike_id":"aa2d3fce-e67f-4466-9373-ec319e541d1e","system_id":"levelo_inurba_marseille","lat":43.280784,"lon":5.396622,"is_reserved":false,"is_disabled":false,"rental_uris":{"android":"levelo://app?vid=aa2d3fce-e67f-4466-9373-ec319e541d1e","ios":"levelo://app?vid=aa2d3fce-e67f-4466-9373-ec319e541d1e"},"vehicle_type_id":"4","last_reported":1702480058,"current_range_meters":28000,"station_id":"ce4bho12rcd13ifvqh2g","pricing_plan_id":"free"},{"bike_id":"c111b993-2974-4649-a79d-5a04d205ede9","system_id":"levelo_inurba_marseille","lat":43.30356,"lon":5.41868,"is_reserved":false,"is_disabled":false,"rental_uris":{"android":"levelo://app?vid=c111b993-2974-4649-a79d-5a04d205ede9","ios":"levelo://app?vid=c111b993-2974-4649-a79d-5a04d205ede9"},"vehicle_type_id":"4","last_reported":1702480058,"current_range_meters":2800,"station_id":"ce4bhop2rcd13ifvqh7g","pricing_plan_id":"free"},{"bike_id":"7f1e5201-708c-47ae-930f-fa1da7fe12d6","system_id":"levelo_inurba_marseille","lat":43.275625,"lon":5.384392,"is_reserved":false,"is_disabled":false,"rental_uris":{"android":"levelo://app?vid=7f1e5201-708c-47ae-930f-fa1da7fe12d6","ios":"levelo://app?vid=7f1e5201-708c-47ae-930f-fa1da7fe12d6"},"vehicle_type_id":"4","last_reported":1702480058,"current_range_meters":24400,"station_id":"ce4bhh92rcd13ifvqfi0","pricing_plan_id":"free"},{"bike_id":"b8be7bca-49b9-40f2-b897-2034105789af","system_id":"levelo_inurba_marseille","lat":43.273613,"lon":5.362705,"is_reserved":false,"is_disabled":false,"rental_uris":{"android":"levelo://app?vid=b8be7bca-49b9-40f2-b897-2034105789af","ios":"levelo://app?vid=b8be7bca-49b9-40f2-b897-2034105789af"},"vehicle_type_id":"4","last_reported":1702480058,"current_range_meters":8000,"station_id":"ce4bhbh2rcd13ifvqeo0","pricing_plan_id":"free"},{"bike_id":"56a6cb17-4546-4fd9-b071-14c00c0a8bee","system_id":"levelo_inurba_marseille","lat":43.276769,"lon":5.388787,"is_reserved":false,"is_disabled":false,"rental_uris":{"android":"levelo://app?vid=56a6cb17-4546-4fd9-b071-14c00c0a8bee","ios":"levelo://app?vid=56a6cb17-4546-4fd9-b071-14c00c0a8bee"},"vehicle_type_id":"4","last_reported":1702480058,"current_range_meters":16000,"station_id":"ce4bhi12rcd13ifvqfo0","pricing_plan_id":"free"},{"bike_id":"eef6c982-2db6-4b90-ab57-5b9c8d89d0e5","system_id":"levelo_inurba_marseille","lat":43.27545,"lon":5.384485,"is_reserved":false,"is_disabled":false,"rental_uris":{"android":"levelo://app?vid=eef6c982-2db6-4b90-ab57-5b9c8d89d0e5","ios":"levelo://app?vid=eef6c982-2db6-4b90-ab57-5b9c8d89d0e5"},"vehicle_type_id":"4","last_reported":1702480058,"current_range_meters":29200,"station_id":"ce4bhh92rcd13ifvqfi0","pricing_plan_id":"free"},{"bike_id":"91fd58f2-cd4d-4c4d-89f9-57c19fce442a","system_id":"levelo_inurba_marseille","lat":43.279975,"lon":5.40009,"is_reserved":false,"is_disabled":false,"rental_uris":{"android":"levelo://app?vid=91fd58f2-cd4d-4c4d-89f9-57c19fce442a","ios":"levelo://app?vid=91fd58f2-cd4d-4c4d-89f9-57c19fce442a"},"vehicle_type_id":"4","last_reported":1702480058,"current_range_meters":12800,"station_id":"ce4bho92rcd13ifvqh4g","pricing_plan_id":"free"},{"bike_id":"c4d56341-cd55-4040-9e29-98a1cb7ecf12","system_id":"levelo_inurba_marseille","lat":43.279952,"lon":5.400085,"is_reserved":false,"is_disabled":false,"rental_uris":{"android":"levelo://app?vid=c4d56341-cd55-4040-9e29-98a1cb7ecf12","ios":"levelo://app?vid=c4d56341-cd55-4040-9e29-98a1cb7ecf12"},"vehicle_type_id":"4","last_reported":1702480058,"current_range_meters":23200,"station_id":"ce4bho92rcd13ifvqh4g","pricing_plan_id":"free"},{"bike_id":"6d0496bd-7845-4f30-b621-61907f9d50de","system_id":"levelo_inurba_marseille","lat":43.279952,"lon":5.400085,"is_reserved":false,"is_disabled":false,"rental_uris":{"android":"levelo://app?vid=6d0496bd-7845-4f30-b621-61907f9d50de","ios":"levelo://app?vid=6d0496bd-7845-4f30-b621-61907f9d50de"},"vehicle_type_id":"4","last_reported":1702480058,"current_range_meters":20400,"station_id":"ce4bho92rcd13ifvqh4g","pricing_plan_id":"free"},{"bike_id":"b9fbe0bc-c00b-4c74-86b2-963db4f0b1d6","system_id":"levelo_inurba_marseille","lat":43.279975,"lon":5.40009,"is_reserved":false,"is_disabled":false,"rental_uris":{"android":"levelo://app?vid=b9fbe0bc-c00b-4c74-86b2-963db4f0b1d6","ios":"levelo://app?vid=b9fbe0bc-c00b-4c74-86b2-963db4f0b1d6"},"vehicle_type_id":"4","last_reported":1702480058,"current_range_meters":21200,"station_id":"ce4bho92rcd13ifvqh4g","pricing_plan_id":"free"},{"bike_id":"362bc326-de00-4db7-af08-9e69d5064a2f","system_id":"levelo_inurba_marseille","lat":43.317104,"lon":5.436818,"is_reserved":false,"is_disabled":false,"rental_uris":{"android":"levelo://app?vid=362bc326-de00-4db7-af08-9e69d5064a2f","ios":"levelo://app?vid=362bc326-de00-4db7-af08-9e69d5064a2f"},"vehicle_type_id":"4","last_reported":1702480058,"current_range_meters":20000,"station_id":"ce4bhp92rcd13ifvqhcg","pricing_plan_id":"free"},{"bike_id":"fe0a789f-e57a-472a-b8c8-b3b0f92ab63e","system_id":"levelo_inurba_marseille","lat":43.317121,"lon":5.423936,"is_reserved":false,"is_disabled":false,"rental_uris":{"android":"levelo://app?vid=fe0a789f-e57a-472a-b8c8-b3b0f92ab63e","ios":"levelo://app?vid=fe0a789f-e57a-472a-b8c8-b3b0f92ab63e"},"vehicle_type_id":"4","last_reported":1702480058,"current_range_meters":30000,"station_id":"ce4bhp92rcd13ifvqhbg","pricing_plan_id":"free"},{"bike_id":"55f8cf7b-a384-4860-b1f5-075034029351","system_id":"levelo_inurba_marseille","lat":43.3172,"lon":5.42397,"is_reserved":false,"is_disabled":false,"rental_uris":{"android":"levelo://app?vid=55f8cf7b-a384-4860-b1f5-075034029351","ios":"levelo://app?vid=55f8cf7b-a384-4860-b1f5-075034029351"},"vehicle_type_id":"4","last_reported":1702480058,"current_range_meters":27200,"station_id":"ce4bhp92rcd13ifvqhbg","pricing_plan_id":"free"},{"bike_id":"b1c028eb-0fe1-4afa-b35c-b9783a0e9537","system_id":"levelo_inurba_marseille","lat":43.31723,"lon":5.42405,"is_reserved":false,"is_disabled":false,"rental_uris":{"android":"levelo://app?vid=b1c028eb-0fe1-4afa-b35c-b9783a0e9537","ios":"levelo://app?vid=b1c028eb-0fe1-4afa-b35c-b9783a0e9537"},"vehicle_type_id":"4","last_reported":1702480058,"current_range_meters":1600,"station_id":"ce4bhp92rcd13ifvqhbg","pricing_plan_id":"free"},{"bike_id":"e15fcb76-150b-4e94-ba14-1765fbabad44","system_id":"levelo_inurba_marseille","lat":43.310785,"lon":5.424305,"is_reserved":false,"is_disabled":false,"rental_uris":{"android":"levelo://app?vid=e15fcb76-150b-4e94-ba14-1765fbabad44","ios":"levelo://app?vid=e15fcb76-150b-4e94-ba14-1765fbabad44"},"vehicle_type_id":"4","last_reported":1702480058,"current_range_meters":31600,"station_id":"ce4bhp92rcd13ifvqhag","pricing_plan_id":"free"},{"bike_id":"3ca2c2d2-99b0-4aa6-a05d-e30f02e6a7fb","system_id":"levelo_inurba_marseille","lat":43.27588,"lon":5.39495,"is_reserved":false,"is_disabled":false,"rental_uris":{"android":"levelo://app?vid=3ca2c2d2-99b0-4aa6-a05d-e30f02e6a7fb","ios":"levelo://app?vid=3ca2c2d2-99b0-4aa6-a05d-e30f02e6a7fb"},"vehicle_type_id":"4","last_reported":1702480058,"current_range_meters":16400,"station_id":"","pricing_plan_id":"free"},{"bike_id":"3db21585-ddb9-47d8-9960-2f5afc4bfa92","system_id":"levelo_inurba_marseille","lat":43.274103,"lon":5.394016,"is_reserved":false,"is_disabled":false,"rental_uris":{"android":"levelo://app?vid=3db21585-ddb9-47d8-9960-2f5afc4bfa92","ios":"levelo://app?vid=3db21585-ddb9-47d8-9960-2f5afc4bfa92"},"vehicle_type_id":"4","last_reported":1702480058,"current_range_meters":26400,"station_id":"ce4bhdp2rcd13ifvqf20","pricing_plan_id":"free"},{"bike_id":"3528c67b-afa3-4899-ba52-a4e4c03152ce","system_id":"levelo_inurba_marseille","lat":43.27424,"lon":5.39418,"is_reserved":false,"is_disabled":false,"rental_uris":{"android":"levelo://app?vid=3528c67b-afa3-4899-ba52-a4e4c03152ce","ios":"levelo://app?vid=3528c67b-afa3-4899-ba52-a4e4c03152ce"},"vehicle_type_id":"4","last_reported":1702480058,"current_range_meters":17600,"station_id":"ce4bhdp2rcd13ifvqf20","pricing_plan_id":"free"},{"bike_id":"ace21226-8b98-4fba-a220-94eb19982ca3","system_id":"levelo_inurba_marseille","lat":43.274099,"lon":5.394019,"is_reserved":false,"is_disabled":false,"rental_uris":{"android":"levelo://app?vid=ace21226-8b98-4fba-a220-94eb19982ca3","ios":"levelo://app?vid=ace21226-8b98-4fba-a220-94eb19982ca3"},"vehicle_type_id":"4","last_reported":1702480058,"current_range_meters":18400,"station_id":"ce4bhdp2rcd13ifvqf20","pricing_plan_id":"free"},{"bike_id":"d7a6c85d-a811-4fa8-800a-8c7d7fbad1e5","system_id":"levelo_inurba_marseille","lat":43.28622,"lon":5.41711,"is_reserved":false,"is_disabled":false,"rental_uris":{"android":"levelo://app?vid=d7a6c85d-a811-4fa8-800a-8c7d7fbad1e5","ios":"levelo://app?vid=d7a6c85d-a811-4fa8-800a-8c7d7fbad1e5"},"vehicle_type_id":"4","last_reported":1702480058,"current_range_meters":0,"station_id":"","pricing_plan_id":"free"},{"bike_id":"8964eb56-0b5e-453b-8500-6bd4e24979c2","system_id":"levelo_inurba_marseille","lat":43.278128,"lon":5.407195,"is_reserved":false,"is_disabled":false,"rental_uris":{"android":"levelo://app?vid=8964eb56-0b5e-453b-8500-6bd4e24979c2","ios":"levelo://app?vid=8964eb56-0b5e-453b-8500-6bd4e24979c2"},"vehicle_type_id":"4","last_reported":1702480058,"current_range_meters":18800,"station_id":"ce4bhnh2rcd13ifvqgtg","pricing_plan_id":"free"},{"bike_id":"f003ffb7-c880-48c3-90dd-a4bcc8977e10","system_id":"levelo_inurba_marseille","lat":43.278128,"lon":5.407195,"is_reserved":false,"is_disabled":false,"rental_uris":{"android":"levelo://app?vid=f003ffb7-c880-48c3-90dd-a4bcc8977e10","ios":"levelo://app?vid=f003ffb7-c880-48c3-90dd-a4bcc8977e10"},"vehicle_type_id":"4","last_reported":1702480058,"current_range_meters":27200,"station_id":"ce4bhnh2rcd13ifvqgtg","pricing_plan_id":"free"},{"bike_id":"7c6d7f1c-0ccd-4e53-a440-4b83356f3083","system_id":"levelo_inurba_marseille","lat":43.279503,"lon":5.410451,"is_reserved":false,"is_disabled":false,"rental_uris":{"android":"levelo://app?vid=7c6d7f1c-0ccd-4e53-a440-4b83356f3083","ios":"levelo://app?vid=7c6d7f1c-0ccd-4e53-a440-4b83356f3083"},"vehicle_type_id":"4","last_reported":1702480058,"current_range_meters":0,"station_id":"ce4bhnp2rcd13ifvqh0g","pricing_plan_id":"free"},{"bike_id":"11d6dfb1-26c7-4106-b64b-5d1b75cd1d6a","system_id":"levelo_inurba_marseille","lat":43.27942,"lon":5.4105,"is_reserved":false,"is_disabled":false,"rental_uris":{"android":"levelo://app?vid=11d6dfb1-26c7-4106-b64b-5d1b75cd1d6a","ios":"levelo://app?vid=11d6dfb1-26c7-4106-b64b-5d1b75cd1d6a"},"vehicle_type_id":"4","last_reported":1702480058,"current_range_meters":7200,"station_id":"ce4bhnp2rcd13ifvqh0g","pricing_plan_id":"free"},{"bike_id":"0cfd2184-9a8a-493b-96d1-85da176af037","system_id":"levelo_inurba_marseille","lat":43.27996,"lon":5.416624,"is_reserved":false,"is_disabled":false,"rental_uris":{"android":"levelo://app?vid=0cfd2184-9a8a-493b-96d1-85da176af037","ios":"levelo://app?vid=0cfd2184-9a8a-493b-96d1-85da176af037"},"vehicle_type_id":"4","last_reported":1702480058,"current_range_meters":19200,"station_id":"ce4bho12rcd13ifvqh1g","pricing_plan_id":"free"},{"bike_id":"3f232a0b-f328-4a7c-9376-5d1041aa79e5","system_id":"levelo_inurba_marseille","lat":43.308051,"lon":5.43527,"is_reserved":false,"is_disabled":false,"rental_uris":{"android":"levelo://app?vid=3f232a0b-f328-4a7c-9376-5d1041aa79e5","ios":"levelo://app?vid=3f232a0b-f328-4a7c-9376-5d1041aa79e5"},"vehicle_type_id":"4","last_reported":1702480058,"current_range_meters":31200,"station_id":"ce4bhph2rcd13ifvqheg","pricing_plan_id":"free"},{"bike_id":"04f2ae57-5c68-41ae-a441-de405cb29182","system_id":"levelo_inurba_marseille","lat":43.308051,"lon":5.43527,"is_reserved":false,"is_disabled":false,"rental_uris":{"android":"levelo://app?vid=04f2ae57-5c68-41ae-a441-de405cb29182","ios":"levelo://app?vid=04f2ae57-5c68-41ae-a441-de405cb29182"},"vehicle_type_id":"4","last_reported":1702480058,"current_range_meters":21600,"station_id":"ce4bhph2rcd13ifvqheg","pricing_plan_id":"free"},{"bike_id":"45b99c1c-15e8-441b-978a-cfd866322470","system_id":"levelo_inurba_marseille","lat":43.26942,"lon":5.4025,"is_reserved":false,"is_disabled":false,"rental_uris":{"android":"levelo://app?vid=45b99c1c-15e8-441b-978a-cfd866322470","ios":"levelo://app?vid=45b99c1c-15e8-441b-978a-cfd866322470"},"vehicle_type_id":"4","last_reported":1702480058,"current_range_meters":6400,"station_id":"cjm6bp8fraef2m0cb0m0","pricing_plan_id":"free"},{"bike_id":"3aee01e6-74a0-4336-b102-29f7ddf731f3","system_id":"levelo_inurba_marseille","lat":43.269106,"lon":5.402599,"is_reserved":false,"is_disabled":false,"rental_uris":{"android":"levelo://app?vid=3aee01e6-74a0-4336-b102-29f7ddf731f3","ios":"levelo://app?vid=3aee01e6-74a0-4336-b102-29f7ddf731f3"},"vehicle_type_id":"4","last_reported":1702480058,"current_range_meters":9600,"station_id":"","pricing_plan_id":"free"},{"bike_id":"268406be-9ca4-4d3c-9ab5-7b8ffa3d9f02","system_id":"levelo_inurba_marseille","lat":43.261782,"lon":5.374515,"is_reserved":false,"is_disabled":false,"rental_uris":{"android":"levelo://app?vid=268406be-9ca4-4d3c-9ab5-7b8ffa3d9f02","ios":"levelo://app?vid=268406be-9ca4-4d3c-9ab5-7b8ffa3d9f02"},"vehicle_type_id":"4","last_reported":1702480058,"current_range_meters":19600,"station_id":"ce4bhgp2rcd13ifvqfc0","pricing_plan_id":"free"},{"bike_id":"582ca4bf-aa7b-4d68-8a54-b31c9007dfcf","system_id":"levelo_inurba_marseille","lat":43.317104,"lon":5.436818,"is_reserved":false,"is_disabled":false,"rental_uris":{"android":"levelo://app?vid=582ca4bf-aa7b-4d68-8a54-b31c9007dfcf","ios":"levelo://app?vid=582ca4bf-aa7b-4d68-8a54-b31c9007dfcf"},"vehicle_type_id":"4","last_reported":1702480058,"current_range_meters":28400,"station_id":"ce4bhp92rcd13ifvqhcg","pricing_plan_id":"free"},{"bike_id":"e01c978c-9fc5-4135-a57c-bdfb5815eeff","system_id":"levelo_inurba_marseille","lat":43.261782,"lon":5.374515,"is_reserved":false,"is_disabled":false,"rental_uris":{"android":"levelo://app?vid=e01c978c-9fc5-4135-a57c-bdfb5815eeff","ios":"levelo://app?vid=e01c978c-9fc5-4135-a57c-bdfb5815eeff"},"vehicle_type_id":"4","last_reported":1702480058,"current_range_meters":14400,"station_id":"ce4bhgp2rcd13ifvqfc0","pricing_plan_id":"free"},{"bike_id":"39eefe27-03d9-47f3-9de8-d68c3a12f1c4","system_id":"levelo_inurba_marseille","lat":43.264337,"lon":5.39024,"is_reserved":false,"is_disabled":false,"rental_uris":{"android":"levelo://app?vid=39eefe27-03d9-47f3-9de8-d68c3a12f1c4","ios":"levelo://app?vid=39eefe27-03d9-47f3-9de8-d68c3a12f1c4"},"vehicle_type_id":"4","last_reported":1702480058,"current_range_meters":0,"station_id":"","pricing_plan_id":"free"},{"bike_id":"0634f25c-f5b1-468b-a8f9-4c5a81b89cb7","system_id":"levelo_inurba_marseille","lat":43.26204,"lon":5.37931,"is_reserved":false,"is_disabled":false,"rental_uris":{"android":"levelo://app?vid=0634f25c-f5b1-468b-a8f9-4c5a81b89cb7","ios":"levelo://app?vid=0634f25c-f5b1-468b-a8f9-4c5a81b89cb7"},"vehicle_type_id":"4","last_reported":1702480058,"current_range_meters":14800,"station_id":"ce4bhjp2rcd13ifvqg90","pricing_plan_id":"free"},{"bike_id":"b3778f4b-17a5-414d-a355-5d6709a05873","system_id":"levelo_inurba_marseille","lat":43.26393,"lon":5.38973,"is_reserved":false,"is_disabled":false,"rental_uris":{"android":"levelo://app?vid=b3778f4b-17a5-414d-a355-5d6709a05873","ios":"levelo://app?vid=b3778f4b-17a5-414d-a355-5d6709a05873"},"vehicle_type_id":"4","last_reported":1702480058,"current_range_meters":22400,"station_id":"","pricing_plan_id":"free"},{"bike_id":"38a4a3ac-b01c-43e0-abb4-5a012521fc8c","system_id":"levelo_inurba_marseille","lat":43.298768,"lon":5.43643,"is_reserved":false,"is_disabled":false,"rental_uris":{"android":"levelo://app?vid=38a4a3ac-b01c-43e0-abb4-5a012521fc8c","ios":"levelo://app?vid=38a4a3ac-b01c-43e0-abb4-5a012521fc8c"},"vehicle_type_id":"4","last_reported":1702480058,"current_range_meters":28000,"station_id":"ce4bhpp2rcd13ifvqhfg","pricing_plan_id":"free"},{"bike_id":"867b665f-6019-4e46-bd56-b85c41f1ae67","system_id":"levelo_inurba_marseille","lat":43.298768,"lon":5.43643,"is_reserved":false,"is_disabled":false,"rental_uris":{"android":"levelo://app?vid=867b665f-6019-4e46-bd56-b85c41f1ae67","ios":"levelo://app?vid=867b665f-6019-4e46-bd56-b85c41f1ae67"},"vehicle_type_id":"4","last_reported":1702480058,"current_range_meters":18800,"station_id":"ce4bhpp2rcd13ifvqhfg","pricing_plan_id":"free"},{"bike_id":"1578bda5-a686-4b95-835e-28cf797531ae","system_id":"levelo_inurba_marseille","lat":43.281548,"lon":5.42643,"is_reserved":false,"is_disabled":false,"rental_uris":{"android":"levelo://app?vid=1578bda5-a686-4b95-835e-28cf797531ae","ios":"levelo://app?vid=1578bda5-a686-4b95-835e-28cf797531ae"},"vehicle_type_id":"4","last_reported":1702480058,"current_range_meters":26800,"station_id":"ce4bhnh2rcd13ifvqgug","pricing_plan_id":"free"},{"bike_id":"208562c2-b41f-4178-9d7f-dc2f87d92e41","system_id":"levelo_inurba_marseille","lat":43.26348,"lon":5.39678,"is_reserved":false,"is_disabled":false,"rental_uris":{"android":"levelo://app?vid=208562c2-b41f-4178-9d7f-dc2f87d92e41","ios":"levelo://app?vid=208562c2-b41f-4178-9d7f-dc2f87d92e41"},"vehicle_type_id":"4","last_reported":1702480058,"current_range_meters":8000,"station_id":"","pricing_plan_id":"free"},{"bike_id":"c4df455b-1cce-4fc9-b6bc-0be389e33544","system_id":"levelo_inurba_marseille","lat":43.2607,"lon":5.393983,"is_reserved":false,"is_disabled":false,"rental_uris":{"android":"levelo://app?vid=c4df455b-1cce-4fc9-b6bc-0be389e33544","ios":"levelo://app?vid=c4df455b-1cce-4fc9-b6bc-0be389e33544"},"vehicle_type_id":"4","last_reported":1702480058,"current_range_meters":27600,"station_id":"ce4bhh92rcd13ifvqfj0","pricing_plan_id":"free"},{"bike_id":"3498d022-418c-4ff2-ad3d-fc970fc13e14","system_id":"levelo_inurba_marseille","lat":43.255854,"lon":5.38225,"is_reserved":false,"is_disabled":false,"rental_uris":{"android":"levelo://app?vid=3498d022-418c-4ff2-ad3d-fc970fc13e14","ios":"levelo://app?vid=3498d022-418c-4ff2-ad3d-fc970fc13e14"},"vehicle_type_id":"4","last_reported":1702480058,"current_range_meters":2000,"station_id":"","pricing_plan_id":"free"},{"bike_id":"22485b2d-e366-4d54-9f62-dc2c883fcf8e","system_id":"levelo_inurba_marseille","lat":43.25577,"lon":5.3823,"is_reserved":false,"is_disabled":false,"rental_uris":{"android":"levelo://app?vid=22485b2d-e366-4d54-9f62-dc2c883fcf8e","ios":"levelo://app?vid=22485b2d-e366-4d54-9f62-dc2c883fcf8e"},"vehicle_type_id":"4","last_reported":1702480058,"current_range_meters":18000,"station_id":"ce4bhih2rcd13ifvqfs0","pricing_plan_id":"free"},{"bike_id":"bc67aa68-2029-48c7-86b8-0dee74048456","system_id":"levelo_inurba_marseille","lat":43.25574,"lon":5.38232,"is_reserved":false,"is_disabled":false,"rental_uris":{"android":"levelo://app?vid=bc67aa68-2029-48c7-86b8-0dee74048456","ios":"levelo://app?vid=bc67aa68-2029-48c7-86b8-0dee74048456"},"vehicle_type_id":"4","last_reported":1702480058,"current_range_meters":14400,"station_id":"ce4bhih2rcd13ifvqfs0","pricing_plan_id":"free"},{"bike_id":"e20e394f-3313-42b6-893e-5a7487857f23","system_id":"levelo_inurba_marseille","lat":43.25711,"lon":5.41128,"is_reserved":false,"is_disabled":false,"rental_uris":{"android":"levelo://app?vid=e20e394f-3313-42b6-893e-5a7487857f23","ios":"levelo://app?vid=e20e394f-3313-42b6-893e-5a7487857f23"},"vehicle_type_id":"4","last_reported":1702480058,"current_range_meters":16800,"station_id":"ce4bhkp2rcd13ifvqgd0","pricing_plan_id":"free"},{"bike_id":"492ce306-c8b1-4a8f-890c-f283e2fae0ae","system_id":"levelo_inurba_marseille","lat":43.250009,"lon":5.389195,"is_reserved":false,"is_disabled":false,"rental_uris":{"android":"levelo://app?vid=492ce306-c8b1-4a8f-890c-f283e2fae0ae","ios":"levelo://app?vid=492ce306-c8b1-4a8f-890c-f283e2fae0ae"},"vehicle_type_id":"4","last_reported":1702480058,"current_range_meters":7200,"station_id":"ce4bhgp2rcd13ifvqfd0","pricing_plan_id":"free"},{"bike_id":"c9e645dc-a5c4-4cad-a51b-76c622bcd8c7","system_id":"levelo_inurba_marseille","lat":43.24809,"lon":5.37459,"is_reserved":false,"is_disabled":false,"rental_uris":{"android":"levelo://app?vid=c9e645dc-a5c4-4cad-a51b-76c622bcd8c7","ios":"levelo://app?vid=c9e645dc-a5c4-4cad-a51b-76c622bcd8c7"},"vehicle_type_id":"4","last_reported":1702480058,"current_range_meters":16800,"station_id":"ce4bhgh2rcd13ifvqfb0","pricing_plan_id":"free"},{"bike_id":"c27f1ef8-919a-4e83-a7e5-89c68e4cbfd5","system_id":"levelo_inurba_marseille","lat":43.2479,"lon":5.374457,"is_reserved":false,"is_disabled":false,"rental_uris":{"android":"levelo://app?vid=c27f1ef8-919a-4e83-a7e5-89c68e4cbfd5","ios":"levelo://app?vid=c27f1ef8-919a-4e83-a7e5-89c68e4cbfd5"},"vehicle_type_id":"4","last_reported":1702480058,"current_range_meters":22800,"station_id":"ce4bhgh2rcd13ifvqfb0","pricing_plan_id":"free"},{"bike_id":"2868f403-92b7-4b08-8ec9-c145a48524a1","system_id":"levelo_inurba_marseille","lat":43.25102,"lon":5.403214,"is_reserved":false,"is_disabled":false,"rental_uris":{"android":"levelo://app?vid=2868f403-92b7-4b08-8ec9-c145a48524a1","ios":"levelo://app?vid=2868f403-92b7-4b08-8ec9-c145a48524a1"},"vehicle_type_id":"4","last_reported":1702480058,"current_range_meters":800,"station_id":"ce4bhlh2rcd13ifvqgig","pricing_plan_id":"free"},{"bike_id":"1da87602-9cbd-422d-a96e-387b9232edc2","system_id":"levelo_inurba_marseille","lat":43.2465,"lon":5.389094,"is_reserved":false,"is_disabled":false,"rental_uris":{"android":"levelo://app?vid=1da87602-9cbd-422d-a96e-387b9232edc2","ios":"levelo://app?vid=1da87602-9cbd-422d-a96e-387b9232edc2"},"vehicle_type_id":"4","last_reported":1702480058,"current_range_meters":800,"station_id":"ce4bhg12rcd13ifvqf60","pricing_plan_id":"free"},{"bike_id":"79ff15de-4d4c-4e0e-8061-666c8b0d69a6","system_id":"levelo_inurba_marseille","lat":43.243884,"lon":5.370737,"is_reserved":false,"is_disabled":false,"rental_uris":{"android":"levelo://app?vid=79ff15de-4d4c-4e0e-8061-666c8b0d69a6","ios":"levelo://app?vid=79ff15de-4d4c-4e0e-8061-666c8b0d69a6"},"vehicle_type_id":"4","last_reported":1702480058,"current_range_meters":10800,"station_id":"ce4bhhh2rcd13ifvqfk0","pricing_plan_id":"free"},{"bike_id":"da7e4ddc-0dbe-4ac2-ac48-f8286cc9a7c0","system_id":"levelo_inurba_marseille","lat":43.243884,"lon":5.370737,"is_reserved":false,"is_disabled":false,"rental_uris":{"android":"levelo://app?vid=da7e4ddc-0dbe-4ac2-ac48-f8286cc9a7c0","ios":"levelo://app?vid=da7e4ddc-0dbe-4ac2-ac48-f8286cc9a7c0"},"vehicle_type_id":"4","last_reported":1702480058,"current_range_meters":14000,"station_id":"ce4bhhh2rcd13ifvqfk0","pricing_plan_id":"free"},{"bike_id":"fbf0762a-f3fc-450d-a00d-5771debb171a","system_id":"levelo_inurba_marseille","lat":43.243884,"lon":5.370736,"is_reserved":false,"is_disabled":false,"rental_uris":{"android":"levelo://app?vid=fbf0762a-f3fc-450d-a00d-5771debb171a","ios":"levelo://app?vid=fbf0762a-f3fc-450d-a00d-5771debb171a"},"vehicle_type_id":"4","last_reported":1702480058,"current_range_meters":26800,"station_id":"ce4bhhh2rcd13ifvqfk0","pricing_plan_id":"free"},{"bike_id":"ebde5a64-7b82-4d4a-b90a-61c1b860b95a","system_id":"levelo_inurba_marseille","lat":43.245487,"lon":5.395227,"is_reserved":false,"is_disabled":false,"rental_uris":{"android":"levelo://app?vid=ebde5a64-7b82-4d4a-b90a-61c1b860b95a","ios":"levelo://app?vid=ebde5a64-7b82-4d4a-b90a-61c1b860b95a"},"vehicle_type_id":"4","last_reported":1702480058,"current_range_meters":0,"station_id":"ce4bhlp2rcd13ifvqgjg","pricing_plan_id":"free"},{"bike_id":"627b1188-0512-4d13-a569-fc26f3402eca","system_id":"levelo_inurba_marseille","lat":43.245581,"lon":5.395069,"is_reserved":false,"is_disabled":false,"rental_uris":{"android":"levelo://app?vid=627b1188-0512-4d13-a569-fc26f3402eca","ios":"levelo://app?vid=627b1188-0512-4d13-a569-fc26f3402eca"},"vehicle_type_id":"4","last_reported":1702480058,"current_range_meters":5600,"station_id":"ce4bhlp2rcd13ifvqgjg","pricing_plan_id":"free"},{"bike_id":"41fce50f-32c0-42c3-afb9-ea5da7f278e8","system_id":"levelo_inurba_marseille","lat":43.241782,"lon":5.397261,"is_reserved":false,"is_disabled":false,"rental_uris":{"android":"levelo://app?vid=41fce50f-32c0-42c3-afb9-ea5da7f278e8","ios":"levelo://app?vid=41fce50f-32c0-42c3-afb9-ea5da7f278e8"},"vehicle_type_id":"4","last_reported":1702480058,"current_range_meters":11200,"station_id":"ce4bhn12rcd13ifvqgpg","pricing_plan_id":"free"},{"bike_id":"a24e9a7d-aca6-4a9e-803e-e0faeb33511b","system_id":"levelo_inurba_marseille","lat":43.231923,"lon":5.355545,"is_reserved":false,"is_disabled":false,"rental_uris":{"android":"levelo://app?vid=a24e9a7d-aca6-4a9e-803e-e0faeb33511b","ios":"levelo://app?vid=a24e9a7d-aca6-4a9e-803e-e0faeb33511b"},"vehicle_type_id":"4","last_reported":1702480058,"current_range_meters":0,"station_id":"ce4bhu92rcd13ifvqi70","pricing_plan_id":"free"},{"bike_id":"28cf0186-3129-4448-9e8f-8fa9860365e7","system_id":"levelo_inurba_marseille","lat":43.231794,"lon":5.400052,"is_reserved":false,"is_disabled":false,"rental_uris":{"android":"levelo://app?vid=28cf0186-3129-4448-9e8f-8fa9860365e7","ios":"levelo://app?vid=28cf0186-3129-4448-9e8f-8fa9860365e7"},"vehicle_type_id":"4","last_reported":1702480058,"current_range_meters":19200,"station_id":"ce4bhn12rcd13ifvqgqg","pricing_plan_id":"free"},{"bike_id":"46e85755-7f44-4770-9e69-88e3e5d2d0d4","system_id":"levelo_inurba_marseille","lat":43.231794,"lon":5.400052,"is_reserved":false,"is_disabled":false,"rental_uris":{"android":"levelo://app?vid=46e85755-7f44-4770-9e69-88e3e5d2d0d4","ios":"levelo://app?vid=46e85755-7f44-4770-9e69-88e3e5d2d0d4"},"vehicle_type_id":"4","last_reported":1702480058,"current_range_meters":21600,"station_id":"ce4bhn12rcd13ifvqgqg","pricing_plan_id":"free"},{"bike_id":"e9e13da5-814b-4e04-963f-f688451db439","system_id":"levelo_inurba_marseille","lat":43.231793,"lon":5.400044,"is_reserved":false,"is_disabled":false,"rental_uris":{"android":"levelo://app?vid=e9e13da5-814b-4e04-963f-f688451db439","ios":"levelo://app?vid=e9e13da5-814b-4e04-963f-f688451db439"},"vehicle_type_id":"4","last_reported":1702480058,"current_range_meters":0,"station_id":"ce4bhn12rcd13ifvqgqg","pricing_plan_id":"free"},{"bike_id":"976b51c7-50e5-4a1e-9623-472378627f57","system_id":"levelo_inurba_marseille","lat":43.231794,"lon":5.400052,"is_reserved":false,"is_disabled":false,"rental_uris":{"android":"levelo://app?vid=976b51c7-50e5-4a1e-9623-472378627f57","ios":"levelo://app?vid=976b51c7-50e5-4a1e-9623-472378627f57"},"vehicle_type_id":"4","last_reported":1702480058,"current_range_meters":12000,"station_id":"ce4bhn12rcd13ifvqgqg","pricing_plan_id":"free"},{"bike_id":"5d66a1e1-407e-43b7-8a1f-b43437a90341","system_id":"levelo_inurba_marseille","lat":43.231794,"lon":5.400052,"is_reserved":false,"is_disabled":false,"rental_uris":{"android":"levelo://app?vid=5d66a1e1-407e-43b7-8a1f-b43437a90341","ios":"levelo://app?vid=5d66a1e1-407e-43b7-8a1f-b43437a90341"},"vehicle_type_id":"4","last_reported":1702480058,"current_range_meters":20400,"station_id":"ce4bhn12rcd13ifvqgqg","pricing_plan_id":"free"},{"bike_id":"8b01bb59-2645-444e-8775-2b8dfa773148","system_id":"levelo_inurba_marseille","lat":43.231793,"lon":5.400044,"is_reserved":false,"is_disabled":false,"rental_uris":{"android":"levelo://app?vid=8b01bb59-2645-444e-8775-2b8dfa773148","ios":"levelo://app?vid=8b01bb59-2645-444e-8775-2b8dfa773148"},"vehicle_type_id":"4","last_reported":1702480058,"current_range_meters":4000,"station_id":"ce4bhn12rcd13ifvqgqg","pricing_plan_id":"free"},{"bike_id":"dcc8c681-e5cc-459e-9605-32a12c9dfbb6","system_id":"levelo_inurba_marseille","lat":43.231794,"lon":5.400052,"is_reserved":false,"is_disabled":false,"rental_uris":{"android":"levelo://app?vid=dcc8c681-e5cc-459e-9605-32a12c9dfbb6","ios":"levelo://app?vid=dcc8c681-e5cc-459e-9605-32a12c9dfbb6"},"vehicle_type_id":"4","last_reported":1702480058,"current_range_meters":19200,"station_id":"ce4bhn12rcd13ifvqgqg","pricing_plan_id":"free"},{"bike_id":"e2d194e4-66ed-4272-8a5d-37a90e6c06b8","system_id":"levelo_inurba_marseille","lat":43.231794,"lon":5.400052,"is_reserved":false,"is_disabled":false,"rental_uris":{"android":"levelo://app?vid=e2d194e4-66ed-4272-8a5d-37a90e6c06b8","ios":"levelo://app?vid=e2d194e4-66ed-4272-8a5d-37a90e6c06b8"},"vehicle_type_id":"4","last_reported":1702480058,"current_range_meters":18400,"station_id":"ce4bhn12rcd13ifvqgqg","pricing_plan_id":"free"},{"bike_id":"57c72221-af87-447c-8105-25c1397a08c0","system_id":"levelo_inurba_marseille","lat":43.231793,"lon":5.400044,"is_reserved":false,"is_disabled":false,"rental_uris":{"android":"levelo://app?vid=57c72221-af87-447c-8105-25c1397a08c0","ios":"levelo://app?vid=57c72221-af87-447c-8105-25c1397a08c0"},"vehicle_type_id":"4","last_reported":1702480058,"current_range_meters":20800,"station_id":"ce4bhn12rcd13ifvqgqg","pricing_plan_id":"free"},{"bike_id":"a70842cf-3cdd-4227-8996-9e4cdf55219b","system_id":"levelo_inurba_marseille","lat":43.231793,"lon":5.400044,"is_reserved":false,"is_disabled":false,"rental_uris":{"android":"levelo://app?vid=a70842cf-3cdd-4227-8996-9e4cdf55219b","ios":"levelo://app?vid=a70842cf-3cdd-4227-8996-9e4cdf55219b"},"vehicle_type_id":"4","last_reported":1702480058,"current_range_meters":10400,"station_id":"ce4bhn12rcd13ifvqgqg","pricing_plan_id":"free"}]}}