{"last_updated":1732345698,"ttl":60,"version":"2.2","data":{"bikes":[{"bike_id":"97abb17a-559b-4f99-b2ac-38a314e03a43","system_id":"levelo_inurba_marseille","lat":43.32337,"lon":5.40619,"is_reserved":false,"is_disabled":false,"rental_uris":{"android":"levelo://app?vid=97abb17a-559b-4f99-b2ac-38a314e03a43","ios":"levelo://app?vid=97abb17a-559b-4f99-b2ac-38a314e03a43"},"vehicle_type_id":"4","last_reported":1732345698,"current_range_meters":33600,"station_id":"ce4bhq92rcd13ifvqhjg","pricing_plan_id":"cebpf4jnsgd1na2vs0mg"},{"bike_id":"75554ea7-5195-46a9-9cc8-509fe75527d7","system_id":"levelo_inurba_marseille","lat":43.28038,"lon":5.36943,"is_reserved":false,"is_disabled":false,"rental_uris":{"android":"levelo://app?vid=75554ea7-5195-46a9-9cc8-509fe75527d7","ios":"levelo://app?vid=75554ea7-5195-46a9-9cc8-509fe75527d7"},"vehicle_type_id":"4","last_reported":1732345698,"current_range_meters":39200,"station_id":"ce4bha12rcd13ifvqef0","pricing_plan_id":"cebpf4jnsgd1na2vs0mg"},{"bike_id":"e23b6c4c-d27e-407e-a72b-e3ea9129fcf8","system_id":"levelo_inurba_marseille","lat":43.32361,"lon":5.38889,"is_reserved":false,"is_disabled":false,"rental_uris":{"android":"levelo://app?vid=e23b6c4c-d27e-407e-a72b-e3ea9129fcf8","ios":"levelo://app?vid=e23b6c4c-d27e-407e-a72b-e3ea9129fcf8"},"vehicle_type_id":"4","last_reported":1732345698,"current_range_meters":27200,"station_id":"ce4bhqp2rcd13ifvqhog","pricing_plan_id":"cebpf4jnsgd1na2vs0mg"},{"bike_id":"d19acf75-91b6-4f17-9ea8-7239aba26add","system_id":"levelo_inurba_marseille","lat":43.28941,"lon":5.36644,"is_reserved":false,"is_disabled":false,"rental_uris":{"android":"levelo://app?vid=d19acf75-91b6-4f17-9ea8-7239aba26add","ios":"levelo://app?vid=d19acf75-91b6-4f17-9ea8-7239aba26add"},"vehicle_type_id":"4","last_reported":1732345698,"current_range_meters":25200,"station_id":"ce4bhap2rcd13ifvqek0","pricing_plan_id":"cebpf4jnsgd1na2vs0mg"},{"bike_id":"216bffcf-1b87-4e7e-9ea8-7ffd8995fe38","system_id":"levelo_inurba_marseille","lat":43.28926,"lon":5.38401,"is_reserved":false,"is_disabled":true,"rental_uris":{"android":"levelo://app?vid=216bffcf-1b87-4e7e-9ea8-7ffd8995fe38","ios":"levelo://app?vid=216bffcf-1b87-4e7e-9ea8-7ffd8995fe38"},"vehicle_type_id":"4","last_reported":1732345698,"current_range_meters":14400,"station_id":"ce4bh612rcd13ifvqe6g","pricing_plan_id":"cebpf4jnsgd1na2vs0mg"},{"bike_id":"e888f574-cbea-4e1a-9b7a-78a72589740f","system_id":"levelo_inurba_marseille","lat":43.28935,"lon":5.39633,"is_reserved":false,"is_disabled":false,"rental_uris":{"android":"levelo://app?vid=e888f574-cbea-4e1a-9b7a-78a72589740f","ios":"levelo://app?vid=e888f574-cbea-4e1a-9b7a-78a72589740f"},"vehicle_type_id":"4","last_reported":1732345698,"current_range_meters":36800,"station_id":"ce4bh3h2rcd13ifvqdn0","pricing_plan_id":"cebpf4jnsgd1na2vs0mg"},{"bike_id":"08f392b7-fb0b-40fb-b32a-822f164ec237","system_id":"levelo_inurba_marseille","lat":43.269354,"lon":5.402492,"is_reserved":false,"is_disabled":false,"rental_uris":{"android":"levelo://app?vid=08f392b7-fb0b-40fb-b32a-822f164ec237","ios":"levelo://app?vid=08f392b7-fb0b-40fb-b32a-822f164ec237"},"vehicle_type_id":"4","last_reported":1732345698,"current_range_meters":8400,"station_id":"cjm6bp8fraef2m0cb0m0","pricing_plan_id":"cebpf4jnsgd1na2vs0mg"},{"bike_id":"7f96ad91-6e6a-433d-81df-17b7cc161c1b","system_id":"levelo_inurba_marseille","lat":43.31713,"lon":5.43707,"is_reserved":false,"is_disabled":false,"rental_uris":{"android":"levelo://app?vid=7f96ad91-6e6a-433d-81df-17b7cc161c1b","ios":"levelo://app?vid=7f96ad91-6e6a-433d-81df-17b7cc161c1b"},"vehicle_type_id":"4","last_reported":1732345698,"current_range_meters":19600,"station_id":"ce4bhp92rcd13ifvqhcg","pricing_plan_id":"cebpf4jnsgd1na2vs0mg"},{"bike_id":"81cbecd7-365c-4a9c-9de6-a98cb001a78f","system_id":"levelo_inurba_marseille","lat":43.31069,"lon":5.38353,"is_reserved":false,"is_disabled":false,"rental_uris":{"android":"levelo://app?vid=81cbecd7-365c-4a9c-9de6-a98cb001a78f","ios":"levelo://app?vid=81cbecd7-365c-4a9c-9de6-a98cb001a78f"},"vehicle_type_id":"4","last_reported":1732345698,"current_range_meters":36800,"station_id":"ce4bgv92rcd13ifvqcr0","pricing_plan_id":"cebpf4jnsgd1na2vs0mg"},{"bike_id":"f161b73c-800a-452d-afd1-5f6db18abd34","system_id":"levelo_inurba_marseille","lat":43.27616,"lon":5.36115,"is_reserved":false,"is_disabled":false,"rental_uris":{"android":"levelo://app?vid=f161b73c-800a-452d-afd1-5f6db18abd34","ios":"levelo://app?vid=f161b73c-800a-452d-afd1-5f6db18abd34"},"vehicle_type_id":"4","last_reported":1732345698,"current_range_meters":12800,"station_id":"ce4bgj92rcd13ifvqbe0","pricing_plan_id":"cebpf4jnsgd1na2vs0mg"},{"bike_id":"8a121b48-1f5b-4c33-b9ca-47a97d05b778","system_id":"levelo_inurba_marseille","lat":43.324835,"lon":5.365611,"is_reserved":false,"is_disabled":false,"rental_uris":{"android":"levelo://app?vid=8a121b48-1f5b-4c33-b9ca-47a97d05b778","ios":"levelo://app?vid=8a121b48-1f5b-4c33-b9ca-47a97d05b778"},"vehicle_type_id":"4","last_reported":1732345698,"current_range_meters":10800,"station_id":"ce4bhs12rcd13ifvqhvg","pricing_plan_id":"cebpf4jnsgd1na2vs0mg"},{"bike_id":"8ab93b49-1b35-41fa-bc90-d9b40f46488d","system_id":"levelo_inurba_marseille","lat":43.29888,"lon":5.39732,"is_reserved":false,"is_disabled":false,"rental_uris":{"android":"levelo://app?vid=8ab93b49-1b35-41fa-bc90-d9b40f46488d","ios":"levelo://app?vid=8ab93b49-1b35-41fa-bc90-d9b40f46488d"},"vehicle_type_id":"4","last_reported":1732345698,"current_range_meters":38000,"station_id":"ce4bh0h2rcd13ifvqd50","pricing_plan_id":"cebpf4jnsgd1na2vs0mg"},{"bike_id":"11114092-3108-4d5a-be35-06e9090d2527","system_id":"levelo_inurba_marseille","lat":43.27055,"lon":5.40261,"is_reserved":false,"is_disabled":false,"rental_uris":{"android":"levelo://app?vid=11114092-3108-4d5a-be35-06e9090d2527","ios":"levelo://app?vid=11114092-3108-4d5a-be35-06e9090d2527"},"vehicle_type_id":"4","last_reported":1732345698,"current_range_meters":24800,"station_id":"ce4bhk92rcd13ifvqgc0","pricing_plan_id":"cebpf4jnsgd1na2vs0mg"},{"bike_id":"5247f402-6312-4ef7-9fa1-11a1830f043f","system_id":"levelo_inurba_marseille","lat":43.30607,"lon":5.3936,"is_reserved":false,"is_disabled":false,"rental_uris":{"android":"levelo://app?vid=5247f402-6312-4ef7-9fa1-11a1830f043f","ios":"levelo://app?vid=5247f402-6312-4ef7-9fa1-11a1830f043f"},"vehicle_type_id":"4","last_reported":1732345698,"current_range_meters":37600,"station_id":"ce4bh0p2rcd13ifvqd80","pricing_plan_id":"cebpf4jnsgd1na2vs0mg"},{"bike_id":"cc45001e-86ba-42cc-9993-ed5261abbfe0","system_id":"levelo_inurba_marseille","lat":43.323646,"lon":5.388826,"is_reserved":false,"is_disabled":false,"rental_uris":{"android":"levelo://app?vid=cc45001e-86ba-42cc-9993-ed5261abbfe0","ios":"levelo://app?vid=cc45001e-86ba-42cc-9993-ed5261abbfe0"},"vehicle_type_id":"4","last_reported":1732345698,"current_range_meters":9200,"station_id":"ce4bhqp2rcd13ifvqhog","pricing_plan_id":"cebpf4jnsgd1na2vs0mg"},{"bike_id":"17bd5092-3c68-4d7b-8141-70ae3592361e","system_id":"levelo_inurba_marseille","lat":43.28944,"lon":5.3642,"is_reserved":false,"is_disabled":false,"rental_uris":{"android":"levelo://app?vid=17bd5092-3c68-4d7b-8141-70ae3592361e","ios":"levelo://app?vid=17bd5092-3c68-4d7b-8141-70ae3592361e"},"vehicle_type_id":"4","last_reported":1732345698,"current_range_meters":38000,"station_id":"ce4bhc92rcd13ifvqetg","pricing_plan_id":"cebpf4jnsgd1na2vs0mg"},{"bike_id":"5d39d563-1de5-4b84-8127-7326954dce5a","system_id":"levelo_inurba_marseille","lat":43.27372,"lon":5.36263,"is_reserved":false,"is_disabled":false,"rental_uris":{"android":"levelo://app?vid=5d39d563-1de5-4b84-8127-7326954dce5a","ios":"levelo://app?vid=5d39d563-1de5-4b84-8127-7326954dce5a"},"vehicle_type_id":"4","last_reported":1732345698,"current_range_meters":39200,"station_id":"ce4bhbh2rcd13ifvqeo0","pricing_plan_id":"cebpf4jnsgd1na2vs0mg"},{"bike_id":"c0755ad7-8353-40d1-98a4-bba43ca0e3ab","system_id":"levelo_inurba_marseille","lat":43.3372,"lon":5.39176,"is_reserved":false,"is_disabled":false,"rental_uris":{"android":"levelo://app?vid=c0755ad7-8353-40d1-98a4-bba43ca0e3ab","ios":"levelo://app?vid=c0755ad7-8353-40d1-98a4-bba43ca0e3ab"},"vehicle_type_id":"4","last_reported":1732345698,"current_range_meters":8400,"station_id":"ce4bhr92rcd13ifvqhsg","pricing_plan_id":"cebpf4jnsgd1na2vs0mg"},{"bike_id":"d0e7350b-262f-4c08-8eed-9bce9d3acd6b","system_id":"levelo_inurba_marseille","lat":43.29601,"lon":5.38098,"is_reserved":false,"is_disabled":false,"rental_uris":{"android":"levelo://app?vid=d0e7350b-262f-4c08-8eed-9bce9d3acd6b","ios":"levelo://app?vid=d0e7350b-262f-4c08-8eed-9bce9d3acd6b"},"vehicle_type_id":"4","last_reported":1732345698,"current_range_meters":17200,"station_id":"ce4bgl12rcd13ifvqbo0","pricing_plan_id":"cebpf4jnsgd1na2vs0mg"},{"bike_id":"92aca063-e395-402a-a362-69eb5641c33c","system_id":"levelo_inurba_marseille","lat":43.28627,"lon":5.35105,"is_reserved":false,"is_disabled":false,"rental_uris":{"android":"levelo://app?vid=92aca063-e395-402a-a362-69eb5641c33c","ios":"levelo://app?vid=92aca063-e395-402a-a362-69eb5641c33c"},"vehicle_type_id":"4","last_reported":1732345698,"current_range_meters":6800,"station_id":"ce4bhch2rcd13ifvqeug","pricing_plan_id":"cebpf4jnsgd1na2vs0mg"},{"bike_id":"9b280c9c-fd49-45c4-951e-8b6e17f414f5","system_id":"levelo_inurba_marseille","lat":43.25867,"lon":5.39898,"is_reserved":false,"is_disabled":false,"rental_uris":{"android":"levelo://app?vid=9b280c9c-fd49-45c4-951e-8b6e17f414f5","ios":"levelo://app?vid=9b280c9c-fd49-45c4-951e-8b6e17f414f5"},"vehicle_type_id":"4","last_reported":1732345698,"current_range_meters":38800,"station_id":"ce4bhl92rcd13ifvqghg","pricing_plan_id":"cebpf4jnsgd1na2vs0mg"},{"bike_id":"648fea4c-d15a-4229-9feb-bafe88cbbe70","system_id":"levelo_inurba_marseille","lat":43.27957,"lon":5.4175,"is_reserved":false,"is_disabled":true,"rental_uris":{"android":"levelo://app?vid=648fea4c-d15a-4229-9feb-bafe88cbbe70","ios":"levelo://app?vid=648fea4c-d15a-4229-9feb-bafe88cbbe70"},"vehicle_type_id":"4","last_reported":1732345698,"current_range_meters":0,"station_id":"","pricing_plan_id":"cebpf4jnsgd1na2vs0mg"},{"bike_id":"561692a1-369c-4ac8-a04a-5193554f2e90","system_id":"levelo_inurba_marseille","lat":43.32112,"lon":5.36774,"is_reserved":false,"is_disabled":false,"rental_uris":{"android":"levelo://app?vid=561692a1-369c-4ac8-a04a-5193554f2e90","ios":"levelo://app?vid=561692a1-369c-4ac8-a04a-5193554f2e90"},"vehicle_type_id":"4","last_reported":1732345698,"current_range_meters":27200,"station_id":"ce4bhrh2rcd13ifvqhug","pricing_plan_id":"cebpf4jnsgd1na2vs0mg"},{"bike_id":"a3dfa29f-d880-4cbe-b909-b4e217158e03","system_id":"levelo_inurba_marseille","lat":43.27175,"lon":5.40994,"is_reserved":false,"is_disabled":true,"rental_uris":{"android":"levelo://app?vid=a3dfa29f-d880-4cbe-b909-b4e217158e03","ios":"levelo://app?vid=a3dfa29f-d880-4cbe-b909-b4e217158e03"},"vehicle_type_id":"4","last_reported":1732345698,"current_range_meters":36000,"station_id":"ce4bhl12rcd13ifvqgf0","pricing_plan_id":"cebpf4jnsgd1na2vs0mg"},{"bike_id":"d2321b4c-ae3a-4b43-8bcd-12cb7984481d","system_id":"levelo_inurba_marseille","lat":43.30743,"lon":5.3703,"is_reserved":false,"is_disabled":true,"rental_uris":{"android":"levelo://app?vid=d2321b4c-ae3a-4b43-8bcd-12cb7984481d","ios":"levelo://app?vid=d2321b4c-ae3a-4b43-8bcd-12cb7984481d"},"vehicle_type_id":"4","last_reported":1732345698,"current_range_meters":12000,"station_id":"","pricing_plan_id":"cebpf4jnsgd1na2vs0mg"},{"bike_id":"feec1377-cd53-4532-92ae-002f61916625","system_id":"levelo_inurba_marseille","lat":43.28854,"lon":5.393,"is_reserved":false,"is_disabled":false,"rental_uris":{"android":"levelo://app?vid=feec1377-cd53-4532-92ae-002f61916625","ios":"levelo://app?vid=feec1377-cd53-4532-92ae-002f61916625"},"vehicle_type_id":"4","last_reported":1732345698,"current_range_meters":30800,"station_id":"ce4bh2p2rcd13ifvqdi0","pricing_plan_id":"cebpf4jnsgd1na2vs0mg"},{"bike_id":"ddaf5315-e325-4478-8b50-621ef2c3b11f","system_id":"levelo_inurba_marseille","lat":43.29573,"lon":5.39973,"is_reserved":false,"is_disabled":false,"rental_uris":{"android":"levelo://app?vid=ddaf5315-e325-4478-8b50-621ef2c3b11f","ios":"levelo://app?vid=ddaf5315-e325-4478-8b50-621ef2c3b11f"},"vehicle_type_id":"4","last_reported":1732345698,"current_range_meters":38400,"station_id":"ce4bh312rcd13ifvqdj0","pricing_plan_id":"cebpf4jnsgd1na2vs0mg"},{"bike_id":"094e5622-4a3c-4269-bfdc-c0a26831c38f","system_id":"levelo_inurba_marseille","lat":43.30795,"lon":5.43521,"is_reserved":false,"is_disabled":false,"rental_uris":{"android":"levelo://app?vid=094e5622-4a3c-4269-bfdc-c0a26831c38f","ios":"levelo://app?vid=094e5622-4a3c-4269-bfdc-c0a26831c38f"},"vehicle_type_id":"4","last_reported":1732345698,"current_range_meters":35600,"station_id":"ce4bhph2rcd13ifvqheg","pricing_plan_id":"cebpf4jnsgd1na2vs0mg"},{"bike_id":"48b71b88-52ac-4070-a8e2-91183b7afa48","system_id":"levelo_inurba_marseille","lat":43.24651,"lon":5.38896,"is_reserved":false,"is_disabled":false,"rental_uris":{"android":"levelo://app?vid=48b71b88-52ac-4070-a8e2-91183b7afa48","ios":"levelo://app?vid=48b71b88-52ac-4070-a8e2-91183b7afa48"},"vehicle_type_id":"4","last_reported":1732345698,"current_range_meters":38400,"station_id":"ce4bhg12rcd13ifvqf60","pricing_plan_id":"cebpf4jnsgd1na2vs0mg"},{"bike_id":"5c3000a0-a190-4007-a723-aa2707fd1ce3","system_id":"levelo_inurba_marseille","lat":43.22934,"lon":5.35383,"is_reserved":false,"is_disabled":false,"rental_uris":{"android":"levelo://app?vid=5c3000a0-a190-4007-a723-aa2707fd1ce3","ios":"levelo://app?vid=5c3000a0-a190-4007-a723-aa2707fd1ce3"},"vehicle_type_id":"4","last_reported":1732345698,"current_range_meters":38800,"station_id":"cpo3532slgdg3j2ikp40","pricing_plan_id":"cebpf4jnsgd1na2vs0mg"},{"bike_id":"1c5fdcc2-ba84-4c46-bf38-3d224d434b52","system_id":"levelo_inurba_marseille","lat":43.32347,"lon":5.40632,"is_reserved":false,"is_disabled":false,"rental_uris":{"android":"levelo://app?vid=1c5fdcc2-ba84-4c46-bf38-3d224d434b52","ios":"levelo://app?vid=1c5fdcc2-ba84-4c46-bf38-3d224d434b52"},"vehicle_type_id":"4","last_reported":1732345698,"current_range_meters":36800,"station_id":"ce4bhq92rcd13ifvqhjg","pricing_plan_id":"cebpf4jnsgd1na2vs0mg"},{"bike_id":"84f36880-d089-4da5-b05e-ea75d90c3ac4","system_id":"levelo_inurba_marseille","lat":43.30595,"lon":5.39363,"is_reserved":false,"is_disabled":false,"rental_uris":{"android":"levelo://app?vid=84f36880-d089-4da5-b05e-ea75d90c3ac4","ios":"levelo://app?vid=84f36880-d089-4da5-b05e-ea75d90c3ac4"},"vehicle_type_id":"4","last_reported":1732345698,"current_range_meters":19200,"station_id":"ce4bh0p2rcd13ifvqd80","pricing_plan_id":"cebpf4jnsgd1na2vs0mg"},{"bike_id":"1fdcdbac-b6e5-46db-8e02-32707719fed3","system_id":"levelo_inurba_marseille","lat":43.28699,"lon":5.39976,"is_reserved":false,"is_disabled":false,"rental_uris":{"android":"levelo://app?vid=1fdcdbac-b6e5-46db-8e02-32707719fed3","ios":"levelo://app?vid=1fdcdbac-b6e5-46db-8e02-32707719fed3"},"vehicle_type_id":"4","last_reported":1732345698,"current_range_meters":14800,"station_id":"ce4bho92rcd13ifvqh3g","pricing_plan_id":"cebpf4jnsgd1na2vs0mg"},{"bike_id":"1f71c2f7-653f-46e6-9904-1c2a214963bc","system_id":"levelo_inurba_marseille","lat":43.30497,"lon":5.37304,"is_reserved":false,"is_disabled":false,"rental_uris":{"android":"levelo://app?vid=1f71c2f7-653f-46e6-9904-1c2a214963bc","ios":"levelo://app?vid=1f71c2f7-653f-46e6-9904-1c2a214963bc"},"vehicle_type_id":"4","last_reported":1732345698,"current_range_meters":4400,"station_id":"","pricing_plan_id":"cebpf4jnsgd1na2vs0mg"},{"bike_id":"5b1e2268-6898-4762-b21b-90916d0b09cc","system_id":"levelo_inurba_marseille","lat":43.31068,"lon":5.3835,"is_reserved":false,"is_disabled":false,"rental_uris":{"android":"levelo://app?vid=5b1e2268-6898-4762-b21b-90916d0b09cc","ios":"levelo://app?vid=5b1e2268-6898-4762-b21b-90916d0b09cc"},"vehicle_type_id":"4","last_reported":1732345698,"current_range_meters":18800,"station_id":"ce4bgv92rcd13ifvqcr0","pricing_plan_id":"cebpf4jnsgd1na2vs0mg"},{"bike_id":"3f4b586a-f19b-437c-a62a-b21b76562db2","system_id":"levelo_inurba_marseille","lat":43.23181,"lon":5.39979,"is_reserved":false,"is_disabled":false,"rental_uris":{"android":"levelo://app?vid=3f4b586a-f19b-437c-a62a-b21b76562db2","ios":"levelo://app?vid=3f4b586a-f19b-437c-a62a-b21b76562db2"},"vehicle_type_id":"4","last_reported":1732345698,"current_range_meters":36800,"station_id":"ce4bhn12rcd13ifvqgqg","pricing_plan_id":"cebpf4jnsgd1na2vs0mg"},{"bike_id":"7c9c6c4e-4e7f-441c-9857-1db4a8d60fa3","system_id":"levelo_inurba_marseille","lat":43.27893,"lon":5.3799,"is_reserved":false,"is_disabled":false,"rental_uris":{"android":"levelo://app?vid=7c9c6c4e-4e7f-441c-9857-1db4a8d60fa3","ios":"levelo://app?vid=7c9c6c4e-4e7f-441c-9857-1db4a8d60fa3"},"vehicle_type_id":"4","last_reported":1732345698,"current_range_meters":39200,"station_id":"ce4bhf92rcd13ifvqf50","pricing_plan_id":"cebpf4jnsgd1na2vs0mg"},{"bike_id":"0510ebcb-0f92-4bec-9e33-119b63d61a99","system_id":"levelo_inurba_marseille","lat":43.28404,"lon":5.37504,"is_reserved":false,"is_disabled":false,"rental_uris":{"android":"levelo://app?vid=0510ebcb-0f92-4bec-9e33-119b63d61a99","ios":"levelo://app?vid=0510ebcb-0f92-4bec-9e33-119b63d61a99"},"vehicle_type_id":"4","last_reported":1732345698,"current_range_meters":26800,"station_id":"ce4bh412rcd13ifvqds0","pricing_plan_id":"cebpf4jnsgd1na2vs0mg"},{"bike_id":"ff3594ee-f948-4832-9680-599cfdacc368","system_id":"levelo_inurba_marseille","lat":43.27182,"lon":5.40989,"is_reserved":false,"is_disabled":false,"rental_uris":{"android":"levelo://app?vid=ff3594ee-f948-4832-9680-599cfdacc368","ios":"levelo://app?vid=ff3594ee-f948-4832-9680-599cfdacc368"},"vehicle_type_id":"4","last_reported":1732345698,"current_range_meters":38400,"station_id":"ce4bhl12rcd13ifvqgf0","pricing_plan_id":"cebpf4jnsgd1na2vs0mg"},{"bike_id":"9ac996fc-dd35-4df7-85d2-a0685f035032","system_id":"levelo_inurba_marseille","lat":43.300595,"lon":5.404786,"is_reserved":false,"is_disabled":false,"rental_uris":{"android":"levelo://app?vid=9ac996fc-dd35-4df7-85d2-a0685f035032","ios":"levelo://app?vid=9ac996fc-dd35-4df7-85d2-a0685f035032"},"vehicle_type_id":"4","last_reported":1732345698,"current_range_meters":9200,"station_id":"","pricing_plan_id":"cebpf4jnsgd1na2vs0mg"},{"bike_id":"db096ee3-a548-4661-a18a-686fcedc57f8","system_id":"levelo_inurba_marseille","lat":43.32611,"lon":5.41024,"is_reserved":false,"is_disabled":false,"rental_uris":{"android":"levelo://app?vid=db096ee3-a548-4661-a18a-686fcedc57f8","ios":"levelo://app?vid=db096ee3-a548-4661-a18a-686fcedc57f8"},"vehicle_type_id":"4","last_reported":1732345698,"current_range_meters":6800,"station_id":"","pricing_plan_id":"cebpf4jnsgd1na2vs0mg"},{"bike_id":"1cd0daee-d68a-4e66-9883-fbe67fd8260f","system_id":"levelo_inurba_marseille","lat":43.305794,"lon":5.370686,"is_reserved":false,"is_disabled":true,"rental_uris":{"android":"levelo://app?vid=1cd0daee-d68a-4e66-9883-fbe67fd8260f","ios":"levelo://app?vid=1cd0daee-d68a-4e66-9883-fbe67fd8260f"},"vehicle_type_id":"4","last_reported":1732345698,"current_range_meters":0,"station_id":"","pricing_plan_id":"cebpf4jnsgd1na2vs0mg"},{"bike_id":"3ecd968f-1f7e-4bd4-968d-4e3b4005d51b","system_id":"levelo_inurba_marseille","lat":43.31121,"lon":5.3776,"is_reserved":false,"is_disabled":true,"rental_uris":{"android":"levelo://app?vid=3ecd968f-1f7e-4bd4-968d-4e3b4005d51b","ios":"levelo://app?vid=3ecd968f-1f7e-4bd4-968d-4e3b4005d51b"},"vehicle_type_id":"4","last_reported":1732345698,"current_range_meters":4800,"station_id":"ce4bgt92rcd13ifvqcg0","pricing_plan_id":"cebpf4jnsgd1na2vs0mg"},{"bike_id":"2b6fb982-60e5-41aa-964d-b58d3ce83277","system_id":"levelo_inurba_marseille","lat":43.30772,"lon":5.37667,"is_reserved":false,"is_disabled":false,"rental_uris":{"android":"levelo://app?vid=2b6fb982-60e5-41aa-964d-b58d3ce83277","ios":"levelo://app?vid=2b6fb982-60e5-41aa-964d-b58d3ce83277"},"vehicle_type_id":"4","last_reported":1732345698,"current_range_meters":27200,"station_id":"ce4bgv92rcd13ifvqcq0","pricing_plan_id":"cebpf4jnsgd1na2vs0mg"},{"bike_id":"13ad8f6f-5ea8-43d5-9643-e38394fa7fe9","system_id":"levelo_inurba_marseille","lat":43.25574,"lon":5.38226,"is_reserved":false,"is_disabled":false,"rental_uris":{"android":"levelo://app?vid=13ad8f6f-5ea8-43d5-9643-e38394fa7fe9","ios":"levelo://app?vid=13ad8f6f-5ea8-43d5-9643-e38394fa7fe9"},"vehicle_type_id":"4","last_reported":1732345698,"current_range_meters":12000,"station_id":"ce4bhih2rcd13ifvqfs0","pricing_plan_id":"cebpf4jnsgd1na2vs0mg"},{"bike_id":"0ddfa46a-4055-4654-8da1-794fa513a354","system_id":"levelo_inurba_marseille","lat":43.26213,"lon":5.37946,"is_reserved":false,"is_disabled":false,"rental_uris":{"android":"levelo://app?vid=0ddfa46a-4055-4654-8da1-794fa513a354","ios":"levelo://app?vid=0ddfa46a-4055-4654-8da1-794fa513a354"},"vehicle_type_id":"4","last_reported":1732345698,"current_range_meters":7200,"station_id":"ce4bhjp2rcd13ifvqg90","pricing_plan_id":"cebpf4jnsgd1na2vs0mg"},{"bike_id":"0879338c-6d72-4dd3-8762-1d08fc47ae06","system_id":"levelo_inurba_marseille","lat":43.31071,"lon":5.38347,"is_reserved":false,"is_disabled":false,"rental_uris":{"android":"levelo://app?vid=0879338c-6d72-4dd3-8762-1d08fc47ae06","ios":"levelo://app?vid=0879338c-6d72-4dd3-8762-1d08fc47ae06"},"vehicle_type_id":"4","last_reported":1732345698,"current_range_meters":16000,"station_id":"ce4bgv92rcd13ifvqcr0","pricing_plan_id":"cebpf4jnsgd1na2vs0mg"},{"bike_id":"e35913d4-6d49-4427-a3ca-5d8c461b3395","system_id":"levelo_inurba_marseille","lat":43.297929,"lon":5.393568,"is_reserved":false,"is_disabled":false,"rental_uris":{"android":"levelo://app?vid=e35913d4-6d49-4427-a3ca-5d8c461b3395","ios":"levelo://app?vid=e35913d4-6d49-4427-a3ca-5d8c461b3395"},"vehicle_type_id":"4","last_reported":1732345698,"current_range_meters":38800,"station_id":"chh1huq6cuj3fo74tm60","pricing_plan_id":"cebpf4jnsgd1na2vs0mg"},{"bike_id":"e9d021a9-f81b-4245-b46b-e03c063c72d8","system_id":"levelo_inurba_marseille","lat":43.26173,"lon":5.37916,"is_reserved":false,"is_disabled":false,"rental_uris":{"android":"levelo://app?vid=e9d021a9-f81b-4245-b46b-e03c063c72d8","ios":"levelo://app?vid=e9d021a9-f81b-4245-b46b-e03c063c72d8"},"vehicle_type_id":"4","last_reported":1732345698,"current_range_meters":24000,"station_id":"ce4bhjp2rcd13ifvqg90","pricing_plan_id":"cebpf4jnsgd1na2vs0mg"},{"bike_id":"ebda3721-5c6d-46e9-8115-7271b59f4ecd","system_id":"levelo_inurba_marseille","lat":43.28695,"lon":5.39977,"is_reserved":false,"is_disabled":false,"rental_uris":{"android":"levelo://app?vid=ebda3721-5c6d-46e9-8115-7271b59f4ecd","ios":"levelo://app?vid=ebda3721-5c6d-46e9-8115-7271b59f4ecd"},"vehicle_type_id":"4","last_reported":1732345698,"current_range_meters":34800,"station_id":"ce4bho92rcd13ifvqh3g","pricing_plan_id":"cebpf4jnsgd1na2vs0mg"},{"bike_id":"ac1b3788-b03a-4376-bf72-320fd033ea51","system_id":"levelo_inurba_marseille","lat":43.276606,"lon":5.389007,"is_reserved":false,"is_disabled":true,"rental_uris":{"android":"levelo://app?vid=ac1b3788-b03a-4376-bf72-320fd033ea51","ios":"levelo://app?vid=ac1b3788-b03a-4376-bf72-320fd033ea51"},"vehicle_type_id":"4","last_reported":1732345698,"current_range_meters":5600,"station_id":"ce4bhi12rcd13ifvqfo0","pricing_plan_id":"cebpf4jnsgd1na2vs0mg"},{"bike_id":"e23b663b-dc39-41f5-9d7c-a6559d2febac","system_id":"levelo_inurba_marseille","lat":43.27482,"lon":5.42431,"is_reserved":false,"is_disabled":false,"rental_uris":{"android":"levelo://app?vid=e23b663b-dc39-41f5-9d7c-a6559d2febac","ios":"levelo://app?vid=e23b663b-dc39-41f5-9d7c-a6559d2febac"},"vehicle_type_id":"4","last_reported":1732345698,"current_range_meters":23200,"station_id":"ce4bhn92rcd13ifvqgrg","pricing_plan_id":"cebpf4jnsgd1na2vs0mg"},{"bike_id":"a0ea8a42-6b43-44ef-96e9-424ed92a144d","system_id":"levelo_inurba_marseille","lat":43.29256,"lon":5.4091,"is_reserved":false,"is_disabled":false,"rental_uris":{"android":"levelo://app?vid=a0ea8a42-6b43-44ef-96e9-424ed92a144d","ios":"levelo://app?vid=a0ea8a42-6b43-44ef-96e9-424ed92a144d"},"vehicle_type_id":"4","last_reported":1732345698,"current_range_meters":38400,"station_id":"ce4bh192rcd13ifvqdc0","pricing_plan_id":"cebpf4jnsgd1na2vs0mg"},{"bike_id":"11714626-edc4-4e4d-b1fc-9696a17f7cf0","system_id":"levelo_inurba_marseille","lat":43.30806,"lon":5.38158,"is_reserved":false,"is_disabled":false,"rental_uris":{"android":"levelo://app?vid=11714626-edc4-4e4d-b1fc-9696a17f7cf0","ios":"levelo://app?vid=11714626-edc4-4e4d-b1fc-9696a17f7cf0"},"vehicle_type_id":"4","last_reported":1732345698,"current_range_meters":28400,"station_id":"ce4bgt12rcd13ifvqce0","pricing_plan_id":"cebpf4jnsgd1na2vs0mg"},{"bike_id":"ebe2b43b-e5bb-4158-835b-e46b2ce0d167","system_id":"levelo_inurba_marseille","lat":43.22928,"lon":5.35374,"is_reserved":false,"is_disabled":false,"rental_uris":{"android":"levelo://app?vid=ebe2b43b-e5bb-4158-835b-e46b2ce0d167","ios":"levelo://app?vid=ebe2b43b-e5bb-4158-835b-e46b2ce0d167"},"vehicle_type_id":"4","last_reported":1732345698,"current_range_meters":30800,"station_id":"cpo3532slgdg3j2ikp40","pricing_plan_id":"cebpf4jnsgd1na2vs0mg"},{"bike_id":"b0d833ef-74ad-422c-a18f-f221948e3091","system_id":"levelo_inurba_marseille","lat":43.25492,"lon":5.37645,"is_reserved":false,"is_disabled":false,"rental_uris":{"android":"levelo://app?vid=b0d833ef-74ad-422c-a18f-f221948e3091","ios":"levelo://app?vid=b0d833ef-74ad-422c-a18f-f221948e3091"},"vehicle_type_id":"4","last_reported":1732345698,"current_range_meters":17200,"station_id":"ce4bhh12rcd13ifvqff0","pricing_plan_id":"cebpf4jnsgd1na2vs0mg"},{"bike_id":"f4c54dd0-a013-4d39-8669-766de3dd4167","system_id":"levelo_inurba_marseille","lat":43.32361,"lon":5.38888,"is_reserved":false,"is_disabled":false,"rental_uris":{"android":"levelo://app?vid=f4c54dd0-a013-4d39-8669-766de3dd4167","ios":"levelo://app?vid=f4c54dd0-a013-4d39-8669-766de3dd4167"},"vehicle_type_id":"4","last_reported":1732345698,"current_range_meters":36800,"station_id":"ce4bhqp2rcd13ifvqhog","pricing_plan_id":"cebpf4jnsgd1na2vs0mg"},{"bike_id":"77023533-0bf4-43b5-9edd-b88f4e071b77","system_id":"levelo_inurba_marseille","lat":43.28696,"lon":5.39979,"is_reserved":false,"is_disabled":false,"rental_uris":{"android":"levelo://app?vid=77023533-0bf4-43b5-9edd-b88f4e071b77","ios":"levelo://app?vid=77023533-0bf4-43b5-9edd-b88f4e071b77"},"vehicle_type_id":"4","last_reported":1732345698,"current_range_meters":6800,"station_id":"ce4bho92rcd13ifvqh3g","pricing_plan_id":"cebpf4jnsgd1na2vs0mg"},{"bike_id":"fa8314ae-1864-43c4-8fa1-c6e47ea1e55c","system_id":"levelo_inurba_marseille","lat":43.32105,"lon":5.36769,"is_reserved":false,"is_disabled":false,"rental_uris":{"android":"levelo://app?vid=fa8314ae-1864-43c4-8fa1-c6e47ea1e55c","ios":"levelo://app?vid=fa8314ae-1864-43c4-8fa1-c6e47ea1e55c"},"vehicle_type_id":"4","last_reported":1732345698,"current_range_meters":28800,"station_id":"ce4bhrh2rcd13ifvqhug","pricing_plan_id":"cebpf4jnsgd1na2vs0mg"},{"bike_id":"4dbda78b-8ea9-4175-9532-9ae620f0e65d","system_id":"levelo_inurba_marseille","lat":43.23177,"lon":5.3999,"is_reserved":false,"is_disabled":false,"rental_uris":{"android":"levelo://app?vid=4dbda78b-8ea9-4175-9532-9ae620f0e65d","ios":"levelo://app?vid=4dbda78b-8ea9-4175-9532-9ae620f0e65d"},"vehicle_type_id":"4","last_reported":1732345698,"current_range_meters":39200,"station_id":"ce4bhn12rcd13ifvqgqg","pricing_plan_id":"cebpf4jnsgd1na2vs0mg"},{"bike_id":"040e42e8-2cbb-496d-ae59-ed997ff0f5d8","system_id":"levelo_inurba_marseille","lat":43.28701,"lon":5.39984,"is_reserved":false,"is_disabled":false,"rental_uris":{"android":"levelo://app?vid=040e42e8-2cbb-496d-ae59-ed997ff0f5d8","ios":"levelo://app?vid=040e42e8-2cbb-496d-ae59-ed997ff0f5d8"},"vehicle_type_id":"4","last_reported":1732345698,"current_range_meters":26000,"station_id":"ce4bho92rcd13ifvqh3g","pricing_plan_id":"cebpf4jnsgd1na2vs0mg"},{"bike_id":"366363c8-15fd-4cf6-8bfa-8e618579c11d","system_id":"levelo_inurba_marseille","lat":43.27376,"lon":5.36253,"is_reserved":false,"is_disabled":false,"rental_uris":{"android":"levelo://app?vid=366363c8-15fd-4cf6-8bfa-8e618579c11d","ios":"levelo://app?vid=366363c8-15fd-4cf6-8bfa-8e618579c11d"},"vehicle_type_id":"4","last_reported":1732345698,"current_range_meters":39200,"station_id":"ce4bhbh2rcd13ifvqeo0","pricing_plan_id":"cebpf4jnsgd1na2vs0mg"},{"bike_id":"93e22be2-ce4d-4082-96d3-753b4a20df2d","system_id":"levelo_inurba_marseille","lat":43.24075,"lon":5.37758,"is_reserved":false,"is_disabled":false,"rental_uris":{"android":"levelo://app?vid=93e22be2-ce4d-4082-96d3-753b4a20df2d","ios":"levelo://app?vid=93e22be2-ce4d-4082-96d3-753b4a20df2d"},"vehicle_type_id":"4","last_reported":1732345698,"current_range_meters":36800,"station_id":"ce4bhnp2rcd13ifvqgvg","pricing_plan_id":"cebpf4jnsgd1na2vs0mg"},{"bike_id":"50543698-5e8a-4b9f-b4ed-8a96dd331544","system_id":"levelo_inurba_marseille","lat":43.31356,"lon":5.36699,"is_reserved":false,"is_disabled":false,"rental_uris":{"android":"levelo://app?vid=50543698-5e8a-4b9f-b4ed-8a96dd331544","ios":"levelo://app?vid=50543698-5e8a-4b9f-b4ed-8a96dd331544"},"vehicle_type_id":"4","last_reported":1732345698,"current_range_meters":39200,"station_id":"ce4bgr92rcd13ifvqc6g","pricing_plan_id":"cebpf4jnsgd1na2vs0mg"},{"bike_id":"4614c3ce-fa32-4b49-800d-cf02516d6ab9","system_id":"levelo_inurba_marseille","lat":43.32368,"lon":5.38887,"is_reserved":false,"is_disabled":false,"rental_uris":{"android":"levelo://app?vid=4614c3ce-fa32-4b49-800d-cf02516d6ab9","ios":"levelo://app?vid=4614c3ce-fa32-4b49-800d-cf02516d6ab9"},"vehicle_type_id":"4","last_reported":1732345698,"current_range_meters":24800,"station_id":"ce4bhqp2rcd13ifvqhog","pricing_plan_id":"cebpf4jnsgd1na2vs0mg"},{"bike_id":"84418aa3-ca6f-4d2b-bcb8-922fe234b9f4","system_id":"levelo_inurba_marseille","lat":43.28849,"lon":5.35848,"is_reserved":false,"is_disabled":false,"rental_uris":{"android":"levelo://app?vid=84418aa3-ca6f-4d2b-bcb8-922fe234b9f4","ios":"levelo://app?vid=84418aa3-ca6f-4d2b-bcb8-922fe234b9f4"},"vehicle_type_id":"4","last_reported":1732345698,"current_range_meters":12400,"station_id":"ce4bhb12rcd13ifvqem0","pricing_plan_id":"cebpf4jnsgd1na2vs0mg"},{"bike_id":"091cc9eb-8580-435f-ab25-55aa0962542e","system_id":"levelo_inurba_marseille","lat":43.26022,"lon":5.37546,"is_reserved":false,"is_disabled":false,"rental_uris":{"android":"levelo://app?vid=091cc9eb-8580-435f-ab25-55aa0962542e","ios":"levelo://app?vid=091cc9eb-8580-435f-ab25-55aa0962542e"},"vehicle_type_id":"4","last_reported":1732345698,"current_range_meters":28000,"station_id":"ce4bhgh2rcd13ifvqfa0","pricing_plan_id":"cebpf4jnsgd1na2vs0mg"},{"bike_id":"f8a8a492-aaea-4018-90af-bfa3e05e159b","system_id":"levelo_inurba_marseille","lat":43.32662,"lon":5.40991,"is_reserved":false,"is_disabled":false,"rental_uris":{"android":"levelo://app?vid=f8a8a492-aaea-4018-90af-bfa3e05e159b","ios":"levelo://app?vid=f8a8a492-aaea-4018-90af-bfa3e05e159b"},"vehicle_type_id":"4","last_reported":1732345698,"current_range_meters":24800,"station_id":"ce4bhpp2rcd13ifvqhgg","pricing_plan_id":"cebpf4jnsgd1na2vs0mg"},{"bike_id":"ebbd1514-2506-448e-b338-a8a88d6d5226","system_id":"levelo_inurba_marseille","lat":43.27986,"lon":5.38752,"is_reserved":false,"is_disabled":false,"rental_uris":{"android":"levelo://app?vid=ebbd1514-2506-448e-b338-a8a88d6d5226","ios":"levelo://app?vid=ebbd1514-2506-448e-b338-a8a88d6d5226"},"vehicle_type_id":"4","last_reported":1732345698,"current_range_meters":30400,"station_id":"ce4bhg12rcd13ifvqf80","pricing_plan_id":"cebpf4jnsgd1na2vs0mg"},{"bike_id":"ab98a49c-144b-468d-871d-e8e8492470bf","system_id":"levelo_inurba_marseille","lat":43.31274,"lon":5.40169,"is_reserved":false,"is_disabled":false,"rental_uris":{"android":"levelo://app?vid=ab98a49c-144b-468d-871d-e8e8492470bf","ios":"levelo://app?vid=ab98a49c-144b-468d-871d-e8e8492470bf"},"vehicle_type_id":"4","last_reported":1732345698,"current_range_meters":11600,"station_id":"ce4bh092rcd13ifvqd30","pricing_plan_id":"cebpf4jnsgd1na2vs0mg"},{"bike_id":"9efe897c-7984-4d1c-8c03-f3762ca8e8fa","system_id":"levelo_inurba_marseille","lat":43.30879,"lon":5.39652,"is_reserved":false,"is_disabled":false,"rental_uris":{"android":"levelo://app?vid=9efe897c-7984-4d1c-8c03-f3762ca8e8fa","ios":"levelo://app?vid=9efe897c-7984-4d1c-8c03-f3762ca8e8fa"},"vehicle_type_id":"4","last_reported":1732345698,"current_range_meters":23200,"station_id":"ce4bh012rcd13ifvqcv0","pricing_plan_id":"cebpf4jnsgd1na2vs0mg"},{"bike_id":"5550f677-a8bb-4839-8a16-2606ccb97d6d","system_id":"levelo_inurba_marseille","lat":43.30415,"lon":5.4128,"is_reserved":false,"is_disabled":false,"rental_uris":{"android":"levelo://app?vid=5550f677-a8bb-4839-8a16-2606ccb97d6d","ios":"levelo://app?vid=5550f677-a8bb-4839-8a16-2606ccb97d6d"},"vehicle_type_id":"4","last_reported":1732345698,"current_range_meters":8400,"station_id":"ce4bhop2rcd13ifvqh8g","pricing_plan_id":"cebpf4jnsgd1na2vs0mg"},{"bike_id":"f9e35db8-2f7a-4f43-8c70-83778761d42d","system_id":"levelo_inurba_marseille","lat":43.23178,"lon":5.35567,"is_reserved":false,"is_disabled":true,"rental_uris":{"android":"levelo://app?vid=f9e35db8-2f7a-4f43-8c70-83778761d42d","ios":"levelo://app?vid=f9e35db8-2f7a-4f43-8c70-83778761d42d"},"vehicle_type_id":"4","last_reported":1732345698,"current_range_meters":32400,"station_id":"ce4bhu92rcd13ifvqi70","pricing_plan_id":"cebpf4jnsgd1na2vs0mg"},{"bike_id":"d4bf0386-e887-4237-980e-cf6bf9fcf5ae","system_id":"levelo_inurba_marseille","lat":43.30359,"lon":5.41879,"is_reserved":false,"is_disabled":false,"rental_uris":{"android":"levelo://app?vid=d4bf0386-e887-4237-980e-cf6bf9fcf5ae","ios":"levelo://app?vid=d4bf0386-e887-4237-980e-cf6bf9fcf5ae"},"vehicle_type_id":"4","last_reported":1732345698,"current_range_meters":38000,"station_id":"ce4bhop2rcd13ifvqh7g","pricing_plan_id":"cebpf4jnsgd1na2vs0mg"},{"bike_id":"4923c322-eb4a-4095-bc0c-aa6b225ff01a","system_id":"levelo_inurba_marseille","lat":43.313547,"lon":5.384987,"is_reserved":false,"is_disabled":true,"rental_uris":{"android":"levelo://app?vid=4923c322-eb4a-4095-bc0c-aa6b225ff01a","ios":"levelo://app?vid=4923c322-eb4a-4095-bc0c-aa6b225ff01a"},"vehicle_type_id":"4","last_reported":1732345698,"current_range_meters":27600,"station_id":"ce4bgt92rcd13ifvqcf0","pricing_plan_id":"cebpf4jnsgd1na2vs0mg"},{"bike_id":"1108659d-c798-48fb-a758-9ac015354e35","system_id":"levelo_inurba_marseille","lat":43.26209,"lon":5.37926,"is_reserved":false,"is_disabled":false,"rental_uris":{"android":"levelo://app?vid=1108659d-c798-48fb-a758-9ac015354e35","ios":"levelo://app?vid=1108659d-c798-48fb-a758-9ac015354e35"},"vehicle_type_id":"4","last_reported":1732345698,"current_range_meters":24800,"station_id":"ce4bhjp2rcd13ifvqg90","pricing_plan_id":"cebpf4jnsgd1na2vs0mg"},{"bike_id":"1f5a72a0-3240-401f-8965-8959c734d798","system_id":"levelo_inurba_marseille","lat":43.2396,"lon":5.36639,"is_reserved":false,"is_disabled":false,"rental_uris":{"android":"levelo://app?vid=1f5a72a0-3240-401f-8965-8959c734d798","ios":"levelo://app?vid=1f5a72a0-3240-401f-8965-8959c734d798"},"vehicle_type_id":"4","last_reported":1732345698,"current_range_meters":39200,"station_id":"ce4bhi12rcd13ifvqfp0","pricing_plan_id":"cebpf4jnsgd1na2vs0mg"},{"bike_id":"2859e95c-0b52-439b-97eb-9e21b696cb5d","system_id":"levelo_inurba_marseille","lat":43.30091,"lon":5.39091,"is_reserved":false,"is_disabled":false,"rental_uris":{"android":"levelo://app?vid=2859e95c-0b52-439b-97eb-9e21b696cb5d","ios":"levelo://app?vid=2859e95c-0b52-439b-97eb-9e21b696cb5d"},"vehicle_type_id":"4","last_reported":1732345698,"current_range_meters":38400,"station_id":"ce4bh192rcd13ifvqdb0","pricing_plan_id":"cebpf4jnsgd1na2vs0mg"},{"bike_id":"70b2f5d1-ed86-4956-ba99-9b00fc3315f6","system_id":"levelo_inurba_marseille","lat":43.28451,"lon":5.3589,"is_reserved":false,"is_disabled":false,"rental_uris":{"android":"levelo://app?vid=70b2f5d1-ed86-4956-ba99-9b00fc3315f6","ios":"levelo://app?vid=70b2f5d1-ed86-4956-ba99-9b00fc3315f6"},"vehicle_type_id":"4","last_reported":1732345698,"current_range_meters":28400,"station_id":"ce4bhah2rcd13ifvqei0","pricing_plan_id":"cebpf4jnsgd1na2vs0mg"},{"bike_id":"423a9818-7bff-4486-a519-c2edd613d48b","system_id":"levelo_inurba_marseille","lat":43.29957,"lon":5.41319,"is_reserved":false,"is_disabled":false,"rental_uris":{"android":"levelo://app?vid=423a9818-7bff-4486-a519-c2edd613d48b","ios":"levelo://app?vid=423a9818-7bff-4486-a519-c2edd613d48b"},"vehicle_type_id":"4","last_reported":1732345698,"current_range_meters":28000,"station_id":"ce4bhp12rcd13ifvqh9g","pricing_plan_id":"cebpf4jnsgd1na2vs0mg"},{"bike_id":"422d4a0c-b472-4782-ad64-d0460bb3e4de","system_id":"levelo_inurba_marseille","lat":43.30945,"lon":5.39039,"is_reserved":false,"is_disabled":false,"rental_uris":{"android":"levelo://app?vid=422d4a0c-b472-4782-ad64-d0460bb3e4de","ios":"levelo://app?vid=422d4a0c-b472-4782-ad64-d0460bb3e4de"},"vehicle_type_id":"4","last_reported":1732345698,"current_range_meters":18800,"station_id":"ce4bgup2rcd13ifvqco0","pricing_plan_id":"cebpf4jnsgd1na2vs0mg"},{"bike_id":"e672334d-d5a9-45e4-8d8e-90a5c5811018","system_id":"levelo_inurba_marseille","lat":43.28101,"lon":5.37839,"is_reserved":false,"is_disabled":false,"rental_uris":{"android":"levelo://app?vid=e672334d-d5a9-45e4-8d8e-90a5c5811018","ios":"levelo://app?vid=e672334d-d5a9-45e4-8d8e-90a5c5811018"},"vehicle_type_id":"4","last_reported":1732345698,"current_range_meters":40000,"station_id":"ce4bha12rcd13ifvqee0","pricing_plan_id":"cebpf4jnsgd1na2vs0mg"},{"bike_id":"3d3e1c02-e434-42cd-a71e-c228de53e864","system_id":"levelo_inurba_marseille","lat":43.24392,"lon":5.37061,"is_reserved":false,"is_disabled":false,"rental_uris":{"android":"levelo://app?vid=3d3e1c02-e434-42cd-a71e-c228de53e864","ios":"levelo://app?vid=3d3e1c02-e434-42cd-a71e-c228de53e864"},"vehicle_type_id":"4","last_reported":1732345698,"current_range_meters":14400,"station_id":"ce4bhhh2rcd13ifvqfk0","pricing_plan_id":"cebpf4jnsgd1na2vs0mg"},{"bike_id":"63c178ba-0266-4590-b3fc-426f0092c35b","system_id":"levelo_inurba_marseille","lat":43.31168,"lon":5.38717,"is_reserved":false,"is_disabled":false,"rental_uris":{"android":"levelo://app?vid=63c178ba-0266-4590-b3fc-426f0092c35b","ios":"levelo://app?vid=63c178ba-0266-4590-b3fc-426f0092c35b"},"vehicle_type_id":"4","last_reported":1732345698,"current_range_meters":6800,"station_id":"ce4bgv12rcd13ifvqcp0","pricing_plan_id":"cebpf4jnsgd1na2vs0mg"},{"bike_id":"5d89816e-0afd-4910-9a3d-37d05296c402","system_id":"levelo_inurba_marseille","lat":43.32481,"lon":5.36555,"is_reserved":false,"is_disabled":false,"rental_uris":{"android":"levelo://app?vid=5d89816e-0afd-4910-9a3d-37d05296c402","ios":"levelo://app?vid=5d89816e-0afd-4910-9a3d-37d05296c402"},"vehicle_type_id":"4","last_reported":1732345698,"current_range_meters":36800,"station_id":"ce4bhs12rcd13ifvqhvg","pricing_plan_id":"cebpf4jnsgd1na2vs0mg"},{"bike_id":"d3e3e973-f89c-4419-9e76-db3faf490d9b","system_id":"levelo_inurba_marseille","lat":43.30151,"lon":5.38079,"is_reserved":false,"is_disabled":false,"rental_uris":{"android":"levelo://app?vid=d3e3e973-f89c-4419-9e76-db3faf490d9b","ios":"levelo://app?vid=d3e3e973-f89c-4419-9e76-db3faf490d9b"},"vehicle_type_id":"4","last_reported":1732345698,"current_range_meters":34000,"station_id":"ce4bgjp2rcd13ifvqbh0","pricing_plan_id":"cebpf4jnsgd1na2vs0mg"},{"bike_id":"691236c8-694e-495c-9ae6-121a28094662","system_id":"levelo_inurba_marseille","lat":43.29802,"lon":5.38102,"is_reserved":false,"is_disabled":false,"rental_uris":{"android":"levelo://app?vid=691236c8-694e-495c-9ae6-121a28094662","ios":"levelo://app?vid=691236c8-694e-495c-9ae6-121a28094662"},"vehicle_type_id":"4","last_reported":1732345698,"current_range_meters":37600,"station_id":"ce4bgip2rcd13ifvqbb0","pricing_plan_id":"cebpf4jnsgd1na2vs0mg"},{"bike_id":"c26b7658-b62f-4751-91e9-284896b275d7","system_id":"levelo_inurba_marseille","lat":43.29008,"lon":5.42578,"is_reserved":false,"is_disabled":false,"rental_uris":{"android":"levelo://app?vid=c26b7658-b62f-4751-91e9-284896b275d7","ios":"levelo://app?vid=c26b7658-b62f-4751-91e9-284896b275d7"},"vehicle_type_id":"4","last_reported":1732345698,"current_range_meters":8800,"station_id":"","pricing_plan_id":"cebpf4jnsgd1na2vs0mg"},{"bike_id":"fd927606-7b55-4954-8b71-800a5a06c3b5","system_id":"levelo_inurba_marseille","lat":43.28719,"lon":5.36085,"is_reserved":false,"is_disabled":false,"rental_uris":{"android":"levelo://app?vid=fd927606-7b55-4954-8b71-800a5a06c3b5","ios":"levelo://app?vid=fd927606-7b55-4954-8b71-800a5a06c3b5"},"vehicle_type_id":"4","last_reported":1732345698,"current_range_meters":38800,"station_id":"cki0cbj6b192h4jlfktg","pricing_plan_id":"cebpf4jnsgd1na2vs0mg"},{"bike_id":"4cb716de-3f19-43d4-b34b-8b9ce425eaf2","system_id":"levelo_inurba_marseille","lat":43.2586,"lon":5.39902,"is_reserved":false,"is_disabled":false,"rental_uris":{"android":"levelo://app?vid=4cb716de-3f19-43d4-b34b-8b9ce425eaf2","ios":"levelo://app?vid=4cb716de-3f19-43d4-b34b-8b9ce425eaf2"},"vehicle_type_id":"4","last_reported":1732345698,"current_range_meters":25200,"station_id":"ce4bhl92rcd13ifvqghg","pricing_plan_id":"cebpf4jnsgd1na2vs0mg"},{"bike_id":"fa223770-c7b5-4176-b2a9-f62d86c16ea2","system_id":"levelo_inurba_marseille","lat":43.336669,"lon":5.39812,"is_reserved":false,"is_disabled":false,"rental_uris":{"android":"levelo://app?vid=fa223770-c7b5-4176-b2a9-f62d86c16ea2","ios":"levelo://app?vid=fa223770-c7b5-4176-b2a9-f62d86c16ea2"},"vehicle_type_id":"4","last_reported":1732345698,"current_range_meters":30000,"station_id":"","pricing_plan_id":"cebpf4jnsgd1na2vs0mg"},{"bike_id":"2742985e-0dc7-4270-b951-959020a30109","system_id":"levelo_inurba_marseille","lat":43.29597,"lon":5.38093,"is_reserved":false,"is_disabled":false,"rental_uris":{"android":"levelo://app?vid=2742985e-0dc7-4270-b951-959020a30109","ios":"levelo://app?vid=2742985e-0dc7-4270-b951-959020a30109"},"vehicle_type_id":"4","last_reported":1732345698,"current_range_meters":27600,"station_id":"ce4bgl12rcd13ifvqbo0","pricing_plan_id":"cebpf4jnsgd1na2vs0mg"},{"bike_id":"1cf045cc-18cc-4180-9a01-a3e4a554f88b","system_id":"levelo_inurba_marseille","lat":43.27994,"lon":5.40004,"is_reserved":false,"is_disabled":false,"rental_uris":{"android":"levelo://app?vid=1cf045cc-18cc-4180-9a01-a3e4a554f88b","ios":"levelo://app?vid=1cf045cc-18cc-4180-9a01-a3e4a554f88b"},"vehicle_type_id":"4","last_reported":1732345698,"current_range_meters":37600,"station_id":"ce4bho92rcd13ifvqh4g","pricing_plan_id":"cebpf4jnsgd1na2vs0mg"},{"bike_id":"99d5eeb3-6513-46db-81bf-de6e43866527","system_id":"levelo_inurba_marseille","lat":43.32365,"lon":5.38884,"is_reserved":false,"is_disabled":false,"rental_uris":{"android":"levelo://app?vid=99d5eeb3-6513-46db-81bf-de6e43866527","ios":"levelo://app?vid=99d5eeb3-6513-46db-81bf-de6e43866527"},"vehicle_type_id":"4","last_reported":1732345698,"current_range_meters":35600,"station_id":"ce4bhqp2rcd13ifvqhog","pricing_plan_id":"cebpf4jnsgd1na2vs0mg"},{"bike_id":"4e31e13d-af00-4bc2-8abc-6145d403c141","system_id":"levelo_inurba_marseille","lat":43.27813,"lon":5.40707,"is_reserved":false,"is_disabled":false,"rental_uris":{"android":"levelo://app?vid=4e31e13d-af00-4bc2-8abc-6145d403c141","ios":"levelo://app?vid=4e31e13d-af00-4bc2-8abc-6145d403c141"},"vehicle_type_id":"4","last_reported":1732345698,"current_range_meters":8400,"station_id":"ce4bhnh2rcd13ifvqgtg","pricing_plan_id":"cebpf4jnsgd1na2vs0mg"},{"bike_id":"f00c8334-c362-4595-b733-3e5b1dcfd596","system_id":"levelo_inurba_marseille","lat":43.30529,"lon":5.38426,"is_reserved":false,"is_disabled":false,"rental_uris":{"android":"levelo://app?vid=f00c8334-c362-4595-b733-3e5b1dcfd596","ios":"levelo://app?vid=f00c8334-c362-4595-b733-3e5b1dcfd596"},"vehicle_type_id":"4","last_reported":1732345698,"current_range_meters":38400,"station_id":"ce4bgg92rcd13ifvqb30","pricing_plan_id":"cebpf4jnsgd1na2vs0mg"},{"bike_id":"e5d63661-ea2d-4e9d-bdce-dbbf19d65c3c","system_id":"levelo_inurba_marseille","lat":43.32367,"lon":5.36753,"is_reserved":false,"is_disabled":true,"rental_uris":{"android":"levelo://app?vid=e5d63661-ea2d-4e9d-bdce-dbbf19d65c3c","ios":"levelo://app?vid=e5d63661-ea2d-4e9d-bdce-dbbf19d65c3c"},"vehicle_type_id":"4","last_reported":1732345698,"current_range_meters":0,"station_id":"ce4bhsh2rcd13ifvqi2g","pricing_plan_id":"cebpf4jnsgd1na2vs0mg"},{"bike_id":"44194a3f-2e52-4378-9083-7c4354cb5836","system_id":"levelo_inurba_marseille","lat":43.29002,"lon":5.35609,"is_reserved":false,"is_disabled":false,"rental_uris":{"android":"levelo://app?vid=44194a3f-2e52-4378-9083-7c4354cb5836","ios":"levelo://app?vid=44194a3f-2e52-4378-9083-7c4354cb5836"},"vehicle_type_id":"4","last_reported":1732345698,"current_range_meters":31200,"station_id":"ce4bhb92rcd13ifvqen0","pricing_plan_id":"cebpf4jnsgd1na2vs0mg"},{"bike_id":"bf651b70-19d2-45ca-8b5f-8cd4fab5a41c","system_id":"levelo_inurba_marseille","lat":43.30646,"lon":5.40064,"is_reserved":false,"is_disabled":false,"rental_uris":{"android":"levelo://app?vid=bf651b70-19d2-45ca-8b5f-8cd4fab5a41c","ios":"levelo://app?vid=bf651b70-19d2-45ca-8b5f-8cd4fab5a41c"},"vehicle_type_id":"4","last_reported":1732345698,"current_range_meters":24400,"station_id":"ce4bh112rcd13ifvqda0","pricing_plan_id":"cebpf4jnsgd1na2vs0mg"},{"bike_id":"0a0a0373-51f3-473f-86af-b59fc3b2de3f","system_id":"levelo_inurba_marseille","lat":43.3132,"lon":5.39695,"is_reserved":false,"is_disabled":false,"rental_uris":{"android":"levelo://app?vid=0a0a0373-51f3-473f-86af-b59fc3b2de3f","ios":"levelo://app?vid=0a0a0373-51f3-473f-86af-b59fc3b2de3f"},"vehicle_type_id":"4","last_reported":1732345698,"current_range_meters":27600,"station_id":"ce4bgvp2rcd13ifvqcu0","pricing_plan_id":"cebpf4jnsgd1na2vs0mg"},{"bike_id":"90cc99af-54e0-4698-bffa-7f2f1beb1a95","system_id":"levelo_inurba_marseille","lat":43.2799,"lon":5.41669,"is_reserved":false,"is_disabled":false,"rental_uris":{"android":"levelo://app?vid=90cc99af-54e0-4698-bffa-7f2f1beb1a95","ios":"levelo://app?vid=90cc99af-54e0-4698-bffa-7f2f1beb1a95"},"vehicle_type_id":"4","last_reported":1732345698,"current_range_meters":38800,"station_id":"ce4bho12rcd13ifvqh1g","pricing_plan_id":"cebpf4jnsgd1na2vs0mg"},{"bike_id":"81640bf4-dd0f-4830-8546-4d4867cc58a5","system_id":"levelo_inurba_marseille","lat":43.23102,"lon":5.40479,"is_reserved":false,"is_disabled":false,"rental_uris":{"android":"levelo://app?vid=81640bf4-dd0f-4830-8546-4d4867cc58a5","ios":"levelo://app?vid=81640bf4-dd0f-4830-8546-4d4867cc58a5"},"vehicle_type_id":"4","last_reported":1732345698,"current_range_meters":8800,"station_id":"","pricing_plan_id":"cebpf4jnsgd1na2vs0mg"},{"bike_id":"c9d20d7e-94a0-4c8b-b70d-f64cda2d5d16","system_id":"levelo_inurba_marseille","lat":43.29211,"lon":5.40007,"is_reserved":false,"is_disabled":false,"rental_uris":{"android":"levelo://app?vid=c9d20d7e-94a0-4c8b-b70d-f64cda2d5d16","ios":"levelo://app?vid=c9d20d7e-94a0-4c8b-b70d-f64cda2d5d16"},"vehicle_type_id":"4","last_reported":1732345698,"current_range_meters":14000,"station_id":"","pricing_plan_id":"cebpf4jnsgd1na2vs0mg"},{"bike_id":"cd78312a-142a-42d0-92e1-dbc654bf8bb4","system_id":"levelo_inurba_marseille","lat":43.24184,"lon":5.39708,"is_reserved":false,"is_disabled":true,"rental_uris":{"android":"levelo://app?vid=cd78312a-142a-42d0-92e1-dbc654bf8bb4","ios":"levelo://app?vid=cd78312a-142a-42d0-92e1-dbc654bf8bb4"},"vehicle_type_id":"4","last_reported":1732345698,"current_range_meters":16000,"station_id":"ce4bhn12rcd13ifvqgpg","pricing_plan_id":"cebpf4jnsgd1na2vs0mg"},{"bike_id":"f28c82ad-6f3c-4c01-88a7-477b9b26f762","system_id":"levelo_inurba_marseille","lat":43.23963,"lon":5.3663,"is_reserved":false,"is_disabled":false,"rental_uris":{"android":"levelo://app?vid=f28c82ad-6f3c-4c01-88a7-477b9b26f762","ios":"levelo://app?vid=f28c82ad-6f3c-4c01-88a7-477b9b26f762"},"vehicle_type_id":"4","last_reported":1732345698,"current_range_meters":28000,"station_id":"ce4bhi12rcd13ifvqfp0","pricing_plan_id":"cebpf4jnsgd1na2vs0mg"},{"bike_id":"11c5ed7c-dad2-4605-8db8-4918d0818190","system_id":"levelo_inurba_marseille","lat":43.31723,"lon":5.42401,"is_reserved":false,"is_disabled":false,"rental_uris":{"android":"levelo://app?vid=11c5ed7c-dad2-4605-8db8-4918d0818190","ios":"levelo://app?vid=11c5ed7c-dad2-4605-8db8-4918d0818190"},"vehicle_type_id":"4","last_reported":1732345698,"current_range_meters":39200,"station_id":"ce4bhp92rcd13ifvqhbg","pricing_plan_id":"cebpf4jnsgd1na2vs0mg"},{"bike_id":"3dedd3a3-3784-47e0-bd52-94265bd44a24","system_id":"levelo_inurba_marseille","lat":43.24551,"lon":5.37326,"is_reserved":false,"is_disabled":true,"rental_uris":{"android":"levelo://app?vid=3dedd3a3-3784-47e0-bd52-94265bd44a24","ios":"levelo://app?vid=3dedd3a3-3784-47e0-bd52-94265bd44a24"},"vehicle_type_id":"4","last_reported":1732345698,"current_range_meters":0,"station_id":"","pricing_plan_id":"cebpf4jnsgd1na2vs0mg"},{"bike_id":"0f73c7e1-9f37-4805-b324-faa77a592d73","system_id":"levelo_inurba_marseille","lat":43.24081,"lon":5.37744,"is_reserved":false,"is_disabled":false,"rental_uris":{"android":"levelo://app?vid=0f73c7e1-9f37-4805-b324-faa77a592d73","ios":"levelo://app?vid=0f73c7e1-9f37-4805-b324-faa77a592d73"},"vehicle_type_id":"4","last_reported":1732345698,"current_range_meters":19200,"station_id":"ce4bhnp2rcd13ifvqgvg","pricing_plan_id":"cebpf4jnsgd1na2vs0mg"},{"bike_id":"12234c16-f83e-4c12-88f7-8a74f5f0de0e","system_id":"levelo_inurba_marseille","lat":43.24807,"lon":5.37448,"is_reserved":false,"is_disabled":false,"rental_uris":{"android":"levelo://app?vid=12234c16-f83e-4c12-88f7-8a74f5f0de0e","ios":"levelo://app?vid=12234c16-f83e-4c12-88f7-8a74f5f0de0e"},"vehicle_type_id":"4","last_reported":1732345698,"current_range_meters":23200,"station_id":"ce4bhgh2rcd13ifvqfb0","pricing_plan_id":"cebpf4jnsgd1na2vs0mg"},{"bike_id":"508e64fb-b601-4256-a33d-1741da3fb5eb","system_id":"levelo_inurba_marseille","lat":43.2408,"lon":5.3775,"is_reserved":false,"is_disabled":false,"rental_uris":{"android":"levelo://app?vid=508e64fb-b601-4256-a33d-1741da3fb5eb","ios":"levelo://app?vid=508e64fb-b601-4256-a33d-1741da3fb5eb"},"vehicle_type_id":"4","last_reported":1732345698,"current_range_meters":6000,"station_id":"ce4bhnp2rcd13ifvqgvg","pricing_plan_id":"cebpf4jnsgd1na2vs0mg"},{"bike_id":"bcf5a7ef-45e7-40a2-a25a-d01db7f9684d","system_id":"levelo_inurba_marseille","lat":43.25383,"lon":5.4017,"is_reserved":false,"is_disabled":true,"rental_uris":{"android":"levelo://app?vid=bcf5a7ef-45e7-40a2-a25a-d01db7f9684d","ios":"levelo://app?vid=bcf5a7ef-45e7-40a2-a25a-d01db7f9684d"},"vehicle_type_id":"4","last_reported":1732345698,"current_range_meters":0,"station_id":"","pricing_plan_id":"cebpf4jnsgd1na2vs0mg"},{"bike_id":"3193222d-584b-4642-a1d8-0c04b2309736","system_id":"levelo_inurba_marseille","lat":43.33729,"lon":5.39185,"is_reserved":false,"is_disabled":false,"rental_uris":{"android":"levelo://app?vid=3193222d-584b-4642-a1d8-0c04b2309736","ios":"levelo://app?vid=3193222d-584b-4642-a1d8-0c04b2309736"},"vehicle_type_id":"4","last_reported":1732345698,"current_range_meters":33600,"station_id":"ce4bhr92rcd13ifvqhsg","pricing_plan_id":"cebpf4jnsgd1na2vs0mg"},{"bike_id":"7c2f19f3-5373-4c2a-87bb-e1fd3ef39822","system_id":"levelo_inurba_marseille","lat":43.26559,"lon":5.39009,"is_reserved":false,"is_disabled":true,"rental_uris":{"android":"levelo://app?vid=7c2f19f3-5373-4c2a-87bb-e1fd3ef39822","ios":"levelo://app?vid=7c2f19f3-5373-4c2a-87bb-e1fd3ef39822"},"vehicle_type_id":"4","last_reported":1732345698,"current_range_meters":26800,"station_id":"ce4bhe12rcd13ifvqf30","pricing_plan_id":"cebpf4jnsgd1na2vs0mg"},{"bike_id":"36ef9a42-f4d8-45f5-adc2-b51fb9b962d0","system_id":"levelo_inurba_marseille","lat":43.3415,"lon":5.40897,"is_reserved":false,"is_disabled":false,"rental_uris":{"android":"levelo://app?vid=36ef9a42-f4d8-45f5-adc2-b51fb9b962d0","ios":"levelo://app?vid=36ef9a42-f4d8-45f5-adc2-b51fb9b962d0"},"vehicle_type_id":"4","last_reported":1732345698,"current_range_meters":40000,"station_id":"ce4bhqh2rcd13ifvqhlg","pricing_plan_id":"cebpf4jnsgd1na2vs0mg"},{"bike_id":"d145285e-3020-420f-8506-6c41aef82607","system_id":"levelo_inurba_marseille","lat":43.30804,"lon":5.38146,"is_reserved":false,"is_disabled":false,"rental_uris":{"android":"levelo://app?vid=d145285e-3020-420f-8506-6c41aef82607","ios":"levelo://app?vid=d145285e-3020-420f-8506-6c41aef82607"},"vehicle_type_id":"4","last_reported":1732345698,"current_range_meters":33200,"station_id":"ce4bgt12rcd13ifvqce0","pricing_plan_id":"cebpf4jnsgd1na2vs0mg"},{"bike_id":"095792c7-a4b8-437f-aedd-efe4efded967","system_id":"levelo_inurba_marseille","lat":43.30528,"lon":5.38435,"is_reserved":false,"is_disabled":true,"rental_uris":{"android":"levelo://app?vid=095792c7-a4b8-437f-aedd-efe4efded967","ios":"levelo://app?vid=095792c7-a4b8-437f-aedd-efe4efded967"},"vehicle_type_id":"4","last_reported":1732345698,"current_range_meters":30000,"station_id":"ce4bgg92rcd13ifvqb30","pricing_plan_id":"cebpf4jnsgd1na2vs0mg"},{"bike_id":"1fe36207-a189-42b7-a2ae-a1bed57e3dd0","system_id":"levelo_inurba_marseille","lat":43.2603,"lon":5.37555,"is_reserved":false,"is_disabled":false,"rental_uris":{"android":"levelo://app?vid=1fe36207-a189-42b7-a2ae-a1bed57e3dd0","ios":"levelo://app?vid=1fe36207-a189-42b7-a2ae-a1bed57e3dd0"},"vehicle_type_id":"4","last_reported":1732345698,"current_range_meters":14800,"station_id":"ce4bhgh2rcd13ifvqfa0","pricing_plan_id":"cebpf4jnsgd1na2vs0mg"},{"bike_id":"4ecdaf55-87e7-42ea-ac0e-a41de2a6b49d","system_id":"levelo_inurba_marseille","lat":43.31994,"lon":5.38148,"is_reserved":false,"is_disabled":false,"rental_uris":{"android":"levelo://app?vid=4ecdaf55-87e7-42ea-ac0e-a41de2a6b49d","ios":"levelo://app?vid=4ecdaf55-87e7-42ea-ac0e-a41de2a6b49d"},"vehicle_type_id":"4","last_reported":1732345698,"current_range_meters":24400,"station_id":"ce4bhr12rcd13ifvqhpg","pricing_plan_id":"cebpf4jnsgd1na2vs0mg"},{"bike_id":"51ce6112-ca51-4a26-8335-063dea88ee84","system_id":"levelo_inurba_marseille","lat":43.26679,"lon":5.38978,"is_reserved":false,"is_disabled":false,"rental_uris":{"android":"levelo://app?vid=51ce6112-ca51-4a26-8335-063dea88ee84","ios":"levelo://app?vid=51ce6112-ca51-4a26-8335-063dea88ee84"},"vehicle_type_id":"4","last_reported":1732345698,"current_range_meters":8400,"station_id":"","pricing_plan_id":"cebpf4jnsgd1na2vs0mg"},{"bike_id":"a02eb68f-c704-45bf-b3f6-d9816f90b1b3","system_id":"levelo_inurba_marseille","lat":43.26953,"lon":5.38635,"is_reserved":false,"is_disabled":false,"rental_uris":{"android":"levelo://app?vid=a02eb68f-c704-45bf-b3f6-d9816f90b1b3","ios":"levelo://app?vid=a02eb68f-c704-45bf-b3f6-d9816f90b1b3"},"vehicle_type_id":"4","last_reported":1732345698,"current_range_meters":35600,"station_id":"ce4bhh92rcd13ifvqfh0","pricing_plan_id":"cebpf4jnsgd1na2vs0mg"},{"bike_id":"dc40093c-1a1f-419a-9052-3d264e01de4a","system_id":"levelo_inurba_marseille","lat":43.30348,"lon":5.41875,"is_reserved":false,"is_disabled":false,"rental_uris":{"android":"levelo://app?vid=dc40093c-1a1f-419a-9052-3d264e01de4a","ios":"levelo://app?vid=dc40093c-1a1f-419a-9052-3d264e01de4a"},"vehicle_type_id":"4","last_reported":1732345698,"current_range_meters":36800,"station_id":"ce4bhop2rcd13ifvqh7g","pricing_plan_id":"cebpf4jnsgd1na2vs0mg"},{"bike_id":"fc0b1b0c-9a21-495d-be52-0d91f5503bfa","system_id":"levelo_inurba_marseille","lat":43.2293,"lon":5.35371,"is_reserved":false,"is_disabled":false,"rental_uris":{"android":"levelo://app?vid=fc0b1b0c-9a21-495d-be52-0d91f5503bfa","ios":"levelo://app?vid=fc0b1b0c-9a21-495d-be52-0d91f5503bfa"},"vehicle_type_id":"4","last_reported":1732345698,"current_range_meters":23200,"station_id":"cpo3532slgdg3j2ikp40","pricing_plan_id":"cebpf4jnsgd1na2vs0mg"},{"bike_id":"fb8722dd-7f32-4ddd-b094-d27e50ec04ba","system_id":"levelo_inurba_marseille","lat":43.24076,"lon":5.37765,"is_reserved":false,"is_disabled":false,"rental_uris":{"android":"levelo://app?vid=fb8722dd-7f32-4ddd-b094-d27e50ec04ba","ios":"levelo://app?vid=fb8722dd-7f32-4ddd-b094-d27e50ec04ba"},"vehicle_type_id":"4","last_reported":1732345698,"current_range_meters":39200,"station_id":"ce4bhnp2rcd13ifvqgvg","pricing_plan_id":"cebpf4jnsgd1na2vs0mg"},{"bike_id":"85e5d55e-46ec-4dae-ada6-d1f7a5aa1508","system_id":"levelo_inurba_marseille","lat":43.25864,"lon":5.39903,"is_reserved":false,"is_disabled":false,"rental_uris":{"android":"levelo://app?vid=85e5d55e-46ec-4dae-ada6-d1f7a5aa1508","ios":"levelo://app?vid=85e5d55e-46ec-4dae-ada6-d1f7a5aa1508"},"vehicle_type_id":"4","last_reported":1732345698,"current_range_meters":28400,"station_id":"ce4bhl92rcd13ifvqghg","pricing_plan_id":"cebpf4jnsgd1na2vs0mg"},{"bike_id":"94101e33-ee43-4b1f-9078-47da1f716263","system_id":"levelo_inurba_marseille","lat":43.26949,"lon":5.38627,"is_reserved":false,"is_disabled":false,"rental_uris":{"android":"levelo://app?vid=94101e33-ee43-4b1f-9078-47da1f716263","ios":"levelo://app?vid=94101e33-ee43-4b1f-9078-47da1f716263"},"vehicle_type_id":"4","last_reported":1732345698,"current_range_meters":38400,"station_id":"ce4bhh92rcd13ifvqfh0","pricing_plan_id":"cebpf4jnsgd1na2vs0mg"},{"bike_id":"97437fd5-e381-403b-962e-cf899defef24","system_id":"levelo_inurba_marseille","lat":43.32484,"lon":5.36592,"is_reserved":false,"is_disabled":false,"rental_uris":{"android":"levelo://app?vid=97437fd5-e381-403b-962e-cf899defef24","ios":"levelo://app?vid=97437fd5-e381-403b-962e-cf899defef24"},"vehicle_type_id":"4","last_reported":1732345698,"current_range_meters":26800,"station_id":"ce4bhs12rcd13ifvqhvg","pricing_plan_id":"cebpf4jnsgd1na2vs0mg"},{"bike_id":"68f9bc67-7a46-4c54-8555-1eed96ca8ef0","system_id":"levelo_inurba_marseille","lat":43.32107,"lon":5.36778,"is_reserved":false,"is_disabled":false,"rental_uris":{"android":"levelo://app?vid=68f9bc67-7a46-4c54-8555-1eed96ca8ef0","ios":"levelo://app?vid=68f9bc67-7a46-4c54-8555-1eed96ca8ef0"},"vehicle_type_id":"4","last_reported":1732345698,"current_range_meters":37600,"station_id":"ce4bhrh2rcd13ifvqhug","pricing_plan_id":"cebpf4jnsgd1na2vs0mg"},{"bike_id":"93602490-3c4b-4c48-a44b-e19e8ed66648","system_id":"levelo_inurba_marseille","lat":43.28268,"lon":5.35073,"is_reserved":false,"is_disabled":false,"rental_uris":{"android":"levelo://app?vid=93602490-3c4b-4c48-a44b-e19e8ed66648","ios":"levelo://app?vid=93602490-3c4b-4c48-a44b-e19e8ed66648"},"vehicle_type_id":"4","last_reported":1732345698,"current_range_meters":38000,"station_id":"ce4bhbp2rcd13ifvqerg","pricing_plan_id":"cebpf4jnsgd1na2vs0mg"},{"bike_id":"3239957e-a764-4b8a-820d-2d1476058ffa","system_id":"levelo_inurba_marseille","lat":43.23179,"lon":5.39991,"is_reserved":false,"is_disabled":false,"rental_uris":{"android":"levelo://app?vid=3239957e-a764-4b8a-820d-2d1476058ffa","ios":"levelo://app?vid=3239957e-a764-4b8a-820d-2d1476058ffa"},"vehicle_type_id":"4","last_reported":1732345698,"current_range_meters":6800,"station_id":"ce4bhn12rcd13ifvqgqg","pricing_plan_id":"cebpf4jnsgd1na2vs0mg"},{"bike_id":"31a3efa5-23ff-4d63-a675-e8128f858976","system_id":"levelo_inurba_marseille","lat":43.29836,"lon":5.36258,"is_reserved":false,"is_disabled":false,"rental_uris":{"android":"levelo://app?vid=31a3efa5-23ff-4d63-a675-e8128f858976","ios":"levelo://app?vid=31a3efa5-23ff-4d63-a675-e8128f858976"},"vehicle_type_id":"4","last_reported":1732345698,"current_range_meters":39200,"station_id":"ce4bgpp2rcd13ifvqc3g","pricing_plan_id":"cebpf4jnsgd1na2vs0mg"},{"bike_id":"bee41234-12da-4d21-8d3c-98d1ae5278bc","system_id":"levelo_inurba_marseille","lat":43.29063,"lon":5.38797,"is_reserved":false,"is_disabled":false,"rental_uris":{"android":"levelo://app?vid=bee41234-12da-4d21-8d3c-98d1ae5278bc","ios":"levelo://app?vid=bee41234-12da-4d21-8d3c-98d1ae5278bc"},"vehicle_type_id":"4","last_reported":1732345698,"current_range_meters":20000,"station_id":"","pricing_plan_id":"cebpf4jnsgd1na2vs0mg"},{"bike_id":"349537e8-d512-491b-9416-c4126b6baa7f","system_id":"levelo_inurba_marseille","lat":43.30604,"lon":5.37224,"is_reserved":false,"is_disabled":false,"rental_uris":{"android":"levelo://app?vid=349537e8-d512-491b-9416-c4126b6baa7f","ios":"levelo://app?vid=349537e8-d512-491b-9416-c4126b6baa7f"},"vehicle_type_id":"4","last_reported":1732345698,"current_range_meters":34000,"station_id":"ce4bgqh2rcd13ifvqc4g","pricing_plan_id":"cebpf4jnsgd1na2vs0mg"},{"bike_id":"bc253db0-f00b-4bb0-84b9-1f8f01714743","system_id":"levelo_inurba_marseille","lat":43.239673,"lon":5.366294,"is_reserved":false,"is_disabled":false,"rental_uris":{"android":"levelo://app?vid=bc253db0-f00b-4bb0-84b9-1f8f01714743","ios":"levelo://app?vid=bc253db0-f00b-4bb0-84b9-1f8f01714743"},"vehicle_type_id":"4","last_reported":1732345698,"current_range_meters":16800,"station_id":"ce4bhi12rcd13ifvqfp0","pricing_plan_id":"cebpf4jnsgd1na2vs0mg"},{"bike_id":"d60edd73-4923-4330-b16d-caf6d1490a7d","system_id":"levelo_inurba_marseille","lat":43.31534,"lon":5.38035,"is_reserved":false,"is_disabled":false,"rental_uris":{"android":"levelo://app?vid=d60edd73-4923-4330-b16d-caf6d1490a7d","ios":"levelo://app?vid=d60edd73-4923-4330-b16d-caf6d1490a7d"},"vehicle_type_id":"4","last_reported":1732345698,"current_range_meters":11200,"station_id":"ce4bhsp2rcd13ifvqi50","pricing_plan_id":"cebpf4jnsgd1na2vs0mg"},{"bike_id":"589e73fc-b369-4a28-b69f-0a0000220651","system_id":"levelo_inurba_marseille","lat":43.295839,"lon":5.36733,"is_reserved":false,"is_disabled":false,"rental_uris":{"android":"levelo://app?vid=589e73fc-b369-4a28-b69f-0a0000220651","ios":"levelo://app?vid=589e73fc-b369-4a28-b69f-0a0000220651"},"vehicle_type_id":"4","last_reported":1732345698,"current_range_meters":39200,"station_id":"ce4bgph2rcd13ifvqc2g","pricing_plan_id":"cebpf4jnsgd1na2vs0mg"},{"bike_id":"d61cc877-d3c6-41ac-b02b-4bf4e01d2398","system_id":"levelo_inurba_marseille","lat":43.29673,"lon":5.40534,"is_reserved":false,"is_disabled":false,"rental_uris":{"android":"levelo://app?vid=d61cc877-d3c6-41ac-b02b-4bf4e01d2398","ios":"levelo://app?vid=d61cc877-d3c6-41ac-b02b-4bf4e01d2398"},"vehicle_type_id":"4","last_reported":1732345698,"current_range_meters":14400,"station_id":"","pricing_plan_id":"cebpf4jnsgd1na2vs0mg"},{"bike_id":"2ce56eac-607f-4aee-97f1-1efe9a148076","system_id":"levelo_inurba_marseille","lat":43.22927,"lon":5.35377,"is_reserved":false,"is_disabled":false,"rental_uris":{"android":"levelo://app?vid=2ce56eac-607f-4aee-97f1-1efe9a148076","ios":"levelo://app?vid=2ce56eac-607f-4aee-97f1-1efe9a148076"},"vehicle_type_id":"4","last_reported":1732345698,"current_range_meters":10800,"station_id":"cpo3532slgdg3j2ikp40","pricing_plan_id":"cebpf4jnsgd1na2vs0mg"},{"bike_id":"3c5d0254-2542-44e0-aa08-1a8753e937a8","system_id":"levelo_inurba_marseille","lat":43.26688,"lon":5.3827,"is_reserved":false,"is_disabled":false,"rental_uris":{"android":"levelo://app?vid=3c5d0254-2542-44e0-aa08-1a8753e937a8","ios":"levelo://app?vid=3c5d0254-2542-44e0-aa08-1a8753e937a8"},"vehicle_type_id":"4","last_reported":1732345698,"current_range_meters":36800,"station_id":"ce4bhg92rcd13ifvqf90","pricing_plan_id":"cebpf4jnsgd1na2vs0mg"},{"bike_id":"4b569cf8-6a12-4d81-93e3-3e853defefcb","system_id":"levelo_inurba_marseille","lat":43.29865,"lon":5.39732,"is_reserved":false,"is_disabled":false,"rental_uris":{"android":"levelo://app?vid=4b569cf8-6a12-4d81-93e3-3e853defefcb","ios":"levelo://app?vid=4b569cf8-6a12-4d81-93e3-3e853defefcb"},"vehicle_type_id":"4","last_reported":1732345698,"current_range_meters":36400,"station_id":"ce4bh0h2rcd13ifvqd50","pricing_plan_id":"cebpf4jnsgd1na2vs0mg"},{"bike_id":"c74abcec-f83d-46ae-b5a9-0a57cc1c1c41","system_id":"levelo_inurba_marseille","lat":43.23192,"lon":5.35563,"is_reserved":false,"is_disabled":false,"rental_uris":{"android":"levelo://app?vid=c74abcec-f83d-46ae-b5a9-0a57cc1c1c41","ios":"levelo://app?vid=c74abcec-f83d-46ae-b5a9-0a57cc1c1c41"},"vehicle_type_id":"4","last_reported":1732345698,"current_range_meters":35200,"station_id":"ce4bhu92rcd13ifvqi70","pricing_plan_id":"cebpf4jnsgd1na2vs0mg"},{"bike_id":"72199e4f-4616-4328-bcb5-d0d184b8428c","system_id":"levelo_inurba_marseille","lat":43.25121,"lon":5.40318,"is_reserved":false,"is_disabled":false,"rental_uris":{"android":"levelo://app?vid=72199e4f-4616-4328-bcb5-d0d184b8428c","ios":"levelo://app?vid=72199e4f-4616-4328-bcb5-d0d184b8428c"},"vehicle_type_id":"4","last_reported":1732345698,"current_range_meters":39200,"station_id":"ce4bhlh2rcd13ifvqgig","pricing_plan_id":"cebpf4jnsgd1na2vs0mg"},{"bike_id":"6bc5e554-d491-43d8-af78-57fbd87f8a20","system_id":"levelo_inurba_marseille","lat":43.29847,"lon":5.36285,"is_reserved":false,"is_disabled":false,"rental_uris":{"android":"levelo://app?vid=6bc5e554-d491-43d8-af78-57fbd87f8a20","ios":"levelo://app?vid=6bc5e554-d491-43d8-af78-57fbd87f8a20"},"vehicle_type_id":"4","last_reported":1732345698,"current_range_meters":39200,"station_id":"ce4bgpp2rcd13ifvqc3g","pricing_plan_id":"cebpf4jnsgd1na2vs0mg"},{"bike_id":"1e54f937-0e06-4f27-9121-0b11ed04cf53","system_id":"levelo_inurba_marseille","lat":43.27824,"lon":5.39204,"is_reserved":false,"is_disabled":false,"rental_uris":{"android":"levelo://app?vid=1e54f937-0e06-4f27-9121-0b11ed04cf53","ios":"levelo://app?vid=1e54f937-0e06-4f27-9121-0b11ed04cf53"},"vehicle_type_id":"4","last_reported":1732345698,"current_range_meters":27200,"station_id":"ce4bhjp2rcd13ifvqga0","pricing_plan_id":"cebpf4jnsgd1na2vs0mg"},{"bike_id":"1f95b7bf-cda9-49b3-8eea-8d60d5718c7c","system_id":"levelo_inurba_marseille","lat":43.29027,"lon":5.37555,"is_reserved":false,"is_disabled":true,"rental_uris":{"android":"levelo://app?vid=1f95b7bf-cda9-49b3-8eea-8d60d5718c7c","ios":"levelo://app?vid=1f95b7bf-cda9-49b3-8eea-8d60d5718c7c"},"vehicle_type_id":"4","last_reported":1732345698,"current_range_meters":4800,"station_id":"ce4bh692rcd13ifvqe90","pricing_plan_id":"cebpf4jnsgd1na2vs0mg"},{"bike_id":"c3a9fd83-5a98-42b2-a8f7-5104c351d62e","system_id":"levelo_inurba_marseille","lat":43.30456,"lon":5.37902,"is_reserved":false,"is_disabled":false,"rental_uris":{"android":"levelo://app?vid=c3a9fd83-5a98-42b2-a8f7-5104c351d62e","ios":"levelo://app?vid=c3a9fd83-5a98-42b2-a8f7-5104c351d62e"},"vehicle_type_id":"4","last_reported":1732345698,"current_range_meters":7200,"station_id":"ce4bgup2rcd13ifvqcn0","pricing_plan_id":"cebpf4jnsgd1na2vs0mg"},{"bike_id":"1eff5ce5-2d56-4465-a12c-60db9ec2175a","system_id":"levelo_inurba_marseille","lat":43.22932,"lon":5.35368,"is_reserved":false,"is_disabled":false,"rental_uris":{"android":"levelo://app?vid=1eff5ce5-2d56-4465-a12c-60db9ec2175a","ios":"levelo://app?vid=1eff5ce5-2d56-4465-a12c-60db9ec2175a"},"vehicle_type_id":"4","last_reported":1732345698,"current_range_meters":37600,"station_id":"cpo3532slgdg3j2ikp40","pricing_plan_id":"cebpf4jnsgd1na2vs0mg"},{"bike_id":"dc815649-e3e3-48aa-b0fd-022cdb8ac58a","system_id":"levelo_inurba_marseille","lat":43.32365,"lon":5.38888,"is_reserved":false,"is_disabled":false,"rental_uris":{"android":"levelo://app?vid=dc815649-e3e3-48aa-b0fd-022cdb8ac58a","ios":"levelo://app?vid=dc815649-e3e3-48aa-b0fd-022cdb8ac58a"},"vehicle_type_id":"4","last_reported":1732345698,"current_range_meters":32400,"station_id":"ce4bhqp2rcd13ifvqhog","pricing_plan_id":"cebpf4jnsgd1na2vs0mg"},{"bike_id":"c9ac1ef6-9ad3-4bc7-b0a2-8ffc1ae0acff","system_id":"levelo_inurba_marseille","lat":43.2781,"lon":5.40708,"is_reserved":false,"is_disabled":false,"rental_uris":{"android":"levelo://app?vid=c9ac1ef6-9ad3-4bc7-b0a2-8ffc1ae0acff","ios":"levelo://app?vid=c9ac1ef6-9ad3-4bc7-b0a2-8ffc1ae0acff"},"vehicle_type_id":"4","last_reported":1732345698,"current_range_meters":29600,"station_id":"ce4bhnh2rcd13ifvqgtg","pricing_plan_id":"cebpf4jnsgd1na2vs0mg"},{"bike_id":"6009d250-3aea-4d66-91ba-2dc21d6db0ce","system_id":"levelo_inurba_marseille","lat":43.28842,"lon":5.35848,"is_reserved":false,"is_disabled":false,"rental_uris":{"android":"levelo://app?vid=6009d250-3aea-4d66-91ba-2dc21d6db0ce","ios":"levelo://app?vid=6009d250-3aea-4d66-91ba-2dc21d6db0ce"},"vehicle_type_id":"4","last_reported":1732345698,"current_range_meters":32400,"station_id":"ce4bhb12rcd13ifvqem0","pricing_plan_id":"cebpf4jnsgd1na2vs0mg"},{"bike_id":"40bfb175-cda3-4130-9075-6a82c9e7fe72","system_id":"levelo_inurba_marseille","lat":43.32338,"lon":5.40634,"is_reserved":false,"is_disabled":false,"rental_uris":{"android":"levelo://app?vid=40bfb175-cda3-4130-9075-6a82c9e7fe72","ios":"levelo://app?vid=40bfb175-cda3-4130-9075-6a82c9e7fe72"},"vehicle_type_id":"4","last_reported":1732345698,"current_range_meters":15200,"station_id":"ce4bhq92rcd13ifvqhjg","pricing_plan_id":"cebpf4jnsgd1na2vs0mg"},{"bike_id":"c490aaac-88b6-407b-8070-d1f7c2874d9b","system_id":"levelo_inurba_marseille","lat":43.26491,"lon":5.39539,"is_reserved":false,"is_disabled":false,"rental_uris":{"android":"levelo://app?vid=c490aaac-88b6-407b-8070-d1f7c2874d9b","ios":"levelo://app?vid=c490aaac-88b6-407b-8070-d1f7c2874d9b"},"vehicle_type_id":"4","last_reported":1732345698,"current_range_meters":32800,"station_id":"ce4bhi12rcd13ifvqfq0","pricing_plan_id":"cebpf4jnsgd1na2vs0mg"},{"bike_id":"5b192c2c-a49f-4570-8e04-4731e4914d36","system_id":"levelo_inurba_marseille","lat":43.28458,"lon":5.35898,"is_reserved":false,"is_disabled":false,"rental_uris":{"android":"levelo://app?vid=5b192c2c-a49f-4570-8e04-4731e4914d36","ios":"levelo://app?vid=5b192c2c-a49f-4570-8e04-4731e4914d36"},"vehicle_type_id":"4","last_reported":1732345698,"current_range_meters":19200,"station_id":"ce4bhah2rcd13ifvqei0","pricing_plan_id":"cebpf4jnsgd1na2vs0mg"},{"bike_id":"5f401a72-6ce7-4d38-9fb6-ee5260b34669","system_id":"levelo_inurba_marseille","lat":43.24069,"lon":5.37762,"is_reserved":false,"is_disabled":false,"rental_uris":{"android":"levelo://app?vid=5f401a72-6ce7-4d38-9fb6-ee5260b34669","ios":"levelo://app?vid=5f401a72-6ce7-4d38-9fb6-ee5260b34669"},"vehicle_type_id":"4","last_reported":1732345698,"current_range_meters":38000,"station_id":"ce4bhnp2rcd13ifvqgvg","pricing_plan_id":"cebpf4jnsgd1na2vs0mg"},{"bike_id":"bb803ab8-179e-4304-a048-75c0e3ad34d4","system_id":"levelo_inurba_marseille","lat":43.29936,"lon":5.36547,"is_reserved":false,"is_disabled":false,"rental_uris":{"android":"levelo://app?vid=bb803ab8-179e-4304-a048-75c0e3ad34d4","ios":"levelo://app?vid=bb803ab8-179e-4304-a048-75c0e3ad34d4"},"vehicle_type_id":"4","last_reported":1732345698,"current_range_meters":36400,"station_id":"ce4bgm92rcd13ifvqbr0","pricing_plan_id":"cebpf4jnsgd1na2vs0mg"},{"bike_id":"394aa3cb-29a8-40b5-be61-196faf34db54","system_id":"levelo_inurba_marseille","lat":43.287,"lon":5.39982,"is_reserved":false,"is_disabled":false,"rental_uris":{"android":"levelo://app?vid=394aa3cb-29a8-40b5-be61-196faf34db54","ios":"levelo://app?vid=394aa3cb-29a8-40b5-be61-196faf34db54"},"vehicle_type_id":"4","last_reported":1732345698,"current_range_meters":9600,"station_id":"ce4bho92rcd13ifvqh3g","pricing_plan_id":"cebpf4jnsgd1na2vs0mg"},{"bike_id":"f796b412-9140-415f-9f98-4b489dc2b14e","system_id":"levelo_inurba_marseille","lat":43.269424,"lon":5.402509,"is_reserved":false,"is_disabled":false,"rental_uris":{"android":"levelo://app?vid=f796b412-9140-415f-9f98-4b489dc2b14e","ios":"levelo://app?vid=f796b412-9140-415f-9f98-4b489dc2b14e"},"vehicle_type_id":"4","last_reported":1732345698,"current_range_meters":36800,"station_id":"cjm6bp8fraef2m0cb0m0","pricing_plan_id":"cebpf4jnsgd1na2vs0mg"},{"bike_id":"367f1ba0-8a90-4e25-ac70-0d13af33ce6c","system_id":"levelo_inurba_marseille","lat":43.281,"lon":5.37824,"is_reserved":false,"is_disabled":false,"rental_uris":{"android":"levelo://app?vid=367f1ba0-8a90-4e25-ac70-0d13af33ce6c","ios":"levelo://app?vid=367f1ba0-8a90-4e25-ac70-0d13af33ce6c"},"vehicle_type_id":"4","last_reported":1732345698,"current_range_meters":25200,"station_id":"ce4bha12rcd13ifvqee0","pricing_plan_id":"cebpf4jnsgd1na2vs0mg"},{"bike_id":"f3db8695-64da-47ec-8340-c4c8a6858e41","system_id":"levelo_inurba_marseille","lat":43.32287,"lon":5.38276,"is_reserved":false,"is_disabled":false,"rental_uris":{"android":"levelo://app?vid=f3db8695-64da-47ec-8340-c4c8a6858e41","ios":"levelo://app?vid=f3db8695-64da-47ec-8340-c4c8a6858e41"},"vehicle_type_id":"4","last_reported":1732345698,"current_range_meters":18800,"station_id":"ce4bhr12rcd13ifvqhqg","pricing_plan_id":"cebpf4jnsgd1na2vs0mg"},{"bike_id":"edcbf0d7-72a5-445e-b19a-3f7cfa50f275","system_id":"levelo_inurba_marseille","lat":43.27559,"lon":5.38433,"is_reserved":false,"is_disabled":false,"rental_uris":{"android":"levelo://app?vid=edcbf0d7-72a5-445e-b19a-3f7cfa50f275","ios":"levelo://app?vid=edcbf0d7-72a5-445e-b19a-3f7cfa50f275"},"vehicle_type_id":"4","last_reported":1732345698,"current_range_meters":14000,"station_id":"ce4bhh92rcd13ifvqfi0","pricing_plan_id":"cebpf4jnsgd1na2vs0mg"},{"bike_id":"37d530e4-aa71-4f19-9d82-0a059ab08234","system_id":"levelo_inurba_marseille","lat":43.24184,"lon":5.39728,"is_reserved":false,"is_disabled":false,"rental_uris":{"android":"levelo://app?vid=37d530e4-aa71-4f19-9d82-0a059ab08234","ios":"levelo://app?vid=37d530e4-aa71-4f19-9d82-0a059ab08234"},"vehicle_type_id":"4","last_reported":1732345698,"current_range_meters":7200,"station_id":"ce4bhn12rcd13ifvqgpg","pricing_plan_id":"cebpf4jnsgd1na2vs0mg"},{"bike_id":"8f965d98-ed0b-4d4e-889d-7e115e8d38c5","system_id":"levelo_inurba_marseille","lat":43.31719,"lon":5.424,"is_reserved":false,"is_disabled":false,"rental_uris":{"android":"levelo://app?vid=8f965d98-ed0b-4d4e-889d-7e115e8d38c5","ios":"levelo://app?vid=8f965d98-ed0b-4d4e-889d-7e115e8d38c5"},"vehicle_type_id":"4","last_reported":1732345698,"current_range_meters":14800,"station_id":"ce4bhp92rcd13ifvqhbg","pricing_plan_id":"cebpf4jnsgd1na2vs0mg"},{"bike_id":"1752c724-2da7-45b5-8b48-74d9be0dc05d","system_id":"levelo_inurba_marseille","lat":43.27998,"lon":5.40007,"is_reserved":false,"is_disabled":true,"rental_uris":{"android":"levelo://app?vid=1752c724-2da7-45b5-8b48-74d9be0dc05d","ios":"levelo://app?vid=1752c724-2da7-45b5-8b48-74d9be0dc05d"},"vehicle_type_id":"4","last_reported":1732345698,"current_range_meters":0,"station_id":"ce4bho92rcd13ifvqh4g","pricing_plan_id":"cebpf4jnsgd1na2vs0mg"},{"bike_id":"768dda3b-d8a0-4769-9ff7-7d19116e329c","system_id":"levelo_inurba_marseille","lat":43.29533,"lon":5.37503,"is_reserved":false,"is_disabled":true,"rental_uris":{"android":"levelo://app?vid=768dda3b-d8a0-4769-9ff7-7d19116e329c","ios":"levelo://app?vid=768dda3b-d8a0-4769-9ff7-7d19116e329c"},"vehicle_type_id":"4","last_reported":1732345698,"current_range_meters":36400,"station_id":"ce4bgkp2rcd13ifvqbmg","pricing_plan_id":"cebpf4jnsgd1na2vs0mg"},{"bike_id":"8aabf31a-218c-4566-97fd-40ddd5ab45e5","system_id":"levelo_inurba_marseille","lat":43.30527,"lon":5.36526,"is_reserved":false,"is_disabled":false,"rental_uris":{"android":"levelo://app?vid=8aabf31a-218c-4566-97fd-40ddd5ab45e5","ios":"levelo://app?vid=8aabf31a-218c-4566-97fd-40ddd5ab45e5"},"vehicle_type_id":"4","last_reported":1732345698,"current_range_meters":37600,"station_id":"ce4bgs12rcd13ifvqcag","pricing_plan_id":"cebpf4jnsgd1na2vs0mg"},{"bike_id":"dd4544df-eb9d-4c40-8b48-01c6ba03ca19","system_id":"levelo_inurba_marseille","lat":43.32007,"lon":5.38159,"is_reserved":false,"is_disabled":false,"rental_uris":{"android":"levelo://app?vid=dd4544df-eb9d-4c40-8b48-01c6ba03ca19","ios":"levelo://app?vid=dd4544df-eb9d-4c40-8b48-01c6ba03ca19"},"vehicle_type_id":"4","last_reported":1732345698,"current_range_meters":39200,"station_id":"ce4bhr12rcd13ifvqhpg","pricing_plan_id":"cebpf4jnsgd1na2vs0mg"},{"bike_id":"3128828f-d8b9-488d-99b5-908feaf8d4e0","system_id":"levelo_inurba_marseille","lat":43.30646,"lon":5.40101,"is_reserved":false,"is_disabled":false,"rental_uris":{"android":"levelo://app?vid=3128828f-d8b9-488d-99b5-908feaf8d4e0","ios":"levelo://app?vid=3128828f-d8b9-488d-99b5-908feaf8d4e0"},"vehicle_type_id":"4","last_reported":1732345698,"current_range_meters":37600,"station_id":"ce4bh112rcd13ifvqda0","pricing_plan_id":"cebpf4jnsgd1na2vs0mg"},{"bike_id":"7a00ba27-4c7c-429f-8f08-1db185c9d27a","system_id":"levelo_inurba_marseille","lat":43.288545,"lon":5.393367,"is_reserved":false,"is_disabled":false,"rental_uris":{"android":"levelo://app?vid=7a00ba27-4c7c-429f-8f08-1db185c9d27a","ios":"levelo://app?vid=7a00ba27-4c7c-429f-8f08-1db185c9d27a"},"vehicle_type_id":"4","last_reported":1732345698,"current_range_meters":29600,"station_id":"ce4bh2p2rcd13ifvqdi0","pricing_plan_id":"cebpf4jnsgd1na2vs0mg"},{"bike_id":"aa6a1aa0-aa2a-4282-8c28-7d91f7f22859","system_id":"levelo_inurba_marseille","lat":43.28911,"lon":5.38405,"is_reserved":false,"is_disabled":false,"rental_uris":{"android":"levelo://app?vid=aa6a1aa0-aa2a-4282-8c28-7d91f7f22859","ios":"levelo://app?vid=aa6a1aa0-aa2a-4282-8c28-7d91f7f22859"},"vehicle_type_id":"4","last_reported":1732345698,"current_range_meters":24000,"station_id":"ce4bh612rcd13ifvqe6g","pricing_plan_id":"cebpf4jnsgd1na2vs0mg"},{"bike_id":"d99d745a-edcb-4d3d-bf9d-7fa79bc2aaf5","system_id":"levelo_inurba_marseille","lat":43.31996,"lon":5.38147,"is_reserved":false,"is_disabled":false,"rental_uris":{"android":"levelo://app?vid=d99d745a-edcb-4d3d-bf9d-7fa79bc2aaf5","ios":"levelo://app?vid=d99d745a-edcb-4d3d-bf9d-7fa79bc2aaf5"},"vehicle_type_id":"4","last_reported":1732345698,"current_range_meters":12400,"station_id":"ce4bhr12rcd13ifvqhpg","pricing_plan_id":"cebpf4jnsgd1na2vs0mg"},{"bike_id":"5debe32c-0bd6-47bf-a823-f11af9dcac84","system_id":"levelo_inurba_marseille","lat":43.29431,"lon":5.39749,"is_reserved":false,"is_disabled":false,"rental_uris":{"android":"levelo://app?vid=5debe32c-0bd6-47bf-a823-f11af9dcac84","ios":"levelo://app?vid=5debe32c-0bd6-47bf-a823-f11af9dcac84"},"vehicle_type_id":"4","last_reported":1732345698,"current_range_meters":38800,"station_id":"ce4bh3h2rcd13ifvqdo0","pricing_plan_id":"cebpf4jnsgd1na2vs0mg"},{"bike_id":"8db640b0-0205-49aa-a1c2-12e4b645a9fb","system_id":"levelo_inurba_marseille","lat":43.25088,"lon":5.39511,"is_reserved":false,"is_disabled":false,"rental_uris":{"android":"levelo://app?vid=8db640b0-0205-49aa-a1c2-12e4b645a9fb","ios":"levelo://app?vid=8db640b0-0205-49aa-a1c2-12e4b645a9fb"},"vehicle_type_id":"4","last_reported":1732345698,"current_range_meters":37600,"station_id":"ce4bhm12rcd13ifvqgkg","pricing_plan_id":"cebpf4jnsgd1na2vs0mg"},{"bike_id":"1aa7b156-99d6-49b0-922b-7480afc98a4a","system_id":"levelo_inurba_marseille","lat":43.28453,"lon":5.35888,"is_reserved":false,"is_disabled":false,"rental_uris":{"android":"levelo://app?vid=1aa7b156-99d6-49b0-922b-7480afc98a4a","ios":"levelo://app?vid=1aa7b156-99d6-49b0-922b-7480afc98a4a"},"vehicle_type_id":"4","last_reported":1732345698,"current_range_meters":25200,"station_id":"ce4bhah2rcd13ifvqei0","pricing_plan_id":"cebpf4jnsgd1na2vs0mg"},{"bike_id":"552ae1f9-34eb-4d70-a19b-3616d3661778","system_id":"levelo_inurba_marseille","lat":43.33727,"lon":5.39176,"is_reserved":false,"is_disabled":false,"rental_uris":{"android":"levelo://app?vid=552ae1f9-34eb-4d70-a19b-3616d3661778","ios":"levelo://app?vid=552ae1f9-34eb-4d70-a19b-3616d3661778"},"vehicle_type_id":"4","last_reported":1732345698,"current_range_meters":22400,"station_id":"ce4bhr92rcd13ifvqhsg","pricing_plan_id":"cebpf4jnsgd1na2vs0mg"},{"bike_id":"fed0e774-21f9-4eb7-8495-0f2046103edd","system_id":"levelo_inurba_marseille","lat":43.26167,"lon":5.40504,"is_reserved":false,"is_disabled":false,"rental_uris":{"android":"levelo://app?vid=fed0e774-21f9-4eb7-8495-0f2046103edd","ios":"levelo://app?vid=fed0e774-21f9-4eb7-8495-0f2046103edd"},"vehicle_type_id":"4","last_reported":1732345698,"current_range_meters":24400,"station_id":"","pricing_plan_id":"cebpf4jnsgd1na2vs0mg"},{"bike_id":"f7f3756c-1ec7-4782-9c87-6273f87b6774","system_id":"levelo_inurba_marseille","lat":43.337444,"lon":5.374475,"is_reserved":false,"is_disabled":false,"rental_uris":{"android":"levelo://app?vid=f7f3756c-1ec7-4782-9c87-6273f87b6774","ios":"levelo://app?vid=f7f3756c-1ec7-4782-9c87-6273f87b6774"},"vehicle_type_id":"4","last_reported":1732345698,"current_range_meters":34000,"station_id":"","pricing_plan_id":"cebpf4jnsgd1na2vs0mg"},{"bike_id":"bdca9a5b-dace-4172-b957-73aa4aa4eeb4","system_id":"levelo_inurba_marseille","lat":43.26557,"lon":5.38996,"is_reserved":false,"is_disabled":true,"rental_uris":{"android":"levelo://app?vid=bdca9a5b-dace-4172-b957-73aa4aa4eeb4","ios":"levelo://app?vid=bdca9a5b-dace-4172-b957-73aa4aa4eeb4"},"vehicle_type_id":"4","last_reported":1732345698,"current_range_meters":37600,"station_id":"ce4bhe12rcd13ifvqf30","pricing_plan_id":"cebpf4jnsgd1na2vs0mg"},{"bike_id":"f9c18138-6120-4734-9367-8a3654ff016f","system_id":"levelo_inurba_marseille","lat":43.30637,"lon":5.40066,"is_reserved":false,"is_disabled":false,"rental_uris":{"android":"levelo://app?vid=f9c18138-6120-4734-9367-8a3654ff016f","ios":"levelo://app?vid=f9c18138-6120-4734-9367-8a3654ff016f"},"vehicle_type_id":"4","last_reported":1732345698,"current_range_meters":24000,"station_id":"ce4bh112rcd13ifvqda0","pricing_plan_id":"cebpf4jnsgd1na2vs0mg"},{"bike_id":"e8f826ec-cf1d-427e-a65b-cf83f280be00","system_id":"levelo_inurba_marseille","lat":43.27062,"lon":5.4026,"is_reserved":false,"is_disabled":false,"rental_uris":{"android":"levelo://app?vid=e8f826ec-cf1d-427e-a65b-cf83f280be00","ios":"levelo://app?vid=e8f826ec-cf1d-427e-a65b-cf83f280be00"},"vehicle_type_id":"4","last_reported":1732345698,"current_range_meters":4000,"station_id":"ce4bhk92rcd13ifvqgc0","pricing_plan_id":"cebpf4jnsgd1na2vs0mg"},{"bike_id":"99280cf8-c049-4d28-b9ac-acaa05e32f0f","system_id":"levelo_inurba_marseille","lat":43.29556,"lon":5.42291,"is_reserved":false,"is_disabled":false,"rental_uris":{"android":"levelo://app?vid=99280cf8-c049-4d28-b9ac-acaa05e32f0f","ios":"levelo://app?vid=99280cf8-c049-4d28-b9ac-acaa05e32f0f"},"vehicle_type_id":"4","last_reported":1732345698,"current_range_meters":38400,"station_id":"ce4bhph2rcd13ifvqhdg","pricing_plan_id":"cebpf4jnsgd1na2vs0mg"},{"bike_id":"7321aabf-b088-45e0-9d91-8e497e6d692a","system_id":"levelo_inurba_marseille","lat":43.31755,"lon":5.39019,"is_reserved":false,"is_disabled":false,"rental_uris":{"android":"levelo://app?vid=7321aabf-b088-45e0-9d91-8e497e6d692a","ios":"levelo://app?vid=7321aabf-b088-45e0-9d91-8e497e6d692a"},"vehicle_type_id":"4","last_reported":1732345698,"current_range_meters":27600,"station_id":"ce4bhqp2rcd13ifvqhng","pricing_plan_id":"cebpf4jnsgd1na2vs0mg"},{"bike_id":"0eb61bb6-3d03-4d33-be57-99d7b15d85b5","system_id":"levelo_inurba_marseille","lat":43.22932,"lon":5.35381,"is_reserved":false,"is_disabled":false,"rental_uris":{"android":"levelo://app?vid=0eb61bb6-3d03-4d33-be57-99d7b15d85b5","ios":"levelo://app?vid=0eb61bb6-3d03-4d33-be57-99d7b15d85b5"},"vehicle_type_id":"4","last_reported":1732345698,"current_range_meters":24000,"station_id":"cpo3532slgdg3j2ikp40","pricing_plan_id":"cebpf4jnsgd1na2vs0mg"},{"bike_id":"823ca48e-34f1-449c-a5da-5afdd1a0b554","system_id":"levelo_inurba_marseille","lat":43.32372,"lon":5.38876,"is_reserved":false,"is_disabled":false,"rental_uris":{"android":"levelo://app?vid=823ca48e-34f1-449c-a5da-5afdd1a0b554","ios":"levelo://app?vid=823ca48e-34f1-449c-a5da-5afdd1a0b554"},"vehicle_type_id":"4","last_reported":1732345698,"current_range_meters":29600,"station_id":"ce4bhq92rcd13ifvqhjg","pricing_plan_id":"cebpf4jnsgd1na2vs0mg"},{"bike_id":"e74125a9-74c4-4830-af92-47ce6562e6bd","system_id":"levelo_inurba_marseille","lat":43.24655,"lon":5.38904,"is_reserved":false,"is_disabled":false,"rental_uris":{"android":"levelo://app?vid=e74125a9-74c4-4830-af92-47ce6562e6bd","ios":"levelo://app?vid=e74125a9-74c4-4830-af92-47ce6562e6bd"},"vehicle_type_id":"4","last_reported":1732345698,"current_range_meters":38800,"station_id":"ce4bhg12rcd13ifvqf60","pricing_plan_id":"cebpf4jnsgd1na2vs0mg"},{"bike_id":"d0a02a1b-d6f3-4c9d-bb9a-ed7f952e80a8","system_id":"levelo_inurba_marseille","lat":43.248,"lon":5.37454,"is_reserved":false,"is_disabled":false,"rental_uris":{"android":"levelo://app?vid=d0a02a1b-d6f3-4c9d-bb9a-ed7f952e80a8","ios":"levelo://app?vid=d0a02a1b-d6f3-4c9d-bb9a-ed7f952e80a8"},"vehicle_type_id":"4","last_reported":1732345698,"current_range_meters":38000,"station_id":"ce4bhgh2rcd13ifvqfb0","pricing_plan_id":"cebpf4jnsgd1na2vs0mg"},{"bike_id":"a2c58c6c-a2f6-40b4-994d-3b31e7787b44","system_id":"levelo_inurba_marseille","lat":43.28414,"lon":5.34997,"is_reserved":false,"is_disabled":false,"rental_uris":{"android":"levelo://app?vid=a2c58c6c-a2f6-40b4-994d-3b31e7787b44","ios":"levelo://app?vid=a2c58c6c-a2f6-40b4-994d-3b31e7787b44"},"vehicle_type_id":"4","last_reported":1732345698,"current_range_meters":28400,"station_id":"ce4bhbh2rcd13ifvqepg","pricing_plan_id":"cebpf4jnsgd1na2vs0mg"},{"bike_id":"c2a59ab3-d6b8-4918-82c9-bfcce921601e","system_id":"levelo_inurba_marseille","lat":43.3248,"lon":5.3658,"is_reserved":false,"is_disabled":false,"rental_uris":{"android":"levelo://app?vid=c2a59ab3-d6b8-4918-82c9-bfcce921601e","ios":"levelo://app?vid=c2a59ab3-d6b8-4918-82c9-bfcce921601e"},"vehicle_type_id":"4","last_reported":1732345698,"current_range_meters":12400,"station_id":"ce4bhs12rcd13ifvqhvg","pricing_plan_id":"cebpf4jnsgd1na2vs0mg"},{"bike_id":"f08ab979-fd93-42f2-b04e-15d287a6fa9a","system_id":"levelo_inurba_marseille","lat":43.28471,"lon":5.38405,"is_reserved":false,"is_disabled":false,"rental_uris":{"android":"levelo://app?vid=f08ab979-fd93-42f2-b04e-15d287a6fa9a","ios":"levelo://app?vid=f08ab979-fd93-42f2-b04e-15d287a6fa9a"},"vehicle_type_id":"4","last_reported":1732345698,"current_range_meters":32000,"station_id":"ce4bh512rcd13ifvqe3g","pricing_plan_id":"cebpf4jnsgd1na2vs0mg"},{"bike_id":"58c180dc-c06a-46fe-9701-0fd5163c8626","system_id":"levelo_inurba_marseille","lat":43.295771,"lon":5.423005,"is_reserved":false,"is_disabled":false,"rental_uris":{"android":"levelo://app?vid=58c180dc-c06a-46fe-9701-0fd5163c8626","ios":"levelo://app?vid=58c180dc-c06a-46fe-9701-0fd5163c8626"},"vehicle_type_id":"4","last_reported":1732345698,"current_range_meters":37600,"station_id":"ce4bhph2rcd13ifvqhdg","pricing_plan_id":"cebpf4jnsgd1na2vs0mg"},{"bike_id":"7d2c9f35-0324-45e4-a793-48d5db5b2b97","system_id":"levelo_inurba_marseille","lat":43.29027,"lon":5.38141,"is_reserved":false,"is_disabled":true,"rental_uris":{"android":"levelo://app?vid=7d2c9f35-0324-45e4-a793-48d5db5b2b97","ios":"levelo://app?vid=7d2c9f35-0324-45e4-a793-48d5db5b2b97"},"vehicle_type_id":"4","last_reported":1732345698,"current_range_meters":25200,"station_id":"ce4bh4p2rcd13ifvqe1g","pricing_plan_id":"cebpf4jnsgd1na2vs0mg"},{"bike_id":"252c8262-fde7-42db-851f-9022b4276b02","system_id":"levelo_inurba_marseille","lat":43.26961,"lon":5.38642,"is_reserved":false,"is_disabled":false,"rental_uris":{"android":"levelo://app?vid=252c8262-fde7-42db-851f-9022b4276b02","ios":"levelo://app?vid=252c8262-fde7-42db-851f-9022b4276b02"},"vehicle_type_id":"4","last_reported":1732345698,"current_range_meters":14400,"station_id":"ce4bhh92rcd13ifvqfh0","pricing_plan_id":"cebpf4jnsgd1na2vs0mg"},{"bike_id":"b60466ef-8514-4f53-ab0a-ebf1071dc205","system_id":"levelo_inurba_marseille","lat":43.32362,"lon":5.38881,"is_reserved":false,"is_disabled":false,"rental_uris":{"android":"levelo://app?vid=b60466ef-8514-4f53-ab0a-ebf1071dc205","ios":"levelo://app?vid=b60466ef-8514-4f53-ab0a-ebf1071dc205"},"vehicle_type_id":"4","last_reported":1732345698,"current_range_meters":30800,"station_id":"ce4bhqp2rcd13ifvqhog","pricing_plan_id":"cebpf4jnsgd1na2vs0mg"},{"bike_id":"04b8d8ff-e990-4846-b920-74069d8c09a4","system_id":"levelo_inurba_marseille","lat":43.30143,"lon":5.39848,"is_reserved":false,"is_disabled":false,"rental_uris":{"android":"levelo://app?vid=04b8d8ff-e990-4846-b920-74069d8c09a4","ios":"levelo://app?vid=04b8d8ff-e990-4846-b920-74069d8c09a4"},"vehicle_type_id":"4","last_reported":1732345698,"current_range_meters":38400,"station_id":"ce4bh0h2rcd13ifvqd40","pricing_plan_id":"cebpf4jnsgd1na2vs0mg"},{"bike_id":"20db0e6b-7fc1-4f13-aeb2-811ab390dd13","system_id":"levelo_inurba_marseille","lat":43.324834,"lon":5.36568,"is_reserved":false,"is_disabled":false,"rental_uris":{"android":"levelo://app?vid=20db0e6b-7fc1-4f13-aeb2-811ab390dd13","ios":"levelo://app?vid=20db0e6b-7fc1-4f13-aeb2-811ab390dd13"},"vehicle_type_id":"4","last_reported":1732345698,"current_range_meters":36800,"station_id":"ce4bhs12rcd13ifvqhvg","pricing_plan_id":"cebpf4jnsgd1na2vs0mg"},{"bike_id":"0b0796e8-4aa1-47ec-bf36-a7060666faa4","system_id":"levelo_inurba_marseille","lat":43.2922,"lon":5.36077,"is_reserved":false,"is_disabled":false,"rental_uris":{"android":"levelo://app?vid=0b0796e8-4aa1-47ec-bf36-a7060666faa4","ios":"levelo://app?vid=0b0796e8-4aa1-47ec-bf36-a7060666faa4"},"vehicle_type_id":"4","last_reported":1732345698,"current_range_meters":36400,"station_id":"ce4bhbh2rcd13ifvqeqg","pricing_plan_id":"cebpf4jnsgd1na2vs0mg"},{"bike_id":"13b751d7-077d-4f29-8350-fc32ddaecb6a","system_id":"levelo_inurba_marseille","lat":43.26552,"lon":5.37289,"is_reserved":false,"is_disabled":false,"rental_uris":{"android":"levelo://app?vid=13b751d7-077d-4f29-8350-fc32ddaecb6a","ios":"levelo://app?vid=13b751d7-077d-4f29-8350-fc32ddaecb6a"},"vehicle_type_id":"4","last_reported":1732345698,"current_range_meters":36000,"station_id":"ce4bhg12rcd13ifvqf70","pricing_plan_id":"cebpf4jnsgd1na2vs0mg"},{"bike_id":"e5951ee3-4a5a-4ebb-b469-096c5188dfa3","system_id":"levelo_inurba_marseille","lat":43.23191,"lon":5.35562,"is_reserved":false,"is_disabled":false,"rental_uris":{"android":"levelo://app?vid=e5951ee3-4a5a-4ebb-b469-096c5188dfa3","ios":"levelo://app?vid=e5951ee3-4a5a-4ebb-b469-096c5188dfa3"},"vehicle_type_id":"4","last_reported":1732345698,"current_range_meters":24800,"station_id":"ce4bhu92rcd13ifvqi70","pricing_plan_id":"cebpf4jnsgd1na2vs0mg"},{"bike_id":"31753f3e-d401-4c50-b90a-b53a739d594a","system_id":"levelo_inurba_marseille","lat":43.28301,"lon":5.43214,"is_reserved":false,"is_disabled":false,"rental_uris":{"android":"levelo://app?vid=31753f3e-d401-4c50-b90a-b53a739d594a","ios":"levelo://app?vid=31753f3e-d401-4c50-b90a-b53a739d594a"},"vehicle_type_id":"4","last_reported":1732345698,"current_range_meters":25200,"station_id":"","pricing_plan_id":"cebpf4jnsgd1na2vs0mg"},{"bike_id":"bf9491c2-211c-40b6-a87f-b167fabb26bf","system_id":"levelo_inurba_marseille","lat":43.26809,"lon":5.40255,"is_reserved":false,"is_disabled":false,"rental_uris":{"android":"levelo://app?vid=bf9491c2-211c-40b6-a87f-b167fabb26bf","ios":"levelo://app?vid=bf9491c2-211c-40b6-a87f-b167fabb26bf"},"vehicle_type_id":"4","last_reported":1732345698,"current_range_meters":27200,"station_id":"ce501612rcd8frsf0b60","pricing_plan_id":"cebpf4jnsgd1na2vs0mg"},{"bike_id":"c2783b38-4249-458f-a0db-abc1d98992c4","system_id":"levelo_inurba_marseille","lat":43.29198,"lon":5.35791,"is_reserved":false,"is_disabled":false,"rental_uris":{"android":"levelo://app?vid=c2783b38-4249-458f-a0db-abc1d98992c4","ios":"levelo://app?vid=c2783b38-4249-458f-a0db-abc1d98992c4"},"vehicle_type_id":"4","last_reported":1732345698,"current_range_meters":16000,"station_id":"ce4bhb12rcd13ifvqel0","pricing_plan_id":"cebpf4jnsgd1na2vs0mg"},{"bike_id":"598543c3-4504-4ea3-976e-b45e767de5ed","system_id":"levelo_inurba_marseille","lat":43.32362,"lon":5.38885,"is_reserved":false,"is_disabled":false,"rental_uris":{"android":"levelo://app?vid=598543c3-4504-4ea3-976e-b45e767de5ed","ios":"levelo://app?vid=598543c3-4504-4ea3-976e-b45e767de5ed"},"vehicle_type_id":"4","last_reported":1732345698,"current_range_meters":32000,"station_id":"ce4bhqp2rcd13ifvqhog","pricing_plan_id":"cebpf4jnsgd1na2vs0mg"},{"bike_id":"a9748626-bc71-417f-b5da-457016318390","system_id":"levelo_inurba_marseille","lat":43.24177,"lon":5.39737,"is_reserved":false,"is_disabled":false,"rental_uris":{"android":"levelo://app?vid=a9748626-bc71-417f-b5da-457016318390","ios":"levelo://app?vid=a9748626-bc71-417f-b5da-457016318390"},"vehicle_type_id":"4","last_reported":1732345698,"current_range_meters":29600,"station_id":"ce4bhn12rcd13ifvqgpg","pricing_plan_id":"cebpf4jnsgd1na2vs0mg"},{"bike_id":"44abef4f-7bb3-417f-9f17-632a234b6e5d","system_id":"levelo_inurba_marseille","lat":43.32107,"lon":5.36773,"is_reserved":false,"is_disabled":false,"rental_uris":{"android":"levelo://app?vid=44abef4f-7bb3-417f-9f17-632a234b6e5d","ios":"levelo://app?vid=44abef4f-7bb3-417f-9f17-632a234b6e5d"},"vehicle_type_id":"4","last_reported":1732345698,"current_range_meters":17600,"station_id":"ce4bhrh2rcd13ifvqhug","pricing_plan_id":"cebpf4jnsgd1na2vs0mg"},{"bike_id":"830ab6f1-9f97-4b81-a374-96032fba99d2","system_id":"levelo_inurba_marseille","lat":43.24469,"lon":5.36926,"is_reserved":false,"is_disabled":true,"rental_uris":{"android":"levelo://app?vid=830ab6f1-9f97-4b81-a374-96032fba99d2","ios":"levelo://app?vid=830ab6f1-9f97-4b81-a374-96032fba99d2"},"vehicle_type_id":"4","last_reported":1732345698,"current_range_meters":23200,"station_id":"","pricing_plan_id":"cebpf4jnsgd1na2vs0mg"},{"bike_id":"6c948e9c-d5b3-4fe5-a918-1bd2f7c83b02","system_id":"levelo_inurba_marseille","lat":43.321075,"lon":5.367775,"is_reserved":false,"is_disabled":false,"rental_uris":{"android":"levelo://app?vid=6c948e9c-d5b3-4fe5-a918-1bd2f7c83b02","ios":"levelo://app?vid=6c948e9c-d5b3-4fe5-a918-1bd2f7c83b02"},"vehicle_type_id":"4","last_reported":1732345698,"current_range_meters":34800,"station_id":"ce4bhrh2rcd13ifvqhug","pricing_plan_id":"cebpf4jnsgd1na2vs0mg"},{"bike_id":"9e620abf-d324-4f99-84fc-d67e71109f2a","system_id":"levelo_inurba_marseille","lat":43.31079,"lon":5.42425,"is_reserved":false,"is_disabled":true,"rental_uris":{"android":"levelo://app?vid=9e620abf-d324-4f99-84fc-d67e71109f2a","ios":"levelo://app?vid=9e620abf-d324-4f99-84fc-d67e71109f2a"},"vehicle_type_id":"4","last_reported":1732345698,"current_range_meters":0,"station_id":"ce4bhp92rcd13ifvqhag","pricing_plan_id":"cebpf4jnsgd1na2vs0mg"},{"bike_id":"9388a7ff-9c5c-4c26-9899-39b2408cf7e3","system_id":"levelo_inurba_marseille","lat":43.31025,"lon":5.38342,"is_reserved":false,"is_disabled":true,"rental_uris":{"android":"levelo://app?vid=9388a7ff-9c5c-4c26-9899-39b2408cf7e3","ios":"levelo://app?vid=9388a7ff-9c5c-4c26-9899-39b2408cf7e3"},"vehicle_type_id":"4","last_reported":1732345698,"current_range_meters":0,"station_id":"","pricing_plan_id":"cebpf4jnsgd1na2vs0mg"},{"bike_id":"510e9f28-21eb-4f2f-8550-9e4424ec416c","system_id":"levelo_inurba_marseille","lat":43.23961,"lon":5.36648,"is_reserved":false,"is_disabled":false,"rental_uris":{"android":"levelo://app?vid=510e9f28-21eb-4f2f-8550-9e4424ec416c","ios":"levelo://app?vid=510e9f28-21eb-4f2f-8550-9e4424ec416c"},"vehicle_type_id":"4","last_reported":1732345698,"current_range_meters":39200,"station_id":"ce4bhi12rcd13ifvqfp0","pricing_plan_id":"cebpf4jnsgd1na2vs0mg"},{"bike_id":"5107f061-ec16-425c-94c0-96240520b5b6","system_id":"levelo_inurba_marseille","lat":43.2467,"lon":5.38155,"is_reserved":false,"is_disabled":false,"rental_uris":{"android":"levelo://app?vid=5107f061-ec16-425c-94c0-96240520b5b6","ios":"levelo://app?vid=5107f061-ec16-425c-94c0-96240520b5b6"},"vehicle_type_id":"4","last_reported":1732345698,"current_range_meters":20800,"station_id":"ce4bhih2rcd13ifvqfr0","pricing_plan_id":"cebpf4jnsgd1na2vs0mg"},{"bike_id":"b655e67f-3daa-4d19-94e5-9c754246564d","system_id":"levelo_inurba_marseille","lat":43.32366,"lon":5.38891,"is_reserved":false,"is_disabled":false,"rental_uris":{"android":"levelo://app?vid=b655e67f-3daa-4d19-94e5-9c754246564d","ios":"levelo://app?vid=b655e67f-3daa-4d19-94e5-9c754246564d"},"vehicle_type_id":"4","last_reported":1732345698,"current_range_meters":16000,"station_id":"ce4bhqp2rcd13ifvqhog","pricing_plan_id":"cebpf4jnsgd1na2vs0mg"},{"bike_id":"164d8ecf-9ef9-4eba-a6de-29c17c03ee13","system_id":"levelo_inurba_marseille","lat":43.26027,"lon":5.37548,"is_reserved":false,"is_disabled":false,"rental_uris":{"android":"levelo://app?vid=164d8ecf-9ef9-4eba-a6de-29c17c03ee13","ios":"levelo://app?vid=164d8ecf-9ef9-4eba-a6de-29c17c03ee13"},"vehicle_type_id":"4","last_reported":1732345698,"current_range_meters":10800,"station_id":"ce4bhgh2rcd13ifvqfa0","pricing_plan_id":"cebpf4jnsgd1na2vs0mg"},{"bike_id":"5d97dd4f-62d2-4805-a5fe-afd07ea27b51","system_id":"levelo_inurba_marseille","lat":43.280362,"lon":5.369446,"is_reserved":false,"is_disabled":false,"rental_uris":{"android":"levelo://app?vid=5d97dd4f-62d2-4805-a5fe-afd07ea27b51","ios":"levelo://app?vid=5d97dd4f-62d2-4805-a5fe-afd07ea27b51"},"vehicle_type_id":"4","last_reported":1732345698,"current_range_meters":38000,"station_id":"ce4bha12rcd13ifvqef0","pricing_plan_id":"cebpf4jnsgd1na2vs0mg"},{"bike_id":"be4ab83e-8eac-4570-8e86-d490585c7602","system_id":"levelo_inurba_marseille","lat":43.284575,"lon":5.358913,"is_reserved":false,"is_disabled":false,"rental_uris":{"android":"levelo://app?vid=be4ab83e-8eac-4570-8e86-d490585c7602","ios":"levelo://app?vid=be4ab83e-8eac-4570-8e86-d490585c7602"},"vehicle_type_id":"4","last_reported":1732345698,"current_range_meters":23200,"station_id":"ce4bhah2rcd13ifvqei0","pricing_plan_id":"cebpf4jnsgd1na2vs0mg"},{"bike_id":"5c53cfbd-2547-413a-b79a-f8cc3b1ca992","system_id":"levelo_inurba_marseille","lat":43.32104,"lon":5.36774,"is_reserved":false,"is_disabled":false,"rental_uris":{"android":"levelo://app?vid=5c53cfbd-2547-413a-b79a-f8cc3b1ca992","ios":"levelo://app?vid=5c53cfbd-2547-413a-b79a-f8cc3b1ca992"},"vehicle_type_id":"4","last_reported":1732345698,"current_range_meters":11200,"station_id":"ce4bhrh2rcd13ifvqhug","pricing_plan_id":"cebpf4jnsgd1na2vs0mg"},{"bike_id":"e0b9eeec-d583-4d8c-8128-8821fd6a95c8","system_id":"levelo_inurba_marseille","lat":43.30878,"lon":5.39641,"is_reserved":false,"is_disabled":false,"rental_uris":{"android":"levelo://app?vid=e0b9eeec-d583-4d8c-8128-8821fd6a95c8","ios":"levelo://app?vid=e0b9eeec-d583-4d8c-8128-8821fd6a95c8"},"vehicle_type_id":"4","last_reported":1732345698,"current_range_meters":36400,"station_id":"ce4bh012rcd13ifvqcv0","pricing_plan_id":"cebpf4jnsgd1na2vs0mg"},{"bike_id":"61a35f1c-54d8-4a01-80b9-5352ba3741f9","system_id":"levelo_inurba_marseille","lat":43.31162,"lon":5.38705,"is_reserved":false,"is_disabled":false,"rental_uris":{"android":"levelo://app?vid=61a35f1c-54d8-4a01-80b9-5352ba3741f9","ios":"levelo://app?vid=61a35f1c-54d8-4a01-80b9-5352ba3741f9"},"vehicle_type_id":"4","last_reported":1732345698,"current_range_meters":27200,"station_id":"ce4bgv12rcd13ifvqcp0","pricing_plan_id":"cebpf4jnsgd1na2vs0mg"},{"bike_id":"85c01c0b-dd5c-4809-bf61-68287b12d903","system_id":"levelo_inurba_marseille","lat":43.323654,"lon":5.388955,"is_reserved":false,"is_disabled":false,"rental_uris":{"android":"levelo://app?vid=85c01c0b-dd5c-4809-bf61-68287b12d903","ios":"levelo://app?vid=85c01c0b-dd5c-4809-bf61-68287b12d903"},"vehicle_type_id":"4","last_reported":1732345698,"current_range_meters":32000,"station_id":"ce4bhqp2rcd13ifvqhog","pricing_plan_id":"cebpf4jnsgd1na2vs0mg"},{"bike_id":"04fdc141-2db7-47f0-9ac7-e960912465c9","system_id":"levelo_inurba_marseille","lat":43.30607,"lon":5.37223,"is_reserved":false,"is_disabled":false,"rental_uris":{"android":"levelo://app?vid=04fdc141-2db7-47f0-9ac7-e960912465c9","ios":"levelo://app?vid=04fdc141-2db7-47f0-9ac7-e960912465c9"},"vehicle_type_id":"4","last_reported":1732345698,"current_range_meters":10800,"station_id":"ce4bgqh2rcd13ifvqc4g","pricing_plan_id":"cebpf4jnsgd1na2vs0mg"},{"bike_id":"457e3481-7dc4-4647-b956-d9e2e31fc989","system_id":"levelo_inurba_marseille","lat":43.275661,"lon":5.384266,"is_reserved":false,"is_disabled":false,"rental_uris":{"android":"levelo://app?vid=457e3481-7dc4-4647-b956-d9e2e31fc989","ios":"levelo://app?vid=457e3481-7dc4-4647-b956-d9e2e31fc989"},"vehicle_type_id":"4","last_reported":1732345698,"current_range_meters":28400,"station_id":"ce4bhh92rcd13ifvqfi0","pricing_plan_id":"cebpf4jnsgd1na2vs0mg"},{"bike_id":"1da22032-27e7-48f9-b965-f42f92d4fc92","system_id":"levelo_inurba_marseille","lat":43.28931,"lon":5.36634,"is_reserved":false,"is_disabled":false,"rental_uris":{"android":"levelo://app?vid=1da22032-27e7-48f9-b965-f42f92d4fc92","ios":"levelo://app?vid=1da22032-27e7-48f9-b965-f42f92d4fc92"},"vehicle_type_id":"4","last_reported":1732345698,"current_range_meters":39200,"station_id":"ce4bhap2rcd13ifvqek0","pricing_plan_id":"cebpf4jnsgd1na2vs0mg"},{"bike_id":"62100017-c228-4778-8fb1-55628752a109","system_id":"levelo_inurba_marseille","lat":43.2959,"lon":5.38105,"is_reserved":false,"is_disabled":false,"rental_uris":{"android":"levelo://app?vid=62100017-c228-4778-8fb1-55628752a109","ios":"levelo://app?vid=62100017-c228-4778-8fb1-55628752a109"},