{"last_updated":1733393475,"ttl":60,"version":"2.2","data":{"bikes":[{"bike_id":"54858954-07fd-4c32-b78a-09cbe1718dfe","system_id":"levelo_inurba_marseille","lat":43.28708,"lon":5.37936,"is_reserved":false,"is_disabled":false,"rental_uris":{"android":"levelo://app?vid=54858954-07fd-4c32-b78a-09cbe1718dfe","ios":"levelo://app?vid=54858954-07fd-4c32-b78a-09cbe1718dfe"},"vehicle_type_id":"4","last_reported":1733393475,"current_range_meters":30800,"station_id":"ce4bh9p2rcd13ifvqec0","pricing_plan_id":"cebpf4jnsgd1na2vs0mg"},{"bike_id":"ded4ccce-ef33-4150-be34-864d499fb5c3","system_id":"levelo_inurba_marseille","lat":43.3053,"lon":5.3654,"is_reserved":false,"is_disabled":false,"rental_uris":{"android":"levelo://app?vid=ded4ccce-ef33-4150-be34-864d499fb5c3","ios":"levelo://app?vid=ded4ccce-ef33-4150-be34-864d499fb5c3"},"vehicle_type_id":"4","last_reported":1733393475,"current_range_meters":24400,"station_id":"ce4bgs12rcd13ifvqcag","pricing_plan_id":"cebpf4jnsgd1na2vs0mg"},{"bike_id":"a91fa1e8-32b4-471d-9ab1-72d0db7092c4","system_id":"levelo_inurba_marseille","lat":43.25931,"lon":5.40907,"is_reserved":false,"is_disabled":false,"rental_uris":{"android":"levelo://app?vid=a91fa1e8-32b4-471d-9ab1-72d0db7092c4","ios":"levelo://app?vid=a91fa1e8-32b4-471d-9ab1-72d0db7092c4"},"vehicle_type_id":"4","last_reported":1733393475,"current_range_meters":34000,"station_id":"ce4bhm92rcd13ifvqglg","pricing_plan_id":"cebpf4jnsgd1na2vs0mg"},{"bike_id":"8245d6e5-f614-4eaf-afa3-6e70ad483756","system_id":"levelo_inurba_marseille","lat":43.3095,"lon":5.39037,"is_reserved":false,"is_disabled":false,"rental_uris":{"android":"levelo://app?vid=8245d6e5-f614-4eaf-afa3-6e70ad483756","ios":"levelo://app?vid=8245d6e5-f614-4eaf-afa3-6e70ad483756"},"vehicle_type_id":"4","last_reported":1733393475,"current_range_meters":21600,"station_id":"ce4bgup2rcd13ifvqco0","pricing_plan_id":"cebpf4jnsgd1na2vs0mg"},{"bike_id":"df479c2c-35ac-44ad-b9d6-81c89ed769ce","system_id":"levelo_inurba_marseille","lat":43.29699,"lon":5.37054,"is_reserved":false,"is_disabled":true,"rental_uris":{"android":"levelo://app?vid=df479c2c-35ac-44ad-b9d6-81c89ed769ce","ios":"levelo://app?vid=df479c2c-35ac-44ad-b9d6-81c89ed769ce"},"vehicle_type_id":"4","last_reported":1733393475,"current_range_meters":0,"station_id":"","pricing_plan_id":"cebpf4jnsgd1na2vs0mg"},{"bike_id":"8e029eaf-e104-4c5d-858d-6cd39de73d09","system_id":"levelo_inurba_marseille","lat":43.24158,"lon":5.36408,"is_reserved":false,"is_disabled":false,"rental_uris":{"android":"levelo://app?vid=8e029eaf-e104-4c5d-858d-6cd39de73d09","ios":"levelo://app?vid=8e029eaf-e104-4c5d-858d-6cd39de73d09"},"vehicle_type_id":"4","last_reported":1733393475,"current_range_meters":6800,"station_id":"cpo36qri1sfpv3e86is0","pricing_plan_id":"cebpf4jnsgd1na2vs0mg"},{"bike_id":"e00b4e6b-695c-49c1-a7d5-b6b0ae9c113e","system_id":"levelo_inurba_marseille","lat":43.2731,"lon":5.39087,"is_reserved":false,"is_disabled":false,"rental_uris":{"android":"levelo://app?vid=e00b4e6b-695c-49c1-a7d5-b6b0ae9c113e","ios":"levelo://app?vid=e00b4e6b-695c-49c1-a7d5-b6b0ae9c113e"},"vehicle_type_id":"4","last_reported":1733393475,"current_range_meters":35600,"station_id":"ce4bhgp2rcd13ifvqfe0","pricing_plan_id":"cebpf4jnsgd1na2vs0mg"},{"bike_id":"4a3d7eaa-bb5f-41b6-be59-465937993cdb","system_id":"levelo_inurba_marseille","lat":43.30938,"lon":5.40158,"is_reserved":false,"is_disabled":false,"rental_uris":{"android":"levelo://app?vid=4a3d7eaa-bb5f-41b6-be59-465937993cdb","ios":"levelo://app?vid=4a3d7eaa-bb5f-41b6-be59-465937993cdb"},"vehicle_type_id":"4","last_reported":1733393475,"current_range_meters":38800,"station_id":"ce4bgvp2rcd13ifvqct0","pricing_plan_id":"cebpf4jnsgd1na2vs0mg"},{"bike_id":"f7f1177a-9fa2-4c01-9bd7-56528650247f","system_id":"levelo_inurba_marseille","lat":43.26552,"lon":5.37286,"is_reserved":false,"is_disabled":false,"rental_uris":{"android":"levelo://app?vid=f7f1177a-9fa2-4c01-9bd7-56528650247f","ios":"levelo://app?vid=f7f1177a-9fa2-4c01-9bd7-56528650247f"},"vehicle_type_id":"4","last_reported":1733393475,"current_range_meters":11600,"station_id":"ce4bhg12rcd13ifvqf70","pricing_plan_id":"cebpf4jnsgd1na2vs0mg"},{"bike_id":"20010121-f0d7-4396-9e39-25a4a79f4ca0","system_id":"levelo_inurba_marseille","lat":43.27981,"lon":5.38746,"is_reserved":false,"is_disabled":false,"rental_uris":{"android":"levelo://app?vid=20010121-f0d7-4396-9e39-25a4a79f4ca0","ios":"levelo://app?vid=20010121-f0d7-4396-9e39-25a4a79f4ca0"},"vehicle_type_id":"4","last_reported":1733393475,"current_range_meters":11200,"station_id":"ce4bhg12rcd13ifvqf80","pricing_plan_id":"cebpf4jnsgd1na2vs0mg"},{"bike_id":"b03a6a4e-535b-4e1a-a28b-ae3d5f12709c","system_id":"levelo_inurba_marseille","lat":43.30273,"lon":5.38923,"is_reserved":false,"is_disabled":false,"rental_uris":{"android":"levelo://app?vid=b03a6a4e-535b-4e1a-a28b-ae3d5f12709c","ios":"levelo://app?vid=b03a6a4e-535b-4e1a-a28b-ae3d5f12709c"},"vehicle_type_id":"4","last_reported":1733393475,"current_range_meters":16400,"station_id":"","pricing_plan_id":"cebpf4jnsgd1na2vs0mg"},{"bike_id":"be407bbe-d1ce-48de-8db2-09114af9efd7","system_id":"levelo_inurba_marseille","lat":43.32364,"lon":5.36762,"is_reserved":false,"is_disabled":false,"rental_uris":{"android":"levelo://app?vid=be407bbe-d1ce-48de-8db2-09114af9efd7","ios":"levelo://app?vid=be407bbe-d1ce-48de-8db2-09114af9efd7"},"vehicle_type_id":"4","last_reported":1733393475,"current_range_meters":29600,"station_id":"ce4bhsh2rcd13ifvqi2g","pricing_plan_id":"cebpf4jnsgd1na2vs0mg"},{"bike_id":"6e9419b7-ce6d-4c9c-abdc-b6e4707d4576","system_id":"levelo_inurba_marseille","lat":43.25934,"lon":5.4091,"is_reserved":false,"is_disabled":true,"rental_uris":{"android":"levelo://app?vid=6e9419b7-ce6d-4c9c-abdc-b6e4707d4576","ios":"levelo://app?vid=6e9419b7-ce6d-4c9c-abdc-b6e4707d4576"},"vehicle_type_id":"4","last_reported":1733393475,"current_range_meters":800,"station_id":"ce4bhm92rcd13ifvqglg","pricing_plan_id":"cebpf4jnsgd1na2vs0mg"},{"bike_id":"f3bad640-db68-47b8-8f51-4546567c6911","system_id":"levelo_inurba_marseille","lat":43.25932,"lon":5.40915,"is_reserved":false,"is_disabled":false,"rental_uris":{"android":"levelo://app?vid=f3bad640-db68-47b8-8f51-4546567c6911","ios":"levelo://app?vid=f3bad640-db68-47b8-8f51-4546567c6911"},"vehicle_type_id":"4","last_reported":1733393475,"current_range_meters":16400,"station_id":"ce4bhm92rcd13ifvqglg","pricing_plan_id":"cebpf4jnsgd1na2vs0mg"},{"bike_id":"68f678e3-7cf8-437b-bd31-a925eeae1553","system_id":"levelo_inurba_marseille","lat":43.30528,"lon":5.36715,"is_reserved":false,"is_disabled":true,"rental_uris":{"android":"levelo://app?vid=68f678e3-7cf8-437b-bd31-a925eeae1553","ios":"levelo://app?vid=68f678e3-7cf8-437b-bd31-a925eeae1553"},"vehicle_type_id":"4","last_reported":1733393475,"current_range_meters":1200,"station_id":"ce4bgrp2rcd13ifvqc9g","pricing_plan_id":"cebpf4jnsgd1na2vs0mg"},{"bike_id":"8bd642b2-0279-44c7-9ee2-fc3b57332c83","system_id":"levelo_inurba_marseille","lat":43.27455,"lon":5.40073,"is_reserved":false,"is_disabled":true,"rental_uris":{"android":"levelo://app?vid=8bd642b2-0279-44c7-9ee2-fc3b57332c83","ios":"levelo://app?vid=8bd642b2-0279-44c7-9ee2-fc3b57332c83"},"vehicle_type_id":"4","last_reported":1733393475,"current_range_meters":0,"station_id":"","pricing_plan_id":"cebpf4jnsgd1na2vs0mg"},{"bike_id":"e092f375-5b54-4e37-b620-820befc91920","system_id":"levelo_inurba_marseille","lat":43.2573,"lon":5.41106,"is_reserved":false,"is_disabled":false,"rental_uris":{"android":"levelo://app?vid=e092f375-5b54-4e37-b620-820befc91920","ios":"levelo://app?vid=e092f375-5b54-4e37-b620-820befc91920"},"vehicle_type_id":"4","last_reported":1733393475,"current_range_meters":38800,"station_id":"ce4bhkp2rcd13ifvqgd0","pricing_plan_id":"cebpf4jnsgd1na2vs0mg"},{"bike_id":"44ac1369-b1ce-4ecb-b751-50b3b3b010cf","system_id":"levelo_inurba_marseille","lat":43.29579,"lon":5.36744,"is_reserved":false,"is_disabled":false,"rental_uris":{"android":"levelo://app?vid=44ac1369-b1ce-4ecb-b751-50b3b3b010cf","ios":"levelo://app?vid=44ac1369-b1ce-4ecb-b751-50b3b3b010cf"},"vehicle_type_id":"4","last_reported":1733393475,"current_range_meters":37600,"station_id":"ce4bgph2rcd13ifvqc2g","pricing_plan_id":"cebpf4jnsgd1na2vs0mg"},{"bike_id":"8bbcdd79-5778-429d-a122-261540288044","system_id":"levelo_inurba_marseille","lat":43.29371,"lon":5.37838,"is_reserved":false,"is_disabled":false,"rental_uris":{"android":"levelo://app?vid=8bbcdd79-5778-429d-a122-261540288044","ios":"levelo://app?vid=8bbcdd79-5778-429d-a122-261540288044"},"vehicle_type_id":"4","last_reported":1733393475,"current_range_meters":27200,"station_id":"ce4bgjh2rcd13ifvqbf0","pricing_plan_id":"cebpf4jnsgd1na2vs0mg"},{"bike_id":"53220da6-87cf-42af-ad72-d41216f5f0d3","system_id":"levelo_inurba_marseille","lat":43.25575,"lon":5.38238,"is_reserved":false,"is_disabled":false,"rental_uris":{"android":"levelo://app?vid=53220da6-87cf-42af-ad72-d41216f5f0d3","ios":"levelo://app?vid=53220da6-87cf-42af-ad72-d41216f5f0d3"},"vehicle_type_id":"4","last_reported":1733393475,"current_range_meters":4000,"station_id":"ce4bhih2rcd13ifvqfs0","pricing_plan_id":"cebpf4jnsgd1na2vs0mg"},{"bike_id":"387192c7-8c32-4972-b158-c19d91b7aafd","system_id":"levelo_inurba_marseille","lat":43.31227,"lon":5.36863,"is_reserved":false,"is_disabled":false,"rental_uris":{"android":"levelo://app?vid=387192c7-8c32-4972-b158-c19d91b7aafd","ios":"levelo://app?vid=387192c7-8c32-4972-b158-c19d91b7aafd"},"vehicle_type_id":"4","last_reported":1733393475,"current_range_meters":26000,"station_id":"ce4bgl92rcd13ifvqbq0","pricing_plan_id":"cebpf4jnsgd1na2vs0mg"},{"bike_id":"a18b4934-8c0c-4c61-b008-883eebb45560","system_id":"levelo_inurba_marseille","lat":43.23193,"lon":5.39975,"is_reserved":false,"is_disabled":false,"rental_uris":{"android":"levelo://app?vid=a18b4934-8c0c-4c61-b008-883eebb45560","ios":"levelo://app?vid=a18b4934-8c0c-4c61-b008-883eebb45560"},"vehicle_type_id":"4","last_reported":1733393475,"current_range_meters":38800,"station_id":"ce4bhn12rcd13ifvqgqg","pricing_plan_id":"cebpf4jnsgd1na2vs0mg"},{"bike_id":"62b21634-011c-4256-9681-1334282b78aa","system_id":"levelo_inurba_marseille","lat":43.2749,"lon":5.42456,"is_reserved":false,"is_disabled":false,"rental_uris":{"android":"levelo://app?vid=62b21634-011c-4256-9681-1334282b78aa","ios":"levelo://app?vid=62b21634-011c-4256-9681-1334282b78aa"},"vehicle_type_id":"4","last_reported":1733393475,"current_range_meters":24000,"station_id":"ce4bhn92rcd13ifvqgrg","pricing_plan_id":"cebpf4jnsgd1na2vs0mg"},{"bike_id":"e712a2d5-efd3-40a5-8c91-32f994a7b73f","system_id":"levelo_inurba_marseille","lat":43.279941,"lon":5.416676,"is_reserved":false,"is_disabled":false,"rental_uris":{"android":"levelo://app?vid=e712a2d5-efd3-40a5-8c91-32f994a7b73f","ios":"levelo://app?vid=e712a2d5-efd3-40a5-8c91-32f994a7b73f"},"vehicle_type_id":"4","last_reported":1733393475,"current_range_meters":28000,"station_id":"ce4bho12rcd13ifvqh1g","pricing_plan_id":"cebpf4jnsgd1na2vs0mg"},{"bike_id":"28b52837-d828-49e4-b4be-cfbac010c328","system_id":"levelo_inurba_marseille","lat":43.3372,"lon":5.39191,"is_reserved":false,"is_disabled":false,"rental_uris":{"android":"levelo://app?vid=28b52837-d828-49e4-b4be-cfbac010c328","ios":"levelo://app?vid=28b52837-d828-49e4-b4be-cfbac010c328"},"vehicle_type_id":"4","last_reported":1733393475,"current_range_meters":30400,"station_id":"ce4bhr92rcd13ifvqhsg","pricing_plan_id":"cebpf4jnsgd1na2vs0mg"},{"bike_id":"b3f478ac-3b05-4edf-bdbf-76399090f8e9","system_id":"levelo_inurba_marseille","lat":43.29994,"lon":5.37639,"is_reserved":false,"is_disabled":true,"rental_uris":{"android":"levelo://app?vid=b3f478ac-3b05-4edf-bdbf-76399090f8e9","ios":"levelo://app?vid=b3f478ac-3b05-4edf-bdbf-76399090f8e9"},"vehicle_type_id":"4","last_reported":1733393475,"current_range_meters":0,"station_id":"","pricing_plan_id":"cebpf4jnsgd1na2vs0mg"},{"bike_id":"75c4f34a-89f4-4145-a2e2-7dafbc1cdf90","system_id":"levelo_inurba_marseille","lat":43.29006,"lon":5.37256,"is_reserved":false,"is_disabled":true,"rental_uris":{"android":"levelo://app?vid=75c4f34a-89f4-4145-a2e2-7dafbc1cdf90","ios":"levelo://app?vid=75c4f34a-89f4-4145-a2e2-7dafbc1cdf90"},"vehicle_type_id":"4","last_reported":1733393475,"current_range_meters":0,"station_id":"","pricing_plan_id":"cebpf4jnsgd1na2vs0mg"},{"bike_id":"b11adee5-2cbf-4203-9c73-0f121f0b8b24","system_id":"levelo_inurba_marseille","lat":43.29981,"lon":5.38493,"is_reserved":false,"is_disabled":false,"rental_uris":{"android":"levelo://app?vid=b11adee5-2cbf-4203-9c73-0f121f0b8b24","ios":"levelo://app?vid=b11adee5-2cbf-4203-9c73-0f121f0b8b24"},"vehicle_type_id":"4","last_reported":1733393475,"current_range_meters":20400,"station_id":"ce4bgj92rcd13ifvqbd0","pricing_plan_id":"cebpf4jnsgd1na2vs0mg"},{"bike_id":"04b15e96-21a8-4366-bef8-330005e05091","system_id":"levelo_inurba_marseille","lat":43.30279,"lon":5.377,"is_reserved":false,"is_disabled":false,"rental_uris":{"android":"levelo://app?vid=04b15e96-21a8-4366-bef8-330005e05091","ios":"levelo://app?vid=04b15e96-21a8-4366-bef8-330005e05091"},"vehicle_type_id":"4","last_reported":1733393475,"current_range_meters":38800,"station_id":"ce4bguh2rcd13ifvqcj0","pricing_plan_id":"cebpf4jnsgd1na2vs0mg"},{"bike_id":"e8d9fcd3-6c4c-4c2e-a87e-41c5e4dfa6d0","system_id":"levelo_inurba_marseille","lat":43.25438,"lon":5.38158,"is_reserved":false,"is_disabled":true,"rental_uris":{"android":"levelo://app?vid=e8d9fcd3-6c4c-4c2e-a87e-41c5e4dfa6d0","ios":"levelo://app?vid=e8d9fcd3-6c4c-4c2e-a87e-41c5e4dfa6d0"},"vehicle_type_id":"4","last_reported":1733393475,"current_range_meters":0,"station_id":"","pricing_plan_id":"cebpf4jnsgd1na2vs0mg"},{"bike_id":"e7c2b082-ef91-42b1-9ef0-9e4329cee9cb","system_id":"levelo_inurba_marseille","lat":43.2992,"lon":5.40347,"is_reserved":false,"is_disabled":true,"rental_uris":{"android":"levelo://app?vid=e7c2b082-ef91-42b1-9ef0-9e4329cee9cb","ios":"levelo://app?vid=e7c2b082-ef91-42b1-9ef0-9e4329cee9cb"},"vehicle_type_id":"4","last_reported":1733393475,"current_range_meters":0,"station_id":"","pricing_plan_id":"cebpf4jnsgd1na2vs0mg"},{"bike_id":"bc64e626-66ef-4451-bf1f-f67c852467cf","system_id":"levelo_inurba_marseille","lat":43.29897,"lon":5.43663,"is_reserved":false,"is_disabled":false,"rental_uris":{"android":"levelo://app?vid=bc64e626-66ef-4451-bf1f-f67c852467cf","ios":"levelo://app?vid=bc64e626-66ef-4451-bf1f-f67c852467cf"},"vehicle_type_id":"4","last_reported":1733393475,"current_range_meters":26000,"station_id":"ce4bhpp2rcd13ifvqhfg","pricing_plan_id":"cebpf4jnsgd1na2vs0mg"},{"bike_id":"746ec117-b889-4532-8e0d-8b8edd27835c","system_id":"levelo_inurba_marseille","lat":43.29792,"lon":5.38091,"is_reserved":false,"is_disabled":false,"rental_uris":{"android":"levelo://app?vid=746ec117-b889-4532-8e0d-8b8edd27835c","ios":"levelo://app?vid=746ec117-b889-4532-8e0d-8b8edd27835c"},"vehicle_type_id":"4","last_reported":1733393475,"current_range_meters":6400,"station_id":"ce4bgip2rcd13ifvqbb0","pricing_plan_id":"cebpf4jnsgd1na2vs0mg"},{"bike_id":"9a07056e-ae82-4575-886c-e53c4910c32e","system_id":"levelo_inurba_marseille","lat":43.29612,"lon":5.38119,"is_reserved":false,"is_disabled":false,"rental_uris":{"android":"levelo://app?vid=9a07056e-ae82-4575-886c-e53c4910c32e","ios":"levelo://app?vid=9a07056e-ae82-4575-886c-e53c4910c32e"},"vehicle_type_id":"4","last_reported":1733393475,"current_range_meters":28800,"station_id":"ce4bgl12rcd13ifvqbo0","pricing_plan_id":"cebpf4jnsgd1na2vs0mg"},{"bike_id":"95ae3549-fdc8-4089-a0b1-93dbfd7d1b57","system_id":"levelo_inurba_marseille","lat":43.26955,"lon":5.38624,"is_reserved":false,"is_disabled":false,"rental_uris":{"android":"levelo://app?vid=95ae3549-fdc8-4089-a0b1-93dbfd7d1b57","ios":"levelo://app?vid=95ae3549-fdc8-4089-a0b1-93dbfd7d1b57"},"vehicle_type_id":"4","last_reported":1733393475,"current_range_meters":38400,"station_id":"ce4bhh92rcd13ifvqfh0","pricing_plan_id":"cebpf4jnsgd1na2vs0mg"},{"bike_id":"4a116253-96aa-4bc7-9dd6-fad740af4a82","system_id":"levelo_inurba_marseille","lat":43.30461,"lon":5.37879,"is_reserved":false,"is_disabled":true,"rental_uris":{"android":"levelo://app?vid=4a116253-96aa-4bc7-9dd6-fad740af4a82","ios":"levelo://app?vid=4a116253-96aa-4bc7-9dd6-fad740af4a82"},"vehicle_type_id":"4","last_reported":1733393475,"current_range_meters":17200,"station_id":"ce4bgup2rcd13ifvqcn0","pricing_plan_id":"cebpf4jnsgd1na2vs0mg"},{"bike_id":"0e362fdf-2190-4f82-92dc-6596ff333c58","system_id":"levelo_inurba_marseille","lat":43.30311,"lon":5.36893,"is_reserved":false,"is_disabled":false,"rental_uris":{"android":"levelo://app?vid=0e362fdf-2190-4f82-92dc-6596ff333c58","ios":"levelo://app?vid=0e362fdf-2190-4f82-92dc-6596ff333c58"},"vehicle_type_id":"4","last_reported":1733393475,"current_range_meters":38800,"station_id":"ce4bgqh2rcd13ifvqc5g","pricing_plan_id":"cebpf4jnsgd1na2vs0mg"},{"bike_id":"47446314-3377-4eeb-ac99-7c7c1d340bea","system_id":"levelo_inurba_marseille","lat":43.27812,"lon":5.40713,"is_reserved":false,"is_disabled":true,"rental_uris":{"android":"levelo://app?vid=47446314-3377-4eeb-ac99-7c7c1d340bea","ios":"levelo://app?vid=47446314-3377-4eeb-ac99-7c7c1d340bea"},"vehicle_type_id":"4","last_reported":1733393475,"current_range_meters":800,"station_id":"ce4bhnh2rcd13ifvqgtg","pricing_plan_id":"cebpf4jnsgd1na2vs0mg"},{"bike_id":"dc94138a-fb2f-40f9-b0fb-1d0eee682c64","system_id":"levelo_inurba_marseille","lat":43.33022,"lon":5.39044,"is_reserved":false,"is_disabled":false,"rental_uris":{"android":"levelo://app?vid=dc94138a-fb2f-40f9-b0fb-1d0eee682c64","ios":"levelo://app?vid=dc94138a-fb2f-40f9-b0fb-1d0eee682c64"},"vehicle_type_id":"4","last_reported":1733393475,"current_range_meters":27200,"station_id":"ce4bhr92rcd13ifvqhrg","pricing_plan_id":"cebpf4jnsgd1na2vs0mg"},{"bike_id":"ca51e7d4-ea93-4d1c-a552-a92c92a56cd0","system_id":"levelo_inurba_marseille","lat":43.29305,"lon":5.37458,"is_reserved":false,"is_disabled":false,"rental_uris":{"android":"levelo://app?vid=ca51e7d4-ea93-4d1c-a552-a92c92a56cd0","ios":"levelo://app?vid=ca51e7d4-ea93-4d1c-a552-a92c92a56cd0"},"vehicle_type_id":"4","last_reported":1733393475,"current_range_meters":36800,"station_id":"ce4bgi12rcd13ifvqb70","pricing_plan_id":"cebpf4jnsgd1na2vs0mg"},{"bike_id":"132970a3-ee02-48dc-a0cb-b3140e3325a4","system_id":"levelo_inurba_marseille","lat":43.266781,"lon":5.38267,"is_reserved":false,"is_disabled":false,"rental_uris":{"android":"levelo://app?vid=132970a3-ee02-48dc-a0cb-b3140e3325a4","ios":"levelo://app?vid=132970a3-ee02-48dc-a0cb-b3140e3325a4"},"vehicle_type_id":"4","last_reported":1733393475,"current_range_meters":38000,"station_id":"ce4bhg92rcd13ifvqf90","pricing_plan_id":"cebpf4jnsgd1na2vs0mg"},{"bike_id":"2f3968e7-9336-4ee4-ba78-8e92c0a818cc","system_id":"levelo_inurba_marseille","lat":43.31322,"lon":5.36647,"is_reserved":false,"is_disabled":true,"rental_uris":{"android":"levelo://app?vid=2f3968e7-9336-4ee4-ba78-8e92c0a818cc","ios":"levelo://app?vid=2f3968e7-9336-4ee4-ba78-8e92c0a818cc"},"vehicle_type_id":"4","last_reported":1733393475,"current_range_meters":0,"station_id":"","pricing_plan_id":"cebpf4jnsgd1na2vs0mg"},{"bike_id":"392acfb8-a8f5-4a80-bdb7-a743effd93d0","system_id":"levelo_inurba_marseille","lat":43.28364,"lon":5.38627,"is_reserved":false,"is_disabled":false,"rental_uris":{"android":"levelo://app?vid=392acfb8-a8f5-4a80-bdb7-a743effd93d0","ios":"levelo://app?vid=392acfb8-a8f5-4a80-bdb7-a743effd93d0"},"vehicle_type_id":"4","last_reported":1733393475,"current_range_meters":20000,"station_id":"ce4bh492rcd13ifvqdvg","pricing_plan_id":"cebpf4jnsgd1na2vs0mg"},{"bike_id":"16bea42d-3248-41fd-8b51-39fb3d7ec2c4","system_id":"levelo_inurba_marseille","lat":43.26471,"lon":5.38525,"is_reserved":false,"is_disabled":true,"rental_uris":{"android":"levelo://app?vid=16bea42d-3248-41fd-8b51-39fb3d7ec2c4","ios":"levelo://app?vid=16bea42d-3248-41fd-8b51-39fb3d7ec2c4"},"vehicle_type_id":"4","last_reported":1733393475,"current_range_meters":0,"station_id":"","pricing_plan_id":"cebpf4jnsgd1na2vs0mg"},{"bike_id":"0b503009-3823-4b0d-a1c4-9afb598eaf5c","system_id":"levelo_inurba_marseille","lat":43.30471,"lon":5.37908,"is_reserved":false,"is_disabled":false,"rental_uris":{"android":"levelo://app?vid=0b503009-3823-4b0d-a1c4-9afb598eaf5c","ios":"levelo://app?vid=0b503009-3823-4b0d-a1c4-9afb598eaf5c"},"vehicle_type_id":"4","last_reported":1733393475,"current_range_meters":8800,"station_id":"ce4bgup2rcd13ifvqcn0","pricing_plan_id":"cebpf4jnsgd1na2vs0mg"},{"bike_id":"fefed06f-f77c-4003-83aa-4b7097b9e66e","system_id":"levelo_inurba_marseille","lat":43.25561,"lon":5.40982,"is_reserved":false,"is_disabled":false,"rental_uris":{"android":"levelo://app?vid=fefed06f-f77c-4003-83aa-4b7097b9e66e","ios":"levelo://app?vid=fefed06f-f77c-4003-83aa-4b7097b9e66e"},"vehicle_type_id":"4","last_reported":1733393475,"current_range_meters":25200,"station_id":"","pricing_plan_id":"cebpf4jnsgd1na2vs0mg"},{"bike_id":"e57c1061-83de-4181-abc3-b5c63394f4ed","system_id":"levelo_inurba_marseille","lat":43.30531,"lon":5.36725,"is_reserved":false,"is_disabled":false,"rental_uris":{"android":"levelo://app?vid=e57c1061-83de-4181-abc3-b5c63394f4ed","ios":"levelo://app?vid=e57c1061-83de-4181-abc3-b5c63394f4ed"},"vehicle_type_id":"4","last_reported":1733393475,"current_range_meters":19200,"station_id":"ce4bgrp2rcd13ifvqc9g","pricing_plan_id":"cebpf4jnsgd1na2vs0mg"},{"bike_id":"9116fdca-0b1c-4e4c-897c-9bed1cd50a98","system_id":"levelo_inurba_marseille","lat":43.29796,"lon":5.38112,"is_reserved":false,"is_disabled":false,"rental_uris":{"android":"levelo://app?vid=9116fdca-0b1c-4e4c-897c-9bed1cd50a98","ios":"levelo://app?vid=9116fdca-0b1c-4e4c-897c-9bed1cd50a98"},"vehicle_type_id":"4","last_reported":1733393475,"current_range_meters":6000,"station_id":"ce4bgip2rcd13ifvqbb0","pricing_plan_id":"cebpf4jnsgd1na2vs0mg"},{"bike_id":"397db9a4-7aea-4090-9596-cf4d1f00b98e","system_id":"levelo_inurba_marseille","lat":43.30433,"lon":5.388857,"is_reserved":false,"is_disabled":false,"rental_uris":{"android":"levelo://app?vid=397db9a4-7aea-4090-9596-cf4d1f00b98e","ios":"levelo://app?vid=397db9a4-7aea-4090-9596-cf4d1f00b98e"},"vehicle_type_id":"4","last_reported":1733393475,"current_range_meters":24400,"station_id":"ce4bgk12rcd13ifvqbi0","pricing_plan_id":"cebpf4jnsgd1na2vs0mg"},{"bike_id":"8bdf2770-cfec-4eeb-aa46-5fb5dc1f9870","system_id":"levelo_inurba_marseille","lat":43.33023,"lon":5.39039,"is_reserved":false,"is_disabled":false,"rental_uris":{"android":"levelo://app?vid=8bdf2770-cfec-4eeb-aa46-5fb5dc1f9870","ios":"levelo://app?vid=8bdf2770-cfec-4eeb-aa46-5fb5dc1f9870"},"vehicle_type_id":"4","last_reported":1733393475,"current_range_meters":20400,"station_id":"ce4bhr92rcd13ifvqhrg","pricing_plan_id":"cebpf4jnsgd1na2vs0mg"},{"bike_id":"da9cfd76-5796-4c48-8486-043fb1d4045d","system_id":"levelo_inurba_marseille","lat":43.27062,"lon":5.40258,"is_reserved":false,"is_disabled":true,"rental_uris":{"android":"levelo://app?vid=da9cfd76-5796-4c48-8486-043fb1d4045d","ios":"levelo://app?vid=da9cfd76-5796-4c48-8486-043fb1d4045d"},"vehicle_type_id":"4","last_reported":1733393475,"current_range_meters":0,"station_id":"ce4bhk92rcd13ifvqgc0","pricing_plan_id":"cebpf4jnsgd1na2vs0mg"},{"bike_id":"b0025f03-f4b7-4e1f-b2ae-d738bfb01f75","system_id":"levelo_inurba_marseille","lat":43.31761,"lon":5.39021,"is_reserved":false,"is_disabled":true,"rental_uris":{"android":"levelo://app?vid=b0025f03-f4b7-4e1f-b2ae-d738bfb01f75","ios":"levelo://app?vid=b0025f03-f4b7-4e1f-b2ae-d738bfb01f75"},"vehicle_type_id":"4","last_reported":1733393475,"current_range_meters":37600,"station_id":"ce4bhqp2rcd13ifvqhng","pricing_plan_id":"cebpf4jnsgd1na2vs0mg"},{"bike_id":"d4aaeee4-0910-47c2-955b-8701b29d8ec7","system_id":"levelo_inurba_marseille","lat":43.301432,"lon":5.374182,"is_reserved":false,"is_disabled":false,"rental_uris":{"android":"levelo://app?vid=d4aaeee4-0910-47c2-955b-8701b29d8ec7","ios":"levelo://app?vid=d4aaeee4-0910-47c2-955b-8701b29d8ec7"},"vehicle_type_id":"4","last_reported":1733393475,"current_range_meters":32000,"station_id":"ce4bgs92rcd13ifvqcc0","pricing_plan_id":"cebpf4jnsgd1na2vs0mg"},{"bike_id":"df769f2f-58ec-4273-9d2f-fe7f0d2c9fd9","system_id":"levelo_inurba_marseille","lat":43.30282,"lon":5.37713,"is_reserved":false,"is_disabled":false,"rental_uris":{"android":"levelo://app?vid=df769f2f-58ec-4273-9d2f-fe7f0d2c9fd9","ios":"levelo://app?vid=df769f2f-58ec-4273-9d2f-fe7f0d2c9fd9"},"vehicle_type_id":"4","last_reported":1733393475,"current_range_meters":38000,"station_id":"ce4bguh2rcd13ifvqcj0","pricing_plan_id":"cebpf4jnsgd1na2vs0mg"},{"bike_id":"be0a624b-6e01-4220-8d07-7056bc6fd717","system_id":"levelo_inurba_marseille","lat":43.25816,"lon":5.39418,"is_reserved":false,"is_disabled":false,"rental_uris":{"android":"levelo://app?vid=be0a624b-6e01-4220-8d07-7056bc6fd717","ios":"levelo://app?vid=be0a624b-6e01-4220-8d07-7056bc6fd717"},"vehicle_type_id":"4","last_reported":1733393475,"current_range_meters":38000,"station_id":"ce4bhip2rcd13ifvqft0","pricing_plan_id":"cebpf4jnsgd1na2vs0mg"},{"bike_id":"dec514e8-f744-4b73-94ea-f158fb874d11","system_id":"levelo_inurba_marseille","lat":43.29908,"lon":5.37469,"is_reserved":false,"is_disabled":false,"rental_uris":{"android":"levelo://app?vid=dec514e8-f744-4b73-94ea-f158fb874d11","ios":"levelo://app?vid=dec514e8-f744-4b73-94ea-f158fb874d11"},"vehicle_type_id":"4","last_reported":1733393475,"current_range_meters":38800,"station_id":"ce4bgjh2rcd13ifvqbg0","pricing_plan_id":"cebpf4jnsgd1na2vs0mg"},{"bike_id":"5a50557a-331c-47f8-82cc-e12807c908db","system_id":"levelo_inurba_marseille","lat":43.33022,"lon":5.39039,"is_reserved":false,"is_disabled":false,"rental_uris":{"android":"levelo://app?vid=5a50557a-331c-47f8-82cc-e12807c908db","ios":"levelo://app?vid=5a50557a-331c-47f8-82cc-e12807c908db"},"vehicle_type_id":"4","last_reported":1733393475,"current_range_meters":37600,"station_id":"ce4bhr92rcd13ifvqhrg","pricing_plan_id":"cebpf4jnsgd1na2vs0mg"},{"bike_id":"f10c5e90-601b-4bd4-87e7-4cbb6a13a4fb","system_id":"levelo_inurba_marseille","lat":43.2557,"lon":5.38219,"is_reserved":false,"is_disabled":false,"rental_uris":{"android":"levelo://app?vid=f10c5e90-601b-4bd4-87e7-4cbb6a13a4fb","ios":"levelo://app?vid=f10c5e90-601b-4bd4-87e7-4cbb6a13a4fb"},"vehicle_type_id":"4","last_reported":1733393475,"current_range_meters":10800,"station_id":"ce4bhih2rcd13ifvqfs0","pricing_plan_id":"cebpf4jnsgd1na2vs0mg"},{"bike_id":"64cef5ac-e0ad-43ec-8d81-ef1e6eb0acd4","system_id":"levelo_inurba_marseille","lat":43.29951,"lon":5.37015,"is_reserved":false,"is_disabled":false,"rental_uris":{"android":"levelo://app?vid=64cef5ac-e0ad-43ec-8d81-ef1e6eb0acd4","ios":"levelo://app?vid=64cef5ac-e0ad-43ec-8d81-ef1e6eb0acd4"},"vehicle_type_id":"4","last_reported":1733393475,"current_range_meters":4400,"station_id":"","pricing_plan_id":"cebpf4jnsgd1na2vs0mg"},{"bike_id":"42d866ce-cf4e-4635-8847-92110cb813f8","system_id":"levelo_inurba_marseille","lat":43.26494,"lon":5.39537,"is_reserved":false,"is_disabled":false,"rental_uris":{"android":"levelo://app?vid=42d866ce-cf4e-4635-8847-92110cb813f8","ios":"levelo://app?vid=42d866ce-cf4e-4635-8847-92110cb813f8"},"vehicle_type_id":"4","last_reported":1733393475,"current_range_meters":30800,"station_id":"ce4bhi12rcd13ifvqfq0","pricing_plan_id":"cebpf4jnsgd1na2vs0mg"},{"bike_id":"19ef7109-55d9-451b-9393-d36377dbe538","system_id":"levelo_inurba_marseille","lat":43.26217,"lon":5.37452,"is_reserved":false,"is_disabled":false,"rental_uris":{"android":"levelo://app?vid=19ef7109-55d9-451b-9393-d36377dbe538","ios":"levelo://app?vid=19ef7109-55d9-451b-9393-d36377dbe538"},"vehicle_type_id":"4","last_reported":1733393475,"current_range_meters":38800,"station_id":"ce4bhgp2rcd13ifvqfc0","pricing_plan_id":"cebpf4jnsgd1na2vs0mg"},{"bike_id":"5ae6a840-1324-4977-b59b-19b3380953b8","system_id":"levelo_inurba_marseille","lat":43.30324,"lon":5.40448,"is_reserved":false,"is_disabled":true,"rental_uris":{"android":"levelo://app?vid=5ae6a840-1324-4977-b59b-19b3380953b8","ios":"levelo://app?vid=5ae6a840-1324-4977-b59b-19b3380953b8"},"vehicle_type_id":"4","last_reported":1733393475,"current_range_meters":800,"station_id":"ce4bh012rcd13ifvqd10","pricing_plan_id":"cebpf4jnsgd1na2vs0mg"},{"bike_id":"ef8dccf7-5c02-4648-910c-2c64ce488a65","system_id":"levelo_inurba_marseille","lat":43.28151,"lon":5.42789,"is_reserved":false,"is_disabled":false,"rental_uris":{"android":"levelo://app?vid=ef8dccf7-5c02-4648-910c-2c64ce488a65","ios":"levelo://app?vid=ef8dccf7-5c02-4648-910c-2c64ce488a65"},"vehicle_type_id":"4","last_reported":1733393475,"current_range_meters":7200,"station_id":"","pricing_plan_id":"cebpf4jnsgd1na2vs0mg"},{"bike_id":"afddb0ff-7658-4984-b285-b427f08dacd1","system_id":"levelo_inurba_marseille","lat":43.25109,"lon":5.40323,"is_reserved":false,"is_disabled":false,"rental_uris":{"android":"levelo://app?vid=afddb0ff-7658-4984-b285-b427f08dacd1","ios":"levelo://app?vid=afddb0ff-7658-4984-b285-b427f08dacd1"},"vehicle_type_id":"4","last_reported":1733393475,"current_range_meters":37600,"station_id":"ce4bhlh2rcd13ifvqgig","pricing_plan_id":"cebpf4jnsgd1na2vs0mg"},{"bike_id":"b73386f2-fa04-4fae-98be-ff0e17efea9c","system_id":"levelo_inurba_marseille","lat":43.32364,"lon":5.38882,"is_reserved":false,"is_disabled":false,"rental_uris":{"android":"levelo://app?vid=b73386f2-fa04-4fae-98be-ff0e17efea9c","ios":"levelo://app?vid=b73386f2-fa04-4fae-98be-ff0e17efea9c"},"vehicle_type_id":"4","last_reported":1733393475,"current_range_meters":38000,"station_id":"ce4bhqp2rcd13ifvqhog","pricing_plan_id":"cebpf4jnsgd1na2vs0mg"},{"bike_id":"4a7bc65d-e015-43d1-b138-d0ca40a1c8cb","system_id":"levelo_inurba_marseille","lat":43.24081,"lon":5.3775,"is_reserved":false,"is_disabled":false,"rental_uris":{"android":"levelo://app?vid=4a7bc65d-e015-43d1-b138-d0ca40a1c8cb","ios":"levelo://app?vid=4a7bc65d-e015-43d1-b138-d0ca40a1c8cb"},"vehicle_type_id":"4","last_reported":1733393475,"current_range_meters":38800,"station_id":"ce4bhnp2rcd13ifvqgvg","pricing_plan_id":"cebpf4jnsgd1na2vs0mg"},{"bike_id":"d5da7245-e900-454c-b06e-23814ec3c394","system_id":"levelo_inurba_marseille","lat":43.29031,"lon":5.37577,"is_reserved":false,"is_disabled":true,"rental_uris":{"android":"levelo://app?vid=d5da7245-e900-454c-b06e-23814ec3c394","ios":"levelo://app?vid=d5da7245-e900-454c-b06e-23814ec3c394"},"vehicle_type_id":"4","last_reported":1733393475,"current_range_meters":0,"station_id":"ce4bh692rcd13ifvqe90","pricing_plan_id":"cebpf4jnsgd1na2vs0mg"},{"bike_id":"734d07dc-217f-41dd-93a2-1bef235667d0","system_id":"levelo_inurba_marseille","lat":43.24392,"lon":5.37063,"is_reserved":false,"is_disabled":false,"rental_uris":{"android":"levelo://app?vid=734d07dc-217f-41dd-93a2-1bef235667d0","ios":"levelo://app?vid=734d07dc-217f-41dd-93a2-1bef235667d0"},"vehicle_type_id":"4","last_reported":1733393475,"current_range_meters":6800,"station_id":"ce4bhhh2rcd13ifvqfk0","pricing_plan_id":"cebpf4jnsgd1na2vs0mg"},{"bike_id":"deffc02b-ff06-4397-968b-2003625c5816","system_id":"levelo_inurba_marseille","lat":43.24076,"lon":5.37755,"is_reserved":false,"is_disabled":false,"rental_uris":{"android":"levelo://app?vid=deffc02b-ff06-4397-968b-2003625c5816","ios":"levelo://app?vid=deffc02b-ff06-4397-968b-2003625c5816"},"vehicle_type_id":"4","last_reported":1733393475,"current_range_meters":22000,"station_id":"ce4bhnp2rcd13ifvqgvg","pricing_plan_id":"cebpf4jnsgd1na2vs0mg"},{"bike_id":"04066c3e-9bff-4401-a587-cca8c07ea9d1","system_id":"levelo_inurba_marseille","lat":43.27492,"lon":5.42456,"is_reserved":false,"is_disabled":false,"rental_uris":{"android":"levelo://app?vid=04066c3e-9bff-4401-a587-cca8c07ea9d1","ios":"levelo://app?vid=04066c3e-9bff-4401-a587-cca8c07ea9d1"},"vehicle_type_id":"4","last_reported":1733393475,"current_range_meters":2800,"station_id":"ce4bhn92rcd13ifvqgrg","pricing_plan_id":"cebpf4jnsgd1na2vs0mg"},{"bike_id":"4dcf3dbb-fbda-4065-960e-fcc850c089ef","system_id":"levelo_inurba_marseille","lat":43.31243,"lon":5.36858,"is_reserved":false,"is_disabled":false,"rental_uris":{"android":"levelo://app?vid=4dcf3dbb-fbda-4065-960e-fcc850c089ef","ios":"levelo://app?vid=4dcf3dbb-fbda-4065-960e-fcc850c089ef"},"vehicle_type_id":"4","last_reported":1733393475,"current_range_meters":20000,"station_id":"ce4bgl92rcd13ifvqbq0","pricing_plan_id":"cebpf4jnsgd1na2vs0mg"},{"bike_id":"cdfe6590-4984-4014-86c8-6dd70747c27a","system_id":"levelo_inurba_marseille","lat":43.29737,"lon":5.37434,"is_reserved":false,"is_disabled":true,"rental_uris":{"android":"levelo://app?vid=cdfe6590-4984-4014-86c8-6dd70747c27a","ios":"levelo://app?vid=cdfe6590-4984-4014-86c8-6dd70747c27a"},"vehicle_type_id":"4","last_reported":1733393475,"current_range_meters":0,"station_id":"","pricing_plan_id":"cebpf4jnsgd1na2vs0mg"},{"bike_id":"9309313e-316d-4707-816e-67df9a39a867","system_id":"levelo_inurba_marseille","lat":43.28938,"lon":5.36392,"is_reserved":false,"is_disabled":true,"rental_uris":{"android":"levelo://app?vid=9309313e-316d-4707-816e-67df9a39a867","ios":"levelo://app?vid=9309313e-316d-4707-816e-67df9a39a867"},"vehicle_type_id":"4","last_reported":1733393475,"current_range_meters":4800,"station_id":"ce4bhc92rcd13ifvqetg","pricing_plan_id":"cebpf4jnsgd1na2vs0mg"},{"bike_id":"6a2e55be-ff6d-41e3-bbaa-5e2e3afeb96f","system_id":"levelo_inurba_marseille","lat":43.26194,"lon":5.3745,"is_reserved":false,"is_disabled":false,"rental_uris":{"android":"levelo://app?vid=6a2e55be-ff6d-41e3-bbaa-5e2e3afeb96f","ios":"levelo://app?vid=6a2e55be-ff6d-41e3-bbaa-5e2e3afeb96f"},"vehicle_type_id":"4","last_reported":1733393475,"current_range_meters":34000,"station_id":"ce4bhgp2rcd13ifvqfc0","pricing_plan_id":"cebpf4jnsgd1na2vs0mg"},{"bike_id":"c8b81c10-68ef-4f12-b188-70bd6f7d0025","system_id":"levelo_inurba_marseille","lat":43.27809,"lon":5.40711,"is_reserved":false,"is_disabled":false,"rental_uris":{"android":"levelo://app?vid=c8b81c10-68ef-4f12-b188-70bd6f7d0025","ios":"levelo://app?vid=c8b81c10-68ef-4f12-b188-70bd6f7d0025"},"vehicle_type_id":"4","last_reported":1733393475,"current_range_meters":29600,"station_id":"ce4bhnh2rcd13ifvqgtg","pricing_plan_id":"cebpf4jnsgd1na2vs0mg"},{"bike_id":"f9da47f1-d8b2-4a22-af81-1292c642b0a9","system_id":"levelo_inurba_marseille","lat":43.29605,"lon":5.38101,"is_reserved":false,"is_disabled":false,"rental_uris":{"android":"levelo://app?vid=f9da47f1-d8b2-4a22-af81-1292c642b0a9","ios":"levelo://app?vid=f9da47f1-d8b2-4a22-af81-1292c642b0a9"},"vehicle_type_id":"4","last_reported":1733393475,"current_range_meters":18800,"station_id":"ce4bgl12rcd13ifvqbo0","pricing_plan_id":"cebpf4jnsgd1na2vs0mg"},{"bike_id":"189d41e8-50bb-4f05-9a34-8bbecbbc54a5","system_id":"levelo_inurba_marseille","lat":43.26029,"lon":5.37553,"is_reserved":false,"is_disabled":false,"rental_uris":{"android":"levelo://app?vid=189d41e8-50bb-4f05-9a34-8bbecbbc54a5","ios":"levelo://app?vid=189d41e8-50bb-4f05-9a34-8bbecbbc54a5"},"vehicle_type_id":"4","last_reported":1733393475,"current_range_meters":16400,"station_id":"ce4bhgh2rcd13ifvqfa0","pricing_plan_id":"cebpf4jnsgd1na2vs0mg"},{"bike_id":"987a5ab4-d60c-480c-94b6-7cab38975402","system_id":"levelo_inurba_marseille","lat":43.29748,"lon":5.37971,"is_reserved":false,"is_disabled":true,"rental_uris":{"android":"levelo://app?vid=987a5ab4-d60c-480c-94b6-7cab38975402","ios":"levelo://app?vid=987a5ab4-d60c-480c-94b6-7cab38975402"},"vehicle_type_id":"4","last_reported":1733393475,"current_range_meters":0,"station_id":"","pricing_plan_id":"cebpf4jnsgd1na2vs0mg"},{"bike_id":"2c4596ad-0ad9-4016-b92b-0093349de2b4","system_id":"levelo_inurba_marseille","lat":43.30755,"lon":5.38187,"is_reserved":false,"is_disabled":true,"rental_uris":{"android":"levelo://app?vid=2c4596ad-0ad9-4016-b92b-0093349de2b4","ios":"levelo://app?vid=2c4596ad-0ad9-4016-b92b-0093349de2b4"},"vehicle_type_id":"4","last_reported":1733393475,"current_range_meters":0,"station_id":"","pricing_plan_id":"cebpf4jnsgd1na2vs0mg"},{"bike_id":"00221bb3-43f4-4b93-97f7-7c625e48c6c0","system_id":"levelo_inurba_marseille","lat":43.25931,"lon":5.40912,"is_reserved":false,"is_disabled":false,"rental_uris":{"android":"levelo://app?vid=00221bb3-43f4-4b93-97f7-7c625e48c6c0","ios":"levelo://app?vid=00221bb3-43f4-4b93-97f7-7c625e48c6c0"},"vehicle_type_id":"4","last_reported":1733393475,"current_range_meters":35200,"station_id":"ce4bhm92rcd13ifvqglg","pricing_plan_id":"cebpf4jnsgd1na2vs0mg"},{"bike_id":"5544309e-e924-4299-beb3-abe2f7f10a51","system_id":"levelo_inurba_marseille","lat":43.30815,"lon":5.38127,"is_reserved":false,"is_disabled":true,"rental_uris":{"android":"levelo://app?vid=5544309e-e924-4299-beb3-abe2f7f10a51","ios":"levelo://app?vid=5544309e-e924-4299-beb3-abe2f7f10a51"},"vehicle_type_id":"4","last_reported":1733393475,"current_range_meters":39200,"station_id":"ce4bgt12rcd13ifvqce0","pricing_plan_id":"cebpf4jnsgd1na2vs0mg"},{"bike_id":"b7ab8c01-033f-4395-8276-23c850ad3d02","system_id":"levelo_inurba_marseille","lat":43.30348,"lon":5.36626,"is_reserved":false,"is_disabled":true,"rental_uris":{"android":"levelo://app?vid=b7ab8c01-033f-4395-8276-23c850ad3d02","ios":"levelo://app?vid=b7ab8c01-033f-4395-8276-23c850ad3d02"},"vehicle_type_id":"4","last_reported":1733393475,"current_range_meters":0,"station_id":"","pricing_plan_id":"cebpf4jnsgd1na2vs0mg"},{"bike_id":"fb01f161-4fea-4448-b917-6595a5d6178d","system_id":"levelo_inurba_marseille","lat":43.31116,"lon":5.37768,"is_reserved":false,"is_disabled":false,"rental_uris":{"android":"levelo://app?vid=fb01f161-4fea-4448-b917-6595a5d6178d","ios":"levelo://app?vid=fb01f161-4fea-4448-b917-6595a5d6178d"},"vehicle_type_id":"4","last_reported":1733393475,"current_range_meters":9200,"station_id":"ce4bgt92rcd13ifvqcg0","pricing_plan_id":"cebpf4jnsgd1na2vs0mg"},{"bike_id":"9af467f5-837b-4396-a718-83ffe6577be8","system_id":"levelo_inurba_marseille","lat":43.25002,"lon":5.38923,"is_reserved":false,"is_disabled":false,"rental_uris":{"android":"levelo://app?vid=9af467f5-837b-4396-a718-83ffe6577be8","ios":"levelo://app?vid=9af467f5-837b-4396-a718-83ffe6577be8"},"vehicle_type_id":"4","last_reported":1733393475,"current_range_meters":38800,"station_id":"ce4bhgp2rcd13ifvqfd0","pricing_plan_id":"cebpf4jnsgd1na2vs0mg"},{"bike_id":"6b747444-14ad-4451-b70e-ce597046cb6c","system_id":"levelo_inurba_marseille","lat":43.26936,"lon":5.38915,"is_reserved":false,"is_disabled":false,"rental_uris":{"android":"levelo://app?vid=6b747444-14ad-4451-b70e-ce597046cb6c","ios":"levelo://app?vid=6b747444-14ad-4451-b70e-ce597046cb6c"},"vehicle_type_id":"4","last_reported":1733393475,"current_range_meters":34000,"station_id":"ce4bhhh2rcd13ifvqfl0","pricing_plan_id":"cebpf4jnsgd1na2vs0mg"},{"bike_id":"19d2ce59-2b75-48a1-9810-172e15ca151e","system_id":"levelo_inurba_marseille","lat":43.231958,"lon":5.35544,"is_reserved":false,"is_disabled":false,"rental_uris":{"android":"levelo://app?vid=19d2ce59-2b75-48a1-9810-172e15ca151e","ios":"levelo://app?vid=19d2ce59-2b75-48a1-9810-172e15ca151e"},"vehicle_type_id":"4","last_reported":1733393475,"current_range_meters":38800,"station_id":"ce4bhu92rcd13ifvqi70","pricing_plan_id":"cebpf4jnsgd1na2vs0mg"},{"bike_id":"fb29d2b4-ef5f-40bf-a63d-1ea02a78ccb8","system_id":"levelo_inurba_marseille","lat":43.336056,"lon":5.410296,"is_reserved":false,"is_disabled":false,"rental_uris":{"android":"levelo://app?vid=fb29d2b4-ef5f-40bf-a63d-1ea02a78ccb8","ios":"levelo://app?vid=fb29d2b4-ef5f-40bf-a63d-1ea02a78ccb8"},"vehicle_type_id":"4","last_reported":1733393475,"current_range_meters":22800,"station_id":"ce4bhqh2rcd13ifvqhmg","pricing_plan_id":"cebpf4jnsgd1na2vs0mg"},{"bike_id":"53af5ed4-1171-46bb-9038-30dfd94e2890","system_id":"levelo_inurba_marseille","lat":43.24075,"lon":5.37754,"is_reserved":false,"is_disabled":false,"rental_uris":{"android":"levelo://app?vid=53af5ed4-1171-46bb-9038-30dfd94e2890","ios":"levelo://app?vid=53af5ed4-1171-46bb-9038-30dfd94e2890"},"vehicle_type_id":"4","last_reported":1733393475,"current_range_meters":38800,"station_id":"ce4bhnp2rcd13ifvqgvg","pricing_plan_id":"cebpf4jnsgd1na2vs0mg"},{"bike_id":"c9579a2d-adc3-4b87-adfc-f9b180451685","system_id":"levelo_inurba_marseille","lat":43.29034,"lon":5.39964,"is_reserved":false,"is_disabled":false,"rental_uris":{"android":"levelo://app?vid=c9579a2d-adc3-4b87-adfc-f9b180451685","ios":"levelo://app?vid=c9579a2d-adc3-4b87-adfc-f9b180451685"},"vehicle_type_id":"4","last_reported":1733393475,"current_range_meters":24000,"station_id":"ce4bh392rcd13ifvqdm0","pricing_plan_id":"cebpf4jnsgd1na2vs0mg"},{"bike_id":"6cc6805f-c0ca-4585-bdf1-b5a0339762b0","system_id":"levelo_inurba_marseille","lat":43.29015,"lon":5.42804,"is_reserved":false,"is_disabled":true,"rental_uris":{"android":"levelo://app?vid=6cc6805f-c0ca-4585-bdf1-b5a0339762b0","ios":"levelo://app?vid=6cc6805f-c0ca-4585-bdf1-b5a0339762b0"},"vehicle_type_id":"4","last_reported":1733393475,"current_range_meters":0,"station_id":"","pricing_plan_id":"cebpf4jnsgd1na2vs0mg"},{"bike_id":"cf26f892-3bd7-4b93-a408-aafdf27f6657","system_id":"levelo_inurba_marseille","lat":43.27495,"lon":5.42455,"is_reserved":false,"is_disabled":false,"rental_uris":{"android":"levelo://app?vid=cf26f892-3bd7-4b93-a408-aafdf27f6657","ios":"levelo://app?vid=cf26f892-3bd7-4b93-a408-aafdf27f6657"},"vehicle_type_id":"4","last_reported":1733393475,"current_range_meters":28400,"station_id":"ce4bhn92rcd13ifvqgrg","pricing_plan_id":"cebpf4jnsgd1na2vs0mg"},{"bike_id":"0bfb3d4e-359d-4927-881b-5e84aa873cc8","system_id":"levelo_inurba_marseille","lat":43.32353,"lon":5.36769,"is_reserved":false,"is_disabled":false,"rental_uris":{"android":"levelo://app?vid=0bfb3d4e-359d-4927-881b-5e84aa873cc8","ios":"levelo://app?vid=0bfb3d4e-359d-4927-881b-5e84aa873cc8"},"vehicle_type_id":"4","last_reported":1733393475,"current_range_meters":14800,"station_id":"ce4bhsh2rcd13ifvqi2g","pricing_plan_id":"cebpf4jnsgd1na2vs0mg"},{"bike_id":"8d1c8b92-79bb-4181-b0d2-5e94db1a14d0","system_id":"levelo_inurba_marseille","lat":43.300115,"lon":5.382636,"is_reserved":false,"is_disabled":true,"rental_uris":{"android":"levelo://app?vid=8d1c8b92-79bb-4181-b0d2-5e94db1a14d0","ios":"levelo://app?vid=8d1c8b92-79bb-4181-b0d2-5e94db1a14d0"},"vehicle_type_id":"4","last_reported":1733393475,"current_range_meters":0,"station_id":"","pricing_plan_id":"cebpf4jnsgd1na2vs0mg"},{"bike_id":"6d721467-c480-429e-bf36-cca85a43e6c1","system_id":"levelo_inurba_marseille","lat":43.29627,"lon":5.40597,"is_reserved":false,"is_disabled":false,"rental_uris":{"android":"levelo://app?vid=6d721467-c480-429e-bf36-cca85a43e6c1","ios":"levelo://app?vid=6d721467-c480-429e-bf36-cca85a43e6c1"},"vehicle_type_id":"4","last_reported":1733393475,"current_range_meters":20400,"station_id":"ce4bh0h2rcd13ifvqd60","pricing_plan_id":"cebpf4jnsgd1na2vs0mg"},{"bike_id":"6f0b16fc-b89e-492b-b913-0d7f6f04b518","system_id":"levelo_inurba_marseille","lat":43.305383,"lon":5.365346,"is_reserved":false,"is_disabled":false,"rental_uris":{"android":"levelo://app?vid=6f0b16fc-b89e-492b-b913-0d7f6f04b518","ios":"levelo://app?vid=6f0b16fc-b89e-492b-b913-0d7f6f04b518"},"vehicle_type_id":"4","last_reported":1733393475,"current_range_meters":22800,"station_id":"ce4bgs12rcd13ifvqcag","pricing_plan_id":"cebpf4jnsgd1na2vs0mg"},{"bike_id":"fc7f5784-ffba-4002-a14e-bac3f330ea26","system_id":"levelo_inurba_marseille","lat":43.24082,"lon":5.37751,"is_reserved":false,"is_disabled":false,"rental_uris":{"android":"levelo://app?vid=fc7f5784-ffba-4002-a14e-bac3f330ea26","ios":"levelo://app?vid=fc7f5784-ffba-4002-a14e-bac3f330ea26"},"vehicle_type_id":"4","last_reported":1733393475,"current_range_meters":25200,"station_id":"ce4bhnp2rcd13ifvqgvg","pricing_plan_id":"cebpf4jnsgd1na2vs0mg"},{"bike_id":"7401184e-dcdc-4f69-89e9-1615045c1f8c","system_id":"levelo_inurba_marseille","lat":43.30028,"lon":5.38922,"is_reserved":false,"is_disabled":true,"rental_uris":{"android":"levelo://app?vid=7401184e-dcdc-4f69-89e9-1615045c1f8c","ios":"levelo://app?vid=7401184e-dcdc-4f69-89e9-1615045c1f8c"},"vehicle_type_id":"4","last_reported":1733393475,"current_range_meters":1200,"station_id":"","pricing_plan_id":"cebpf4jnsgd1na2vs0mg"},{"bike_id":"568aa5ad-cde1-4f8a-9dcc-f1b44e1162ce","system_id":"levelo_inurba_marseille","lat":43.26948,"lon":5.38638,"is_reserved":false,"is_disabled":false,"rental_uris":{"android":"levelo://app?vid=568aa5ad-cde1-4f8a-9dcc-f1b44e1162ce","ios":"levelo://app?vid=568aa5ad-cde1-4f8a-9dcc-f1b44e1162ce"},"vehicle_type_id":"4","last_reported":1733393475,"current_range_meters":26800,"station_id":"ce4bhh92rcd13ifvqfh0","pricing_plan_id":"cebpf4jnsgd1na2vs0mg"},{"bike_id":"cca5fab4-9de8-4bd4-abd1-f13506a8eb83","system_id":"levelo_inurba_marseille","lat":43.28984,"lon":5.39842,"is_reserved":false,"is_disabled":false,"rental_uris":{"android":"levelo://app?vid=cca5fab4-9de8-4bd4-abd1-f13506a8eb83","ios":"levelo://app?vid=cca5fab4-9de8-4bd4-abd1-f13506a8eb83"},"vehicle_type_id":"4","last_reported":1733393475,"current_range_meters":13600,"station_id":"ce4bgs92rcd13ifvqcc0","pricing_plan_id":"cebpf4jnsgd1na2vs0mg"},{"bike_id":"a9e4e6c1-371c-48c2-a3c3-04f2bcfd31a1","system_id":"levelo_inurba_marseille","lat":43.29533,"lon":5.38546,"is_reserved":false,"is_disabled":true,"rental_uris":{"android":"levelo://app?vid=a9e4e6c1-371c-48c2-a3c3-04f2bcfd31a1","ios":"levelo://app?vid=a9e4e6c1-371c-48c2-a3c3-04f2bcfd31a1"},"vehicle_type_id":"4","last_reported":1733393475,"current_range_meters":3600,"station_id":"ce4bgih2rcd13ifvqba0","pricing_plan_id":"cebpf4jnsgd1na2vs0mg"},{"bike_id":"b494ab65-4cd4-46d8-ab61-ebcade8d01c4","system_id":"levelo_inurba_marseille","lat":43.313507,"lon":5.367401,"is_reserved":false,"is_disabled":false,"rental_uris":{"android":"levelo://app?vid=b494ab65-4cd4-46d8-ab61-ebcade8d01c4","ios":"levelo://app?vid=b494ab65-4cd4-46d8-ab61-ebcade8d01c4"},"vehicle_type_id":"4","last_reported":1733393475,"current_range_meters":21600,"station_id":"ce4bgr92rcd13ifvqc6g","pricing_plan_id":"cebpf4jnsgd1na2vs0mg"},{"bike_id":"b0f7d65c-8c54-46cb-972c-2cce7c1f78a2","system_id":"levelo_inurba_marseille","lat":43.27493,"lon":5.42453,"is_reserved":false,"is_disabled":false,"rental_uris":{"android":"levelo://app?vid=b0f7d65c-8c54-46cb-972c-2cce7c1f78a2","ios":"levelo://app?vid=b0f7d65c-8c54-46cb-972c-2cce7c1f78a2"},"vehicle_type_id":"4","last_reported":1733393475,"current_range_meters":23200,"station_id":"ce4bhn92rcd13ifvqgrg","pricing_plan_id":"cebpf4jnsgd1na2vs0mg"},{"bike_id":"1ca0aca0-4ca4-4bf8-9b1d-054345c3a341","system_id":"levelo_inurba_marseille","lat":43.28887,"lon":5.39996,"is_reserved":false,"is_disabled":false,"rental_uris":{"android":"levelo://app?vid=1ca0aca0-4ca4-4bf8-9b1d-054345c3a341","ios":"levelo://app?vid=1ca0aca0-4ca4-4bf8-9b1d-054345c3a341"},"vehicle_type_id":"4","last_reported":1733393475,"current_range_meters":24800,"station_id":"","pricing_plan_id":"cebpf4jnsgd1na2vs0mg"},{"bike_id":"92084026-ab9b-407b-bdd8-05f7e42d52f1","system_id":"levelo_inurba_marseille","lat":43.27493,"lon":5.4246,"is_reserved":false,"is_disabled":false,"rental_uris":{"android":"levelo://app?vid=92084026-ab9b-407b-bdd8-05f7e42d52f1","ios":"levelo://app?vid=92084026-ab9b-407b-bdd8-05f7e42d52f1"},"vehicle_type_id":"4","last_reported":1733393475,"current_range_meters":22800,"station_id":"ce4bhn92rcd13ifvqgrg","pricing_plan_id":"cebpf4jnsgd1na2vs0mg"},{"bike_id":"870c36ea-4962-487a-ac9e-bf4bc7d7730c","system_id":"levelo_inurba_marseille","lat":43.30907,"lon":5.36861,"is_reserved":false,"is_disabled":false,"rental_uris":{"android":"levelo://app?vid=870c36ea-4962-487a-ac9e-bf4bc7d7730c","ios":"levelo://app?vid=870c36ea-4962-487a-ac9e-bf4bc7d7730c"},"vehicle_type_id":"4","last_reported":1733393475,"current_range_meters":23200,"station_id":"ce4bgn92rcd13ifvqbvg","pricing_plan_id":"cebpf4jnsgd1na2vs0mg"},{"bike_id":"1e682d17-8f4b-428d-953a-4aca2c0e0225","system_id":"levelo_inurba_marseille","lat":43.26207,"lon":5.37443,"is_reserved":false,"is_disabled":false,"rental_uris":{"android":"levelo://app?vid=1e682d17-8f4b-428d-953a-4aca2c0e0225","ios":"levelo://app?vid=1e682d17-8f4b-428d-953a-4aca2c0e0225"},"vehicle_type_id":"4","last_reported":1733393475,"current_range_meters":32800,"station_id":"ce4bhgp2rcd13ifvqfc0","pricing_plan_id":"cebpf4jnsgd1na2vs0mg"},{"bike_id":"31e6fc3b-f821-47c0-8265-070531f4b97c","system_id":"levelo_inurba_marseille","lat":43.24179,"lon":5.39726,"is_reserved":false,"is_disabled":false,"rental_uris":{"android":"levelo://app?vid=31e6fc3b-f821-47c0-8265-070531f4b97c","ios":"levelo://app?vid=31e6fc3b-f821-47c0-8265-070531f4b97c"},"vehicle_type_id":"4","last_reported":1733393475,"current_range_meters":35600,"station_id":"ce4bhn12rcd13ifvqgpg","pricing_plan_id":"cebpf4jnsgd1na2vs0mg"},{"bike_id":"b87c32a6-5650-4b08-976c-ccecd193a91e","system_id":"levelo_inurba_marseille","lat":43.29736,"lon":5.37684,"is_reserved":false,"is_disabled":true,"rental_uris":{"android":"levelo://app?vid=b87c32a6-5650-4b08-976c-ccecd193a91e","ios":"levelo://app?vid=b87c32a6-5650-4b08-976c-ccecd193a91e"},"vehicle_type_id":"4","last_reported":1733393475,"current_range_meters":11600,"station_id":"ce4bgkh2rcd13ifvqbl0","pricing_plan_id":"cebpf4jnsgd1na2vs0mg"},{"bike_id":"2a0730d5-2943-419f-b177-8f5dfd46f81c","system_id":"levelo_inurba_marseille","lat":43.29797,"lon":5.38102,"is_reserved":false,"is_disabled":false,"rental_uris":{"android":"levelo://app?vid=2a0730d5-2943-419f-b177-8f5dfd46f81c","ios":"levelo://app?vid=2a0730d5-2943-419f-b177-8f5dfd46f81c"},"vehicle_type_id":"4","last_reported":1733393475,"current_range_meters":25200,"station_id":"ce4bgip2rcd13ifvqbb0","pricing_plan_id":"cebpf4jnsgd1na2vs0mg"},{"bike_id":"ab05039b-da25-4171-883f-dbeac8d952e7","system_id":"levelo_inurba_marseille","lat":43.32356,"lon":5.38893,"is_reserved":false,"is_disabled":false,"rental_uris":{"android":"levelo://app?vid=ab05039b-da25-4171-883f-dbeac8d952e7","ios":"levelo://app?vid=ab05039b-da25-4171-883f-dbeac8d952e7"},"vehicle_type_id":"4","last_reported":1733393475,"current_range_meters":22400,"station_id":"ce4bhqp2rcd13ifvqhog","pricing_plan_id":"cebpf4jnsgd1na2vs0mg"},{"bike_id":"34bc3708-09ed-4439-a932-0537db0f66ea","system_id":"levelo_inurba_marseille","lat":43.29035,"lon":5.37562,"is_reserved":false,"is_disabled":false,"rental_uris":{"android":"levelo://app?vid=34bc3708-09ed-4439-a932-0537db0f66ea","ios":"levelo://app?vid=34bc3708-09ed-4439-a932-0537db0f66ea"},"vehicle_type_id":"4","last_reported":1733393475,"current_range_meters":8000,"station_id":"ce4bh692rcd13ifvqe90","pricing_plan_id":"cebpf4jnsgd1na2vs0mg"},{"bike_id":"bb6b53dd-4494-4182-a216-6003a45ab165","system_id":"levelo_inurba_marseille","lat":43.25001,"lon":5.38924,"is_reserved":false,"is_disabled":false,"rental_uris":{"android":"levelo://app?vid=bb6b53dd-4494-4182-a216-6003a45ab165","ios":"levelo://app?vid=bb6b53dd-4494-4182-a216-6003a45ab165"},"vehicle_type_id":"4","last_reported":1733393475,"current_range_meters":38800,"station_id":"ce4bhgp2rcd13ifvqfd0","pricing_plan_id":"cebpf4jnsgd1na2vs0mg"},{"bike_id":"9c77a68d-2e99-44e9-b903-950fb6644d35","system_id":"levelo_inurba_marseille","lat":43.25265,"lon":5.39465,"is_reserved":false,"is_disabled":true,"rental_uris":{"android":"levelo://app?vid=9c77a68d-2e99-44e9-b903-950fb6644d35","ios":"levelo://app?vid=9c77a68d-2e99-44e9-b903-950fb6644d35"},"vehicle_type_id":"4","last_reported":1733393475,"current_range_meters":0,"station_id":"","pricing_plan_id":"cebpf4jnsgd1na2vs0mg"},{"bike_id":"ac7f87b7-a26f-4a3d-aac9-8dad0fe1a145","system_id":"levelo_inurba_marseille","lat":43.26942,"lon":5.38643,"is_reserved":false,"is_disabled":false,"rental_uris":{"android":"levelo://app?vid=ac7f87b7-a26f-4a3d-aac9-8dad0fe1a145","ios":"levelo://app?vid=ac7f87b7-a26f-4a3d-aac9-8dad0fe1a145"},"vehicle_type_id":"4","last_reported":1733393475,"current_range_meters":38800,"station_id":"ce4bhh92rcd13ifvqfh0","pricing_plan_id":"cebpf4jnsgd1na2vs0mg"},{"bike_id":"a9f2cdbd-8512-4f2b-8008-f46f8bbfa78b","system_id":"levelo_inurba_marseille","lat":43.28715,"lon":5.37928,"is_reserved":false,"is_disabled":false,"rental_uris":{"android":"levelo://app?vid=a9f2cdbd-8512-4f2b-8008-f46f8bbfa78b","ios":"levelo://app?vid=a9f2cdbd-8512-4f2b-8008-f46f8bbfa78b"},"vehicle_type_id":"4","last_reported":1733393475,"current_range_meters":19200,"station_id":"ce4bh9p2rcd13ifvqec0","pricing_plan_id":"cebpf4jnsgd1na2vs0mg"},{"bike_id":"cb38f8ca-3f33-48d2-ad62-3f854dbc3941","system_id":"levelo_inurba_marseille","lat":43.337444,"lon":5.374475,"is_reserved":false,"is_disabled":true,"rental_uris":{"android":"levelo://app?vid=cb38f8ca-3f33-48d2-ad62-3f854dbc3941","ios":"levelo://app?vid=cb38f8ca-3f33-48d2-ad62-3f854dbc3941"},"vehicle_type_id":"4","last_reported":1733393475,"current_range_meters":0,"station_id":"ce4bgk12rcd13ifvqbi0","pricing_plan_id":"cebpf4jnsgd1na2vs0mg"},{"bike_id":"e062c41f-846d-4786-9966-150022463a96","system_id":"levelo_inurba_marseille","lat":43.28936,"lon":5.36625,"is_reserved":false,"is_disabled":true,"rental_uris":{"android":"levelo://app?vid=e062c41f-846d-4786-9966-150022463a96","ios":"levelo://app?vid=e062c41f-846d-4786-9966-150022463a96"},"vehicle_type_id":"4","last_reported":1733393475,"current_range_meters":0,"station_id":"ce4bhap2rcd13ifvqek0","pricing_plan_id":"cebpf4jnsgd1na2vs0mg"},{"bike_id":"0c2e4689-47a8-474a-8365-28af664336d0","system_id":"levelo_inurba_marseille","lat":43.33602,"lon":5.41033,"is_reserved":false,"is_disabled":false,"rental_uris":{"android":"levelo://app?vid=0c2e4689-47a8-474a-8365-28af664336d0","ios":"levelo://app?vid=0c2e4689-47a8-474a-8365-28af664336d0"},"vehicle_type_id":"4","last_reported":1733393475,"current_range_meters":27600,"station_id":"ce4bhqh2rcd13ifvqhmg","pricing_plan_id":"cebpf4jnsgd1na2vs0mg"},{"bike_id":"83985555-c848-4b28-808f-8a7e7cf8519e","system_id":"levelo_inurba_marseille","lat":43.28115,"lon":5.43955,"is_reserved":false,"is_disabled":true,"rental_uris":{"android":"levelo://app?vid=83985555-c848-4b28-808f-8a7e7cf8519e","ios":"levelo://app?vid=83985555-c848-4b28-808f-8a7e7cf8519e"},"vehicle_type_id":"4","last_reported":1733393475,"current_range_meters":0,"station_id":"","pricing_plan_id":"cebpf4jnsgd1na2vs0mg"},{"bike_id":"903ec8f1-f4c3-441f-a117-ff7454fcb959","system_id":"levelo_inurba_marseille","lat":43.29467,"lon":5.39434,"is_reserved":false,"is_disabled":true,"rental_uris":{"android":"levelo://app?vid=903ec8f1-f4c3-441f-a117-ff7454fcb959","ios":"levelo://app?vid=903ec8f1-f4c3-441f-a117-ff7454fcb959"},"vehicle_type_id":"4","last_reported":1733393475,"current_range_meters":0,"station_id":"","pricing_plan_id":"cebpf4jnsgd1na2vs0mg"},{"bike_id":"7da42376-77b6-4f8e-8392-493643f84495","system_id":"levelo_inurba_marseille","lat":43.28699,"lon":5.39988,"is_reserved":false,"is_disabled":false,"rental_uris":{"android":"levelo://app?vid=7da42376-77b6-4f8e-8392-493643f84495","ios":"levelo://app?vid=7da42376-77b6-4f8e-8392-493643f84495"},"vehicle_type_id":"4","last_reported":1733393475,"current_range_meters":34800,"station_id":"ce4bho92rcd13ifvqh3g","pricing_plan_id":"cebpf4jnsgd1na2vs0mg"},{"bike_id":"f01c079e-081d-4d3a-b1fb-1464ed8b3d03","system_id":"levelo_inurba_marseille","lat":43.25578,"lon":5.38234,"is_reserved":false,"is_disabled":false,"rental_uris":{"android":"levelo://app?vid=f01c079e-081d-4d3a-b1fb-1464ed8b3d03","ios":"levelo://app?vid=f01c079e-081d-4d3a-b1fb-1464ed8b3d03"},"vehicle_type_id":"4","last_reported":1733393475,"current_range_meters":5600,"station_id":"ce4bhih2rcd13ifvqfs0","pricing_plan_id":"cebpf4jnsgd1na2vs0mg"},{"bike_id":"bde0d1f0-39ea-41b8-8689-2e0fad029a40","system_id":"levelo_inurba_marseille","lat":43.29295,"lon":5.37443,"is_reserved":false,"is_disabled":true,"rental_uris":{"android":"levelo://app?vid=bde0d1f0-39ea-41b8-8689-2e0fad029a40","ios":"levelo://app?vid=bde0d1f0-39ea-41b8-8689-2e0fad029a40"},"vehicle_type_id":"4","last_reported":1733393475,"current_range_meters":38000,"station_id":"ce4bgi12rcd13ifvqb70","pricing_plan_id":"cebpf4jnsgd1na2vs0mg"},{"bike_id":"6bb363b4-0d90-4113-bbd4-6e8616730990","system_id":"levelo_inurba_marseille","lat":43.29617,"lon":5.37723,"is_reserved":false,"is_disabled":true,"rental_uris":{"android":"levelo://app?vid=6bb363b4-0d90-4113-bbd4-6e8616730990","ios":"levelo://app?vid=6bb363b4-0d90-4113-bbd4-6e8616730990"},"vehicle_type_id":"4","last_reported":1733393475,"current_range_meters":800,"station_id":"ce4bgi92rcd13ifvqb90","pricing_plan_id":"cebpf4jnsgd1na2vs0mg"},{"bike_id":"eb21963f-de7e-4534-aca6-bda405f0be1e","system_id":"levelo_inurba_marseille","lat":43.29872,"lon":5.39758,"is_reserved":false,"is_disabled":false,"rental_uris":{"android":"levelo://app?vid=eb21963f-de7e-4534-aca6-bda405f0be1e","ios":"levelo://app?vid=eb21963f-de7e-4534-aca6-bda405f0be1e"},"vehicle_type_id":"4","last_reported":1733393475,"current_range_meters":32000,"station_id":"ce4bh0h2rcd13ifvqd50","pricing_plan_id":"cebpf4jnsgd1na2vs0mg"},{"bike_id":"020719d4-c29b-4e35-be4b-81ca932ddaa9","system_id":"levelo_inurba_marseille","lat":43.30242,"lon":5.40049,"is_reserved":false,"is_disabled":true,"rental_uris":{"android":"levelo://app?vid=020719d4-c29b-4e35-be4b-81ca932ddaa9","ios":"levelo://app?vid=020719d4-c29b-4e35-be4b-81ca932ddaa9"},"vehicle_type_id":"4","last_reported":1733393475,"current_range_meters":32000,"station_id":"ce4bgvh2rcd13ifvqcs0","pricing_plan_id":"cebpf4jnsgd1na2vs0mg"},{"bike_id":"83492766-92d1-48db-9f06-231702f40e6c","system_id":"levelo_inurba_marseille","lat":43.26214,"lon":5.37921,"is_reserved":false,"is_disabled":false,"rental_uris":{"android":"levelo://app?vid=83492766-92d1-48db-9f06-231702f40e6c","ios":"levelo://app?vid=83492766-92d1-48db-9f06-231702f40e6c"},"vehicle_type_id":"4","last_reported":1733393475,"current_range_meters":38800,"station_id":"ce4bhjp2rcd13ifvqg90","pricing_plan_id":"cebpf4jnsgd1na2vs0mg"},{"bike_id":"13538015-764f-42a6-b11b-bc3208e5b449","system_id":"levelo_inurba_marseille","lat":43.30906,"lon":5.36853,"is_reserved":false,"is_disabled":false,"rental_uris":{"android":"levelo://app?vid=13538015-764f-42a6-b11b-bc3208e5b449","ios":"levelo://app?vid=13538015-764f-42a6-b11b-bc3208e5b449"},"vehicle_type_id":"4","last_reported":1733393475,"current_range_meters":36800,"station_id":"ce4bgn92rcd13ifvqbvg","pricing_plan_id":"cebpf4jnsgd1na2vs0mg"},{"bike_id":"2cd8bcc2-6973-4bbb-a4df-236cf5858163","system_id":"levelo_inurba_marseille","lat":43.23198,"lon":5.35547,"is_reserved":false,"is_disabled":false,"rental_uris":{"android":"levelo://app?vid=2cd8bcc2-6973-4bbb-a4df-236cf5858163","ios":"levelo://app?vid=2cd8bcc2-6973-4bbb-a4df-236cf5858163"},"vehicle_type_id":"4","last_reported":1733393475,"current_range_meters":38800,"station_id":"ce4bhu92rcd13ifvqi70","pricing_plan_id":"cebpf4jnsgd1na2vs0mg"},{"bike_id":"5a350c9b-1f90-4325-b44e-2012b6d22cc7","system_id":"levelo_inurba_marseille","lat":43.296,"lon":5.38094,"is_reserved":false,"is_disabled":false,"rental_uris":{"android":"levelo://app?vid=5a350c9b-1f90-4325-b44e-2012b6d22cc7","ios":"levelo://app?vid=5a350c9b-1f90-4325-b44e-2012b6d22cc7"},"vehicle_type_id":"4","last_reported":1733393475,"current_range_meters":32000,"station_id":"ce4bgl12rcd13ifvqbo0","pricing_plan_id":"cebpf4jnsgd1na2vs0mg"},{"bike_id":"2e33b8ba-a6bd-4490-a1ee-179640a04ec5","system_id":"levelo_inurba_marseille","lat":43.29096,"lon":5.38139,"is_reserved":false,"is_disabled":true,"rental_uris":{"android":"levelo://app?vid=2e33b8ba-a6bd-4490-a1ee-179640a04ec5","ios":"levelo://app?vid=2e33b8ba-a6bd-4490-a1ee-179640a04ec5"},"vehicle_type_id":"4","last_reported":1733393475,"current_range_meters":37600,"station_id":"ce4bh512rcd13ifvqe2g","pricing_plan_id":"cebpf4jnsgd1na2vs0mg"},{"bike_id":"86e0770a-7d53-4f07-bfce-77b15f85fac6","system_id":"levelo_inurba_marseille","lat":43.29599,"lon":5.38103,"is_reserved":false,"is_disabled":false,"rental_uris":{"android":"levelo://app?vid=86e0770a-7d53-4f07-bfce-77b15f85fac6","ios":"levelo://app?vid=86e0770a-7d53-4f07-bfce-77b15f85fac6"},"vehicle_type_id":"4","last_reported":1733393475,"current_range_meters":38800,"station_id":"ce4bgl12rcd13ifvqbo0","pricing_plan_id":"cebpf4jnsgd1na2vs0mg"},{"bike_id":"1a9c3581-331f-42e7-8b9f-2cdd7828100c","system_id":"levelo_inurba_marseille","lat":43.26947,"lon":5.38632,"is_reserved":false,"is_disabled":false,"rental_uris":{"android":"levelo://app?vid=1a9c3581-331f-42e7-8b9f-2cdd7828100c","ios":"levelo://app?vid=1a9c3581-331f-42e7-8b9f-2cdd7828100c"},"vehicle_type_id":"4","last_reported":1733393475,"current_range_meters":38800,"station_id":"ce4bhh92rcd13ifvqfh0","pricing_plan_id":"cebpf4jnsgd1na2vs0mg"},{"bike_id":"506c09f4-6c9b-4fb3-996c-4c7f86dd75a8","system_id":"levelo_inurba_marseille","lat":43.25492,"lon":5.37652,"is_reserved":false,"is_disabled":true,"rental_uris":{"android":"levelo://app?vid=506c09f4-6c9b-4fb3-996c-4c7f86dd75a8","ios":"levelo://app?vid=506c09f4-6c9b-4fb3-996c-4c7f86dd75a8"},"vehicle_type_id":"4","last_reported":1733393475,"current_range_meters":0,"station_id":"","pricing_plan_id":"cebpf4jnsgd1na2vs0mg"},{"bike_id":"91ce04db-2714-450f-b5b6-ab07058eade5","system_id":"levelo_inurba_marseille","lat":43.29631,"lon":5.40597,"is_reserved":false,"is_disabled":true,"rental_uris":{"android":"levelo://app?vid=91ce04db-2714-450f-b5b6-ab07058eade5","ios":"levelo://app?vid=91ce04db-2714-450f-b5b6-ab07058eade5"},"vehicle_type_id":"4","last_reported":1733393475,"current_range_meters":0,"station_id":"ce4bh0h2rcd13ifvqd60","pricing_plan_id":"cebpf4jnsgd1na2vs0mg"},{"bike_id":"a5b5531f-e224-44cb-a7f1-11de402e62e9","system_id":"levelo_inurba_marseille","lat":43.293,"lon":5.3716,"is_reserved":false,"is_disabled":false,"rental_uris":{"android":"levelo://app?vid=a5b5531f-e224-44cb-a7f1-11de402e62e9","ios":"levelo://app?vid=a5b5531f-e224-44cb-a7f1-11de402e62e9"},"vehicle_type_id":"4","last_reported":1733393475,"current_range_meters":38400,"station_id":"ce4bgh92rcd13ifvqb40","pricing_plan_id":"cebpf4jnsgd1na2vs0mg"},{"bike_id":"9202c63e-372c-4469-a5c1-8e35757d1940","system_id":"levelo_inurba_marseille","lat":43.30053,"lon":5.38832,"is_reserved":false,"is_disabled":true,"rental_uris":{"android":"levelo://app?vid=9202c63e-372c-4469-a5c1-8e35757d1940","ios":"levelo://app?vid=9202c63e-372c-4469-a5c1-8e35757d1940"},"vehicle_type_id":"4","last_reported":1733393475,"current_range_meters":0,"station_id":"","pricing_plan_id":"cebpf4jnsgd1na2vs0mg"},{"bike_id":"a6ad604b-d42c-475a-aec5-62f707303eb7","system_id":"levelo_inurba_marseille","lat":43.29269,"lon":5.36845,"is_reserved":false,"is_disabled":false,"rental_uris":{"android":"levelo://app?vid=a6ad604b-d42c-475a-aec5-62f707303eb7","ios":"levelo://app?vid=a6ad604b-d42c-475a-aec5-62f707303eb7"},"vehicle_type_id":"4","last_reported":1733393475,"current_range_meters":38800,"station_id":"ce4bhbp2rcd13ifvqesg","pricing_plan_id":"cebpf4jnsgd1na2vs0mg"},{"bike_id":"87dd5b8f-0b75-4319-834b-00c1ec125d4a","system_id":"levelo_inurba_marseille","lat":43.29618,"lon":5.37712,"is_reserved":false,"is_disabled":false,"rental_uris":{"android":"levelo://app?vid=87dd5b8f-0b75-4319-834b-00c1ec125d4a","ios":"levelo://app?vid=87dd5b8f-0b75-4319-834b-00c1ec125d4a"},"vehicle_type_id":"4","last_reported":1733393475,"current_range_meters":37600,"station_id":"ce4bgi92rcd13ifvqb90","pricing_plan_id":"cebpf4jnsgd1na2vs0mg"},{"bike_id":"1d1e223d-f3f8-4945-8923-f4bdebc5ab9c","system_id":"levelo_inurba_marseille","lat":43.320637,"lon":5.415361,"is_reserved":false,"is_disabled":true,"rental_uris":{"android":"levelo://app?vid=1d1e223d-f3f8-4945-8923-f4bdebc5ab9c","ios":"levelo://app?vid=1d1e223d-f3f8-4945-8923-f4bdebc5ab9c"},"vehicle_type_id":"4","last_reported":1733393475,"current_range_meters":38800,"station_id":"ce4bhq92rcd13ifvqhkg","pricing_plan_id":"cebpf4jnsgd1na2vs0mg"},{"bike_id":"02817713-831c-4046-97be-81b071941a2e","system_id":"levelo_inurba_marseille","lat":43.29027,"lon":5.38135,"is_reserved":false,"is_disabled":false,"rental_uris":{"android":"levelo://app?vid=02817713-831c-4046-97be-81b071941a2e","ios":"levelo://app?vid=02817713-831c-4046-97be-81b071941a2e"},"vehicle_type_id":"4","last_reported":1733393475,"current_range_meters":10000,"station_id":"ce4bh4p2rcd13ifvqe1g","pricing_plan_id":"cebpf4jnsgd1na2vs0mg"},{"bike_id":"f4baaaf3-5729-45c6-81a9-b069f42d75d5","system_id":"levelo_inurba_marseille","lat":43.28939,"lon":5.39637,"is_reserved":false,"is_disabled":true,"rental_uris":{"android":"levelo://app?vid=f4baaaf3-5729-45c6-81a9-b069f42d75d5","ios":"levelo://app?vid=f4baaaf3-5729-45c6-81a9-b069f42d75d5"},"vehicle_type_id":"4","last_reported":1733393475,"current_range_meters":0,"station_id":"ce4bh3h2rcd13ifvqdn0","pricing_plan_id":"cebpf4jnsgd1na2vs0mg"},{"bike_id":"cf3e6ea0-09ff-406c-b357-28a6a6117f94","system_id":"levelo_inurba_marseille","lat":43.22933,"lon":5.35383,"is_reserved":false,"is_disabled":false,"rental_uris":{"android":"levelo://app?vid=cf3e6ea0-09ff-406c-b357-28a6a6117f94","ios":"levelo://app?vid=cf3e6ea0-09ff-406c-b357-28a6a6117f94"},"vehicle_type_id":"4","last_reported":1733393475,"current_range_meters":38800,"station_id":"cpo3532slgdg3j2ikp40","pricing_plan_id":"cebpf4jnsgd1na2vs0mg"},{"bike_id":"fd7dea6a-aa83-4656-baae-4085b6e7d8d6","system_id":"levelo_inurba_marseille","lat":43.33721,"lon":5.3918,"is_reserved":false,"is_disabled":false,"rental_uris":{"android":"levelo://app?vid=fd7dea6a-aa83-4656-baae-4085b6e7d8d6","ios":"levelo://app?vid=fd7dea6a-aa83-4656-baae-4085b6e7d8d6"},"vehicle_type_id":"4","last_reported":1733393475,"current_range_meters":17600,"station_id":"ce4bhr92rcd13ifvqhsg","pricing_plan_id":"cebpf4jnsgd1na2vs0mg"},{"bike_id":"33b6defc-0259-40c1-8c7c-b5f4200fa144","system_id":"levelo_inurba_marseille","lat":43.23958,"lon":5.36633,"is_reserved":false,"is_disabled":false,"rental_uris":{"android":"levelo://app?vid=33b6defc-0259-40c1-8c7c-b5f4200fa144","ios":"levelo://app?vid=33b6defc-0259-40c1-8c7c-b5f4200fa144"},"vehicle_type_id":"4","last_reported":1733393475,"current_range_meters":38800,"station_id":"ce4bhi12rcd13ifvqfp0","pricing_plan_id":"cebpf4jnsgd1na2vs0mg"},{"bike_id":"4112efcc-f8fa-49b3-934b-fce3c026527f","system_id":"levelo_inurba_marseille","lat":43.2812,"lon":5.40167,"is_reserved":false,"is_disabled":false,"rental_uris":{"android":"levelo://app?vid=4112efcc-f8fa-49b3-934b-fce3c026527f","ios":"levelo://app?vid=4112efcc-f8fa-49b3-934b-fce3c026527f"},"vehicle_type_id":"4","last_reported":1733393475,"current_range_meters":10000,"station_id":"ce4bgjp2rcd13ifvqbh0","pricing_plan_id":"cebpf4jnsgd1na2vs0mg"},{"bike_id":"f35fb32c-d87d-40ec-b85e-58e1545a23b9","system_id":"levelo_inurba_marseille","lat":43.24078,"lon":5.37751,"is_reserved":false,"is_disabled":false,"rental_uris":{"android":"levelo://app?vid=f35fb32c-d87d-40ec-b85e-58e1545a23b9","ios":"levelo://app?vid=f35fb32c-d87d-40ec-b85e-58e1545a23b9"},"vehicle_type_id":"4","last_reported":1733393475,"current_range_meters":38800,"station_id":"ce4bhnp2rcd13ifvqgvg","pricing_plan_id":"cebpf4jnsgd1na2vs0mg"},{"bike_id":"719e509a-25e4-4b1b-9830-f708d85d7593","system_id":"levelo_inurba_marseille","lat":43.29283,"lon":5.37397,"is_reserved":false,"is_disabled":true,"rental_uris":{"android":"levelo://app?vid=719e509a-25e4-4b1b-9830-f708d85d7593","ios":"levelo://app?vid=719e509a-25e4-4b1b-9830-f708d85d7593"},"vehicle_type_id":"4","last_reported":1733393475,"current_range_meters":0,"station_id":"","pricing_plan_id":"cebpf4jnsgd1na2vs0mg"},{"bike_id":"7c41dd30-3fc0-4834-a890-63173f927007","system_id":"levelo_inurba_marseille","lat":43.2315,"lon":5.43714,"is_reserved":false,"is_disabled":false,"rental_uris":{"android":"levelo://app?vid=7c41dd30-3fc0-4834-a890-63173f927007","ios":"levelo://app?vid=7c41dd30-3fc0-4834-a890-63173f927007"},"vehicle_type_id":"4","last_reported":1733393475,"current_range_meters":20400,"station_id":"ce4bhmp2rcd13ifvqgog","pricing_plan_id":"cebpf4jnsgd1na2vs0mg"},{"bike_id":"58280f48-f176-40ae-b2d3-88afe3de9d89","system_id":"levelo_inurba_marseille","lat":43.30952,"lon":5.39035,"is_reserved":false,"is_disabled":false,"rental_uris":{"android":"levelo://app?vid=58280f48-f176-40ae-b2d3-88afe3de9d89","ios":"levelo://app?vid=58280f48-f176-40ae-b2d3-88afe3de9d89"},"vehicle_type_id":"4","last_reported":1733393475,"current_range_meters":38800,"station_id":"ce4bgup2rcd13ifvqco0","pricing_plan_id":"cebpf4jnsgd1na2vs0mg"},{"bike_id":"6cee6ca7-2ed8-4482-8694-31560c096f0f","system_id":"levelo_inurba_marseille","lat":43.29627,"lon":5.40596,"is_reserved":false,"is_disabled":false,"rental_uris":{"android":"levelo://app?vid=6cee6ca7-2ed8-4482-8694-31560c096f0f","ios":"levelo://app?vid=6cee6ca7-2ed8-4482-8694-31560c096f0f"},"vehicle_type_id":"4","last_reported":1733393475,"current_range_meters":38000,"station_id":"ce4bh0h2rcd13ifvqd60","pricing_plan_id":"cebpf4jnsgd1na2vs0mg"},{"bike_id":"6e111957-e08a-4dff-8c65-9b42dba75b2b","system_id":"levelo_inurba_marseille","lat":43.30303,"lon":5.36899,"is_reserved":false,"is_disabled":false,"rental_uris":{"android":"levelo://app?vid=6e111957-e08a-4dff-8c65-9b42dba75b2b","ios":"levelo://app?vid=6e111957-e08a-4dff-8c65-9b42dba75b2b"},"vehicle_type_id":"4","last_reported":1733393475,"current_range_meters":30800,"station_id":"ce4bgqh2rcd13ifvqc5g","pricing_plan_id":"cebpf4jnsgd1na2vs0mg"},{"bike_id":"41e3c599-574c-4364-8f23-61919647a94f","system_id":"levelo_inurba_marseille","lat":43.24071,"lon":5.37755,"is_reserved":false,"is_disabled":false,"rental_uris":{"android":"levelo://app?vid=41e3c599-574c-4364-8f23-61919647a94f","ios":"levelo://app?vid=41e3c599-574c-4364-8f23-61919647a94f"},"vehicle_type_id":"4","last_reported":1733393475,"current_range_meters":33200,"station_id":"ce4bhnp2rcd13ifvqgvg","pricing_plan_id":"cebpf4jnsgd1na2vs0mg"},{"bike_id":"fe431fc4-1f18-44bb-97c9-f1bc2984a518","system_id":"levelo_inurba_marseille","lat":43.27993,"lon":5.41657,"is_reserved":false,"is_disabled":false,"rental_uris":{"android":"levelo://app?vid=fe431fc4-1f18-44bb-97c9-f1bc2984a518","ios":"levelo://app?vid=fe431fc4-1f18-44bb-97c9-f1bc2984a518"},"vehicle_type_id":"4","last_reported":1733393475,"current_range_meters":28400,"station_id":"ce4bho12rcd13ifvqh1g","pricing_plan_id":"cebpf4jnsgd1na2vs0mg"},{"bike_id":"9357e64c-2656-46e7-aea5-e3b270eb4f69","system_id":"levelo_inurba_marseille","lat":43.29847,"lon":5.36268,"is_reserved":false,"is_disabled":false,"rental_uris":{"android":"levelo://app?vid=9357e64c-2656-46e7-aea5-e3b270eb4f69","ios":"levelo://app?vid=9357e64c-2656-46e7-aea5-e3b270eb4f69"},"vehicle_type_id":"4","last_reported":1733393475,"current_range_meters":25600,"station_id":"ce4bgpp2rcd13ifvqc3g","pricing_plan_id":"cebpf4jnsgd1na2vs0mg"},{"bike_id":"7176fc4c-96ff-4545-aa07-0dfb59450313","system_id":"levelo_inurba_marseille","lat":43.23156,"lon":5.43709,"is_reserved":false,"is_disabled":false,"rental_uris":{"android":"levelo://app?vid=7176fc4c-96ff-4545-aa07-0dfb59450313","ios":"levelo://app?vid=7176fc4c-96ff-4545-aa07-0dfb59450313"},"vehicle_type_id":"4","last_reported":1733393475,"current_range_meters":32800,"station_id":"ce4bhmp2rcd13ifvqgog","pricing_plan_id":"cebpf4jnsgd1na2vs0mg"},{"bike_id":"1eacfd3d-209b-4593-a9f8-671cd4287fc3","system_id":"levelo_inurba_marseille","lat":43.27494,"lon":5.42454,"is_reserved":false,"is_disabled":false,"rental_uris":{"android":"levelo://app?vid=1eacfd3d-209b-4593-a9f8-671cd4287fc3","ios":"levelo://app?vid=1eacfd3d-209b-4593-a9f8-671cd4287fc3"},"vehicle_type_id":"4","last_reported":1733393475,"current_range_meters":8000,"station_id":"ce4bhn92rcd13ifvqgrg","pricing_plan_id":"cebpf4jnsgd1na2vs0mg"},{"bike_id":"b01ba929-1580-401b-973d-e4a15d746d4a","system_id":"levelo_inurba_marseille","lat":43.22929,"lon":5.35379,"is_reserved":false,"is_disabled":false,"rental_uris":{"android":"levelo://app?vid=b01ba929-1580-401b-973d-e4a15d746d4a","ios":"levelo://app?vid=b01ba929-1580-401b-973d-e4a15d746d4a"},"vehicle_type_id":"4","last_reported":1733393475,"current_range_meters":16400,"station_id":"cpo3532slgdg3j2ikp40","pricing_plan_id":"cebpf4jnsgd1na2vs0mg"},{"bike_id":"424fe211-6f8f-4e4f-aff8-ed583f1612f0","system_id":"levelo_inurba_marseille","lat":43.29632,"lon":5.4059,"is_reserved":false,"is_disabled":false,"rental_uris":{"android":"levelo://app?vid=424fe211-6f8f-4e4f-aff8-ed583f1612f0","ios":"levelo://app?vid=424fe211-6f8f-4e4f-aff8-ed583f1612f0"},"vehicle_type_id":"4","last_reported":1733393475,"current_range_meters":33600,"station_id":"ce4bh0h2rcd13ifvqd60","pricing_plan_id":"cebpf4jnsgd1na2vs0mg"},{"bike_id":"543b0472-eea6-4bf3-8f26-7426d9031df8","system_id":"levelo_inurba_marseille","lat":43.278125,"lon":5.407115,"is_reserved":false,"is_disabled":false,"rental_uris":{"android":"levelo://app?vid=543b0472-eea6-4bf3-8f26-7426d9031df8","ios":"levelo://app?vid=543b0472-eea6-4bf3-8f26-7426d9031df8"},"vehicle_type_id":"4","last_reported":1733393475,"current_range_meters":16000,"station_id":"ce4bhnh2rcd13ifvqgtg","pricing_plan_id":"cebpf4jnsgd1na2vs0mg"},{"bike_id":"4ce24450-aa59-4a55-986c-8d5868e9af3c","system_id":"levelo_inurba_marseille","lat":43.26946,"lon":5.38642,"is_reserved":false,"is_disabled":false,"rental_uris":{"android":"levelo://app?vid=4ce24450-aa59-4a55-986c-8d5868e9af3c","ios":"levelo://app?vid=4ce24450-aa59-4a55-986c-8d5868e9af3c"},"vehicle_type_id":"4","last_reported":1733393475,"current_range_meters":33600,"station_id":"ce4bhh92rcd13ifvqfh0","pricing_plan_id":"cebpf4jnsgd1na2vs0mg"},{"bike_id":"1d9a4b4c-056a-4257-82be-cdf0089ad0fc","system_id":"levelo_inurba_marseille","lat":43.269367,"lon":5.402547,"is_reserved":false,"is_disabled":false,"rental_uris":{"android":"levelo://app?vid=1d9a4b4c-056a-4257-82be-cdf0089ad0fc","ios":"levelo://app?vid=1d9a4b4c-056a-4257-82be-cdf0089ad0fc"},"vehicle_type_id":"4","last_reported":1733393475,"current_range_meters":38800,"station_id":"cjm6bp8fraef2m0cb0m0","pricing_plan_id":"cebpf4jnsgd1na2vs0mg"},{"bike_id":"010f1ddc-a5dd-4595-9905-ebf82317a65f","system_id":"levelo_inurba_marseille","lat":43.3302,"lon":5.39036,"is_reserved":false,"is_disabled":false,"rental_uris":{"android":"levelo://app?vid=010f1ddc-a5dd-4595-9905-ebf82317a65f","ios":"levelo://app?vid=010f1ddc-a5dd-4595-9905-ebf82317a65f"},"vehicle_type_id":"4","last_reported":1733393475,"current_range_meters":38800,"station_id":"ce4bhr92rcd13ifvqhrg","pricing_plan_id":"cebpf4jnsgd1na2vs0mg"},{"bike_id":"5c117aab-b7d1-467d-a209-f54bdce85fbd","system_id":"levelo_inurba_marseille","lat":43.30914,"lon":5.36854,"is_reserved":false,"is_disabled":false,"rental_uris":{"android":"levelo://app?vid=5c117aab-b7d1-467d-a209-f54bdce85fbd","ios":"levelo://app?vid=5c117aab-b7d1-467d-a209-f54bdce85fbd"},"vehicle_type_id":"4","last_reported":1733393475,"current_range_meters":30000,"station_id":"ce4bgn92rcd13ifvqbvg","pricing_plan_id":"cebpf4jnsgd1na2vs0mg"},{"bike_id":"a21808ea-c7b7-4f34-a3f7-99c41f4c35a7","system_id":"levelo_inurba_marseille","lat":43.30949,"lon":5.39034,"is_reserved":false,"is_disabled":false,"rental_uris":{"android":"levelo://app?vid=a21808ea-c7b7-4f34-a3f7-99c41f4c35a7","ios":"levelo://app?vid=a21808ea-c7b7-4f34-a3f7-99c41f4c35a7"},"vehicle_type_id":"4","last_reported":1733393475,"current_range_meters":37600,"station_id":"ce4bgup2rcd13ifvqco0","pricing_plan_id":"cebpf4jnsgd1na2vs0mg"},{"bike_id":"d5d85f9f-a0ad-420c-b735-16273f277a96","system_id":"levelo_inurba_marseille","lat":43.2293,"lon":5.35375,"is_reserved":false,"is_disabled":false,"rental_uris":{"android":"levelo://app?vid=d5d85f9f-a0ad-420c-b735-16273f277a96","ios":"levelo://app?vid=d5d85f9f-a0ad-420c-b735-16273f277a96"},"vehicle_type_id":"4","last_reported":1733393475,"current_range_meters":26000,"station_id":"cpo3532slgdg3j2ikp40","pricing_plan_id":"cebpf4jnsgd1na2vs0mg"},{"bike_id":"79c8ea6d-5102-4a1e-b941-afdabc095945","system_id":"levelo_inurba_marseille","lat":43.29066,"lon":5.38334,"is_reserved":false,"is_disabled":true,"rental_uris":{"android":"levelo://app?vid=79c8ea6d-5102-4a1e-b941-afdabc095945","ios":"levelo://app?vid=79c8ea6d-5102-4a1e-b941-afdabc095945"},"vehicle_type_id":"4","last_reported":1733393475,"current_range_meters":14400,"station_id":"","pricing_plan_id":"cebpf4jnsgd1na2vs0mg"},{"bike_id":"fc3bb84f-59cf-428d-89b4-9ec25fea430a","system_id":"levelo_inurba_marseille","lat":43.28482,"lon":5.38587,"is_reserved":false,"is_disabled":false,"rental_uris":{"android":"levelo://app?vid=fc3bb84f-59cf-428d-89b4-9ec25fea430a","ios":"levelo://app?vid=fc3bb84f-59cf-428d-89b4-9ec25fea430a"},"vehicle_type_id":"4","last_reported":1733393475,"current_range_meters":38800,"station_id":"ce4bh8p2rcd13ifvqeb0","pricing_plan_id":"cebpf4jnsgd1na2vs0mg"},{"bike_id":"da5eedda-4ed0-4fd3-8faf-54e5697e036f","system_id":"levelo_inurba_marseille","lat":43.29915,"lon":5.37472,"is_reserved":false,"is_disabled":false,"rental_uris":{"android":"levelo://app?vid=da5eedda-4ed0-4fd3-8faf-54e5697e036f","ios":"levelo://app?vid=da5eedda-4ed0-4fd3-8faf-54e5697e036f"},"vehicle_type_id":"4","last_reported":1733393475,"current_range_meters":25600,"station_id":"ce4bgjh2rcd13ifvqbg0","pricing_plan_id":"cebpf4jnsgd1na2vs0mg"},{"bike_id":"f9af7297-60c8-43d7-a968-0426c218f11f","system_id":"levelo_inurba_marseille","lat":43.25481,"lon":5.37653,"is_reserved":false,"is_disabled":true,"rental_uris":{"android":"levelo://app?vid=f9af7297-60c8-43d7-a968-0426c218f11f","ios":"levelo://app?vid=f9af7297-60c8-43d7-a968-0426c218f11f"},"vehicle_type_id":"4","last_reported":1733393475,"current_range_meters":10800,"station_id":"","pricing_plan_id":"cebpf4jnsgd1na2vs0mg"},{"bike_id":"3e592e74-64b6-427b-a9f3-9c85b0d07de7","system_id":"levelo_inurba_marseille","lat":43.2319,"lon":5.39987,"is_reserved":false,"is_disabled":false,"rental_uris":{"android":"levelo://app?vid=3e592e74-64b6-427b-a9f3-9c85b0d07de7","ios":"levelo://app?vid=3e592e74-64b6-427b-a9f3-9c85b0d07de7"},"vehicle_type_id":"4","last_reported":1733393475,"current_range_meters":30000,"station_id":"ce4bhn12rcd13ifvqgqg","pricing_plan_id":"cebpf4jnsgd1na2vs0mg"},{"bike_id":"bd1f85b5-1ade-4264-9243-4e0007387b34","system_id":"levelo_inurba_marseille","lat":43.305453,"lon":5.365527,"is_reserved":false,"is_disabled":false,"rental_uris":{"android":"levelo://app?vid=bd1f85b5-1ade-4264-9243-4e0007387b34","ios":"levelo://app?vid=bd1f85b5-1ade-4264-9243-4e0007387b34"},"vehicle_type_id":"4","last_reported":1733393475,"current_range_meters":33600,"station_id":"ce4bgs12rcd13ifvqcag","pricing_plan_id":"cebpf4jnsgd1na2vs0mg"},{"bike_id":"93e16e02-d588-4e99-9279-413a5cb0a089","system_id":"levelo_inurba_marseille","lat":43.31354,"lon":5.36713,"is_reserved":false,"is_disabled":true,"rental_uris":{"android":"levelo://app?vid=93e16e02-d588-4e99-9279-413a5cb0a089","ios":"levelo://app?vid=93e16e02-d588-4e99-9279-413a5cb0a089"},"vehicle_type_id":"4","last_reported":1733393475,"current_range_meters":28000,"station_id":"ce4bgr92rcd13ifvqc6g","pricing_plan_id":"cebpf4jnsgd1na2vs0mg"},{"bike_id":"704edf0a-9774-4ca2-8fd4-44a2b86045e9","system_id":"levelo_inurba_marseille","lat":43.27383,"lon":5.36265,"is_reserved":false,"is_disabled":false,"rental_uris":{"android":"levelo://app?vid=704edf0a-9774-4ca2-8fd4-44a2b86045e9","ios":"levelo://app?vid=704edf0a-9774-4ca2-8fd4-44a2b86045e9"},"vehicle_type_id":"4","last_reported":1733393475,"current_range_meters":20000,"station_id":"ce4bhbh2rcd13ifvqeo0","pricing_plan_id":"cebpf4jnsgd1na2vs0mg"},{"bike_id":"6cbba370-4cb2-4753-957d-8c3113d16189","system_id":"levelo_inurba_marseille","lat":43.32472,"lon":5.36553,"is_reserved":false,"is_disabled":false,"rental_uris":{"android":"levelo://app?vid=6cbba370-4cb2-4753-957d-8c3113d16189","ios":"levelo://app?vid=6cbba370-4cb2-4753-957d-8c3113d16189"},"vehicle_type_id":"4","last_reported":1733393475,"current_range_meters":39200,"station_id":"ce4bhs12rcd13ifvqhvg","pricing_plan_id":"cebpf4jnsgd1na2vs0mg"},{"bike_id":"e3923752-c6fb-428d-b772-351966af8aaa","system_id":"levelo_inurba_marseille","lat":43.30554,"lon":5.3654,"is_reserved":false,"is_disabled":true,"rental_uris":{"android":"levelo://app?vid=e3923752-c6fb-428d-b772-351966af8aaa","ios":"levelo://app?vid=e3923752-c6fb-428d-b772-351966af8aaa"},"vehicle_type_id":"4","last_reported":1733393475,"current_range_meters":0,"station_id":"ce4bgs12rcd13ifvqcag","pricing_plan_id":"cebpf4jnsgd1na2vs0mg"},{"bike_id":"a4b9e425-64b8-4ce2-a5ab-5fcc5d1230a4","system_id":"levelo_inurba_marseille","lat":43.32104,"lon":5.3678,"is_reserved":false,"is_disabled":false,"rental_uris":{"android":"levelo://app?vid=a4b9e425-64b8-4ce2-a5ab-5fcc5d1230a4","ios":"levelo://app?vid=a4b9e425-64b8-4ce2-a5ab-5fcc5d1230a4"},"vehicle_type_id":"4","last_reported":1733393475,"current_range_meters":36400,"station_id":"ce4bhrh2rcd13ifvqhug","pricing_plan_id":"cebpf4jnsgd1na2vs0mg"},{"bike_id":"fd98eaa9-4d55-4e7b-aa90-0d14707466d9","system_id":"levelo_inurba_marseille","lat":43.337444,"lon":5.374475,"is_reserved":false,"is_disabled":true,"rental_uris":{"android":"levelo://app?vid=fd98eaa9-4d55-4e7b-aa90-0d14707466d9","ios":"levelo://app?vid=fd98eaa9-4d55-4e7b-aa90-0d14707466d9"},"vehicle_type_id":"4","last_reported":1733393475,"current_range_meters":0,"station_id":"","pricing_plan_id":"cebpf4jnsgd1na2vs0mg"},{"bike_id":"39cb4215-5675-4565-aeae-c2392d98b594","system_id":"levelo_inurba_marseille","lat":43.337444,"lon":5.374475,"is_reserved":false,"is_disabled":false,"rental_uris":{"android":"levelo://app?vid=39cb4215-5675-4565-aeae-c2392d98b594","ios":"levelo://app?vid=39cb4215-5675-4565-aeae-c2392d98b594"},"vehicle_type_id":"4","last_reported":1733393475,"current_range_meters":38400,"station_id":"","pricing_plan_id":"cebpf4jnsgd1na2vs0mg"},{"bike_id":"005a0303-dde7-4bc7-9455-1c1a25ca3ae1","system_id":"levelo_inurba_marseille","lat":43.29795,"lon":5.38099,"is_reserved":false,"is_disabled":false,"rental_uris":{"android":"levelo://app?vid=005a0303-dde7-4bc7-9455-1c1a25ca3ae1","ios":"levelo://app?vid=005a0303-dde7-4bc7-9455-1c1a25ca3ae1"},"vehicle_type_id":"4","last_reported":1733393475,"current_range_meters":38800,"station_id":"ce4bgip2rcd13ifvqbb0","pricing_plan_id":"cebpf4jnsgd1na2vs0mg"},{"bike_id":"e9825e22-a219-4419-9c42-05f082b516ed","system_id":"levelo_inurba_marseille","lat":43.29794,"lon":5.39351,"is_reserved":false,"is_disabled":true,"rental_uris":{"android":"levelo://app?vid=e9825e22-a219-4419-9c42-05f082b516ed","ios":"levelo://app?vid=e9825e22-a219-4419-9c42-05f082b516ed"},"vehicle_type_id":"4","last_reported":1733393475,"current_range_meters":0,"station_id":"chh1huq6cuj3fo74tm60","pricing_plan_id":"cebpf4jnsgd1na2vs0mg"},{"bike_id":"9f166179-3cc0-42ca-860b-06242525cca2","system_id":"levelo_inurba_marseille","lat":43.320462,"lon":5.415508,"is_reserved":false,"is_disabled":false,"rental_uris":{"android":"levelo://app?vid=9f166179-3cc0-42ca-860b-06242525cca2","ios":"levelo://app?vid=9f166179-3cc0-42ca-860b-06242525cca2"},"vehicle_type_id":"4","last_reported":1733393475,"current_range_meters":34000,"station_id":"ce4bhq92rcd13ifvqhkg","pricing_plan_id":"cebpf4jnsgd1na2vs0mg"},{"bike_id":"fc02bf7c-fa30-4850-9eb4-c1c04eeef081","system_id":"levelo_inurba_marseille","lat":43.33012,"lon":5.39044,"is_reserved":false,"is_disabled":false,"rental_uris":{"android":"levelo://app?vid=fc02bf7c-fa30-4850-9eb4-c1c04eeef081","ios":"levelo://app?vid=fc02bf7c-fa30-4850-9eb4-c1c04eeef081"},"vehicle_type_id":"4","last_reported":1733393475,"current_range_meters":25200,"station_id":"ce4bhr92rcd13ifvqhrg","pricing_plan_id":"cebpf4jnsgd1na2vs0mg"},{"bike_id":"c2d8a1c2-d166-4a36-b32f-beec95c93bd5","system_id":"levelo_inurba_marseille","lat":43.33756,"lon":5.37459,"is_reserved":false,"is_disabled":false,"rental_uris":{"android":"levelo://app?vid=c2d8a1c2-d166-4a36-b32f-beec95c93bd5","ios":"levelo://app?vid=c2d8a1c2-d166-4a36-b32f-beec95c93bd5"},"vehicle_type_id":"4","last_reported":1733393475,"current_range_meters":9600,"station_id":"","pricing_plan_id":"cebpf4jnsgd1na2vs0mg"},{"bike_id":"628bd8c1-3b95-44f0-b3c0-6a57d77a81f2","system_id":"levelo_inurba_marseille","lat":43.27492,"lon":5.42453,"is_reserved":false,"is_disabled":false,"rental_uris":{"android":"levelo://app?vid=628bd8c1-3b95-44f0-b3c0-6a57d77a81f2","ios":"levelo://app?vid=628bd8c1-3b95-44f0-b3c0-6a57d77a81f2"},"vehicle_type_id":"4","last_reported":1733393475,"current_range_meters":25200,"station_id":"ce4bhn92rcd13ifvqgrg","pricing_plan_id":"cebpf4jnsgd1na2vs0mg"},{"bike_id":"aae6bf83-f63a-4e64-8e81-1ce3dc360841","system_id":"levelo_inurba_marseille","lat":43.27676,"lon":5.38883,"is_reserved":false,"is_disabled":true,"rental_uris":{"android":"levelo://app?vid=aae6bf83-f63a-4e64-8e81-1ce3dc360841","ios":"levelo://app?vid=aae6bf83-f63a-4e64-8e81-1ce3dc360841"},"vehicle_type_id":"4","last_reported":1733393475,"current_range_meters":0,"station_id":"ce4bhi12rcd13ifvqfo0","pricing_plan_id":"cebpf4jnsgd1na2vs0mg"},{"bike_id":"5f8bbb2c-ebed-4ddd-86fd-4d7693b5c047","system_id":"levelo_inurba_marseille","lat":43.26681,"lon":5.38265,"is_reserved":false,"is_disabled":false,"rental_uris":{"android":"levelo://app?vid=5f8bbb2c-ebed-4ddd-86fd-4d7693b5c047","ios":"levelo://app?vid=5f8bbb2c-ebed-4ddd-86fd-4d7693b5c047"},"vehicle_type_id":"4","last_reported":1733393475,"current_range_meters":30400,"station_id":"ce4bhg92rcd13ifvqf90","pricing_plan_id":"cebpf4jnsgd1na2vs0mg"},{"bike_id":"5f4b7b33-9066-484c-9c20-b70c39338231","system_id":"levelo_inurba_marseille","lat":43.26804,"lon":5.40268,"is_reserved":false,"is_disabled":false,"rental_uris":{"android":"levelo://app?vid=5f4b7b33-9066-484c-9c20-b70c39338231","ios":"levelo://app?vid=5f4b7b33-9066-484c-9c20-b70c39338231"},"vehicle_type_id":"4","last_reported":1733393475,"current_range_meters":4800,"station_id":"ce501612rcd8frsf0b60","pricing_plan_id":"cebpf4jnsgd1na2vs0mg"},{"bike_id":"940abbd8-a718-4c7d-a30d-ef1ac2c751bb","system_id":"levelo_inurba_marseille","lat":43.24389,"lon":5.37055,"is_reserved":false,"is_disabled":false,"rental_uris":{"android":"levelo://app?vid=940abbd8-a718-4c7d-a30d-ef1ac2c751bb","ios":"levelo://app?vid=940abbd8-a718-4c7d-a30d-ef1ac2c751bb"},"vehicle_type_id":"4","last_reported":1733393475,"current_range_meters":38800,"station_id":"ce4bhhh2rcd13ifvqfk0","pricing_plan_id":"cebpf4jnsgd1na2vs0mg"},{"bike_id":"5605d362-7a6b-439d-b82f-b1eebcb406f8","system_id":"levelo_inurba_marseille","lat":43.26678,"lon":5.38264,"is_reserved":false,"is_disabled":false,"rental_uris":{"android":"levelo://app?vid=5605d362-7a6b-439d-b82f-b1eebcb406f8","ios":"levelo://app?vid=5605d362-7a6b-439d-b82f-b1eebcb406f8"},"vehicle_type_id":"4","last_reported":1733393475,"current_range_meters":39200,"station_id":"ce4bhg92rcd13ifvqf90","pricing_plan_id":"cebpf4jnsgd1na2vs0mg"},{"bike_id":"b7ec7519-16d4-4bc8-8207-42c1cc7571ff","system_id":"levelo_inurba_marseille","lat":43.25933,"lon":5.40902,"is_reserved":false,"is_disabled":false,"rental_uris":{"android":"levelo://app?vid=b7ec7519-16d4-4bc8-8207-42c1cc7571ff","ios":"levelo://app?vid=b7ec7519-16d4-4bc8-8207-42c1cc7571ff"},"vehicle_type_id":"4","last_reported":1733393475,"current_range_meters":36800,"station_id":"ce4bhm92rcd13ifvqglg","pricing_plan_id":"cebpf4jnsgd1na2vs0mg"},{"bike_id":"93e96f52-8f73-403f-a4e2-ebe810df4b8f","system_id":"levelo_inurba_marseille","lat":43.3248,"lon":5.36564,"is_reserved":false,"is_disabled":false,"rental_uris":{"android":"levelo://app?vid=93e96f52-8f73-403f-a4e2-ebe810df4b8f","ios":"levelo://app?vid=93e96f52-8f73-403f-a4e2-ebe810df4b8f"},"vehicle_type_id":"4","last_reported":1733393475,"current_range_meters":10800,"station_id":"ce4bhs12rcd13ifvqhvg","pricing_plan_id":"cebpf4jnsgd1na2vs0mg"},{"bike_id":"37727576-2d28-4525-b065-40affdaee0f8","system_id":"levelo_inurba_marseille","lat":43.32367,"lon":5.38883,"is_reserved":false,"is_disabled":false,"rental_uris":{"android":"levelo://app?vid=37727576-2d28-4525-b065-40affdaee0f8","ios":"levelo://app?vid=37727576-2d28-4525-b065-40affdaee0f8"},"vehicle_type_id":"4","last_reported":1733393475,"current_range_meters":38800,"station_id":"ce4bhqp2rcd13ifvqhog","pricing_plan_id":"cebpf4jnsgd1na2vs0mg"},{"bike_id":"32ffac43-1183-4b55-94c4-819aa1f8e38a","system_id":"levelo_inurba_marseille","lat":43.25003,"lon":5.38933,"is_reserved":false,"is_disabled":false,"rental_uris":{"android":"levelo://app?vid=32ffac43-1183-4b55-94c4-819aa1f8e38a","ios":"levelo://app?vid=32ffac43-1183-4b55-94c4-819aa1f8e38a"},"vehicle_type_id":"4","last_reported":1733393475,"current_range_meters":20000,"station_id":"ce4bhgp2rcd13ifvqfd0","pricing_plan_id":"cebpf4jnsgd1na2vs0mg"},{"bike_id":"b84be679-5b1f-48c3-976b-26533c3ca5c4","system_id":"levelo_inurba_marseille","lat":43.29844,"lon":5.36256,"is_reserved":false,"is_disabled":false,"rental_uris":{"android":"levelo://app?vid=b84be679-5b1f-48c3-976b-26533c3ca5c4","ios":"levelo://app?vid=b84be679-5b1f-48c3-976b-26533c3ca5c4"},"vehicle_type_id":"4","last_reported":1733393475,"current_range_meters":38400,"station_id":"ce4bgpp2rcd13ifvqc3g","pricing_plan_id":"cebpf4jnsgd1na2vs0mg"},{"bike_id":"d227cda3-0a9d-4602-9dbe-ed98b927ad10","system_id":"levelo_inurba_marseille","lat":43.31336,"lon":5.36733,"is_reserved":false,"is_disabled":false,"rental_uris":{"android":"levelo://app?vid=d227cda3-0a9d-4602-9dbe-ed98b927ad10","ios":"levelo://app?vid=d227cda3-0a9d-4602-9dbe-ed98b927ad10"},"vehicle_type_id":"4","last_reported":1733393475,"current_range_meters":32400,"station_id":"ce4bgr92rcd13ifvqc6g","pricing_plan_id":"cebpf4jnsgd1na2vs0mg"},{"bike_id":"0cfd4186-700f-496a-af26-593edb713541","system_id":"levelo_inurba_marseille","lat":43.30465,"lon":5.37895,"is_reserved":false,"is_disabled":false,"rental_uris":{"android":"levelo://app?vid=0cfd4186-700f-496a-af26-593edb713541","ios":"levelo://app?vid=0cfd4186-700f-496a-af26-593edb713541"},"vehicle_type_id":"4","last_reported":1733393475,"current_range_meters":35600,"station_id":"ce4bgup2rcd13ifvqcn0","pricing_plan_id":"cebpf4jnsgd1na2vs0mg"},{"bike_id":"ce0784e5-3824-43c5-ba81-0506401ceca2","system_id":"levelo_inurba_marseille","lat":43.33024,"lon":5.39039,"is_reserved":false,"is_disabled":false,"rental_uris":{"android":"levelo://app?vid=ce0784e5-3824-43c5-ba81-0506401ceca2","ios":"levelo://app?vid=ce0784e5-3824-43c5-ba81-0506401ceca2"},"vehicle_type_id":"4","last_reported":1733393475,"current_range_meters":38000,"station_id":"ce4bhr92rcd13ifvqhrg","pricing_plan_id":"cebpf4jnsgd1na2vs0mg"},{"bike_id":"e93e82ee-f4f4-485f-a49f-6ea9b2abcc3e","system_id":"levelo_inurba_marseille","lat":43.30539,"lon":5.36535,"is_reserved":false,"is_disabled":false,"rental_uris":{"android":"levelo://app?vid=e93e82ee-f4f4-485f-a49f-6ea9b2abcc3e","ios":"levelo://app?vid=e93e82ee-f4f4-485f-a49f-6ea9b2abcc3e"},"vehicle_type_id":"4","last_reported":1733393475,"current_range_meters":38800,"station_id":"ce4bgs12rcd13ifvqcag","pricing_plan_id":"cebpf4jnsgd1na2vs0mg"},{"bike_id":"566d3863-5d3d-46e1-8560-48de365cc9d0","system_id":"levelo_inurba_marseille","lat":43.26552,"lon":5.37283,"is_reserved":false,"is_disabled":false,"rental_uris":{"android":"levelo://app?vid=566d3863-5d3d-46e1-8560-48de365cc9d0","ios":"levelo://app?vid=566d3863-5d3d-46e1-8560-48de365cc9d0"},"vehicle_type_id":"4","last_reported":1733393475,"current_range_meters":38800,"station_id":"ce4bhg12rcd13ifvqf70","pricing_plan_id":"cebpf4jnsgd1na2vs0mg"},{"bike_id":"09a9b2c6-5eab-4c52-9569-32783780597f","system_id":"levelo_inurba_marseille","lat":43.24081,"lon":5.37749,"is_reserved":false,"is_disabled":false,"rental_uris":{"android":"levelo://app?vid=09a9b2c6-5eab-4c52-9569-32783780597f","ios":"levelo://app?vid=09a9b2c6-5eab-4c52-9569-32783780597f"},"vehicle_type_id":"4","last_reported":1733393475,"current_range_meters":22000,"station_id":"ce4bhnp2rcd13ifvqgvg","pricing_plan_id":"cebpf4jnsgd1na2vs0mg"},{"bike_id":"ffa08f2f-980a-41ca-a2ee-2cc0dfab7e10","system_id":"levelo_inurba_marseille","lat":43.27209,"lon":5.39186,"is_reserved":false,"is_disabled":false,"rental_uris":{"android":"levelo://app?vid=ffa08f2f-980a-41ca-a2ee-2cc0dfab7e10","ios":"levelo://app?vid=ffa08f2f-980a-41ca-a2ee-2cc0dfab7e10"},"vehicle_type_id":"4","last_reported":1733393475,"current_range_meters":8400,"station_id":"ce4bhhp2rcd13ifvqfm0","pricing_plan_id":"cebpf4jnsgd1na2vs0mg"},{"bike_id":"46226c21-8eb6-497f-ba9e-14c8b332ac2f","system_id":"levelo_inurba_marseille","lat":43.29844,"lon":5.36271,"is_reserved":false,"is_disabled":false,"rental_uris":{"android":"levelo://app?vid=46226c21-8eb6-497f-ba9e-14c8b332ac2f","ios":"levelo://app?vid=46226c21-8eb6-497f-ba9e-14c8b332ac2f"},"vehicle_type_id":"4","last_reported":1733393475,"current_range_meters":24400,"station_id":"ce4bgpp2rcd13ifvqc3g","pricing_plan_id":"cebpf4jnsgd1na2vs0mg"},{"bike_id":"21c61b3f-2ae1-41ed-96e8-21fc1b01a387","system_id":"levelo_inurba_marseille","lat":43.30089,"lon":5.37244,"is_reserved":false,"is_disabled":false,"rental_uris":{"android":"levelo://app?vid=21c61b3f-2ae1-41ed-96e8-21fc1b01a387","ios":"levelo://app?vid=21c61b3f-2ae1-41ed-96e8-21fc1b01a387"},"vehicle_type_id":"4","last_reported":1733393475,"current_range_meters":16800,"station_id":"","pricing_plan_id":"cebpf4jnsgd1na2vs0mg"},{"bike_id":"65d9c2e9-bc97-494b-b0aa-cb1dd139a7e7","system_id":"levelo_inurba_marseille","lat":43.24702,"lon":5.39434,"is_reserved":false,"is_disabled":false,"rental_uris":{"android":"levelo://app?vid=65d9c2e9-bc97-494b-b0aa-cb1dd139a7e7","ios":"levelo://app?vid=65d9c2e9-bc97-494b-b0aa-cb1dd139a7e7"},"vehicle_type_id":"4","last_reported":1733393475,"current_range_meters":31200,"station_id":"","pricing_plan_id":"cebpf4jnsgd1na2vs0mg"},{"bike_id":"3a9149f3-357c-4d0a-859b-18382ef024a5","system_id":"levelo_inurba_marseille","lat":43.32112,"lon":5.36769,"is_reserved":false,"is_disabled":false,"rental_uris":{"android":"levelo://app?vid=3a9149f3-357c-4d0a-859b-18382ef024a5","ios":"levelo://app?vid=3a9149f3-357c-4d0a-859b-18382ef024a5"},"vehicle_type_id":"4","last_reported":1733393475,"current_range_meters":24400,"station_id":"ce4bhrh2rcd13ifvqhug","pricing_plan_id":"cebpf4jnsgd1na2vs0mg"},{"bike_id":"06af860e-477f-4827-a6e8-9e0a735c2efc","system_id":"levelo_inurba_marseille","lat":43.26197,"lon":5.37921,"is_reserved":false,"is_disabled":false,"rental_uris":{"android":"levelo://app?vid=06af860e-477f-4827-a6e8-9e0a735c2efc","ios":"levelo://app?vid=06af860e-477f-4827-a6e8-9e0a735c2efc"},"vehicle_type_id":"4","last_reported":1733393475,"current_range_meters":30000,"station_id":"ce4bhjp2rcd13ifvqg90","pricing_plan_id":"cebpf4jnsgd1na2vs0mg"},{"bike_id":"caf0dbbf-46fc-446d-b33a-0cca617bcd28","system_id":"levelo_inurba_marseille","lat":43.27494,"lon":5.42454,"is_reserved":false,"is_disabled":false,"rental_uris":{"android":"levelo://app?vid=caf0dbbf-46fc-446d-b33a-0cca617bcd28","ios":"levelo://app?vid=caf0dbbf-46fc-446d-b33a-0cca617bcd28"},"vehicle_type_id":"4","last_reported":1733393475,"current_range_meters":36400,"station_id":"ce4bhn92rcd13ifvqgrg","pricing_plan_id":"cebpf4jnsgd1na2vs0mg"},{"bike_id":"77eb87f6-183a-43d8-8ce8-babaf23a2337","system_id":"levelo_inurba_marseille","lat":43.27321,"lon":5.39067,"is_reserved":false,"is_disabled":false,"rental_uris":{"android":"levelo://app?vid=77eb87f6-183a-43d8-8ce8-babaf23a2337","ios":"levelo://app?vid=77eb87f6-183a-43d8-8ce8-babaf23a2337"},"vehicle_type_id":"4","last_reported":1733393475,"current_range_meters":36800,"station_id":"ce4bhgp2rcd13ifvqfe0","pricing_plan_id":"cebpf4jnsgd1na2vs0mg"},{"bike_id":"15cdf4ab-064e-45e0-9dfa-bdbf7e7a61f6","system_id":"levelo_inurba_marseille","lat":43.27499,"lon":5.42433,"is_reserved":false,"is_disabled":false,"rental_uris":{"android":"levelo://app?vid=15cdf4ab-064e-45e0-9dfa-bdbf7e7a61f6","ios":"levelo://app?vid=15cdf4ab-064e-45e0-9dfa-bdbf7e7a61f6"},"vehicle_type_id":"4","last_reported":1733393475,"current_range_meters":36000,"station_id":"ce4bhn92rcd13ifvqgrg","pricing_plan_id":"cebpf4jnsgd1na2vs0mg"},{"bike_id":"721f5feb-b378-4dac-af39-7801c98d73b6","system_id":"levelo_inurba_marseille","lat":43.30155,"lon":5.38076,"is_reserved":false,"is_disabled":true,"rental_uris":{"android":"levelo://app?vid=721f5feb-b378-4dac-af39-7801c98d73b6","ios":"levelo://app?vid=721f5feb-b378-4dac-af39-7801c98d73b6"},"vehicle_type_id":"4","last_reported":1733393475,"current_range_meters":0,"station_id":"ce4bgjp2rcd13ifvqbh0","pricing_plan_id":"cebpf4jnsgd1na2vs0mg"},{"bike_id":"da6a7a1d-e653-4950-af8c-8137b06f7d40","system_id":"levelo_inurba_marseille","lat":43.3004,"lon":5.37551,"is_reserved":false,"is_disabled":true,"rental_uris":{"android":"levelo://app?vid=da6a7a1d-e653-4950-af8c-8137b06f7d40","ios":"levelo://app?vid=da6a7a1d-e653-4950-af8c-8137b06f7d40"},"vehicle_type_id":"4","last_reported":1733393475,"current_range_meters":0,"station_id":"","pricing_plan_id":"cebpf4jnsgd1na2vs0mg"},{"bike_id":"83e01318-977b-4110-bff7-2466f25e4777","system_id":"levelo_inurba_marseille","lat":43.2594,"lon":5.40905,"is_reserved":false,"is_disabled":false,"rental_uris":{"android":"levelo://app?vid=83e01318-977b-4110-bff7-2466f25e4777","ios":"levelo://app?vid=83e01318-977b-4110-bff7-2466f25e4777"},"vehicle_type_id":"4","last_reported":1733393475,"current_range_meters":16000,"station_id":"ce4bhm92rcd13ifvqglg","pricing_plan_id":"cebpf4jnsgd1na2vs0mg"},{"bike_id":"10f45c91-d85a-4e94-8537-27e902b68779","system_id":"levelo_inurba_marseille","lat":43.25935,"lon":5.40911,"is_reserved":false,"is_disabled":false,"rental_uris":{"android":"levelo://app?vid=10f45c91-d85a-4e94-8537-27e902b68779","ios":"levelo://app?vid=10f45c91-d85a-4e94-8537-27e902b68779"},"vehicle_type_id":"4","last_reported":1733393475,"current_range_meters":18000,"station_id":"ce4bhm92rcd13ifvqglg","pricing_plan_id":"cebpf4jnsgd1na2vs0mg"},{"bike_id":"055f094c-d378-4f0a-bb86-072811811d59","system_id":"levelo_inurba_marseille","lat":43.25931,"lon":5.40865,"is_reserved":false,"is_disabled":false,"rental_uris":{"android":"levelo://app?vid=055f094c-d378-4f0a-bb86-072811811d59","ios":"levelo://app?vid=055f094c-d378-4f0a-bb86-072811811d59"},"vehicle_type_id":"4","last_reported":1733393475,"current_range_meters":38000,"station_id":"ce4bhm92rcd13ifvqglg","pricing_plan_id":"cebpf4jnsgd1na2vs0mg"},{"bike_id":"ea32da4e-bdd3-4cc0-95cd-754ac251d9d2","system_id":"levelo_inurba_marseille","lat":43.32479,"lon":5.36562,"is_reserved":false,"is_disabled":false,"rental_uris":{"android":"levelo://app?vid=ea32da4e-bdd3-4cc0-95cd-754ac251d9d2","ios":"levelo://app?vid=ea32da4e-bdd3-4cc0-95cd-754ac251d9d2"},"vehicle_type_id":"4","last_reported":1733393475,"current_range_meters":27200,"station_id":"ce4bhs12rcd13ifvqhvg","pricing_plan_id":"cebpf4jnsgd1na2vs0mg"},{"bike_id":"34962800-c0bb-49de-be16-2664543d8e85","system_id":"levelo_inurba_marseille","lat":43.30552,"lon":5.36554,"is_reserved":false,"is_disabled":false,"rental_uris":{"android":"levelo://app?vid=34962800-c0bb-49de-be16-2664543d8e85","ios":"levelo://app?vid=34962800-c0bb-49de-be16-2664543d8e85"},"vehicle_type_id":"4","last_reported":1733393475,"current_range_meters":38800,"station_id":"ce4bgs12rcd13ifvqcag","pricing_plan_id":"cebpf4jnsgd1na2vs0mg"},{"bike_id":"3dc3bbfc-7a8e-4230-9bd4-cf0c0009f96d","system_id":"levelo_inurba_marseille","lat":43.30535,"lon":5.36542,"is_reserved":false,"is_disabled":false,"rental_uris":{"android":"levelo://app?vid=3dc3bbfc-7a8e-4230-9bd4-cf0c0009f96d","ios":"levelo://app?vid=3dc3bbfc-7a8e-4230-9bd4-cf0c0009f96d"},"vehicle_type_id":"4","last_reported":1733393475,"current_range_meters":38800,"station_id":"ce4bgs12rcd13ifvqcag","pricing_plan_id":"cebpf4jnsgd1na2vs0mg"},{"bike_id":"b9bd56fd-ec87-4663-ac42-cd96603ef2b6","system_id":"levelo_inurba_marseille","lat":43.2985,"lon":5.36284,"is_reserved":false,"is_disabled":false,"rental_uris":{"android":"levelo://app?vid=b9bd56fd-ec87-4663-ac42-cd96603ef2b6","ios":"levelo://app?vid=b9bd56fd-ec87-4663-ac42-cd96603ef2b6"},"vehicle_type_id":"4","last_reported":1733393475,"current_range_meters":32400,"station_id":"ce4bgpp2rcd13ifvqc3g","pricing_plan_id":"cebpf4jnsgd1na2vs0mg"},{"bike_id":"2db7f5fd-afd5-494c-99fe-e965dfdef234","system_id":"levelo_inurba_marseille","lat":43.32475,"lon":5.36568,"is_reserved":false,"is_disabled":false,"rental_uris":{"android":"levelo://app?vid=2db7f5fd-afd5-494c-99fe-e965dfdef234","ios":"levelo://app?vid=2db7f5fd-afd5-494c-99fe-e965dfdef234"},"vehicle_type_id":"4","last_reported":1733393475,"current_range_meters":38000,"station_id":"ce4bhs12rcd13ifvqhvg","pricing_plan_id":"cebpf4jnsgd1na2vs0mg"},