{"last_updated":1727849564,"ttl":60,"version":"2.2","data":{"bikes":[{"bike_id":"1ec1f50b-6830-48fa-87dc-50ac191fb307","system_id":"levelo_inurba_marseille","lat":43.30469,"lon":5.37903,"is_reserved":false,"is_disabled":false,"rental_uris":{"android":"levelo://app?vid=1ec1f50b-6830-48fa-87dc-50ac191fb307","ios":"levelo://app?vid=1ec1f50b-6830-48fa-87dc-50ac191fb307"},"vehicle_type_id":"4","last_reported":1727849565,"current_range_meters":33200,"station_id":"ce4bgup2rcd13ifvqcn0","pricing_plan_id":"cebpf4jnsgd1na2vs0mg"},{"bike_id":"484edfb5-9f03-4dae-a24e-4b5baa8721ea","system_id":"levelo_inurba_marseille","lat":43.30485,"lon":5.37937,"is_reserved":false,"is_disabled":false,"rental_uris":{"android":"levelo://app?vid=484edfb5-9f03-4dae-a24e-4b5baa8721ea","ios":"levelo://app?vid=484edfb5-9f03-4dae-a24e-4b5baa8721ea"},"vehicle_type_id":"4","last_reported":1727849565,"current_range_meters":38800,"station_id":"ce4bgup2rcd13ifvqcn0","pricing_plan_id":"cebpf4jnsgd1na2vs0mg"},{"bike_id":"fbc4b367-7bbb-43b3-ba51-7142eb83236b","system_id":"levelo_inurba_marseille","lat":43.31463,"lon":5.37369,"is_reserved":false,"is_disabled":false,"rental_uris":{"android":"levelo://app?vid=fbc4b367-7bbb-43b3-ba51-7142eb83236b","ios":"levelo://app?vid=fbc4b367-7bbb-43b3-ba51-7142eb83236b"},"vehicle_type_id":"4","last_reported":1727849565,"current_range_meters":24800,"station_id":"","pricing_plan_id":"cebpf4jnsgd1na2vs0mg"},{"bike_id":"96d8b6be-baac-4722-8785-0612f979859f","system_id":"levelo_inurba_marseille","lat":43.34141,"lon":5.40906,"is_reserved":false,"is_disabled":false,"rental_uris":{"android":"levelo://app?vid=96d8b6be-baac-4722-8785-0612f979859f","ios":"levelo://app?vid=96d8b6be-baac-4722-8785-0612f979859f"},"vehicle_type_id":"4","last_reported":1727849565,"current_range_meters":38000,"station_id":"ce4bhqh2rcd13ifvqhlg","pricing_plan_id":"cebpf4jnsgd1na2vs0mg"},{"bike_id":"590a8d58-4170-45bf-9ac5-837bd3ff5b81","system_id":"levelo_inurba_marseille","lat":43.27063,"lon":5.42268,"is_reserved":false,"is_disabled":false,"rental_uris":{"android":"levelo://app?vid=590a8d58-4170-45bf-9ac5-837bd3ff5b81","ios":"levelo://app?vid=590a8d58-4170-45bf-9ac5-837bd3ff5b81"},"vehicle_type_id":"4","last_reported":1727849565,"current_range_meters":24800,"station_id":"ce4bhk92rcd13ifvqgb0","pricing_plan_id":"cebpf4jnsgd1na2vs0mg"},{"bike_id":"44cefc2e-25d9-4040-b45f-14956c78c679","system_id":"levelo_inurba_marseille","lat":43.27087,"lon":5.42246,"is_reserved":false,"is_disabled":false,"rental_uris":{"android":"levelo://app?vid=44cefc2e-25d9-4040-b45f-14956c78c679","ios":"levelo://app?vid=44cefc2e-25d9-4040-b45f-14956c78c679"},"vehicle_type_id":"4","last_reported":1727849565,"current_range_meters":38400,"station_id":"ce4bhk92rcd13ifvqgb0","pricing_plan_id":"cebpf4jnsgd1na2vs0mg"},{"bike_id":"aa7ac8c9-2dcc-4c8e-bcfc-a513221c486b","system_id":"levelo_inurba_marseille","lat":43.25832,"lon":5.39436,"is_reserved":false,"is_disabled":false,"rental_uris":{"android":"levelo://app?vid=aa7ac8c9-2dcc-4c8e-bcfc-a513221c486b","ios":"levelo://app?vid=aa7ac8c9-2dcc-4c8e-bcfc-a513221c486b"},"vehicle_type_id":"4","last_reported":1727849565,"current_range_meters":28400,"station_id":"ce4bhip2rcd13ifvqft0","pricing_plan_id":"cebpf4jnsgd1na2vs0mg"},{"bike_id":"83e07b7c-5a31-4eac-92e4-4f0fe5973f81","system_id":"levelo_inurba_marseille","lat":43.24651,"lon":5.38896,"is_reserved":false,"is_disabled":false,"rental_uris":{"android":"levelo://app?vid=83e07b7c-5a31-4eac-92e4-4f0fe5973f81","ios":"levelo://app?vid=83e07b7c-5a31-4eac-92e4-4f0fe5973f81"},"vehicle_type_id":"4","last_reported":1727849565,"current_range_meters":38800,"station_id":"ce4bhg12rcd13ifvqf60","pricing_plan_id":"cebpf4jnsgd1na2vs0mg"},{"bike_id":"4c64d8c3-bcd6-4130-8224-8451793b96ab","system_id":"levelo_inurba_marseille","lat":43.28342,"lon":5.38107,"is_reserved":false,"is_disabled":false,"rental_uris":{"android":"levelo://app?vid=4c64d8c3-bcd6-4130-8224-8451793b96ab","ios":"levelo://app?vid=4c64d8c3-bcd6-4130-8224-8451793b96ab"},"vehicle_type_id":"4","last_reported":1727849565,"current_range_meters":38800,"station_id":"ce4bh412rcd13ifvqdr0","pricing_plan_id":"cebpf4jnsgd1na2vs0mg"},{"bike_id":"0485bcbe-0a39-4683-888b-52caf108510c","system_id":"levelo_inurba_marseille","lat":43.30474,"lon":5.37918,"is_reserved":false,"is_disabled":false,"rental_uris":{"android":"levelo://app?vid=0485bcbe-0a39-4683-888b-52caf108510c","ios":"levelo://app?vid=0485bcbe-0a39-4683-888b-52caf108510c"},"vehicle_type_id":"4","last_reported":1727849565,"current_range_meters":37600,"station_id":"ce4bgup2rcd13ifvqcn0","pricing_plan_id":"cebpf4jnsgd1na2vs0mg"},{"bike_id":"1a3ec3a1-7767-4940-a140-a358655f8458","system_id":"levelo_inurba_marseille","lat":43.29555,"lon":5.42285,"is_reserved":false,"is_disabled":false,"rental_uris":{"android":"levelo://app?vid=1a3ec3a1-7767-4940-a140-a358655f8458","ios":"levelo://app?vid=1a3ec3a1-7767-4940-a140-a358655f8458"},"vehicle_type_id":"4","last_reported":1727849565,"current_range_meters":39200,"station_id":"ce4bhph2rcd13ifvqhdg","pricing_plan_id":"cebpf4jnsgd1na2vs0mg"},{"bike_id":"7c900199-0a94-426d-a47e-42538e2f9dec","system_id":"levelo_inurba_marseille","lat":43.29524,"lon":5.39402,"is_reserved":false,"is_disabled":false,"rental_uris":{"android":"levelo://app?vid=7c900199-0a94-426d-a47e-42538e2f9dec","ios":"levelo://app?vid=7c900199-0a94-426d-a47e-42538e2f9dec"},"vehicle_type_id":"4","last_reported":1727849565,"current_range_meters":30400,"station_id":"ce4bh292rcd13ifvqdf0","pricing_plan_id":"cebpf4jnsgd1na2vs0mg"},{"bike_id":"fa980e56-1e85-4ffb-824e-5670ae91f4c6","system_id":"levelo_inurba_marseille","lat":43.2816,"lon":5.42639,"is_reserved":false,"is_disabled":false,"rental_uris":{"android":"levelo://app?vid=fa980e56-1e85-4ffb-824e-5670ae91f4c6","ios":"levelo://app?vid=fa980e56-1e85-4ffb-824e-5670ae91f4c6"},"vehicle_type_id":"4","last_reported":1727849565,"current_range_meters":38800,"station_id":"ce4bhnh2rcd13ifvqgug","pricing_plan_id":"cebpf4jnsgd1na2vs0mg"},{"bike_id":"36a344bb-cf52-468f-82ca-bd8a027880ad","system_id":"levelo_inurba_marseille","lat":43.2958,"lon":5.36737,"is_reserved":false,"is_disabled":false,"rental_uris":{"android":"levelo://app?vid=36a344bb-cf52-468f-82ca-bd8a027880ad","ios":"levelo://app?vid=36a344bb-cf52-468f-82ca-bd8a027880ad"},"vehicle_type_id":"4","last_reported":1727849565,"current_range_meters":38400,"station_id":"ce4bgph2rcd13ifvqc2g","pricing_plan_id":"cebpf4jnsgd1na2vs0mg"},{"bike_id":"a4df2eb7-690f-4b11-9951-67b9790f07be","system_id":"levelo_inurba_marseille","lat":43.24083,"lon":5.37748,"is_reserved":false,"is_disabled":false,"rental_uris":{"android":"levelo://app?vid=a4df2eb7-690f-4b11-9951-67b9790f07be","ios":"levelo://app?vid=a4df2eb7-690f-4b11-9951-67b9790f07be"},"vehicle_type_id":"4","last_reported":1727849565,"current_range_meters":37600,"station_id":"ce4bhnp2rcd13ifvqgvg","pricing_plan_id":"cebpf4jnsgd1na2vs0mg"},{"bike_id":"0cca8498-5a6a-4e52-808d-ca8492e9c2eb","system_id":"levelo_inurba_marseille","lat":43.29228,"lon":5.36065,"is_reserved":false,"is_disabled":false,"rental_uris":{"android":"levelo://app?vid=0cca8498-5a6a-4e52-808d-ca8492e9c2eb","ios":"levelo://app?vid=0cca8498-5a6a-4e52-808d-ca8492e9c2eb"},"vehicle_type_id":"4","last_reported":1727849565,"current_range_meters":38400,"station_id":"ce4bhbh2rcd13ifvqeqg","pricing_plan_id":"cebpf4jnsgd1na2vs0mg"},{"bike_id":"58f3fb3a-fe36-4c95-8108-a0895ed09833","system_id":"levelo_inurba_marseille","lat":43.26684,"lon":5.38271,"is_reserved":false,"is_disabled":false,"rental_uris":{"android":"levelo://app?vid=58f3fb3a-fe36-4c95-8108-a0895ed09833","ios":"levelo://app?vid=58f3fb3a-fe36-4c95-8108-a0895ed09833"},"vehicle_type_id":"4","last_reported":1727849565,"current_range_meters":28800,"station_id":"ce4bhg92rcd13ifvqf90","pricing_plan_id":"cebpf4jnsgd1na2vs0mg"},{"bike_id":"990c12aa-9878-42d7-adee-717160a3fdf4","system_id":"levelo_inurba_marseille","lat":43.30469,"lon":5.37915,"is_reserved":false,"is_disabled":false,"rental_uris":{"android":"levelo://app?vid=990c12aa-9878-42d7-adee-717160a3fdf4","ios":"levelo://app?vid=990c12aa-9878-42d7-adee-717160a3fdf4"},"vehicle_type_id":"4","last_reported":1727849565,"current_range_meters":14000,"station_id":"ce4bgup2rcd13ifvqcn0","pricing_plan_id":"cebpf4jnsgd1na2vs0mg"},{"bike_id":"6bac66e0-811a-4dc5-af95-25fafe85dad4","system_id":"levelo_inurba_marseille","lat":43.28339,"lon":5.38103,"is_reserved":false,"is_disabled":false,"rental_uris":{"android":"levelo://app?vid=6bac66e0-811a-4dc5-af95-25fafe85dad4","ios":"levelo://app?vid=6bac66e0-811a-4dc5-af95-25fafe85dad4"},"vehicle_type_id":"4","last_reported":1727849565,"current_range_meters":39200,"station_id":"ce4bh412rcd13ifvqdr0","pricing_plan_id":"cebpf4jnsgd1na2vs0mg"},{"bike_id":"8619d49b-63de-469f-9f3a-28db70f1742a","system_id":"levelo_inurba_marseille","lat":43.3122,"lon":5.36854,"is_reserved":false,"is_disabled":false,"rental_uris":{"android":"levelo://app?vid=8619d49b-63de-469f-9f3a-28db70f1742a","ios":"levelo://app?vid=8619d49b-63de-469f-9f3a-28db70f1742a"},"vehicle_type_id":"4","last_reported":1727849565,"current_range_meters":37600,"station_id":"ce4bgl92rcd13ifvqbq0","pricing_plan_id":"cebpf4jnsgd1na2vs0mg"},{"bike_id":"17199f16-9816-42ff-a5d5-f75a63bfb6b7","system_id":"levelo_inurba_marseille","lat":43.30467,"lon":5.37914,"is_reserved":false,"is_disabled":false,"rental_uris":{"android":"levelo://app?vid=17199f16-9816-42ff-a5d5-f75a63bfb6b7","ios":"levelo://app?vid=17199f16-9816-42ff-a5d5-f75a63bfb6b7"},"vehicle_type_id":"4","last_reported":1727849565,"current_range_meters":34000,"station_id":"ce4bgup2rcd13ifvqcn0","pricing_plan_id":"cebpf4jnsgd1na2vs0mg"},{"bike_id":"82acabc9-7ead-419f-9651-51126b670125","system_id":"levelo_inurba_marseille","lat":43.3047,"lon":5.37911,"is_reserved":false,"is_disabled":false,"rental_uris":{"android":"levelo://app?vid=82acabc9-7ead-419f-9651-51126b670125","ios":"levelo://app?vid=82acabc9-7ead-419f-9651-51126b670125"},"vehicle_type_id":"4","last_reported":1727849565,"current_range_meters":26000,"station_id":"ce4bgup2rcd13ifvqcn0","pricing_plan_id":"cebpf4jnsgd1na2vs0mg"},{"bike_id":"a4224d16-b792-43d4-bccc-ee1385fa6dad","system_id":"levelo_inurba_marseille","lat":43.32545,"lon":5.4145,"is_reserved":false,"is_disabled":false,"rental_uris":{"android":"levelo://app?vid=a4224d16-b792-43d4-bccc-ee1385fa6dad","ios":"levelo://app?vid=a4224d16-b792-43d4-bccc-ee1385fa6dad"},"vehicle_type_id":"4","last_reported":1727849565,"current_range_meters":39200,"station_id":"ce4bhq12rcd13ifvqhhg","pricing_plan_id":"cebpf4jnsgd1na2vs0mg"},{"bike_id":"f4c13691-804a-4b9e-adeb-f70af675e58f","system_id":"levelo_inurba_marseille","lat":43.28712,"lon":5.379369,"is_reserved":false,"is_disabled":false,"rental_uris":{"android":"levelo://app?vid=f4c13691-804a-4b9e-adeb-f70af675e58f","ios":"levelo://app?vid=f4c13691-804a-4b9e-adeb-f70af675e58f"},"vehicle_type_id":"4","last_reported":1727849565,"current_range_meters":21600,"station_id":"ce4bgt12rcd13ifvqce0","pricing_plan_id":"cebpf4jnsgd1na2vs0mg"},{"bike_id":"202e0f5d-a2cc-4f86-93f0-5e300189a421","system_id":"levelo_inurba_marseille","lat":43.31231,"lon":5.36854,"is_reserved":false,"is_disabled":false,"rental_uris":{"android":"levelo://app?vid=202e0f5d-a2cc-4f86-93f0-5e300189a421","ios":"levelo://app?vid=202e0f5d-a2cc-4f86-93f0-5e300189a421"},"vehicle_type_id":"4","last_reported":1727849565,"current_range_meters":12400,"station_id":"ce4bgl92rcd13ifvqbq0","pricing_plan_id":"cebpf4jnsgd1na2vs0mg"},{"bike_id":"554d7a73-3b40-4dac-9894-f5eadfdc26ff","system_id":"levelo_inurba_marseille","lat":43.28152,"lon":5.42638,"is_reserved":false,"is_disabled":false,"rental_uris":{"android":"levelo://app?vid=554d7a73-3b40-4dac-9894-f5eadfdc26ff","ios":"levelo://app?vid=554d7a73-3b40-4dac-9894-f5eadfdc26ff"},"vehicle_type_id":"4","last_reported":1727849565,"current_range_meters":38800,"station_id":"ce4bhnh2rcd13ifvqgug","pricing_plan_id":"cebpf4jnsgd1na2vs0mg"},{"bike_id":"d2956ee7-a248-4344-a66e-8339b1d81b8a","system_id":"levelo_inurba_marseille","lat":43.30597,"lon":5.39355,"is_reserved":false,"is_disabled":false,"rental_uris":{"android":"levelo://app?vid=d2956ee7-a248-4344-a66e-8339b1d81b8a","ios":"levelo://app?vid=d2956ee7-a248-4344-a66e-8339b1d81b8a"},"vehicle_type_id":"4","last_reported":1727849565,"current_range_meters":20400,"station_id":"ce4bh0p2rcd13ifvqd80","pricing_plan_id":"cebpf4jnsgd1na2vs0mg"},{"bike_id":"7e76f61d-1104-460b-895f-03b2abf7da39","system_id":"levelo_inurba_marseille","lat":43.24077,"lon":5.37751,"is_reserved":false,"is_disabled":false,"rental_uris":{"android":"levelo://app?vid=7e76f61d-1104-460b-895f-03b2abf7da39","ios":"levelo://app?vid=7e76f61d-1104-460b-895f-03b2abf7da39"},"vehicle_type_id":"4","last_reported":1727849565,"current_range_meters":12400,"station_id":"ce4bhnp2rcd13ifvqgvg","pricing_plan_id":"cebpf4jnsgd1na2vs0mg"},{"bike_id":"cd03a0a1-9b0f-4c30-b85f-16f6891bc50a","system_id":"levelo_inurba_marseille","lat":43.295105,"lon":5.390424,"is_reserved":false,"is_disabled":false,"rental_uris":{"android":"levelo://app?vid=cd03a0a1-9b0f-4c30-b85f-16f6891bc50a","ios":"levelo://app?vid=cd03a0a1-9b0f-4c30-b85f-16f6891bc50a"},"vehicle_type_id":"4","last_reported":1727849565,"current_range_meters":37600,"station_id":"ce4bh3p2rcd13ifvqdp0","pricing_plan_id":"cebpf4jnsgd1na2vs0mg"},{"bike_id":"cc640da1-a3dd-4e35-b4a7-a69a4681666a","system_id":"levelo_inurba_marseille","lat":43.27067,"lon":5.42271,"is_reserved":false,"is_disabled":false,"rental_uris":{"android":"levelo://app?vid=cc640da1-a3dd-4e35-b4a7-a69a4681666a","ios":"levelo://app?vid=cc640da1-a3dd-4e35-b4a7-a69a4681666a"},"vehicle_type_id":"4","last_reported":1727849565,"current_range_meters":19200,"station_id":"ce4bhk92rcd13ifvqgb0","pricing_plan_id":"cebpf4jnsgd1na2vs0mg"},{"bike_id":"ab69cf82-d28f-4d20-8d43-83efad4e6629","system_id":"levelo_inurba_marseille","lat":43.26577,"lon":5.39006,"is_reserved":false,"is_disabled":false,"rental_uris":{"android":"levelo://app?vid=ab69cf82-d28f-4d20-8d43-83efad4e6629","ios":"levelo://app?vid=ab69cf82-d28f-4d20-8d43-83efad4e6629"},"vehicle_type_id":"4","last_reported":1727849565,"current_range_meters":33600,"station_id":"ce4bhe12rcd13ifvqf30","pricing_plan_id":"cebpf4jnsgd1na2vs0mg"},{"bike_id":"7d7ddf74-361b-44e2-80ad-7fe6e69ba42b","system_id":"levelo_inurba_marseille","lat":43.25581,"lon":5.38233,"is_reserved":false,"is_disabled":false,"rental_uris":{"android":"levelo://app?vid=7d7ddf74-361b-44e2-80ad-7fe6e69ba42b","ios":"levelo://app?vid=7d7ddf74-361b-44e2-80ad-7fe6e69ba42b"},"vehicle_type_id":"4","last_reported":1727849565,"current_range_meters":33600,"station_id":"ce4bhih2rcd13ifvqfs0","pricing_plan_id":"cebpf4jnsgd1na2vs0mg"},{"bike_id":"f2832095-e7fd-4b0a-9937-b9657b859693","system_id":"levelo_inurba_marseille","lat":43.26944,"lon":5.40247,"is_reserved":false,"is_disabled":false,"rental_uris":{"android":"levelo://app?vid=f2832095-e7fd-4b0a-9937-b9657b859693","ios":"levelo://app?vid=f2832095-e7fd-4b0a-9937-b9657b859693"},"vehicle_type_id":"4","last_reported":1727849565,"current_range_meters":38800,"station_id":"cjm6bp8fraef2m0cb0m0","pricing_plan_id":"cebpf4jnsgd1na2vs0mg"},{"bike_id":"5cf0fe1f-5de8-4dad-908a-e36b3e646002","system_id":"levelo_inurba_marseille","lat":43.25007,"lon":5.38909,"is_reserved":false,"is_disabled":false,"rental_uris":{"android":"levelo://app?vid=5cf0fe1f-5de8-4dad-908a-e36b3e646002","ios":"levelo://app?vid=5cf0fe1f-5de8-4dad-908a-e36b3e646002"},"vehicle_type_id":"4","last_reported":1727849565,"current_range_meters":35200,"station_id":"ce4bhgp2rcd13ifvqfd0","pricing_plan_id":"cebpf4jnsgd1na2vs0mg"},{"bike_id":"a0b4b1eb-192d-43e9-8df8-a0e17b402f40","system_id":"levelo_inurba_marseille","lat":43.2798,"lon":5.40462,"is_reserved":false,"is_disabled":false,"rental_uris":{"android":"levelo://app?vid=a0b4b1eb-192d-43e9-8df8-a0e17b402f40","ios":"levelo://app?vid=a0b4b1eb-192d-43e9-8df8-a0e17b402f40"},"vehicle_type_id":"4","last_reported":1727849565,"current_range_meters":28400,"station_id":"ce4bhnh2rcd13ifvqgtg","pricing_plan_id":"cebpf4jnsgd1na2vs0mg"},{"bike_id":"124863e4-db68-43d5-b9aa-40c8641a8244","system_id":"levelo_inurba_marseille","lat":43.30321,"lon":5.36908,"is_reserved":false,"is_disabled":false,"rental_uris":{"android":"levelo://app?vid=124863e4-db68-43d5-b9aa-40c8641a8244","ios":"levelo://app?vid=124863e4-db68-43d5-b9aa-40c8641a8244"},"vehicle_type_id":"4","last_reported":1727849565,"current_range_meters":38000,"station_id":"ce4bgqh2rcd13ifvqc5g","pricing_plan_id":"cebpf4jnsgd1na2vs0mg"},{"bike_id":"fec2ef64-dae0-45ad-8eac-e92d7e96595a","system_id":"levelo_inurba_marseille","lat":43.33612,"lon":5.41033,"is_reserved":false,"is_disabled":false,"rental_uris":{"android":"levelo://app?vid=fec2ef64-dae0-45ad-8eac-e92d7e96595a","ios":"levelo://app?vid=fec2ef64-dae0-45ad-8eac-e92d7e96595a"},"vehicle_type_id":"4","last_reported":1727849565,"current_range_meters":32000,"station_id":"ce4bhqh2rcd13ifvqhmg","pricing_plan_id":"cebpf4jnsgd1na2vs0mg"},{"bike_id":"d8aca88c-2b37-438e-a894-303d677e2f8e","system_id":"levelo_inurba_marseille","lat":43.30784,"lon":5.37651,"is_reserved":false,"is_disabled":false,"rental_uris":{"android":"levelo://app?vid=d8aca88c-2b37-438e-a894-303d677e2f8e","ios":"levelo://app?vid=d8aca88c-2b37-438e-a894-303d677e2f8e"},"vehicle_type_id":"4","last_reported":1727849565,"current_range_meters":8000,"station_id":"ce4bgv92rcd13ifvqcq0","pricing_plan_id":"cebpf4jnsgd1na2vs0mg"},{"bike_id":"d5bf9db1-7dca-49c1-8306-b4004223ad4f","system_id":"levelo_inurba_marseille","lat":43.30535,"lon":5.36539,"is_reserved":false,"is_disabled":false,"rental_uris":{"android":"levelo://app?vid=d5bf9db1-7dca-49c1-8306-b4004223ad4f","ios":"levelo://app?vid=d5bf9db1-7dca-49c1-8306-b4004223ad4f"},"vehicle_type_id":"4","last_reported":1727849565,"current_range_meters":30000,"station_id":"ce4bgs12rcd13ifvqcag","pricing_plan_id":"cebpf4jnsgd1na2vs0mg"},{"bike_id":"0a401d57-16fb-4ba3-95f5-660ee6285378","system_id":"levelo_inurba_marseille","lat":43.32342,"lon":5.40614,"is_reserved":false,"is_disabled":false,"rental_uris":{"android":"levelo://app?vid=0a401d57-16fb-4ba3-95f5-660ee6285378","ios":"levelo://app?vid=0a401d57-16fb-4ba3-95f5-660ee6285378"},"vehicle_type_id":"4","last_reported":1727849565,"current_range_meters":28800,"station_id":"","pricing_plan_id":"cebpf4jnsgd1na2vs0mg"},{"bike_id":"d22d8e57-27bb-49ac-8a2d-7acd2faa7e73","system_id":"levelo_inurba_marseille","lat":43.30547,"lon":5.36544,"is_reserved":false,"is_disabled":false,"rental_uris":{"android":"levelo://app?vid=d22d8e57-27bb-49ac-8a2d-7acd2faa7e73","ios":"levelo://app?vid=d22d8e57-27bb-49ac-8a2d-7acd2faa7e73"},"vehicle_type_id":"4","last_reported":1727849565,"current_range_meters":30000,"station_id":"ce4bgs12rcd13ifvqcag","pricing_plan_id":"cebpf4jnsgd1na2vs0mg"},{"bike_id":"81750190-39ad-463e-969c-0a74da3c78de","system_id":"levelo_inurba_marseille","lat":43.29261,"lon":5.40911,"is_reserved":false,"is_disabled":false,"rental_uris":{"android":"levelo://app?vid=81750190-39ad-463e-969c-0a74da3c78de","ios":"levelo://app?vid=81750190-39ad-463e-969c-0a74da3c78de"},"vehicle_type_id":"4","last_reported":1727849565,"current_range_meters":38000,"station_id":"ce4bh192rcd13ifvqdc0","pricing_plan_id":"cebpf4jnsgd1na2vs0mg"},{"bike_id":"9841c7eb-2e6a-4c0d-ace7-6fb1e20d7cd3","system_id":"levelo_inurba_marseille","lat":43.28439,"lon":5.38516,"is_reserved":false,"is_disabled":false,"rental_uris":{"android":"levelo://app?vid=9841c7eb-2e6a-4c0d-ace7-6fb1e20d7cd3","ios":"levelo://app?vid=9841c7eb-2e6a-4c0d-ace7-6fb1e20d7cd3"},"vehicle_type_id":"4","last_reported":1727849565,"current_range_meters":8800,"station_id":"","pricing_plan_id":"cebpf4jnsgd1na2vs0mg"},{"bike_id":"604b63f4-5df8-4e7c-bb9f-45e3d64c6f32","system_id":"levelo_inurba_marseille","lat":43.30595,"lon":5.3936,"is_reserved":false,"is_disabled":false,"rental_uris":{"android":"levelo://app?vid=604b63f4-5df8-4e7c-bb9f-45e3d64c6f32","ios":"levelo://app?vid=604b63f4-5df8-4e7c-bb9f-45e3d64c6f32"},"vehicle_type_id":"4","last_reported":1727849565,"current_range_meters":27600,"station_id":"ce4bh0p2rcd13ifvqd80","pricing_plan_id":"cebpf4jnsgd1na2vs0mg"},{"bike_id":"4546a06b-ce4a-43f6-9544-5e0c15f145d7","system_id":"levelo_inurba_marseille","lat":43.29275,"lon":5.40138,"is_reserved":false,"is_disabled":false,"rental_uris":{"android":"levelo://app?vid=4546a06b-ce4a-43f6-9544-5e0c15f145d7","ios":"levelo://app?vid=4546a06b-ce4a-43f6-9544-5e0c15f145d7"},"vehicle_type_id":"4","last_reported":1727849565,"current_range_meters":32000,"station_id":"ce4bh312rcd13ifvqdk0","pricing_plan_id":"cebpf4jnsgd1na2vs0mg"},{"bike_id":"e1777242-6990-42f7-afc5-12b786593878","system_id":"levelo_inurba_marseille","lat":43.28939,"lon":5.39623,"is_reserved":false,"is_disabled":false,"rental_uris":{"android":"levelo://app?vid=e1777242-6990-42f7-afc5-12b786593878","ios":"levelo://app?vid=e1777242-6990-42f7-afc5-12b786593878"},"vehicle_type_id":"4","last_reported":1727849565,"current_range_meters":37600,"station_id":"ce4bh3h2rcd13ifvqdn0","pricing_plan_id":"cebpf4jnsgd1na2vs0mg"},{"bike_id":"e4ea3291-d0de-47fb-b71e-8570f7c286ed","system_id":"levelo_inurba_marseille","lat":43.328131,"lon":5.413825,"is_reserved":false,"is_disabled":false,"rental_uris":{"android":"levelo://app?vid=e4ea3291-d0de-47fb-b71e-8570f7c286ed","ios":"levelo://app?vid=e4ea3291-d0de-47fb-b71e-8570f7c286ed"},"vehicle_type_id":"4","last_reported":1727849565,"current_range_meters":33600,"station_id":"ce4bhqh2rcd13ifvqhlg","pricing_plan_id":"cebpf4jnsgd1na2vs0mg"},{"bike_id":"0a44300e-e0be-4b18-9930-50ca4ca286dd","system_id":"levelo_inurba_marseille","lat":43.30457,"lon":5.37907,"is_reserved":false,"is_disabled":false,"rental_uris":{"android":"levelo://app?vid=0a44300e-e0be-4b18-9930-50ca4ca286dd","ios":"levelo://app?vid=0a44300e-e0be-4b18-9930-50ca4ca286dd"},"vehicle_type_id":"4","last_reported":1727849565,"current_range_meters":24400,"station_id":"ce4bgup2rcd13ifvqcn0","pricing_plan_id":"cebpf4jnsgd1na2vs0mg"},{"bike_id":"fc3c0038-8457-46c4-8a3a-b7952e6b9861","system_id":"levelo_inurba_marseille","lat":43.28001,"lon":5.40015,"is_reserved":false,"is_disabled":false,"rental_uris":{"android":"levelo://app?vid=fc3c0038-8457-46c4-8a3a-b7952e6b9861","ios":"levelo://app?vid=fc3c0038-8457-46c4-8a3a-b7952e6b9861"},"vehicle_type_id":"4","last_reported":1727849565,"current_range_meters":15200,"station_id":"ce4bho92rcd13ifvqh4g","pricing_plan_id":"cebpf4jnsgd1na2vs0mg"},{"bike_id":"55ab17f1-7827-4fda-89fe-60d616ba6069","system_id":"levelo_inurba_marseille","lat":43.29796,"lon":5.38085,"is_reserved":false,"is_disabled":false,"rental_uris":{"android":"levelo://app?vid=55ab17f1-7827-4fda-89fe-60d616ba6069","ios":"levelo://app?vid=55ab17f1-7827-4fda-89fe-60d616ba6069"},"vehicle_type_id":"4","last_reported":1727849565,"current_range_meters":38400,"station_id":"ce4bgip2rcd13ifvqbb0","pricing_plan_id":"cebpf4jnsgd1na2vs0mg"},{"bike_id":"4af40065-c5ec-4f7d-88bb-124a1c77e44a","system_id":"levelo_inurba_marseille","lat":43.31344,"lon":5.36713,"is_reserved":false,"is_disabled":false,"rental_uris":{"android":"levelo://app?vid=4af40065-c5ec-4f7d-88bb-124a1c77e44a","ios":"levelo://app?vid=4af40065-c5ec-4f7d-88bb-124a1c77e44a"},"vehicle_type_id":"4","last_reported":1727849565,"current_range_meters":36800,"station_id":"ce4bgr92rcd13ifvqc6g","pricing_plan_id":"cebpf4jnsgd1na2vs0mg"},{"bike_id":"eb91c155-487f-4c79-a930-9c943c8bd16e","system_id":"levelo_inurba_marseille","lat":43.28476,"lon":5.38411,"is_reserved":false,"is_disabled":false,"rental_uris":{"android":"levelo://app?vid=eb91c155-487f-4c79-a930-9c943c8bd16e","ios":"levelo://app?vid=eb91c155-487f-4c79-a930-9c943c8bd16e"},"vehicle_type_id":"4","last_reported":1727849565,"current_range_meters":38800,"station_id":"ce4bh512rcd13ifvqe3g","pricing_plan_id":"cebpf4jnsgd1na2vs0mg"},{"bike_id":"fa6f1a15-51f0-489c-b0c2-dfce96deaea4","system_id":"levelo_inurba_marseille","lat":43.28717,"lon":5.37938,"is_reserved":false,"is_disabled":false,"rental_uris":{"android":"levelo://app?vid=fa6f1a15-51f0-489c-b0c2-dfce96deaea4","ios":"levelo://app?vid=fa6f1a15-51f0-489c-b0c2-dfce96deaea4"},"vehicle_type_id":"4","last_reported":1727849565,"current_range_meters":33200,"station_id":"ce4bh9p2rcd13ifvqec0","pricing_plan_id":"cebpf4jnsgd1na2vs0mg"},{"bike_id":"7421063a-800a-48c3-92f9-01b2315d5e97","system_id":"levelo_inurba_marseille","lat":43.30463,"lon":5.37911,"is_reserved":false,"is_disabled":false,"rental_uris":{"android":"levelo://app?vid=7421063a-800a-48c3-92f9-01b2315d5e97","ios":"levelo://app?vid=7421063a-800a-48c3-92f9-01b2315d5e97"},"vehicle_type_id":"4","last_reported":1727849565,"current_range_meters":38800,"station_id":"ce4bgup2rcd13ifvqcn0","pricing_plan_id":"cebpf4jnsgd1na2vs0mg"},{"bike_id":"16c363b3-45c8-42f3-bc1d-0b6b902dd33e","system_id":"levelo_inurba_marseille","lat":43.28342,"lon":5.38098,"is_reserved":false,"is_disabled":false,"rental_uris":{"android":"levelo://app?vid=16c363b3-45c8-42f3-bc1d-0b6b902dd33e","ios":"levelo://app?vid=16c363b3-45c8-42f3-bc1d-0b6b902dd33e"},"vehicle_type_id":"4","last_reported":1727849565,"current_range_meters":32800,"station_id":"ce4bh3h2rcd13ifvqdn0","pricing_plan_id":"cebpf4jnsgd1na2vs0mg"},{"bike_id":"9cd128bb-3a64-4bb5-8c11-3fd33409958b","system_id":"levelo_inurba_marseille","lat":43.23151,"lon":5.43709,"is_reserved":false,"is_disabled":false,"rental_uris":{"android":"levelo://app?vid=9cd128bb-3a64-4bb5-8c11-3fd33409958b","ios":"levelo://app?vid=9cd128bb-3a64-4bb5-8c11-3fd33409958b"},"vehicle_type_id":"4","last_reported":1727849565,"current_range_meters":24400,"station_id":"ce4bhmp2rcd13ifvqgog","pricing_plan_id":"cebpf4jnsgd1na2vs0mg"},{"bike_id":"736bcb89-3fa5-4423-83ab-c46b1faa6d18","system_id":"levelo_inurba_marseille","lat":43.34496,"lon":5.41629,"is_reserved":false,"is_disabled":false,"rental_uris":{"android":"levelo://app?vid=736bcb89-3fa5-4423-83ab-c46b1faa6d18","ios":"levelo://app?vid=736bcb89-3fa5-4423-83ab-c46b1faa6d18"},"vehicle_type_id":"4","last_reported":1727849565,"current_range_meters":6800,"station_id":"","pricing_plan_id":"cebpf4jnsgd1na2vs0mg"},{"bike_id":"3f891519-60c6-4851-a7fc-890c4604c986","system_id":"levelo_inurba_marseille","lat":43.27806,"lon":5.40712,"is_reserved":false,"is_disabled":false,"rental_uris":{"android":"levelo://app?vid=3f891519-60c6-4851-a7fc-890c4604c986","ios":"levelo://app?vid=3f891519-60c6-4851-a7fc-890c4604c986"},"vehicle_type_id":"4","last_reported":1727849565,"current_range_meters":17600,"station_id":"ce4bhnh2rcd13ifvqgtg","pricing_plan_id":"cebpf4jnsgd1na2vs0mg"},{"bike_id":"a2b2e7ec-9291-4e2e-99f8-400018f4dc70","system_id":"levelo_inurba_marseille","lat":43.30537,"lon":5.36703,"is_reserved":false,"is_disabled":false,"rental_uris":{"android":"levelo://app?vid=a2b2e7ec-9291-4e2e-99f8-400018f4dc70","ios":"levelo://app?vid=a2b2e7ec-9291-4e2e-99f8-400018f4dc70"},"vehicle_type_id":"4","last_reported":1727849565,"current_range_meters":38800,"station_id":"ce4bgrp2rcd13ifvqc9g","pricing_plan_id":"cebpf4jnsgd1na2vs0mg"},{"bike_id":"f8f5a233-a1a7-4ff1-a6b9-b99d142d7ced","system_id":"levelo_inurba_marseille","lat":43.25119,"lon":5.40315,"is_reserved":false,"is_disabled":false,"rental_uris":{"android":"levelo://app?vid=f8f5a233-a1a7-4ff1-a6b9-b99d142d7ced","ios":"levelo://app?vid=f8f5a233-a1a7-4ff1-a6b9-b99d142d7ced"},"vehicle_type_id":"4","last_reported":1727849565,"current_range_meters":38000,"station_id":"ce4bhlh2rcd13ifvqgig","pricing_plan_id":"cebpf4jnsgd1na2vs0mg"},{"bike_id":"63f98ca1-f16d-4d88-a48d-74ef46e2e311","system_id":"levelo_inurba_marseille","lat":43.24085,"lon":5.37778,"is_reserved":false,"is_disabled":false,"rental_uris":{"android":"levelo://app?vid=63f98ca1-f16d-4d88-a48d-74ef46e2e311","ios":"levelo://app?vid=63f98ca1-f16d-4d88-a48d-74ef46e2e311"},"vehicle_type_id":"4","last_reported":1727849565,"current_range_meters":29600,"station_id":"","pricing_plan_id":"cebpf4jnsgd1na2vs0mg"},{"bike_id":"bc228e5c-be4c-46a2-bb17-7420f18e6a4b","system_id":"levelo_inurba_marseille","lat":43.30598,"lon":5.39359,"is_reserved":false,"is_disabled":false,"rental_uris":{"android":"levelo://app?vid=bc228e5c-be4c-46a2-bb17-7420f18e6a4b","ios":"levelo://app?vid=bc228e5c-be4c-46a2-bb17-7420f18e6a4b"},"vehicle_type_id":"4","last_reported":1727849565,"current_range_meters":32000,"station_id":"ce4bh0p2rcd13ifvqd80","pricing_plan_id":"cebpf4jnsgd1na2vs0mg"},{"bike_id":"3cb15dbd-46a2-4deb-974d-be25fe96f683","system_id":"levelo_inurba_marseille","lat":43.274933,"lon":5.424647,"is_reserved":false,"is_disabled":false,"rental_uris":{"android":"levelo://app?vid=3cb15dbd-46a2-4deb-974d-be25fe96f683","ios":"levelo://app?vid=3cb15dbd-46a2-4deb-974d-be25fe96f683"},"vehicle_type_id":"4","last_reported":1727849565,"current_range_meters":25200,"station_id":"","pricing_plan_id":"cebpf4jnsgd1na2vs0mg"},{"bike_id":"d65e5f64-4386-4e6f-8cfa-bae49fa3ef42","system_id":"levelo_inurba_marseille","lat":43.30479,"lon":5.37898,"is_reserved":false,"is_disabled":false,"rental_uris":{"android":"levelo://app?vid=d65e5f64-4386-4e6f-8cfa-bae49fa3ef42","ios":"levelo://app?vid=d65e5f64-4386-4e6f-8cfa-bae49fa3ef42"},"vehicle_type_id":"4","last_reported":1727849565,"current_range_meters":38400,"station_id":"ce4bgup2rcd13ifvqcn0","pricing_plan_id":"cebpf4jnsgd1na2vs0mg"},{"bike_id":"cabafb91-95dc-4d5c-baa9-5aea6e08d11c","system_id":"levelo_inurba_marseille","lat":43.33607,"lon":5.41037,"is_reserved":false,"is_disabled":false,"rental_uris":{"android":"levelo://app?vid=cabafb91-95dc-4d5c-baa9-5aea6e08d11c","ios":"levelo://app?vid=cabafb91-95dc-4d5c-baa9-5aea6e08d11c"},"vehicle_type_id":"4","last_reported":1727849565,"current_range_meters":27600,"station_id":"ce4bhqh2rcd13ifvqhmg","pricing_plan_id":"cebpf4jnsgd1na2vs0mg"},{"bike_id":"609844d3-402e-4c83-8b7f-d2093120cb67","system_id":"levelo_inurba_marseille","lat":43.32534,"lon":5.41443,"is_reserved":false,"is_disabled":false,"rental_uris":{"android":"levelo://app?vid=609844d3-402e-4c83-8b7f-d2093120cb67","ios":"levelo://app?vid=609844d3-402e-4c83-8b7f-d2093120cb67"},"vehicle_type_id":"4","last_reported":1727849565,"current_range_meters":36400,"station_id":"ce4bhq12rcd13ifvqhhg","pricing_plan_id":"cebpf4jnsgd1na2vs0mg"},{"bike_id":"de7884da-a3a8-4ce0-aba4-998827e572b7","system_id":"levelo_inurba_marseille","lat":43.23151,"lon":5.43718,"is_reserved":false,"is_disabled":false,"rental_uris":{"android":"levelo://app?vid=de7884da-a3a8-4ce0-aba4-998827e572b7","ios":"levelo://app?vid=de7884da-a3a8-4ce0-aba4-998827e572b7"},"vehicle_type_id":"4","last_reported":1727849565,"current_range_meters":29600,"station_id":"ce4bhmp2rcd13ifvqgog","pricing_plan_id":"cebpf4jnsgd1na2vs0mg"},{"bike_id":"649b0ebd-72c1-4ccb-bdb5-0127394604e7","system_id":"levelo_inurba_marseille","lat":43.33612,"lon":5.41021,"is_reserved":false,"is_disabled":false,"rental_uris":{"android":"levelo://app?vid=649b0ebd-72c1-4ccb-bdb5-0127394604e7","ios":"levelo://app?vid=649b0ebd-72c1-4ccb-bdb5-0127394604e7"},"vehicle_type_id":"4","last_reported":1727849565,"current_range_meters":38400,"station_id":"ce4bhqh2rcd13ifvqhmg","pricing_plan_id":"cebpf4jnsgd1na2vs0mg"},{"bike_id":"65716141-335c-4d03-aef6-31a860f88980","system_id":"levelo_inurba_marseille","lat":43.34143,"lon":5.40901,"is_reserved":false,"is_disabled":false,"rental_uris":{"android":"levelo://app?vid=65716141-335c-4d03-aef6-31a860f88980","ios":"levelo://app?vid=65716141-335c-4d03-aef6-31a860f88980"},"vehicle_type_id":"4","last_reported":1727849565,"current_range_meters":22400,"station_id":"ce4bhqh2rcd13ifvqhlg","pricing_plan_id":"cebpf4jnsgd1na2vs0mg"},{"bike_id":"3bcc095d-700a-4eb9-9793-f2e50d9b626e","system_id":"levelo_inurba_marseille","lat":43.29561,"lon":5.42285,"is_reserved":false,"is_disabled":false,"rental_uris":{"android":"levelo://app?vid=3bcc095d-700a-4eb9-9793-f2e50d9b626e","ios":"levelo://app?vid=3bcc095d-700a-4eb9-9793-f2e50d9b626e"},"vehicle_type_id":"4","last_reported":1727849565,"current_range_meters":36800,"station_id":"ce4bhph2rcd13ifvqhdg","pricing_plan_id":"cebpf4jnsgd1na2vs0mg"},{"bike_id":"9e6f82c5-7edd-4d61-8fe9-86f829a7226e","system_id":"levelo_inurba_marseille","lat":43.2315,"lon":5.43722,"is_reserved":false,"is_disabled":false,"rental_uris":{"android":"levelo://app?vid=9e6f82c5-7edd-4d61-8fe9-86f829a7226e","ios":"levelo://app?vid=9e6f82c5-7edd-4d61-8fe9-86f829a7226e"},"vehicle_type_id":"4","last_reported":1727849565,"current_range_meters":12400,"station_id":"ce4bhmp2rcd13ifvqgog","pricing_plan_id":"cebpf4jnsgd1na2vs0mg"},{"bike_id":"67947dca-b037-4036-b445-3733f7a7fcf3","system_id":"levelo_inurba_marseille","lat":43.26569,"lon":5.39009,"is_reserved":false,"is_disabled":false,"rental_uris":{"android":"levelo://app?vid=67947dca-b037-4036-b445-3733f7a7fcf3","ios":"levelo://app?vid=67947dca-b037-4036-b445-3733f7a7fcf3"},"vehicle_type_id":"4","last_reported":1727849565,"current_range_meters":38800,"station_id":"ce4bhe12rcd13ifvqf30","pricing_plan_id":"cebpf4jnsgd1na2vs0mg"},{"bike_id":"461fe619-c53a-40f0-bfc1-9e1cc3aa8c03","system_id":"levelo_inurba_marseille","lat":43.24078,"lon":5.37757,"is_reserved":false,"is_disabled":false,"rental_uris":{"android":"levelo://app?vid=461fe619-c53a-40f0-bfc1-9e1cc3aa8c03","ios":"levelo://app?vid=461fe619-c53a-40f0-bfc1-9e1cc3aa8c03"},"vehicle_type_id":"4","last_reported":1727849565,"current_range_meters":34800,"station_id":"ce4bhnp2rcd13ifvqgvg","pricing_plan_id":"cebpf4jnsgd1na2vs0mg"},{"bike_id":"0efcfb21-8210-4b26-96e9-ff7976739b07","system_id":"levelo_inurba_marseille","lat":43.31124,"lon":5.37767,"is_reserved":false,"is_disabled":false,"rental_uris":{"android":"levelo://app?vid=0efcfb21-8210-4b26-96e9-ff7976739b07","ios":"levelo://app?vid=0efcfb21-8210-4b26-96e9-ff7976739b07"},"vehicle_type_id":"4","last_reported":1727849565,"current_range_meters":12800,"station_id":"","pricing_plan_id":"cebpf4jnsgd1na2vs0mg"},{"bike_id":"aae9a778-56fb-41da-990d-16fb4770a5a3","system_id":"levelo_inurba_marseille","lat":43.25576,"lon":5.38237,"is_reserved":false,"is_disabled":false,"rental_uris":{"android":"levelo://app?vid=aae9a778-56fb-41da-990d-16fb4770a5a3","ios":"levelo://app?vid=aae9a778-56fb-41da-990d-16fb4770a5a3"},"vehicle_type_id":"4","last_reported":1727849565,"current_range_meters":38800,"station_id":"ce4bhih2rcd13ifvqfs0","pricing_plan_id":"cebpf4jnsgd1na2vs0mg"},{"bike_id":"5a0d3d90-449e-478b-94b1-488eb695ddbe","system_id":"levelo_inurba_marseille","lat":43.29843,"lon":5.3627,"is_reserved":false,"is_disabled":false,"rental_uris":{"android":"levelo://app?vid=5a0d3d90-449e-478b-94b1-488eb695ddbe","ios":"levelo://app?vid=5a0d3d90-449e-478b-94b1-488eb695ddbe"},"vehicle_type_id":"4","last_reported":1727849565,"current_range_meters":32800,"station_id":"ce4bgpp2rcd13ifvqc3g","pricing_plan_id":"cebpf4jnsgd1na2vs0mg"},{"bike_id":"54edffe6-5495-491b-9f2e-e7373852c7d2","system_id":"levelo_inurba_marseille","lat":43.30534,"lon":5.36721,"is_reserved":false,"is_disabled":false,"rental_uris":{"android":"levelo://app?vid=54edffe6-5495-491b-9f2e-e7373852c7d2","ios":"levelo://app?vid=54edffe6-5495-491b-9f2e-e7373852c7d2"},"vehicle_type_id":"4","last_reported":1727849565,"current_range_meters":36400,"station_id":"ce4bgrp2rcd13ifvqc9g","pricing_plan_id":"cebpf4jnsgd1na2vs0mg"},{"bike_id":"549e4296-4834-4e5b-b731-d8260afa92a8","system_id":"levelo_inurba_marseille","lat":43.26955,"lon":5.38637,"is_reserved":false,"is_disabled":false,"rental_uris":{"android":"levelo://app?vid=549e4296-4834-4e5b-b731-d8260afa92a8","ios":"levelo://app?vid=549e4296-4834-4e5b-b731-d8260afa92a8"},"vehicle_type_id":"4","last_reported":1727849565,"current_range_meters":38000,"station_id":"ce4bhh92rcd13ifvqfh0","pricing_plan_id":"cebpf4jnsgd1na2vs0mg"},{"bike_id":"78bde84b-9046-4889-aaf3-750f7259103d","system_id":"levelo_inurba_marseille","lat":43.30593,"lon":5.39361,"is_reserved":false,"is_disabled":false,"rental_uris":{"android":"levelo://app?vid=78bde84b-9046-4889-aaf3-750f7259103d","ios":"levelo://app?vid=78bde84b-9046-4889-aaf3-750f7259103d"},"vehicle_type_id":"4","last_reported":1727849565,"current_range_meters":37600,"station_id":"ce4bh0p2rcd13ifvqd80","pricing_plan_id":"cebpf4jnsgd1na2vs0mg"},{"bike_id":"9c8586d4-27b7-469d-a70c-c733c2987ada","system_id":"levelo_inurba_marseille","lat":43.2704,"lon":5.40218,"is_reserved":false,"is_disabled":false,"rental_uris":{"android":"levelo://app?vid=9c8586d4-27b7-469d-a70c-c733c2987ada","ios":"levelo://app?vid=9c8586d4-27b7-469d-a70c-c733c2987ada"},"vehicle_type_id":"4","last_reported":1727849565,"current_range_meters":36400,"station_id":"ce4bhk92rcd13ifvqgc0","pricing_plan_id":"cebpf4jnsgd1na2vs0mg"},{"bike_id":"db254dac-45f5-4132-9ca6-b0673a65c2b8","system_id":"levelo_inurba_marseille","lat":43.26491,"lon":5.39538,"is_reserved":false,"is_disabled":false,"rental_uris":{"android":"levelo://app?vid=db254dac-45f5-4132-9ca6-b0673a65c2b8","ios":"levelo://app?vid=db254dac-45f5-4132-9ca6-b0673a65c2b8"},"vehicle_type_id":"4","last_reported":1727849565,"current_range_meters":36800,"station_id":"ce4bhi12rcd13ifvqfq0","pricing_plan_id":"cebpf4jnsgd1na2vs0mg"},{"bike_id":"39c7dc54-6d62-4b84-92eb-f8a41a50040c","system_id":"levelo_inurba_marseille","lat":43.23155,"lon":5.43707,"is_reserved":false,"is_disabled":false,"rental_uris":{"android":"levelo://app?vid=39c7dc54-6d62-4b84-92eb-f8a41a50040c","ios":"levelo://app?vid=39c7dc54-6d62-4b84-92eb-f8a41a50040c"},"vehicle_type_id":"4","last_reported":1727849565,"current_range_meters":32000,"station_id":"ce4bhmp2rcd13ifvqgog","pricing_plan_id":"cebpf4jnsgd1na2vs0mg"},{"bike_id":"4195c750-3f4c-430b-9a56-c37a806604c7","system_id":"levelo_inurba_marseille","lat":43.33607,"lon":5.41041,"is_reserved":false,"is_disabled":false,"rental_uris":{"android":"levelo://app?vid=4195c750-3f4c-430b-9a56-c37a806604c7","ios":"levelo://app?vid=4195c750-3f4c-430b-9a56-c37a806604c7"},"vehicle_type_id":"4","last_reported":1727849565,"current_range_meters":8800,"station_id":"ce4bhqh2rcd13ifvqhmg","pricing_plan_id":"cebpf4jnsgd1na2vs0mg"},{"bike_id":"6f5911c0-0e6e-4889-9d72-bfdc0aba2ef7","system_id":"levelo_inurba_marseille","lat":43.29008,"lon":5.35605,"is_reserved":false,"is_disabled":false,"rental_uris":{"android":"levelo://app?vid=6f5911c0-0e6e-4889-9d72-bfdc0aba2ef7","ios":"levelo://app?vid=6f5911c0-0e6e-4889-9d72-bfdc0aba2ef7"},"vehicle_type_id":"4","last_reported":1727849565,"current_range_meters":27200,"station_id":"ce4bhb92rcd13ifvqen0","pricing_plan_id":"cebpf4jnsgd1na2vs0mg"},{"bike_id":"d74fb2ef-f814-4ca8-94df-c647e77cc523","system_id":"levelo_inurba_marseille","lat":43.28151,"lon":5.42647,"is_reserved":false,"is_disabled":false,"rental_uris":{"android":"levelo://app?vid=d74fb2ef-f814-4ca8-94df-c647e77cc523","ios":"levelo://app?vid=d74fb2ef-f814-4ca8-94df-c647e77cc523"},"vehicle_type_id":"4","last_reported":1727849565,"current_range_meters":38400,"station_id":"ce4bhnh2rcd13ifvqgug","pricing_plan_id":"cebpf4jnsgd1na2vs0mg"},{"bike_id":"502604c1-c7e6-4917-8809-16874f6602e1","system_id":"levelo_inurba_marseille","lat":43.29038,"lon":5.39955,"is_reserved":false,"is_disabled":false,"rental_uris":{"android":"levelo://app?vid=502604c1-c7e6-4917-8809-16874f6602e1","ios":"levelo://app?vid=502604c1-c7e6-4917-8809-16874f6602e1"},"vehicle_type_id":"4","last_reported":1727849565,"current_range_meters":9200,"station_id":"ce4bh392rcd13ifvqdm0","pricing_plan_id":"cebpf4jnsgd1na2vs0mg"},{"bike_id":"095907dd-5778-44cf-ac16-34fae447cd07","system_id":"levelo_inurba_marseille","lat":43.3046,"lon":5.37895,"is_reserved":false,"is_disabled":false,"rental_uris":{"android":"levelo://app?vid=095907dd-5778-44cf-ac16-34fae447cd07","ios":"levelo://app?vid=095907dd-5778-44cf-ac16-34fae447cd07"},"vehicle_type_id":"4","last_reported":1727849565,"current_range_meters":25600,"station_id":"ce4bgup2rcd13ifvqcn0","pricing_plan_id":"cebpf4jnsgd1na2vs0mg"},{"bike_id":"81c8f3eb-4f47-48de-b362-cac094d7e803","system_id":"levelo_inurba_marseille","lat":43.25934,"lon":5.4091,"is_reserved":false,"is_disabled":false,"rental_uris":{"android":"levelo://app?vid=81c8f3eb-4f47-48de-b362-cac094d7e803","ios":"levelo://app?vid=81c8f3eb-4f47-48de-b362-cac094d7e803"},"vehicle_type_id":"4","last_reported":1727849565,"current_range_meters":10000,"station_id":"ce4bhm92rcd13ifvqglg","pricing_plan_id":"cebpf4jnsgd1na2vs0mg"},{"bike_id":"66ec5feb-ccfc-4ad2-9061-e6dffe4d6d41","system_id":"levelo_inurba_marseille","lat":43.26564,"lon":5.39022,"is_reserved":false,"is_disabled":false,"rental_uris":{"android":"levelo://app?vid=66ec5feb-ccfc-4ad2-9061-e6dffe4d6d41","ios":"levelo://app?vid=66ec5feb-ccfc-4ad2-9061-e6dffe4d6d41"},"vehicle_type_id":"4","last_reported":1727849565,"current_range_meters":36000,"station_id":"ce4bhe12rcd13ifvqf30","pricing_plan_id":"cebpf4jnsgd1na2vs0mg"},{"bike_id":"613dc259-624b-4dec-b5ed-363ab49a6820","system_id":"levelo_inurba_marseille","lat":43.27498,"lon":5.42448,"is_reserved":false,"is_disabled":false,"rental_uris":{"android":"levelo://app?vid=613dc259-624b-4dec-b5ed-363ab49a6820","ios":"levelo://app?vid=613dc259-624b-4dec-b5ed-363ab49a6820"},"vehicle_type_id":"4","last_reported":1727849565,"current_range_meters":30000,"station_id":"ce4bhn92rcd13ifvqgrg","pricing_plan_id":"cebpf4jnsgd1na2vs0mg"},{"bike_id":"cb1b909c-027e-4a31-b03f-1d632015c108","system_id":"levelo_inurba_marseille","lat":43.29006,"lon":5.35612,"is_reserved":false,"is_disabled":false,"rental_uris":{"android":"levelo://app?vid=cb1b909c-027e-4a31-b03f-1d632015c108","ios":"levelo://app?vid=cb1b909c-027e-4a31-b03f-1d632015c108"},"vehicle_type_id":"4","last_reported":1727849565,"current_range_meters":33200,"station_id":"ce4bhb92rcd13ifvqen0","pricing_plan_id":"cebpf4jnsgd1na2vs0mg"},{"bike_id":"507aca41-3be7-4755-877d-c4a3fbef9610","system_id":"levelo_inurba_marseille","lat":43.23152,"lon":5.43707,"is_reserved":false,"is_disabled":false,"rental_uris":{"android":"levelo://app?vid=507aca41-3be7-4755-877d-c4a3fbef9610","ios":"levelo://app?vid=507aca41-3be7-4755-877d-c4a3fbef9610"},"vehicle_type_id":"4","last_reported":1727849565,"current_range_meters":18000,"station_id":"ce4bhmp2rcd13ifvqgog","pricing_plan_id":"cebpf4jnsgd1na2vs0mg"},{"bike_id":"3de6e063-d170-445d-99e6-b76ac33be872","system_id":"levelo_inurba_marseille","lat":43.23157,"lon":5.43697,"is_reserved":false,"is_disabled":false,"rental_uris":{"android":"levelo://app?vid=3de6e063-d170-445d-99e6-b76ac33be872","ios":"levelo://app?vid=3de6e063-d170-445d-99e6-b76ac33be872"},"vehicle_type_id":"4","last_reported":1727849565,"current_range_meters":18800,"station_id":"ce4bhmp2rcd13ifvqgog","pricing_plan_id":"cebpf4jnsgd1na2vs0mg"},{"bike_id":"903f1529-495f-46eb-bfbb-f36c34405ab5","system_id":"levelo_inurba_marseille","lat":43.29849,"lon":5.362833,"is_reserved":false,"is_disabled":false,"rental_uris":{"android":"levelo://app?vid=903f1529-495f-46eb-bfbb-f36c34405ab5","ios":"levelo://app?vid=903f1529-495f-46eb-bfbb-f36c34405ab5"},"vehicle_type_id":"4","last_reported":1727849565,"current_range_meters":20400,"station_id":"ce4bgpp2rcd13ifvqc3g","pricing_plan_id":"cebpf4jnsgd1na2vs0mg"},{"bike_id":"c637a392-b21a-40f5-b39b-c0e72e72329e","system_id":"levelo_inurba_marseille","lat":43.27498,"lon":5.4245,"is_reserved":false,"is_disabled":false,"rental_uris":{"android":"levelo://app?vid=c637a392-b21a-40f5-b39b-c0e72e72329e","ios":"levelo://app?vid=c637a392-b21a-40f5-b39b-c0e72e72329e"},"vehicle_type_id":"4","last_reported":1727849565,"current_range_meters":19600,"station_id":"ce4bhn92rcd13ifvqgrg","pricing_plan_id":"cebpf4jnsgd1na2vs0mg"},{"bike_id":"30403b77-709d-4cf2-9f51-d7b09295889a","system_id":"levelo_inurba_marseille","lat":43.33605,"lon":5.41031,"is_reserved":false,"is_disabled":false,"rental_uris":{"android":"levelo://app?vid=30403b77-709d-4cf2-9f51-d7b09295889a","ios":"levelo://app?vid=30403b77-709d-4cf2-9f51-d7b09295889a"},"vehicle_type_id":"4","last_reported":1727849565,"current_range_meters":37600,"station_id":"ce4bhqh2rcd13ifvqhmg","pricing_plan_id":"cebpf4jnsgd1na2vs0mg"},{"bike_id":"0d25137b-19fb-4e8f-87a7-23d855037b7b","system_id":"levelo_inurba_marseille","lat":43.29796,"lon":5.381,"is_reserved":false,"is_disabled":false,"rental_uris":{"android":"levelo://app?vid=0d25137b-19fb-4e8f-87a7-23d855037b7b","ios":"levelo://app?vid=0d25137b-19fb-4e8f-87a7-23d855037b7b"},"vehicle_type_id":"4","last_reported":1727849565,"current_range_meters":32800,"station_id":"ce4bgip2rcd13ifvqbb0","pricing_plan_id":"cebpf4jnsgd1na2vs0mg"},{"bike_id":"b87b81a8-8310-4ea7-a126-f021d4993ba9","system_id":"levelo_inurba_marseille","lat":43.27896,"lon":5.38027,"is_reserved":false,"is_disabled":false,"rental_uris":{"android":"levelo://app?vid=b87b81a8-8310-4ea7-a126-f021d4993ba9","ios":"levelo://app?vid=b87b81a8-8310-4ea7-a126-f021d4993ba9"},"vehicle_type_id":"4","last_reported":1727849565,"current_range_meters":37600,"station_id":"ce4bhg12rcd13ifvqf80","pricing_plan_id":"cebpf4jnsgd1na2vs0mg"},{"bike_id":"f8f518e3-bd48-40f5-801a-4ead88758ee2","system_id":"levelo_inurba_marseille","lat":43.32106,"lon":5.36781,"is_reserved":false,"is_disabled":false,"rental_uris":{"android":"levelo://app?vid=f8f518e3-bd48-40f5-801a-4ead88758ee2","ios":"levelo://app?vid=f8f518e3-bd48-40f5-801a-4ead88758ee2"},"vehicle_type_id":"4","last_reported":1727849565,"current_range_meters":10800,"station_id":"ce4bhrh2rcd13ifvqhug","pricing_plan_id":"cebpf4jnsgd1na2vs0mg"},{"bike_id":"0c35b500-cea2-4d3e-86b7-1e9a198a9126","system_id":"levelo_inurba_marseille","lat":43.28154,"lon":5.42639,"is_reserved":false,"is_disabled":false,"rental_uris":{"android":"levelo://app?vid=0c35b500-cea2-4d3e-86b7-1e9a198a9126","ios":"levelo://app?vid=0c35b500-cea2-4d3e-86b7-1e9a198a9126"},"vehicle_type_id":"4","last_reported":1727849565,"current_range_meters":36400,"station_id":"ce4bhnh2rcd13ifvqgug","pricing_plan_id":"cebpf4jnsgd1na2vs0mg"},{"bike_id":"b5ae82c3-110d-4c77-9781-3ad95c6afaa7","system_id":"levelo_inurba_marseille","lat":43.3414,"lon":5.40904,"is_reserved":false,"is_disabled":false,"rental_uris":{"android":"levelo://app?vid=b5ae82c3-110d-4c77-9781-3ad95c6afaa7","ios":"levelo://app?vid=b5ae82c3-110d-4c77-9781-3ad95c6afaa7"},"vehicle_type_id":"4","last_reported":1727849565,"current_range_meters":32800,"station_id":"ce4bhqh2rcd13ifvqhlg","pricing_plan_id":"cebpf4jnsgd1na2vs0mg"},{"bike_id":"aea1ec0e-49df-40d5-9830-532cf0b62a2e","system_id":"levelo_inurba_marseille","lat":43.28373,"lon":5.38628,"is_reserved":false,"is_disabled":false,"rental_uris":{"android":"levelo://app?vid=aea1ec0e-49df-40d5-9830-532cf0b62a2e","ios":"levelo://app?vid=aea1ec0e-49df-40d5-9830-532cf0b62a2e"},"vehicle_type_id":"4","last_reported":1727849565,"current_range_meters":19600,"station_id":"ce4bh492rcd13ifvqdvg","pricing_plan_id":"cebpf4jnsgd1na2vs0mg"},{"bike_id":"d3cfa0bf-44b3-4878-8560-b25a05a1d43c","system_id":"levelo_inurba_marseille","lat":43.27494,"lon":5.4245,"is_reserved":false,"is_disabled":false,"rental_uris":{"android":"levelo://app?vid=d3cfa0bf-44b3-4878-8560-b25a05a1d43c","ios":"levelo://app?vid=d3cfa0bf-44b3-4878-8560-b25a05a1d43c"},"vehicle_type_id":"4","last_reported":1727849565,"current_range_meters":24400,"station_id":"ce4bhn92rcd13ifvqgrg","pricing_plan_id":"cebpf4jnsgd1na2vs0mg"},{"bike_id":"b267b748-9b0a-4016-a19c-d11d36df0d64","system_id":"levelo_inurba_marseille","lat":43.30465,"lon":5.37907,"is_reserved":false,"is_disabled":false,"rental_uris":{"android":"levelo://app?vid=b267b748-9b0a-4016-a19c-d11d36df0d64","ios":"levelo://app?vid=b267b748-9b0a-4016-a19c-d11d36df0d64"},"vehicle_type_id":"4","last_reported":1727849565,"current_range_meters":9600,"station_id":"ce4bgup2rcd13ifvqcn0","pricing_plan_id":"cebpf4jnsgd1na2vs0mg"},{"bike_id":"414e019a-b874-40a2-84df-b9a486f9f995","system_id":"levelo_inurba_marseille","lat":43.26948,"lon":5.38632,"is_reserved":false,"is_disabled":false,"rental_uris":{"android":"levelo://app?vid=414e019a-b874-40a2-84df-b9a486f9f995","ios":"levelo://app?vid=414e019a-b874-40a2-84df-b9a486f9f995"},"vehicle_type_id":"4","last_reported":1727849565,"current_range_meters":39200,"station_id":"ce4bhh92rcd13ifvqfh0","pricing_plan_id":"cebpf4jnsgd1na2vs0mg"},{"bike_id":"ff0c3ffe-a45a-4d7c-a518-9099eb9d2e67","system_id":"levelo_inurba_marseille","lat":43.29256,"lon":5.40912,"is_reserved":false,"is_disabled":false,"rental_uris":{"android":"levelo://app?vid=ff0c3ffe-a45a-4d7c-a518-9099eb9d2e67","ios":"levelo://app?vid=ff0c3ffe-a45a-4d7c-a518-9099eb9d2e67"},"vehicle_type_id":"4","last_reported":1727849565,"current_range_meters":38000,"station_id":"ce4bh192rcd13ifvqdc0","pricing_plan_id":"cebpf4jnsgd1na2vs0mg"},{"bike_id":"c4898d10-8d9d-4418-a909-fd455c5aba64","system_id":"levelo_inurba_marseille","lat":43.28348,"lon":5.38102,"is_reserved":false,"is_disabled":false,"rental_uris":{"android":"levelo://app?vid=c4898d10-8d9d-4418-a909-fd455c5aba64","ios":"levelo://app?vid=c4898d10-8d9d-4418-a909-fd455c5aba64"},"vehicle_type_id":"4","last_reported":1727849565,"current_range_meters":33200,"station_id":"ce4bh412rcd13ifvqdr0","pricing_plan_id":"cebpf4jnsgd1na2vs0mg"},{"bike_id":"92c1d9a8-b597-4ee3-a54c-bd19b274e345","system_id":"levelo_inurba_marseille","lat":43.24387,"lon":5.37055,"is_reserved":false,"is_disabled":false,"rental_uris":{"android":"levelo://app?vid=92c1d9a8-b597-4ee3-a54c-bd19b274e345","ios":"levelo://app?vid=92c1d9a8-b597-4ee3-a54c-bd19b274e345"},"vehicle_type_id":"4","last_reported":1727849565,"current_range_meters":31200,"station_id":"ce4bhhh2rcd13ifvqfk0","pricing_plan_id":"cebpf4jnsgd1na2vs0mg"},{"bike_id":"480c0361-ae68-49da-a8bb-b26f4d368c0c","system_id":"levelo_inurba_marseille","lat":43.30456,"lon":5.37918,"is_reserved":false,"is_disabled":false,"rental_uris":{"android":"levelo://app?vid=480c0361-ae68-49da-a8bb-b26f4d368c0c","ios":"levelo://app?vid=480c0361-ae68-49da-a8bb-b26f4d368c0c"},"vehicle_type_id":"4","last_reported":1727849565,"current_range_meters":30400,"station_id":"ce4bgup2rcd13ifvqcn0","pricing_plan_id":"cebpf4jnsgd1na2vs0mg"},{"bike_id":"55ba9321-f25e-4627-8ef8-4f63e633c829","system_id":"levelo_inurba_marseille","lat":43.30465,"lon":5.3791,"is_reserved":false,"is_disabled":false,"rental_uris":{"android":"levelo://app?vid=55ba9321-f25e-4627-8ef8-4f63e633c829","ios":"levelo://app?vid=55ba9321-f25e-4627-8ef8-4f63e633c829"},"vehicle_type_id":"4","last_reported":1727849565,"current_range_meters":32000,"station_id":"ce4bgup2rcd13ifvqcn0","pricing_plan_id":"cebpf4jnsgd1na2vs0mg"},{"bike_id":"f73c0357-2191-480e-a049-d52ffb607063","system_id":"levelo_inurba_marseille","lat":43.33611,"lon":5.4101,"is_reserved":false,"is_disabled":false,"rental_uris":{"android":"levelo://app?vid=f73c0357-2191-480e-a049-d52ffb607063","ios":"levelo://app?vid=f73c0357-2191-480e-a049-d52ffb607063"},"vehicle_type_id":"4","last_reported":1727849565,"current_range_meters":34800,"station_id":"ce4bhqh2rcd13ifvqhmg","pricing_plan_id":"cebpf4jnsgd1na2vs0mg"},{"bike_id":"39049d95-384f-450d-ad52-730b883329b6","system_id":"levelo_inurba_marseille","lat":43.31536,"lon":5.38028,"is_reserved":false,"is_disabled":false,"rental_uris":{"android":"levelo://app?vid=39049d95-384f-450d-ad52-730b883329b6","ios":"levelo://app?vid=39049d95-384f-450d-ad52-730b883329b6"},"vehicle_type_id":"4","last_reported":1727849565,"current_range_meters":24000,"station_id":"ce4bhsp2rcd13ifvqi50","pricing_plan_id":"cebpf4jnsgd1na2vs0mg"},{"bike_id":"78863aa1-ed71-4955-9c54-509cc7bf9e19","system_id":"levelo_inurba_marseille","lat":43.30734,"lon":5.38045,"is_reserved":false,"is_disabled":false,"rental_uris":{"android":"levelo://app?vid=78863aa1-ed71-4955-9c54-509cc7bf9e19","ios":"levelo://app?vid=78863aa1-ed71-4955-9c54-509cc7bf9e19"},"vehicle_type_id":"4","last_reported":1727849565,"current_range_meters":20400,"station_id":"","pricing_plan_id":"cebpf4jnsgd1na2vs0mg"},{"bike_id":"dc03e946-be64-435d-a6e2-304d0c9f3ef5","system_id":"levelo_inurba_marseille","lat":43.31531,"lon":5.38028,"is_reserved":false,"is_disabled":false,"rental_uris":{"android":"levelo://app?vid=dc03e946-be64-435d-a6e2-304d0c9f3ef5","ios":"levelo://app?vid=dc03e946-be64-435d-a6e2-304d0c9f3ef5"},"vehicle_type_id":"4","last_reported":1727849565,"current_range_meters":38800,"station_id":"ce4bhsp2rcd13ifvqi50","pricing_plan_id":"cebpf4jnsgd1na2vs0mg"},{"bike_id":"bf7ae5ba-7674-46bf-8c61-9ffd920fd771","system_id":"levelo_inurba_marseille","lat":43.30317,"lon":5.40444,"is_reserved":false,"is_disabled":false,"rental_uris":{"android":"levelo://app?vid=bf7ae5ba-7674-46bf-8c61-9ffd920fd771","ios":"levelo://app?vid=bf7ae5ba-7674-46bf-8c61-9ffd920fd771"},"vehicle_type_id":"4","last_reported":1727849565,"current_range_meters":34800,"station_id":"ce4bh012rcd13ifvqd10","pricing_plan_id":"cebpf4jnsgd1na2vs0mg"},{"bike_id":"f1bd5f3a-5707-4d59-aa3f-ed0786db2c8c","system_id":"levelo_inurba_marseille","lat":43.29297,"lon":5.37142,"is_reserved":false,"is_disabled":false,"rental_uris":{"android":"levelo://app?vid=f1bd5f3a-5707-4d59-aa3f-ed0786db2c8c","ios":"levelo://app?vid=f1bd5f3a-5707-4d59-aa3f-ed0786db2c8c"},"vehicle_type_id":"4","last_reported":1727849565,"current_range_meters":6000,"station_id":"ce4bgh92rcd13ifvqb40","pricing_plan_id":"cebpf4jnsgd1na2vs0mg"},{"bike_id":"d995d233-d2fe-4db9-b69b-baa1337469bf","system_id":"levelo_inurba_marseille","lat":43.26751,"lon":5.40229,"is_reserved":false,"is_disabled":false,"rental_uris":{"android":"levelo://app?vid=d995d233-d2fe-4db9-b69b-baa1337469bf","ios":"levelo://app?vid=d995d233-d2fe-4db9-b69b-baa1337469bf"},"vehicle_type_id":"4","last_reported":1727849565,"current_range_meters":10800,"station_id":"ce4bhm92rcd13ifvqglg","pricing_plan_id":"cebpf4jnsgd1na2vs0mg"},{"bike_id":"d2f8fe25-461b-472a-a4f7-2d9b9098e6dd","system_id":"levelo_inurba_marseille","lat":43.29801,"lon":5.38094,"is_reserved":false,"is_disabled":false,"rental_uris":{"android":"levelo://app?vid=d2f8fe25-461b-472a-a4f7-2d9b9098e6dd","ios":"levelo://app?vid=d2f8fe25-461b-472a-a4f7-2d9b9098e6dd"},"vehicle_type_id":"4","last_reported":1727849565,"current_range_meters":30400,"station_id":"ce4bgip2rcd13ifvqbb0","pricing_plan_id":"cebpf4jnsgd1na2vs0mg"},{"bike_id":"3ddf769c-c1f4-4c07-a643-d89d6207fa69","system_id":"levelo_inurba_marseille","lat":43.26685,"lon":5.38277,"is_reserved":false,"is_disabled":false,"rental_uris":{"android":"levelo://app?vid=3ddf769c-c1f4-4c07-a643-d89d6207fa69","ios":"levelo://app?vid=3ddf769c-c1f4-4c07-a643-d89d6207fa69"},"vehicle_type_id":"4","last_reported":1727849565,"current_range_meters":34000,"station_id":"ce4bhg92rcd13ifvqf90","pricing_plan_id":"cebpf4jnsgd1na2vs0mg"},{"bike_id":"1d9d4190-1d4b-4999-8cdd-8e44f04bc896","system_id":"levelo_inurba_marseille","lat":43.24073,"lon":5.37765,"is_reserved":false,"is_disabled":false,"rental_uris":{"android":"levelo://app?vid=1d9d4190-1d4b-4999-8cdd-8e44f04bc896","ios":"levelo://app?vid=1d9d4190-1d4b-4999-8cdd-8e44f04bc896"},"vehicle_type_id":"4","last_reported":1727849565,"current_range_meters":34000,"station_id":"ce4bhnp2rcd13ifvqgvg","pricing_plan_id":"cebpf4jnsgd1na2vs0mg"},{"bike_id":"f51822b9-704f-458f-a7ae-2b2b0991c31b","system_id":"levelo_inurba_marseille","lat":43.29039,"lon":5.39984,"is_reserved":false,"is_disabled":false,"rental_uris":{"android":"levelo://app?vid=f51822b9-704f-458f-a7ae-2b2b0991c31b","ios":"levelo://app?vid=f51822b9-704f-458f-a7ae-2b2b0991c31b"},"vehicle_type_id":"4","last_reported":1727849565,"current_range_meters":18800,"station_id":"ce4bh392rcd13ifvqdm0","pricing_plan_id":"cebpf4jnsgd1na2vs0mg"},{"bike_id":"3b97a4b3-af6d-464a-a34e-7505122673ad","system_id":"levelo_inurba_marseille","lat":43.28269,"lon":5.35066,"is_reserved":false,"is_disabled":false,"rental_uris":{"android":"levelo://app?vid=3b97a4b3-af6d-464a-a34e-7505122673ad","ios":"levelo://app?vid=3b97a4b3-af6d-464a-a34e-7505122673ad"},"vehicle_type_id":"4","last_reported":1727849565,"current_range_meters":38800,"station_id":"ce4bhbp2rcd13ifvqerg","pricing_plan_id":"cebpf4jnsgd1na2vs0mg"},{"bike_id":"9e0f8531-ac87-4939-876c-6806e8dfeda9","system_id":"levelo_inurba_marseille","lat":43.23153,"lon":5.43716,"is_reserved":false,"is_disabled":false,"rental_uris":{"android":"levelo://app?vid=9e0f8531-ac87-4939-876c-6806e8dfeda9","ios":"levelo://app?vid=9e0f8531-ac87-4939-876c-6806e8dfeda9"},"vehicle_type_id":"4","last_reported":1727849565,"current_range_meters":8400,"station_id":"ce4bhmp2rcd13ifvqgog","pricing_plan_id":"cebpf4jnsgd1na2vs0mg"},{"bike_id":"f4fbe73b-433b-4488-ae64-46b9f026c917","system_id":"levelo_inurba_marseille","lat":43.28932,"lon":5.36362,"is_reserved":false,"is_disabled":false,"rental_uris":{"android":"levelo://app?vid=f4fbe73b-433b-4488-ae64-46b9f026c917","ios":"levelo://app?vid=f4fbe73b-433b-4488-ae64-46b9f026c917"},"vehicle_type_id":"4","last_reported":1727849565,"current_range_meters":27600,"station_id":"ce4bhc92rcd13ifvqetg","pricing_plan_id":"cebpf4jnsgd1na2vs0mg"},{"bike_id":"defb89c1-c957-47eb-9166-af23c9721187","system_id":"levelo_inurba_marseille","lat":43.31756,"lon":5.39014,"is_reserved":false,"is_disabled":false,"rental_uris":{"android":"levelo://app?vid=defb89c1-c957-47eb-9166-af23c9721187","ios":"levelo://app?vid=defb89c1-c957-47eb-9166-af23c9721187"},"vehicle_type_id":"4","last_reported":1727849565,"current_range_meters":11200,"station_id":"ce4bhqp2rcd13ifvqhng","pricing_plan_id":"cebpf4jnsgd1na2vs0mg"},{"bike_id":"009ea4a6-0561-421e-8a2c-1845d149d45a","system_id":"levelo_inurba_marseille","lat":43.3047,"lon":5.37902,"is_reserved":false,"is_disabled":false,"rental_uris":{"android":"levelo://app?vid=009ea4a6-0561-421e-8a2c-1845d149d45a","ios":"levelo://app?vid=009ea4a6-0561-421e-8a2c-1845d149d45a"},"vehicle_type_id":"4","last_reported":1727849565,"current_range_meters":8400,"station_id":"ce4bgup2rcd13ifvqcn0","pricing_plan_id":"cebpf4jnsgd1na2vs0mg"},{"bike_id":"b652f429-09b8-4697-9c1b-3b9adc3c55d8","system_id":"levelo_inurba_marseille","lat":43.26871,"lon":5.39135,"is_reserved":false,"is_disabled":false,"rental_uris":{"android":"levelo://app?vid=b652f429-09b8-4697-9c1b-3b9adc3c55d8","ios":"levelo://app?vid=b652f429-09b8-4697-9c1b-3b9adc3c55d8"},"vehicle_type_id":"4","last_reported":1727849565,"current_range_meters":3200,"station_id":"","pricing_plan_id":"cebpf4jnsgd1na2vs0mg"},{"bike_id":"e52396dd-642e-4633-9204-6bcea9818d20","system_id":"levelo_inurba_marseille","lat":43.27837,"lon":5.3921,"is_reserved":false,"is_disabled":false,"rental_uris":{"android":"levelo://app?vid=e52396dd-642e-4633-9204-6bcea9818d20","ios":"levelo://app?vid=e52396dd-642e-4633-9204-6bcea9818d20"},"vehicle_type_id":"4","last_reported":1727849565,"current_range_meters":36800,"station_id":"ce4bhjp2rcd13ifvqga0","pricing_plan_id":"cebpf4jnsgd1na2vs0mg"},{"bike_id":"57e92cee-c1e9-4ad2-9fd4-318e252200ff","system_id":"levelo_inurba_marseille","lat":43.25942,"lon":5.40899,"is_reserved":false,"is_disabled":false,"rental_uris":{"android":"levelo://app?vid=57e92cee-c1e9-4ad2-9fd4-318e252200ff","ios":"levelo://app?vid=57e92cee-c1e9-4ad2-9fd4-318e252200ff"},"vehicle_type_id":"4","last_reported":1727849565,"current_range_meters":34800,"station_id":"ce4bhm92rcd13ifvqglg","pricing_plan_id":"cebpf4jnsgd1na2vs0mg"},{"bike_id":"70e38f21-4308-407a-8916-4389ca455e31","system_id":"levelo_inurba_marseille","lat":43.28944,"lon":5.3963,"is_reserved":false,"is_disabled":false,"rental_uris":{"android":"levelo://app?vid=70e38f21-4308-407a-8916-4389ca455e31","ios":"levelo://app?vid=70e38f21-4308-407a-8916-4389ca455e31"},"vehicle_type_id":"4","last_reported":1727849565,"current_range_meters":32000,"station_id":"ce4bh3h2rcd13ifvqdn0","pricing_plan_id":"cebpf4jnsgd1na2vs0mg"},{"bike_id":"4f2db1d7-0354-4715-b08e-7421c6196cab","system_id":"levelo_inurba_marseille","lat":43.30462,"lon":5.37909,"is_reserved":false,"is_disabled":false,"rental_uris":{"android":"levelo://app?vid=4f2db1d7-0354-4715-b08e-7421c6196cab","ios":"levelo://app?vid=4f2db1d7-0354-4715-b08e-7421c6196cab"},"vehicle_type_id":"4","last_reported":1727849565,"current_range_meters":30000,"station_id":"ce4bgup2rcd13ifvqcn0","pricing_plan_id":"cebpf4jnsgd1na2vs0mg"},{"bike_id":"b993e505-e084-4b1a-9429-c10fe07c1a52","system_id":"levelo_inurba_marseille","lat":43.32535,"lon":5.41432,"is_reserved":false,"is_disabled":false,"rental_uris":{"android":"levelo://app?vid=b993e505-e084-4b1a-9429-c10fe07c1a52","ios":"levelo://app?vid=b993e505-e084-4b1a-9429-c10fe07c1a52"},"vehicle_type_id":"4","last_reported":1727849565,"current_range_meters":8400,"station_id":"ce4bhq12rcd13ifvqhhg","pricing_plan_id":"cebpf4jnsgd1na2vs0mg"},{"bike_id":"630a39c8-9e8c-405e-b762-8c7330714470","system_id":"levelo_inurba_marseille","lat":43.28702,"lon":5.37385,"is_reserved":false,"is_disabled":false,"rental_uris":{"android":"levelo://app?vid=630a39c8-9e8c-405e-b762-8c7330714470","ios":"levelo://app?vid=630a39c8-9e8c-405e-b762-8c7330714470"},"vehicle_type_id":"4","last_reported":1727849565,"current_range_meters":32400,"station_id":"ce4bh3p2rcd13ifvqdq0","pricing_plan_id":"cebpf4jnsgd1na2vs0mg"},{"bike_id":"0d0c09c7-e409-4059-95eb-e2007a7f7fa5","system_id":"levelo_inurba_marseille","lat":43.33606,"lon":5.41033,"is_reserved":false,"is_disabled":false,"rental_uris":{"android":"levelo://app?vid=0d0c09c7-e409-4059-95eb-e2007a7f7fa5","ios":"levelo://app?vid=0d0c09c7-e409-4059-95eb-e2007a7f7fa5"},"vehicle_type_id":"4","last_reported":1727849565,"current_range_meters":10000,"station_id":"ce4bhqh2rcd13ifvqhmg","pricing_plan_id":"cebpf4jnsgd1na2vs0mg"},{"bike_id":"5cd03c01-bdf8-478b-b995-9bbc108f648c","system_id":"levelo_inurba_marseille","lat":43.24182,"lon":5.39725,"is_reserved":false,"is_disabled":false,"rental_uris":{"android":"levelo://app?vid=5cd03c01-bdf8-478b-b995-9bbc108f648c","ios":"levelo://app?vid=5cd03c01-bdf8-478b-b995-9bbc108f648c"},"vehicle_type_id":"4","last_reported":1727849565,"current_range_meters":7200,"station_id":"ce4bhn12rcd13ifvqgpg","pricing_plan_id":"cebpf4jnsgd1na2vs0mg"},{"bike_id":"5e2bc60f-d7f3-4329-9c4b-be3423b61425","system_id":"levelo_inurba_marseille","lat":43.317566,"lon":5.390035,"is_reserved":false,"is_disabled":false,"rental_uris":{"android":"levelo://app?vid=5e2bc60f-d7f3-4329-9c4b-be3423b61425","ios":"levelo://app?vid=5e2bc60f-d7f3-4329-9c4b-be3423b61425"},"vehicle_type_id":"4","last_reported":1727849565,"current_range_meters":38400,"station_id":"ce4bhqp2rcd13ifvqhng","pricing_plan_id":"cebpf4jnsgd1na2vs0mg"},{"bike_id":"73399eb1-81fc-499b-afcf-54f651c5e0be","system_id":"levelo_inurba_marseille","lat":43.29919,"lon":5.37483,"is_reserved":false,"is_disabled":false,"rental_uris":{"android":"levelo://app?vid=73399eb1-81fc-499b-afcf-54f651c5e0be","ios":"levelo://app?vid=73399eb1-81fc-499b-afcf-54f651c5e0be"},"vehicle_type_id":"4","last_reported":1727849565,"current_range_meters":16400,"station_id":"ce4bgjh2rcd13ifvqbg0","pricing_plan_id":"cebpf4jnsgd1na2vs0mg"},{"bike_id":"79d527c7-2bce-4ca9-8ae3-8b1a61dc1cde","system_id":"levelo_inurba_marseille","lat":43.33603,"lon":5.41032,"is_reserved":false,"is_disabled":false,"rental_uris":{"android":"levelo://app?vid=79d527c7-2bce-4ca9-8ae3-8b1a61dc1cde","ios":"levelo://app?vid=79d527c7-2bce-4ca9-8ae3-8b1a61dc1cde"},"vehicle_type_id":"4","last_reported":1727849565,"current_range_meters":36400,"station_id":"ce4bhqh2rcd13ifvqhmg","pricing_plan_id":"cebpf4jnsgd1na2vs0mg"},{"bike_id":"0f40a915-9438-408e-accc-d04564e314d8","system_id":"levelo_inurba_marseille","lat":43.24645,"lon":5.38891,"is_reserved":false,"is_disabled":false,"rental_uris":{"android":"levelo://app?vid=0f40a915-9438-408e-accc-d04564e314d8","ios":"levelo://app?vid=0f40a915-9438-408e-accc-d04564e314d8"},"vehicle_type_id":"4","last_reported":1727849565,"current_range_meters":38800,"station_id":"ce4bhg12rcd13ifvqf60","pricing_plan_id":"cebpf4jnsgd1na2vs0mg"},{"bike_id":"e87b5406-bfc3-450b-90be-ea33674025e0","system_id":"levelo_inurba_marseille","lat":43.31351,"lon":5.36728,"is_reserved":false,"is_disabled":false,"rental_uris":{"android":"levelo://app?vid=e87b5406-bfc3-450b-90be-ea33674025e0","ios":"levelo://app?vid=e87b5406-bfc3-450b-90be-ea33674025e0"},"vehicle_type_id":"4","last_reported":1727849565,"current_range_meters":10800,"station_id":"ce4bgr92rcd13ifvqc6g","pricing_plan_id":"cebpf4jnsgd1na2vs0mg"},{"bike_id":"dc0269b0-e8b1-42a0-aa7e-d6ae8eb50eb5","system_id":"levelo_inurba_marseille","lat":43.2407,"lon":5.37754,"is_reserved":false,"is_disabled":false,"rental_uris":{"android":"levelo://app?vid=dc0269b0-e8b1-42a0-aa7e-d6ae8eb50eb5","ios":"levelo://app?vid=dc0269b0-e8b1-42a0-aa7e-d6ae8eb50eb5"},"vehicle_type_id":"4","last_reported":1727849565,"current_range_meters":37600,"station_id":"ce4bhnp2rcd13ifvqgvg","pricing_plan_id":"cebpf4jnsgd1na2vs0mg"},{"bike_id":"3323c246-21de-4847-be1f-9908e13e9a08","system_id":"levelo_inurba_marseille","lat":43.30468,"lon":5.37911,"is_reserved":false,"is_disabled":false,"rental_uris":{"android":"levelo://app?vid=3323c246-21de-4847-be1f-9908e13e9a08","ios":"levelo://app?vid=3323c246-21de-4847-be1f-9908e13e9a08"},"vehicle_type_id":"4","last_reported":1727849565,"current_range_meters":28000,"station_id":"ce4bgup2rcd13ifvqcn0","pricing_plan_id":"cebpf4jnsgd1na2vs0mg"},{"bike_id":"f791259a-df2c-414e-92e0-4d64d343370b","system_id":"levelo_inurba_marseille","lat":43.30911,"lon":5.36849,"is_reserved":false,"is_disabled":false,"rental_uris":{"android":"levelo://app?vid=f791259a-df2c-414e-92e0-4d64d343370b","ios":"levelo://app?vid=f791259a-df2c-414e-92e0-4d64d343370b"},"vehicle_type_id":"4","last_reported":1727849565,"current_range_meters":38400,"station_id":"ce4bgn92rcd13ifvqbvg","pricing_plan_id":"cebpf4jnsgd1na2vs0mg"},{"bike_id":"89b9dfd5-0dc9-4197-bb8d-be7f07ee51ff","system_id":"levelo_inurba_marseille","lat":43.31532,"lon":5.38021,"is_reserved":false,"is_disabled":false,"rental_uris":{"android":"levelo://app?vid=89b9dfd5-0dc9-4197-bb8d-be7f07ee51ff","ios":"levelo://app?vid=89b9dfd5-0dc9-4197-bb8d-be7f07ee51ff"},"vehicle_type_id":"4","last_reported":1727849565,"current_range_meters":38800,"station_id":"ce4bhsp2rcd13ifvqi50","pricing_plan_id":"cebpf4jnsgd1na2vs0mg"},{"bike_id":"7755d04c-5fa7-4a13-a63b-1c017e7043cc","system_id":"levelo_inurba_marseille","lat":43.2582,"lon":5.39436,"is_reserved":false,"is_disabled":false,"rental_uris":{"android":"levelo://app?vid=7755d04c-5fa7-4a13-a63b-1c017e7043cc","ios":"levelo://app?vid=7755d04c-5fa7-4a13-a63b-1c017e7043cc"},"vehicle_type_id":"4","last_reported":1727849565,"current_range_meters":36800,"station_id":"ce4bhip2rcd13ifvqft0","pricing_plan_id":"cebpf4jnsgd1na2vs0mg"},{"bike_id":"6ae20033-92da-495d-9743-905496a75472","system_id":"levelo_inurba_marseille","lat":43.33612,"lon":5.41033,"is_reserved":false,"is_disabled":false,"rental_uris":{"android":"levelo://app?vid=6ae20033-92da-495d-9743-905496a75472","ios":"levelo://app?vid=6ae20033-92da-495d-9743-905496a75472"},"vehicle_type_id":"4","last_reported":1727849565,"current_range_meters":38800,"station_id":"ce4bhqh2rcd13ifvqhmg","pricing_plan_id":"cebpf4jnsgd1na2vs0mg"},{"bike_id":"32f94b16-f43f-4ab0-9cc4-441c595e0a56","system_id":"levelo_inurba_marseille","lat":43.28155,"lon":5.42639,"is_reserved":false,"is_disabled":false,"rental_uris":{"android":"levelo://app?vid=32f94b16-f43f-4ab0-9cc4-441c595e0a56","ios":"levelo://app?vid=32f94b16-f43f-4ab0-9cc4-441c595e0a56"},"vehicle_type_id":"4","last_reported":1727849565,"current_range_meters":36400,"station_id":"ce4bhnh2rcd13ifvqgug","pricing_plan_id":"cebpf4jnsgd1na2vs0mg"},{"bike_id":"11055545-4247-41a3-9906-21261e0748c4","system_id":"levelo_inurba_marseille","lat":43.32535,"lon":5.41433,"is_reserved":false,"is_disabled":false,"rental_uris":{"android":"levelo://app?vid=11055545-4247-41a3-9906-21261e0748c4","ios":"levelo://app?vid=11055545-4247-41a3-9906-21261e0748c4"},"vehicle_type_id":"4","last_reported":1727849565,"current_range_meters":12400,"station_id":"ce4bhq12rcd13ifvqhhg","pricing_plan_id":"cebpf4jnsgd1na2vs0mg"},{"bike_id":"8c26e438-ca37-450a-9880-ac121c3e449a","system_id":"levelo_inurba_marseille","lat":43.30895,"lon":5.37201,"is_reserved":false,"is_disabled":false,"rental_uris":{"android":"levelo://app?vid=8c26e438-ca37-450a-9880-ac121c3e449a","ios":"levelo://app?vid=8c26e438-ca37-450a-9880-ac121c3e449a"},"vehicle_type_id":"4","last_reported":1727849565,"current_range_meters":34800,"station_id":"ce4bguh2rcd13ifvqckg","pricing_plan_id":"cebpf4jnsgd1na2vs0mg"},{"bike_id":"4dcd0ee5-6590-4335-91fd-d94a0a36f5f8","system_id":"levelo_inurba_marseille","lat":43.28347,"lon":5.38105,"is_reserved":false,"is_disabled":false,"rental_uris":{"android":"levelo://app?vid=4dcd0ee5-6590-4335-91fd-d94a0a36f5f8","ios":"levelo://app?vid=4dcd0ee5-6590-4335-91fd-d94a0a36f5f8"},"vehicle_type_id":"4","last_reported":1727849565,"current_range_meters":4400,"station_id":"ce4bh412rcd13ifvqdr0","pricing_plan_id":"cebpf4jnsgd1na2vs0mg"},{"bike_id":"3392da18-84bb-493b-aead-378d30bf7b78","system_id":"levelo_inurba_marseille","lat":43.25585,"lon":5.38225,"is_reserved":false,"is_disabled":false,"rental_uris":{"android":"levelo://app?vid=3392da18-84bb-493b-aead-378d30bf7b78","ios":"levelo://app?vid=3392da18-84bb-493b-aead-378d30bf7b78"},"vehicle_type_id":"4","last_reported":1727849565,"current_range_meters":17600,"station_id":"ce4bhih2rcd13ifvqfs0","pricing_plan_id":"cebpf4jnsgd1na2vs0mg"},{"bike_id":"7c0a7e9a-274d-4edb-a5f4-3ab54445f147","system_id":"levelo_inurba_marseille","lat":43.26493,"lon":5.39547,"is_reserved":false,"is_disabled":false,"rental_uris":{"android":"levelo://app?vid=7c0a7e9a-274d-4edb-a5f4-3ab54445f147","ios":"levelo://app?vid=7c0a7e9a-274d-4edb-a5f4-3ab54445f147"},"vehicle_type_id":"4","last_reported":1727849565,"current_range_meters":38400,"station_id":"ce4bhi12rcd13ifvqfq0","pricing_plan_id":"cebpf4jnsgd1na2vs0mg"},{"bike_id":"c6aefcac-9b59-4be9-ba9c-464572888e5a","system_id":"levelo_inurba_marseille","lat":43.3055,"lon":5.36721,"is_reserved":false,"is_disabled":false,"rental_uris":{"android":"levelo://app?vid=c6aefcac-9b59-4be9-ba9c-464572888e5a","ios":"levelo://app?vid=c6aefcac-9b59-4be9-ba9c-464572888e5a"},"vehicle_type_id":"4","last_reported":1727849565,"current_range_meters":38400,"station_id":"ce4bgrp2rcd13ifvqc9g","pricing_plan_id":"cebpf4jnsgd1na2vs0mg"},{"bike_id":"e327d4c5-e7de-478d-89b6-da24369c6f53","system_id":"levelo_inurba_marseille","lat":43.29843,"lon":5.36275,"is_reserved":false,"is_disabled":false,"rental_uris":{"android":"levelo://app?vid=e327d4c5-e7de-478d-89b6-da24369c6f53","ios":"levelo://app?vid=e327d4c5-e7de-478d-89b6-da24369c6f53"},"vehicle_type_id":"4","last_reported":1727849565,"current_range_meters":36400,"station_id":"ce4bgpp2rcd13ifvqc3g","pricing_plan_id":"cebpf4jnsgd1na2vs0mg"},{"bike_id":"36ba55be-55c0-4d75-9db6-d5e0c0cd66af","system_id":"levelo_inurba_marseille","lat":43.31354,"lon":5.38495,"is_reserved":false,"is_disabled":false,"rental_uris":{"android":"levelo://app?vid=36ba55be-55c0-4d75-9db6-d5e0c0cd66af","ios":"levelo://app?vid=36ba55be-55c0-4d75-9db6-d5e0c0cd66af"},"vehicle_type_id":"4","last_reported":1727849565,"current_range_meters":33200,"station_id":"ce4bgt92rcd13ifvqcf0","pricing_plan_id":"cebpf4jnsgd1na2vs0mg"},{"bike_id":"78b1dac7-5bed-47e2-8698-6f2dc96554bd","system_id":"levelo_inurba_marseille","lat":43.31531,"lon":5.38025,"is_reserved":false,"is_disabled":false,"rental_uris":{"android":"levelo://app?vid=78b1dac7-5bed-47e2-8698-6f2dc96554bd","ios":"levelo://app?vid=78b1dac7-5bed-47e2-8698-6f2dc96554bd"},"vehicle_type_id":"4","last_reported":1727849565,"current_range_meters":30800,"station_id":"ce4bhsp2rcd13ifvqi50","pricing_plan_id":"cebpf4jnsgd1na2vs0mg"},{"bike_id":"a42d4b5d-b825-4f40-a06a-5f6883fe28f3","system_id":"levelo_inurba_marseille","lat":43.26953,"lon":5.38624,"is_reserved":false,"is_disabled":false,"rental_uris":{"android":"levelo://app?vid=a42d4b5d-b825-4f40-a06a-5f6883fe28f3","ios":"levelo://app?vid=a42d4b5d-b825-4f40-a06a-5f6883fe28f3"},"vehicle_type_id":"4","last_reported":1727849565,"current_range_meters":20400,"station_id":"ce4bhh92rcd13ifvqfh0","pricing_plan_id":"cebpf4jnsgd1na2vs0mg"},{"bike_id":"4326db58-40ed-4c40-8024-fb7d24341f84","system_id":"levelo_inurba_marseille","lat":43.2904,"lon":5.39965,"is_reserved":false,"is_disabled":false,"rental_uris":{"android":"levelo://app?vid=4326db58-40ed-4c40-8024-fb7d24341f84","ios":"levelo://app?vid=4326db58-40ed-4c40-8024-fb7d24341f84"},"vehicle_type_id":"4","last_reported":1727849565,"current_range_meters":38800,"station_id":"ce4bh392rcd13ifvqdm0","pricing_plan_id":"cebpf4jnsgd1na2vs0mg"},{"bike_id":"c7ec3b31-0391-4e4c-98d9-638cd614fa82","system_id":"levelo_inurba_marseille","lat":43.30591,"lon":5.39362,"is_reserved":false,"is_disabled":false,"rental_uris":{"android":"levelo://app?vid=c7ec3b31-0391-4e4c-98d9-638cd614fa82","ios":"levelo://app?vid=c7ec3b31-0391-4e4c-98d9-638cd614fa82"},"vehicle_type_id":"4","last_reported":1727849565,"current_range_meters":22000,"station_id":"ce4bh0p2rcd13ifvqd80","pricing_plan_id":"cebpf4jnsgd1na2vs0mg"},{"bike_id":"080db849-2660-48ce-a3a7-f3d840cee3e6","system_id":"levelo_inurba_marseille","lat":43.26569,"lon":5.39005,"is_reserved":false,"is_disabled":false,"rental_uris":{"android":"levelo://app?vid=080db849-2660-48ce-a3a7-f3d840cee3e6","ios":"levelo://app?vid=080db849-2660-48ce-a3a7-f3d840cee3e6"},"vehicle_type_id":"4","last_reported":1727849565,"current_range_meters":36800,"station_id":"ce4bhe12rcd13ifvqf30","pricing_plan_id":"cebpf4jnsgd1na2vs0mg"},{"bike_id":"33ab3f51-3776-44b2-9d39-42527035593d","system_id":"levelo_inurba_marseille","lat":43.24076,"lon":5.3776,"is_reserved":false,"is_disabled":false,"rental_uris":{"android":"levelo://app?vid=33ab3f51-3776-44b2-9d39-42527035593d","ios":"levelo://app?vid=33ab3f51-3776-44b2-9d39-42527035593d"},"vehicle_type_id":"4","last_reported":1727849565,"current_range_meters":27200,"station_id":"ce4bhnp2rcd13ifvqgvg","pricing_plan_id":"cebpf4jnsgd1na2vs0mg"},{"bike_id":"22084d66-bd82-4658-83d0-5569cf63c111","system_id":"levelo_inurba_marseille","lat":43.30596,"lon":5.39369,"is_reserved":false,"is_disabled":false,"rental_uris":{"android":"levelo://app?vid=22084d66-bd82-4658-83d0-5569cf63c111","ios":"levelo://app?vid=22084d66-bd82-4658-83d0-5569cf63c111"},"vehicle_type_id":"4","last_reported":1727849565,"current_range_meters":6800,"station_id":"ce4bh0p2rcd13ifvqd80","pricing_plan_id":"cebpf4jnsgd1na2vs0mg"},{"bike_id":"632d0985-c098-48cc-9383-af61c9514b5b","system_id":"levelo_inurba_marseille","lat":43.29035,"lon":5.39969,"is_reserved":false,"is_disabled":false,"rental_uris":{"android":"levelo://app?vid=632d0985-c098-48cc-9383-af61c9514b5b","ios":"levelo://app?vid=632d0985-c098-48cc-9383-af61c9514b5b"},"vehicle_type_id":"4","last_reported":1727849565,"current_range_meters":36000,"station_id":"ce4bh392rcd13ifvqdm0","pricing_plan_id":"cebpf4jnsgd1na2vs0mg"},{"bike_id":"4bc069e9-27cb-4e2c-9e2e-007bc95d2cfc","system_id":"levelo_inurba_marseille","lat":43.292266,"lon":5.360434,"is_reserved":false,"is_disabled":false,"rental_uris":{"android":"levelo://app?vid=4bc069e9-27cb-4e2c-9e2e-007bc95d2cfc","ios":"levelo://app?vid=4bc069e9-27cb-4e2c-9e2e-007bc95d2cfc"},"vehicle_type_id":"4","last_reported":1727849565,"current_range_meters":38400,"station_id":"ce4bhbh2rcd13ifvqeqg","pricing_plan_id":"cebpf4jnsgd1na2vs0mg"},{"bike_id":"d22ae321-847f-4577-8563-9e21e8a7db72","system_id":"levelo_inurba_marseille","lat":43.30784,"lon":5.37649,"is_reserved":false,"is_disabled":false,"rental_uris":{"android":"levelo://app?vid=d22ae321-847f-4577-8563-9e21e8a7db72","ios":"levelo://app?vid=d22ae321-847f-4577-8563-9e21e8a7db72"},"vehicle_type_id":"4","last_reported":1727849565,"current_range_meters":24800,"station_id":"ce4bgv92rcd13ifvqcq0","pricing_plan_id":"cebpf4jnsgd1na2vs0mg"},{"bike_id":"12923d7c-8017-4e0f-9d3b-c8a9932749b9","system_id":"levelo_inurba_marseille","lat":43.281921,"lon":5.385908,"is_reserved":false,"is_disabled":false,"rental_uris":{"android":"levelo://app?vid=12923d7c-8017-4e0f-9d3b-c8a9932749b9","ios":"levelo://app?vid=12923d7c-8017-4e0f-9d3b-c8a9932749b9"},"vehicle_type_id":"4","last_reported":1727849565,"current_range_meters":33600,"station_id":"ce4bhjp2rcd13ifvqg90","pricing_plan_id":"cebpf4jnsgd1na2vs0mg"},{"bike_id":"bd0db477-1706-451e-a7f6-635369a0f04a","system_id":"levelo_inurba_marseille","lat":43.2408,"lon":5.37754,"is_reserved":false,"is_disabled":false,"rental_uris":{"android":"levelo://app?vid=bd0db477-1706-451e-a7f6-635369a0f04a","ios":"levelo://app?vid=bd0db477-1706-451e-a7f6-635369a0f04a"},"vehicle_type_id":"4","last_reported":1727849565,"current_range_meters":9600,"station_id":"ce4bhnp2rcd13ifvqgvg","pricing_plan_id":"cebpf4jnsgd1na2vs0mg"},{"bike_id":"98a58bfa-fb1e-41aa-94cc-b5fc4f711733","system_id":"levelo_inurba_marseille","lat":43.31085,"lon":5.4243,"is_reserved":false,"is_disabled":false,"rental_uris":{"android":"levelo://app?vid=98a58bfa-fb1e-41aa-94cc-b5fc4f711733","ios":"levelo://app?vid=98a58bfa-fb1e-41aa-94cc-b5fc4f711733"},"vehicle_type_id":"4","last_reported":1727849565,"current_range_meters":26800,"station_id":"ce4bhp92rcd13ifvqhag","pricing_plan_id":"cebpf4jnsgd1na2vs0mg"},{"bike_id":"ea269157-2820-4123-89db-09c68bbb110a","system_id":"levelo_inurba_marseille","lat":43.30473,"lon":5.37911,"is_reserved":false,"is_disabled":false,"rental_uris":{"android":"levelo://app?vid=ea269157-2820-4123-89db-09c68bbb110a","ios":"levelo://app?vid=ea269157-2820-4123-89db-09c68bbb110a"},"vehicle_type_id":"4","last_reported":1727849565,"current_range_meters":8000,"station_id":"ce4bgup2rcd13ifvqcn0","pricing_plan_id":"cebpf4jnsgd1na2vs0mg"},{"bike_id":"6ca3c324-edcd-4f8d-a4f2-e318473acbb0","system_id":"levelo_inurba_marseille","lat":43.30478,"lon":5.37902,"is_reserved":false,"is_disabled":false,"rental_uris":{"android":"levelo://app?vid=6ca3c324-edcd-4f8d-a4f2-e318473acbb0","ios":"levelo://app?vid=6ca3c324-edcd-4f8d-a4f2-e318473acbb0"},"vehicle_type_id":"4","last_reported":1727849565,"current_range_meters":6800,"station_id":"ce4bgup2rcd13ifvqcn0","pricing_plan_id":"cebpf4jnsgd1na2vs0mg"},{"bike_id":"9470973d-d29a-43df-97fa-a5f6fce2c606","system_id":"levelo_inurba_marseille","lat":43.32285,"lon":5.38265,"is_reserved":false,"is_disabled":false,"rental_uris":{"android":"levelo://app?vid=9470973d-d29a-43df-97fa-a5f6fce2c606","ios":"levelo://app?vid=9470973d-d29a-43df-97fa-a5f6fce2c606"},"vehicle_type_id":"4","last_reported":1727849565,"current_range_meters":16400,"station_id":"ce4bhr12rcd13ifvqhqg","pricing_plan_id":"cebpf4jnsgd1na2vs0mg"},{"bike_id":"cc33ca7c-9e0f-42ee-a6ef-4ca61a1955c4","system_id":"levelo_inurba_marseille","lat":43.30601,"lon":5.39361,"is_reserved":false,"is_disabled":false,"rental_uris":{"android":"levelo://app?vid=cc33ca7c-9e0f-42ee-a6ef-4ca61a1955c4","ios":"levelo://app?vid=cc33ca7c-9e0f-42ee-a6ef-4ca61a1955c4"},"vehicle_type_id":"4","last_reported":1727849565,"current_range_meters":38400,"station_id":"ce4bh0p2rcd13ifvqd80","pricing_plan_id":"cebpf4jnsgd1na2vs0mg"},{"bike_id":"2707c804-34e3-4ce4-af03-ab0f40f1b76b","system_id":"levelo_inurba_marseille","lat":43.32333,"lon":5.40622,"is_reserved":false,"is_disabled":false,"rental_uris":{"android":"levelo://app?vid=2707c804-34e3-4ce4-af03-ab0f40f1b76b","ios":"levelo://app?vid=2707c804-34e3-4ce4-af03-ab0f40f1b76b"},"vehicle_type_id":"4","last_reported":1727849565,"current_range_meters":4000,"station_id":"ce4bhq92rcd13ifvqhjg","pricing_plan_id":"cebpf4jnsgd1na2vs0mg"},{"bike_id":"e86c8d75-d95b-45d5-9dc0-4662c597f68a","system_id":"levelo_inurba_marseille","lat":43.29027,"lon":5.38647,"is_reserved":false,"is_disabled":false,"rental_uris":{"android":"levelo://app?vid=e86c8d75-d95b-45d5-9dc0-4662c597f68a","ios":"levelo://app?vid=e86c8d75-d95b-45d5-9dc0-4662c597f68a"},"vehicle_type_id":"4","last_reported":1727849565,"current_range_meters":35600,"station_id":"ce4bh4p2rcd13ifvqe0g","pricing_plan_id":"cebpf4jnsgd1na2vs0mg"},{"bike_id":"9e41f7ba-5c3c-4841-a2d8-714bb64a308d","system_id":"levelo_inurba_marseille","lat":43.29865,"lon":5.363287,"is_reserved":false,"is_disabled":false,"rental_uris":{"android":"levelo://app?vid=9e41f7ba-5c3c-4841-a2d8-714bb64a308d","ios":"levelo://app?vid=9e41f7ba-5c3c-4841-a2d8-714bb64a308d"},"vehicle_type_id":"4","last_reported":1727849565,"current_range_meters":22400,"station_id":"ce4bgt12rcd13ifvqcd0","pricing_plan_id":"cebpf4jnsgd1na2vs0mg"},{"bike_id":"b337bd20-f5ab-4d71-a842-ea60a4480d01","system_id":"levelo_inurba_marseille","lat":43.33752,"lon":5.37462,"is_reserved":false,"is_disabled":false,"rental_uris":{"android":"levelo://app?vid=b337bd20-f5ab-4d71-a842-ea60a4480d01","ios":"levelo://app?vid=b337bd20-f5ab-4d71-a842-ea60a4480d01"},"vehicle_type_id":"4","last_reported":1727849565,"current_range_meters":34800,"station_id":"","pricing_plan_id":"cebpf4jnsgd1na2vs0mg"},{"bike_id":"906341d8-f0c5-4ba8-8990-e9bf6ed8aeef","system_id":"levelo_inurba_marseille","lat":43.29779,"lon":5.38108,"is_reserved":false,"is_disabled":false,"rental_uris":{"android":"levelo://app?vid=906341d8-f0c5-4ba8-8990-e9bf6ed8aeef","ios":"levelo://app?vid=906341d8-f0c5-4ba8-8990-e9bf6ed8aeef"},"vehicle_type_id":"4","last_reported":1727849565,"current_range_meters":34800,"station_id":"ce4bgip2rcd13ifvqbb0","pricing_plan_id":"cebpf4jnsgd1na2vs0mg"},{"bike_id":"2d1e394b-c65c-48dd-8f6c-7fbd688f784e","system_id":"levelo_inurba_marseille","lat":43.31652,"lon":5.38814,"is_reserved":false,"is_disabled":false,"rental_uris":{"android":"levelo://app?vid=2d1e394b-c65c-48dd-8f6c-7fbd688f784e","ios":"levelo://app?vid=2d1e394b-c65c-48dd-8f6c-7fbd688f784e"},"vehicle_type_id":"4","last_reported":1727849565,"current_range_meters":8800,"station_id":"ce4bhqp2rcd13ifvqhng","pricing_plan_id":"cebpf4jnsgd1na2vs0mg"},{"bike_id":"f00ed442-e17c-4148-b20c-b6e1a319bde1","system_id":"levelo_inurba_marseille","lat":43.32285,"lon":5.41251,"is_reserved":false,"is_disabled":false,"rental_uris":{"android":"levelo://app?vid=f00ed442-e17c-4148-b20c-b6e1a319bde1","ios":"levelo://app?vid=f00ed442-e17c-4148-b20c-b6e1a319bde1"},"vehicle_type_id":"4","last_reported":1727849565,"current_range_meters":32000,"station_id":"ce4bhqh2rcd13ifvqhmg","pricing_plan_id":"cebpf4jnsgd1na2vs0mg"},{"bike_id":"a839f8c2-1f19-41c9-b661-130324e30c0f","system_id":"levelo_inurba_marseille","lat":43.322881,"lon":5.382649,"is_reserved":false,"is_disabled":false,"rental_uris":{"android":"levelo://app?vid=a839f8c2-1f19-41c9-b661-130324e30c0f","ios":"levelo://app?vid=a839f8c2-1f19-41c9-b661-130324e30c0f"},"vehicle_type_id":"4","last_reported":1727849565,"current_range_meters":39200,"station_id":"ce4bhr12rcd13ifvqhqg","pricing_plan_id":"cebpf4jnsgd1na2vs0mg"},{"bike_id":"a0ff1b89-d88f-4712-97f9-37edf654558e","system_id":"levelo_inurba_marseille","lat":43.2903,"lon":5.38646,"is_reserved":false,"is_disabled":false,"rental_uris":{"android":"levelo://app?vid=a0ff1b89-d88f-4712-97f9-37edf654558e","ios":"levelo://app?vid=a0ff1b89-d88f-4712-97f9-37edf654558e"},"vehicle_type_id":"4","last_reported":1727849565,"current_range_meters":35200,"station_id":"ce4bh4p2rcd13ifvqe0g","pricing_plan_id":"cebpf4jnsgd1na2vs0mg"},{"bike_id":"cd385f71-7ba5-497a-9c21-e01e06c76d4e","system_id":"levelo_inurba_marseille","lat":43.3203,"lon":5.41551,"is_reserved":false,"is_disabled":false,"rental_uris":{"android":"levelo://app?vid=cd385f71-7ba5-497a-9c21-e01e06c76d4e","ios":"levelo://app?vid=cd385f71-7ba5-497a-9c21-e01e06c76d4e"},"vehicle_type_id":"4","last_reported":1727849565,"current_range_meters":10800,"station_id":"ce4bhq92rcd13ifvqhkg","pricing_plan_id":"cebpf4jnsgd1na2vs0mg"},{"bike_id":"b020fd42-53ca-48dc-b664-2bb54af58ed8","system_id":"levelo_inurba_marseille","lat":43.30896,"lon":5.37183,"is_reserved":false,"is_disabled":false,"rental_uris":{"android":"levelo://app?vid=b020fd42-53ca-48dc-b664-2bb54af58ed8","ios":"levelo://app?vid=b020fd42-53ca-48dc-b664-2bb54af58ed8"},"vehicle_type_id":"4","last_reported":1727849565,"current_range_meters":36800,"station_id":"ce4bguh2rcd13ifvqckg","pricing_plan_id":"cebpf4jnsgd1na2vs0mg"},{"bike_id":"f493192b-13c6-47a1-9573-739dd32e633f","system_id":"levelo_inurba_marseille","lat":43.337444,"lon":5.374475,"is_reserved":false,"is_disabled":false,"rental_uris":{"android":"levelo://app?vid=f493192b-13c6-47a1-9573-739dd32e633f","ios":"levelo://app?vid=f493192b-13c6-47a1-9573-739dd32e633f"},"vehicle_type_id":"4","last_reported":1727849565,"current_range_meters":14000,"station_id":"","pricing_plan_id":"cebpf4jnsgd1na2vs0mg"},{"bike_id":"82629651-f3f6-4e9b-971d-0a40fe1449ba","system_id":"levelo_inurba_marseille","lat":43.28152,"lon":5.42647,"is_reserved":false,"is_disabled":false,"rental_uris":{"android":"levelo://app?vid=82629651-f3f6-4e9b-971d-0a40fe1449ba","ios":"levelo://app?vid=82629651-f3f6-4e9b-971d-0a40fe1449ba"},"vehicle_type_id":"4","last_reported":1727849565,"current_range_meters":38800,"station_id":"ce4bhnh2rcd13ifvqgug","pricing_plan_id":"cebpf4jnsgd1na2vs0mg"},{"bike_id":"f74b94bd-4df2-44d7-a73b-0c0ff17290b9","system_id":"levelo_inurba_marseille","lat":43.34143,"lon":5.40897,"is_reserved":false,"is_disabled":false,"rental_uris":{"android":"levelo://app?vid=f74b94bd-4df2-44d7-a73b-0c0ff17290b9","ios":"levelo://app?vid=f74b94bd-4df2-44d7-a73b-0c0ff17290b9"},"vehicle_type_id":"4","last_reported":1727849565,"current_range_meters":12000,"station_id":"ce4bhqh2rcd13ifvqhlg","pricing_plan_id":"cebpf4jnsgd1na2vs0mg"},{"bike_id":"9513f9a4-9927-4c02-908b-a5d770a723ce","system_id":"levelo_inurba_marseille","lat":43.26955,"lon":5.38629,"is_reserved":false,"is_disabled":false,"rental_uris":{"android":"levelo://app?vid=9513f9a4-9927-4c02-908b-a5d770a723ce","ios":"levelo://app?vid=9513f9a4-9927-4c02-908b-a5d770a723ce"},"vehicle_type_id":"4","last_reported":1727849565,"current_range_meters":30400,"station_id":"ce4bhh92rcd13ifvqfh0","pricing_plan_id":"cebpf4jnsgd1na2vs0mg"},{"bike_id":"5f396b8a-4cc7-45ca-b8d2-39d2a55865b8","system_id":"levelo_inurba_marseille","lat":43.27183,"lon":5.40985,"is_reserved":false,"is_disabled":false,"rental_uris":{"android":"levelo://app?vid=5f396b8a-4cc7-45ca-b8d2-39d2a55865b8","ios":"levelo://app?vid=5f396b8a-4cc7-45ca-b8d2-39d2a55865b8"},"vehicle_type_id":"4","last_reported":1727849565,"current_range_meters":12400,"station_id":"ce4bhl12rcd13ifvqgf0","pricing_plan_id":"cebpf4jnsgd1na2vs0mg"},{"bike_id":"28378b31-7d41-44a5-ae65-b499de808787","system_id":"levelo_inurba_marseille","lat":43.24074,"lon":5.37762,"is_reserved":false,"is_disabled":false,"rental_uris":{"android":"levelo://app?vid=28378b31-7d41-44a5-ae65-b499de808787","ios":"levelo://app?vid=28378b31-7d41-44a5-ae65-b499de808787"},"vehicle_type_id":"4","last_reported":1727849565,"current_range_meters":35600,"station_id":"ce4bhnp2rcd13ifvqgvg","pricing_plan_id":"cebpf4jnsgd1na2vs0mg"},{"bike_id":"74b9c02d-26c2-4184-8c6d-e2ff9dedf45c","system_id":"levelo_inurba_marseille","lat":43.30474,"lon":5.37896,"is_reserved":false,"is_disabled":false,"rental_uris":{"android":"levelo://app?vid=74b9c02d-26c2-4184-8c6d-e2ff9dedf45c","ios":"levelo://app?vid=74b9c02d-26c2-4184-8c6d-e2ff9dedf45c"},"vehicle_type_id":"4","last_reported":1727849565,"current_range_meters":28000,"station_id":"ce4bgup2rcd13ifvqcn0","pricing_plan_id":"cebpf4jnsgd1na2vs0mg"},{"bike_id":"4f732e4f-6c22-4da0-8fec-e3b960d8d942","system_id":"levelo_inurba_marseille","lat":43.30953,"lon":5.39039,"is_reserved":false,"is_disabled":false,"rental_uris":{"android":"levelo://app?vid=4f732e4f-6c22-4da0-8fec-e3b960d8d942","ios":"levelo://app?vid=4f732e4f-6c22-4da0-8fec-e3b960d8d942"},"vehicle_type_id":"4","last_reported":1727849565,"current_range_meters":38800,"station_id":"ce4bgup2rcd13ifvqco0","pricing_plan_id":"cebpf4jnsgd1na2vs0mg"},{"bike_id":"6eba1abc-2435-44ab-ba81-b10227bea0da","system_id":"levelo_inurba_marseille","lat":43.24078,"lon":5.37755,"is_reserved":false,"is_disabled":false,"rental_uris":{"android":"levelo://app?vid=6eba1abc-2435-44ab-ba81-b10227bea0da","ios":"levelo://app?vid=6eba1abc-2435-44ab-ba81-b10227bea0da"},"vehicle_type_id":"4","last_reported":1727849565,"current_range_meters":14000,"station_id":"ce4bhnp2rcd13ifvqgvg","pricing_plan_id":"cebpf4jnsgd1na2vs0mg"},{"bike_id":"d0f3ba74-2db6-4276-a970-d6d9e934005a","system_id":"levelo_inurba_marseille","lat":43.33721,"lon":5.39182,"is_reserved":false,"is_disabled":false,"rental_uris":{"android":"levelo://app?vid=d0f3ba74-2db6-4276-a970-d6d9e934005a","ios":"levelo://app?vid=d0f3ba74-2db6-4276-a970-d6d9e934005a"},"vehicle_type_id":"4","last_reported":1727849565,"current_range_meters":38800,"station_id":"ce4bhr92rcd13ifvqhsg","pricing_plan_id":"cebpf4jnsgd1na2vs0mg"},{"bike_id":"890f96ea-eda5-427c-858e-9a917a74f5c2","system_id":"levelo_inurba_marseille","lat":43.26064,"lon":5.39391,"is_reserved":false,"is_disabled":false,"rental_uris":{"android":"levelo://app?vid=890f96ea-eda5-427c-858e-9a917a74f5c2","ios":"levelo://app?vid=890f96ea-eda5-427c-858e-9a917a74f5c2"},"vehicle_type_id":"4","last_reported":1727849565,"current_range_meters":8400,"station_id":"ce4bhh92rcd13ifvqfj0","pricing_plan_id":"cebpf4jnsgd1na2vs0mg"},{"bike_id":"a2ba7602-9b90-45c6-8d5a-66c0710e2f94","system_id":"levelo_inurba_marseille","lat":43.33607,"lon":5.41025,"is_reserved":false,"is_disabled":false,"rental_uris":{"android":"levelo://app?vid=a2ba7602-9b90-45c6-8d5a-66c0710e2f94","ios":"levelo://app?vid=a2ba7602-9b90-45c6-8d5a-66c0710e2f94"},"vehicle_type_id":"4","last_reported":1727849565,"current_range_meters":24800,"station_id":"ce4bhqh2rcd13ifvqhmg","pricing_plan_id":"cebpf4jnsgd1na2vs0mg"},{"bike_id":"e81cef68-ecc8-4fe9-a400-7c4a2a76b1ec","system_id":"levelo_inurba_marseille","lat":43.27202,"lon":5.39183,"is_reserved":false,"is_disabled":false,"rental_uris":{"android":"levelo://app?vid=e81cef68-ecc8-4fe9-a400-7c4a2a76b1ec","ios":"levelo://app?vid=e81cef68-ecc8-4fe9-a400-7c4a2a76b1ec"},"vehicle_type_id":"4","last_reported":1727849565,"current_range_meters":39200,"station_id":"ce4bhhp2rcd13ifvqfm0","pricing_plan_id":"cebpf4jnsgd1na2vs0mg"},{"bike_id":"df9d7b97-fca5-4b26-bdbc-15e4a3a67c01","system_id":"levelo_inurba_marseille","lat":43.27842,"lon":5.39201,"is_reserved":false,"is_disabled":false,"rental_uris":{"android":"levelo://app?vid=df9d7b97-fca5-4b26-bdbc-15e4a3a67c01","ios":"levelo://app?vid=df9d7b97-fca5-4b26-bdbc-15e4a3a67c01"},"vehicle_type_id":"4","last_reported":1727849565,"current_range_meters":30400,"station_id":"ce4bhjp2rcd13ifvqga0","pricing_plan_id":"cebpf4jnsgd1na2vs0mg"},{"bike_id":"c7174240-b193-4498-a94a-3946f761f66f","system_id":"levelo_inurba_marseille","lat":43.28665,"lon":5.36344,"is_reserved":false,"is_disabled":false,"rental_uris":{"android":"levelo://app?vid=c7174240-b193-4498-a94a-3946f761f66f","ios":"levelo://app?vid=c7174240-b193-4498-a94a-3946f761f66f"},"vehicle_type_id":"4","last_reported":1727849565,"current_range_meters":22000,"station_id":"ce4bhah2rcd13ifvqej0","pricing_plan_id":"cebpf4jnsgd1na2vs0mg"},{"bike_id":"4c4f3085-7816-4fff-97e5-4cd36e0a2328","system_id":"levelo_inurba_marseille","lat":43.2656,"lon":5.37279,"is_reserved":false,"is_disabled":false,"rental_uris":{"android":"levelo://app?vid=4c4f3085-7816-4fff-97e5-4cd36e0a2328","ios":"levelo://app?vid=4c4f3085-7816-4fff-97e5-4cd36e0a2328"},"vehicle_type_id":"4","last_reported":1727849565,"current_range_meters":37600,"station_id":"ce4bhg12rcd13ifvqf70","pricing_plan_id":"cebpf4jnsgd1na2vs0mg"},{"bike_id":"c90b62d9-56ee-4c39-b816-7c92e6759ba5","system_id":"levelo_inurba_marseille","lat":43.26952,"lon":5.38627,"is_reserved":false,"is_disabled":false,"rental_uris":{"android":"levelo://app?vid=c90b62d9-56ee-4c39-b816-7c92e6759ba5","ios":"levelo://app?vid=c90b62d9-56ee-4c39-b816-7c92e6759ba5"},"vehicle_type_id":"4","last_reported":1727849565,"current_range_meters":38800,"station_id":"ce4bhh92rcd13ifvqfh0","pricing_plan_id":"cebpf4jnsgd1na2vs0mg"},{"bike_id":"e1a22575-397e-4cd2-9953-1ff35d4fc195","system_id":"levelo_inurba_marseille","lat":43.2656,"lon":5.372863,"is_reserved":false,"is_disabled":false,"rental_uris":{"android":"levelo://app?vid=e1a22575-397e-4cd2-9953-1ff35d4fc195","ios":"levelo://app?vid=e1a22575-397e-4cd2-9953-1ff35d4fc195"},"vehicle_type_id":"4","last_reported":1727849565,"current_range_meters":37600,"station_id":"ce4bhg12rcd13ifvqf70","pricing_plan_id":"cebpf4jnsgd1na2vs0mg"},{"bike_id":"a6a00523-ff32-49ac-a8c0-eb57e16175f0","system_id":"levelo_inurba_marseille","lat":43.28453,"lon":5.37997,"is_reserved":false,"is_disabled":false,"rental_uris":{"android":"levelo://app?vid=a6a00523-ff32-49ac-a8c0-eb57e16175f0","ios":"levelo://app?vid=a6a00523-ff32-49ac-a8c0-eb57e16175f0"},"vehicle_type_id":"4","last_reported":1727849565,"current_range_meters":34000,"station_id":"ce4bh4p2rcd13ifvqe0g","pricing_plan_id":"cebpf4jnsgd1na2vs0mg"},{"bike_id":"6bc87502-6a3b-47e0-893f-d2d751cfe6ff","system_id":"levelo_inurba_marseille","lat":43.27494,"lon":5.42455,"is_reserved":false,"is_disabled":false,"rental_uris":{"android":"levelo://app?vid=6bc87502-6a3b-47e0-893f-d2d751cfe6ff","ios":"levelo://app?vid=6bc87502-6a3b-47e0-893f-d2d751cfe6ff"},"vehicle_type_id":"4","last_reported":1727849565,"current_range_meters":12000,"station_id":"ce4bhn92rcd13ifvqgrg","pricing_plan_id":"cebpf4jnsgd1na2vs0mg"},{"bike_id":"c39119b2-0438-4665-8591-8a4c922eb7ca","system_id":"levelo_inurba_marseille","lat":43.30598,"lon":5.3936,"is_reserved":false,"is_disabled":false,"rental_uris":{"android":"levelo://app?vid=c39119b2-0438-4665-8591-8a4c922eb7ca","ios":"levelo://app?vid=c39119b2-0438-4665-8591-8a4c922eb7ca"},"vehicle_type_id":"4","last_reported":1727849565,"current_range_meters":10800,"station_id":"ce4bh0p2rcd13ifvqd80","pricing_plan_id":"cebpf4jnsgd1na2vs0mg"},{"bike_id":"fd7c95a3-2849-479f-9b88-f16651159447","system_id":"levelo_inurba_marseille","lat":43.25868,"lon":5.39896,"is_reserved":false,"is_disabled":false,"rental_uris":{"android":"levelo://app?vid=fd7c95a3-2849-479f-9b88-f16651159447","ios":"levelo://app?vid=fd7c95a3-2849-479f-9b88-f16651159447"},"vehicle_type_id":"4","last_reported":1727849565,"current_range_meters":23200,"station_id":"ce4bhl92rcd13ifvqghg","pricing_plan_id":"cebpf4jnsgd1na2vs0mg"},{"bike_id":"86b9ce2f-9e5d-468e-b738-0d4d63494e0e","system_id":"levelo_inurba_marseille","lat":43.30463,"lon":5.37907,"is_reserved":false,"is_disabled":false,"rental_uris":{"android":"levelo://app?vid=86b9ce2f-9e5d-468e-b738-0d4d63494e0e","ios":"levelo://app?vid=86b9ce2f-9e5d-468e-b738-0d4d63494e0e"},"vehicle_type_id":"4","last_reported":1727849565,"current_range_meters":25600,"station_id":"ce4bgup2rcd13ifvqcn0","pricing_plan_id":"cebpf4jnsgd1na2vs0mg"},{"bike_id":"cf9830ce-b6b9-4b7e-bffc-df2763b2b4c1","system_id":"levelo_inurba_marseille","lat":43.24078,"lon":5.3774,"is_reserved":false,"is_disabled":false,"rental_uris":{"android":"levelo://app?vid=cf9830ce-b6b9-4b7e-bffc-df2763b2b4c1","ios":"levelo://app?vid=cf9830ce-b6b9-4b7e-bffc-df2763b2b4c1"},"vehicle_type_id":"4","last_reported":1727849565,"current_range_meters":38800,"station_id":"ce4bhnp2rcd13ifvqgvg","pricing_plan_id":"cebpf4jnsgd1na2vs0mg"},{"bike_id":"20d8f5df-1f92-48be-86ea-12e3f2ae0f68","system_id":"levelo_inurba_marseille","lat":43.29265,"lon":5.38428,"is_reserved":false,"is_disabled":false,"rental_uris":{"android":"levelo://app?vid=20d8f5df-1f92-48be-86ea-12e3f2ae0f68","ios":"levelo://app?vid=20d8f5df-1f92-48be-86ea-12e3f2ae0f68"},"vehicle_type_id":"4","last_reported":1727849565,"current_range_meters":37600,"station_id":"ce4bh692rcd13ifvqea0","pricing_plan_id":"cebpf4jnsgd1na2vs0mg"},{"bike_id":"bbc80b41-b299-462c-b2cb-66b9afc7fc8d","system_id":"levelo_inurba_marseille","lat":43.2848,"lon":5.38427,"is_reserved":false,"is_disabled":false,"rental_uris":{"android":"levelo://app?vid=bbc80b41-b299-462c-b2cb-66b9afc7fc8d","ios":"levelo://app?vid=bbc80b41-b299-462c-b2cb-66b9afc7fc8d"},"vehicle_type_id":"4","last_reported":1727849565,"current_range_meters":38400,"station_id":"ce4bh512rcd13ifvqe3g","pricing_plan_id":"cebpf4jnsgd1na2vs0mg"},{"bike_id":"89832cf8-5b1a-4647-8a4b-fed6044fcc16","system_id":"levelo_inurba_marseille","lat":43.29007,"lon":5.35618,"is_reserved":false,"is_disabled":false,"rental_uris":{"android":"levelo://app?vid=89832cf8-5b1a-4647-8a4b-fed6044fcc16","ios":"levelo://app?vid=89832cf8-5b1a-4647-8a4b-fed6044fcc16"},"vehicle_type_id":"4","last_reported":1727849565,"current_range_meters":36000,"station_id":"ce4bhb92rcd13ifvqen0","pricing_plan_id":"cebpf4jnsgd1na2vs0mg"},{"bike_id":"056349ad-de95-45d1-bde7-5e3c31add666","system_id":"levelo_inurba_marseille","lat":43.2837,"lon":5.38649,"is_reserved":false,"is_disabled":false,"rental_uris":{"android":"levelo://app?vid=056349ad-de95-45d1-bde7-5e3c31add666","ios":"levelo://app?vid=056349ad-de95-45d1-bde7-5e3c31add666"},"vehicle_type_id":"4","last_reported":1727849565,"current_range_meters":38800,"station_id":"ce4bh492rcd13ifvqdvg","pricing_plan_id":"cebpf4jnsgd1na2vs0mg"},{"bike_id":"a2ae8adb-cbe8-4c0b-89c0-a433c1504522","system_id":"levelo_inurba_marseille","lat":43.31271,"lon":5.40171,"is_reserved":false,"is_disabled":false,"rental_uris":{"android":"levelo://app?vid=a2ae8adb-cbe8-4c0b-89c0-a433c1504522","ios":"levelo://app?vid=a2ae8adb-cbe8-4c0b-89c0-a433c1504522"},"vehicle_type_id":"4","last_reported":1727849565,"current_range_meters":28800,"station_id":"ce4bh092rcd13ifvqd30","pricing_plan_id":"cebpf4jnsgd1na2vs0mg"},{"bike_id":"9f7961ea-681b-442d-b456-bc5f72af8b58","system_id":"levelo_inurba_marseille","lat":43.33611,"lon":5.41023,"is_reserved":false,"is_disabled":false,"rental_uris":{"android":"levelo://app?vid=9f7961ea-681b-442d-b456-bc5f72af8b58","ios":"levelo://app?vid=9f7961ea-681b-442d-b456-bc5f72af8b58"},"vehicle_type_id":"4","last_reported":1727849565,"current_range_meters":34800,"station_id":"ce4bhqh2rcd13ifvqhmg","pricing_plan_id":"cebpf4jnsgd1na2vs0mg"},{"bike_id":"67142c12-abcd-4e4c-bd65-073c2b5e1821","system_id":"levelo_inurba_marseille","lat":43.28373,"lon":5.38638,"is_reserved":false,"is_disabled":false,"rental_uris":{"android":"levelo://app?vid=67142c12-abcd-4e4c-bd65-073c2b5e1821","ios":"levelo://app?vid=67142c12-abcd-4e4c-bd65-073c2b5e1821"},"vehicle_type_id":"4","last_reported":1727849565,"current_range_meters":8000,"station_id":"ce4bh492rcd13ifvqdvg","pricing_plan_id":"cebpf4jnsgd1na2vs0mg"},{"bike_id":"0b7a5177-7bc1-4350-bceb-f8d35eb45312","system_id":"levelo_inurba_marseille","lat":43.29256,"lon":5.40915,"is_reserved":false,"is_disabled":false,"rental_uris":{"android":"levelo://app?vid=0b7a5177-7bc1-4350-bceb-f8d35eb45312","ios":"levelo://app?vid=0b7a5177-7bc1-4350-bceb-f8d35eb45312"},"vehicle_type_id":"4","last_reported":1727849565,"current_range_meters":24400,"station_id":"ce4bh192rcd13ifvqdc0","pricing_plan_id":"cebpf4jnsgd1na2vs0mg"},{"bike_id":"849785e9-3354-451b-a4b8-9dfecd3e3883","system_id":"levelo_inurba_marseille","lat":43.2668,"lon":5.38275,"is_reserved":false,"is_disabled":false,"rental_uris":{"android":"levelo://app?vid=849785e9-3354-451b-a4b8-9dfecd3e3883","ios":"levelo://app?vid=849785e9-3354-451b-a4b8-9dfecd3e3883"},"vehicle_type_id":"4","last_reported":1727849565,"current_range_meters":38800,"station_id":"ce4bhg92rcd13ifvqf90","pricing_plan_id":"cebpf4jnsgd1na2vs0mg"},{"bike_id":"9a01dcf8-5ed8-4767-a4ab-43252d05c561","system_id":"levelo_inurba_marseille","lat":43.25942,"lon":5.40924,"is_reserved":false,"is_disabled":false,"rental_uris":{"android":"levelo://app?vid=9a01dcf8-5ed8-4767-a4ab-43252d05c561","ios":"levelo://app?vid=9a01dcf8-5ed8-4767-a4ab-43252d05c561"},"vehicle_type_id":"4","last_reported":1727849565,"current_range_meters":34800,"station_id":"ce4bhm92rcd13ifvqglg","pricing_plan_id":"cebpf4jnsgd1na2vs0mg"},{"bike_id":"2d04eabc-20d5-4171-9fd4-aec415b35a7b","system_id":"levelo_inurba_marseille","lat":43.30533,"lon":5.36722,"is_reserved":false,"is_disabled":false,"rental_uris":{"android":"levelo://app?vid=2d04eabc-20d5-4171-9fd4-aec415b35a7b","ios":"levelo://app?vid=2d04eabc-20d5-4171-9fd4-aec415b35a7b"},"vehicle_type_id":"4","last_reported":1727849565,"current_range_meters":37600,"station_id":"ce4bgrp2rcd13ifvqc9g","pricing_plan_id":"cebpf4jnsgd1na2vs0mg"},{"bike_id":"20da6550-779f-4d70-a235-39247343bc5b","system_id":"levelo_inurba_marseille","lat":43.29092,"lon":5.36744,"is_reserved":false,"is_disabled":false,"rental_uris":{"android":"levelo://app?vid=20da6550-779f-4d70-a235-39247343bc5b","ios":"levelo://app?vid=20da6550-779f-4d70-a235-39247343bc5b"},"vehicle_type_id":"4","last_reported":1727849565,"current_range_meters":7200,"station_id":"","pricing_plan_id":"cebpf4jnsgd1na2vs0mg"},