{"last_updated":1758092952,"ttl":60,"version":"2.2","data":{"bikes":[{"bike_id":"31f09912-69b5-4cf7-a077-9a3c39dd6e31","system_id":"levelo_inurba_marseille","lat":43.33755,"lon":5.3748,"is_reserved":false,"is_disabled":false,"rental_uris":{"android":"levelo://app?vid=31f09912-69b5-4cf7-a077-9a3c39dd6e31","ios":"levelo://app?vid=31f09912-69b5-4cf7-a077-9a3c39dd6e31"},"vehicle_type_id":"4","last_reported":1758092952,"current_range_meters":2800,"station_id":"","pricing_plan_id":"cebpf4jnsgd1na2vs0mg"},{"bike_id":"1142c08a-9723-486f-819a-3aaa16736cb7","system_id":"levelo_inurba_marseille","lat":43.282458,"lon":5.439243,"is_reserved":false,"is_disabled":false,"rental_uris":{"android":"levelo://app?vid=1142c08a-9723-486f-819a-3aaa16736cb7","ios":"levelo://app?vid=1142c08a-9723-486f-819a-3aaa16736cb7"},"vehicle_type_id":"4","last_reported":1758092952,"current_range_meters":2800,"station_id":"","pricing_plan_id":"cebpf4jnsgd1na2vs0mg"},{"bike_id":"a6bb5cdf-a6f1-4111-919d-668d0b1d6682","system_id":"levelo_inurba_marseille","lat":43.30459,"lon":5.37904,"is_reserved":false,"is_disabled":false,"rental_uris":{"android":"levelo://app?vid=a6bb5cdf-a6f1-4111-919d-668d0b1d6682","ios":"levelo://app?vid=a6bb5cdf-a6f1-4111-919d-668d0b1d6682"},"vehicle_type_id":"4","last_reported":1758092952,"current_range_meters":2800,"station_id":"","pricing_plan_id":"cebpf4jnsgd1na2vs0mg"},{"bike_id":"a646a649-3a17-408a-a5e2-d3060a22466f","system_id":"levelo_inurba_marseille","lat":43.23151,"lon":5.43719,"is_reserved":false,"is_disabled":false,"rental_uris":{"android":"levelo://app?vid=a646a649-3a17-408a-a5e2-d3060a22466f","ios":"levelo://app?vid=a646a649-3a17-408a-a5e2-d3060a22466f"},"vehicle_type_id":"4","last_reported":1758092952,"current_range_meters":2800,"station_id":"ce4bhmp2rcd13ifvqgog","pricing_plan_id":"cebpf4jnsgd1na2vs0mg"},{"bike_id":"27bc6b0c-c22e-494b-ab92-4e390584592b","system_id":"levelo_inurba_marseille","lat":43.33749,"lon":5.374674,"is_reserved":false,"is_disabled":false,"rental_uris":{"android":"levelo://app?vid=27bc6b0c-c22e-494b-ab92-4e390584592b","ios":"levelo://app?vid=27bc6b0c-c22e-494b-ab92-4e390584592b"},"vehicle_type_id":"4","last_reported":1758092952,"current_range_meters":2800,"station_id":"","pricing_plan_id":"cebpf4jnsgd1na2vs0mg"},{"bike_id":"d765e876-dc94-417e-ad8c-0ac49bf5261a","system_id":"levelo_inurba_marseille","lat":43.33423,"lon":5.36376,"is_reserved":false,"is_disabled":false,"rental_uris":{"android":"levelo://app?vid=d765e876-dc94-417e-ad8c-0ac49bf5261a","ios":"levelo://app?vid=d765e876-dc94-417e-ad8c-0ac49bf5261a"},"vehicle_type_id":"4","last_reported":1758092952,"current_range_meters":3200,"station_id":"","pricing_plan_id":"cebpf4jnsgd1na2vs0mg"},{"bike_id":"ad495aa0-e939-4e15-ad34-e948c47fdc3f","system_id":"levelo_inurba_marseille","lat":43.26944,"lon":5.38931,"is_reserved":false,"is_disabled":false,"rental_uris":{"android":"levelo://app?vid=ad495aa0-e939-4e15-ad34-e948c47fdc3f","ios":"levelo://app?vid=ad495aa0-e939-4e15-ad34-e948c47fdc3f"},"vehicle_type_id":"4","last_reported":1758092952,"current_range_meters":3200,"station_id":"ce4bhhh2rcd13ifvqfl0","pricing_plan_id":"cebpf4jnsgd1na2vs0mg"},{"bike_id":"e9d42c5b-2eeb-4956-bf69-1565cbf09cc0","system_id":"levelo_inurba_marseille","lat":43.28709,"lon":5.37391,"is_reserved":false,"is_disabled":false,"rental_uris":{"android":"levelo://app?vid=e9d42c5b-2eeb-4956-bf69-1565cbf09cc0","ios":"levelo://app?vid=e9d42c5b-2eeb-4956-bf69-1565cbf09cc0"},"vehicle_type_id":"4","last_reported":1758092952,"current_range_meters":3200,"station_id":"ce4bh3p2rcd13ifvqdq0","pricing_plan_id":"cebpf4jnsgd1na2vs0mg"},{"bike_id":"e7de8d24-5e50-4010-aca0-7f70df6f346f","system_id":"levelo_inurba_marseille","lat":43.28663,"lon":5.38665,"is_reserved":false,"is_disabled":false,"rental_uris":{"android":"levelo://app?vid=e7de8d24-5e50-4010-aca0-7f70df6f346f","ios":"levelo://app?vid=e7de8d24-5e50-4010-aca0-7f70df6f346f"},"vehicle_type_id":"4","last_reported":1758092952,"current_range_meters":3600,"station_id":"ce4bh492rcd13ifvqdug","pricing_plan_id":"cebpf4jnsgd1na2vs0mg"},{"bike_id":"fa302eb2-0286-46c3-8874-ec2748ef5110","system_id":"levelo_inurba_marseille","lat":43.28033,"lon":5.36959,"is_reserved":false,"is_disabled":false,"rental_uris":{"android":"levelo://app?vid=fa302eb2-0286-46c3-8874-ec2748ef5110","ios":"levelo://app?vid=fa302eb2-0286-46c3-8874-ec2748ef5110"},"vehicle_type_id":"4","last_reported":1758092952,"current_range_meters":3600,"station_id":"ce4bha12rcd13ifvqef0","pricing_plan_id":"cebpf4jnsgd1na2vs0mg"},{"bike_id":"a53016a1-528f-49a5-ab23-30927da549a0","system_id":"levelo_inurba_marseille","lat":43.25104,"lon":5.4033,"is_reserved":false,"is_disabled":true,"rental_uris":{"android":"levelo://app?vid=a53016a1-528f-49a5-ab23-30927da549a0","ios":"levelo://app?vid=a53016a1-528f-49a5-ab23-30927da549a0"},"vehicle_type_id":"4","last_reported":1758092952,"current_range_meters":3600,"station_id":"ce4bhlh2rcd13ifvqgig","pricing_plan_id":"cebpf4jnsgd1na2vs0mg"},{"bike_id":"40344a7c-3353-41d0-8493-2bab328aab55","system_id":"levelo_inurba_marseille","lat":43.301463,"lon":5.41727,"is_reserved":false,"is_disabled":false,"rental_uris":{"android":"levelo://app?vid=40344a7c-3353-41d0-8493-2bab328aab55","ios":"levelo://app?vid=40344a7c-3353-41d0-8493-2bab328aab55"},"vehicle_type_id":"4","last_reported":1758092952,"current_range_meters":3600,"station_id":"","pricing_plan_id":"cebpf4jnsgd1na2vs0mg"},{"bike_id":"546aac2d-b8e4-4124-9a49-7fafcd00a5ea","system_id":"levelo_inurba_marseille","lat":43.30521,"lon":5.36708,"is_reserved":false,"is_disabled":false,"rental_uris":{"android":"levelo://app?vid=546aac2d-b8e4-4124-9a49-7fafcd00a5ea","ios":"levelo://app?vid=546aac2d-b8e4-4124-9a49-7fafcd00a5ea"},"vehicle_type_id":"4","last_reported":1758092952,"current_range_meters":3600,"station_id":"ce4bgrp2rcd13ifvqc9g","pricing_plan_id":"cebpf4jnsgd1na2vs0mg"},{"bike_id":"f43ab4d4-8a36-4b97-8221-0c5f42c36023","system_id":"levelo_inurba_marseille","lat":43.240779,"lon":5.377473,"is_reserved":false,"is_disabled":true,"rental_uris":{"android":"levelo://app?vid=f43ab4d4-8a36-4b97-8221-0c5f42c36023","ios":"levelo://app?vid=f43ab4d4-8a36-4b97-8221-0c5f42c36023"},"vehicle_type_id":"4","last_reported":1758092952,"current_range_meters":3600,"station_id":"","pricing_plan_id":"cebpf4jnsgd1na2vs0mg"},{"bike_id":"13d32666-d94f-41f6-83eb-f3a1e138579e","system_id":"levelo_inurba_marseille","lat":43.281271,"lon":5.350181,"is_reserved":false,"is_disabled":false,"rental_uris":{"android":"levelo://app?vid=13d32666-d94f-41f6-83eb-f3a1e138579e","ios":"levelo://app?vid=13d32666-d94f-41f6-83eb-f3a1e138579e"},"vehicle_type_id":"4","last_reported":1758092952,"current_range_meters":3600,"station_id":"","pricing_plan_id":"cebpf4jnsgd1na2vs0mg"},{"bike_id":"a221c4ea-8532-4a3f-805e-8b02b4000bf3","system_id":"levelo_inurba_marseille","lat":43.292678,"lon":5.368484,"is_reserved":false,"is_disabled":false,"rental_uris":{"android":"levelo://app?vid=a221c4ea-8532-4a3f-805e-8b02b4000bf3","ios":"levelo://app?vid=a221c4ea-8532-4a3f-805e-8b02b4000bf3"},"vehicle_type_id":"4","last_reported":1758092952,"current_range_meters":3600,"station_id":"ce4bhbp2rcd13ifvqesg","pricing_plan_id":"cebpf4jnsgd1na2vs0mg"},{"bike_id":"8c32f4b7-77fe-4371-b162-18ad021eb8b2","system_id":"levelo_inurba_marseille","lat":43.217429,"lon":5.346001,"is_reserved":false,"is_disabled":false,"rental_uris":{"android":"levelo://app?vid=8c32f4b7-77fe-4371-b162-18ad021eb8b2","ios":"levelo://app?vid=8c32f4b7-77fe-4371-b162-18ad021eb8b2"},"vehicle_type_id":"4","last_reported":1758092952,"current_range_meters":3600,"station_id":"st_cvj6r9ubvosntc0bgbag","pricing_plan_id":"cebpf4jnsgd1na2vs0mg"},{"bike_id":"57127154-7e15-4346-89ed-ab9d76ef9c2c","system_id":"levelo_inurba_marseille","lat":43.28838,"lon":5.36326,"is_reserved":false,"is_disabled":false,"rental_uris":{"android":"levelo://app?vid=57127154-7e15-4346-89ed-ab9d76ef9c2c","ios":"levelo://app?vid=57127154-7e15-4346-89ed-ab9d76ef9c2c"},"vehicle_type_id":"4","last_reported":1758092952,"current_range_meters":3600,"station_id":"","pricing_plan_id":"cebpf4jnsgd1na2vs0mg"},{"bike_id":"e7a329bd-ed66-4ac7-aaba-63f2810ddd86","system_id":"levelo_inurba_marseille","lat":43.31859,"lon":5.37206,"is_reserved":false,"is_disabled":true,"rental_uris":{"android":"levelo://app?vid=e7a329bd-ed66-4ac7-aaba-63f2810ddd86","ios":"levelo://app?vid=e7a329bd-ed66-4ac7-aaba-63f2810ddd86"},"vehicle_type_id":"4","last_reported":1758092952,"current_range_meters":4000,"station_id":"","pricing_plan_id":"cebpf4jnsgd1na2vs0mg"},{"bike_id":"5014881f-56b2-4dbc-965e-3bd258011b45","system_id":"levelo_inurba_marseille","lat":43.217457,"lon":5.345963,"is_reserved":false,"is_disabled":true,"rental_uris":{"android":"levelo://app?vid=5014881f-56b2-4dbc-965e-3bd258011b45","ios":"levelo://app?vid=5014881f-56b2-4dbc-965e-3bd258011b45"},"vehicle_type_id":"4","last_reported":1758092952,"current_range_meters":4000,"station_id":"st_cvj6r9ubvosntc0bgbag","pricing_plan_id":"cebpf4jnsgd1na2vs0mg"},{"bike_id":"1d049f04-da51-4784-9577-a6781105765a","system_id":"levelo_inurba_marseille","lat":43.30891,"lon":5.3719,"is_reserved":false,"is_disabled":false,"rental_uris":{"android":"levelo://app?vid=1d049f04-da51-4784-9577-a6781105765a","ios":"levelo://app?vid=1d049f04-da51-4784-9577-a6781105765a"},"vehicle_type_id":"4","last_reported":1758092952,"current_range_meters":4000,"station_id":"ce4bguh2rcd13ifvqckg","pricing_plan_id":"cebpf4jnsgd1na2vs0mg"},{"bike_id":"1edc51f4-12c5-4f10-840a-add825d97273","system_id":"levelo_inurba_marseille","lat":43.25101,"lon":5.40355,"is_reserved":false,"is_disabled":true,"rental_uris":{"android":"levelo://app?vid=1edc51f4-12c5-4f10-840a-add825d97273","ios":"levelo://app?vid=1edc51f4-12c5-4f10-840a-add825d97273"},"vehicle_type_id":"4","last_reported":1758092952,"current_range_meters":4400,"station_id":"ce4bhlh2rcd13ifvqgig","pricing_plan_id":"cebpf4jnsgd1na2vs0mg"},{"bike_id":"6a04ca79-7b00-4c52-94c9-c23e40a5d35e","system_id":"levelo_inurba_marseille","lat":43.33607,"lon":5.41039,"is_reserved":false,"is_disabled":false,"rental_uris":{"android":"levelo://app?vid=6a04ca79-7b00-4c52-94c9-c23e40a5d35e","ios":"levelo://app?vid=6a04ca79-7b00-4c52-94c9-c23e40a5d35e"},"vehicle_type_id":"4","last_reported":1758092952,"current_range_meters":4400,"station_id":"ce4bhqh2rcd13ifvqhmg","pricing_plan_id":"cebpf4jnsgd1na2vs0mg"},{"bike_id":"09726e14-761d-46bb-9b2b-aa4ac3f92fec","system_id":"levelo_inurba_marseille","lat":43.29681,"lon":5.37986,"is_reserved":false,"is_disabled":false,"rental_uris":{"android":"levelo://app?vid=09726e14-761d-46bb-9b2b-aa4ac3f92fec","ios":"levelo://app?vid=09726e14-761d-46bb-9b2b-aa4ac3f92fec"},"vehicle_type_id":"4","last_reported":1758092952,"current_range_meters":4400,"station_id":"","pricing_plan_id":"cebpf4jnsgd1na2vs0mg"},{"bike_id":"ee282f88-c94f-4319-a8a8-f6f82cfef792","system_id":"levelo_inurba_marseille","lat":43.318852,"lon":5.407392,"is_reserved":false,"is_disabled":false,"rental_uris":{"android":"levelo://app?vid=ee282f88-c94f-4319-a8a8-f6f82cfef792","ios":"levelo://app?vid=ee282f88-c94f-4319-a8a8-f6f82cfef792"},"vehicle_type_id":"4","last_reported":1758092952,"current_range_meters":4400,"station_id":"ce4bhq12rcd13ifvqhig","pricing_plan_id":"cebpf4jnsgd1na2vs0mg"},{"bike_id":"9b065ffd-a5a2-4e9e-aa39-5b05e60dbefc","system_id":"levelo_inurba_marseille","lat":43.304179,"lon":5.39751,"is_reserved":false,"is_disabled":true,"rental_uris":{"android":"levelo://app?vid=9b065ffd-a5a2-4e9e-aa39-5b05e60dbefc","ios":"levelo://app?vid=9b065ffd-a5a2-4e9e-aa39-5b05e60dbefc"},"vehicle_type_id":"4","last_reported":1758092952,"current_range_meters":4800,"station_id":"ce4bh092rcd13ifvqd20","pricing_plan_id":"cebpf4jnsgd1na2vs0mg"},{"bike_id":"35cf7a0b-d161-40b0-8cde-705e07280088","system_id":"levelo_inurba_marseille","lat":43.32532,"lon":5.41402,"is_reserved":false,"is_disabled":false,"rental_uris":{"android":"levelo://app?vid=35cf7a0b-d161-40b0-8cde-705e07280088","ios":"levelo://app?vid=35cf7a0b-d161-40b0-8cde-705e07280088"},"vehicle_type_id":"4","last_reported":1758092952,"current_range_meters":4800,"station_id":"ce4bhq12rcd13ifvqhhg","pricing_plan_id":"cebpf4jnsgd1na2vs0mg"},{"bike_id":"322c1f5a-85db-4ef6-bcd4-1b5c417c8ee0","system_id":"levelo_inurba_marseille","lat":43.3377,"lon":5.37488,"is_reserved":false,"is_disabled":false,"rental_uris":{"android":"levelo://app?vid=322c1f5a-85db-4ef6-bcd4-1b5c417c8ee0","ios":"levelo://app?vid=322c1f5a-85db-4ef6-bcd4-1b5c417c8ee0"},"vehicle_type_id":"4","last_reported":1758092952,"current_range_meters":4800,"station_id":"","pricing_plan_id":"cebpf4jnsgd1na2vs0mg"},{"bike_id":"fbde02f3-6757-46cc-841e-f27d63552fbb","system_id":"levelo_inurba_marseille","lat":43.33756,"lon":5.37481,"is_reserved":false,"is_disabled":false,"rental_uris":{"android":"levelo://app?vid=fbde02f3-6757-46cc-841e-f27d63552fbb","ios":"levelo://app?vid=fbde02f3-6757-46cc-841e-f27d63552fbb"},"vehicle_type_id":"4","last_reported":1758092952,"current_range_meters":4800,"station_id":"","pricing_plan_id":"cebpf4jnsgd1na2vs0mg"},{"bike_id":"aac352f0-38f8-4439-80a5-9c14b811bd11","system_id":"levelo_inurba_marseille","lat":43.25924,"lon":5.40895,"is_reserved":false,"is_disabled":false,"rental_uris":{"android":"levelo://app?vid=aac352f0-38f8-4439-80a5-9c14b811bd11","ios":"levelo://app?vid=aac352f0-38f8-4439-80a5-9c14b811bd11"},"vehicle_type_id":"4","last_reported":1758092952,"current_range_meters":5600,"station_id":"ce4bhm92rcd13ifvqglg","pricing_plan_id":"cebpf4jnsgd1na2vs0mg"},{"bike_id":"cebee7bf-2023-4853-aec8-f3ae129e2379","system_id":"levelo_inurba_marseille","lat":43.28849,"lon":5.35865,"is_reserved":false,"is_disabled":false,"rental_uris":{"android":"levelo://app?vid=cebee7bf-2023-4853-aec8-f3ae129e2379","ios":"levelo://app?vid=cebee7bf-2023-4853-aec8-f3ae129e2379"},"vehicle_type_id":"4","last_reported":1758092952,"current_range_meters":6000,"station_id":"ce4bhb12rcd13ifvqem0","pricing_plan_id":"cebpf4jnsgd1na2vs0mg"},{"bike_id":"ec0b7b4c-47da-4fad-8f0d-f7b773af9ea4","system_id":"levelo_inurba_marseille","lat":43.26055,"lon":5.39399,"is_reserved":false,"is_disabled":false,"rental_uris":{"android":"levelo://app?vid=ec0b7b4c-47da-4fad-8f0d-f7b773af9ea4","ios":"levelo://app?vid=ec0b7b4c-47da-4fad-8f0d-f7b773af9ea4"},"vehicle_type_id":"4","last_reported":1758092952,"current_range_meters":6000,"station_id":"ce4bhh92rcd13ifvqfj0","pricing_plan_id":"cebpf4jnsgd1na2vs0mg"},{"bike_id":"c8642148-4955-4100-ab30-ad5af70c39c9","system_id":"levelo_inurba_marseille","lat":43.30918,"lon":5.36854,"is_reserved":false,"is_disabled":false,"rental_uris":{"android":"levelo://app?vid=c8642148-4955-4100-ab30-ad5af70c39c9","ios":"levelo://app?vid=c8642148-4955-4100-ab30-ad5af70c39c9"},"vehicle_type_id":"4","last_reported":1758092952,"current_range_meters":6000,"station_id":"ce4bgn92rcd13ifvqbvg","pricing_plan_id":"cebpf4jnsgd1na2vs0mg"},{"bike_id":"7cb1d546-4a86-404e-b83c-0aeabbe297fa","system_id":"levelo_inurba_marseille","lat":43.295229,"lon":5.400441,"is_reserved":false,"is_disabled":false,"rental_uris":{"android":"levelo://app?vid=7cb1d546-4a86-404e-b83c-0aeabbe297fa","ios":"levelo://app?vid=7cb1d546-4a86-404e-b83c-0aeabbe297fa"},"vehicle_type_id":"4","last_reported":1758092952,"current_range_meters":6000,"station_id":"","pricing_plan_id":"cebpf4jnsgd1na2vs0mg"},{"bike_id":"6f972612-747c-4f37-bb5a-97a482ca4420","system_id":"levelo_inurba_marseille","lat":43.25821,"lon":5.39441,"is_reserved":false,"is_disabled":false,"rental_uris":{"android":"levelo://app?vid=6f972612-747c-4f37-bb5a-97a482ca4420","ios":"levelo://app?vid=6f972612-747c-4f37-bb5a-97a482ca4420"},"vehicle_type_id":"4","last_reported":1758092952,"current_range_meters":6000,"station_id":"ce4bhip2rcd13ifvqft0","pricing_plan_id":"cebpf4jnsgd1na2vs0mg"},{"bike_id":"f9eef3e4-2221-4cc4-b8cc-bbb24c9b7d25","system_id":"levelo_inurba_marseille","lat":43.24162,"lon":5.36391,"is_reserved":false,"is_disabled":false,"rental_uris":{"android":"levelo://app?vid=f9eef3e4-2221-4cc4-b8cc-bbb24c9b7d25","ios":"levelo://app?vid=f9eef3e4-2221-4cc4-b8cc-bbb24c9b7d25"},"vehicle_type_id":"4","last_reported":1758092952,"current_range_meters":6000,"station_id":"cpo36qri1sfpv3e86is0","pricing_plan_id":"cebpf4jnsgd1na2vs0mg"},{"bike_id":"d818ffce-d6c4-4f39-ae87-10e02446a46c","system_id":"levelo_inurba_marseille","lat":43.24082,"lon":5.37751,"is_reserved":false,"is_disabled":false,"rental_uris":{"android":"levelo://app?vid=d818ffce-d6c4-4f39-ae87-10e02446a46c","ios":"levelo://app?vid=d818ffce-d6c4-4f39-ae87-10e02446a46c"},"vehicle_type_id":"4","last_reported":1758092952,"current_range_meters":6000,"station_id":"ce4bhnp2rcd13ifvqgvg","pricing_plan_id":"cebpf4jnsgd1na2vs0mg"},{"bike_id":"ced4c425-2698-4d35-914b-e614abb4ec77","system_id":"levelo_inurba_marseille","lat":43.26781,"lon":5.39436,"is_reserved":false,"is_disabled":false,"rental_uris":{"android":"levelo://app?vid=ced4c425-2698-4d35-914b-e614abb4ec77","ios":"levelo://app?vid=ced4c425-2698-4d35-914b-e614abb4ec77"},"vehicle_type_id":"4","last_reported":1758092952,"current_range_meters":6400,"station_id":"ce4bhh12rcd13ifvqfg0","pricing_plan_id":"cebpf4jnsgd1na2vs0mg"},{"bike_id":"c3ad4594-4e4a-42f9-93e2-c25c45a735b2","system_id":"levelo_inurba_marseille","lat":43.28867,"lon":5.42524,"is_reserved":false,"is_disabled":false,"rental_uris":{"android":"levelo://app?vid=c3ad4594-4e4a-42f9-93e2-c25c45a735b2","ios":"levelo://app?vid=c3ad4594-4e4a-42f9-93e2-c25c45a735b2"},"vehicle_type_id":"4","last_reported":1758092952,"current_range_meters":6400,"station_id":"","pricing_plan_id":"cebpf4jnsgd1na2vs0mg"},{"bike_id":"150278d0-4cc4-45a4-b777-87bca3d71398","system_id":"levelo_inurba_marseille","lat":43.32466,"lon":5.36594,"is_reserved":false,"is_disabled":false,"rental_uris":{"android":"levelo://app?vid=150278d0-4cc4-45a4-b777-87bca3d71398","ios":"levelo://app?vid=150278d0-4cc4-45a4-b777-87bca3d71398"},"vehicle_type_id":"4","last_reported":1758092952,"current_range_meters":6400,"station_id":"ce4bhs12rcd13ifvqhvg","pricing_plan_id":"cebpf4jnsgd1na2vs0mg"},{"bike_id":"aa61e92e-c0f5-4344-b8ee-786c4e62c2e4","system_id":"levelo_inurba_marseille","lat":43.29916,"lon":5.37478,"is_reserved":false,"is_disabled":false,"rental_uris":{"android":"levelo://app?vid=aa61e92e-c0f5-4344-b8ee-786c4e62c2e4","ios":"levelo://app?vid=aa61e92e-c0f5-4344-b8ee-786c4e62c2e4"},"vehicle_type_id":"4","last_reported":1758092952,"current_range_meters":6400,"station_id":"ce4bgjh2rcd13ifvqbg0","pricing_plan_id":"cebpf4jnsgd1na2vs0mg"},{"bike_id":"883932b9-c8c9-42e2-a150-da2fd7e88c92","system_id":"levelo_inurba_marseille","lat":43.23148,"lon":5.43711,"is_reserved":false,"is_disabled":false,"rental_uris":{"android":"levelo://app?vid=883932b9-c8c9-42e2-a150-da2fd7e88c92","ios":"levelo://app?vid=883932b9-c8c9-42e2-a150-da2fd7e88c92"},"vehicle_type_id":"4","last_reported":1758092952,"current_range_meters":6400,"station_id":"ce4bhmp2rcd13ifvqgog","pricing_plan_id":"cebpf4jnsgd1na2vs0mg"},{"bike_id":"c07e7a2d-d8a6-4efd-8723-e965be4d1a74","system_id":"levelo_inurba_marseille","lat":43.22533,"lon":5.348367,"is_reserved":false,"is_disabled":false,"rental_uris":{"android":"levelo://app?vid=c07e7a2d-d8a6-4efd-8723-e965be4d1a74","ios":"levelo://app?vid=c07e7a2d-d8a6-4efd-8723-e965be4d1a74"},"vehicle_type_id":"4","last_reported":1758092952,"current_range_meters":6400,"station_id":"","pricing_plan_id":"cebpf4jnsgd1na2vs0mg"},{"bike_id":"55121a63-75cd-412a-be25-606ea54f304c","system_id":"levelo_inurba_marseille","lat":43.25578,"lon":5.38238,"is_reserved":false,"is_disabled":false,"rental_uris":{"android":"levelo://app?vid=55121a63-75cd-412a-be25-606ea54f304c","ios":"levelo://app?vid=55121a63-75cd-412a-be25-606ea54f304c"},"vehicle_type_id":"4","last_reported":1758092952,"current_range_meters":6800,"station_id":"ce4bhih2rcd13ifvqfs0","pricing_plan_id":"cebpf4jnsgd1na2vs0mg"},{"bike_id":"6065ecb1-7c54-41ac-bf95-f78ce179c81b","system_id":"levelo_inurba_marseille","lat":43.278118,"lon":5.407113,"is_reserved":false,"is_disabled":true,"rental_uris":{"android":"levelo://app?vid=6065ecb1-7c54-41ac-bf95-f78ce179c81b","ios":"levelo://app?vid=6065ecb1-7c54-41ac-bf95-f78ce179c81b"},"vehicle_type_id":"4","last_reported":1758092952,"current_range_meters":6800,"station_id":"","pricing_plan_id":"cebpf4jnsgd1na2vs0mg"},{"bike_id":"88845fb3-5355-485c-828c-81fb9340b317","system_id":"levelo_inurba_marseille","lat":43.30952,"lon":5.39039,"is_reserved":false,"is_disabled":false,"rental_uris":{"android":"levelo://app?vid=88845fb3-5355-485c-828c-81fb9340b317","ios":"levelo://app?vid=88845fb3-5355-485c-828c-81fb9340b317"},"vehicle_type_id":"4","last_reported":1758092952,"current_range_meters":6400,"station_id":"ce4bgup2rcd13ifvqco0","pricing_plan_id":"cebpf4jnsgd1na2vs0mg"},{"bike_id":"23e1572e-7ccb-4eea-8020-599035749c9e","system_id":"levelo_inurba_marseille","lat":43.238349,"lon":5.365405,"is_reserved":false,"is_disabled":false,"rental_uris":{"android":"levelo://app?vid=23e1572e-7ccb-4eea-8020-599035749c9e","ios":"levelo://app?vid=23e1572e-7ccb-4eea-8020-599035749c9e"},"vehicle_type_id":"4","last_reported":1758092952,"current_range_meters":6800,"station_id":"","pricing_plan_id":"cebpf4jnsgd1na2vs0mg"},{"bike_id":"6b994451-1b63-4511-9875-9f6f5f5d96e3","system_id":"levelo_inurba_marseille","lat":43.27673,"lon":5.38889,"is_reserved":false,"is_disabled":false,"rental_uris":{"android":"levelo://app?vid=6b994451-1b63-4511-9875-9f6f5f5d96e3","ios":"levelo://app?vid=6b994451-1b63-4511-9875-9f6f5f5d96e3"},"vehicle_type_id":"4","last_reported":1758092952,"current_range_meters":6800,"station_id":"ce4bhi12rcd13ifvqfo0","pricing_plan_id":"cebpf4jnsgd1na2vs0mg"},{"bike_id":"191cd315-fefe-4d19-b639-ca3385c1a6a9","system_id":"levelo_inurba_marseille","lat":43.28601,"lon":5.37063,"is_reserved":false,"is_disabled":false,"rental_uris":{"android":"levelo://app?vid=191cd315-fefe-4d19-b639-ca3385c1a6a9","ios":"levelo://app?vid=191cd315-fefe-4d19-b639-ca3385c1a6a9"},"vehicle_type_id":"4","last_reported":1758092952,"current_range_meters":7200,"station_id":"ce4bht12rcd13ifvqi60","pricing_plan_id":"cebpf4jnsgd1na2vs0mg"},{"bike_id":"d7b053ab-2912-4f16-abf7-c47be8c4e15a","system_id":"levelo_inurba_marseille","lat":43.26554,"lon":5.37314,"is_reserved":false,"is_disabled":true,"rental_uris":{"android":"levelo://app?vid=d7b053ab-2912-4f16-abf7-c47be8c4e15a","ios":"levelo://app?vid=d7b053ab-2912-4f16-abf7-c47be8c4e15a"},"vehicle_type_id":"4","last_reported":1758092952,"current_range_meters":7200,"station_id":"ce4bhg12rcd13ifvqf70","pricing_plan_id":"cebpf4jnsgd1na2vs0mg"},{"bike_id":"521e5a7d-022a-4429-b196-3e209a93433b","system_id":"levelo_inurba_marseille","lat":43.2962,"lon":5.37153,"is_reserved":false,"is_disabled":false,"rental_uris":{"android":"levelo://app?vid=521e5a7d-022a-4429-b196-3e209a93433b","ios":"levelo://app?vid=521e5a7d-022a-4429-b196-3e209a93433b"},"vehicle_type_id":"4","last_reported":1758092952,"current_range_meters":7200,"station_id":"ce4bgnh2rcd13ifvqc0g","pricing_plan_id":"cebpf4jnsgd1na2vs0mg"},{"bike_id":"cd02c080-8936-4e2b-af4d-301cbe8eb8f1","system_id":"levelo_inurba_marseille","lat":43.30054,"lon":5.40376,"is_reserved":false,"is_disabled":false,"rental_uris":{"android":"levelo://app?vid=cd02c080-8936-4e2b-af4d-301cbe8eb8f1","ios":"levelo://app?vid=cd02c080-8936-4e2b-af4d-301cbe8eb8f1"},"vehicle_type_id":"4","last_reported":1758092952,"current_range_meters":7200,"station_id":"","pricing_plan_id":"cebpf4jnsgd1na2vs0mg"},{"bike_id":"6d892835-b901-47f3-a550-eda96efeb875","system_id":"levelo_inurba_marseille","lat":43.27429,"lon":5.39404,"is_reserved":false,"is_disabled":false,"rental_uris":{"android":"levelo://app?vid=6d892835-b901-47f3-a550-eda96efeb875","ios":"levelo://app?vid=6d892835-b901-47f3-a550-eda96efeb875"},"vehicle_type_id":"4","last_reported":1758092952,"current_range_meters":6800,"station_id":"ce4bhdp2rcd13ifvqf20","pricing_plan_id":"cebpf4jnsgd1na2vs0mg"},{"bike_id":"9836fce9-41d6-4846-b3ab-8de2d6648cb4","system_id":"levelo_inurba_marseille","lat":43.33774,"lon":5.37477,"is_reserved":false,"is_disabled":false,"rental_uris":{"android":"levelo://app?vid=9836fce9-41d6-4846-b3ab-8de2d6648cb4","ios":"levelo://app?vid=9836fce9-41d6-4846-b3ab-8de2d6648cb4"},"vehicle_type_id":"4","last_reported":1758092952,"current_range_meters":7200,"station_id":"","pricing_plan_id":"cebpf4jnsgd1na2vs0mg"},{"bike_id":"bd33906d-dacd-4689-b2c3-d7fc3419d5b7","system_id":"levelo_inurba_marseille","lat":43.33756,"lon":5.37485,"is_reserved":false,"is_disabled":false,"rental_uris":{"android":"levelo://app?vid=bd33906d-dacd-4689-b2c3-d7fc3419d5b7","ios":"levelo://app?vid=bd33906d-dacd-4689-b2c3-d7fc3419d5b7"},"vehicle_type_id":"4","last_reported":1758092952,"current_range_meters":7200,"station_id":"","pricing_plan_id":"cebpf4jnsgd1na2vs0mg"},{"bike_id":"96cefa7e-2a58-45c3-a569-34a8f3629072","system_id":"levelo_inurba_marseille","lat":43.2593,"lon":5.40911,"is_reserved":false,"is_disabled":false,"rental_uris":{"android":"levelo://app?vid=96cefa7e-2a58-45c3-a569-34a8f3629072","ios":"levelo://app?vid=96cefa7e-2a58-45c3-a569-34a8f3629072"},"vehicle_type_id":"4","last_reported":1758092952,"current_range_meters":7200,"station_id":"ce4bhm92rcd13ifvqglg","pricing_plan_id":"cebpf4jnsgd1na2vs0mg"},{"bike_id":"77246e06-46b3-406d-9b69-b9b3e2cbdee1","system_id":"levelo_inurba_marseille","lat":43.280648,"lon":5.386279,"is_reserved":false,"is_disabled":false,"rental_uris":{"android":"levelo://app?vid=77246e06-46b3-406d-9b69-b9b3e2cbdee1","ios":"levelo://app?vid=77246e06-46b3-406d-9b69-b9b3e2cbdee1"},"vehicle_type_id":"4","last_reported":1758092952,"current_range_meters":7200,"station_id":"","pricing_plan_id":"cebpf4jnsgd1na2vs0mg"},{"bike_id":"bc6a585d-bf53-46f8-959e-ccf03153fdf5","system_id":"levelo_inurba_marseille","lat":43.25572,"lon":5.3823,"is_reserved":false,"is_disabled":false,"rental_uris":{"android":"levelo://app?vid=bc6a585d-bf53-46f8-959e-ccf03153fdf5","ios":"levelo://app?vid=bc6a585d-bf53-46f8-959e-ccf03153fdf5"},"vehicle_type_id":"4","last_reported":1758092952,"current_range_meters":8000,"station_id":"ce4bhih2rcd13ifvqfs0","pricing_plan_id":"cebpf4jnsgd1na2vs0mg"},{"bike_id":"540452b2-4815-4a01-9a8e-82db5e188e7b","system_id":"levelo_inurba_marseille","lat":43.32538,"lon":5.41454,"is_reserved":false,"is_disabled":false,"rental_uris":{"android":"levelo://app?vid=540452b2-4815-4a01-9a8e-82db5e188e7b","ios":"levelo://app?vid=540452b2-4815-4a01-9a8e-82db5e188e7b"},"vehicle_type_id":"4","last_reported":1758092952,"current_range_meters":8000,"station_id":"ce4bhq12rcd13ifvqhhg","pricing_plan_id":"cebpf4jnsgd1na2vs0mg"},{"bike_id":"e824d254-16a6-4ae4-983a-05af083f4c81","system_id":"levelo_inurba_marseille","lat":43.21753,"lon":5.34607,"is_reserved":false,"is_disabled":false,"rental_uris":{"android":"levelo://app?vid=e824d254-16a6-4ae4-983a-05af083f4c81","ios":"levelo://app?vid=e824d254-16a6-4ae4-983a-05af083f4c81"},"vehicle_type_id":"4","last_reported":1758092952,"current_range_meters":8000,"station_id":"","pricing_plan_id":"cebpf4jnsgd1na2vs0mg"},{"bike_id":"9c7f5891-1870-4853-9044-65d0d5e463c5","system_id":"levelo_inurba_marseille","lat":43.293622,"lon":5.378313,"is_reserved":false,"is_disabled":false,"rental_uris":{"android":"levelo://app?vid=9c7f5891-1870-4853-9044-65d0d5e463c5","ios":"levelo://app?vid=9c7f5891-1870-4853-9044-65d0d5e463c5"},"vehicle_type_id":"4","last_reported":1758092952,"current_range_meters":8000,"station_id":"ce4bgjh2rcd13ifvqbf0","pricing_plan_id":"cebpf4jnsgd1na2vs0mg"},{"bike_id":"b218ccbc-31da-4f7d-8d8d-e7b5a1342c3b","system_id":"levelo_inurba_marseille","lat":43.27494,"lon":5.42452,"is_reserved":false,"is_disabled":false,"rental_uris":{"android":"levelo://app?vid=b218ccbc-31da-4f7d-8d8d-e7b5a1342c3b","ios":"levelo://app?vid=b218ccbc-31da-4f7d-8d8d-e7b5a1342c3b"},"vehicle_type_id":"4","last_reported":1758092952,"current_range_meters":8000,"station_id":"ce4bhn92rcd13ifvqgrg","pricing_plan_id":"cebpf4jnsgd1na2vs0mg"},{"bike_id":"64b1deee-ef02-45e9-a66a-3e5e20b8d612","system_id":"levelo_inurba_marseille","lat":43.299284,"lon":5.385203,"is_reserved":false,"is_disabled":false,"rental_uris":{"android":"levelo://app?vid=64b1deee-ef02-45e9-a66a-3e5e20b8d612","ios":"levelo://app?vid=64b1deee-ef02-45e9-a66a-3e5e20b8d612"},"vehicle_type_id":"4","last_reported":1758092952,"current_range_meters":8000,"station_id":"ce4bgop2rcd13ifvqc1g","pricing_plan_id":"cebpf4jnsgd1na2vs0mg"},{"bike_id":"a9f13996-cedb-42ef-8189-8cba3aa4b434","system_id":"levelo_inurba_marseille","lat":43.211915,"lon":5.350676,"is_reserved":false,"is_disabled":false,"rental_uris":{"android":"levelo://app?vid=a9f13996-cedb-42ef-8189-8cba3aa4b434","ios":"levelo://app?vid=a9f13996-cedb-42ef-8189-8cba3aa4b434"},"vehicle_type_id":"4","last_reported":1758092952,"current_range_meters":8000,"station_id":"st_cvj6sg6p6f1abm77japg","pricing_plan_id":"cebpf4jnsgd1na2vs0mg"},{"bike_id":"7facc087-8756-4e3d-afaf-f27f978d3b84","system_id":"levelo_inurba_marseille","lat":43.33764,"lon":5.37487,"is_reserved":false,"is_disabled":false,"rental_uris":{"android":"levelo://app?vid=7facc087-8756-4e3d-afaf-f27f978d3b84","ios":"levelo://app?vid=7facc087-8756-4e3d-afaf-f27f978d3b84"},"vehicle_type_id":"4","last_reported":1758092952,"current_range_meters":8000,"station_id":"","pricing_plan_id":"cebpf4jnsgd1na2vs0mg"},{"bike_id":"47eb1175-c054-422b-aa05-e7d152c094e2","system_id":"levelo_inurba_marseille","lat":43.30541,"lon":5.36712,"is_reserved":false,"is_disabled":false,"rental_uris":{"android":"levelo://app?vid=47eb1175-c054-422b-aa05-e7d152c094e2","ios":"levelo://app?vid=47eb1175-c054-422b-aa05-e7d152c094e2"},"vehicle_type_id":"4","last_reported":1758092952,"current_range_meters":8000,"station_id":"ce4bgrp2rcd13ifvqc9g","pricing_plan_id":"cebpf4jnsgd1na2vs0mg"},{"bike_id":"0700ab09-8da4-44a4-b79c-a6d0ff044f8a","system_id":"levelo_inurba_marseille","lat":43.30542,"lon":5.36628,"is_reserved":false,"is_disabled":false,"rental_uris":{"android":"levelo://app?vid=0700ab09-8da4-44a4-b79c-a6d0ff044f8a","ios":"levelo://app?vid=0700ab09-8da4-44a4-b79c-a6d0ff044f8a"},"vehicle_type_id":"4","last_reported":1758092952,"current_range_meters":8000,"station_id":"","pricing_plan_id":"cebpf4jnsgd1na2vs0mg"},{"bike_id":"ed2c6ad9-6403-4a50-84e8-60b97f07ea33","system_id":"levelo_inurba_marseille","lat":43.2592,"lon":5.40893,"is_reserved":false,"is_disabled":false,"rental_uris":{"android":"levelo://app?vid=ed2c6ad9-6403-4a50-84e8-60b97f07ea33","ios":"levelo://app?vid=ed2c6ad9-6403-4a50-84e8-60b97f07ea33"},"vehicle_type_id":"4","last_reported":1758092952,"current_range_meters":8000,"station_id":"ce4bhm92rcd13ifvqglg","pricing_plan_id":"cebpf4jnsgd1na2vs0mg"},{"bike_id":"cea0a1e2-df7e-4cb1-be5d-ab30e9212317","system_id":"levelo_inurba_marseille","lat":43.21758,"lon":5.34626,"is_reserved":false,"is_disabled":false,"rental_uris":{"android":"levelo://app?vid=cea0a1e2-df7e-4cb1-be5d-ab30e9212317","ios":"levelo://app?vid=cea0a1e2-df7e-4cb1-be5d-ab30e9212317"},"vehicle_type_id":"4","last_reported":1758092952,"current_range_meters":8400,"station_id":"","pricing_plan_id":"cebpf4jnsgd1na2vs0mg"},{"bike_id":"a7293fcc-5567-4772-a6ed-5420145b5589","system_id":"levelo_inurba_marseille","lat":43.31713,"lon":5.40457,"is_reserved":false,"is_disabled":false,"rental_uris":{"android":"levelo://app?vid=a7293fcc-5567-4772-a6ed-5420145b5589","ios":"levelo://app?vid=a7293fcc-5567-4772-a6ed-5420145b5589"},"vehicle_type_id":"4","last_reported":1758092952,"current_range_meters":8400,"station_id":"ce4bh012rcd13ifvqd00","pricing_plan_id":"cebpf4jnsgd1na2vs0mg"},{"bike_id":"28db07ae-e3f8-4e95-9e3a-0569a1c86e57","system_id":"levelo_inurba_marseille","lat":43.29572,"lon":5.37521,"is_reserved":false,"is_disabled":false,"rental_uris":{"android":"levelo://app?vid=28db07ae-e3f8-4e95-9e3a-0569a1c86e57","ios":"levelo://app?vid=28db07ae-e3f8-4e95-9e3a-0569a1c86e57"},"vehicle_type_id":"4","last_reported":1758092952,"current_range_meters":8400,"station_id":"","pricing_plan_id":"cebpf4jnsgd1na2vs0mg"},{"bike_id":"dfcdb1b8-8c8d-43ab-b9eb-acd80b744194","system_id":"levelo_inurba_marseille","lat":43.29844,"lon":5.36278,"is_reserved":false,"is_disabled":false,"rental_uris":{"android":"levelo://app?vid=dfcdb1b8-8c8d-43ab-b9eb-acd80b744194","ios":"levelo://app?vid=dfcdb1b8-8c8d-43ab-b9eb-acd80b744194"},"vehicle_type_id":"4","last_reported":1758092952,"current_range_meters":8400,"station_id":"ce4bgpp2rcd13ifvqc3g","pricing_plan_id":"cebpf4jnsgd1na2vs0mg"},{"bike_id":"88ebd356-8e05-4d50-8a10-2b04439f63ae","system_id":"levelo_inurba_marseille","lat":43.3046,"lon":5.3791,"is_reserved":false,"is_disabled":false,"rental_uris":{"android":"levelo://app?vid=88ebd356-8e05-4d50-8a10-2b04439f63ae","ios":"levelo://app?vid=88ebd356-8e05-4d50-8a10-2b04439f63ae"},"vehicle_type_id":"4","last_reported":1758092952,"current_range_meters":8000,"station_id":"ce4bgup2rcd13ifvqcn0","pricing_plan_id":"cebpf4jnsgd1na2vs0mg"},{"bike_id":"f7825ce6-de89-45bf-831f-3599d0d91c3c","system_id":"levelo_inurba_marseille","lat":43.31046,"lon":5.40107,"is_reserved":false,"is_disabled":true,"rental_uris":{"android":"levelo://app?vid=f7825ce6-de89-45bf-831f-3599d0d91c3c","ios":"levelo://app?vid=f7825ce6-de89-45bf-831f-3599d0d91c3c"},"vehicle_type_id":"4","last_reported":1758092952,"current_range_meters":8400,"station_id":"","pricing_plan_id":"cebpf4jnsgd1na2vs0mg"},{"bike_id":"fb4b49d9-e3f1-4ed9-9967-a278a0d75d78","system_id":"levelo_inurba_marseille","lat":43.30956,"lon":5.39046,"is_reserved":false,"is_disabled":false,"rental_uris":{"android":"levelo://app?vid=fb4b49d9-e3f1-4ed9-9967-a278a0d75d78","ios":"levelo://app?vid=fb4b49d9-e3f1-4ed9-9967-a278a0d75d78"},"vehicle_type_id":"4","last_reported":1758092952,"current_range_meters":8400,"station_id":"ce4bgup2rcd13ifvqco0","pricing_plan_id":"cebpf4jnsgd1na2vs0mg"},{"bike_id":"ef8adabd-0c74-40c5-87e9-519f3f8f157e","system_id":"levelo_inurba_marseille","lat":43.305463,"lon":5.365516,"is_reserved":false,"is_disabled":false,"rental_uris":{"android":"levelo://app?vid=ef8adabd-0c74-40c5-87e9-519f3f8f157e","ios":"levelo://app?vid=ef8adabd-0c74-40c5-87e9-519f3f8f157e"},"vehicle_type_id":"4","last_reported":1758092952,"current_range_meters":8400,"station_id":"ce4bgs12rcd13ifvqcag","pricing_plan_id":"cebpf4jnsgd1na2vs0mg"},{"bike_id":"80c12a92-87a2-45c1-883a-e3285a6767ff","system_id":"levelo_inurba_marseille","lat":43.29032,"lon":5.37555,"is_reserved":false,"is_disabled":false,"rental_uris":{"android":"levelo://app?vid=80c12a92-87a2-45c1-883a-e3285a6767ff","ios":"levelo://app?vid=80c12a92-87a2-45c1-883a-e3285a6767ff"},"vehicle_type_id":"4","last_reported":1758092952,"current_range_meters":8800,"station_id":"ce4bh692rcd13ifvqe90","pricing_plan_id":"cebpf4jnsgd1na2vs0mg"},{"bike_id":"da136303-8f9b-41b0-b322-bd30d90e9294","system_id":"levelo_inurba_marseille","lat":43.25003,"lon":5.38925,"is_reserved":false,"is_disabled":false,"rental_uris":{"android":"levelo://app?vid=da136303-8f9b-41b0-b322-bd30d90e9294","ios":"levelo://app?vid=da136303-8f9b-41b0-b322-bd30d90e9294"},"vehicle_type_id":"4","last_reported":1758092952,"current_range_meters":8800,"station_id":"ce4bhgp2rcd13ifvqfd0","pricing_plan_id":"cebpf4jnsgd1na2vs0mg"},{"bike_id":"22e6be6f-4792-4ad9-b244-00c3de69615c","system_id":"levelo_inurba_marseille","lat":43.25503,"lon":5.37647,"is_reserved":false,"is_disabled":false,"rental_uris":{"android":"levelo://app?vid=22e6be6f-4792-4ad9-b244-00c3de69615c","ios":"levelo://app?vid=22e6be6f-4792-4ad9-b244-00c3de69615c"},"vehicle_type_id":"4","last_reported":1758092952,"current_range_meters":8800,"station_id":"ce4bhh12rcd13ifvqff0","pricing_plan_id":"cebpf4jnsgd1na2vs0mg"},{"bike_id":"92ae73a0-e262-4a2c-8e13-78f2dc94153f","system_id":"levelo_inurba_marseille","lat":43.30313,"lon":5.36913,"is_reserved":false,"is_disabled":false,"rental_uris":{"android":"levelo://app?vid=92ae73a0-e262-4a2c-8e13-78f2dc94153f","ios":"levelo://app?vid=92ae73a0-e262-4a2c-8e13-78f2dc94153f"},"vehicle_type_id":"4","last_reported":1758092952,"current_range_meters":8800,"station_id":"ce4bgqh2rcd13ifvqc5g","pricing_plan_id":"cebpf4jnsgd1na2vs0mg"},{"bike_id":"4d76a76c-3614-4ba8-8026-bfe9a2f6f898","system_id":"levelo_inurba_marseille","lat":43.27679,"lon":5.38895,"is_reserved":false,"is_disabled":false,"rental_uris":{"android":"levelo://app?vid=4d76a76c-3614-4ba8-8026-bfe9a2f6f898","ios":"levelo://app?vid=4d76a76c-3614-4ba8-8026-bfe9a2f6f898"},"vehicle_type_id":"4","last_reported":1758092952,"current_range_meters":9200,"station_id":"ce4bhi12rcd13ifvqfo0","pricing_plan_id":"cebpf4jnsgd1na2vs0mg"},{"bike_id":"1b6a995d-34ac-45d5-9528-44d2f8bbd183","system_id":"levelo_inurba_marseille","lat":43.28508,"lon":5.35855,"is_reserved":false,"is_disabled":false,"rental_uris":{"android":"levelo://app?vid=1b6a995d-34ac-45d5-9528-44d2f8bbd183","ios":"levelo://app?vid=1b6a995d-34ac-45d5-9528-44d2f8bbd183"},"vehicle_type_id":"4","last_reported":1758092952,"current_range_meters":9200,"station_id":"","pricing_plan_id":"cebpf4jnsgd1na2vs0mg"},{"bike_id":"7c85d99d-9d15-4e39-bcb4-b5eebb32d425","system_id":"levelo_inurba_marseille","lat":43.25932,"lon":5.40929,"is_reserved":false,"is_disabled":false,"rental_uris":{"android":"levelo://app?vid=7c85d99d-9d15-4e39-bcb4-b5eebb32d425","ios":"levelo://app?vid=7c85d99d-9d15-4e39-bcb4-b5eebb32d425"},"vehicle_type_id":"4","last_reported":1758092952,"current_range_meters":9200,"station_id":"ce4bhm92rcd13ifvqglg","pricing_plan_id":"cebpf4jnsgd1na2vs0mg"},{"bike_id":"3f31a35f-aac4-41ef-9e0e-acd3c3fdd234","system_id":"levelo_inurba_marseille","lat":43.28699,"lon":5.38802,"is_reserved":false,"is_disabled":false,"rental_uris":{"android":"levelo://app?vid=3f31a35f-aac4-41ef-9e0e-acd3c3fdd234","ios":"levelo://app?vid=3f31a35f-aac4-41ef-9e0e-acd3c3fdd234"},"vehicle_type_id":"4","last_reported":1758092952,"current_range_meters":9200,"station_id":"","pricing_plan_id":"cebpf4jnsgd1na2vs0mg"},{"bike_id":"15bce6cf-7898-43f9-a31c-e32126d8f8a1","system_id":"levelo_inurba_marseille","lat":43.25126,"lon":5.4246,"is_reserved":false,"is_disabled":false,"rental_uris":{"android":"levelo://app?vid=15bce6cf-7898-43f9-a31c-e32126d8f8a1","ios":"levelo://app?vid=15bce6cf-7898-43f9-a31c-e32126d8f8a1"},"vehicle_type_id":"4","last_reported":1758092952,"current_range_meters":9200,"station_id":"","pricing_plan_id":"cebpf4jnsgd1na2vs0mg"},{"bike_id":"4f8e8e93-35f1-48b3-95e4-10fba79de0e1","system_id":"levelo_inurba_marseille","lat":43.32359,"lon":5.36712,"is_reserved":false,"is_disabled":false,"rental_uris":{"android":"levelo://app?vid=4f8e8e93-35f1-48b3-95e4-10fba79de0e1","ios":"levelo://app?vid=4f8e8e93-35f1-48b3-95e4-10fba79de0e1"},"vehicle_type_id":"4","last_reported":1758092952,"current_range_meters":9200,"station_id":"ce4bhsh2rcd13ifvqi2g","pricing_plan_id":"cebpf4jnsgd1na2vs0mg"},{"bike_id":"9a2b6e19-f016-4183-b94e-b316620f557e","system_id":"levelo_inurba_marseille","lat":43.30966,"lon":5.39044,"is_reserved":false,"is_disabled":false,"rental_uris":{"android":"levelo://app?vid=9a2b6e19-f016-4183-b94e-b316620f557e","ios":"levelo://app?vid=9a2b6e19-f016-4183-b94e-b316620f557e"},"vehicle_type_id":"4","last_reported":1758092952,"current_range_meters":9200,"station_id":"ce4bgup2rcd13ifvqco0","pricing_plan_id":"cebpf4jnsgd1na2vs0mg"},{"bike_id":"4d1bfb7b-323f-4dc2-83ee-55f40b5c20ef","system_id":"levelo_inurba_marseille","lat":43.25813,"lon":5.39429,"is_reserved":false,"is_disabled":false,"rental_uris":{"android":"levelo://app?vid=4d1bfb7b-323f-4dc2-83ee-55f40b5c20ef","ios":"levelo://app?vid=4d1bfb7b-323f-4dc2-83ee-55f40b5c20ef"},"vehicle_type_id":"4","last_reported":1758092952,"current_range_meters":9600,"station_id":"ce4bhip2rcd13ifvqft0","pricing_plan_id":"cebpf4jnsgd1na2vs0mg"},{"bike_id":"da019c1e-d059-4f2b-8001-4f0c759ea041","system_id":"levelo_inurba_marseille","lat":43.33714,"lon":5.39186,"is_reserved":false,"is_disabled":false,"rental_uris":{"android":"levelo://app?vid=da019c1e-d059-4f2b-8001-4f0c759ea041","ios":"levelo://app?vid=da019c1e-d059-4f2b-8001-4f0c759ea041"},"vehicle_type_id":"4","last_reported":1758092952,"current_range_meters":6400,"station_id":"ce4bhr92rcd13ifvqhsg","pricing_plan_id":"cebpf4jnsgd1na2vs0mg"},{"bike_id":"336c74d9-d9c9-46d7-a94b-134b36ad023a","system_id":"levelo_inurba_marseille","lat":43.29856,"lon":5.37846,"is_reserved":false,"is_disabled":false,"rental_uris":{"android":"levelo://app?vid=336c74d9-d9c9-46d7-a94b-134b36ad023a","ios":"levelo://app?vid=336c74d9-d9c9-46d7-a94b-134b36ad023a"},"vehicle_type_id":"4","last_reported":1758092952,"current_range_meters":9600,"station_id":"","pricing_plan_id":"cebpf4jnsgd1na2vs0mg"},{"bike_id":"3b26aa0d-3679-4b4c-9b55-1096f6d08a9d","system_id":"levelo_inurba_marseille","lat":43.31292,"lon":5.39388,"is_reserved":false,"is_disabled":false,"rental_uris":{"android":"levelo://app?vid=3b26aa0d-3679-4b4c-9b55-1096f6d08a9d","ios":"levelo://app?vid=3b26aa0d-3679-4b4c-9b55-1096f6d08a9d"},"vehicle_type_id":"4","last_reported":1758092952,"current_range_meters":9600,"station_id":"","pricing_plan_id":"cebpf4jnsgd1na2vs0mg"},{"bike_id":"6bb856ab-aa1c-4c0d-87cd-0e3757eacae0","system_id":"levelo_inurba_marseille","lat":43.27494,"lon":5.42448,"is_reserved":false,"is_disabled":false,"rental_uris":{"android":"levelo://app?vid=6bb856ab-aa1c-4c0d-87cd-0e3757eacae0","ios":"levelo://app?vid=6bb856ab-aa1c-4c0d-87cd-0e3757eacae0"},"vehicle_type_id":"4","last_reported":1758092952,"current_range_meters":9600,"station_id":"ce4bhn92rcd13ifvqgrg","pricing_plan_id":"cebpf4jnsgd1na2vs0mg"},{"bike_id":"56a8382c-81fd-4b55-a319-db756e731611","system_id":"levelo_inurba_marseille","lat":43.33752,"lon":5.37484,"is_reserved":false,"is_disabled":false,"rental_uris":{"android":"levelo://app?vid=56a8382c-81fd-4b55-a319-db756e731611","ios":"levelo://app?vid=56a8382c-81fd-4b55-a319-db756e731611"},"vehicle_type_id":"4","last_reported":1758092952,"current_range_meters":9600,"station_id":"","pricing_plan_id":"cebpf4jnsgd1na2vs0mg"},{"bike_id":"5c0b2341-c41a-4f62-9e5f-92e6a593fad9","system_id":"levelo_inurba_marseille","lat":43.33732,"lon":5.37432,"is_reserved":false,"is_disabled":false,"rental_uris":{"android":"levelo://app?vid=5c0b2341-c41a-4f62-9e5f-92e6a593fad9","ios":"levelo://app?vid=5c0b2341-c41a-4f62-9e5f-92e6a593fad9"},"vehicle_type_id":"4","last_reported":1758092952,"current_range_meters":10000,"station_id":"","pricing_plan_id":"cebpf4jnsgd1na2vs0mg"},{"bike_id":"e025b937-5fe7-415f-ac1a-007c3e2758c0","system_id":"levelo_inurba_marseille","lat":43.259262,"lon":5.408972,"is_reserved":false,"is_disabled":false,"rental_uris":{"android":"levelo://app?vid=e025b937-5fe7-415f-ac1a-007c3e2758c0","ios":"levelo://app?vid=e025b937-5fe7-415f-ac1a-007c3e2758c0"},"vehicle_type_id":"4","last_reported":1758092952,"current_range_meters":10000,"station_id":"ce4bhm92rcd13ifvqglg","pricing_plan_id":"cebpf4jnsgd1na2vs0mg"},{"bike_id":"76e349fa-bc9b-47a4-9c39-43f8ccd1efae","system_id":"levelo_inurba_marseille","lat":43.28041,"lon":5.369452,"is_reserved":false,"is_disabled":true,"rental_uris":{"android":"levelo://app?vid=76e349fa-bc9b-47a4-9c39-43f8ccd1efae","ios":"levelo://app?vid=76e349fa-bc9b-47a4-9c39-43f8ccd1efae"},"vehicle_type_id":"4","last_reported":1758092952,"current_range_meters":10000,"station_id":"ce4bha12rcd13ifvqef0","pricing_plan_id":"cebpf4jnsgd1na2vs0mg"},{"bike_id":"a20305c3-1291-4951-91c0-102694e33104","system_id":"levelo_inurba_marseille","lat":43.258237,"lon":5.394278,"is_reserved":false,"is_disabled":false,"rental_uris":{"android":"levelo://app?vid=a20305c3-1291-4951-91c0-102694e33104","ios":"levelo://app?vid=a20305c3-1291-4951-91c0-102694e33104"},"vehicle_type_id":"4","last_reported":1758092952,"current_range_meters":10000,"station_id":"ce4bhip2rcd13ifvqft0","pricing_plan_id":"cebpf4jnsgd1na2vs0mg"},{"bike_id":"e822010d-c414-4ba7-a392-b4d94ea54198","system_id":"levelo_inurba_marseille","lat":43.34164,"lon":5.37517,"is_reserved":false,"is_disabled":false,"rental_uris":{"android":"levelo://app?vid=e822010d-c414-4ba7-a392-b4d94ea54198","ios":"levelo://app?vid=e822010d-c414-4ba7-a392-b4d94ea54198"},"vehicle_type_id":"4","last_reported":1758092952,"current_range_meters":10000,"station_id":"","pricing_plan_id":"cebpf4jnsgd1na2vs0mg"},{"bike_id":"0ede21be-37d9-4495-b672-80274a6292be","system_id":"levelo_inurba_marseille","lat":43.3505,"lon":5.3408,"is_reserved":false,"is_disabled":false,"rental_uris":{"android":"levelo://app?vid=0ede21be-37d9-4495-b672-80274a6292be","ios":"levelo://app?vid=0ede21be-37d9-4495-b672-80274a6292be"},"vehicle_type_id":"4","last_reported":1758092952,"current_range_meters":10000,"station_id":"","pricing_plan_id":"cebpf4jnsgd1na2vs0mg"},{"bike_id":"99b1f494-78e2-48ab-b861-45d187280170","system_id":"levelo_inurba_marseille","lat":43.23192,"lon":5.40017,"is_reserved":false,"is_disabled":false,"rental_uris":{"android":"levelo://app?vid=99b1f494-78e2-48ab-b861-45d187280170","ios":"levelo://app?vid=99b1f494-78e2-48ab-b861-45d187280170"},"vehicle_type_id":"4","last_reported":1758092952,"current_range_meters":10800,"station_id":"ce4bhn12rcd13ifvqgqg","pricing_plan_id":"cebpf4jnsgd1na2vs0mg"},{"bike_id":"7380e5bc-4b2d-47e1-a71c-73d90eef5c48","system_id":"levelo_inurba_marseille","lat":43.24073,"lon":5.37763,"is_reserved":false,"is_disabled":false,"rental_uris":{"android":"levelo://app?vid=7380e5bc-4b2d-47e1-a71c-73d90eef5c48","ios":"levelo://app?vid=7380e5bc-4b2d-47e1-a71c-73d90eef5c48"},"vehicle_type_id":"4","last_reported":1758092952,"current_range_meters":10800,"station_id":"ce4bhnp2rcd13ifvqgvg","pricing_plan_id":"cebpf4jnsgd1na2vs0mg"},{"bike_id":"ece07351-e21d-4c48-bd8e-d6076d0d6379","system_id":"levelo_inurba_marseille","lat":43.28468,"lon":5.37509,"is_reserved":false,"is_disabled":false,"rental_uris":{"android":"levelo://app?vid=ece07351-e21d-4c48-bd8e-d6076d0d6379","ios":"levelo://app?vid=ece07351-e21d-4c48-bd8e-d6076d0d6379"},"vehicle_type_id":"4","last_reported":1758092952,"current_range_meters":10800,"station_id":"","pricing_plan_id":"cebpf4jnsgd1na2vs0mg"},{"bike_id":"9f859201-6476-49ac-9fa6-03c95af599bb","system_id":"levelo_inurba_marseille","lat":43.30468,"lon":5.37919,"is_reserved":false,"is_disabled":false,"rental_uris":{"android":"levelo://app?vid=9f859201-6476-49ac-9fa6-03c95af599bb","ios":"levelo://app?vid=9f859201-6476-49ac-9fa6-03c95af599bb"},"vehicle_type_id":"4","last_reported":1758092952,"current_range_meters":10800,"station_id":"ce4bgup2rcd13ifvqcn0","pricing_plan_id":"cebpf4jnsgd1na2vs0mg"},{"bike_id":"2bf1de04-a2ff-4cf6-a383-1804458c43b9","system_id":"levelo_inurba_marseille","lat":43.25578,"lon":5.38267,"is_reserved":false,"is_disabled":false,"rental_uris":{"android":"levelo://app?vid=2bf1de04-a2ff-4cf6-a383-1804458c43b9","ios":"levelo://app?vid=2bf1de04-a2ff-4cf6-a383-1804458c43b9"},"vehicle_type_id":"4","last_reported":1758092952,"current_range_meters":10800,"station_id":"ce4bhih2rcd13ifvqfs0","pricing_plan_id":"cebpf4jnsgd1na2vs0mg"},{"bike_id":"ef8c7c17-e5dc-43c9-a147-f61011f8efdb","system_id":"levelo_inurba_marseille","lat":43.31481,"lon":5.37279,"is_reserved":false,"is_disabled":false,"rental_uris":{"android":"levelo://app?vid=ef8c7c17-e5dc-43c9-a147-f61011f8efdb","ios":"levelo://app?vid=ef8c7c17-e5dc-43c9-a147-f61011f8efdb"},"vehicle_type_id":"4","last_reported":1758092952,"current_range_meters":10800,"station_id":"ce4bgt12rcd13ifvqcd0","pricing_plan_id":"cebpf4jnsgd1na2vs0mg"},{"bike_id":"acdab5f5-f756-42bb-bc5e-83348a3bf8f5","system_id":"levelo_inurba_marseille","lat":43.25824,"lon":5.39406,"is_reserved":false,"is_disabled":false,"rental_uris":{"android":"levelo://app?vid=acdab5f5-f756-42bb-bc5e-83348a3bf8f5","ios":"levelo://app?vid=acdab5f5-f756-42bb-bc5e-83348a3bf8f5"},"vehicle_type_id":"4","last_reported":1758092952,"current_range_meters":6000,"station_id":"ce4bhip2rcd13ifvqft0","pricing_plan_id":"cebpf4jnsgd1na2vs0mg"},{"bike_id":"3d849886-9653-4462-8a60-d8e524c29d03","system_id":"levelo_inurba_marseille","lat":43.295807,"lon":5.38562,"is_reserved":false,"is_disabled":false,"rental_uris":{"android":"levelo://app?vid=3d849886-9653-4462-8a60-d8e524c29d03","ios":"levelo://app?vid=3d849886-9653-4462-8a60-d8e524c29d03"},"vehicle_type_id":"4","last_reported":1758092952,"current_range_meters":10800,"station_id":"ce4bgih2rcd13ifvqba0","pricing_plan_id":"cebpf4jnsgd1na2vs0mg"},{"bike_id":"0e7f7e2e-fba0-497e-bca2-12fa80a7500f","system_id":"levelo_inurba_marseille","lat":43.30135,"lon":5.39848,"is_reserved":false,"is_disabled":false,"rental_uris":{"android":"levelo://app?vid=0e7f7e2e-fba0-497e-bca2-12fa80a7500f","ios":"levelo://app?vid=0e7f7e2e-fba0-497e-bca2-12fa80a7500f"},"vehicle_type_id":"4","last_reported":1758092952,"current_range_meters":10800,"station_id":"ce4bh0h2rcd13ifvqd40","pricing_plan_id":"cebpf4jnsgd1na2vs0mg"},{"bike_id":"4c0dd611-6f32-4401-8354-46310a770946","system_id":"levelo_inurba_marseille","lat":43.23147,"lon":5.43724,"is_reserved":false,"is_disabled":false,"rental_uris":{"android":"levelo://app?vid=4c0dd611-6f32-4401-8354-46310a770946","ios":"levelo://app?vid=4c0dd611-6f32-4401-8354-46310a770946"},"vehicle_type_id":"4","last_reported":1758092952,"current_range_meters":10800,"station_id":"ce4bhmp2rcd13ifvqgog","pricing_plan_id":"cebpf4jnsgd1na2vs0mg"},{"bike_id":"c8298fe6-8a38-4cbe-8fc1-5b4bd0e2bb06","system_id":"levelo_inurba_marseille","lat":43.22938,"lon":5.35366,"is_reserved":false,"is_disabled":false,"rental_uris":{"android":"levelo://app?vid=c8298fe6-8a38-4cbe-8fc1-5b4bd0e2bb06","ios":"levelo://app?vid=c8298fe6-8a38-4cbe-8fc1-5b4bd0e2bb06"},"vehicle_type_id":"4","last_reported":1758092952,"current_range_meters":10800,"station_id":"cpo3532slgdg3j2ikp40","pricing_plan_id":"cebpf4jnsgd1na2vs0mg"},{"bike_id":"31f511c7-5088-4534-9bd5-9cce0442d874","system_id":"levelo_inurba_marseille","lat":43.25338,"lon":5.4217,"is_reserved":false,"is_disabled":false,"rental_uris":{"android":"levelo://app?vid=31f511c7-5088-4534-9bd5-9cce0442d874","ios":"levelo://app?vid=31f511c7-5088-4534-9bd5-9cce0442d874"},"vehicle_type_id":"4","last_reported":1758092952,"current_range_meters":10800,"station_id":"st_d2m65c5bi1j21697t3ng","pricing_plan_id":"cebpf4jnsgd1na2vs0mg"},{"bike_id":"a4d505d7-466d-4a9b-90b0-3945ee5e3670","system_id":"levelo_inurba_marseille","lat":43.24379,"lon":5.37054,"is_reserved":false,"is_disabled":false,"rental_uris":{"android":"levelo://app?vid=a4d505d7-466d-4a9b-90b0-3945ee5e3670","ios":"levelo://app?vid=a4d505d7-466d-4a9b-90b0-3945ee5e3670"},"vehicle_type_id":"4","last_reported":1758092952,"current_range_meters":10800,"station_id":"ce4bhhh2rcd13ifvqfk0","pricing_plan_id":"cebpf4jnsgd1na2vs0mg"},{"bike_id":"179ea1e0-dc0a-4bec-a263-9c50f967b367","system_id":"levelo_inurba_marseille","lat":43.30463,"lon":5.37905,"is_reserved":false,"is_disabled":false,"rental_uris":{"android":"levelo://app?vid=179ea1e0-dc0a-4bec-a263-9c50f967b367","ios":"levelo://app?vid=179ea1e0-dc0a-4bec-a263-9c50f967b367"},"vehicle_type_id":"4","last_reported":1758092952,"current_range_meters":10800,"station_id":"ce4bgup2rcd13ifvqcn0","pricing_plan_id":"cebpf4jnsgd1na2vs0mg"},{"bike_id":"33402864-f5e0-47e4-8687-c925adfc3d24","system_id":"levelo_inurba_marseille","lat":43.24168,"lon":5.36416,"is_reserved":false,"is_disabled":false,"rental_uris":{"android":"levelo://app?vid=33402864-f5e0-47e4-8687-c925adfc3d24","ios":"levelo://app?vid=33402864-f5e0-47e4-8687-c925adfc3d24"},"vehicle_type_id":"4","last_reported":1758092952,"current_range_meters":10800,"station_id":"cpo36qri1sfpv3e86is0","pricing_plan_id":"cebpf4jnsgd1na2vs0mg"},{"bike_id":"6f3e1b0b-8bcb-49e4-a386-3d051d62764b","system_id":"levelo_inurba_marseille","lat":43.31487,"lon":5.39072,"is_reserved":false,"is_disabled":false,"rental_uris":{"android":"levelo://app?vid=6f3e1b0b-8bcb-49e4-a386-3d051d62764b","ios":"levelo://app?vid=6f3e1b0b-8bcb-49e4-a386-3d051d62764b"},"vehicle_type_id":"4","last_reported":1758092952,"current_range_meters":11200,"station_id":"","pricing_plan_id":"cebpf4jnsgd1na2vs0mg"},{"bike_id":"8bdcf5c6-d02b-4dfd-97c5-28911b52e63e","system_id":"levelo_inurba_marseille","lat":43.309649,"lon":5.402302,"is_reserved":false,"is_disabled":false,"rental_uris":{"android":"levelo://app?vid=8bdcf5c6-d02b-4dfd-97c5-28911b52e63e","ios":"levelo://app?vid=8bdcf5c6-d02b-4dfd-97c5-28911b52e63e"},"vehicle_type_id":"4","last_reported":1758092952,"current_range_meters":11200,"station_id":"ce4bgvp2rcd13ifvqct0","pricing_plan_id":"cebpf4jnsgd1na2vs0mg"},{"bike_id":"a7ac7e12-446e-489f-8906-639c4cd34a44","system_id":"levelo_inurba_marseille","lat":43.26229,"lon":5.40453,"is_reserved":false,"is_disabled":false,"rental_uris":{"android":"levelo://app?vid=a7ac7e12-446e-489f-8906-639c4cd34a44","ios":"levelo://app?vid=a7ac7e12-446e-489f-8906-639c4cd34a44"},"vehicle_type_id":"4","last_reported":1758092952,"current_range_meters":11200,"station_id":"ce4bhmh2rcd13ifvqgmg","pricing_plan_id":"cebpf4jnsgd1na2vs0mg"},{"bike_id":"003515e8-8117-44bb-979d-5f47e8d50fda","system_id":"levelo_inurba_marseille","lat":43.30627,"lon":5.37571,"is_reserved":false,"is_disabled":false,"rental_uris":{"android":"levelo://app?vid=003515e8-8117-44bb-979d-5f47e8d50fda","ios":"levelo://app?vid=003515e8-8117-44bb-979d-5f47e8d50fda"},"vehicle_type_id":"4","last_reported":1758092952,"current_range_meters":11600,"station_id":"","pricing_plan_id":"cebpf4jnsgd1na2vs0mg"},{"bike_id":"c4527caf-4eb9-4828-928e-e789bbcce0f4","system_id":"levelo_inurba_marseille","lat":43.30787,"lon":5.43527,"is_reserved":false,"is_disabled":false,"rental_uris":{"android":"levelo://app?vid=c4527caf-4eb9-4828-928e-e789bbcce0f4","ios":"levelo://app?vid=c4527caf-4eb9-4828-928e-e789bbcce0f4"},"vehicle_type_id":"4","last_reported":1758092952,"current_range_meters":11600,"station_id":"ce4bhph2rcd13ifvqheg","pricing_plan_id":"cebpf4jnsgd1na2vs0mg"},{"bike_id":"f7e06b8b-66e7-4b3c-9d62-100b9d5282f9","system_id":"levelo_inurba_marseille","lat":43.30597,"lon":5.41245,"is_reserved":false,"is_disabled":false,"rental_uris":{"android":"levelo://app?vid=f7e06b8b-66e7-4b3c-9d62-100b9d5282f9","ios":"levelo://app?vid=f7e06b8b-66e7-4b3c-9d62-100b9d5282f9"},"vehicle_type_id":"4","last_reported":1758092952,"current_range_meters":11600,"station_id":"ce4bhop2rcd13ifvqh8g","pricing_plan_id":"cebpf4jnsgd1na2vs0mg"},{"bike_id":"d1bb9503-4674-41a6-9c74-4408c987c96f","system_id":"levelo_inurba_marseille","lat":43.29529,"lon":5.37501,"is_reserved":false,"is_disabled":false,"rental_uris":{"android":"levelo://app?vid=d1bb9503-4674-41a6-9c74-4408c987c96f","ios":"levelo://app?vid=d1bb9503-4674-41a6-9c74-4408c987c96f"},"vehicle_type_id":"4","last_reported":1758092952,"current_range_meters":11600,"station_id":"ce4bgkp2rcd13ifvqbmg","pricing_plan_id":"cebpf4jnsgd1na2vs0mg"},{"bike_id":"bc8f92ee-f201-46c2-857d-abb9962e16c2","system_id":"levelo_inurba_marseille","lat":43.26485,"lon":5.39549,"is_reserved":false,"is_disabled":false,"rental_uris":{"android":"levelo://app?vid=bc8f92ee-f201-46c2-857d-abb9962e16c2","ios":"levelo://app?vid=bc8f92ee-f201-46c2-857d-abb9962e16c2"},"vehicle_type_id":"4","last_reported":1758092952,"current_range_meters":11200,"station_id":"ce4bhi12rcd13ifvqfq0","pricing_plan_id":"cebpf4jnsgd1na2vs0mg"},{"bike_id":"92adebd1-cc81-48bf-bfbe-5139ee2e9f1a","system_id":"levelo_inurba_marseille","lat":43.32278,"lon":5.38263,"is_reserved":false,"is_disabled":false,"rental_uris":{"android":"levelo://app?vid=92adebd1-cc81-48bf-bfbe-5139ee2e9f1a","ios":"levelo://app?vid=92adebd1-cc81-48bf-bfbe-5139ee2e9f1a"},"vehicle_type_id":"4","last_reported":1758092952,"current_range_meters":12000,"station_id":"ce4bhr12rcd13ifvqhqg","pricing_plan_id":"cebpf4jnsgd1na2vs0mg"},{"bike_id":"11555ead-152a-4e2f-ac3e-7aaa852c50e5","system_id":"levelo_inurba_marseille","lat":43.225326,"lon":5.348358,"is_reserved":false,"is_disabled":false,"rental_uris":{"android":"levelo://app?vid=11555ead-152a-4e2f-ac3e-7aaa852c50e5","ios":"levelo://app?vid=11555ead-152a-4e2f-ac3e-7aaa852c50e5"},"vehicle_type_id":"4","last_reported":1758092952,"current_range_meters":12000,"station_id":"","pricing_plan_id":"cebpf4jnsgd1na2vs0mg"},{"bike_id":"8f4ad0b8-766d-4695-bb86-4d7675cfc837","system_id":"levelo_inurba_marseille","lat":43.248124,"lon":5.37476,"is_reserved":false,"is_disabled":false,"rental_uris":{"android":"levelo://app?vid=8f4ad0b8-766d-4695-bb86-4d7675cfc837","ios":"levelo://app?vid=8f4ad0b8-766d-4695-bb86-4d7675cfc837"},"vehicle_type_id":"4","last_reported":1758092952,"current_range_meters":12000,"station_id":"ce4bhgh2rcd13ifvqfb0","pricing_plan_id":"cebpf4jnsgd1na2vs0mg"},{"bike_id":"8a9af152-596b-4ea8-88ee-911ecd0114c7","system_id":"levelo_inurba_marseille","lat":43.30529,"lon":5.3673,"is_reserved":false,"is_disabled":false,"rental_uris":{"android":"levelo://app?vid=8a9af152-596b-4ea8-88ee-911ecd0114c7","ios":"levelo://app?vid=8a9af152-596b-4ea8-88ee-911ecd0114c7"},"vehicle_type_id":"4","last_reported":1758092952,"current_range_meters":12000,"station_id":"ce4bgrp2rcd13ifvqc9g","pricing_plan_id":"cebpf4jnsgd1na2vs0mg"},{"bike_id":"e6a25b15-a035-4c78-afca-9d2dc17c4a3f","system_id":"levelo_inurba_marseille","lat":43.28417,"lon":5.35006,"is_reserved":false,"is_disabled":true,"rental_uris":{"android":"levelo://app?vid=e6a25b15-a035-4c78-afca-9d2dc17c4a3f","ios":"levelo://app?vid=e6a25b15-a035-4c78-afca-9d2dc17c4a3f"},"vehicle_type_id":"4","last_reported":1758092952,"current_range_meters":12000,"station_id":"ce4bhbh2rcd13ifvqepg","pricing_plan_id":"cebpf4jnsgd1na2vs0mg"},{"bike_id":"0cfd9b7d-5934-4122-8266-f64cdccba839","system_id":"levelo_inurba_marseille","lat":43.25937,"lon":5.40895,"is_reserved":false,"is_disabled":false,"rental_uris":{"android":"levelo://app?vid=0cfd9b7d-5934-4122-8266-f64cdccba839","ios":"levelo://app?vid=0cfd9b7d-5934-4122-8266-f64cdccba839"},"vehicle_type_id":"4","last_reported":1758092952,"current_range_meters":12000,"station_id":"ce4bhm92rcd13ifvqglg","pricing_plan_id":"cebpf4jnsgd1na2vs0mg"},{"bike_id":"8616dd98-9dab-44e3-89cb-50505fa31e64","system_id":"levelo_inurba_marseille","lat":43.259333,"lon":5.409112,"is_reserved":false,"is_disabled":false,"rental_uris":{"android":"levelo://app?vid=8616dd98-9dab-44e3-89cb-50505fa31e64","ios":"levelo://app?vid=8616dd98-9dab-44e3-89cb-50505fa31e64"},"vehicle_type_id":"4","last_reported":1758092952,"current_range_meters":12000,"station_id":"ce4bhm92rcd13ifvqglg","pricing_plan_id":"cebpf4jnsgd1na2vs0mg"},{"bike_id":"530010d4-6af7-443c-9c2c-ccf5b27258fc","system_id":"levelo_inurba_marseille","lat":43.32542,"lon":5.4142,"is_reserved":false,"is_disabled":false,"rental_uris":{"android":"levelo://app?vid=530010d4-6af7-443c-9c2c-ccf5b27258fc","ios":"levelo://app?vid=530010d4-6af7-443c-9c2c-ccf5b27258fc"},"vehicle_type_id":"4","last_reported":1758092952,"current_range_meters":12000,"station_id":"ce4bhq12rcd13ifvqhhg","pricing_plan_id":"cebpf4jnsgd1na2vs0mg"},{"bike_id":"de56f0db-e2c3-4a33-bb15-3fea38ea001b","system_id":"levelo_inurba_marseille","lat":43.27485,"lon":5.42451,"is_reserved":false,"is_disabled":false,"rental_uris":{"android":"levelo://app?vid=de56f0db-e2c3-4a33-bb15-3fea38ea001b","ios":"levelo://app?vid=de56f0db-e2c3-4a33-bb15-3fea38ea001b"},"vehicle_type_id":"4","last_reported":1758092952,"current_range_meters":12000,"station_id":"ce4bhn92rcd13ifvqgrg","pricing_plan_id":"cebpf4jnsgd1na2vs0mg"},{"bike_id":"38bd8744-023c-4ba1-ab81-1e110dec4224","system_id":"levelo_inurba_marseille","lat":43.24068,"lon":5.37759,"is_reserved":false,"is_disabled":false,"rental_uris":{"android":"levelo://app?vid=38bd8744-023c-4ba1-ab81-1e110dec4224","ios":"levelo://app?vid=38bd8744-023c-4ba1-ab81-1e110dec4224"},"vehicle_type_id":"4","last_reported":1758092952,"current_range_meters":12400,"station_id":"ce4bhnp2rcd13ifvqgvg","pricing_plan_id":"cebpf4jnsgd1na2vs0mg"},{"bike_id":"ab19cdea-a92f-4e8a-805b-6945eeeab1f0","system_id":"levelo_inurba_marseille","lat":43.23153,"lon":5.43712,"is_reserved":false,"is_disabled":false,"rental_uris":{"android":"levelo://app?vid=ab19cdea-a92f-4e8a-805b-6945eeeab1f0","ios":"levelo://app?vid=ab19cdea-a92f-4e8a-805b-6945eeeab1f0"},"vehicle_type_id":"4","last_reported":1758092952,"current_range_meters":12400,"station_id":"ce4bhmp2rcd13ifvqgog","pricing_plan_id":"cebpf4jnsgd1na2vs0mg"},{"bike_id":"fcd56ccc-f0ab-49ef-a538-8c498b5ecd49","system_id":"levelo_inurba_marseille","lat":43.2256,"lon":5.41614,"is_reserved":false,"is_disabled":false,"rental_uris":{"android":"levelo://app?vid=fcd56ccc-f0ab-49ef-a538-8c498b5ecd49","ios":"levelo://app?vid=fcd56ccc-f0ab-49ef-a538-8c498b5ecd49"},"vehicle_type_id":"4","last_reported":1758092952,"current_range_meters":12400,"station_id":"st_d2o4gvlbi1j2169b742g","pricing_plan_id":"cebpf4jnsgd1na2vs0mg"},{"bike_id":"5db01ac3-5db4-44cc-b205-4f61ad8cb456","system_id":"levelo_inurba_marseille","lat":43.2419,"lon":5.36412,"is_reserved":false,"is_disabled":false,"rental_uris":{"android":"levelo://app?vid=5db01ac3-5db4-44cc-b205-4f61ad8cb456","ios":"levelo://app?vid=5db01ac3-5db4-44cc-b205-4f61ad8cb456"},"vehicle_type_id":"4","last_reported":1758092952,"current_range_meters":12400,"station_id":"cpo36qri1sfpv3e86is0","pricing_plan_id":"cebpf4jnsgd1na2vs0mg"},{"bike_id":"87ace3d4-8893-41a8-ab67-7fb63e44c036","system_id":"levelo_inurba_marseille","lat":43.32475,"lon":5.36571,"is_reserved":false,"is_disabled":false,"rental_uris":{"android":"levelo://app?vid=87ace3d4-8893-41a8-ab67-7fb63e44c036","ios":"levelo://app?vid=87ace3d4-8893-41a8-ab67-7fb63e44c036"},"vehicle_type_id":"4","last_reported":1758092952,"current_range_meters":12400,"station_id":"ce4bhs12rcd13ifvqhvg","pricing_plan_id":"cebpf4jnsgd1na2vs0mg"},{"bike_id":"6b7e857c-6b9d-4352-9992-af4324e1890c","system_id":"levelo_inurba_marseille","lat":43.29013,"lon":5.38133,"is_reserved":false,"is_disabled":true,"rental_uris":{"android":"levelo://app?vid=6b7e857c-6b9d-4352-9992-af4324e1890c","ios":"levelo://app?vid=6b7e857c-6b9d-4352-9992-af4324e1890c"},"vehicle_type_id":"4","last_reported":1758092952,"current_range_meters":12400,"station_id":"ce4bh4p2rcd13ifvqe1g","pricing_plan_id":"cebpf4jnsgd1na2vs0mg"},{"bike_id":"6852f059-1333-4c44-aa90-1e04419d407a","system_id":"levelo_inurba_marseille","lat":43.2418,"lon":5.3973,"is_reserved":false,"is_disabled":false,"rental_uris":{"android":"levelo://app?vid=6852f059-1333-4c44-aa90-1e04419d407a","ios":"levelo://app?vid=6852f059-1333-4c44-aa90-1e04419d407a"},"vehicle_type_id":"4","last_reported":1758092952,"current_range_meters":13600,"station_id":"ce4bhn12rcd13ifvqgpg","pricing_plan_id":"cebpf4jnsgd1na2vs0mg"},{"bike_id":"775af279-8ac9-4585-9121-809be9b13265","system_id":"levelo_inurba_marseille","lat":43.33739,"lon":5.37452,"is_reserved":false,"is_disabled":false,"rental_uris":{"android":"levelo://app?vid=775af279-8ac9-4585-9121-809be9b13265","ios":"levelo://app?vid=775af279-8ac9-4585-9121-809be9b13265"},"vehicle_type_id":"4","last_reported":1758092952,"current_range_meters":12800,"station_id":"","pricing_plan_id":"cebpf4jnsgd1na2vs0mg"},{"bike_id":"3584c8e9-13a3-4904-91e3-06d644403edd","system_id":"levelo_inurba_marseille","lat":43.31376,"lon":5.3672,"is_reserved":false,"is_disabled":false,"rental_uris":{"android":"levelo://app?vid=3584c8e9-13a3-4904-91e3-06d644403edd","ios":"levelo://app?vid=3584c8e9-13a3-4904-91e3-06d644403edd"},"vehicle_type_id":"4","last_reported":1758092952,"current_range_meters":12800,"station_id":"ce4bgr92rcd13ifvqc6g","pricing_plan_id":"cebpf4jnsgd1na2vs0mg"},{"bike_id":"96644ae3-2807-4f95-a981-fef4ac2b0e69","system_id":"levelo_inurba_marseille","lat":43.225329,"lon":5.34835,"is_reserved":false,"is_disabled":false,"rental_uris":{"android":"levelo://app?vid=96644ae3-2807-4f95-a981-fef4ac2b0e69","ios":"levelo://app?vid=96644ae3-2807-4f95-a981-fef4ac2b0e69"},"vehicle_type_id":"4","last_reported":1758092952,"current_range_meters":12800,"station_id":"","pricing_plan_id":"cebpf4jnsgd1na2vs0mg"},{"bike_id":"4d428ea9-1dcb-4a75-b622-5cb7b20a1dad","system_id":"levelo_inurba_marseille","lat":43.32362,"lon":5.36767,"is_reserved":false,"is_disabled":false,"rental_uris":{"android":"levelo://app?vid=4d428ea9-1dcb-4a75-b622-5cb7b20a1dad","ios":"levelo://app?vid=4d428ea9-1dcb-4a75-b622-5cb7b20a1dad"},"vehicle_type_id":"4","last_reported":1758092952,"current_range_meters":13600,"station_id":"ce4bhsh2rcd13ifvqi2g","pricing_plan_id":"cebpf4jnsgd1na2vs0mg"},{"bike_id":"ca5a1340-d41e-49f3-95f8-599734e0a36c","system_id":"levelo_inurba_marseille","lat":43.225336,"lon":5.348339,"is_reserved":false,"is_disabled":false,"rental_uris":{"android":"levelo://app?vid=ca5a1340-d41e-49f3-95f8-599734e0a36c","ios":"levelo://app?vid=ca5a1340-d41e-49f3-95f8-599734e0a36c"},"vehicle_type_id":"4","last_reported":1758092952,"current_range_meters":13600,"station_id":"","pricing_plan_id":"cebpf4jnsgd1na2vs0mg"},{"bike_id":"70fe5181-ac55-4f1c-b7c7-037225f3826e","system_id":"levelo_inurba_marseille","lat":43.31218,"lon":5.36839,"is_reserved":false,"is_disabled":false,"rental_uris":{"android":"levelo://app?vid=70fe5181-ac55-4f1c-b7c7-037225f3826e","ios":"levelo://app?vid=70fe5181-ac55-4f1c-b7c7-037225f3826e"},"vehicle_type_id":"4","last_reported":1758092952,"current_range_meters":13600,"station_id":"ce4bgl92rcd13ifvqbq0","pricing_plan_id":"cebpf4jnsgd1na2vs0mg"},{"bike_id":"8f8ffdbb-77bb-41a5-a5b4-e433ce7c2457","system_id":"levelo_inurba_marseille","lat":43.2937,"lon":5.37834,"is_reserved":false,"is_disabled":false,"rental_uris":{"android":"levelo://app?vid=8f8ffdbb-77bb-41a5-a5b4-e433ce7c2457","ios":"levelo://app?vid=8f8ffdbb-77bb-41a5-a5b4-e433ce7c2457"},"vehicle_type_id":"4","last_reported":1758092952,"current_range_meters":13600,"station_id":"ce4bgjh2rcd13ifvqbf0","pricing_plan_id":"cebpf4jnsgd1na2vs0mg"},{"bike_id":"a4c5d1da-b728-4a0a-a897-920fb50df0e1","system_id":"levelo_inurba_marseille","lat":43.21184,"lon":5.35065,"is_reserved":false,"is_disabled":false,"rental_uris":{"android":"levelo://app?vid=a4c5d1da-b728-4a0a-a897-920fb50df0e1","ios":"levelo://app?vid=a4c5d1da-b728-4a0a-a897-920fb50df0e1"},"vehicle_type_id":"4","last_reported":1758092952,"current_range_meters":13600,"station_id":"st_cvj6sg6p6f1abm77japg","pricing_plan_id":"cebpf4jnsgd1na2vs0mg"},{"bike_id":"5f893c83-8ee2-4184-876d-19ff174fdd7d","system_id":"levelo_inurba_marseille","lat":43.3028,"lon":5.37696,"is_reserved":false,"is_disabled":false,"rental_uris":{"android":"levelo://app?vid=5f893c83-8ee2-4184-876d-19ff174fdd7d","ios":"levelo://app?vid=5f893c83-8ee2-4184-876d-19ff174fdd7d"},"vehicle_type_id":"4","last_reported":1758092952,"current_range_meters":13600,"station_id":"ce4bguh2rcd13ifvqcj0","pricing_plan_id":"cebpf4jnsgd1na2vs0mg"},{"bike_id":"d6c56d44-81c5-4835-8822-b89d5c0418c3","system_id":"levelo_inurba_marseille","lat":43.27338,"lon":5.42393,"is_reserved":false,"is_disabled":false,"rental_uris":{"android":"levelo://app?vid=d6c56d44-81c5-4835-8822-b89d5c0418c3","ios":"levelo://app?vid=d6c56d44-81c5-4835-8822-b89d5c0418c3"},"vehicle_type_id":"4","last_reported":1758092952,"current_range_meters":14000,"station_id":"","pricing_plan_id":"cebpf4jnsgd1na2vs0mg"},{"bike_id":"88a4bc06-6261-4921-890d-d133aa4606a8","system_id":"levelo_inurba_marseille","lat":43.337444,"lon":5.374475,"is_reserved":false,"is_disabled":true,"rental_uris":{"android":"levelo://app?vid=88a4bc06-6261-4921-890d-d133aa4606a8","ios":"levelo://app?vid=88a4bc06-6261-4921-890d-d133aa4606a8"},"vehicle_type_id":"4","last_reported":1758092952,"current_range_meters":14000,"station_id":"","pricing_plan_id":"cebpf4jnsgd1na2vs0mg"},{"bike_id":"2a5e641a-ca90-4f3a-9350-63bb94d9cebf","system_id":"levelo_inurba_marseille","lat":43.255682,"lon":5.391854,"is_reserved":false,"is_disabled":false,"rental_uris":{"android":"levelo://app?vid=2a5e641a-ca90-4f3a-9350-63bb94d9cebf","ios":"levelo://app?vid=2a5e641a-ca90-4f3a-9350-63bb94d9cebf"},"vehicle_type_id":"4","last_reported":1758092952,"current_range_meters":14000,"station_id":"","pricing_plan_id":"cebpf4jnsgd1na2vs0mg"},{"bike_id":"4946848f-50e1-48b9-8f80-a60fa56d0806","system_id":"levelo_inurba_marseille","lat":43.23121,"lon":5.43713,"is_reserved":false,"is_disabled":false,"rental_uris":{"android":"levelo://app?vid=4946848f-50e1-48b9-8f80-a60fa56d0806","ios":"levelo://app?vid=4946848f-50e1-48b9-8f80-a60fa56d0806"},"vehicle_type_id":"4","last_reported":1758092952,"current_range_meters":14000,"station_id":"ce4bhmp2rcd13ifvqgog","pricing_plan_id":"cebpf4jnsgd1na2vs0mg"},{"bike_id":"72d4d466-a51c-432f-9e1a-bf09cc8c4445","system_id":"levelo_inurba_marseille","lat":43.33753,"lon":5.37477,"is_reserved":false,"is_disabled":false,"rental_uris":{"android":"levelo://app?vid=72d4d466-a51c-432f-9e1a-bf09cc8c4445","ios":"levelo://app?vid=72d4d466-a51c-432f-9e1a-bf09cc8c4445"},"vehicle_type_id":"4","last_reported":1758092952,"current_range_meters":14000,"station_id":"","pricing_plan_id":"cebpf4jnsgd1na2vs0mg"},{"bike_id":"22f0687d-25d3-4094-9c4a-293a61e189a6","system_id":"levelo_inurba_marseille","lat":43.2403,"lon":5.40739,"is_reserved":false,"is_disabled":false,"rental_uris":{"android":"levelo://app?vid=22f0687d-25d3-4094-9c4a-293a61e189a6","ios":"levelo://app?vid=22f0687d-25d3-4094-9c4a-293a61e189a6"},"vehicle_type_id":"4","last_reported":1758092952,"current_range_meters":14000,"station_id":"","pricing_plan_id":"cebpf4jnsgd1na2vs0mg"},{"bike_id":"f34ff082-bf2a-453c-a496-ec003aa9f501","system_id":"levelo_inurba_marseille","lat":43.33587,"lon":5.41001,"is_reserved":false,"is_disabled":false,"rental_uris":{"android":"levelo://app?vid=f34ff082-bf2a-453c-a496-ec003aa9f501","ios":"levelo://app?vid=f34ff082-bf2a-453c-a496-ec003aa9f501"},"vehicle_type_id":"4","last_reported":1758092952,"current_range_meters":14000,"station_id":"ce4bhqh2rcd13ifvqhmg","pricing_plan_id":"cebpf4jnsgd1na2vs0mg"},{"bike_id":"d77b9582-f46b-4d51-a670-28804a9a2f84","system_id":"levelo_inurba_marseille","lat":43.33589,"lon":5.41002,"is_reserved":false,"is_disabled":false,"rental_uris":{"android":"levelo://app?vid=d77b9582-f46b-4d51-a670-28804a9a2f84","ios":"levelo://app?vid=d77b9582-f46b-4d51-a670-28804a9a2f84"},"vehicle_type_id":"4","last_reported":1758092952,"current_range_meters":14000,"station_id":"ce4bhqh2rcd13ifvqhmg","pricing_plan_id":"cebpf4jnsgd1na2vs0mg"},{"bike_id":"701d2be6-1a0b-4649-b98b-3ceb20ea14d5","system_id":"levelo_inurba_marseille","lat":43.24168,"lon":5.36399,"is_reserved":false,"is_disabled":false,"rental_uris":{"android":"levelo://app?vid=701d2be6-1a0b-4649-b98b-3ceb20ea14d5","ios":"levelo://app?vid=701d2be6-1a0b-4649-b98b-3ceb20ea14d5"},"vehicle_type_id":"4","last_reported":1758092952,"current_range_meters":14400,"station_id":"cpo36qri1sfpv3e86is0","pricing_plan_id":"cebpf4jnsgd1na2vs0mg"},{"bike_id":"c0b00e17-22d2-48b9-af8d-aae9543d2772","system_id":"levelo_inurba_marseille","lat":43.33756,"lon":5.37474,"is_reserved":false,"is_disabled":false,"rental_uris":{"android":"levelo://app?vid=c0b00e17-22d2-48b9-af8d-aae9543d2772","ios":"levelo://app?vid=c0b00e17-22d2-48b9-af8d-aae9543d2772"},"vehicle_type_id":"4","last_reported":1758092952,"current_range_meters":14400,"station_id":"","pricing_plan_id":"cebpf4jnsgd1na2vs0mg"},{"bike_id":"45ee35ef-af41-4d88-92bc-cf502e206d93","system_id":"levelo_inurba_marseille","lat":43.257257,"lon":5.411058,"is_reserved":false,"is_disabled":false,"rental_uris":{"android":"levelo://app?vid=45ee35ef-af41-4d88-92bc-cf502e206d93","ios":"levelo://app?vid=45ee35ef-af41-4d88-92bc-cf502e206d93"},"vehicle_type_id":"4","last_reported":1758092952,"current_range_meters":14400,"station_id":"ce4bhkp2rcd13ifvqgd0","pricing_plan_id":"cebpf4jnsgd1na2vs0mg"},{"bike_id":"aadba02b-33ec-4bf1-8bc4-b369fe6e34cb","system_id":"levelo_inurba_marseille","lat":43.30314,"lon":5.36902,"is_reserved":false,"is_disabled":false,"rental_uris":{"android":"levelo://app?vid=aadba02b-33ec-4bf1-8bc4-b369fe6e34cb","ios":"levelo://app?vid=aadba02b-33ec-4bf1-8bc4-b369fe6e34cb"},"vehicle_type_id":"4","last_reported":1758092952,"current_range_meters":14400,"station_id":"ce4bgqh2rcd13ifvqc5g","pricing_plan_id":"cebpf4jnsgd1na2vs0mg"},{"bike_id":"ce7a52ed-1f8f-442d-b260-b9a219993008","system_id":"levelo_inurba_marseille","lat":43.24181,"lon":5.3972,"is_reserved":false,"is_disabled":false,"rental_uris":{"android":"levelo://app?vid=ce7a52ed-1f8f-442d-b260-b9a219993008","ios":"levelo://app?vid=ce7a52ed-1f8f-442d-b260-b9a219993008"},"vehicle_type_id":"4","last_reported":1758092952,"current_range_meters":14800,"station_id":"ce4bhn12rcd13ifvqgpg","pricing_plan_id":"cebpf4jnsgd1na2vs0mg"},{"bike_id":"6224f1f0-714d-41c7-82e9-28367907f8a6","system_id":"levelo_inurba_marseille","lat":43.30299,"lon":5.38635,"is_reserved":false,"is_disabled":false,"rental_uris":{"android":"levelo://app?vid=6224f1f0-714d-41c7-82e9-28367907f8a6","ios":"levelo://app?vid=6224f1f0-714d-41c7-82e9-28367907f8a6"},"vehicle_type_id":"4","last_reported":1758092952,"current_range_meters":14800,"station_id":"","pricing_plan_id":"cebpf4jnsgd1na2vs0mg"},{"bike_id":"42e2c8ea-3a39-413c-8b30-4ea87ce8783d","system_id":"levelo_inurba_marseille","lat":43.29051,"lon":5.39983,"is_reserved":false,"is_disabled":false,"rental_uris":{"android":"levelo://app?vid=42e2c8ea-3a39-413c-8b30-4ea87ce8783d","ios":"levelo://app?vid=42e2c8ea-3a39-413c-8b30-4ea87ce8783d"},"vehicle_type_id":"4","last_reported":1758092952,"current_range_meters":14800,"station_id":"ce4bh392rcd13ifvqdm0","pricing_plan_id":"cebpf4jnsgd1na2vs0mg"},{"bike_id":"bc9107d9-cda4-4d55-b077-b382bb80b88b","system_id":"levelo_inurba_marseille","lat":43.23152,"lon":5.43703,"is_reserved":false,"is_disabled":false,"rental_uris":{"android":"levelo://app?vid=bc9107d9-cda4-4d55-b077-b382bb80b88b","ios":"levelo://app?vid=bc9107d9-cda4-4d55-b077-b382bb80b88b"},"vehicle_type_id":"4","last_reported":1758092952,"current_range_meters":14800,"station_id":"ce4bhmp2rcd13ifvqgog","pricing_plan_id":"cebpf4jnsgd1na2vs0mg"},{"bike_id":"5701fe9c-3e98-4b9f-a910-5eb395d4e5d3","system_id":"levelo_inurba_marseille","lat":43.305389,"lon":5.384223,"is_reserved":false,"is_disabled":false,"rental_uris":{"android":"levelo://app?vid=5701fe9c-3e98-4b9f-a910-5eb395d4e5d3","ios":"levelo://app?vid=5701fe9c-3e98-4b9f-a910-5eb395d4e5d3"},"vehicle_type_id":"4","last_reported":1758092952,"current_range_meters":14800,"station_id":"","pricing_plan_id":"cebpf4jnsgd1na2vs0mg"},{"bike_id":"0ee1e9c8-ec93-4017-a079-13c16bfe1ad0","system_id":"levelo_inurba_marseille","lat":43.24998,"lon":5.38929,"is_reserved":false,"is_disabled":false,"rental_uris":{"android":"levelo://app?vid=0ee1e9c8-ec93-4017-a079-13c16bfe1ad0","ios":"levelo://app?vid=0ee1e9c8-ec93-4017-a079-13c16bfe1ad0"},"vehicle_type_id":"4","last_reported":1758092952,"current_range_meters":11200,"station_id":"ce4bhgp2rcd13ifvqfd0","pricing_plan_id":"cebpf4jnsgd1na2vs0mg"},{"bike_id":"c0a6a18d-e69d-4185-8893-204521163187","system_id":"levelo_inurba_marseille","lat":43.23153,"lon":5.43711,"is_reserved":false,"is_disabled":false,"rental_uris":{"android":"levelo://app?vid=c0a6a18d-e69d-4185-8893-204521163187","ios":"levelo://app?vid=c0a6a18d-e69d-4185-8893-204521163187"},"vehicle_type_id":"4","last_reported":1758092952,"current_range_meters":15200,"station_id":"ce4bhmp2rcd13ifvqgog","pricing_plan_id":"cebpf4jnsgd1na2vs0mg"},{"bike_id":"8e8089f6-a97e-46c3-b7c0-3b7c4482a2cb","system_id":"levelo_inurba_marseille","lat":43.29785,"lon":5.39367,"is_reserved":false,"is_disabled":true,"rental_uris":{"android":"levelo://app?vid=8e8089f6-a97e-46c3-b7c0-3b7c4482a2cb","ios":"levelo://app?vid=8e8089f6-a97e-46c3-b7c0-3b7c4482a2cb"},"vehicle_type_id":"4","last_reported":1758092952,"current_range_meters":15200,"station_id":"chh1huq6cuj3fo74tm60","pricing_plan_id":"cebpf4jnsgd1na2vs0mg"},{"bike_id":"2f153ed4-4777-4c3b-83a0-3214cfbfb031","system_id":"levelo_inurba_marseille","lat":43.25936,"lon":5.409,"is_reserved":false,"is_disabled":false,"rental_uris":{"android":"levelo://app?vid=2f153ed4-4777-4c3b-83a0-3214cfbfb031","ios":"levelo://app?vid=2f153ed4-4777-4c3b-83a0-3214cfbfb031"},"vehicle_type_id":"4","last_reported":1758092952,"current_range_meters":15200,"station_id":"ce4bhm92rcd13ifvqglg","pricing_plan_id":"cebpf4jnsgd1na2vs0mg"},{"bike_id":"e76ef879-317f-45ff-b2d9-c6c8304d675f","system_id":"levelo_inurba_marseille","lat":43.229315,"lon":5.353771,"is_reserved":false,"is_disabled":false,"rental_uris":{"android":"levelo://app?vid=e76ef879-317f-45ff-b2d9-c6c8304d675f","ios":"levelo://app?vid=e76ef879-317f-45ff-b2d9-c6c8304d675f"},"vehicle_type_id":"4","last_reported":1758092952,"current_range_meters":15200,"station_id":"cpo3532slgdg3j2ikp40","pricing_plan_id":"cebpf4jnsgd1na2vs0mg"},{"bike_id":"9cd2de67-4fe2-44c9-9b26-5005f5d6abe4","system_id":"levelo_inurba_marseille","lat":43.30266,"lon":5.37692,"is_reserved":false,"is_disabled":false,"rental_uris":{"android":"levelo://app?vid=9cd2de67-4fe2-44c9-9b26-5005f5d6abe4","ios":"levelo://app?vid=9cd2de67-4fe2-44c9-9b26-5005f5d6abe4"},"vehicle_type_id":"4","last_reported":1758092952,"current_range_meters":15200,"station_id":"ce4bguh2rcd13ifvqcj0","pricing_plan_id":"cebpf4jnsgd1na2vs0mg"},{"bike_id":"85f948ed-1682-45f7-a3b6-c04b7f066b68","system_id":"levelo_inurba_marseille","lat":43.21198,"lon":5.35083,"is_reserved":false,"is_disabled":false,"rental_uris":{"android":"levelo://app?vid=85f948ed-1682-45f7-a3b6-c04b7f066b68","ios":"levelo://app?vid=85f948ed-1682-45f7-a3b6-c04b7f066b68"},"vehicle_type_id":"4","last_reported":1758092952,"current_range_meters":15200,"station_id":"st_cvj6sg6p6f1abm77japg","pricing_plan_id":"cebpf4jnsgd1na2vs0mg"},{"bike_id":"9aca5f20-8481-49f8-8005-b38fb0ffe480","system_id":"levelo_inurba_marseille","lat":43.23149,"lon":5.43714,"is_reserved":false,"is_disabled":false,"rental_uris":{"android":"levelo://app?vid=9aca5f20-8481-49f8-8005-b38fb0ffe480","ios":"levelo://app?vid=9aca5f20-8481-49f8-8005-b38fb0ffe480"},"vehicle_type_id":"4","last_reported":1758092952,"current_range_meters":15200,"station_id":"ce4bhmp2rcd13ifvqgog","pricing_plan_id":"cebpf4jnsgd1na2vs0mg"},{"bike_id":"07f900c9-d4b0-4f7f-97ac-ea60bda882d2","system_id":"levelo_inurba_marseille","lat":43.24063,"lon":5.37759,"is_reserved":false,"is_disabled":false,"rental_uris":{"android":"levelo://app?vid=07f900c9-d4b0-4f7f-97ac-ea60bda882d2","ios":"levelo://app?vid=07f900c9-d4b0-4f7f-97ac-ea60bda882d2"},"vehicle_type_id":"4","last_reported":1758092952,"current_range_meters":15200,"station_id":"ce4bhnp2rcd13ifvqgvg","pricing_plan_id":"cebpf4jnsgd1na2vs0mg"},{"bike_id":"39d4de1d-f94e-4dee-8c8b-6059aa3c1000","system_id":"levelo_inurba_marseille","lat":43.31371,"lon":5.36705,"is_reserved":false,"is_disabled":false,"rental_uris":{"android":"levelo://app?vid=39d4de1d-f94e-4dee-8c8b-6059aa3c1000","ios":"levelo://app?vid=39d4de1d-f94e-4dee-8c8b-6059aa3c1000"},"vehicle_type_id":"4","last_reported":1758092952,"current_range_meters":16000,"station_id":"ce4bgr92rcd13ifvqc6g","pricing_plan_id":"cebpf4jnsgd1na2vs0mg"},{"bike_id":"26d32f40-abd9-41e8-ad33-e16c33cbf788","system_id":"levelo_inurba_marseille","lat":43.29958,"lon":5.37758,"is_reserved":false,"is_disabled":false,"rental_uris":{"android":"levelo://app?vid=26d32f40-abd9-41e8-ad33-e16c33cbf788","ios":"levelo://app?vid=26d32f40-abd9-41e8-ad33-e16c33cbf788"},"vehicle_type_id":"4","last_reported":1758092952,"current_range_meters":16000,"station_id":"","pricing_plan_id":"cebpf4jnsgd1na2vs0mg"},{"bike_id":"49e7f881-1f16-44f4-9040-d324d46fa397","system_id":"levelo_inurba_marseille","lat":43.32106,"lon":5.36771,"is_reserved":false,"is_disabled":false,"rental_uris":{"android":"levelo://app?vid=49e7f881-1f16-44f4-9040-d324d46fa397","ios":"levelo://app?vid=49e7f881-1f16-44f4-9040-d324d46fa397"},"vehicle_type_id":"4","last_reported":1758092952,"current_range_meters":16000,"station_id":"ce4bhrh2rcd13ifvqhug","pricing_plan_id":"cebpf4jnsgd1na2vs0mg"},{"bike_id":"583484f4-21cb-4d89-a9ff-694de98c218c","system_id":"levelo_inurba_marseille","lat":43.25935,"lon":5.4092,"is_reserved":false,"is_disabled":false,"rental_uris":{"android":"levelo://app?vid=583484f4-21cb-4d89-a9ff-694de98c218c","ios":"levelo://app?vid=583484f4-21cb-4d89-a9ff-694de98c218c"},"vehicle_type_id":"4","last_reported":1758092952,"current_range_meters":16000,"station_id":"ce4bhm92rcd13ifvqglg","pricing_plan_id":"cebpf4jnsgd1na2vs0mg"},{"bike_id":"d4899e16-206e-4848-8503-6591cda397ed","system_id":"levelo_inurba_marseille","lat":43.33741,"lon":5.37497,"is_reserved":false,"is_disabled":false,"rental_uris":{"android":"levelo://app?vid=d4899e16-206e-4848-8503-6591cda397ed","ios":"levelo://app?vid=d4899e16-206e-4848-8503-6591cda397ed"},"vehicle_type_id":"4","last_reported":1758092952,"current_range_meters":16400,"station_id":"","pricing_plan_id":"cebpf4jnsgd1na2vs0mg"},{"bike_id":"2c75f324-0a3d-41d8-a1e8-4f1291da99f7","system_id":"levelo_inurba_marseille","lat":43.316896,"lon":5.377353,"is_reserved":false,"is_disabled":false,"rental_uris":{"android":"levelo://app?vid=2c75f324-0a3d-41d8-a1e8-4f1291da99f7","ios":"levelo://app?vid=2c75f324-0a3d-41d8-a1e8-4f1291da99f7"},"vehicle_type_id":"4","last_reported":1758092952,"current_range_meters":16400,"station_id":"","pricing_plan_id":"cebpf4jnsgd1na2vs0mg"},{"bike_id":"55dfb17a-dc13-4669-82ac-2c676d600c2d","system_id":"levelo_inurba_marseille","lat":43.31351,"lon":5.37936,"is_reserved":false,"is_disabled":false,"rental_uris":{"android":"levelo://app?vid=55dfb17a-dc13-4669-82ac-2c676d600c2d","ios":"levelo://app?vid=55dfb17a-dc13-4669-82ac-2c676d600c2d"},"vehicle_type_id":"4","last_reported":1758092952,"current_range_meters":16400,"station_id":"","pricing_plan_id":"cebpf4jnsgd1na2vs0mg"},{"bike_id":"141fa817-86eb-47c4-9126-4046f87f4222","system_id":"levelo_inurba_marseille","lat":43.31336,"lon":5.37911,"is_reserved":false,"is_disabled":false,"rental_uris":{"android":"levelo://app?vid=141fa817-86eb-47c4-9126-4046f87f4222","ios":"levelo://app?vid=141fa817-86eb-47c4-9126-4046f87f4222"},"vehicle_type_id":"4","last_reported":1758092952,"current_range_meters":16400,"station_id":"","pricing_plan_id":"cebpf4jnsgd1na2vs0mg"},{"bike_id":"740349f5-33d3-4b38-a3d6-9986b0a75d06","system_id":"levelo_inurba_marseille","lat":43.29934,"lon":5.37485,"is_reserved":false,"is_disabled":false,"rental_uris":{"android":"levelo://app?vid=740349f5-33d3-4b38-a3d6-9986b0a75d06","ios":"levelo://app?vid=740349f5-33d3-4b38-a3d6-9986b0a75d06"},"vehicle_type_id":"4","last_reported":1758092952,"current_range_meters":16400,"station_id":"ce4bgjh2rcd13ifvqbg0","pricing_plan_id":"cebpf4jnsgd1na2vs0mg"},{"bike_id":"6f92ce5c-e974-4827-a94e-904f7e4d32ca","system_id":"levelo_inurba_marseille","lat":43.25937,"lon":5.40907,"is_reserved":false,"is_disabled":false,"rental_uris":{"android":"levelo://app?vid=6f92ce5c-e974-4827-a94e-904f7e4d32ca","ios":"levelo://app?vid=6f92ce5c-e974-4827-a94e-904f7e4d32ca"},"vehicle_type_id":"4","last_reported":1758092952,"current_range_meters":16400,"station_id":"ce4bhm92rcd13ifvqglg","pricing_plan_id":"cebpf4jnsgd1na2vs0mg"},{"bike_id":"ffb2859b-e6a7-45e7-853a-2f4f43f39ea7","system_id":"levelo_inurba_marseille","lat":43.23143,"lon":5.43724,"is_reserved":false,"is_disabled":false,"rental_uris":{"android":"levelo://app?vid=ffb2859b-e6a7-45e7-853a-2f4f43f39ea7","ios":"levelo://app?vid=ffb2859b-e6a7-45e7-853a-2f4f43f39ea7"},"vehicle_type_id":"4","last_reported":1758092952,"current_range_meters":16400,"station_id":"ce4bhmp2rcd13ifvqgog","pricing_plan_id":"cebpf4jnsgd1na2vs0mg"},{"bike_id":"edc0ea54-920a-49c7-ad21-670e5c1ff0d4","system_id":"levelo_inurba_marseille","lat":43.23157,"lon":5.43716,"is_reserved":false,"is_disabled":false,"rental_uris":{"android":"levelo://app?vid=edc0ea54-920a-49c7-ad21-670e5c1ff0d4","ios":"levelo://app?vid=edc0ea54-920a-49c7-ad21-670e5c1ff0d4"},"vehicle_type_id":"4","last_reported":1758092952,"current_range_meters":16400,"station_id":"ce4bhmp2rcd13ifvqgog","pricing_plan_id":"cebpf4jnsgd1na2vs0mg"},{"bike_id":"7c53e1e0-9efc-4c15-9c29-668d4dac4c59","system_id":"levelo_inurba_marseille","lat":43.22536,"lon":5.34836,"is_reserved":false,"is_disabled":false,"rental_uris":{"android":"levelo://app?vid=7c53e1e0-9efc-4c15-9c29-668d4dac4c59","ios":"levelo://app?vid=7c53e1e0-9efc-4c15-9c29-668d4dac4c59"},"vehicle_type_id":"4","last_reported":1758092952,"current_range_meters":16400,"station_id":"st_cvj5dfep6f1abm77gieg","pricing_plan_id":"cebpf4jnsgd1na2vs0mg"},{"bike_id":"8b6ec466-a718-4375-b941-28fc243d09a2","system_id":"levelo_inurba_marseille","lat":43.324737,"lon":5.365602,"is_reserved":false,"is_disabled":false,"rental_uris":{"android":"levelo://app?vid=8b6ec466-a718-4375-b941-28fc243d09a2","ios":"levelo://app?vid=8b6ec466-a718-4375-b941-28fc243d09a2"},"vehicle_type_id":"4","last_reported":1758092952,"current_range_meters":16400,"station_id":"ce4bhs12rcd13ifvqhvg","pricing_plan_id":"cebpf4jnsgd1na2vs0mg"},{"bike_id":"f634ac20-d2e2-4300-9d9a-d8854217c599","system_id":"levelo_inurba_marseille","lat":43.33757,"lon":5.37478,"is_reserved":false,"is_disabled":false,"rental_uris":{"android":"levelo://app?vid=f634ac20-d2e2-4300-9d9a-d8854217c599","ios":"levelo://app?vid=f634ac20-d2e2-4300-9d9a-d8854217c599"},"vehicle_type_id":"4","last_reported":1758092952,"current_range_meters":16400,"station_id":"","pricing_plan_id":"cebpf4jnsgd1na2vs0mg"},{"bike_id":"d8daae85-8a40-4f7a-b2a6-57d12ab5bc37","system_id":"levelo_inurba_marseille","lat":43.24084,"lon":5.37756,"is_reserved":false,"is_disabled":false,"rental_uris":{"android":"levelo://app?vid=d8daae85-8a40-4f7a-b2a6-57d12ab5bc37","ios":"levelo://app?vid=d8daae85-8a40-4f7a-b2a6-57d12ab5bc37"},"vehicle_type_id":"4","last_reported":1758092952,"current_range_meters":16400,"station_id":"ce4bhnp2rcd13ifvqgvg","pricing_plan_id":"cebpf4jnsgd1na2vs0mg"},{"bike_id":"0cbe5075-568d-4adc-a36f-37e7c24e0439","system_id":"levelo_inurba_marseille","lat":43.319859,"lon":5.381293,"is_reserved":false,"is_disabled":false,"rental_uris":{"android":"levelo://app?vid=0cbe5075-568d-4adc-a36f-37e7c24e0439","ios":"levelo://app?vid=0cbe5075-568d-4adc-a36f-37e7c24e0439"},"vehicle_type_id":"4","last_reported":1758092952,"current_range_meters":16800,"station_id":"ce4bhr12rcd13ifvqhpg","pricing_plan_id":"cebpf4jnsgd1na2vs0mg"},{"bike_id":"f7254990-f51d-45fe-83e3-57aceffccbc4","system_id":"levelo_inurba_marseille","lat":43.22567,"lon":5.4164,"is_reserved":false,"is_disabled":false,"rental_uris":{"android":"levelo://app?vid=f7254990-f51d-45fe-83e3-57aceffccbc4","ios":"levelo://app?vid=f7254990-f51d-45fe-83e3-57aceffccbc4"},"vehicle_type_id":"4","last_reported":1758092952,"current_range_meters":16800,"station_id":"st_d2o4gvlbi1j2169b742g","pricing_plan_id":"cebpf4jnsgd1na2vs0mg"},{"bike_id":"5586314a-7174-4c6f-bcf3-f7e89c8e9cc5","system_id":"levelo_inurba_marseille","lat":43.30911,"lon":5.36841,"is_reserved":false,"is_disabled":false,"rental_uris":{"android":"levelo://app?vid=5586314a-7174-4c6f-bcf3-f7e89c8e9cc5","ios":"levelo://app?vid=5586314a-7174-4c6f-bcf3-f7e89c8e9cc5"},"vehicle_type_id":"4","last_reported":1758092952,"current_range_meters":16800,"station_id":"ce4bgn92rcd13ifvqbvg","pricing_plan_id":"cebpf4jnsgd1na2vs0mg"},{"bike_id":"6ca792ea-109d-40a9-907f-972bb85bc883","system_id":"levelo_inurba_marseille","lat":43.290287,"lon":5.386523,"is_reserved":false,"is_disabled":true,"rental_uris":{"android":"levelo://app?vid=6ca792ea-109d-40a9-907f-972bb85bc883","ios":"levelo://app?vid=6ca792ea-109d-40a9-907f-972bb85bc883"},"vehicle_type_id":"4","last_reported":1758092952,"current_range_meters":16800,"station_id":"ce4bh4p2rcd13ifvqe0g","pricing_plan_id":"cebpf4jnsgd1na2vs0mg"},{"bike_id":"714776df-40c3-4776-bf56-c60b7450b546","system_id":"levelo_inurba_marseille","lat":43.32363,"lon":5.36761,"is_reserved":false,"is_disabled":false,"rental_uris":{"android":"levelo://app?vid=714776df-40c3-4776-bf56-c60b7450b546","ios":"levelo://app?vid=714776df-40c3-4776-bf56-c60b7450b546"},"vehicle_type_id":"4","last_reported":1758092952,"current_range_meters":16800,"station_id":"ce4bhsh2rcd13ifvqi2g","pricing_plan_id":"cebpf4jnsgd1na2vs0mg"},{"bike_id":"d9e36bbc-c6b3-443b-8d5c-90ba50efcea1","system_id":"levelo_inurba_marseille","lat":43.31344,"lon":5.36722,"is_reserved":false,"is_disabled":false,"rental_uris":{"android":"levelo://app?vid=d9e36bbc-c6b3-443b-8d5c-90ba50efcea1","ios":"levelo://app?vid=d9e36bbc-c6b3-443b-8d5c-90ba50efcea1"},"vehicle_type_id":"4","last_reported":1758092952,"current_range_meters":16800,"station_id":"ce4bgr92rcd13ifvqc6g","pricing_plan_id":"cebpf4jnsgd1na2vs0mg"},{"bike_id":"1bb32f55-0b7a-4b53-8aa6-ee1d3f6931ca","system_id":"levelo_inurba_marseille","lat":43.241779,"lon":5.397313,"is_reserved":false,"is_disabled":false,"rental_uris":{"android":"levelo://app?vid=1bb32f55-0b7a-4b53-8aa6-ee1d3f6931ca","ios":"levelo://app?vid=1bb32f55-0b7a-4b53-8aa6-ee1d3f6931ca"},"vehicle_type_id":"4","last_reported":1758092952,"current_range_meters":16800,"station_id":"ce4bhn12rcd13ifvqgpg","pricing_plan_id":"cebpf4jnsgd1na2vs0mg"},{"bike_id":"49230824-e0b0-4942-b254-aed72b06d282","system_id":"levelo_inurba_marseille","lat":43.269571,"lon":5.405461,"is_reserved":false,"is_disabled":false,"rental_uris":{"android":"levelo://app?vid=49230824-e0b0-4942-b254-aed72b06d282","ios":"levelo://app?vid=49230824-e0b0-4942-b254-aed72b06d282"},"vehicle_type_id":"4","last_reported":1758092952,"current_range_meters":17200,"station_id":"","pricing_plan_id":"cebpf4jnsgd1na2vs0mg"},{"bike_id":"842080e1-bd3f-44a9-a988-1af335fbbd2b","system_id":"levelo_inurba_marseille","lat":43.31052,"lon":5.40071,"is_reserved":false,"is_disabled":true,"rental_uris":{"android":"levelo://app?vid=842080e1-bd3f-44a9-a988-1af335fbbd2b","ios":"levelo://app?vid=842080e1-bd3f-44a9-a988-1af335fbbd2b"},"vehicle_type_id":"4","last_reported":1758092952,"current_range_meters":17200,"station_id":"","pricing_plan_id":"cebpf4jnsgd1na2vs0mg"},{"bike_id":"cfb50b7d-b5e3-4945-9b4f-0d791991aab3","system_id":"levelo_inurba_marseille","lat":43.23194,"lon":5.43607,"is_reserved":false,"is_disabled":false,"rental_uris":{"android":"levelo://app?vid=cfb50b7d-b5e3-4945-9b4f-0d791991aab3","ios":"levelo://app?vid=cfb50b7d-b5e3-4945-9b4f-0d791991aab3"},"vehicle_type_id":"4","last_reported":1758092952,"current_range_meters":17200,"station_id":"","pricing_plan_id":"cebpf4jnsgd1na2vs0mg"},{"bike_id":"53ea303f-2e78-4136-88d5-eb0394f51b57","system_id":"levelo_inurba_marseille","lat":43.24077,"lon":5.37754,"is_reserved":false,"is_disabled":false,"rental_uris":{"android":"levelo://app?vid=53ea303f-2e78-4136-88d5-eb0394f51b57","ios":"levelo://app?vid=53ea303f-2e78-4136-88d5-eb0394f51b57"},"vehicle_type_id":"4","last_reported":1758092952,"current_range_meters":17200,"station_id":"ce4bhnp2rcd13ifvqgvg","pricing_plan_id":"cebpf4jnsgd1na2vs0mg"},{"bike_id":"3557cba9-7535-4da9-a1a8-e6a12cc8b927","system_id":"levelo_inurba_marseille","lat":43.2594,"lon":5.40902,"is_reserved":false,"is_disabled":false,"rental_uris":{"android":"levelo://app?vid=3557cba9-7535-4da9-a1a8-e6a12cc8b927","ios":"levelo://app?vid=3557cba9-7535-4da9-a1a8-e6a12cc8b927"},"vehicle_type_id":"4","last_reported":1758092952,"current_range_meters":17200,"station_id":"ce4bhm92rcd13ifvqglg","pricing_plan_id":"cebpf4jnsgd1na2vs0mg"},{"bike_id":"d5e47ccf-f2d6-430c-b032-84d091674d1a","system_id":"levelo_inurba_marseille","lat":43.30797,"lon":5.38152,"is_reserved":false,"is_disabled":false,"rental_uris":{"android":"levelo://app?vid=d5e47ccf-f2d6-430c-b032-84d091674d1a","ios":"levelo://app?vid=d5e47ccf-f2d6-430c-b032-84d091674d1a"},"vehicle_type_id":"4","last_reported":1758092952,"current_range_meters":17200,"station_id":"ce4bgt12rcd13ifvqce0","pricing_plan_id":"cebpf4jnsgd1na2vs0mg"},{"bike_id":"06a0fb0b-de4b-4817-b71f-e911b6d09941","system_id":"levelo_inurba_marseille","lat":43.22546,"lon":5.4164,"is_reserved":false,"is_disabled":false,"rental_uris":{"android":"levelo://app?vid=06a0fb0b-de4b-4817-b71f-e911b6d09941","ios":"levelo://app?vid=06a0fb0b-de4b-4817-b71f-e911b6d09941"},"vehicle_type_id":"4","last_reported":1758092952,"current_range_meters":17200,"station_id":"st_d2o4gvlbi1j2169b742g","pricing_plan_id":"cebpf4jnsgd1na2vs0mg"},{"bike_id":"20275330-8700-47fa-9ab6-6cf355d8d350","system_id":"levelo_inurba_marseille","lat":43.21752,"lon":5.34609,"is_reserved":false,"is_disabled":false,"rental_uris":{"android":"levelo://app?vid=20275330-8700-47fa-9ab6-6cf355d8d350","ios":"levelo://app?vid=20275330-8700-47fa-9ab6-6cf355d8d350"},"vehicle_type_id":"4","last_reported":1758092952,"current_range_meters":17200,"station_id":"","pricing_plan_id":"cebpf4jnsgd1na2vs0mg"},{"bike_id":"06b08ea1-de4b-4ab9-907a-0ef6aabf1253","system_id":"levelo_inurba_marseille","lat":43.31559,"lon":5.38893,"is_reserved":false,"is_disabled":false,"rental_uris":{"android":"levelo://app?vid=06b08ea1-de4b-4ab9-907a-0ef6aabf1253","ios":"levelo://app?vid=06b08ea1-de4b-4ab9-907a-0ef6aabf1253"},"vehicle_type_id":"4","last_reported":1758092952,"current_range_meters":17200,"station_id":"","pricing_plan_id":"cebpf4jnsgd1na2vs0mg"},{"bike_id":"eacf68e9-7377-4ae4-b9a8-c45c75b36d16","system_id":"levelo_inurba_marseille","lat":43.23182,"lon":5.3999,"is_reserved":false,"is_disabled":false,"rental_uris":{"android":"levelo://app?vid=eacf68e9-7377-4ae4-b9a8-c45c75b36d16","ios":"levelo://app?vid=eacf68e9-7377-4ae4-b9a8-c45c75b36d16"},"vehicle_type_id":"4","last_reported":1758092952,"current_range_meters":17600,"station_id":"ce4bhn12rcd13ifvqgqg","pricing_plan_id":"cebpf4jnsgd1na2vs0mg"},{"bike_id":"b8bc0a4b-65e1-42ab-8cce-4474cf9597cb","system_id":"levelo_inurba_marseille","lat":43.24166,"lon":5.3639,"is_reserved":false,"is_disabled":false,"rental_uris":{"android":"levelo://app?vid=b8bc0a4b-65e1-42ab-8cce-4474cf9597cb","ios":"levelo://app?vid=b8bc0a4b-65e1-42ab-8cce-4474cf9597cb"},"vehicle_type_id":"4","last_reported":1758092952,"current_range_meters":17600,"station_id":"cpo36qri1sfpv3e86is0","pricing_plan_id":"cebpf4jnsgd1na2vs0mg"},{"bike_id":"349fa2da-55b1-4eca-ba16-88b21be7f73c","system_id":"levelo_inurba_marseille","lat":43.31112,"lon":5.37782,"is_reserved":false,"is_disabled":false,"rental_uris":{"android":"levelo://app?vid=349fa2da-55b1-4eca-ba16-88b21be7f73c","ios":"levelo://app?vid=349fa2da-55b1-4eca-ba16-88b21be7f73c"},"vehicle_type_id":"4","last_reported":1758092952,"current_range_meters":17600,"station_id":"ce4bgt92rcd13ifvqcg0","pricing_plan_id":"cebpf4jnsgd1na2vs0mg"},{"bike_id":"d1147bb1-8028-4a8a-aa24-14f505b69a71","system_id":"levelo_inurba_marseille","lat":43.29024,"lon":5.38143,"is_reserved":false,"is_disabled":false,"rental_uris":{"android":"levelo://app?vid=d1147bb1-8028-4a8a-aa24-14f505b69a71","ios":"levelo://app?vid=d1147bb1-8028-4a8a-aa24-14f505b69a71"},"vehicle_type_id":"4","last_reported":1758092952,"current_range_meters":17600,"station_id":"ce4bh4p2rcd13ifvqe1g","pricing_plan_id":"cebpf4jnsgd1na2vs0mg"},{"bike_id":"6b582cdd-f75e-4795-b86f-e70192626dc5","system_id":"levelo_inurba_marseille","lat":43.25936,"lon":5.40905,"is_reserved":false,"is_disabled":false,"rental_uris":{"android":"levelo://app?vid=6b582cdd-f75e-4795-b86f-e70192626dc5","ios":"levelo://app?vid=6b582cdd-f75e-4795-b86f-e70192626dc5"},"vehicle_type_id":"4","last_reported":1758092952,"current_range_meters":17600,"station_id":"ce4bhm92rcd13ifvqglg","pricing_plan_id":"cebpf4jnsgd1na2vs0mg"},{"bike_id":"6194e49c-36e1-4cf6-97e6-9c9a9fa6948e","system_id":"levelo_inurba_marseille","lat":43.24064,"lon":5.37749,"is_reserved":false,"is_disabled":false,"rental_uris":{"android":"levelo://app?vid=6194e49c-36e1-4cf6-97e6-9c9a9fa6948e","ios":"levelo://app?vid=6194e49c-36e1-4cf6-97e6-9c9a9fa6948e"},"vehicle_type_id":"4","last_reported":1758092952,"current_range_meters":17600,"station_id":"ce4bhnp2rcd13ifvqgvg","pricing_plan_id":"cebpf4jnsgd1na2vs0mg"},{"bike_id":"c30270fa-25a9-4f22-b5ca-5c0ba4922151","system_id":"levelo_inurba_marseille","lat":43.25905,"lon":5.4086,"is_reserved":false,"is_disabled":false,"rental_uris":{"android":"levelo://app?vid=c30270fa-25a9-4f22-b5ca-5c0ba4922151","ios":"levelo://app?vid=c30270fa-25a9-4f22-b5ca-5c0ba4922151"},"vehicle_type_id":"4","last_reported":1758092952,"current_range_meters":17600,"station_id":"ce4bhm92rcd13ifvqglg","pricing_plan_id":"cebpf4jnsgd1na2vs0mg"},{"bike_id":"9ab1684d-e8b9-4b55-9d9a-aa8f91fa94c7","system_id":"levelo_inurba_marseille","lat":43.24071,"lon":5.37762,"is_reserved":false,"is_disabled":false,"rental_uris":{"android":"levelo://app?vid=9ab1684d-e8b9-4b55-9d9a-aa8f91fa94c7","ios":"levelo://app?vid=9ab1684d-e8b9-4b55-9d9a-aa8f91fa94c7"},"vehicle_type_id":"4","last_reported":1758092952,"current_range_meters":17600,"station_id":"ce4bhnp2rcd13ifvqgvg","pricing_plan_id":"cebpf4jnsgd1na2vs0mg"},{"bike_id":"cf66592a-d8fa-4c6c-9927-5d7a9fef5026","system_id":"levelo_inurba_marseille","lat":43.26266,"lon":5.398584,"is_reserved":false,"is_disabled":false,"rental_uris":{"android":"levelo://app?vid=cf66592a-d8fa-4c6c-9927-5d7a9fef5026","ios":"levelo://app?vid=cf66592a-d8fa-4c6c-9927-5d7a9fef5026"},"vehicle_type_id":"4","last_reported":1758092952,"current_range_meters":17600,"station_id":"","pricing_plan_id":"cebpf4jnsgd1na2vs0mg"},{"bike_id":"887f6008-588e-4d2c-a987-e618a6abbcac","system_id":"levelo_inurba_marseille","lat":43.31381,"lon":5.3673,"is_reserved":false,"is_disabled":false,"rental_uris":{"android":"levelo://app?vid=887f6008-588e-4d2c-a987-e618a6abbcac","ios":"levelo://app?vid=887f6008-588e-4d2c-a987-e618a6abbcac"},"vehicle_type_id":"4","last_reported":1758092952,"current_range_meters":17600,"station_id":"","pricing_plan_id":"cebpf4jnsgd1na2vs0mg"},{"bike_id":"1939fbca-63f8-42ca-b000-2fec1d92c01a","system_id":"levelo_inurba_marseille","lat":43.29578,"lon":5.37526,"is_reserved":false,"is_disabled":false,"rental_uris":{"android":"levelo://app?vid=1939fbca-63f8-42ca-b000-2fec1d92c01a","ios":"levelo://app?vid=1939fbca-63f8-42ca-b000-2fec1d92c01a"},"vehicle_type_id":"4","last_reported":1758092952,"current_range_meters":17600,"station_id":"","pricing_plan_id":"cebpf4jnsgd1na2vs0mg"},{"bike_id":"841d935d-733b-4601-93ca-4c65c0fe5688","system_id":"levelo_inurba_marseille","lat":43.323647,"lon":5.367493,"is_reserved":false,"is_disabled":false,"rental_uris":{"android":"levelo://app?vid=841d935d-733b-4601-93ca-4c65c0fe5688","ios":"levelo://app?vid=841d935d-733b-4601-93ca-4c65c0fe5688"},"vehicle_type_id":"4","last_reported":1758092952,"current_range_meters":17600,"station_id":"ce4bhsh2rcd13ifvqi2g","pricing_plan_id":"cebpf4jnsgd1na2vs0mg"},{"bike_id":"40495e59-b743-486e-987c-cb0c3ab2f191","system_id":"levelo_inurba_marseille","lat":43.33233,"lon":5.4113,"is_reserved":false,"is_disabled":false,"rental_uris":{"android":"levelo://app?vid=40495e59-b743-486e-987c-cb0c3ab2f191","ios":"levelo://app?vid=40495e59-b743-486e-987c-cb0c3ab2f191"},"vehicle_type_id":"4","last_reported":1758092952,"current_range_meters":17600,"station_id":"","pricing_plan_id":"cebpf4jnsgd1na2vs0mg"},{"bike_id":"e83ec8be-cd12-454a-8ba2-73f51cbbb7a5","system_id":"levelo_inurba_marseille","lat":43.25567,"lon":5.38254,"is_reserved":false,"is_disabled":true,"rental_uris":{"android":"levelo://app?vid=e83ec8be-cd12-454a-8ba2-73f51cbbb7a5","ios":"levelo://app?vid=e83ec8be-cd12-454a-8ba2-73f51cbbb7a5"},"vehicle_type_id":"4","last_reported":1758092952,"current_range_meters":17600,"station_id":"ce4bhih2rcd13ifvqfs0","pricing_plan_id":"cebpf4jnsgd1na2vs0mg"},{"bike_id":"b4cadcb1-ab4e-435a-a100-172e91aa0188","system_id":"levelo_inurba_marseille","lat":43.25824,"lon":5.39433,"is_reserved":false,"is_disabled":false,"rental_uris":{"android":"levelo://app?vid=b4cadcb1-ab4e-435a-a100-172e91aa0188","ios":"levelo://app?vid=b4cadcb1-ab4e-435a-a100-172e91aa0188"},"vehicle_type_id":"4","last_reported":1758092952,"current_range_meters":17600,"station_id":"ce4bhip2rcd13ifvqft0","pricing_plan_id":"cebpf4jnsgd1na2vs0mg"},{"bike_id":"9e71dd00-f694-436d-85b1-2f1fbb1a9fda","system_id":"levelo_inurba_marseille","lat":43.30458,"lon":5.37905,"is_reserved":false,"is_disabled":false,"rental_uris":{"android":"levelo://app?vid=9e71dd00-f694-436d-85b1-2f1fbb1a9fda","ios":"levelo://app?vid=9e71dd00-f694-436d-85b1-2f1fbb1a9fda"},"vehicle_type_id":"4","last_reported":1758092952,"current_range_meters":18000,"station_id":"ce4bgup2rcd13ifvqcn0","pricing_plan_id":"cebpf4jnsgd1na2vs0mg"},{"bike_id":"ce1e21e7-e681-4f2c-a785-1cfade0efb75","system_id":"levelo_inurba_marseille","lat":43.2407,"lon":5.37762,"is_reserved":false,"is_disabled":false,"rental_uris":{"android":"levelo://app?vid=ce1e21e7-e681-4f2c-a785-1cfade0efb75","ios":"levelo://app?vid=ce1e21e7-e681-4f2c-a785-1cfade0efb75"},