{"last_updated":1730837406,"ttl":60,"version":"2.2","data":{"bikes":[{"bike_id":"2f303e9d-7400-40a4-a59c-f412d183bbe2","system_id":"levelo_inurba_marseille","lat":43.323584,"lon":5.388869,"is_reserved":false,"is_disabled":false,"rental_uris":{"android":"levelo://app?vid=2f303e9d-7400-40a4-a59c-f412d183bbe2","ios":"levelo://app?vid=2f303e9d-7400-40a4-a59c-f412d183bbe2"},"vehicle_type_id":"4","last_reported":1730837406,"current_range_meters":38800,"station_id":"ce4bhqp2rcd13ifvqhog","pricing_plan_id":"cebpf4jnsgd1na2vs0mg"},{"bike_id":"e983a3a2-b468-48ef-a374-a54128068ac7","system_id":"levelo_inurba_marseille","lat":43.33019,"lon":5.39037,"is_reserved":false,"is_disabled":false,"rental_uris":{"android":"levelo://app?vid=e983a3a2-b468-48ef-a374-a54128068ac7","ios":"levelo://app?vid=e983a3a2-b468-48ef-a374-a54128068ac7"},"vehicle_type_id":"4","last_reported":1730837406,"current_range_meters":28400,"station_id":"ce4bhr92rcd13ifvqhrg","pricing_plan_id":"cebpf4jnsgd1na2vs0mg"},{"bike_id":"6ec4e730-c54a-4330-8601-6a8d69259da3","system_id":"levelo_inurba_marseille","lat":43.24067,"lon":5.37763,"is_reserved":false,"is_disabled":false,"rental_uris":{"android":"levelo://app?vid=6ec4e730-c54a-4330-8601-6a8d69259da3","ios":"levelo://app?vid=6ec4e730-c54a-4330-8601-6a8d69259da3"},"vehicle_type_id":"4","last_reported":1730837406,"current_range_meters":17200,"station_id":"ce4bhnp2rcd13ifvqgvg","pricing_plan_id":"cebpf4jnsgd1na2vs0mg"},{"bike_id":"d43d5285-f672-442b-81bf-c6b155099aef","system_id":"levelo_inurba_marseille","lat":43.29188,"lon":5.35799,"is_reserved":false,"is_disabled":false,"rental_uris":{"android":"levelo://app?vid=d43d5285-f672-442b-81bf-c6b155099aef","ios":"levelo://app?vid=d43d5285-f672-442b-81bf-c6b155099aef"},"vehicle_type_id":"4","last_reported":1730837406,"current_range_meters":16400,"station_id":"ce4bhb12rcd13ifvqel0","pricing_plan_id":"cebpf4jnsgd1na2vs0mg"},{"bike_id":"6dc80309-b56b-4d04-b1b2-908e0bc7fd73","system_id":"levelo_inurba_marseille","lat":43.29527,"lon":5.38542,"is_reserved":false,"is_disabled":false,"rental_uris":{"android":"levelo://app?vid=6dc80309-b56b-4d04-b1b2-908e0bc7fd73","ios":"levelo://app?vid=6dc80309-b56b-4d04-b1b2-908e0bc7fd73"},"vehicle_type_id":"4","last_reported":1730837406,"current_range_meters":8800,"station_id":"ce4bgih2rcd13ifvqba0","pricing_plan_id":"cebpf4jnsgd1na2vs0mg"},{"bike_id":"029dd0e8-fda9-475b-bb89-169dc926aec2","system_id":"levelo_inurba_marseille","lat":43.2926,"lon":5.3843,"is_reserved":false,"is_disabled":false,"rental_uris":{"android":"levelo://app?vid=029dd0e8-fda9-475b-bb89-169dc926aec2","ios":"levelo://app?vid=029dd0e8-fda9-475b-bb89-169dc926aec2"},"vehicle_type_id":"4","last_reported":1730837406,"current_range_meters":38800,"station_id":"ce4bh692rcd13ifvqea0","pricing_plan_id":"cebpf4jnsgd1na2vs0mg"},{"bike_id":"68d50f11-cfe5-4b2c-9187-227f0a002bae","system_id":"levelo_inurba_marseille","lat":43.31701,"lon":5.37756,"is_reserved":false,"is_disabled":false,"rental_uris":{"android":"levelo://app?vid=68d50f11-cfe5-4b2c-9187-227f0a002bae","ios":"levelo://app?vid=68d50f11-cfe5-4b2c-9187-227f0a002bae"},"vehicle_type_id":"4","last_reported":1730837406,"current_range_meters":20400,"station_id":"ce4bgth2rcd13ifvqch0","pricing_plan_id":"cebpf4jnsgd1na2vs0mg"},{"bike_id":"29358675-50c7-40b4-8003-dfce5c37a9d4","system_id":"levelo_inurba_marseille","lat":43.28355,"lon":5.38643,"is_reserved":false,"is_disabled":false,"rental_uris":{"android":"levelo://app?vid=29358675-50c7-40b4-8003-dfce5c37a9d4","ios":"levelo://app?vid=29358675-50c7-40b4-8003-dfce5c37a9d4"},"vehicle_type_id":"4","last_reported":1730837406,"current_range_meters":3200,"station_id":"ce4bh492rcd13ifvqdvg","pricing_plan_id":"cebpf4jnsgd1na2vs0mg"},{"bike_id":"ebe33179-e1dc-4a94-86fc-954f574b04d1","system_id":"levelo_inurba_marseille","lat":43.31537,"lon":5.38026,"is_reserved":false,"is_disabled":false,"rental_uris":{"android":"levelo://app?vid=ebe33179-e1dc-4a94-86fc-954f574b04d1","ios":"levelo://app?vid=ebe33179-e1dc-4a94-86fc-954f574b04d1"},"vehicle_type_id":"4","last_reported":1730837406,"current_range_meters":31200,"station_id":"ce4bhsp2rcd13ifvqi50","pricing_plan_id":"cebpf4jnsgd1na2vs0mg"},{"bike_id":"c4c19a0c-8d82-42b0-9ed3-22a2537291ef","system_id":"levelo_inurba_marseille","lat":43.28853,"lon":5.35853,"is_reserved":false,"is_disabled":false,"rental_uris":{"android":"levelo://app?vid=c4c19a0c-8d82-42b0-9ed3-22a2537291ef","ios":"levelo://app?vid=c4c19a0c-8d82-42b0-9ed3-22a2537291ef"},"vehicle_type_id":"4","last_reported":1730837406,"current_range_meters":18800,"station_id":"ce4bhb12rcd13ifvqem0","pricing_plan_id":"cebpf4jnsgd1na2vs0mg"},{"bike_id":"88e82857-93e6-40e7-8eba-a685b4188420","system_id":"levelo_inurba_marseille","lat":43.29252,"lon":5.38424,"is_reserved":false,"is_disabled":false,"rental_uris":{"android":"levelo://app?vid=88e82857-93e6-40e7-8eba-a685b4188420","ios":"levelo://app?vid=88e82857-93e6-40e7-8eba-a685b4188420"},"vehicle_type_id":"4","last_reported":1730837406,"current_range_meters":35200,"station_id":"ce4bh692rcd13ifvqea0","pricing_plan_id":"cebpf4jnsgd1na2vs0mg"},{"bike_id":"d7d20756-0263-4239-b190-2bf90f8edd36","system_id":"levelo_inurba_marseille","lat":43.2987,"lon":5.39723,"is_reserved":false,"is_disabled":false,"rental_uris":{"android":"levelo://app?vid=d7d20756-0263-4239-b190-2bf90f8edd36","ios":"levelo://app?vid=d7d20756-0263-4239-b190-2bf90f8edd36"},"vehicle_type_id":"4","last_reported":1730837406,"current_range_meters":26800,"station_id":"ce4bh0h2rcd13ifvqd50","pricing_plan_id":"cebpf4jnsgd1na2vs0mg"},{"bike_id":"c4481093-e467-484d-98e6-3074ba4623bf","system_id":"levelo_inurba_marseille","lat":43.30885,"lon":5.372,"is_reserved":false,"is_disabled":false,"rental_uris":{"android":"levelo://app?vid=c4481093-e467-484d-98e6-3074ba4623bf","ios":"levelo://app?vid=c4481093-e467-484d-98e6-3074ba4623bf"},"vehicle_type_id":"4","last_reported":1730837406,"current_range_meters":28400,"station_id":"ce4bguh2rcd13ifvqckg","pricing_plan_id":"cebpf4jnsgd1na2vs0mg"},{"bike_id":"a5ef8a2e-9523-4905-8e56-a854e572cdc9","system_id":"levelo_inurba_marseille","lat":43.29253,"lon":5.38432,"is_reserved":false,"is_disabled":false,"rental_uris":{"android":"levelo://app?vid=a5ef8a2e-9523-4905-8e56-a854e572cdc9","ios":"levelo://app?vid=a5ef8a2e-9523-4905-8e56-a854e572cdc9"},"vehicle_type_id":"4","last_reported":1730837406,"current_range_meters":6800,"station_id":"ce4bh692rcd13ifvqea0","pricing_plan_id":"cebpf4jnsgd1na2vs0mg"},{"bike_id":"4147bbfb-4b14-4aca-b782-8ec6c0473609","system_id":"levelo_inurba_marseille","lat":43.23599,"lon":5.40342,"is_reserved":false,"is_disabled":false,"rental_uris":{"android":"levelo://app?vid=4147bbfb-4b14-4aca-b782-8ec6c0473609","ios":"levelo://app?vid=4147bbfb-4b14-4aca-b782-8ec6c0473609"},"vehicle_type_id":"4","last_reported":1730837406,"current_range_meters":6800,"station_id":"","pricing_plan_id":"cebpf4jnsgd1na2vs0mg"},{"bike_id":"14457bf0-60c9-4487-a4b5-fea5b2f33228","system_id":"levelo_inurba_marseille","lat":43.29527,"lon":5.39046,"is_reserved":false,"is_disabled":false,"rental_uris":{"android":"levelo://app?vid=14457bf0-60c9-4487-a4b5-fea5b2f33228","ios":"levelo://app?vid=14457bf0-60c9-4487-a4b5-fea5b2f33228"},"vehicle_type_id":"4","last_reported":1730837406,"current_range_meters":17200,"station_id":"ce4bh3p2rcd13ifvqdp0","pricing_plan_id":"cebpf4jnsgd1na2vs0mg"},{"bike_id":"79030a69-ab53-4cbc-9872-ce92913cf4fd","system_id":"levelo_inurba_marseille","lat":43.29791,"lon":5.38086,"is_reserved":false,"is_disabled":false,"rental_uris":{"android":"levelo://app?vid=79030a69-ab53-4cbc-9872-ce92913cf4fd","ios":"levelo://app?vid=79030a69-ab53-4cbc-9872-ce92913cf4fd"},"vehicle_type_id":"4","last_reported":1730837406,"current_range_meters":14000,"station_id":"ce4bgip2rcd13ifvqbb0","pricing_plan_id":"cebpf4jnsgd1na2vs0mg"},{"bike_id":"875c3b51-709b-4cf8-8c4f-9465fa317359","system_id":"levelo_inurba_marseille","lat":43.27563,"lon":5.38411,"is_reserved":false,"is_disabled":false,"rental_uris":{"android":"levelo://app?vid=875c3b51-709b-4cf8-8c4f-9465fa317359","ios":"levelo://app?vid=875c3b51-709b-4cf8-8c4f-9465fa317359"},"vehicle_type_id":"4","last_reported":1730837406,"current_range_meters":9600,"station_id":"ce4bhh92rcd13ifvqfi0","pricing_plan_id":"cebpf4jnsgd1na2vs0mg"},{"bike_id":"24673d8d-fc38-4f80-90ab-900c0598372c","system_id":"levelo_inurba_marseille","lat":43.29786,"lon":5.38103,"is_reserved":false,"is_disabled":false,"rental_uris":{"android":"levelo://app?vid=24673d8d-fc38-4f80-90ab-900c0598372c","ios":"levelo://app?vid=24673d8d-fc38-4f80-90ab-900c0598372c"},"vehicle_type_id":"4","last_reported":1730837406,"current_range_meters":32400,"station_id":"ce4bgip2rcd13ifvqbb0","pricing_plan_id":"cebpf4jnsgd1na2vs0mg"},{"bike_id":"35d46972-faca-4525-a2d2-3f928f24f16c","system_id":"levelo_inurba_marseille","lat":43.24172,"lon":5.36406,"is_reserved":false,"is_disabled":false,"rental_uris":{"android":"levelo://app?vid=35d46972-faca-4525-a2d2-3f928f24f16c","ios":"levelo://app?vid=35d46972-faca-4525-a2d2-3f928f24f16c"},"vehicle_type_id":"4","last_reported":1730837406,"current_range_meters":36400,"station_id":"cpo36qri1sfpv3e86is0","pricing_plan_id":"cebpf4jnsgd1na2vs0mg"},{"bike_id":"692f31da-ed64-4e18-b7cc-350f01a2fb79","system_id":"levelo_inurba_marseille","lat":43.29893,"lon":5.43669,"is_reserved":false,"is_disabled":false,"rental_uris":{"android":"levelo://app?vid=692f31da-ed64-4e18-b7cc-350f01a2fb79","ios":"levelo://app?vid=692f31da-ed64-4e18-b7cc-350f01a2fb79"},"vehicle_type_id":"4","last_reported":1730837406,"current_range_meters":24000,"station_id":"ce4bhpp2rcd13ifvqhfg","pricing_plan_id":"cebpf4jnsgd1na2vs0mg"},{"bike_id":"1b358c2a-4546-44d6-8702-db48f79b8243","system_id":"levelo_inurba_marseille","lat":43.30262,"lon":5.40073,"is_reserved":false,"is_disabled":false,"rental_uris":{"android":"levelo://app?vid=1b358c2a-4546-44d6-8702-db48f79b8243","ios":"levelo://app?vid=1b358c2a-4546-44d6-8702-db48f79b8243"},"vehicle_type_id":"4","last_reported":1730837406,"current_range_meters":28000,"station_id":"ce4bgvh2rcd13ifvqcs0","pricing_plan_id":"cebpf4jnsgd1na2vs0mg"},{"bike_id":"ffbdc1bf-2027-4294-abc4-95123ba94de0","system_id":"levelo_inurba_marseille","lat":43.29519,"lon":5.38537,"is_reserved":false,"is_disabled":false,"rental_uris":{"android":"levelo://app?vid=ffbdc1bf-2027-4294-abc4-95123ba94de0","ios":"levelo://app?vid=ffbdc1bf-2027-4294-abc4-95123ba94de0"},"vehicle_type_id":"4","last_reported":1730837406,"current_range_meters":38800,"station_id":"ce4bgih2rcd13ifvqba0","pricing_plan_id":"cebpf4jnsgd1na2vs0mg"},{"bike_id":"1800b41e-0be0-429f-824d-a8d01ec3a2eb","system_id":"levelo_inurba_marseille","lat":43.309265,"lon":5.401414,"is_reserved":false,"is_disabled":false,"rental_uris":{"android":"levelo://app?vid=1800b41e-0be0-429f-824d-a8d01ec3a2eb","ios":"levelo://app?vid=1800b41e-0be0-429f-824d-a8d01ec3a2eb"},"vehicle_type_id":"4","last_reported":1730837406,"current_range_meters":19200,"station_id":"ce4bhf92rcd13ifvqf50","pricing_plan_id":"cebpf4jnsgd1na2vs0mg"},{"bike_id":"2b397c84-a387-4574-9e55-6c4b87626aa9","system_id":"levelo_inurba_marseille","lat":43.27976,"lon":5.38733,"is_reserved":false,"is_disabled":false,"rental_uris":{"android":"levelo://app?vid=2b397c84-a387-4574-9e55-6c4b87626aa9","ios":"levelo://app?vid=2b397c84-a387-4574-9e55-6c4b87626aa9"},"vehicle_type_id":"4","last_reported":1730837406,"current_range_meters":3600,"station_id":"ce4bhg12rcd13ifvqf80","pricing_plan_id":"cebpf4jnsgd1na2vs0mg"},{"bike_id":"81a6a1d3-210c-4fab-bee3-a7c23191472a","system_id":"levelo_inurba_marseille","lat":43.30257,"lon":5.40073,"is_reserved":false,"is_disabled":false,"rental_uris":{"android":"levelo://app?vid=81a6a1d3-210c-4fab-bee3-a7c23191472a","ios":"levelo://app?vid=81a6a1d3-210c-4fab-bee3-a7c23191472a"},"vehicle_type_id":"4","last_reported":1730837406,"current_range_meters":35600,"station_id":"ce4bgvh2rcd13ifvqcs0","pricing_plan_id":"cebpf4jnsgd1na2vs0mg"},{"bike_id":"dfa42b61-c1af-479c-9f40-825dbcff6bfe","system_id":"levelo_inurba_marseille","lat":43.28572,"lon":5.39504,"is_reserved":false,"is_disabled":false,"rental_uris":{"android":"levelo://app?vid=dfa42b61-c1af-479c-9f40-825dbcff6bfe","ios":"levelo://app?vid=dfa42b61-c1af-479c-9f40-825dbcff6bfe"},"vehicle_type_id":"4","last_reported":1730837406,"current_range_meters":3600,"station_id":"ce4bh292rcd13ifvqdg0","pricing_plan_id":"cebpf4jnsgd1na2vs0mg"},{"bike_id":"818a4452-39ff-4281-a60e-c87dc088a4a3","system_id":"levelo_inurba_marseille","lat":43.29795,"lon":5.38096,"is_reserved":false,"is_disabled":false,"rental_uris":{"android":"levelo://app?vid=818a4452-39ff-4281-a60e-c87dc088a4a3","ios":"levelo://app?vid=818a4452-39ff-4281-a60e-c87dc088a4a3"},"vehicle_type_id":"4","last_reported":1730837406,"current_range_meters":38800,"station_id":"ce4bgip2rcd13ifvqbb0","pricing_plan_id":"cebpf4jnsgd1na2vs0mg"},{"bike_id":"e84a1fc2-c9bf-457a-83d8-40926aa08569","system_id":"levelo_inurba_marseille","lat":43.28618,"lon":5.35106,"is_reserved":false,"is_disabled":false,"rental_uris":{"android":"levelo://app?vid=e84a1fc2-c9bf-457a-83d8-40926aa08569","ios":"levelo://app?vid=e84a1fc2-c9bf-457a-83d8-40926aa08569"},"vehicle_type_id":"4","last_reported":1730837406,"current_range_meters":10800,"station_id":"ce4bhch2rcd13ifvqeug","pricing_plan_id":"cebpf4jnsgd1na2vs0mg"},{"bike_id":"0b7cad0a-1409-4296-ac40-3fdf34c1f8a6","system_id":"levelo_inurba_marseille","lat":43.27498,"lon":5.42442,"is_reserved":false,"is_disabled":false,"rental_uris":{"android":"levelo://app?vid=0b7cad0a-1409-4296-ac40-3fdf34c1f8a6","ios":"levelo://app?vid=0b7cad0a-1409-4296-ac40-3fdf34c1f8a6"},"vehicle_type_id":"4","last_reported":1730837406,"current_range_meters":18000,"station_id":"ce4bhn92rcd13ifvqgrg","pricing_plan_id":"cebpf4jnsgd1na2vs0mg"},{"bike_id":"b7714781-d668-438d-8d4e-7166167a7e37","system_id":"levelo_inurba_marseille","lat":43.23181,"lon":5.39978,"is_reserved":false,"is_disabled":false,"rental_uris":{"android":"levelo://app?vid=b7714781-d668-438d-8d4e-7166167a7e37","ios":"levelo://app?vid=b7714781-d668-438d-8d4e-7166167a7e37"},"vehicle_type_id":"4","last_reported":1730837406,"current_range_meters":25200,"station_id":"ce4bhn12rcd13ifvqgqg","pricing_plan_id":"cebpf4jnsgd1na2vs0mg"},{"bike_id":"e5ab461b-0652-4b1b-bbc1-00d165375057","system_id":"levelo_inurba_marseille","lat":43.28001,"lon":5.40016,"is_reserved":false,"is_disabled":false,"rental_uris":{"android":"levelo://app?vid=e5ab461b-0652-4b1b-bbc1-00d165375057","ios":"levelo://app?vid=e5ab461b-0652-4b1b-bbc1-00d165375057"},"vehicle_type_id":"4","last_reported":1730837406,"current_range_meters":5600,"station_id":"ce4bho92rcd13ifvqh4g","pricing_plan_id":"cebpf4jnsgd1na2vs0mg"},{"bike_id":"504a2677-e7f9-490d-8752-2a9c4e557185","system_id":"levelo_inurba_marseille","lat":43.27192,"lon":5.40977,"is_reserved":false,"is_disabled":false,"rental_uris":{"android":"levelo://app?vid=504a2677-e7f9-490d-8752-2a9c4e557185","ios":"levelo://app?vid=504a2677-e7f9-490d-8752-2a9c4e557185"},"vehicle_type_id":"4","last_reported":1730837406,"current_range_meters":36800,"station_id":"ce4bhl12rcd13ifvqgf0","pricing_plan_id":"cebpf4jnsgd1na2vs0mg"},{"bike_id":"66654e11-334a-43be-ab51-27b85538447a","system_id":"levelo_inurba_marseille","lat":43.2926,"lon":5.409,"is_reserved":false,"is_disabled":false,"rental_uris":{"android":"levelo://app?vid=66654e11-334a-43be-ab51-27b85538447a","ios":"levelo://app?vid=66654e11-334a-43be-ab51-27b85538447a"},"vehicle_type_id":"4","last_reported":1730837406,"current_range_meters":25200,"station_id":"ce4bh192rcd13ifvqdc0","pricing_plan_id":"cebpf4jnsgd1na2vs0mg"},{"bike_id":"cf5b8554-36d9-4a8f-8767-b284231be69e","system_id":"levelo_inurba_marseille","lat":43.28477,"lon":5.38542,"is_reserved":false,"is_disabled":false,"rental_uris":{"android":"levelo://app?vid=cf5b8554-36d9-4a8f-8767-b284231be69e","ios":"levelo://app?vid=cf5b8554-36d9-4a8f-8767-b284231be69e"},"vehicle_type_id":"4","last_reported":1730837406,"current_range_meters":38800,"station_id":"ce4bh8p2rcd13ifvqeb0","pricing_plan_id":"cebpf4jnsgd1na2vs0mg"},{"bike_id":"89edbea8-dc71-4552-b2f0-c3c402b70c69","system_id":"levelo_inurba_marseille","lat":43.30536,"lon":5.36559,"is_reserved":false,"is_disabled":false,"rental_uris":{"android":"levelo://app?vid=89edbea8-dc71-4552-b2f0-c3c402b70c69","ios":"levelo://app?vid=89edbea8-dc71-4552-b2f0-c3c402b70c69"},"vehicle_type_id":"4","last_reported":1730837406,"current_range_meters":10800,"station_id":"ce4bgs12rcd13ifvqcag","pricing_plan_id":"cebpf4jnsgd1na2vs0mg"},{"bike_id":"30eb9235-2b25-441f-aa71-5f4c675a078c","system_id":"levelo_inurba_marseille","lat":43.24655,"lon":5.38894,"is_reserved":false,"is_disabled":false,"rental_uris":{"android":"levelo://app?vid=30eb9235-2b25-441f-aa71-5f4c675a078c","ios":"levelo://app?vid=30eb9235-2b25-441f-aa71-5f4c675a078c"},"vehicle_type_id":"4","last_reported":1730837406,"current_range_meters":25600,"station_id":"ce4bhg12rcd13ifvqf60","pricing_plan_id":"cebpf4jnsgd1na2vs0mg"},{"bike_id":"ebffee7c-cae5-47c5-9bdb-6d314ad8c91e","system_id":"levelo_inurba_marseille","lat":43.33026,"lon":5.39043,"is_reserved":false,"is_disabled":false,"rental_uris":{"android":"levelo://app?vid=ebffee7c-cae5-47c5-9bdb-6d314ad8c91e","ios":"levelo://app?vid=ebffee7c-cae5-47c5-9bdb-6d314ad8c91e"},"vehicle_type_id":"4","last_reported":1730837406,"current_range_meters":38800,"station_id":"ce4bhr92rcd13ifvqhrg","pricing_plan_id":"cebpf4jnsgd1na2vs0mg"},{"bike_id":"42163e3e-5009-401f-a1ce-f09eb7e2a510","system_id":"levelo_inurba_marseille","lat":43.31332,"lon":5.39696,"is_reserved":false,"is_disabled":false,"rental_uris":{"android":"levelo://app?vid=42163e3e-5009-401f-a1ce-f09eb7e2a510","ios":"levelo://app?vid=42163e3e-5009-401f-a1ce-f09eb7e2a510"},"vehicle_type_id":"4","last_reported":1730837406,"current_range_meters":39200,"station_id":"ce4bgvp2rcd13ifvqcu0","pricing_plan_id":"cebpf4jnsgd1na2vs0mg"},{"bike_id":"42f1053f-43d7-49b0-a29f-f7d1ff81c5d2","system_id":"levelo_inurba_marseille","lat":43.24809,"lon":5.37455,"is_reserved":false,"is_disabled":false,"rental_uris":{"android":"levelo://app?vid=42f1053f-43d7-49b0-a29f-f7d1ff81c5d2","ios":"levelo://app?vid=42f1053f-43d7-49b0-a29f-f7d1ff81c5d2"},"vehicle_type_id":"4","last_reported":1730837406,"current_range_meters":30800,"station_id":"ce4bhgh2rcd13ifvqfb0","pricing_plan_id":"cebpf4jnsgd1na2vs0mg"},{"bike_id":"679768bc-ebe5-47e4-8e67-960726d0f63f","system_id":"levelo_inurba_marseille","lat":43.30887,"lon":5.39635,"is_reserved":false,"is_disabled":false,"rental_uris":{"android":"levelo://app?vid=679768bc-ebe5-47e4-8e67-960726d0f63f","ios":"levelo://app?vid=679768bc-ebe5-47e4-8e67-960726d0f63f"},"vehicle_type_id":"4","last_reported":1730837406,"current_range_meters":35200,"station_id":"ce4bh012rcd13ifvqcv0","pricing_plan_id":"cebpf4jnsgd1na2vs0mg"},{"bike_id":"975c9234-f477-4849-a4e3-e3d7d0b25fab","system_id":"levelo_inurba_marseille","lat":43.31322,"lon":5.39693,"is_reserved":false,"is_disabled":false,"rental_uris":{"android":"levelo://app?vid=975c9234-f477-4849-a4e3-e3d7d0b25fab","ios":"levelo://app?vid=975c9234-f477-4849-a4e3-e3d7d0b25fab"},"vehicle_type_id":"4","last_reported":1730837406,"current_range_meters":33600,"station_id":"ce4bgvp2rcd13ifvqcu0","pricing_plan_id":"cebpf4jnsgd1na2vs0mg"},{"bike_id":"2be58595-1ee4-4e97-90d2-c6d933b5e1c7","system_id":"levelo_inurba_marseille","lat":43.29897,"lon":5.43672,"is_reserved":false,"is_disabled":false,"rental_uris":{"android":"levelo://app?vid=2be58595-1ee4-4e97-90d2-c6d933b5e1c7","ios":"levelo://app?vid=2be58595-1ee4-4e97-90d2-c6d933b5e1c7"},"vehicle_type_id":"4","last_reported":1730837406,"current_range_meters":24800,"station_id":"ce4bhpp2rcd13ifvqhfg","pricing_plan_id":"cebpf4jnsgd1na2vs0mg"},{"bike_id":"498aa25f-9345-496d-b4d0-f6c7e1d624f7","system_id":"levelo_inurba_marseille","lat":43.23146,"lon":5.43722,"is_reserved":false,"is_disabled":false,"rental_uris":{"android":"levelo://app?vid=498aa25f-9345-496d-b4d0-f6c7e1d624f7","ios":"levelo://app?vid=498aa25f-9345-496d-b4d0-f6c7e1d624f7"},"vehicle_type_id":"4","last_reported":1730837406,"current_range_meters":15200,"station_id":"ce4bhmp2rcd13ifvqgog","pricing_plan_id":"cebpf4jnsgd1na2vs0mg"},{"bike_id":"b9f49a4a-4f9e-4ec8-822c-62bd6c8cf186","system_id":"levelo_inurba_marseille","lat":43.31711,"lon":5.43711,"is_reserved":false,"is_disabled":false,"rental_uris":{"android":"levelo://app?vid=b9f49a4a-4f9e-4ec8-822c-62bd6c8cf186","ios":"levelo://app?vid=b9f49a4a-4f9e-4ec8-822c-62bd6c8cf186"},"vehicle_type_id":"4","last_reported":1730837406,"current_range_meters":30400,"station_id":"ce4bhp92rcd13ifvqhcg","pricing_plan_id":"cebpf4jnsgd1na2vs0mg"},{"bike_id":"e09c4147-dda0-4819-8525-b479d6bd753e","system_id":"levelo_inurba_marseille","lat":43.30601,"lon":5.37222,"is_reserved":false,"is_disabled":false,"rental_uris":{"android":"levelo://app?vid=e09c4147-dda0-4819-8525-b479d6bd753e","ios":"levelo://app?vid=e09c4147-dda0-4819-8525-b479d6bd753e"},"vehicle_type_id":"4","last_reported":1730837406,"current_range_meters":39200,"station_id":"ce4bgqh2rcd13ifvqc4g","pricing_plan_id":"cebpf4jnsgd1na2vs0mg"},{"bike_id":"f5dd8b8e-f4ba-4b50-bf9f-31af57becbb7","system_id":"levelo_inurba_marseille","lat":43.25109,"lon":5.40329,"is_reserved":false,"is_disabled":false,"rental_uris":{"android":"levelo://app?vid=f5dd8b8e-f4ba-4b50-bf9f-31af57becbb7","ios":"levelo://app?vid=f5dd8b8e-f4ba-4b50-bf9f-31af57becbb7"},"vehicle_type_id":"4","last_reported":1730837406,"current_range_meters":38800,"station_id":"ce4bhlh2rcd13ifvqgig","pricing_plan_id":"cebpf4jnsgd1na2vs0mg"},{"bike_id":"91a1f60c-5d90-4a77-a09f-1404a5b2cdc6","system_id":"levelo_inurba_marseille","lat":43.30952,"lon":5.39033,"is_reserved":false,"is_disabled":false,"rental_uris":{"android":"levelo://app?vid=91a1f60c-5d90-4a77-a09f-1404a5b2cdc6","ios":"levelo://app?vid=91a1f60c-5d90-4a77-a09f-1404a5b2cdc6"},"vehicle_type_id":"4","last_reported":1730837406,"current_range_meters":24400,"station_id":"ce4bgup2rcd13ifvqco0","pricing_plan_id":"cebpf4jnsgd1na2vs0mg"},{"bike_id":"7da45cf2-3e2c-4417-ae03-52387d64cc6d","system_id":"levelo_inurba_marseille","lat":43.29708,"lon":5.4079,"is_reserved":false,"is_disabled":false,"rental_uris":{"android":"levelo://app?vid=7da45cf2-3e2c-4417-ae03-52387d64cc6d","ios":"levelo://app?vid=7da45cf2-3e2c-4417-ae03-52387d64cc6d"},"vehicle_type_id":"4","last_reported":1730837406,"current_range_meters":16800,"station_id":"","pricing_plan_id":"cebpf4jnsgd1na2vs0mg"},{"bike_id":"f29f4159-c3d5-48e8-b13d-cd8d49ba56d0","system_id":"levelo_inurba_marseille","lat":43.29029,"lon":5.38625,"is_reserved":false,"is_disabled":false,"rental_uris":{"android":"levelo://app?vid=f29f4159-c3d5-48e8-b13d-cd8d49ba56d0","ios":"levelo://app?vid=f29f4159-c3d5-48e8-b13d-cd8d49ba56d0"},"vehicle_type_id":"4","last_reported":1730837406,"current_range_meters":27600,"station_id":"ce4bh4p2rcd13ifvqe0g","pricing_plan_id":"cebpf4jnsgd1na2vs0mg"},{"bike_id":"d1ec9ded-db13-4234-8a87-b9e5453ca96c","system_id":"levelo_inurba_marseille","lat":43.28705,"lon":5.37384,"is_reserved":false,"is_disabled":false,"rental_uris":{"android":"levelo://app?vid=d1ec9ded-db13-4234-8a87-b9e5453ca96c","ios":"levelo://app?vid=d1ec9ded-db13-4234-8a87-b9e5453ca96c"},"vehicle_type_id":"4","last_reported":1730837406,"current_range_meters":32400,"station_id":"ce4bh3p2rcd13ifvqdq0","pricing_plan_id":"cebpf4jnsgd1na2vs0mg"},{"bike_id":"07b32d1e-1dd4-4029-b11e-bddc1e81d2f6","system_id":"levelo_inurba_marseille","lat":43.30424,"lon":5.38877,"is_reserved":false,"is_disabled":false,"rental_uris":{"android":"levelo://app?vid=07b32d1e-1dd4-4029-b11e-bddc1e81d2f6","ios":"levelo://app?vid=07b32d1e-1dd4-4029-b11e-bddc1e81d2f6"},"vehicle_type_id":"4","last_reported":1730837406,"current_range_meters":38400,"station_id":"ce4bgk12rcd13ifvqbi0","pricing_plan_id":"cebpf4jnsgd1na2vs0mg"},{"bike_id":"7d1cc712-4f0a-4d7c-a84c-f84148ad4c46","system_id":"levelo_inurba_marseille","lat":43.23154,"lon":5.43707,"is_reserved":false,"is_disabled":false,"rental_uris":{"android":"levelo://app?vid=7d1cc712-4f0a-4d7c-a84c-f84148ad4c46","ios":"levelo://app?vid=7d1cc712-4f0a-4d7c-a84c-f84148ad4c46"},"vehicle_type_id":"4","last_reported":1730837406,"current_range_meters":8400,"station_id":"ce4bhmp2rcd13ifvqgog","pricing_plan_id":"cebpf4jnsgd1na2vs0mg"},{"bike_id":"88b985b2-284f-4f9d-9144-31d13a720ace","system_id":"levelo_inurba_marseille","lat":43.31487,"lon":5.37302,"is_reserved":false,"is_disabled":false,"rental_uris":{"android":"levelo://app?vid=88b985b2-284f-4f9d-9144-31d13a720ace","ios":"levelo://app?vid=88b985b2-284f-4f9d-9144-31d13a720ace"},"vehicle_type_id":"4","last_reported":1730837406,"current_range_meters":39200,"station_id":"ce4bgt12rcd13ifvqcd0","pricing_plan_id":"cebpf4jnsgd1na2vs0mg"},{"bike_id":"4b13bab7-c0c7-4968-933d-e11c4c5aba2a","system_id":"levelo_inurba_marseille","lat":43.28348,"lon":5.38618,"is_reserved":false,"is_disabled":false,"rental_uris":{"android":"levelo://app?vid=4b13bab7-c0c7-4968-933d-e11c4c5aba2a","ios":"levelo://app?vid=4b13bab7-c0c7-4968-933d-e11c4c5aba2a"},"vehicle_type_id":"4","last_reported":1730837406,"current_range_meters":16400,"station_id":"ce4bh492rcd13ifvqdvg","pricing_plan_id":"cebpf4jnsgd1na2vs0mg"},{"bike_id":"d0410aa7-576b-4f67-8320-98caef843589","system_id":"levelo_inurba_marseille","lat":43.24181,"lon":5.39727,"is_reserved":false,"is_disabled":false,"rental_uris":{"android":"levelo://app?vid=d0410aa7-576b-4f67-8320-98caef843589","ios":"levelo://app?vid=d0410aa7-576b-4f67-8320-98caef843589"},"vehicle_type_id":"4","last_reported":1730837406,"current_range_meters":22000,"station_id":"ce4bhn12rcd13ifvqgpg","pricing_plan_id":"cebpf4jnsgd1na2vs0mg"},{"bike_id":"c18e3377-4dcd-4010-86ae-a2cf9f144b20","system_id":"levelo_inurba_marseille","lat":43.26557,"lon":5.37293,"is_reserved":false,"is_disabled":false,"rental_uris":{"android":"levelo://app?vid=c18e3377-4dcd-4010-86ae-a2cf9f144b20","ios":"levelo://app?vid=c18e3377-4dcd-4010-86ae-a2cf9f144b20"},"vehicle_type_id":"4","last_reported":1730837406,"current_range_meters":38000,"station_id":"ce4bhg12rcd13ifvqf70","pricing_plan_id":"cebpf4jnsgd1na2vs0mg"},{"bike_id":"6edcb5d2-dbf0-49f4-9f8b-5d93ccae943e","system_id":"levelo_inurba_marseille","lat":43.27901,"lon":5.3801,"is_reserved":false,"is_disabled":false,"rental_uris":{"android":"levelo://app?vid=6edcb5d2-dbf0-49f4-9f8b-5d93ccae943e","ios":"levelo://app?vid=6edcb5d2-dbf0-49f4-9f8b-5d93ccae943e"},"vehicle_type_id":"4","last_reported":1730837406,"current_range_meters":27600,"station_id":"ce4bhf92rcd13ifvqf50","pricing_plan_id":"cebpf4jnsgd1na2vs0mg"},{"bike_id":"340ee037-c5f9-4ff6-a16b-0e0f3098fa79","system_id":"levelo_inurba_marseille","lat":43.30463,"lon":5.40207,"is_reserved":false,"is_disabled":false,"rental_uris":{"android":"levelo://app?vid=340ee037-c5f9-4ff6-a16b-0e0f3098fa79","ios":"levelo://app?vid=340ee037-c5f9-4ff6-a16b-0e0f3098fa79"},"vehicle_type_id":"4","last_reported":1730837406,"current_range_meters":28800,"station_id":"","pricing_plan_id":"cebpf4jnsgd1na2vs0mg"},{"bike_id":"cbfa8997-b8c5-418c-b231-34e34b5f09dd","system_id":"levelo_inurba_marseille","lat":43.29042,"lon":5.35903,"is_reserved":false,"is_disabled":false,"rental_uris":{"android":"levelo://app?vid=cbfa8997-b8c5-418c-b231-34e34b5f09dd","ios":"levelo://app?vid=cbfa8997-b8c5-418c-b231-34e34b5f09dd"},"vehicle_type_id":"4","last_reported":1730837406,"current_range_meters":25200,"station_id":"ce4bh0p2rcd13ifvqd80","pricing_plan_id":"cebpf4jnsgd1na2vs0mg"},{"bike_id":"fb6e0097-609c-4a31-a37d-72d195a0407b","system_id":"levelo_inurba_marseille","lat":43.29864,"lon":5.39739,"is_reserved":false,"is_disabled":false,"rental_uris":{"android":"levelo://app?vid=fb6e0097-609c-4a31-a37d-72d195a0407b","ios":"levelo://app?vid=fb6e0097-609c-4a31-a37d-72d195a0407b"},"vehicle_type_id":"4","last_reported":1730837406,"current_range_meters":11600,"station_id":"ce4bh0h2rcd13ifvqd50","pricing_plan_id":"cebpf4jnsgd1na2vs0mg"},{"bike_id":"805205aa-6868-4ae4-a501-7a6b89146641","system_id":"levelo_inurba_marseille","lat":43.27494,"lon":5.42458,"is_reserved":false,"is_disabled":false,"rental_uris":{"android":"levelo://app?vid=805205aa-6868-4ae4-a501-7a6b89146641","ios":"levelo://app?vid=805205aa-6868-4ae4-a501-7a6b89146641"},"vehicle_type_id":"4","last_reported":1730837406,"current_range_meters":38800,"station_id":"ce4bhn92rcd13ifvqgrg","pricing_plan_id":"cebpf4jnsgd1na2vs0mg"},{"bike_id":"6025b22c-cc70-4829-8bb8-d8ee07a71061","system_id":"levelo_inurba_marseille","lat":43.28613,"lon":5.35105,"is_reserved":false,"is_disabled":false,"rental_uris":{"android":"levelo://app?vid=6025b22c-cc70-4829-8bb8-d8ee07a71061","ios":"levelo://app?vid=6025b22c-cc70-4829-8bb8-d8ee07a71061"},"vehicle_type_id":"4","last_reported":1730837406,"current_range_meters":32000,"station_id":"ce4bhch2rcd13ifvqeug","pricing_plan_id":"cebpf4jnsgd1na2vs0mg"},{"bike_id":"9a5224c4-fe49-47c3-87e1-c09e0b4a5524","system_id":"levelo_inurba_marseille","lat":43.29275,"lon":5.4012,"is_reserved":false,"is_disabled":false,"rental_uris":{"android":"levelo://app?vid=9a5224c4-fe49-47c3-87e1-c09e0b4a5524","ios":"levelo://app?vid=9a5224c4-fe49-47c3-87e1-c09e0b4a5524"},"vehicle_type_id":"4","last_reported":1730837406,"current_range_meters":38800,"station_id":"ce4bh312rcd13ifvqdk0","pricing_plan_id":"cebpf4jnsgd1na2vs0mg"},{"bike_id":"4d642ac2-a241-4ad5-8d70-e7a903766d29","system_id":"levelo_inurba_marseille","lat":43.29256,"lon":5.38446,"is_reserved":false,"is_disabled":false,"rental_uris":{"android":"levelo://app?vid=4d642ac2-a241-4ad5-8d70-e7a903766d29","ios":"levelo://app?vid=4d642ac2-a241-4ad5-8d70-e7a903766d29"},"vehicle_type_id":"4","last_reported":1730837406,"current_range_meters":22000,"station_id":"ce4bh692rcd13ifvqea0","pricing_plan_id":"cebpf4jnsgd1na2vs0mg"},{"bike_id":"9d9dc117-b422-4432-b305-2ee17862cef6","system_id":"levelo_inurba_marseille","lat":43.31207,"lon":5.36884,"is_reserved":false,"is_disabled":false,"rental_uris":{"android":"levelo://app?vid=9d9dc117-b422-4432-b305-2ee17862cef6","ios":"levelo://app?vid=9d9dc117-b422-4432-b305-2ee17862cef6"},"vehicle_type_id":"4","last_reported":1730837406,"current_range_meters":36400,"station_id":"ce4bgl92rcd13ifvqbq0","pricing_plan_id":"cebpf4jnsgd1na2vs0mg"},{"bike_id":"bf5b179f-7e08-4cba-8da7-5ae58ca010e6","system_id":"levelo_inurba_marseille","lat":43.3093,"lon":5.40146,"is_reserved":false,"is_disabled":false,"rental_uris":{"android":"levelo://app?vid=bf5b179f-7e08-4cba-8da7-5ae58ca010e6","ios":"levelo://app?vid=bf5b179f-7e08-4cba-8da7-5ae58ca010e6"},"vehicle_type_id":"4","last_reported":1730837406,"current_range_meters":8000,"station_id":"ce4bgvp2rcd13ifvqct0","pricing_plan_id":"cebpf4jnsgd1na2vs0mg"},{"bike_id":"f31240d0-c3f4-4812-852e-0a920e5415ae","system_id":"levelo_inurba_marseille","lat":43.27565,"lon":5.38421,"is_reserved":false,"is_disabled":false,"rental_uris":{"android":"levelo://app?vid=f31240d0-c3f4-4812-852e-0a920e5415ae","ios":"levelo://app?vid=f31240d0-c3f4-4812-852e-0a920e5415ae"},"vehicle_type_id":"4","last_reported":1730837406,"current_range_meters":12400,"station_id":"ce4bhh92rcd13ifvqfi0","pricing_plan_id":"cebpf4jnsgd1na2vs0mg"},{"bike_id":"1f9427b0-5fa1-48cb-9b31-8a0b0ffec652","system_id":"levelo_inurba_marseille","lat":43.29209,"lon":5.39317,"is_reserved":false,"is_disabled":false,"rental_uris":{"android":"levelo://app?vid=1f9427b0-5fa1-48cb-9b31-8a0b0ffec652","ios":"levelo://app?vid=1f9427b0-5fa1-48cb-9b31-8a0b0ffec652"},"vehicle_type_id":"4","last_reported":1730837406,"current_range_meters":10000,"station_id":"ce4bh192rcd13ifvqdd0","pricing_plan_id":"cebpf4jnsgd1na2vs0mg"},{"bike_id":"0258bbf0-99e3-4e04-afa2-1b7b24f40c6b","system_id":"levelo_inurba_marseille","lat":43.298,"lon":5.40399,"is_reserved":false,"is_disabled":false,"rental_uris":{"android":"levelo://app?vid=0258bbf0-99e3-4e04-afa2-1b7b24f40c6b","ios":"levelo://app?vid=0258bbf0-99e3-4e04-afa2-1b7b24f40c6b"},"vehicle_type_id":"4","last_reported":1730837406,"current_range_meters":18800,"station_id":"ce4bh112rcd13ifvqd90","pricing_plan_id":"cebpf4jnsgd1na2vs0mg"},{"bike_id":"c81391d5-8ce7-4302-ae8a-8334b81bd012","system_id":"levelo_inurba_marseille","lat":43.29259,"lon":5.38431,"is_reserved":false,"is_disabled":false,"rental_uris":{"android":"levelo://app?vid=c81391d5-8ce7-4302-ae8a-8334b81bd012","ios":"levelo://app?vid=c81391d5-8ce7-4302-ae8a-8334b81bd012"},"vehicle_type_id":"4","last_reported":1730837406,"current_range_meters":11200,"station_id":"ce4bh692rcd13ifvqea0","pricing_plan_id":"cebpf4jnsgd1na2vs0mg"},{"bike_id":"00db643c-5868-4206-be55-7a08f1b86e96","system_id":"levelo_inurba_marseille","lat":43.23176,"lon":5.39983,"is_reserved":false,"is_disabled":false,"rental_uris":{"android":"levelo://app?vid=00db643c-5868-4206-be55-7a08f1b86e96","ios":"levelo://app?vid=00db643c-5868-4206-be55-7a08f1b86e96"},"vehicle_type_id":"4","last_reported":1730837406,"current_range_meters":18000,"station_id":"ce4bhn12rcd13ifvqgqg","pricing_plan_id":"cebpf4jnsgd1na2vs0mg"},{"bike_id":"d00afa22-e710-4ccd-8af3-6081c206de99","system_id":"levelo_inurba_marseille","lat":43.29437,"lon":5.39744,"is_reserved":false,"is_disabled":false,"rental_uris":{"android":"levelo://app?vid=d00afa22-e710-4ccd-8af3-6081c206de99","ios":"levelo://app?vid=d00afa22-e710-4ccd-8af3-6081c206de99"},"vehicle_type_id":"4","last_reported":1730837406,"current_range_meters":31200,"station_id":"ce4bh3h2rcd13ifvqdo0","pricing_plan_id":"cebpf4jnsgd1na2vs0mg"},{"bike_id":"433faaf0-77db-4c9f-86e3-6e76821a671a","system_id":"levelo_inurba_marseille","lat":43.27548,"lon":5.38402,"is_reserved":false,"is_disabled":false,"rental_uris":{"android":"levelo://app?vid=433faaf0-77db-4c9f-86e3-6e76821a671a","ios":"levelo://app?vid=433faaf0-77db-4c9f-86e3-6e76821a671a"},"vehicle_type_id":"4","last_reported":1730837406,"current_range_meters":14800,"station_id":"ce4bhh92rcd13ifvqfi0","pricing_plan_id":"cebpf4jnsgd1na2vs0mg"},{"bike_id":"09ae89aa-d8fd-468f-94dc-9a05a884115a","system_id":"levelo_inurba_marseille","lat":43.24078,"lon":5.37763,"is_reserved":false,"is_disabled":false,"rental_uris":{"android":"levelo://app?vid=09ae89aa-d8fd-468f-94dc-9a05a884115a","ios":"levelo://app?vid=09ae89aa-d8fd-468f-94dc-9a05a884115a"},"vehicle_type_id":"4","last_reported":1730837406,"current_range_meters":22800,"station_id":"ce4bhnp2rcd13ifvqgvg","pricing_plan_id":"cebpf4jnsgd1na2vs0mg"},{"bike_id":"52c25e60-2363-4d65-8030-23a01b3f35b7","system_id":"levelo_inurba_marseille","lat":43.30603,"lon":5.37227,"is_reserved":false,"is_disabled":false,"rental_uris":{"android":"levelo://app?vid=52c25e60-2363-4d65-8030-23a01b3f35b7","ios":"levelo://app?vid=52c25e60-2363-4d65-8030-23a01b3f35b7"},"vehicle_type_id":"4","last_reported":1730837406,"current_range_meters":11600,"station_id":"ce4bgqh2rcd13ifvqc4g","pricing_plan_id":"cebpf4jnsgd1na2vs0mg"},{"bike_id":"aaa32c29-f262-40a8-a501-7418891001d4","system_id":"levelo_inurba_marseille","lat":43.2782,"lon":5.40719,"is_reserved":false,"is_disabled":false,"rental_uris":{"android":"levelo://app?vid=aaa32c29-f262-40a8-a501-7418891001d4","ios":"levelo://app?vid=aaa32c29-f262-40a8-a501-7418891001d4"},"vehicle_type_id":"4","last_reported":1730837406,"current_range_meters":38800,"station_id":"ce4bhnh2rcd13ifvqgtg","pricing_plan_id":"cebpf4jnsgd1na2vs0mg"},{"bike_id":"b44b0b48-9a85-405c-b983-dc9cb4802105","system_id":"levelo_inurba_marseille","lat":43.28571,"lon":5.39501,"is_reserved":false,"is_disabled":false,"rental_uris":{"android":"levelo://app?vid=b44b0b48-9a85-405c-b983-dc9cb4802105","ios":"levelo://app?vid=b44b0b48-9a85-405c-b983-dc9cb4802105"},"vehicle_type_id":"4","last_reported":1730837406,"current_range_meters":20800,"station_id":"ce4bh292rcd13ifvqdg0","pricing_plan_id":"cebpf4jnsgd1na2vs0mg"},{"bike_id":"814f224b-377e-4923-a420-cdcd4718352f","system_id":"levelo_inurba_marseille","lat":43.33019,"lon":5.39045,"is_reserved":false,"is_disabled":false,"rental_uris":{"android":"levelo://app?vid=814f224b-377e-4923-a420-cdcd4718352f","ios":"levelo://app?vid=814f224b-377e-4923-a420-cdcd4718352f"},"vehicle_type_id":"4","last_reported":1730837406,"current_range_meters":38800,"station_id":"ce4bhr92rcd13ifvqhrg","pricing_plan_id":"cebpf4jnsgd1na2vs0mg"},{"bike_id":"24cfecbd-66b8-4544-958f-abc060b7f45e","system_id":"levelo_inurba_marseille","lat":43.30889,"lon":5.37195,"is_reserved":false,"is_disabled":false,"rental_uris":{"android":"levelo://app?vid=24cfecbd-66b8-4544-958f-abc060b7f45e","ios":"levelo://app?vid=24cfecbd-66b8-4544-958f-abc060b7f45e"},"vehicle_type_id":"4","last_reported":1730837406,"current_range_meters":1600,"station_id":"ce4bguh2rcd13ifvqckg","pricing_plan_id":"cebpf4jnsgd1na2vs0mg"},{"bike_id":"22868da5-4c38-4ce5-8489-cbec9dcaa3b0","system_id":"levelo_inurba_marseille","lat":43.28029,"lon":5.36954,"is_reserved":false,"is_disabled":false,"rental_uris":{"android":"levelo://app?vid=22868da5-4c38-4ce5-8489-cbec9dcaa3b0","ios":"levelo://app?vid=22868da5-4c38-4ce5-8489-cbec9dcaa3b0"},"vehicle_type_id":"4","last_reported":1730837406,"current_range_meters":28000,"station_id":"ce4bha12rcd13ifvqef0","pricing_plan_id":"cebpf4jnsgd1na2vs0mg"},{"bike_id":"7ba1c308-cf7f-478b-be7c-91d09437c3cf","system_id":"levelo_inurba_marseille","lat":43.30795,"lon":5.38149,"is_reserved":false,"is_disabled":false,"rental_uris":{"android":"levelo://app?vid=7ba1c308-cf7f-478b-be7c-91d09437c3cf","ios":"levelo://app?vid=7ba1c308-cf7f-478b-be7c-91d09437c3cf"},"vehicle_type_id":"4","last_reported":1730837406,"current_range_meters":38800,"station_id":"ce4bgt12rcd13ifvqce0","pricing_plan_id":"cebpf4jnsgd1na2vs0mg"},{"bike_id":"3fcd25a5-ada3-4875-80ea-579fd69981b5","system_id":"levelo_inurba_marseille","lat":43.27071,"lon":5.4228,"is_reserved":false,"is_disabled":false,"rental_uris":{"android":"levelo://app?vid=3fcd25a5-ada3-4875-80ea-579fd69981b5","ios":"levelo://app?vid=3fcd25a5-ada3-4875-80ea-579fd69981b5"},"vehicle_type_id":"4","last_reported":1730837406,"current_range_meters":3600,"station_id":"ce4bhk92rcd13ifvqgb0","pricing_plan_id":"cebpf4jnsgd1na2vs0mg"},{"bike_id":"437037e9-de2d-4c1f-b6d8-074d1c9b96f5","system_id":"levelo_inurba_marseille","lat":43.307977,"lon":5.381513,"is_reserved":false,"is_disabled":false,"rental_uris":{"android":"levelo://app?vid=437037e9-de2d-4c1f-b6d8-074d1c9b96f5","ios":"levelo://app?vid=437037e9-de2d-4c1f-b6d8-074d1c9b96f5"},"vehicle_type_id":"4","last_reported":1730837406,"current_range_meters":12000,"station_id":"ce4bgt12rcd13ifvqce0","pricing_plan_id":"cebpf4jnsgd1na2vs0mg"},{"bike_id":"3c5ac311-90c7-4d2b-b377-c2b12c17ace3","system_id":"levelo_inurba_marseille","lat":43.32109,"lon":5.36774,"is_reserved":false,"is_disabled":false,"rental_uris":{"android":"levelo://app?vid=3c5ac311-90c7-4d2b-b377-c2b12c17ace3","ios":"levelo://app?vid=3c5ac311-90c7-4d2b-b377-c2b12c17ace3"},"vehicle_type_id":"4","last_reported":1730837406,"current_range_meters":12400,"station_id":"ce4bhrh2rcd13ifvqhug","pricing_plan_id":"cebpf4jnsgd1na2vs0mg"},{"bike_id":"38526b2a-8697-4aef-a174-e0c1be19b7a7","system_id":"levelo_inurba_marseille","lat":43.28845,"lon":5.35874,"is_reserved":false,"is_disabled":false,"rental_uris":{"android":"levelo://app?vid=38526b2a-8697-4aef-a174-e0c1be19b7a7","ios":"levelo://app?vid=38526b2a-8697-4aef-a174-e0c1be19b7a7"},"vehicle_type_id":"4","last_reported":1730837406,"current_range_meters":15200,"station_id":"ce4bhb12rcd13ifvqem0","pricing_plan_id":"cebpf4jnsgd1na2vs0mg"},{"bike_id":"da35fddd-6cbb-4e6c-9f9d-fb571fd29e9d","system_id":"levelo_inurba_marseille","lat":43.31072,"lon":5.38354,"is_reserved":false,"is_disabled":false,"rental_uris":{"android":"levelo://app?vid=da35fddd-6cbb-4e6c-9f9d-fb571fd29e9d","ios":"levelo://app?vid=da35fddd-6cbb-4e6c-9f9d-fb571fd29e9d"},"vehicle_type_id":"4","last_reported":1730837406,"current_range_meters":9600,"station_id":"ce4bgv92rcd13ifvqcr0","pricing_plan_id":"cebpf4jnsgd1na2vs0mg"},{"bike_id":"a98dc656-1033-49f7-ab4c-18b53d446b8c","system_id":"levelo_inurba_marseille","lat":43.28715,"lon":5.37939,"is_reserved":false,"is_disabled":false,"rental_uris":{"android":"levelo://app?vid=a98dc656-1033-49f7-ab4c-18b53d446b8c","ios":"levelo://app?vid=a98dc656-1033-49f7-ab4c-18b53d446b8c"},"vehicle_type_id":"4","last_reported":1730837406,"current_range_meters":38800,"station_id":"ce4bh9p2rcd13ifvqec0","pricing_plan_id":"cebpf4jnsgd1na2vs0mg"},{"bike_id":"bb10a7e5-28ee-4ce5-959a-fb4e69a519f8","system_id":"levelo_inurba_marseille","lat":43.28146,"lon":5.42641,"is_reserved":false,"is_disabled":false,"rental_uris":{"android":"levelo://app?vid=bb10a7e5-28ee-4ce5-959a-fb4e69a519f8","ios":"levelo://app?vid=bb10a7e5-28ee-4ce5-959a-fb4e69a519f8"},"vehicle_type_id":"4","last_reported":1730837406,"current_range_meters":26000,"station_id":"ce4bhnh2rcd13ifvqgug","pricing_plan_id":"cebpf4jnsgd1na2vs0mg"},{"bike_id":"3b336f68-e9cb-4a91-afff-e57d8f8fa6a7","system_id":"levelo_inurba_marseille","lat":43.27921,"lon":5.39573,"is_reserved":false,"is_disabled":false,"rental_uris":{"android":"levelo://app?vid=3b336f68-e9cb-4a91-afff-e57d8f8fa6a7","ios":"levelo://app?vid=3b336f68-e9cb-4a91-afff-e57d8f8fa6a7"},"vehicle_type_id":"4","last_reported":1730837406,"current_range_meters":32800,"station_id":"ce4bhf92rcd13ifvqf40","pricing_plan_id":"cebpf4jnsgd1na2vs0mg"},{"bike_id":"522a6059-8d67-4d7a-91eb-1847f2a9ecdf","system_id":"levelo_inurba_marseille","lat":43.286651,"lon":5.386719,"is_reserved":false,"is_disabled":false,"rental_uris":{"android":"levelo://app?vid=522a6059-8d67-4d7a-91eb-1847f2a9ecdf","ios":"levelo://app?vid=522a6059-8d67-4d7a-91eb-1847f2a9ecdf"},"vehicle_type_id":"4","last_reported":1730837406,"current_range_meters":13600,"station_id":"ce4bh3p2rcd13ifvqdp0","pricing_plan_id":"cebpf4jnsgd1na2vs0mg"},{"bike_id":"5b8bb2fb-1f89-4213-afcd-7b3734dbb455","system_id":"levelo_inurba_marseille","lat":43.29258,"lon":5.40909,"is_reserved":false,"is_disabled":false,"rental_uris":{"android":"levelo://app?vid=5b8bb2fb-1f89-4213-afcd-7b3734dbb455","ios":"levelo://app?vid=5b8bb2fb-1f89-4213-afcd-7b3734dbb455"},"vehicle_type_id":"4","last_reported":1730837406,"current_range_meters":2800,"station_id":"ce4bh192rcd13ifvqdc0","pricing_plan_id":"cebpf4jnsgd1na2vs0mg"},{"bike_id":"a712960b-1b51-4e2d-a833-f42b8d6c7db8","system_id":"levelo_inurba_marseille","lat":43.29896,"lon":5.43663,"is_reserved":false,"is_disabled":false,"rental_uris":{"android":"levelo://app?vid=a712960b-1b51-4e2d-a833-f42b8d6c7db8","ios":"levelo://app?vid=a712960b-1b51-4e2d-a833-f42b8d6c7db8"},"vehicle_type_id":"4","last_reported":1730837406,"current_range_meters":2800,"station_id":"ce4bhpp2rcd13ifvqhfg","pricing_plan_id":"cebpf4jnsgd1na2vs0mg"},{"bike_id":"72ac38b5-f296-4227-933d-d722153af882","system_id":"levelo_inurba_marseille","lat":43.289368,"lon":5.390458,"is_reserved":false,"is_disabled":false,"rental_uris":{"android":"levelo://app?vid=72ac38b5-f296-4227-933d-d722153af882","ios":"levelo://app?vid=72ac38b5-f296-4227-933d-d722153af882"},"vehicle_type_id":"4","last_reported":1730837406,"current_range_meters":12000,"station_id":"ce4bh192rcd13ifvqdd0","pricing_plan_id":"cebpf4jnsgd1na2vs0mg"},{"bike_id":"5d5df8cd-1e52-4c79-9e88-c08e2600eae7","system_id":"levelo_inurba_marseille","lat":43.31883,"lon":5.40732,"is_reserved":false,"is_disabled":false,"rental_uris":{"android":"levelo://app?vid=5d5df8cd-1e52-4c79-9e88-c08e2600eae7","ios":"levelo://app?vid=5d5df8cd-1e52-4c79-9e88-c08e2600eae7"},"vehicle_type_id":"4","last_reported":1730837406,"current_range_meters":16800,"station_id":"ce4bhq12rcd13ifvqhig","pricing_plan_id":"cebpf4jnsgd1na2vs0mg"},{"bike_id":"e3c140d3-7537-4c40-a1ce-58bf7c7e31f3","system_id":"levelo_inurba_marseille","lat":43.31487,"lon":5.37309,"is_reserved":false,"is_disabled":false,"rental_uris":{"android":"levelo://app?vid=e3c140d3-7537-4c40-a1ce-58bf7c7e31f3","ios":"levelo://app?vid=e3c140d3-7537-4c40-a1ce-58bf7c7e31f3"},"vehicle_type_id":"4","last_reported":1730837406,"current_range_meters":36800,"station_id":"ce4bgt12rcd13ifvqcd0","pricing_plan_id":"cebpf4jnsgd1na2vs0mg"},{"bike_id":"77f0f942-cc19-4114-9693-f96851c5cf8b","system_id":"levelo_inurba_marseille","lat":43.31074,"lon":5.38344,"is_reserved":false,"is_disabled":false,"rental_uris":{"android":"levelo://app?vid=77f0f942-cc19-4114-9693-f96851c5cf8b","ios":"levelo://app?vid=77f0f942-cc19-4114-9693-f96851c5cf8b"},"vehicle_type_id":"4","last_reported":1730837406,"current_range_meters":15200,"station_id":"ce4bgv92rcd13ifvqcr0","pricing_plan_id":"cebpf4jnsgd1na2vs0mg"},{"bike_id":"1600515d-2cf9-44bb-9b6a-9c97b427f289","system_id":"levelo_inurba_marseille","lat":43.31068,"lon":5.38352,"is_reserved":false,"is_disabled":false,"rental_uris":{"android":"levelo://app?vid=1600515d-2cf9-44bb-9b6a-9c97b427f289","ios":"levelo://app?vid=1600515d-2cf9-44bb-9b6a-9c97b427f289"},"vehicle_type_id":"4","last_reported":1730837406,"current_range_meters":29600,"station_id":"ce4bgv92rcd13ifvqcr0","pricing_plan_id":"cebpf4jnsgd1na2vs0mg"},{"bike_id":"27722e76-3dba-4279-8ed2-7e67ed916ac6","system_id":"levelo_inurba_marseille","lat":43.30219,"lon":5.39462,"is_reserved":false,"is_disabled":false,"rental_uris":{"android":"levelo://app?vid=27722e76-3dba-4279-8ed2-7e67ed916ac6","ios":"levelo://app?vid=27722e76-3dba-4279-8ed2-7e67ed916ac6"},"vehicle_type_id":"4","last_reported":1730837406,"current_range_meters":8000,"station_id":"ce4bh0p2rcd13ifvqd70","pricing_plan_id":"cebpf4jnsgd1na2vs0mg"},{"bike_id":"4637494c-d835-40cb-b4c8-e607b694799f","system_id":"levelo_inurba_marseille","lat":43.25108,"lon":5.40323,"is_reserved":false,"is_disabled":false,"rental_uris":{"android":"levelo://app?vid=4637494c-d835-40cb-b4c8-e607b694799f","ios":"levelo://app?vid=4637494c-d835-40cb-b4c8-e607b694799f"},"vehicle_type_id":"4","last_reported":1730837406,"current_range_meters":38800,"station_id":"ce4bhlh2rcd13ifvqgig","pricing_plan_id":"cebpf4jnsgd1na2vs0mg"},{"bike_id":"f31dd577-0cf3-4a5d-bfb1-88995244e61a","system_id":"levelo_inurba_marseille","lat":43.29207,"lon":5.39326,"is_reserved":false,"is_disabled":false,"rental_uris":{"android":"levelo://app?vid=f31dd577-0cf3-4a5d-bfb1-88995244e61a","ios":"levelo://app?vid=f31dd577-0cf3-4a5d-bfb1-88995244e61a"},"vehicle_type_id":"4","last_reported":1730837406,"current_range_meters":38800,"station_id":"ce4bh192rcd13ifvqdd0","pricing_plan_id":"cebpf4jnsgd1na2vs0mg"},{"bike_id":"115faa9b-d432-4765-b4c8-112a3cb07d60","system_id":"levelo_inurba_marseille","lat":43.31079,"lon":5.42433,"is_reserved":false,"is_disabled":false,"rental_uris":{"android":"levelo://app?vid=115faa9b-d432-4765-b4c8-112a3cb07d60","ios":"levelo://app?vid=115faa9b-d432-4765-b4c8-112a3cb07d60"},"vehicle_type_id":"4","last_reported":1730837406,"current_range_meters":3200,"station_id":"ce4bhp92rcd13ifvqhag","pricing_plan_id":"cebpf4jnsgd1na2vs0mg"},{"bike_id":"1990cf06-be82-42e4-b021-0351a503878b","system_id":"levelo_inurba_marseille","lat":43.31166,"lon":5.38722,"is_reserved":false,"is_disabled":false,"rental_uris":{"android":"levelo://app?vid=1990cf06-be82-42e4-b021-0351a503878b","ios":"levelo://app?vid=1990cf06-be82-42e4-b021-0351a503878b"},"vehicle_type_id":"4","last_reported":1730837406,"current_range_meters":23200,"station_id":"ce4bgv12rcd13ifvqcp0","pricing_plan_id":"cebpf4jnsgd1na2vs0mg"},{"bike_id":"13b1728a-6ba8-4697-b953-7d5c1172b1be","system_id":"levelo_inurba_marseille","lat":43.29434,"lon":5.39755,"is_reserved":false,"is_disabled":false,"rental_uris":{"android":"levelo://app?vid=13b1728a-6ba8-4697-b953-7d5c1172b1be","ios":"levelo://app?vid=13b1728a-6ba8-4697-b953-7d5c1172b1be"},"vehicle_type_id":"4","last_reported":1730837406,"current_range_meters":38800,"station_id":"ce4bh3h2rcd13ifvqdo0","pricing_plan_id":"cebpf4jnsgd1na2vs0mg"},{"bike_id":"71ab47da-bfae-4dbc-83e1-967e92288ca2","system_id":"levelo_inurba_marseille","lat":43.2903,"lon":5.38636,"is_reserved":false,"is_disabled":false,"rental_uris":{"android":"levelo://app?vid=71ab47da-bfae-4dbc-83e1-967e92288ca2","ios":"levelo://app?vid=71ab47da-bfae-4dbc-83e1-967e92288ca2"},"vehicle_type_id":"4","last_reported":1730837406,"current_range_meters":11200,"station_id":"ce4bh4p2rcd13ifvqe0g","pricing_plan_id":"cebpf4jnsgd1na2vs0mg"},{"bike_id":"1b65a157-e688-4366-b781-5253fc541a10","system_id":"levelo_inurba_marseille","lat":43.27074,"lon":5.42278,"is_reserved":false,"is_disabled":false,"rental_uris":{"android":"levelo://app?vid=1b65a157-e688-4366-b781-5253fc541a10","ios":"levelo://app?vid=1b65a157-e688-4366-b781-5253fc541a10"},"vehicle_type_id":"4","last_reported":1730837406,"current_range_meters":38800,"station_id":"ce4bhk92rcd13ifvqgb0","pricing_plan_id":"cebpf4jnsgd1na2vs0mg"},{"bike_id":"d411cf03-cce4-4b68-b4d2-e257e743e03b","system_id":"levelo_inurba_marseille","lat":43.3107,"lon":5.38347,"is_reserved":false,"is_disabled":false,"rental_uris":{"android":"levelo://app?vid=d411cf03-cce4-4b68-b4d2-e257e743e03b","ios":"levelo://app?vid=d411cf03-cce4-4b68-b4d2-e257e743e03b"},"vehicle_type_id":"4","last_reported":1730837406,"current_range_meters":9600,"station_id":"ce4bgv92rcd13ifvqcr0","pricing_plan_id":"cebpf4jnsgd1na2vs0mg"},{"bike_id":"88517558-54f6-43fe-803b-cdf890699cfd","system_id":"levelo_inurba_marseille","lat":43.29524,"lon":5.394,"is_reserved":false,"is_disabled":false,"rental_uris":{"android":"levelo://app?vid=88517558-54f6-43fe-803b-cdf890699cfd","ios":"levelo://app?vid=88517558-54f6-43fe-803b-cdf890699cfd"},"vehicle_type_id":"4","last_reported":1730837406,"current_range_meters":38000,"station_id":"ce4bh292rcd13ifvqdf0","pricing_plan_id":"cebpf4jnsgd1na2vs0mg"},{"bike_id":"70e0d61b-4d76-49a8-a13c-d24eda1de38e","system_id":"levelo_inurba_marseille","lat":43.29437,"lon":5.39743,"is_reserved":false,"is_disabled":false,"rental_uris":{"android":"levelo://app?vid=70e0d61b-4d76-49a8-a13c-d24eda1de38e","ios":"levelo://app?vid=70e0d61b-4d76-49a8-a13c-d24eda1de38e"},"vehicle_type_id":"4","last_reported":1730837406,"current_range_meters":35200,"station_id":"ce4bh3h2rcd13ifvqdo0","pricing_plan_id":"cebpf4jnsgd1na2vs0mg"},{"bike_id":"c3cc4d3c-939d-4f3c-b1cc-4aa798cb58cc","system_id":"levelo_inurba_marseille","lat":43.28863,"lon":5.35871,"is_reserved":false,"is_disabled":false,"rental_uris":{"android":"levelo://app?vid=c3cc4d3c-939d-4f3c-b1cc-4aa798cb58cc","ios":"levelo://app?vid=c3cc4d3c-939d-4f3c-b1cc-4aa798cb58cc"},"vehicle_type_id":"4","last_reported":1730837406,"current_range_meters":38800,"station_id":"ce4bhb12rcd13ifvqem0","pricing_plan_id":"cebpf4jnsgd1na2vs0mg"},{"bike_id":"dacb3127-cf48-43ba-ac28-e87e8fb962d2","system_id":"levelo_inurba_marseille","lat":43.24073,"lon":5.37762,"is_reserved":false,"is_disabled":false,"rental_uris":{"android":"levelo://app?vid=dacb3127-cf48-43ba-ac28-e87e8fb962d2","ios":"levelo://app?vid=dacb3127-cf48-43ba-ac28-e87e8fb962d2"},"vehicle_type_id":"4","last_reported":1730837406,"current_range_meters":9600,"station_id":"ce4bhnp2rcd13ifvqgvg","pricing_plan_id":"cebpf4jnsgd1na2vs0mg"},{"bike_id":"48cee784-fb0f-4b7c-947c-7970055ea2bb","system_id":"levelo_inurba_marseille","lat":43.27181,"lon":5.40996,"is_reserved":false,"is_disabled":false,"rental_uris":{"android":"levelo://app?vid=48cee784-fb0f-4b7c-947c-7970055ea2bb","ios":"levelo://app?vid=48cee784-fb0f-4b7c-947c-7970055ea2bb"},"vehicle_type_id":"4","last_reported":1730837406,"current_range_meters":38800,"station_id":"ce4bhl12rcd13ifvqgf0","pricing_plan_id":"cebpf4jnsgd1na2vs0mg"},{"bike_id":"afce958e-c83c-4b70-a2e0-54c65d8b1ce1","system_id":"levelo_inurba_marseille","lat":43.31489,"lon":5.3731,"is_reserved":false,"is_disabled":false,"rental_uris":{"android":"levelo://app?vid=afce958e-c83c-4b70-a2e0-54c65d8b1ce1","ios":"levelo://app?vid=afce958e-c83c-4b70-a2e0-54c65d8b1ce1"},"vehicle_type_id":"4","last_reported":1730837406,"current_range_meters":20400,"station_id":"ce4bgt12rcd13ifvqcd0","pricing_plan_id":"cebpf4jnsgd1na2vs0mg"},{"bike_id":"0a3c1a6b-eadc-4e53-adb5-ce60bbc39060","system_id":"levelo_inurba_marseille","lat":43.33017,"lon":5.3903,"is_reserved":false,"is_disabled":false,"rental_uris":{"android":"levelo://app?vid=0a3c1a6b-eadc-4e53-adb5-ce60bbc39060","ios":"levelo://app?vid=0a3c1a6b-eadc-4e53-adb5-ce60bbc39060"},"vehicle_type_id":"4","last_reported":1730837406,"current_range_meters":38800,"station_id":"ce4bhr92rcd13ifvqhrg","pricing_plan_id":"cebpf4jnsgd1na2vs0mg"},{"bike_id":"26ea0f37-1e7c-4514-b982-4b05c623ab14","system_id":"levelo_inurba_marseille","lat":43.27495,"lon":5.42452,"is_reserved":false,"is_disabled":false,"rental_uris":{"android":"levelo://app?vid=26ea0f37-1e7c-4514-b982-4b05c623ab14","ios":"levelo://app?vid=26ea0f37-1e7c-4514-b982-4b05c623ab14"},"vehicle_type_id":"4","last_reported":1730837406,"current_range_meters":10800,"station_id":"ce4bhn92rcd13ifvqgrg","pricing_plan_id":"cebpf4jnsgd1na2vs0mg"},{"bike_id":"860e9341-73cd-4af7-8d0d-80edc0329392","system_id":"levelo_inurba_marseille","lat":43.27562,"lon":5.38415,"is_reserved":false,"is_disabled":false,"rental_uris":{"android":"levelo://app?vid=860e9341-73cd-4af7-8d0d-80edc0329392","ios":"levelo://app?vid=860e9341-73cd-4af7-8d0d-80edc0329392"},"vehicle_type_id":"4","last_reported":1730837406,"current_range_meters":20000,"station_id":"ce4bhh92rcd13ifvqfi0","pricing_plan_id":"cebpf4jnsgd1na2vs0mg"},{"bike_id":"88df618d-fe06-4b83-85dc-8634ccb5e3be","system_id":"levelo_inurba_marseille","lat":43.28932,"lon":5.38392,"is_reserved":false,"is_disabled":false,"rental_uris":{"android":"levelo://app?vid=88df618d-fe06-4b83-85dc-8634ccb5e3be","ios":"levelo://app?vid=88df618d-fe06-4b83-85dc-8634ccb5e3be"},"vehicle_type_id":"4","last_reported":1730837406,"current_range_meters":14400,"station_id":"ce4bh612rcd13ifvqe6g","pricing_plan_id":"cebpf4jnsgd1na2vs0mg"},{"bike_id":"579d8bdf-a091-4544-8309-5b69598bf471","system_id":"levelo_inurba_marseille","lat":43.29257,"lon":5.38443,"is_reserved":false,"is_disabled":false,"rental_uris":{"android":"levelo://app?vid=579d8bdf-a091-4544-8309-5b69598bf471","ios":"levelo://app?vid=579d8bdf-a091-4544-8309-5b69598bf471"},"vehicle_type_id":"4","last_reported":1730837406,"current_range_meters":6800,"station_id":"ce4bh692rcd13ifvqea0","pricing_plan_id":"cebpf4jnsgd1na2vs0mg"},{"bike_id":"5508b02d-fd20-4336-b4b3-1d4e07743d69","system_id":"levelo_inurba_marseille","lat":43.29418,"lon":5.38635,"is_reserved":false,"is_disabled":false,"rental_uris":{"android":"levelo://app?vid=5508b02d-fd20-4336-b4b3-1d4e07743d69","ios":"levelo://app?vid=5508b02d-fd20-4336-b4b3-1d4e07743d69"},"vehicle_type_id":"4","last_reported":1730837406,"current_range_meters":38800,"station_id":"ce4bh2h2rcd13ifvqdh0","pricing_plan_id":"cebpf4jnsgd1na2vs0mg"},{"bike_id":"da372a03-d076-41b6-83cc-c82655fa4d8b","system_id":"levelo_inurba_marseille","lat":43.32659,"lon":5.40991,"is_reserved":false,"is_disabled":false,"rental_uris":{"android":"levelo://app?vid=da372a03-d076-41b6-83cc-c82655fa4d8b","ios":"levelo://app?vid=da372a03-d076-41b6-83cc-c82655fa4d8b"},"vehicle_type_id":"4","last_reported":1730837406,"current_range_meters":38800,"station_id":"ce4bhpp2rcd13ifvqhgg","pricing_plan_id":"cebpf4jnsgd1na2vs0mg"},{"bike_id":"671ee801-ed83-4222-b723-723fea4dce62","system_id":"levelo_inurba_marseille","lat":43.27847,"lon":5.40713,"is_reserved":false,"is_disabled":false,"rental_uris":{"android":"levelo://app?vid=671ee801-ed83-4222-b723-723fea4dce62","ios":"levelo://app?vid=671ee801-ed83-4222-b723-723fea4dce62"},"vehicle_type_id":"4","last_reported":1730837406,"current_range_meters":33600,"station_id":"ce4bhnh2rcd13ifvqgtg","pricing_plan_id":"cebpf4jnsgd1na2vs0mg"},{"bike_id":"818f01a2-70c1-4282-8f3e-a5df75b74421","system_id":"levelo_inurba_marseille","lat":43.23152,"lon":5.43708,"is_reserved":false,"is_disabled":false,"rental_uris":{"android":"levelo://app?vid=818f01a2-70c1-4282-8f3e-a5df75b74421","ios":"levelo://app?vid=818f01a2-70c1-4282-8f3e-a5df75b74421"},"vehicle_type_id":"4","last_reported":1730837406,"current_range_meters":19600,"station_id":"ce4bhmp2rcd13ifvqgog","pricing_plan_id":"cebpf4jnsgd1na2vs0mg"},{"bike_id":"3e867c82-b027-406e-8963-ee0a6178c49d","system_id":"levelo_inurba_marseille","lat":43.28942,"lon":5.36641,"is_reserved":false,"is_disabled":false,"rental_uris":{"android":"levelo://app?vid=3e867c82-b027-406e-8963-ee0a6178c49d","ios":"levelo://app?vid=3e867c82-b027-406e-8963-ee0a6178c49d"},"vehicle_type_id":"4","last_reported":1730837406,"current_range_meters":38000,"station_id":"ce4bhap2rcd13ifvqek0","pricing_plan_id":"cebpf4jnsgd1na2vs0mg"},{"bike_id":"333b0aae-276c-4843-ac1a-6be197ab7b09","system_id":"levelo_inurba_marseille","lat":43.28339,"lon":5.38109,"is_reserved":false,"is_disabled":false,"rental_uris":{"android":"levelo://app?vid=333b0aae-276c-4843-ac1a-6be197ab7b09","ios":"levelo://app?vid=333b0aae-276c-4843-ac1a-6be197ab7b09"},"vehicle_type_id":"4","last_reported":1730837406,"current_range_meters":38800,"station_id":"ce4bh412rcd13ifvqdr0","pricing_plan_id":"cebpf4jnsgd1na2vs0mg"},{"bike_id":"8770241d-63e5-44fd-b573-c66afef6a3ba","system_id":"levelo_inurba_marseille","lat":43.29215,"lon":5.39327,"is_reserved":false,"is_disabled":false,"rental_uris":{"android":"levelo://app?vid=8770241d-63e5-44fd-b573-c66afef6a3ba","ios":"levelo://app?vid=8770241d-63e5-44fd-b573-c66afef6a3ba"},"vehicle_type_id":"4","last_reported":1730837406,"current_range_meters":38400,"station_id":"ce4bh192rcd13ifvqdd0","pricing_plan_id":"cebpf4jnsgd1na2vs0mg"},{"bike_id":"9bc87e04-8a5b-4fcc-8519-de6ebc161855","system_id":"levelo_inurba_marseille","lat":43.29783,"lon":5.38112,"is_reserved":false,"is_disabled":false,"rental_uris":{"android":"levelo://app?vid=9bc87e04-8a5b-4fcc-8519-de6ebc161855","ios":"levelo://app?vid=9bc87e04-8a5b-4fcc-8519-de6ebc161855"},"vehicle_type_id":"4","last_reported":1730837406,"current_range_meters":15200,"station_id":"ce4bgip2rcd13ifvqbb0","pricing_plan_id":"cebpf4jnsgd1na2vs0mg"},{"bike_id":"653282c5-fb28-4547-93d8-4e1ea243cf74","system_id":"levelo_inurba_marseille","lat":43.29886,"lon":5.3889,"is_reserved":false,"is_disabled":false,"rental_uris":{"android":"levelo://app?vid=653282c5-fb28-4547-93d8-4e1ea243cf74","ios":"levelo://app?vid=653282c5-fb28-4547-93d8-4e1ea243cf74"},"vehicle_type_id":"4","last_reported":1730837406,"current_range_meters":35600,"station_id":"ce4bh392rcd13ifvqdl0","pricing_plan_id":"cebpf4jnsgd1na2vs0mg"},{"bike_id":"1be6e434-9504-4264-aa18-882d7981ff78","system_id":"levelo_inurba_marseille","lat":43.25856,"lon":5.39897,"is_reserved":false,"is_disabled":false,"rental_uris":{"android":"levelo://app?vid=1be6e434-9504-4264-aa18-882d7981ff78","ios":"levelo://app?vid=1be6e434-9504-4264-aa18-882d7981ff78"},"vehicle_type_id":"4","last_reported":1730837406,"current_range_meters":12400,"station_id":"ce4bhl92rcd13ifvqghg","pricing_plan_id":"cebpf4jnsgd1na2vs0mg"},{"bike_id":"83675056-f7fe-445c-8154-3884f1a3657c","system_id":"levelo_inurba_marseille","lat":43.24071,"lon":5.37768,"is_reserved":false,"is_disabled":false,"rental_uris":{"android":"levelo://app?vid=83675056-f7fe-445c-8154-3884f1a3657c","ios":"levelo://app?vid=83675056-f7fe-445c-8154-3884f1a3657c"},"vehicle_type_id":"4","last_reported":1730837406,"current_range_meters":32800,"station_id":"ce4bhnp2rcd13ifvqgvg","pricing_plan_id":"cebpf4jnsgd1na2vs0mg"},{"bike_id":"fb80da5c-22b7-4292-9b81-2133b237c45e","system_id":"levelo_inurba_marseille","lat":43.29526,"lon":5.38538,"is_reserved":false,"is_disabled":false,"rental_uris":{"android":"levelo://app?vid=fb80da5c-22b7-4292-9b81-2133b237c45e","ios":"levelo://app?vid=fb80da5c-22b7-4292-9b81-2133b237c45e"},"vehicle_type_id":"4","last_reported":1730837406,"current_range_meters":30400,"station_id":"ce4bgih2rcd13ifvqba0","pricing_plan_id":"cebpf4jnsgd1na2vs0mg"},{"bike_id":"ebeb89f9-416e-487c-98db-accaa64ac807","system_id":"levelo_inurba_marseille","lat":43.28031,"lon":5.36948,"is_reserved":false,"is_disabled":false,"rental_uris":{"android":"levelo://app?vid=ebeb89f9-416e-487c-98db-accaa64ac807","ios":"levelo://app?vid=ebeb89f9-416e-487c-98db-accaa64ac807"},"vehicle_type_id":"4","last_reported":1730837406,"current_range_meters":16800,"station_id":"ce4bha12rcd13ifvqef0","pricing_plan_id":"cebpf4jnsgd1na2vs0mg"},{"bike_id":"7caad74d-aa77-4efc-940d-73314ceab0d0","system_id":"levelo_inurba_marseille","lat":43.28347,"lon":5.38103,"is_reserved":false,"is_disabled":false,"rental_uris":{"android":"levelo://app?vid=7caad74d-aa77-4efc-940d-73314ceab0d0","ios":"levelo://app?vid=7caad74d-aa77-4efc-940d-73314ceab0d0"},"vehicle_type_id":"4","last_reported":1730837406,"current_range_meters":39200,"station_id":"ce4bh412rcd13ifvqdr0","pricing_plan_id":"cebpf4jnsgd1na2vs0mg"},{"bike_id":"9048ebe6-0239-470a-af7d-c5634530ba1b","system_id":"levelo_inurba_marseille","lat":43.33024,"lon":5.39042,"is_reserved":false,"is_disabled":false,"rental_uris":{"android":"levelo://app?vid=9048ebe6-0239-470a-af7d-c5634530ba1b","ios":"levelo://app?vid=9048ebe6-0239-470a-af7d-c5634530ba1b"},"vehicle_type_id":"4","last_reported":1730837406,"current_range_meters":24400,"station_id":"ce4bhr92rcd13ifvqhrg","pricing_plan_id":"cebpf4jnsgd1na2vs0mg"},{"bike_id":"10e2d582-7a70-4bd2-be93-9125bb96da1e","system_id":"levelo_inurba_marseille","lat":43.2942,"lon":5.3863,"is_reserved":false,"is_disabled":false,"rental_uris":{"android":"levelo://app?vid=10e2d582-7a70-4bd2-be93-9125bb96da1e","ios":"levelo://app?vid=10e2d582-7a70-4bd2-be93-9125bb96da1e"},"vehicle_type_id":"4","last_reported":1730837406,"current_range_meters":38800,"station_id":"ce4bh2h2rcd13ifvqdh0","pricing_plan_id":"cebpf4jnsgd1na2vs0mg"},{"bike_id":"1d27b3a1-f13e-4920-8c40-27faf2c97a48","system_id":"levelo_inurba_marseille","lat":43.23194,"lon":5.35552,"is_reserved":false,"is_disabled":false,"rental_uris":{"android":"levelo://app?vid=1d27b3a1-f13e-4920-8c40-27faf2c97a48","ios":"levelo://app?vid=1d27b3a1-f13e-4920-8c40-27faf2c97a48"},"vehicle_type_id":"4","last_reported":1730837406,"current_range_meters":38800,"station_id":"ce4bhu92rcd13ifvqi70","pricing_plan_id":"cebpf4jnsgd1na2vs0mg"},{"bike_id":"0e6adf64-635e-40e8-93e1-b384407d876d","system_id":"levelo_inurba_marseille","lat":43.29557,"lon":5.42281,"is_reserved":false,"is_disabled":false,"rental_uris":{"android":"levelo://app?vid=0e6adf64-635e-40e8-93e1-b384407d876d","ios":"levelo://app?vid=0e6adf64-635e-40e8-93e1-b384407d876d"},"vehicle_type_id":"4","last_reported":1730837406,"current_range_meters":38800,"station_id":"ce4bhph2rcd13ifvqhdg","pricing_plan_id":"cebpf4jnsgd1na2vs0mg"},{"bike_id":"bd08f002-a60e-42bd-8784-df578e93bddc","system_id":"levelo_inurba_marseille","lat":43.23952,"lon":5.3665,"is_reserved":false,"is_disabled":false,"rental_uris":{"android":"levelo://app?vid=bd08f002-a60e-42bd-8784-df578e93bddc","ios":"levelo://app?vid=bd08f002-a60e-42bd-8784-df578e93bddc"},"vehicle_type_id":"4","last_reported":1730837406,"current_range_meters":11200,"station_id":"ce4bhi12rcd13ifvqfp0","pricing_plan_id":"cebpf4jnsgd1na2vs0mg"},{"bike_id":"c4d3104c-cd03-4265-b61d-d967c6e962c2","system_id":"levelo_inurba_marseille","lat":43.30464,"lon":5.3791,"is_reserved":false,"is_disabled":false,"rental_uris":{"android":"levelo://app?vid=c4d3104c-cd03-4265-b61d-d967c6e962c2","ios":"levelo://app?vid=c4d3104c-cd03-4265-b61d-d967c6e962c2"},"vehicle_type_id":"4","last_reported":1730837406,"current_range_meters":24800,"station_id":"ce4bgup2rcd13ifvqcn0","pricing_plan_id":"cebpf4jnsgd1na2vs0mg"},{"bike_id":"b2a201f8-3cd5-4b26-96c1-71715b360909","system_id":"levelo_inurba_marseille","lat":43.2827,"lon":5.35077,"is_reserved":false,"is_disabled":false,"rental_uris":{"android":"levelo://app?vid=b2a201f8-3cd5-4b26-96c1-71715b360909","ios":"levelo://app?vid=b2a201f8-3cd5-4b26-96c1-71715b360909"},"vehicle_type_id":"4","last_reported":1730837406,"current_range_meters":15200,"station_id":"ce4bhbp2rcd13ifvqerg","pricing_plan_id":"cebpf4jnsgd1na2vs0mg"},{"bike_id":"f6bcaf4d-6032-4ab5-be14-85a40c9ecc6c","system_id":"levelo_inurba_marseille","lat":43.29528,"lon":5.38539,"is_reserved":false,"is_disabled":false,"rental_uris":{"android":"levelo://app?vid=f6bcaf4d-6032-4ab5-be14-85a40c9ecc6c","ios":"levelo://app?vid=f6bcaf4d-6032-4ab5-be14-85a40c9ecc6c"},"vehicle_type_id":"4","last_reported":1730837406,"current_range_meters":38800,"station_id":"ce4bgih2rcd13ifvqba0","pricing_plan_id":"cebpf4jnsgd1na2vs0mg"},{"bike_id":"dda0ab10-f2a2-45f5-9271-e032dbc6687a","system_id":"levelo_inurba_marseille","lat":43.3078,"lon":5.37658,"is_reserved":false,"is_disabled":false,"rental_uris":{"android":"levelo://app?vid=dda0ab10-f2a2-45f5-9271-e032dbc6687a","ios":"levelo://app?vid=dda0ab10-f2a2-45f5-9271-e032dbc6687a"},"vehicle_type_id":"4","last_reported":1730837406,"current_range_meters":38800,"station_id":"ce4bgv92rcd13ifvqcq0","pricing_plan_id":"cebpf4jnsgd1na2vs0mg"},{"bike_id":"e7874ce2-f692-46c5-87b4-56890b100158","system_id":"levelo_inurba_marseille","lat":43.23064,"lon":5.35496,"is_reserved":false,"is_disabled":false,"rental_uris":{"android":"levelo://app?vid=e7874ce2-f692-46c5-87b4-56890b100158","ios":"levelo://app?vid=e7874ce2-f692-46c5-87b4-56890b100158"},"vehicle_type_id":"4","last_reported":1730837406,"current_range_meters":38800,"station_id":"cpo3342slgdg3j2ifvpg","pricing_plan_id":"cebpf4jnsgd1na2vs0mg"},{"bike_id":"3d66523d-b009-4de8-bcd1-7b4c4b4cf6e5","system_id":"levelo_inurba_marseille","lat":43.28271,"lon":5.35073,"is_reserved":false,"is_disabled":false,"rental_uris":{"android":"levelo://app?vid=3d66523d-b009-4de8-bcd1-7b4c4b4cf6e5","ios":"levelo://app?vid=3d66523d-b009-4de8-bcd1-7b4c4b4cf6e5"},"vehicle_type_id":"4","last_reported":1730837406,"current_range_meters":7200,"station_id":"ce4bhbp2rcd13ifvqerg","pricing_plan_id":"cebpf4jnsgd1na2vs0mg"},{"bike_id":"c27f541d-823a-425a-87e3-5e085fa29210","system_id":"levelo_inurba_marseille","lat":43.30116,"lon":5.39854,"is_reserved":false,"is_disabled":false,"rental_uris":{"android":"levelo://app?vid=c27f541d-823a-425a-87e3-5e085fa29210","ios":"levelo://app?vid=c27f541d-823a-425a-87e3-5e085fa29210"},"vehicle_type_id":"4","last_reported":1730837406,"current_range_meters":38400,"station_id":"ce4bh0h2rcd13ifvqd40","pricing_plan_id":"cebpf4jnsgd1na2vs0mg"},{"bike_id":"e773c717-c134-4ecb-8137-3d1d07767c8b","system_id":"levelo_inurba_marseille","lat":43.31272,"lon":5.40166,"is_reserved":false,"is_disabled":false,"rental_uris":{"android":"levelo://app?vid=e773c717-c134-4ecb-8137-3d1d07767c8b","ios":"levelo://app?vid=e773c717-c134-4ecb-8137-3d1d07767c8b"},"vehicle_type_id":"4","last_reported":1730837406,"current_range_meters":3200,"station_id":"ce4bh092rcd13ifvqd30","pricing_plan_id":"cebpf4jnsgd1na2vs0mg"},{"bike_id":"ca733156-7df9-4447-91cc-fbefd3868079","system_id":"levelo_inurba_marseille","lat":43.2903,"lon":5.39972,"is_reserved":false,"is_disabled":false,"rental_uris":{"android":"levelo://app?vid=ca733156-7df9-4447-91cc-fbefd3868079","ios":"levelo://app?vid=ca733156-7df9-4447-91cc-fbefd3868079"},"vehicle_type_id":"4","last_reported":1730837406,"current_range_meters":24400,"station_id":"ce4bh392rcd13ifvqdm0","pricing_plan_id":"cebpf4jnsgd1na2vs0mg"},{"bike_id":"4e9078bc-bc86-41b0-88b1-feae4c3c5785","system_id":"levelo_inurba_marseille","lat":43.24806,"lon":5.37456,"is_reserved":false,"is_disabled":false,"rental_uris":{"android":"levelo://app?vid=4e9078bc-bc86-41b0-88b1-feae4c3c5785","ios":"levelo://app?vid=4e9078bc-bc86-41b0-88b1-feae4c3c5785"},"vehicle_type_id":"4","last_reported":1730837406,"current_range_meters":20800,"station_id":"ce4bhgh2rcd13ifvqfb0","pricing_plan_id":"cebpf4jnsgd1na2vs0mg"},{"bike_id":"1939201c-ba3b-4180-9805-34a14bb40565","system_id":"levelo_inurba_marseille","lat":43.29032,"lon":5.39969,"is_reserved":false,"is_disabled":false,"rental_uris":{"android":"levelo://app?vid=1939201c-ba3b-4180-9805-34a14bb40565","ios":"levelo://app?vid=1939201c-ba3b-4180-9805-34a14bb40565"},"vehicle_type_id":"4","last_reported":1730837406,"current_range_meters":33600,"station_id":"ce4bh392rcd13ifvqdm0","pricing_plan_id":"cebpf4jnsgd1na2vs0mg"},{"bike_id":"74790148-a03a-4703-a958-e47ee22fe451","system_id":"levelo_inurba_marseille","lat":43.30653,"lon":5.40101,"is_reserved":false,"is_disabled":false,"rental_uris":{"android":"levelo://app?vid=74790148-a03a-4703-a958-e47ee22fe451","ios":"levelo://app?vid=74790148-a03a-4703-a958-e47ee22fe451"},"vehicle_type_id":"4","last_reported":1730837406,"current_range_meters":22400,"station_id":"ce4bh112rcd13ifvqda0","pricing_plan_id":"cebpf4jnsgd1na2vs0mg"},{"bike_id":"c9c260ba-368f-42e9-a3c2-0f5c1b58cac7","system_id":"levelo_inurba_marseille","lat":43.28006,"lon":5.400134,"is_reserved":false,"is_disabled":false,"rental_uris":{"android":"levelo://app?vid=c9c260ba-368f-42e9-a3c2-0f5c1b58cac7","ios":"levelo://app?vid=c9c260ba-368f-42e9-a3c2-0f5c1b58cac7"},"vehicle_type_id":"4","last_reported":1730837406,"current_range_meters":4800,"station_id":"ce4bho92rcd13ifvqh4g","pricing_plan_id":"cebpf4jnsgd1na2vs0mg"},{"bike_id":"9bf51cfd-59f7-461a-a1ce-1f518512b7ef","system_id":"levelo_inurba_marseille","lat":43.23967,"lon":5.36635,"is_reserved":false,"is_disabled":false,"rental_uris":{"android":"levelo://app?vid=9bf51cfd-59f7-461a-a1ce-1f518512b7ef","ios":"levelo://app?vid=9bf51cfd-59f7-461a-a1ce-1f518512b7ef"},"vehicle_type_id":"4","last_reported":1730837406,"current_range_meters":15200,"station_id":"ce4bhi12rcd13ifvqfp0","pricing_plan_id":"cebpf4jnsgd1na2vs0mg"},{"bike_id":"d1677281-b865-4a3b-8cb1-784894ecfb0f","system_id":"levelo_inurba_marseille","lat":43.29418,"lon":5.38623,"is_reserved":false,"is_disabled":false,"rental_uris":{"android":"levelo://app?vid=d1677281-b865-4a3b-8cb1-784894ecfb0f","ios":"levelo://app?vid=d1677281-b865-4a3b-8cb1-784894ecfb0f"},"vehicle_type_id":"4","last_reported":1730837406,"current_range_meters":8800,"station_id":"ce4bh2h2rcd13ifvqdh0","pricing_plan_id":"cebpf4jnsgd1na2vs0mg"},{"bike_id":"54ef9017-968f-4e6c-9a5c-ee671c48ea58","system_id":"levelo_inurba_marseille","lat":43.30086,"lon":5.39071,"is_reserved":false,"is_disabled":false,"rental_uris":{"android":"levelo://app?vid=54ef9017-968f-4e6c-9a5c-ee671c48ea58","ios":"levelo://app?vid=54ef9017-968f-4e6c-9a5c-ee671c48ea58"},"vehicle_type_id":"4","last_reported":1730837406,"current_range_meters":6800,"station_id":"ce4bh192rcd13ifvqdb0","pricing_plan_id":"cebpf4jnsgd1na2vs0mg"},{"bike_id":"ab60b8ae-f374-4abc-8cf7-2582b117f8f5","system_id":"levelo_inurba_marseille","lat":43.29898,"lon":5.38896,"is_reserved":false,"is_disabled":false,"rental_uris":{"android":"levelo://app?vid=ab60b8ae-f374-4abc-8cf7-2582b117f8f5","ios":"levelo://app?vid=ab60b8ae-f374-4abc-8cf7-2582b117f8f5"},"vehicle_type_id":"4","last_reported":1730837406,"current_range_meters":8000,"station_id":"ce4bh392rcd13ifvqdl0","pricing_plan_id":"cebpf4jnsgd1na2vs0mg"},{"bike_id":"eab47ed5-f83a-4939-80d1-ff052743bdd1","system_id":"levelo_inurba_marseille","lat":43.3211,"lon":5.36772,"is_reserved":false,"is_disabled":false,"rental_uris":{"android":"levelo://app?vid=eab47ed5-f83a-4939-80d1-ff052743bdd1","ios":"levelo://app?vid=eab47ed5-f83a-4939-80d1-ff052743bdd1"},"vehicle_type_id":"4","last_reported":1730837406,"current_range_meters":29600,"station_id":"ce4bhrh2rcd13ifvqhug","pricing_plan_id":"cebpf4jnsgd1na2vs0mg"},{"bike_id":"3bda2dd4-f369-4913-adf8-5d2b8acf9eb2","system_id":"levelo_inurba_marseille","lat":43.26804,"lon":5.40273,"is_reserved":false,"is_disabled":false,"rental_uris":{"android":"levelo://app?vid=3bda2dd4-f369-4913-adf8-5d2b8acf9eb2","ios":"levelo://app?vid=3bda2dd4-f369-4913-adf8-5d2b8acf9eb2"},"vehicle_type_id":"4","last_reported":1730837406,"current_range_meters":38800,"station_id":"ce501612rcd8frsf0b60","pricing_plan_id":"cebpf4jnsgd1na2vs0mg"},{"bike_id":"a67a1bc0-e280-47fe-aabd-8f74c0b8820f","system_id":"levelo_inurba_marseille","lat":43.29261,"lon":5.38438,"is_reserved":false,"is_disabled":false,"rental_uris":{"android":"levelo://app?vid=a67a1bc0-e280-47fe-aabd-8f74c0b8820f","ios":"levelo://app?vid=a67a1bc0-e280-47fe-aabd-8f74c0b8820f"},"vehicle_type_id":"4","last_reported":1730837406,"current_range_meters":38400,"station_id":"ce4bh692rcd13ifvqea0","pricing_plan_id":"cebpf4jnsgd1na2vs0mg"},{"bike_id":"2fac616e-c10f-4b93-9777-09eb2ba8f7e5","system_id":"levelo_inurba_marseille","lat":43.324818,"lon":5.365752,"is_reserved":false,"is_disabled":false,"rental_uris":{"android":"levelo://app?vid=2fac616e-c10f-4b93-9777-09eb2ba8f7e5","ios":"levelo://app?vid=2fac616e-c10f-4b93-9777-09eb2ba8f7e5"},"vehicle_type_id":"4","last_reported":1730837406,"current_range_meters":38800,"station_id":"ce4bhs12rcd13ifvqhvg","pricing_plan_id":"cebpf4jnsgd1na2vs0mg"},{"bike_id":"c6fc2448-f559-4022-b8f6-501ddb60da11","system_id":"levelo_inurba_marseille","lat":43.2885,"lon":5.3584,"is_reserved":false,"is_disabled":false,"rental_uris":{"android":"levelo://app?vid=c6fc2448-f559-4022-b8f6-501ddb60da11","ios":"levelo://app?vid=c6fc2448-f559-4022-b8f6-501ddb60da11"},"vehicle_type_id":"4","last_reported":1730837406,"current_range_meters":38800,"station_id":"ce4bhb12rcd13ifvqem0","pricing_plan_id":"cebpf4jnsgd1na2vs0mg"},{"bike_id":"ec8fb021-c3e8-4a6a-a402-5e0fd2860d7a","system_id":"levelo_inurba_marseille","lat":43.31711,"lon":5.43714,"is_reserved":false,"is_disabled":false,"rental_uris":{"android":"levelo://app?vid=ec8fb021-c3e8-4a6a-a402-5e0fd2860d7a","ios":"levelo://app?vid=ec8fb021-c3e8-4a6a-a402-5e0fd2860d7a"},"vehicle_type_id":"4","last_reported":1730837406,"current_range_meters":28000,"station_id":"ce4bhp92rcd13ifvqhcg","pricing_plan_id":"cebpf4jnsgd1na2vs0mg"},{"bike_id":"98f4caa1-5fd5-4afc-b0d3-3a7b4a88d6d8","system_id":"levelo_inurba_marseille","lat":43.27914,"lon":5.39576,"is_reserved":false,"is_disabled":false,"rental_uris":{"android":"levelo://app?vid=98f4caa1-5fd5-4afc-b0d3-3a7b4a88d6d8","ios":"levelo://app?vid=98f4caa1-5fd5-4afc-b0d3-3a7b4a88d6d8"},"vehicle_type_id":"4","last_reported":1730837406,"current_range_meters":33200,"station_id":"ce4bhf92rcd13ifvqf40","pricing_plan_id":"cebpf4jnsgd1na2vs0mg"},{"bike_id":"0f6d12a9-175f-47aa-8f4c-feb57a1064a3","system_id":"levelo_inurba_marseille","lat":43.25577,"lon":5.3824,"is_reserved":false,"is_disabled":false,"rental_uris":{"android":"levelo://app?vid=0f6d12a9-175f-47aa-8f4c-feb57a1064a3","ios":"levelo://app?vid=0f6d12a9-175f-47aa-8f4c-feb57a1064a3"},"vehicle_type_id":"4","last_reported":1730837406,"current_range_meters":32800,"station_id":"ce4bhih2rcd13ifvqfs0","pricing_plan_id":"cebpf4jnsgd1na2vs0mg"},{"bike_id":"3475ff6f-efaa-48e3-bd80-9e63dfbe2874","system_id":"levelo_inurba_marseille","lat":43.32661,"lon":5.40985,"is_reserved":false,"is_disabled":false,"rental_uris":{"android":"levelo://app?vid=3475ff6f-efaa-48e3-bd80-9e63dfbe2874","ios":"levelo://app?vid=3475ff6f-efaa-48e3-bd80-9e63dfbe2874"},"vehicle_type_id":"4","last_reported":1730837406,"current_range_meters":33600,"station_id":"ce4bhpp2rcd13ifvqhgg","pricing_plan_id":"cebpf4jnsgd1na2vs0mg"},{"bike_id":"af5de92c-61f3-470b-9a84-c4cedcb960b0","system_id":"levelo_inurba_marseille","lat":43.29887,"lon":5.38912,"is_reserved":false,"is_disabled":false,"rental_uris":{"android":"levelo://app?vid=af5de92c-61f3-470b-9a84-c4cedcb960b0","ios":"levelo://app?vid=af5de92c-61f3-470b-9a84-c4cedcb960b0"},"vehicle_type_id":"4","last_reported":1730837406,"current_range_meters":20400,"station_id":"ce4bh392rcd13ifvqdl0","pricing_plan_id":"cebpf4jnsgd1na2vs0mg"},{"bike_id":"7f316980-47ce-44c8-a098-7624e315058f","system_id":"levelo_inurba_marseille","lat":43.30795,"lon":5.38156,"is_reserved":false,"is_disabled":false,"rental_uris":{"android":"levelo://app?vid=7f316980-47ce-44c8-a098-7624e315058f","ios":"levelo://app?vid=7f316980-47ce-44c8-a098-7624e315058f"},"vehicle_type_id":"4","last_reported":1730837406,"current_range_meters":28400,"station_id":"ce4bgt12rcd13ifvqce0","pricing_plan_id":"cebpf4jnsgd1na2vs0mg"},{"bike_id":"98cef258-eb9e-4ec9-9913-db8f1dbd9527","system_id":"levelo_inurba_marseille","lat":43.31323,"lon":5.39694,"is_reserved":false,"is_disabled":false,"rental_uris":{"android":"levelo://app?vid=98cef258-eb9e-4ec9-9913-db8f1dbd9527","ios":"levelo://app?vid=98cef258-eb9e-4ec9-9913-db8f1dbd9527"},"vehicle_type_id":"4","last_reported":1730837406,"current_range_meters":8800,"station_id":"ce4bgvp2rcd13ifvqcu0","pricing_plan_id":"cebpf4jnsgd1na2vs0mg"},{"bike_id":"279e8454-d5ad-4925-acb9-7b2374421193","system_id":"levelo_inurba_marseille","lat":43.29415,"lon":5.38635,"is_reserved":false,"is_disabled":false,"rental_uris":{"android":"levelo://app?vid=279e8454-d5ad-4925-acb9-7b2374421193","ios":"levelo://app?vid=279e8454-d5ad-4925-acb9-7b2374421193"},"vehicle_type_id":"4","last_reported":1730837406,"current_range_meters":38800,"station_id":"ce4bh2h2rcd13ifvqdh0","pricing_plan_id":"cebpf4jnsgd1na2vs0mg"},{"bike_id":"8392adcf-958d-4e55-9a15-d172d48b20a5","system_id":"levelo_inurba_marseille","lat":43.30597,"lon":5.37224,"is_reserved":false,"is_disabled":false,"rental_uris":{"android":"levelo://app?vid=8392adcf-958d-4e55-9a15-d172d48b20a5","ios":"levelo://app?vid=8392adcf-958d-4e55-9a15-d172d48b20a5"},"vehicle_type_id":"4","last_reported":1730837406,"current_range_meters":37600,"station_id":"ce4bgqh2rcd13ifvqc4g","pricing_plan_id":"cebpf4jnsgd1na2vs0mg"},{"bike_id":"88338970-6fd3-491d-b31a-a93eacb1e7c2","system_id":"levelo_inurba_marseille","lat":43.30649,"lon":5.40085,"is_reserved":false,"is_disabled":false,"rental_uris":{"android":"levelo://app?vid=88338970-6fd3-491d-b31a-a93eacb1e7c2","ios":"levelo://app?vid=88338970-6fd3-491d-b31a-a93eacb1e7c2"},"vehicle_type_id":"4","last_reported":1730837406,"current_range_meters":38800,"station_id":"ce4bh112rcd13ifvqda0","pricing_plan_id":"cebpf4jnsgd1na2vs0mg"},{"bike_id":"93a83a5c-0d3d-43a2-be24-e99a92c3575d","system_id":"levelo_inurba_marseille","lat":43.30844,"lon":5.37115,"is_reserved":false,"is_disabled":false,"rental_uris":{"android":"levelo://app?vid=93a83a5c-0d3d-43a2-be24-e99a92c3575d","ios":"levelo://app?vid=93a83a5c-0d3d-43a2-be24-e99a92c3575d"},"vehicle_type_id":"4","last_reported":1730837406,"current_range_meters":11200,"station_id":"ce4bguh2rcd13ifvqckg","pricing_plan_id":"cebpf4jnsgd1na2vs0mg"},{"bike_id":"50ac4f0d-58ac-48b7-819f-23d10ddc6246","system_id":"levelo_inurba_marseille","lat":43.30246,"lon":5.40061,"is_reserved":false,"is_disabled":false,"rental_uris":{"android":"levelo://app?vid=50ac4f0d-58ac-48b7-819f-23d10ddc6246","ios":"levelo://app?vid=50ac4f0d-58ac-48b7-819f-23d10ddc6246"},"vehicle_type_id":"4","last_reported":1730837406,"current_range_meters":39200,"station_id":"ce4bgvh2rcd13ifvqcs0","pricing_plan_id":"cebpf4jnsgd1na2vs0mg"},{"bike_id":"aa528395-73fa-4bfa-8072-bce8b52ee880","system_id":"levelo_inurba_marseille","lat":43.30322,"lon":5.40442,"is_reserved":false,"is_disabled":false,"rental_uris":{"android":"levelo://app?vid=aa528395-73fa-4bfa-8072-bce8b52ee880","ios":"levelo://app?vid=aa528395-73fa-4bfa-8072-bce8b52ee880"},"vehicle_type_id":"4","last_reported":1730837406,"current_range_meters":38800,"station_id":"ce4bh012rcd13ifvqd10","pricing_plan_id":"cebpf4jnsgd1na2vs0mg"},{"bike_id":"ab18e7b9-0341-475b-9bd8-21c8c5210225","system_id":"levelo_inurba_marseille","lat":43.301375,"lon":5.387805,"is_reserved":false,"is_disabled":false,"rental_uris":{"android":"levelo://app?vid=ab18e7b9-0341-475b-9bd8-21c8c5210225","ios":"levelo://app?vid=ab18e7b9-0341-475b-9bd8-21c8c5210225"},"vehicle_type_id":"4","last_reported":1730837406,"current_range_meters":14800,"station_id":"ce4bghh2rcd13ifvqb60","pricing_plan_id":"cebpf4jnsgd1na2vs0mg"},{"bike_id":"e4569351-1a54-441a-bb1e-5d4c21116dc2","system_id":"levelo_inurba_marseille","lat":43.32046,"lon":5.4155,"is_reserved":false,"is_disabled":false,"rental_uris":{"android":"levelo://app?vid=e4569351-1a54-441a-bb1e-5d4c21116dc2","ios":"levelo://app?vid=e4569351-1a54-441a-bb1e-5d4c21116dc2"},"vehicle_type_id":"4","last_reported":1730837406,"current_range_meters":32000,"station_id":"ce4bhq92rcd13ifvqhkg","pricing_plan_id":"cebpf4jnsgd1na2vs0mg"},{"bike_id":"0dc0fcad-0923-4261-98ae-738d89bea697","system_id":"levelo_inurba_marseille","lat":43.29264,"lon":5.3844,"is_reserved":false,"is_disabled":false,"rental_uris":{"android":"levelo://app?vid=0dc0fcad-0923-4261-98ae-738d89bea697","ios":"levelo://app?vid=0dc0fcad-0923-4261-98ae-738d89bea697"},"vehicle_type_id":"4","last_reported":1730837406,"current_range_meters":38800,"station_id":"ce4bh692rcd13ifvqea0","pricing_plan_id":"cebpf4jnsgd1na2vs0mg"},{"bike_id":"e8afe8f4-7106-478a-abb1-1a1e7c8b4270","system_id":"levelo_inurba_marseille","lat":43.29974,"lon":5.37179,"is_reserved":false,"is_disabled":false,"rental_uris":{"android":"levelo://app?vid=e8afe8f4-7106-478a-abb1-1a1e7c8b4270","ios":"levelo://app?vid=e8afe8f4-7106-478a-abb1-1a1e7c8b4270"},"vehicle_type_id":"4","last_reported":1730837406,"current_range_meters":30400,"station_id":"ce4bhr12rcd13ifvqhpg","pricing_plan_id":"cebpf4jnsgd1na2vs0mg"},{"bike_id":"e1b2bdb2-8215-4674-b370-f369301e997f","system_id":"levelo_inurba_marseille","lat":43.28104,"lon":5.3784,"is_reserved":false,"is_disabled":false,"rental_uris":{"android":"levelo://app?vid=e1b2bdb2-8215-4674-b370-f369301e997f","ios":"levelo://app?vid=e1b2bdb2-8215-4674-b370-f369301e997f"},"vehicle_type_id":"4","last_reported":1730837406,"current_range_meters":24800,"station_id":"ce4bha12rcd13ifvqee0","pricing_plan_id":"cebpf4jnsgd1na2vs0mg"},{"bike_id":"9baafc20-eb9b-4933-8ebc-71eff2213a16","system_id":"levelo_inurba_marseille","lat":43.32365,"lon":5.38887,"is_reserved":false,"is_disabled":false,"rental_uris":{"android":"levelo://app?vid=9baafc20-eb9b-4933-8ebc-71eff2213a16","ios":"levelo://app?vid=9baafc20-eb9b-4933-8ebc-71eff2213a16"},"vehicle_type_id":"4","last_reported":1730837406,"current_range_meters":20800,"station_id":"ce4bhqp2rcd13ifvqhog","pricing_plan_id":"cebpf4jnsgd1na2vs0mg"},{"bike_id":"11d3eadb-31e4-4c0b-9661-0df41629177c","system_id":"levelo_inurba_marseille","lat":43.29872,"lon":5.39729,"is_reserved":false,"is_disabled":false,"rental_uris":{"android":"levelo://app?vid=11d3eadb-31e4-4c0b-9661-0df41629177c","ios":"levelo://app?vid=11d3eadb-31e4-4c0b-9661-0df41629177c"},"vehicle_type_id":"4","last_reported":1730837406,"current_range_meters":39200,"station_id":"ce4bh0h2rcd13ifvqd50","pricing_plan_id":"cebpf4jnsgd1na2vs0mg"},{"bike_id":"bf8929ec-fff9-4885-a407-901e584f9b0e","system_id":"levelo_inurba_marseille","lat":43.24649,"lon":5.38895,"is_reserved":false,"is_disabled":false,"rental_uris":{"android":"levelo://app?vid=bf8929ec-fff9-4885-a407-901e584f9b0e","ios":"levelo://app?vid=bf8929ec-fff9-4885-a407-901e584f9b0e"},"vehicle_type_id":"4","last_reported":1730837406,"current_range_meters":39200,"station_id":"ce4bhg12rcd13ifvqf60","pricing_plan_id":"cebpf4jnsgd1na2vs0mg"},{"bike_id":"e70201de-cee3-400e-9fa9-034009b4246c","system_id":"levelo_inurba_marseille","lat":43.284302,"lon":5.423958,"is_reserved":false,"is_disabled":false,"rental_uris":{"android":"levelo://app?vid=e70201de-cee3-400e-9fa9-034009b4246c","ios":"levelo://app?vid=e70201de-cee3-400e-9fa9-034009b4246c"},"vehicle_type_id":"4","last_reported":1730837406,"current_range_meters":22800,"station_id":"ce4bhr12rcd13ifvqhqg","pricing_plan_id":"cebpf4jnsgd1na2vs0mg"},{"bike_id":"93bfb09f-7374-4ada-b52f-21c1b83be0ee","system_id":"levelo_inurba_marseille","lat":43.28693,"lon":5.39984,"is_reserved":false,"is_disabled":false,"rental_uris":{"android":"levelo://app?vid=93bfb09f-7374-4ada-b52f-21c1b83be0ee","ios":"levelo://app?vid=93bfb09f-7374-4ada-b52f-21c1b83be0ee"},"vehicle_type_id":"4","last_reported":1730837406,"current_range_meters":28400,"station_id":"ce4bho92rcd13ifvqh3g","pricing_plan_id":"cebpf4jnsgd1na2vs0mg"},{"bike_id":"661a3d8f-e8fa-4387-8edb-a2c534aef42f","system_id":"levelo_inurba_marseille","lat":43.30093,"lon":5.39058,"is_reserved":false,"is_disabled":false,"rental_uris":{"android":"levelo://app?vid=661a3d8f-e8fa-4387-8edb-a2c534aef42f","ios":"levelo://app?vid=661a3d8f-e8fa-4387-8edb-a2c534aef42f"},"vehicle_type_id":"4","last_reported":1730837406,"current_range_meters":13600,"station_id":"ce4bh192rcd13ifvqdb0","pricing_plan_id":"cebpf4jnsgd1na2vs0mg"},{"bike_id":"0b41d42c-f508-4f0f-89bf-03906143ef86","system_id":"levelo_inurba_marseille","lat":43.2972,"lon":5.37692,"is_reserved":false,"is_disabled":false,"rental_uris":{"android":"levelo://app?vid=0b41d42c-f508-4f0f-89bf-03906143ef86","ios":"levelo://app?vid=0b41d42c-f508-4f0f-89bf-03906143ef86"},"vehicle_type_id":"4","last_reported":1730837406,"current_range_meters":38800,"station_id":"ce4bgkh2rcd13ifvqbl0","pricing_plan_id":"cebpf4jnsgd1na2vs0mg"},{"bike_id":"27c3638c-e2bf-40d7-977a-65bcc667c6f9","system_id":"levelo_inurba_marseille","lat":43.32059,"lon":5.41562,"is_reserved":false,"is_disabled":false,"rental_uris":{"android":"levelo://app?vid=27c3638c-e2bf-40d7-977a-65bcc667c6f9","ios":"levelo://app?vid=27c3638c-e2bf-40d7-977a-65bcc667c6f9"},"vehicle_type_id":"4","last_reported":1730837406,"current_range_meters":26000,"station_id":"ce4bhq92rcd13ifvqhkg","pricing_plan_id":"cebpf4jnsgd1na2vs0mg"},{"bike_id":"b3d8af2c-0e67-4446-b901-3b97a8f6df5c","system_id":"levelo_inurba_marseille","lat":43.24649,"lon":5.3889,"is_reserved":false,"is_disabled":false,"rental_uris":{"android":"levelo://app?vid=b3d8af2c-0e67-4446-b901-3b97a8f6df5c","ios":"levelo://app?vid=b3d8af2c-0e67-4446-b901-3b97a8f6df5c"},"vehicle_type_id":"4","last_reported":1730837406,"current_range_meters":27200,"station_id":"ce4bhg12rcd13ifvqf60","pricing_plan_id":"cebpf4jnsgd1na2vs0mg"},{"bike_id":"ae0b390c-a9c9-4b2a-8f82-406c4e21cdcd","system_id":"levelo_inurba_marseille","lat":43.29736,"lon":5.35951,"is_reserved":false,"is_disabled":false,"rental_uris":{"android":"levelo://app?vid=ae0b390c-a9c9-4b2a-8f82-406c4e21cdcd","ios":"levelo://app?vid=ae0b390c-a9c9-4b2a-8f82-406c4e21cdcd"},"vehicle_type_id":"4","last_reported":1730837406,"current_range_meters":16800,"station_id":"","pricing_plan_id":"cebpf4jnsgd1na2vs0mg"},{"bike_id":"5fae9dcc-318f-4168-b47d-9629429229df","system_id":"levelo_inurba_marseille","lat":43.29419,"lon":5.38625,"is_reserved":false,"is_disabled":false,"rental_uris":{"android":"levelo://app?vid=5fae9dcc-318f-4168-b47d-9629429229df","ios":"levelo://app?vid=5fae9dcc-318f-4168-b47d-9629429229df"},"vehicle_type_id":"4","last_reported":1730837406,"current_range_meters":38800,"station_id":"ce4bh2h2rcd13ifvqdh0","pricing_plan_id":"cebpf4jnsgd1na2vs0mg"},{"bike_id":"08896e92-0fc4-46d9-b64d-06fd381dcb52","system_id":"levelo_inurba_marseille","lat":43.2953,"lon":5.3855,"is_reserved":false,"is_disabled":false,"rental_uris":{"android":"levelo://app?vid=08896e92-0fc4-46d9-b64d-06fd381dcb52","ios":"levelo://app?vid=08896e92-0fc4-46d9-b64d-06fd381dcb52"},"vehicle_type_id":"4","last_reported":1730837406,"current_range_meters":8000,"station_id":"ce4bgih2rcd13ifvqba0","pricing_plan_id":"cebpf4jnsgd1na2vs0mg"},{"bike_id":"d74360a7-cce2-4782-982b-e9593aa5d07d","system_id":"levelo_inurba_marseille","lat":43.31321,"lon":5.39695,"is_reserved":false,"is_disabled":false,"rental_uris":{"android":"levelo://app?vid=d74360a7-cce2-4782-982b-e9593aa5d07d","ios":"levelo://app?vid=d74360a7-cce2-4782-982b-e9593aa5d07d"},"vehicle_type_id":"4","last_reported":1730837406,"current_range_meters":36400,"station_id":"ce4bgvp2rcd13ifvqcu0","pricing_plan_id":"cebpf4jnsgd1na2vs0mg"},{"bike_id":"845e9dec-7ed8-422c-b5c9-8b1d1459f61e","system_id":"levelo_inurba_marseille","lat":43.31888,"lon":5.40738,"is_reserved":false,"is_disabled":false,"rental_uris":{"android":"levelo://app?vid=845e9dec-7ed8-422c-b5c9-8b1d1459f61e","ios":"levelo://app?vid=845e9dec-7ed8-422c-b5c9-8b1d1459f61e"},"vehicle_type_id":"4","last_reported":1730837406,"current_range_meters":39200,"station_id":"ce4bhq12rcd13ifvqhig","pricing_plan_id":"cebpf4jnsgd1na2vs0mg"},{"bike_id":"36914c89-c53e-4456-8355-3bb8e39decce","system_id":"levelo_inurba_marseille","lat":43.31076,"lon":5.38342,"is_reserved":false,"is_disabled":false,"rental_uris":{"android":"levelo://app?vid=36914c89-c53e-4456-8355-3bb8e39decce","ios":"levelo://app?vid=36914c89-c53e-4456-8355-3bb8e39decce"},"vehicle_type_id":"4","last_reported":1730837406,"current_range_meters":38800,"station_id":"ce4bgv92rcd13ifvqcr0","pricing_plan_id":"cebpf4jnsgd1na2vs0mg"},{"bike_id":"4fd336fb-ec63-4d09-84d4-45cf143f4508","system_id":"levelo_inurba_marseille","lat":43.31334,"lon":5.39694,"is_reserved":false,"is_disabled":false,"rental_uris":{"android":"levelo://app?vid=4fd336fb-ec63-4d09-84d4-45cf143f4508","ios":"levelo://app?vid=4fd336fb-ec63-4d09-84d4-45cf143f4508"},"vehicle_type_id":"4","last_reported":1730837406,"current_range_meters":37600,"station_id":"ce4bgvp2rcd13ifvqcu0","pricing_plan_id":"cebpf4jnsgd1na2vs0mg"},{"bike_id":"d55ca913-c836-4422-a5ad-422f31826e8f","system_id":"levelo_inurba_marseille","lat":43.28343,"lon":5.38098,"is_reserved":false,"is_disabled":false,"rental_uris":{"android":"levelo://app?vid=d55ca913-c836-4422-a5ad-422f31826e8f","ios":"levelo://app?vid=d55ca913-c836-4422-a5ad-422f31826e8f"},"vehicle_type_id":"4","last_reported":1730837406,"current_range_meters":36000,"station_id":"ce4bh412rcd13ifvqdr0","pricing_plan_id":"cebpf4jnsgd1na2vs0mg"},{"bike_id":"ba585939-07a4-4250-9098-30e1f2cad019","system_id":"levelo_inurba_marseille","lat":43.23963,"lon":5.36638,"is_reserved":false,"is_disabled":false,"rental_uris":{"android":"levelo://app?vid=ba585939-07a4-4250-9098-30e1f2cad019","ios":"levelo://app?vid=ba585939-07a4-4250-9098-30e1f2cad019"},"vehicle_type_id":"4","last_reported":1730837406,"current_range_meters":14000,"station_id":"ce4bhi12rcd13ifvqfp0","pricing_plan_id":"cebpf4jnsgd1na2vs0mg"},{"bike_id":"a9cd540c-f0da-4b6a-afd9-8039466b588c","system_id":"levelo_inurba_marseille","lat":43.28345,"lon":5.38107,"is_reserved":false,"is_disabled":false,"rental_uris":{"android":"levelo://app?vid=a9cd540c-f0da-4b6a-afd9-8039466b588c","ios":"levelo://app?vid=a9cd540c-f0da-4b6a-afd9-8039466b588c"},"vehicle_type_id":"4","last_reported":1730837406,"current_range_meters":38800,"station_id":"ce4bh412rcd13ifvqdr0","pricing_plan_id":"cebpf4jnsgd1na2vs0mg"},{"bike_id":"0ac56d06-2fb5-42e7-b671-c4910adc2d9a","system_id":"levelo_inurba_marseille","lat":43.29015,"lon":5.38131,"is_reserved":false,"is_disabled":false,"rental_uris":{"android":"levelo://app?vid=0ac56d06-2fb5-42e7-b671-c4910adc2d9a","ios":"levelo://app?vid=0ac56d06-2fb5-42e7-b671-c4910adc2d9a"},"vehicle_type_id":"4","last_reported":1730837406,"current_range_meters":28800,"station_id":"ce4bh4p2rcd13ifvqe1g","pricing_plan_id":"cebpf4jnsgd1na2vs0mg"},{"bike_id":"fb3dfc3d-c52f-4831-a711-d169d8978519","system_id":"levelo_inurba_marseille","lat":43.2861,"lon":5.3707,"is_reserved":false,"is_disabled":false,"rental_uris":{"android":"levelo://app?vid=fb3dfc3d-c52f-4831-a711-d169d8978519","ios":"levelo://app?vid=fb3dfc3d-c52f-4831-a711-d169d8978519"},"vehicle_type_id":"4","last_reported":1730837406,"current_range_meters":14800,"station_id":"ce4bht12rcd13ifvqi60","pricing_plan_id":"cebpf4jnsgd1na2vs0mg"},{"bike_id":"20adb70f-a73a-4b0d-8148-3fe9fdf08539","system_id":"levelo_inurba_marseille","lat":43.32361,"lon":5.38887,"is_reserved":false,"is_disabled":false,"rental_uris":{"android":"levelo://app?vid=20adb70f-a73a-4b0d-8148-3fe9fdf08539","ios":"levelo://app?vid=20adb70f-a73a-4b0d-8148-3fe9fdf08539"},"vehicle_type_id":"4","last_reported":1730837406,"current_range_meters":23200,"station_id":"ce4bhqp2rcd13ifvqhog","pricing_plan_id":"cebpf4jnsgd1na2vs0mg"},{"bike_id":"6ac9de7d-e5be-4c5e-85b2-c763290dc61e","system_id":"levelo_inurba_marseille","lat":43.28151,"lon":5.42647,"is_reserved":false,"is_disabled":false,"rental_uris":{"android":"levelo://app?vid=6ac9de7d-e5be-4c5e-85b2-c763290dc61e","ios":"levelo://app?vid=6ac9de7d-e5be-4c5e-85b2-c763290dc61e"},"vehicle_type_id":"4","last_reported":1730837406,"current_range_meters":29600,"station_id":"ce4bhnh2rcd13ifvqgug","pricing_plan_id":"cebpf4jnsgd1na2vs0mg"},{"bike_id":"1a8c5844-8cbe-4fd1-a7f4-7b0efe210728","system_id":"levelo_inurba_marseille","lat":43.29174,"lon":5.42678,"is_reserved":false,"is_disabled":false,"rental_uris":{"android":"levelo://app?vid=1a8c5844-8cbe-4fd1-a7f4-7b0efe210728","ios":"levelo://app?vid=1a8c5844-8cbe-4fd1-a7f4-7b0efe210728"},"vehicle_type_id":"4","last_reported":1730837406,"current_range_meters":16000,"station_id":"","pricing_plan_id":"cebpf4jnsgd1na2vs0mg"},{"bike_id":"5778b0d6-35a7-40e9-9a57-69ca81b34d35","system_id":"levelo_inurba_marseille","lat":43.30203,"lon":5.3946,"is_reserved":false,"is_disabled":false,"rental_uris":{"android":"levelo://app?vid=5778b0d6-35a7-40e9-9a57-69ca81b34d35","ios":"levelo://app?vid=5778b0d6-35a7-40e9-9a57-69ca81b34d35"},"vehicle_type_id":"4","last_reported":1730837406,"current_range_meters":38800,"station_id":"ce4bh0p2rcd13ifvqd70","pricing_plan_id":"cebpf4jnsgd1na2vs0mg"},{"bike_id":"f0e1ec29-570e-4042-8cbe-e103e13ab813","system_id":"levelo_inurba_marseille","lat":43.30137,"lon":5.39877,"is_reserved":false,"is_disabled":false,"rental_uris":{"android":"levelo://app?vid=f0e1ec29-570e-4042-8cbe-e103e13ab813","ios":"levelo://app?vid=f0e1ec29-570e-4042-8cbe-e103e13ab813"},"vehicle_type_id":"4","last_reported":1730837406,"current_range_meters":24000,"station_id":"ce4bh0h2rcd13ifvqd40","pricing_plan_id":"cebpf4jnsgd1na2vs0mg"},{"bike_id":"e7493c8c-e30f-4d95-ba6d-62bd70522362","system_id":"levelo_inurba_marseille","lat":43.28569,"lon":5.395,"is_reserved":false,"is_disabled":false,"rental_uris":{"android":"levelo://app?vid=e7493c8c-e30f-4d95-ba6d-62bd70522362","ios":"levelo://app?vid=e7493c8c-e30f-4d95-ba6d-62bd70522362"},"vehicle_type_id":"4","last_reported":1730837406,"current_range_meters":24000,"station_id":"ce4bh292rcd13ifvqdg0","pricing_plan_id":"cebpf4jnsgd1na2vs0mg"},{"bike_id":"c5b67347-e546-44b1-80dc-4daddfb53de1","system_id":"levelo_inurba_marseille","lat":43.30988,"lon":5.41731,"is_reserved":false,"is_disabled":false,"rental_uris":{"android":"levelo://app?vid=c5b67347-e546-44b1-80dc-4daddfb53de1","ios":"levelo://app?vid=c5b67347-e546-44b1-80dc-4daddfb53de1"},"vehicle_type_id":"4","last_reported":1730837406,"current_range_meters":15200,"station_id":"","pricing_plan_id":"cebpf4jnsgd1na2vs0mg"},{"bike_id":"02b06b74-481f-4d05-a2b8-025a7aab1383","system_id":"levelo_inurba_marseille","lat":43.23154,"lon":5.43703,"is_reserved":false,"is_disabled":false,"rental_uris":{"android":"levelo://app?vid=02b06b74-481f-4d05-a2b8-025a7aab1383","ios":"levelo://app?vid=02b06b74-481f-4d05-a2b8-025a7aab1383"},"vehicle_type_id":"4","last_reported":1730837406,"current_range_meters":8800,"station_id":"ce4bhmp2rcd13ifvqgog","pricing_plan_id":"cebpf4jnsgd1na2vs0mg"},{"bike_id":"117a9406-128e-4323-b245-b2932b759e2b","system_id":"levelo_inurba_marseille","lat":43.33021,"lon":5.39039,"is_reserved":false,"is_disabled":false,"rental_uris":{"android":"levelo://app?vid=117a9406-128e-4323-b245-b2932b759e2b","ios":"levelo://app?vid=117a9406-128e-4323-b245-b2932b759e2b"},"vehicle_type_id":"4","last_reported":1730837406,"current_range_meters":38800,"station_id":"ce4bhr92rcd13ifvqhrg","pricing_plan_id":"cebpf4jnsgd1na2vs0mg"},{"bike_id":"7079d1c2-d742-4006-a55c-739b28c4b1d4","system_id":"levelo_inurba_marseille","lat":43.33621,"lon":5.41029,"is_reserved":false,"is_disabled":false,"rental_uris":{"android":"levelo://app?vid=7079d1c2-d742-4006-a55c-739b28c4b1d4","ios":"levelo://app?vid=7079d1c2-d742-4006-a55c-739b28c4b1d4"},"vehicle_type_id":"4","last_reported":1730837406,"current_range_meters":19600,"station_id":"ce4bhqh2rcd13ifvqhmg","pricing_plan_id":"cebpf4jnsgd1na2vs0mg"},{"bike_id":"29909db5-5c36-46b0-968a-04d34108d3dc","system_id":"levelo_inurba_marseille","lat":43.29185,"lon":5.38329,"is_reserved":false,"is_disabled":false,"rental_uris":{"android":"levelo://app?vid=29909db5-5c36-46b0-968a-04d34108d3dc","ios":"levelo://app?vid=29909db5-5c36-46b0-968a-04d34108d3dc"},"vehicle_type_id":"4","last_reported":1730837406,"current_range_meters":16000,"station_id":"ce4bh4p2rcd13ifvqe0g","pricing_plan_id":"cebpf4jnsgd1na2vs0mg"},{"bike_id":"fef71f49-a87b-4257-8748-43312080cadd","system_id":"levelo_inurba_marseille","lat":43.29266,"lon":5.38436,"is_reserved":false,"is_disabled":false,"rental_uris":{"android":"levelo://app?vid=fef71f49-a87b-4257-8748-43312080cadd","ios":"levelo://app?vid=fef71f49-a87b-4257-8748-43312080cadd"},"vehicle_type_id":"4","last_reported":1730837406,"current_range_meters":8000,"station_id":"ce4bh692rcd13ifvqea0","pricing_plan_id":"cebpf4jnsgd1na2vs0mg"},{"bike_id":"3fd88b5b-373f-4fde-9cbd-76dbcfa52caa","system_id":"levelo_inurba_marseille","lat":43.28848,"lon":5.35847,"is_reserved":false,"is_disabled":false,"rental_uris":{"android":"levelo://app?vid=3fd88b5b-373f-4fde-9cbd-76dbcfa52caa","ios":"levelo://app?vid=3fd88b5b-373f-4fde-9cbd-76dbcfa52caa"},"vehicle_type_id":"4","last_reported":1730837406,"current_range_meters":6800,"station_id":"ce4bhb12rcd13ifvqem0","pricing_plan_id":"cebpf4jnsgd1na2vs0mg"},{"bike_id":"3da67f6d-4322-40e2-add9-de192d93474d","system_id":"levelo_inurba_marseille","lat":43.2866,"lon":5.36357,"is_reserved":false,"is_disabled":false,"rental_uris":{"android":"levelo://app?vid=3da67f6d-4322-40e2-add9-de192d93474d","ios":"levelo://app?vid=3da67f6d-4322-40e2-add9-de192d93474d"},"vehicle_type_id":"4","last_reported":1730837406,"current_range_meters":24800,"station_id":"ce4bhah2rcd13ifvqej0","pricing_plan_id":"cebpf4jnsgd1na2vs0mg"},{"bike_id":"73c97937-ffb7-4b14-9c0d-c030c2fdfe2f","system_id":"levelo_inurba_marseille","lat":43.28933,"lon":5.36634,"is_reserved":false,"is_disabled":false,"rental_uris":{"android":"levelo://app?vid=73c97937-ffb7-4b14-9c0d-c030c2fdfe2f","ios":"levelo://app?vid=73c97937-ffb7-4b14-9c0d-c030c2fdfe2f"},"vehicle_type_id":"4","last_reported":1730837406,"current_range_meters":8400,"station_id":"ce4bhap2rcd13ifvqek0","pricing_plan_id":"cebpf4jnsgd1na2vs0mg"},{"bike_id":"6b3e9c27-d216-4dd1-821f-8fef3ddccc5e","system_id":"levelo_inurba_marseille","lat":43.31327,"lon":5.39697,"is_reserved":false,"is_disabled":false,"rental_uris":{"android":"levelo://app?vid=6b3e9c27-d216-4dd1-821f-8fef3ddccc5e","ios":"levelo://app?vid=6b3e9c27-d216-4dd1-821f-8fef3ddccc5e"},"vehicle_type_id":"4","last_reported":1730837406,"current_range_meters":36800,"station_id":"ce4bgvp2rcd13ifvqcu0","pricing_plan_id":"cebpf4jnsgd1na2vs0mg"},{"bike_id":"7c12767d-fcf5-4df2-8735-459dc41daf75","system_id":"levelo_inurba_marseille","lat":43.30086,"lon":5.39073,"is_reserved":false,"is_disabled":false,"rental_uris":{"android":"levelo://app?vid=7c12767d-fcf5-4df2-8735-459dc41daf75","ios":"levelo://app?vid=7c12767d-fcf5-4df2-8735-459dc41daf75"},"vehicle_type_id":"4","last_reported":1730837406,"current_range_meters":38000,"station_id":"ce4bh192rcd13ifvqdb0","pricing_plan_id":"cebpf4jnsgd1na2vs0mg"},{"bike_id":"34ae2e8b-fd8c-4a9d-ae24-2789be9acdcc","system_id":"levelo_inurba_marseille","lat":43.30116,"lon":5.39867,"is_reserved":false,"is_disabled":false,"rental_uris":{"android":"levelo://app?vid=34ae2e8b-fd8c-4a9d-ae24-2789be9acdcc","ios":"levelo://app?vid=34ae2e8b-fd8c-4a9d-ae24-2789be9acdcc"},"vehicle_type_id":"4","last_reported":1730837406,"current_range_meters":19200,"station_id":"ce4bh0h2rcd13ifvqd40","pricing_plan_id":"cebpf4jnsgd1na2vs0mg"},{"bike_id":"a46e9747-f73d-452d-b054-3d4e2540656c","system_id":"levelo_inurba_marseille","lat":43.29533,"lon":5.38545,"is_reserved":false,"is_disabled":false,"rental_uris":{"android":"levelo://app?vid=a46e9747-f73d-452d-b054-3d4e2540656c","ios":"levelo://app?vid=a46e9747-f73d-452d-b054-3d4e2540656c"},"vehicle_type_id":"4","last_reported":1730837406,"current_range_meters":26000,"station_id":"ce4bgih2rcd13ifvqba0","pricing_plan_id":"cebpf4jnsgd1na2vs0mg"},{"bike_id":"71017385-77b8-4634-b031-4682e37c9979","system_id":"levelo_inurba_marseille","lat":43.27804,"lon":5.4071,"is_reserved":false,"is_disabled":false,"rental_uris":{"android":"levelo://app?vid=71017385-77b8-4634-b031-4682e37c9979","ios":"levelo://app?vid=71017385-77b8-4634-b031-4682e37c9979"},"vehicle_type_id":"4","last_reported":1730837406,"current_range_meters":10000,"station_id":"ce4bhnh2rcd13ifvqgtg","pricing_plan_id":"cebpf4jnsgd1na2vs0mg"},{"bike_id":"fad21b98-4cf4-4eed-b682-c861c72dffc1","system_id":"levelo_inurba_marseille","lat":43.24645,"lon":5.38892,"is_reserved":false,"is_disabled":false,"rental_uris":{"android":"levelo://app?vid=fad21b98-4cf4-4eed-b682-c861c72dffc1","ios":"levelo://app?vid=fad21b98-4cf4-4eed-b682-c861c72dffc1"},"vehicle_type_id":"4","last_reported":1730837406,"current_range_meters":38400,"station_id":"ce4bhg12rcd13ifvqf60","pricing_plan_id":"cebpf4jnsgd1na2vs0mg"},