{"last_updated":1732892980,"ttl":60,"version":"2.2","data":{"bikes":[{"bike_id":"a6938546-9c24-4db5-ab33-e50997791d9c","system_id":"levelo_inurba_marseille","lat":43.28148,"lon":5.42642,"is_reserved":false,"is_disabled":true,"rental_uris":{"android":"levelo://app?vid=a6938546-9c24-4db5-ab33-e50997791d9c","ios":"levelo://app?vid=a6938546-9c24-4db5-ab33-e50997791d9c"},"vehicle_type_id":"4","last_reported":1732892980,"current_range_meters":0,"station_id":"ce4bhnh2rcd13ifvqgug","pricing_plan_id":"cebpf4jnsgd1na2vs0mg"},{"bike_id":"b856c8b4-412d-4c25-bdd4-e6b29aed04cb","system_id":"levelo_inurba_marseille","lat":43.22932,"lon":5.35378,"is_reserved":false,"is_disabled":false,"rental_uris":{"android":"levelo://app?vid=b856c8b4-412d-4c25-bdd4-e6b29aed04cb","ios":"levelo://app?vid=b856c8b4-412d-4c25-bdd4-e6b29aed04cb"},"vehicle_type_id":"4","last_reported":1732892980,"current_range_meters":38800,"station_id":"cpo3532slgdg3j2ikp40","pricing_plan_id":"cebpf4jnsgd1na2vs0mg"},{"bike_id":"6e0ee7c2-7afb-46ee-b0c4-535ee0ff47a8","system_id":"levelo_inurba_marseille","lat":43.29848,"lon":5.3628,"is_reserved":false,"is_disabled":false,"rental_uris":{"android":"levelo://app?vid=6e0ee7c2-7afb-46ee-b0c4-535ee0ff47a8","ios":"levelo://app?vid=6e0ee7c2-7afb-46ee-b0c4-535ee0ff47a8"},"vehicle_type_id":"4","last_reported":1732892980,"current_range_meters":39200,"station_id":"ce4bgpp2rcd13ifvqc3g","pricing_plan_id":"cebpf4jnsgd1na2vs0mg"},{"bike_id":"55accfcc-a29b-42e9-8e6d-ac24134524e3","system_id":"levelo_inurba_marseille","lat":43.3033,"lon":5.404368,"is_reserved":false,"is_disabled":false,"rental_uris":{"android":"levelo://app?vid=55accfcc-a29b-42e9-8e6d-ac24134524e3","ios":"levelo://app?vid=55accfcc-a29b-42e9-8e6d-ac24134524e3"},"vehicle_type_id":"4","last_reported":1732892980,"current_range_meters":38800,"station_id":"ce4bh012rcd13ifvqd10","pricing_plan_id":"cebpf4jnsgd1na2vs0mg"},{"bike_id":"43602253-a5d2-4025-a10b-e226dca7b09e","system_id":"levelo_inurba_marseille","lat":43.2901,"lon":5.35632,"is_reserved":false,"is_disabled":false,"rental_uris":{"android":"levelo://app?vid=43602253-a5d2-4025-a10b-e226dca7b09e","ios":"levelo://app?vid=43602253-a5d2-4025-a10b-e226dca7b09e"},"vehicle_type_id":"4","last_reported":1732892980,"current_range_meters":36000,"station_id":"","pricing_plan_id":"cebpf4jnsgd1na2vs0mg"},{"bike_id":"8bdb6063-7240-493c-ae87-fd352f74bba4","system_id":"levelo_inurba_marseille","lat":43.29631,"lon":5.37726,"is_reserved":false,"is_disabled":false,"rental_uris":{"android":"levelo://app?vid=8bdb6063-7240-493c-ae87-fd352f74bba4","ios":"levelo://app?vid=8bdb6063-7240-493c-ae87-fd352f74bba4"},"vehicle_type_id":"4","last_reported":1732892980,"current_range_meters":30400,"station_id":"ce4bgi92rcd13ifvqb90","pricing_plan_id":"cebpf4jnsgd1na2vs0mg"},{"bike_id":"40ca90ea-9465-47d2-a08a-277a2591b568","system_id":"levelo_inurba_marseille","lat":43.27922,"lon":5.39575,"is_reserved":false,"is_disabled":true,"rental_uris":{"android":"levelo://app?vid=40ca90ea-9465-47d2-a08a-277a2591b568","ios":"levelo://app?vid=40ca90ea-9465-47d2-a08a-277a2591b568"},"vehicle_type_id":"4","last_reported":1732892980,"current_range_meters":0,"station_id":"ce4bhf92rcd13ifvqf40","pricing_plan_id":"cebpf4jnsgd1na2vs0mg"},{"bike_id":"9e9dcd02-879d-494d-96c6-4e4120f62a9f","system_id":"levelo_inurba_marseille","lat":43.28419,"lon":5.34993,"is_reserved":false,"is_disabled":false,"rental_uris":{"android":"levelo://app?vid=9e9dcd02-879d-494d-96c6-4e4120f62a9f","ios":"levelo://app?vid=9e9dcd02-879d-494d-96c6-4e4120f62a9f"},"vehicle_type_id":"4","last_reported":1732892980,"current_range_meters":23200,"station_id":"ce4bhbh2rcd13ifvqepg","pricing_plan_id":"cebpf4jnsgd1na2vs0mg"},{"bike_id":"30212023-fb77-4912-96b3-8d8de1c61064","system_id":"levelo_inurba_marseille","lat":43.32037,"lon":5.41565,"is_reserved":false,"is_disabled":false,"rental_uris":{"android":"levelo://app?vid=30212023-fb77-4912-96b3-8d8de1c61064","ios":"levelo://app?vid=30212023-fb77-4912-96b3-8d8de1c61064"},"vehicle_type_id":"4","last_reported":1732892980,"current_range_meters":38800,"station_id":"ce4bhq92rcd13ifvqhkg","pricing_plan_id":"cebpf4jnsgd1na2vs0mg"},{"bike_id":"f7e5dec7-3406-4737-8cf9-610c894cdb01","system_id":"levelo_inurba_marseille","lat":43.23969,"lon":5.3663,"is_reserved":false,"is_disabled":false,"rental_uris":{"android":"levelo://app?vid=f7e5dec7-3406-4737-8cf9-610c894cdb01","ios":"levelo://app?vid=f7e5dec7-3406-4737-8cf9-610c894cdb01"},"vehicle_type_id":"4","last_reported":1732892980,"current_range_meters":38400,"station_id":"ce4bhi12rcd13ifvqfp0","pricing_plan_id":"cebpf4jnsgd1na2vs0mg"},{"bike_id":"7058f230-decc-4831-8fb7-1a01173ca265","system_id":"levelo_inurba_marseille","lat":43.29262,"lon":5.3844,"is_reserved":false,"is_disabled":false,"rental_uris":{"android":"levelo://app?vid=7058f230-decc-4831-8fb7-1a01173ca265","ios":"levelo://app?vid=7058f230-decc-4831-8fb7-1a01173ca265"},"vehicle_type_id":"4","last_reported":1732892980,"current_range_meters":12800,"station_id":"ce4bh692rcd13ifvqea0","pricing_plan_id":"cebpf4jnsgd1na2vs0mg"},{"bike_id":"ab637009-8c2c-4b6b-ac36-75f56ce2e6e7","system_id":"levelo_inurba_marseille","lat":43.25719,"lon":5.41113,"is_reserved":false,"is_disabled":false,"rental_uris":{"android":"levelo://app?vid=ab637009-8c2c-4b6b-ac36-75f56ce2e6e7","ios":"levelo://app?vid=ab637009-8c2c-4b6b-ac36-75f56ce2e6e7"},"vehicle_type_id":"4","last_reported":1732892980,"current_range_meters":11600,"station_id":"ce4bhkp2rcd13ifvqgd0","pricing_plan_id":"cebpf4jnsgd1na2vs0mg"},{"bike_id":"b5600d7c-c614-4eb1-9670-99158f9d6037","system_id":"levelo_inurba_marseille","lat":43.32659,"lon":5.40992,"is_reserved":false,"is_disabled":false,"rental_uris":{"android":"levelo://app?vid=b5600d7c-c614-4eb1-9670-99158f9d6037","ios":"levelo://app?vid=b5600d7c-c614-4eb1-9670-99158f9d6037"},"vehicle_type_id":"4","last_reported":1732892980,"current_range_meters":38800,"station_id":"ce4bhpp2rcd13ifvqhgg","pricing_plan_id":"cebpf4jnsgd1na2vs0mg"},{"bike_id":"6a609512-d3a8-4df1-b5c7-3355a5b889de","system_id":"levelo_inurba_marseille","lat":43.28284,"lon":5.35069,"is_reserved":false,"is_disabled":true,"rental_uris":{"android":"levelo://app?vid=6a609512-d3a8-4df1-b5c7-3355a5b889de","ios":"levelo://app?vid=6a609512-d3a8-4df1-b5c7-3355a5b889de"},"vehicle_type_id":"4","last_reported":1732892980,"current_range_meters":26000,"station_id":"ce4bhbp2rcd13ifvqerg","pricing_plan_id":"cebpf4jnsgd1na2vs0mg"},{"bike_id":"177aaf49-3370-44af-84cd-75aa6d79445f","system_id":"levelo_inurba_marseille","lat":43.29848,"lon":5.36292,"is_reserved":false,"is_disabled":false,"rental_uris":{"android":"levelo://app?vid=177aaf49-3370-44af-84cd-75aa6d79445f","ios":"levelo://app?vid=177aaf49-3370-44af-84cd-75aa6d79445f"},"vehicle_type_id":"4","last_reported":1732892980,"current_range_meters":6000,"station_id":"ce4bgpp2rcd13ifvqc3g","pricing_plan_id":"cebpf4jnsgd1na2vs0mg"},{"bike_id":"9b9b4866-f123-4e9b-bc92-12f1937e5433","system_id":"levelo_inurba_marseille","lat":43.2718,"lon":5.40999,"is_reserved":false,"is_disabled":false,"rental_uris":{"android":"levelo://app?vid=9b9b4866-f123-4e9b-bc92-12f1937e5433","ios":"levelo://app?vid=9b9b4866-f123-4e9b-bc92-12f1937e5433"},"vehicle_type_id":"4","last_reported":1732892980,"current_range_meters":24400,"station_id":"ce4bhl12rcd13ifvqgf0","pricing_plan_id":"cebpf4jnsgd1na2vs0mg"},{"bike_id":"d62da8f1-6ad6-4ef4-8044-cfef77b14518","system_id":"levelo_inurba_marseille","lat":43.25496,"lon":5.37654,"is_reserved":false,"is_disabled":false,"rental_uris":{"android":"levelo://app?vid=d62da8f1-6ad6-4ef4-8044-cfef77b14518","ios":"levelo://app?vid=d62da8f1-6ad6-4ef4-8044-cfef77b14518"},"vehicle_type_id":"4","last_reported":1732892980,"current_range_meters":25200,"station_id":"ce4bhh12rcd13ifvqff0","pricing_plan_id":"cebpf4jnsgd1na2vs0mg"},{"bike_id":"6f7949e1-de87-4a49-8620-fec27e04447f","system_id":"levelo_inurba_marseille","lat":43.33731,"lon":5.39199,"is_reserved":false,"is_disabled":false,"rental_uris":{"android":"levelo://app?vid=6f7949e1-de87-4a49-8620-fec27e04447f","ios":"levelo://app?vid=6f7949e1-de87-4a49-8620-fec27e04447f"},"vehicle_type_id":"4","last_reported":1732892980,"current_range_meters":30400,"station_id":"ce4bhr92rcd13ifvqhsg","pricing_plan_id":"cebpf4jnsgd1na2vs0mg"},{"bike_id":"18a68036-02cf-468f-893e-1bd383e5bf38","system_id":"levelo_inurba_marseille","lat":43.30648,"lon":5.40099,"is_reserved":false,"is_disabled":false,"rental_uris":{"android":"levelo://app?vid=18a68036-02cf-468f-893e-1bd383e5bf38","ios":"levelo://app?vid=18a68036-02cf-468f-893e-1bd383e5bf38"},"vehicle_type_id":"4","last_reported":1732892980,"current_range_meters":9600,"station_id":"ce4bh112rcd13ifvqda0","pricing_plan_id":"cebpf4jnsgd1na2vs0mg"},{"bike_id":"d6af473c-317d-44a4-ba58-092abf84584f","system_id":"levelo_inurba_marseille","lat":43.22933,"lon":5.3538,"is_reserved":false,"is_disabled":false,"rental_uris":{"android":"levelo://app?vid=d6af473c-317d-44a4-ba58-092abf84584f","ios":"levelo://app?vid=d6af473c-317d-44a4-ba58-092abf84584f"},"vehicle_type_id":"4","last_reported":1732892980,"current_range_meters":38400,"station_id":"cpo3532slgdg3j2ikp40","pricing_plan_id":"cebpf4jnsgd1na2vs0mg"},{"bike_id":"79da6e11-068f-4f85-891a-bf5d6033ae1b","system_id":"levelo_inurba_marseille","lat":43.29193,"lon":5.3931,"is_reserved":false,"is_disabled":true,"rental_uris":{"android":"levelo://app?vid=79da6e11-068f-4f85-891a-bf5d6033ae1b","ios":"levelo://app?vid=79da6e11-068f-4f85-891a-bf5d6033ae1b"},"vehicle_type_id":"4","last_reported":1732892980,"current_range_meters":28400,"station_id":"ce4bh192rcd13ifvqdd0","pricing_plan_id":"cebpf4jnsgd1na2vs0mg"},{"bike_id":"caeb2f08-f3e8-4a26-98bd-b13a6747085c","system_id":"levelo_inurba_marseille","lat":43.30482,"lon":5.37917,"is_reserved":false,"is_disabled":false,"rental_uris":{"android":"levelo://app?vid=caeb2f08-f3e8-4a26-98bd-b13a6747085c","ios":"levelo://app?vid=caeb2f08-f3e8-4a26-98bd-b13a6747085c"},"vehicle_type_id":"4","last_reported":1732892980,"current_range_meters":36400,"station_id":"ce4bgup2rcd13ifvqcn0","pricing_plan_id":"cebpf4jnsgd1na2vs0mg"},{"bike_id":"a5f16cae-5bf4-4b9f-88ad-879c5c61035a","system_id":"levelo_inurba_marseille","lat":43.29522,"lon":5.38533,"is_reserved":false,"is_disabled":false,"rental_uris":{"android":"levelo://app?vid=a5f16cae-5bf4-4b9f-88ad-879c5c61035a","ios":"levelo://app?vid=a5f16cae-5bf4-4b9f-88ad-879c5c61035a"},"vehicle_type_id":"4","last_reported":1732892980,"current_range_meters":8800,"station_id":"ce4bgih2rcd13ifvqba0","pricing_plan_id":"cebpf4jnsgd1na2vs0mg"},{"bike_id":"c8e18c54-9b3f-4cd1-ad67-6ca07bf358c8","system_id":"levelo_inurba_marseille","lat":43.33023,"lon":5.39034,"is_reserved":false,"is_disabled":false,"rental_uris":{"android":"levelo://app?vid=c8e18c54-9b3f-4cd1-ad67-6ca07bf358c8","ios":"levelo://app?vid=c8e18c54-9b3f-4cd1-ad67-6ca07bf358c8"},"vehicle_type_id":"4","last_reported":1732892980,"current_range_meters":9600,"station_id":"ce4bhr92rcd13ifvqhrg","pricing_plan_id":"cebpf4jnsgd1na2vs0mg"},{"bike_id":"ea892bfc-250a-4bbc-826d-f378ba2b4d02","system_id":"levelo_inurba_marseille","lat":43.23063,"lon":5.35492,"is_reserved":false,"is_disabled":false,"rental_uris":{"android":"levelo://app?vid=ea892bfc-250a-4bbc-826d-f378ba2b4d02","ios":"levelo://app?vid=ea892bfc-250a-4bbc-826d-f378ba2b4d02"},"vehicle_type_id":"4","last_reported":1732892980,"current_range_meters":20400,"station_id":"cpo3342slgdg3j2ifvpg","pricing_plan_id":"cebpf4jnsgd1na2vs0mg"},{"bike_id":"f811d37b-1cba-4aa5-9cd0-90bc0ce36ea3","system_id":"levelo_inurba_marseille","lat":43.31408,"lon":5.36689,"is_reserved":false,"is_disabled":false,"rental_uris":{"android":"levelo://app?vid=f811d37b-1cba-4aa5-9cd0-90bc0ce36ea3","ios":"levelo://app?vid=f811d37b-1cba-4aa5-9cd0-90bc0ce36ea3"},"vehicle_type_id":"4","last_reported":1732892980,"current_range_meters":9200,"station_id":"","pricing_plan_id":"cebpf4jnsgd1na2vs0mg"},{"bike_id":"7b5f11cb-c0c4-485c-b2e8-819c7ab373aa","system_id":"levelo_inurba_marseille","lat":43.3249,"lon":5.36564,"is_reserved":false,"is_disabled":false,"rental_uris":{"android":"levelo://app?vid=7b5f11cb-c0c4-485c-b2e8-819c7ab373aa","ios":"levelo://app?vid=7b5f11cb-c0c4-485c-b2e8-819c7ab373aa"},"vehicle_type_id":"4","last_reported":1732892980,"current_range_meters":18000,"station_id":"ce4bhs12rcd13ifvqhvg","pricing_plan_id":"cebpf4jnsgd1na2vs0mg"},{"bike_id":"c34b180e-a35e-430f-97b2-bc22dac80f02","system_id":"levelo_inurba_marseille","lat":43.29629,"lon":5.37738,"is_reserved":false,"is_disabled":false,"rental_uris":{"android":"levelo://app?vid=c34b180e-a35e-430f-97b2-bc22dac80f02","ios":"levelo://app?vid=c34b180e-a35e-430f-97b2-bc22dac80f02"},"vehicle_type_id":"4","last_reported":1732892980,"current_range_meters":22400,"station_id":"ce4bgi92rcd13ifvqb90","pricing_plan_id":"cebpf4jnsgd1na2vs0mg"},{"bike_id":"4709c438-f4af-415a-a919-d27302b75dca","system_id":"levelo_inurba_marseille","lat":43.23194,"lon":5.35553,"is_reserved":false,"is_disabled":false,"rental_uris":{"android":"levelo://app?vid=4709c438-f4af-415a-a919-d27302b75dca","ios":"levelo://app?vid=4709c438-f4af-415a-a919-d27302b75dca"},"vehicle_type_id":"4","last_reported":1732892980,"current_range_meters":38800,"station_id":"ce4bhu92rcd13ifvqi70","pricing_plan_id":"cebpf4jnsgd1na2vs0mg"},{"bike_id":"19d8d449-a0eb-4c0e-9592-0053e853ceac","system_id":"levelo_inurba_marseille","lat":43.33025,"lon":5.39038,"is_reserved":false,"is_disabled":false,"rental_uris":{"android":"levelo://app?vid=19d8d449-a0eb-4c0e-9592-0053e853ceac","ios":"levelo://app?vid=19d8d449-a0eb-4c0e-9592-0053e853ceac"},"vehicle_type_id":"4","last_reported":1732892980,"current_range_meters":38000,"station_id":"ce4bhr92rcd13ifvqhrg","pricing_plan_id":"cebpf4jnsgd1na2vs0mg"},{"bike_id":"d1486dd5-23d4-40bc-bb61-4a3c8126196a","system_id":"levelo_inurba_marseille","lat":43.27373,"lon":5.36255,"is_reserved":false,"is_disabled":true,"rental_uris":{"android":"levelo://app?vid=d1486dd5-23d4-40bc-bb61-4a3c8126196a","ios":"levelo://app?vid=d1486dd5-23d4-40bc-bb61-4a3c8126196a"},"vehicle_type_id":"4","last_reported":1732892980,"current_range_meters":38800,"station_id":"ce4bhbh2rcd13ifvqeo0","pricing_plan_id":"cebpf4jnsgd1na2vs0mg"},{"bike_id":"c34ed66a-f76b-46d6-b519-b3726d77f086","system_id":"levelo_inurba_marseille","lat":43.26812,"lon":5.40309,"is_reserved":false,"is_disabled":false,"rental_uris":{"android":"levelo://app?vid=c34ed66a-f76b-46d6-b519-b3726d77f086","ios":"levelo://app?vid=c34ed66a-f76b-46d6-b519-b3726d77f086"},"vehicle_type_id":"4","last_reported":1732892980,"current_range_meters":38400,"station_id":"ce501612rcd8frsf0b60","pricing_plan_id":"cebpf4jnsgd1na2vs0mg"},{"bike_id":"0bfbcbbe-b0b2-425d-8b8c-5fdf5919caf9","system_id":"levelo_inurba_marseille","lat":43.3266,"lon":5.40989,"is_reserved":false,"is_disabled":false,"rental_uris":{"android":"levelo://app?vid=0bfbcbbe-b0b2-425d-8b8c-5fdf5919caf9","ios":"levelo://app?vid=0bfbcbbe-b0b2-425d-8b8c-5fdf5919caf9"},"vehicle_type_id":"4","last_reported":1732892980,"current_range_meters":8800,"station_id":"ce4bhpp2rcd13ifvqhgg","pricing_plan_id":"cebpf4jnsgd1na2vs0mg"},{"bike_id":"d1b1c6a5-0475-49f0-a9b3-06ea6651ce8b","system_id":"levelo_inurba_marseille","lat":43.29001,"lon":5.35615,"is_reserved":false,"is_disabled":false,"rental_uris":{"android":"levelo://app?vid=d1b1c6a5-0475-49f0-a9b3-06ea6651ce8b","ios":"levelo://app?vid=d1b1c6a5-0475-49f0-a9b3-06ea6651ce8b"},"vehicle_type_id":"4","last_reported":1732892980,"current_range_meters":24400,"station_id":"ce4bhb92rcd13ifvqen0","pricing_plan_id":"cebpf4jnsgd1na2vs0mg"},{"bike_id":"2c2dbeed-d8b9-4443-8bc1-facb2c0b2be9","system_id":"levelo_inurba_marseille","lat":43.30436,"lon":5.3686,"is_reserved":false,"is_disabled":false,"rental_uris":{"android":"levelo://app?vid=2c2dbeed-d8b9-4443-8bc1-facb2c0b2be9","ios":"levelo://app?vid=2c2dbeed-d8b9-4443-8bc1-facb2c0b2be9"},"vehicle_type_id":"4","last_reported":1732892980,"current_range_meters":7200,"station_id":"","pricing_plan_id":"cebpf4jnsgd1na2vs0mg"},{"bike_id":"2015b97b-e482-4867-997c-1e73f4d54943","system_id":"levelo_inurba_marseille","lat":43.29847,"lon":5.36279,"is_reserved":false,"is_disabled":false,"rental_uris":{"android":"levelo://app?vid=2015b97b-e482-4867-997c-1e73f4d54943","ios":"levelo://app?vid=2015b97b-e482-4867-997c-1e73f4d54943"},"vehicle_type_id":"4","last_reported":1732892980,"current_range_meters":28800,"station_id":"ce4bgpp2rcd13ifvqc3g","pricing_plan_id":"cebpf4jnsgd1na2vs0mg"},{"bike_id":"f957c35e-7dc4-4a90-a4b6-0f94cf627bda","system_id":"levelo_inurba_marseille","lat":43.292115,"lon":5.35921,"is_reserved":false,"is_disabled":false,"rental_uris":{"android":"levelo://app?vid=f957c35e-7dc4-4a90-a4b6-0f94cf627bda","ios":"levelo://app?vid=f957c35e-7dc4-4a90-a4b6-0f94cf627bda"},"vehicle_type_id":"4","last_reported":1732892980,"current_range_meters":6400,"station_id":"ce4bhb12rcd13ifvqel0","pricing_plan_id":"cebpf4jnsgd1na2vs0mg"},{"bike_id":"74bcdec5-6488-4385-ad78-f19cb0b5ac4e","system_id":"levelo_inurba_marseille","lat":43.24388,"lon":5.37067,"is_reserved":false,"is_disabled":false,"rental_uris":{"android":"levelo://app?vid=74bcdec5-6488-4385-ad78-f19cb0b5ac4e","ios":"levelo://app?vid=74bcdec5-6488-4385-ad78-f19cb0b5ac4e"},"vehicle_type_id":"4","last_reported":1732892980,"current_range_meters":24400,"station_id":"ce4bhhh2rcd13ifvqfk0","pricing_plan_id":"cebpf4jnsgd1na2vs0mg"},{"bike_id":"ed691203-fdfe-4124-95c8-ef76707517b1","system_id":"levelo_inurba_marseille","lat":43.24185,"lon":5.39723,"is_reserved":false,"is_disabled":false,"rental_uris":{"android":"levelo://app?vid=ed691203-fdfe-4124-95c8-ef76707517b1","ios":"levelo://app?vid=ed691203-fdfe-4124-95c8-ef76707517b1"},"vehicle_type_id":"4","last_reported":1732892980,"current_range_meters":22800,"station_id":"ce4bhn12rcd13ifvqgpg","pricing_plan_id":"cebpf4jnsgd1na2vs0mg"},{"bike_id":"213ca263-5728-45f5-9b12-d518efeb82e1","system_id":"levelo_inurba_marseille","lat":43.30896,"lon":5.37176,"is_reserved":false,"is_disabled":false,"rental_uris":{"android":"levelo://app?vid=213ca263-5728-45f5-9b12-d518efeb82e1","ios":"levelo://app?vid=213ca263-5728-45f5-9b12-d518efeb82e1"},"vehicle_type_id":"4","last_reported":1732892980,"current_range_meters":32400,"station_id":"ce4bguh2rcd13ifvqckg","pricing_plan_id":"cebpf4jnsgd1na2vs0mg"},{"bike_id":"ffa4a609-12c2-4bcb-a232-bff214294d68","system_id":"levelo_inurba_marseille","lat":43.26202,"lon":5.37925,"is_reserved":false,"is_disabled":false,"rental_uris":{"android":"levelo://app?vid=ffa4a609-12c2-4bcb-a232-bff214294d68","ios":"levelo://app?vid=ffa4a609-12c2-4bcb-a232-bff214294d68"},"vehicle_type_id":"4","last_reported":1732892980,"current_range_meters":36000,"station_id":"ce4bhjp2rcd13ifvqg90","pricing_plan_id":"cebpf4jnsgd1na2vs0mg"},{"bike_id":"d43bcf0d-16aa-4132-bee9-932c9bcef8f2","system_id":"levelo_inurba_marseille","lat":43.32366,"lon":5.38889,"is_reserved":false,"is_disabled":false,"rental_uris":{"android":"levelo://app?vid=d43bcf0d-16aa-4132-bee9-932c9bcef8f2","ios":"levelo://app?vid=d43bcf0d-16aa-4132-bee9-932c9bcef8f2"},"vehicle_type_id":"4","last_reported":1732892980,"current_range_meters":37600,"station_id":"ce4bhqp2rcd13ifvqhog","pricing_plan_id":"cebpf4jnsgd1na2vs0mg"},{"bike_id":"94ddd20c-e5b2-4c73-a61a-2ac668abc7d2","system_id":"levelo_inurba_marseille","lat":43.31994,"lon":5.38155,"is_reserved":false,"is_disabled":false,"rental_uris":{"android":"levelo://app?vid=94ddd20c-e5b2-4c73-a61a-2ac668abc7d2","ios":"levelo://app?vid=94ddd20c-e5b2-4c73-a61a-2ac668abc7d2"},"vehicle_type_id":"4","last_reported":1732892980,"current_range_meters":21600,"station_id":"ce4bhr12rcd13ifvqhpg","pricing_plan_id":"cebpf4jnsgd1na2vs0mg"},{"bike_id":"fe2c00d6-fab6-472b-887d-35960cae9038","system_id":"levelo_inurba_marseille","lat":43.25933,"lon":5.40907,"is_reserved":false,"is_disabled":true,"rental_uris":{"android":"levelo://app?vid=fe2c00d6-fab6-472b-887d-35960cae9038","ios":"levelo://app?vid=fe2c00d6-fab6-472b-887d-35960cae9038"},"vehicle_type_id":"4","last_reported":1732892980,"current_range_meters":0,"station_id":"ce4bhm92rcd13ifvqglg","pricing_plan_id":"cebpf4jnsgd1na2vs0mg"},{"bike_id":"4035e70a-9b35-49ff-8763-9565717e2e74","system_id":"levelo_inurba_marseille","lat":43.28475,"lon":5.35882,"is_reserved":false,"is_disabled":true,"rental_uris":{"android":"levelo://app?vid=4035e70a-9b35-49ff-8763-9565717e2e74","ios":"levelo://app?vid=4035e70a-9b35-49ff-8763-9565717e2e74"},"vehicle_type_id":"4","last_reported":1732892980,"current_range_meters":9200,"station_id":"ce4bhah2rcd13ifvqei0","pricing_plan_id":"cebpf4jnsgd1na2vs0mg"},{"bike_id":"bc749360-3ce4-4dd6-a0ac-83aa82c323a7","system_id":"levelo_inurba_marseille","lat":43.28148,"lon":5.42643,"is_reserved":false,"is_disabled":true,"rental_uris":{"android":"levelo://app?vid=bc749360-3ce4-4dd6-a0ac-83aa82c323a7","ios":"levelo://app?vid=bc749360-3ce4-4dd6-a0ac-83aa82c323a7"},"vehicle_type_id":"4","last_reported":1732892980,"current_range_meters":38800,"station_id":"ce4bhnh2rcd13ifvqgug","pricing_plan_id":"cebpf4jnsgd1na2vs0mg"},{"bike_id":"59fe4578-5b7f-4a2d-af2e-29b4f5b3390e","system_id":"levelo_inurba_marseille","lat":43.293,"lon":5.37183,"is_reserved":false,"is_disabled":false,"rental_uris":{"android":"levelo://app?vid=59fe4578-5b7f-4a2d-af2e-29b4f5b3390e","ios":"levelo://app?vid=59fe4578-5b7f-4a2d-af2e-29b4f5b3390e"},"vehicle_type_id":"4","last_reported":1732892980,"current_range_meters":17200,"station_id":"ce4bgh92rcd13ifvqb40","pricing_plan_id":"cebpf4jnsgd1na2vs0mg"},{"bike_id":"4d4c884f-6933-49c0-8899-f9856d90f44d","system_id":"levelo_inurba_marseille","lat":43.29748,"lon":5.37971,"is_reserved":false,"is_disabled":true,"rental_uris":{"android":"levelo://app?vid=4d4c884f-6933-49c0-8899-f9856d90f44d","ios":"levelo://app?vid=4d4c884f-6933-49c0-8899-f9856d90f44d"},"vehicle_type_id":"4","last_reported":1732892980,"current_range_meters":0,"station_id":"","pricing_plan_id":"cebpf4jnsgd1na2vs0mg"},{"bike_id":"65f825c7-b9f9-4828-90bd-6b720312e953","system_id":"levelo_inurba_marseille","lat":43.27982,"lon":5.38763,"is_reserved":false,"is_disabled":false,"rental_uris":{"android":"levelo://app?vid=65f825c7-b9f9-4828-90bd-6b720312e953","ios":"levelo://app?vid=65f825c7-b9f9-4828-90bd-6b720312e953"},"vehicle_type_id":"4","last_reported":1732892980,"current_range_meters":38400,"station_id":"ce4bhg12rcd13ifvqf80","pricing_plan_id":"cebpf4jnsgd1na2vs0mg"},{"bike_id":"02895370-c40c-4c5d-869e-dbb8ac908e5c","system_id":"levelo_inurba_marseille","lat":43.27173,"lon":5.40993,"is_reserved":false,"is_disabled":false,"rental_uris":{"android":"levelo://app?vid=02895370-c40c-4c5d-869e-dbb8ac908e5c","ios":"levelo://app?vid=02895370-c40c-4c5d-869e-dbb8ac908e5c"},"vehicle_type_id":"4","last_reported":1732892980,"current_range_meters":38800,"station_id":"ce4bhl12rcd13ifvqgf0","pricing_plan_id":"cebpf4jnsgd1na2vs0mg"},{"bike_id":"9009be37-c6b1-406b-b0a8-fbab355f715e","system_id":"levelo_inurba_marseille","lat":43.33767,"lon":5.37492,"is_reserved":false,"is_disabled":false,"rental_uris":{"android":"levelo://app?vid=9009be37-c6b1-406b-b0a8-fbab355f715e","ios":"levelo://app?vid=9009be37-c6b1-406b-b0a8-fbab355f715e"},"vehicle_type_id":"4","last_reported":1732892980,"current_range_meters":36400,"station_id":"","pricing_plan_id":"cebpf4jnsgd1na2vs0mg"},{"bike_id":"303e957c-dbae-47f1-b523-bb16e7ec449c","system_id":"levelo_inurba_marseille","lat":43.2706,"lon":5.40256,"is_reserved":false,"is_disabled":true,"rental_uris":{"android":"levelo://app?vid=303e957c-dbae-47f1-b523-bb16e7ec449c","ios":"levelo://app?vid=303e957c-dbae-47f1-b523-bb16e7ec449c"},"vehicle_type_id":"4","last_reported":1732892980,"current_range_meters":0,"station_id":"ce4bhk92rcd13ifvqgc0","pricing_plan_id":"cebpf4jnsgd1na2vs0mg"},{"bike_id":"0709b9e4-a3fe-4b26-a01e-eb64d3d0c54a","system_id":"levelo_inurba_marseille","lat":43.31491,"lon":5.37308,"is_reserved":false,"is_disabled":false,"rental_uris":{"android":"levelo://app?vid=0709b9e4-a3fe-4b26-a01e-eb64d3d0c54a","ios":"levelo://app?vid=0709b9e4-a3fe-4b26-a01e-eb64d3d0c54a"},"vehicle_type_id":"4","last_reported":1732892980,"current_range_meters":22800,"station_id":"ce4bgt12rcd13ifvqcd0","pricing_plan_id":"cebpf4jnsgd1na2vs0mg"},{"bike_id":"be1ea8ae-bb6c-4cc9-9878-4dd6e7c328d6","system_id":"levelo_inurba_marseille","lat":43.32106,"lon":5.36769,"is_reserved":false,"is_disabled":false,"rental_uris":{"android":"levelo://app?vid=be1ea8ae-bb6c-4cc9-9878-4dd6e7c328d6","ios":"levelo://app?vid=be1ea8ae-bb6c-4cc9-9878-4dd6e7c328d6"},"vehicle_type_id":"4","last_reported":1732892980,"current_range_meters":35600,"station_id":"ce4bhrh2rcd13ifvqhug","pricing_plan_id":"cebpf4jnsgd1na2vs0mg"},{"bike_id":"9589002c-1bab-46c5-9d09-a7efb8d9d194","system_id":"levelo_inurba_marseille","lat":43.28473,"lon":5.34998,"is_reserved":false,"is_disabled":false,"rental_uris":{"android":"levelo://app?vid=9589002c-1bab-46c5-9d09-a7efb8d9d194","ios":"levelo://app?vid=9589002c-1bab-46c5-9d09-a7efb8d9d194"},"vehicle_type_id":"4","last_reported":1732892980,"current_range_meters":18800,"station_id":"","pricing_plan_id":"cebpf4jnsgd1na2vs0mg"},{"bike_id":"5cc87b7b-e8e2-4f57-bf4a-d5911689f04d","system_id":"levelo_inurba_marseille","lat":43.292859,"lon":5.401816,"is_reserved":false,"is_disabled":false,"rental_uris":{"android":"levelo://app?vid=5cc87b7b-e8e2-4f57-bf4a-d5911689f04d","ios":"levelo://app?vid=5cc87b7b-e8e2-4f57-bf4a-d5911689f04d"},"vehicle_type_id":"4","last_reported":1732892980,"current_range_meters":30800,"station_id":"","pricing_plan_id":"cebpf4jnsgd1na2vs0mg"},{"bike_id":"77be03dd-3d99-4535-adc0-1c7477c4a3a3","system_id":"levelo_inurba_marseille","lat":43.32288,"lon":5.38276,"is_reserved":false,"is_disabled":false,"rental_uris":{"android":"levelo://app?vid=77be03dd-3d99-4535-adc0-1c7477c4a3a3","ios":"levelo://app?vid=77be03dd-3d99-4535-adc0-1c7477c4a3a3"},"vehicle_type_id":"4","last_reported":1732892980,"current_range_meters":23200,"station_id":"ce4bhr12rcd13ifvqhqg","pricing_plan_id":"cebpf4jnsgd1na2vs0mg"},{"bike_id":"cf0d67d8-27c4-4387-8af2-671c546afcf3","system_id":"levelo_inurba_marseille","lat":43.32656,"lon":5.40998,"is_reserved":false,"is_disabled":false,"rental_uris":{"android":"levelo://app?vid=cf0d67d8-27c4-4387-8af2-671c546afcf3","ios":"levelo://app?vid=cf0d67d8-27c4-4387-8af2-671c546afcf3"},"vehicle_type_id":"4","last_reported":1732892980,"current_range_meters":14800,"station_id":"ce4bhpp2rcd13ifvqhgg","pricing_plan_id":"cebpf4jnsgd1na2vs0mg"},{"bike_id":"7403b8d2-264c-490d-87eb-90be60ed8671","system_id":"levelo_inurba_marseille","lat":43.26938,"lon":5.38926,"is_reserved":false,"is_disabled":false,"rental_uris":{"android":"levelo://app?vid=7403b8d2-264c-490d-87eb-90be60ed8671","ios":"levelo://app?vid=7403b8d2-264c-490d-87eb-90be60ed8671"},"vehicle_type_id":"4","last_reported":1732892980,"current_range_meters":37600,"station_id":"ce4bhhh2rcd13ifvqfl0","pricing_plan_id":"cebpf4jnsgd1na2vs0mg"},{"bike_id":"01c2ede9-78b5-4b48-b997-6259690d4c7f","system_id":"levelo_inurba_marseille","lat":43.26563,"lon":5.39005,"is_reserved":false,"is_disabled":false,"rental_uris":{"android":"levelo://app?vid=01c2ede9-78b5-4b48-b997-6259690d4c7f","ios":"levelo://app?vid=01c2ede9-78b5-4b48-b997-6259690d4c7f"},"vehicle_type_id":"4","last_reported":1732892980,"current_range_meters":14800,"station_id":"ce4bhe12rcd13ifvqf30","pricing_plan_id":"cebpf4jnsgd1na2vs0mg"},{"bike_id":"455b74e5-5838-434c-9d49-f09be357395d","system_id":"levelo_inurba_marseille","lat":43.287,"lon":5.37397,"is_reserved":false,"is_disabled":true,"rental_uris":{"android":"levelo://app?vid=455b74e5-5838-434c-9d49-f09be357395d","ios":"levelo://app?vid=455b74e5-5838-434c-9d49-f09be357395d"},"vehicle_type_id":"4","last_reported":1732892980,"current_range_meters":3200,"station_id":"ce4bh3p2rcd13ifvqdq0","pricing_plan_id":"cebpf4jnsgd1na2vs0mg"},{"bike_id":"e8fa7be1-2407-41a7-b843-e7c70f1917ef","system_id":"levelo_inurba_marseille","lat":43.2761,"lon":5.36109,"is_reserved":false,"is_disabled":true,"rental_uris":{"android":"levelo://app?vid=e8fa7be1-2407-41a7-b843-e7c70f1917ef","ios":"levelo://app?vid=e8fa7be1-2407-41a7-b843-e7c70f1917ef"},"vehicle_type_id":"4","last_reported":1732892980,"current_range_meters":0,"station_id":"ce4bgj92rcd13ifvqbe0","pricing_plan_id":"cebpf4jnsgd1na2vs0mg"},{"bike_id":"df0dfc86-7540-4a0c-8976-9af5497d0a2c","system_id":"levelo_inurba_marseille","lat":43.337444,"lon":5.374475,"is_reserved":false,"is_disabled":false,"rental_uris":{"android":"levelo://app?vid=df0dfc86-7540-4a0c-8976-9af5497d0a2c","ios":"levelo://app?vid=df0dfc86-7540-4a0c-8976-9af5497d0a2c"},"vehicle_type_id":"4","last_reported":1732892980,"current_range_meters":25200,"station_id":"","pricing_plan_id":"cebpf4jnsgd1na2vs0mg"},{"bike_id":"efbc1bb2-e566-41bb-b022-38460ddce04c","system_id":"levelo_inurba_marseille","lat":43.30632,"lon":5.37199,"is_reserved":false,"is_disabled":false,"rental_uris":{"android":"levelo://app?vid=efbc1bb2-e566-41bb-b022-38460ddce04c","ios":"levelo://app?vid=efbc1bb2-e566-41bb-b022-38460ddce04c"},"vehicle_type_id":"4","last_reported":1732892980,"current_range_meters":27600,"station_id":"ce4bgqh2rcd13ifvqc4g","pricing_plan_id":"cebpf4jnsgd1na2vs0mg"},{"bike_id":"d6a0ff66-87dd-49de-a09b-bea530d1c972","system_id":"levelo_inurba_marseille","lat":43.25572,"lon":5.38237,"is_reserved":false,"is_disabled":true,"rental_uris":{"android":"levelo://app?vid=d6a0ff66-87dd-49de-a09b-bea530d1c972","ios":"levelo://app?vid=d6a0ff66-87dd-49de-a09b-bea530d1c972"},"vehicle_type_id":"4","last_reported":1732892980,"current_range_meters":32000,"station_id":"ce4bhih2rcd13ifvqfs0","pricing_plan_id":"cebpf4jnsgd1na2vs0mg"},{"bike_id":"32e66950-4fe8-4c53-8e59-c5be64414055","system_id":"levelo_inurba_marseille","lat":43.26788,"lon":5.39407,"is_reserved":false,"is_disabled":false,"rental_uris":{"android":"levelo://app?vid=32e66950-4fe8-4c53-8e59-c5be64414055","ios":"levelo://app?vid=32e66950-4fe8-4c53-8e59-c5be64414055"},"vehicle_type_id":"4","last_reported":1732892980,"current_range_meters":14800,"station_id":"ce4bhh12rcd13ifvqfg0","pricing_plan_id":"cebpf4jnsgd1na2vs0mg"},{"bike_id":"c6987b7c-0a57-4f2a-9f67-21aaa65411ee","system_id":"levelo_inurba_marseille","lat":43.32454,"lon":5.38243,"is_reserved":false,"is_disabled":false,"rental_uris":{"android":"levelo://app?vid=c6987b7c-0a57-4f2a-9f67-21aaa65411ee","ios":"levelo://app?vid=c6987b7c-0a57-4f2a-9f67-21aaa65411ee"},"vehicle_type_id":"4","last_reported":1732892980,"current_range_meters":39200,"station_id":"","pricing_plan_id":"cebpf4jnsgd1na2vs0mg"},{"bike_id":"8389aba9-5ced-465a-af84-2b92bd042a7e","system_id":"levelo_inurba_marseille","lat":43.30321,"lon":5.4044,"is_reserved":false,"is_disabled":false,"rental_uris":{"android":"levelo://app?vid=8389aba9-5ced-465a-af84-2b92bd042a7e","ios":"levelo://app?vid=8389aba9-5ced-465a-af84-2b92bd042a7e"},"vehicle_type_id":"4","last_reported":1732892980,"current_range_meters":38800,"station_id":"ce4bh012rcd13ifvqd10","pricing_plan_id":"cebpf4jnsgd1na2vs0mg"},{"bike_id":"8bb928e1-2325-4dc0-9124-252ce9f22c11","system_id":"levelo_inurba_marseille","lat":43.2861,"lon":5.3511,"is_reserved":false,"is_disabled":false,"rental_uris":{"android":"levelo://app?vid=8bb928e1-2325-4dc0-9124-252ce9f22c11","ios":"levelo://app?vid=8bb928e1-2325-4dc0-9124-252ce9f22c11"},"vehicle_type_id":"4","last_reported":1732892980,"current_range_meters":22400,"station_id":"ce4bhch2rcd13ifvqeug","pricing_plan_id":"cebpf4jnsgd1na2vs0mg"},{"bike_id":"3ca8d527-6c31-4160-8bc9-0dbae13780f9","system_id":"levelo_inurba_marseille","lat":43.28468,"lon":5.3589,"is_reserved":false,"is_disabled":true,"rental_uris":{"android":"levelo://app?vid=3ca8d527-6c31-4160-8bc9-0dbae13780f9","ios":"levelo://app?vid=3ca8d527-6c31-4160-8bc9-0dbae13780f9"},"vehicle_type_id":"4","last_reported":1732892980,"current_range_meters":23200,"station_id":"ce4bhah2rcd13ifvqei0","pricing_plan_id":"cebpf4jnsgd1na2vs0mg"},{"bike_id":"a985c880-13b0-471f-be68-7059b51df585","system_id":"levelo_inurba_marseille","lat":43.26792,"lon":5.40281,"is_reserved":false,"is_disabled":true,"rental_uris":{"android":"levelo://app?vid=a985c880-13b0-471f-be68-7059b51df585","ios":"levelo://app?vid=a985c880-13b0-471f-be68-7059b51df585"},"vehicle_type_id":"4","last_reported":1732892980,"current_range_meters":800,"station_id":"ce501612rcd8frsf0b60","pricing_plan_id":"cebpf4jnsgd1na2vs0mg"},{"bike_id":"f03446f0-fb72-4ff3-9a99-5e1c10a8d468","system_id":"levelo_inurba_marseille","lat":43.28614,"lon":5.35109,"is_reserved":false,"is_disabled":false,"rental_uris":{"android":"levelo://app?vid=f03446f0-fb72-4ff3-9a99-5e1c10a8d468","ios":"levelo://app?vid=f03446f0-fb72-4ff3-9a99-5e1c10a8d468"},"vehicle_type_id":"4","last_reported":1732892980,"current_range_meters":12400,"station_id":"ce4bhch2rcd13ifvqeug","pricing_plan_id":"cebpf4jnsgd1na2vs0mg"},{"bike_id":"4a2be555-d056-454c-bed3-fe781ba86f8e","system_id":"levelo_inurba_marseille","lat":43.25889,"lon":5.39954,"is_reserved":false,"is_disabled":true,"rental_uris":{"android":"levelo://app?vid=4a2be555-d056-454c-bed3-fe781ba86f8e","ios":"levelo://app?vid=4a2be555-d056-454c-bed3-fe781ba86f8e"},"vehicle_type_id":"4","last_reported":1732892980,"current_range_meters":9200,"station_id":"","pricing_plan_id":"cebpf4jnsgd1na2vs0mg"},{"bike_id":"63ed47c5-ef20-4543-b535-2aca35505fe9","system_id":"levelo_inurba_marseille","lat":43.29278,"lon":5.36855,"is_reserved":false,"is_disabled":false,"rental_uris":{"android":"levelo://app?vid=63ed47c5-ef20-4543-b535-2aca35505fe9","ios":"levelo://app?vid=63ed47c5-ef20-4543-b535-2aca35505fe9"},"vehicle_type_id":"4","last_reported":1732892980,"current_range_meters":36400,"station_id":"ce4bhbp2rcd13ifvqesg","pricing_plan_id":"cebpf4jnsgd1na2vs0mg"},{"bike_id":"c3b80996-2cd8-4d2b-ba7e-703f49026c6d","system_id":"levelo_inurba_marseille","lat":43.29575,"lon":5.39972,"is_reserved":false,"is_disabled":false,"rental_uris":{"android":"levelo://app?vid=c3b80996-2cd8-4d2b-ba7e-703f49026c6d","ios":"levelo://app?vid=c3b80996-2cd8-4d2b-ba7e-703f49026c6d"},"vehicle_type_id":"4","last_reported":1732892980,"current_range_meters":32000,"station_id":"ce4bh312rcd13ifvqdj0","pricing_plan_id":"cebpf4jnsgd1na2vs0mg"},{"bike_id":"80ee5806-271f-4b24-a602-2dc27d804313","system_id":"levelo_inurba_marseille","lat":43.32104,"lon":5.36776,"is_reserved":false,"is_disabled":false,"rental_uris":{"android":"levelo://app?vid=80ee5806-271f-4b24-a602-2dc27d804313","ios":"levelo://app?vid=80ee5806-271f-4b24-a602-2dc27d804313"},"vehicle_type_id":"4","last_reported":1732892980,"current_range_meters":15200,"station_id":"ce4bhrh2rcd13ifvqhug","pricing_plan_id":"cebpf4jnsgd1na2vs0mg"},{"bike_id":"a99e441f-fcb3-4edf-8132-a5c34ea369bf","system_id":"levelo_inurba_marseille","lat":43.26945,"lon":5.40251,"is_reserved":false,"is_disabled":true,"rental_uris":{"android":"levelo://app?vid=a99e441f-fcb3-4edf-8132-a5c34ea369bf","ios":"levelo://app?vid=a99e441f-fcb3-4edf-8132-a5c34ea369bf"},"vehicle_type_id":"4","last_reported":1732892980,"current_range_meters":400,"station_id":"cjm6bp8fraef2m0cb0m0","pricing_plan_id":"cebpf4jnsgd1na2vs0mg"},{"bike_id":"91475a11-c126-482c-88c0-39201ca2c9ce","system_id":"levelo_inurba_marseille","lat":43.28273,"lon":5.35062,"is_reserved":false,"is_disabled":false,"rental_uris":{"android":"levelo://app?vid=91475a11-c126-482c-88c0-39201ca2c9ce","ios":"levelo://app?vid=91475a11-c126-482c-88c0-39201ca2c9ce"},"vehicle_type_id":"4","last_reported":1732892980,"current_range_meters":34800,"station_id":"ce4bhbp2rcd13ifvqerg","pricing_plan_id":"cebpf4jnsgd1na2vs0mg"},{"bike_id":"0c986394-5a17-453e-af63-846fd10bcdc3","system_id":"levelo_inurba_marseille","lat":43.26493,"lon":5.39545,"is_reserved":false,"is_disabled":false,"rental_uris":{"android":"levelo://app?vid=0c986394-5a17-453e-af63-846fd10bcdc3","ios":"levelo://app?vid=0c986394-5a17-453e-af63-846fd10bcdc3"},"vehicle_type_id":"4","last_reported":1732892980,"current_range_meters":5600,"station_id":"ce4bhi12rcd13ifvqfq0","pricing_plan_id":"cebpf4jnsgd1na2vs0mg"},{"bike_id":"a0accefe-c99e-4cb9-8f29-6e44170ffa13","system_id":"levelo_inurba_marseille","lat":43.30411,"lon":5.39751,"is_reserved":false,"is_disabled":true,"rental_uris":{"android":"levelo://app?vid=a0accefe-c99e-4cb9-8f29-6e44170ffa13","ios":"levelo://app?vid=a0accefe-c99e-4cb9-8f29-6e44170ffa13"},"vehicle_type_id":"4","last_reported":1732892980,"current_range_meters":31200,"station_id":"ce4bh092rcd13ifvqd20","pricing_plan_id":"cebpf4jnsgd1na2vs0mg"},{"bike_id":"90a7d43f-53fe-4889-9259-8a8be20683a4","system_id":"levelo_inurba_marseille","lat":43.31274,"lon":5.4019,"is_reserved":false,"is_disabled":false,"rental_uris":{"android":"levelo://app?vid=90a7d43f-53fe-4889-9259-8a8be20683a4","ios":"levelo://app?vid=90a7d43f-53fe-4889-9259-8a8be20683a4"},"vehicle_type_id":"4","last_reported":1732892980,"current_range_meters":38800,"station_id":"ce4bh092rcd13ifvqd30","pricing_plan_id":"cebpf4jnsgd1na2vs0mg"},{"bike_id":"309ebcee-86c2-46f0-af03-31df7f629902","system_id":"levelo_inurba_marseille","lat":43.27675,"lon":5.38876,"is_reserved":false,"is_disabled":false,"rental_uris":{"android":"levelo://app?vid=309ebcee-86c2-46f0-af03-31df7f629902","ios":"levelo://app?vid=309ebcee-86c2-46f0-af03-31df7f629902"},"vehicle_type_id":"4","last_reported":1732892980,"current_range_meters":16000,"station_id":"ce4bhi12rcd13ifvqfo0","pricing_plan_id":"cebpf4jnsgd1na2vs0mg"},{"bike_id":"9b7aff1c-b193-43bd-8828-8adec15bca5d","system_id":"levelo_inurba_marseille","lat":43.29099,"lon":5.38143,"is_reserved":false,"is_disabled":false,"rental_uris":{"android":"levelo://app?vid=9b7aff1c-b193-43bd-8828-8adec15bca5d","ios":"levelo://app?vid=9b7aff1c-b193-43bd-8828-8adec15bca5d"},"vehicle_type_id":"4","last_reported":1732892980,"current_range_meters":24800,"station_id":"ce4bh512rcd13ifvqe2g","pricing_plan_id":"cebpf4jnsgd1na2vs0mg"},{"bike_id":"81d9f7be-c3c6-4233-bf11-948e6f22debc","system_id":"levelo_inurba_marseille","lat":43.32361,"lon":5.38884,"is_reserved":false,"is_disabled":false,"rental_uris":{"android":"levelo://app?vid=81d9f7be-c3c6-4233-bf11-948e6f22debc","ios":"levelo://app?vid=81d9f7be-c3c6-4233-bf11-948e6f22debc"},"vehicle_type_id":"4","last_reported":1732892980,"current_range_meters":36800,"station_id":"ce4bhqp2rcd13ifvqhog","pricing_plan_id":"cebpf4jnsgd1na2vs0mg"},{"bike_id":"2860b59e-ca9d-40bb-aa92-76539ae1d5f6","system_id":"levelo_inurba_marseille","lat":43.32004,"lon":5.3817,"is_reserved":false,"is_disabled":false,"rental_uris":{"android":"levelo://app?vid=2860b59e-ca9d-40bb-aa92-76539ae1d5f6","ios":"levelo://app?vid=2860b59e-ca9d-40bb-aa92-76539ae1d5f6"},"vehicle_type_id":"4","last_reported":1732892980,"current_range_meters":34800,"station_id":"ce4bhr12rcd13ifvqhpg","pricing_plan_id":"cebpf4jnsgd1na2vs0mg"},{"bike_id":"ca78cd58-1b64-4e88-8e0a-561d1b4a919b","system_id":"levelo_inurba_marseille","lat":43.28155,"lon":5.4265,"is_reserved":false,"is_disabled":false,"rental_uris":{"android":"levelo://app?vid=ca78cd58-1b64-4e88-8e0a-561d1b4a919b","ios":"levelo://app?vid=ca78cd58-1b64-4e88-8e0a-561d1b4a919b"},"vehicle_type_id":"4","last_reported":1732892980,"current_range_meters":17200,"station_id":"ce4bhnh2rcd13ifvqgug","pricing_plan_id":"cebpf4jnsgd1na2vs0mg"},{"bike_id":"11bdf964-2b86-402d-8161-d7ddb408f097","system_id":"levelo_inurba_marseille","lat":43.27374,"lon":5.36255,"is_reserved":false,"is_disabled":false,"rental_uris":{"android":"levelo://app?vid=11bdf964-2b86-402d-8161-d7ddb408f097","ios":"levelo://app?vid=11bdf964-2b86-402d-8161-d7ddb408f097"},"vehicle_type_id":"4","last_reported":1732892980,"current_range_meters":30000,"station_id":"ce4bhbh2rcd13ifvqeo0","pricing_plan_id":"cebpf4jnsgd1na2vs0mg"},{"bike_id":"29a80c71-9648-4a26-b6c9-5f69092eaa01","system_id":"levelo_inurba_marseille","lat":43.27067,"lon":5.42273,"is_reserved":false,"is_disabled":true,"rental_uris":{"android":"levelo://app?vid=29a80c71-9648-4a26-b6c9-5f69092eaa01","ios":"levelo://app?vid=29a80c71-9648-4a26-b6c9-5f69092eaa01"},"vehicle_type_id":"4","last_reported":1732892980,"current_range_meters":38800,"station_id":"ce4bhk92rcd13ifvqgb0","pricing_plan_id":"cebpf4jnsgd1na2vs0mg"},{"bike_id":"5b6140a7-7f65-4ca3-a3f2-419ab04c93da","system_id":"levelo_inurba_marseille","lat":43.22929,"lon":5.35377,"is_reserved":false,"is_disabled":false,"rental_uris":{"android":"levelo://app?vid=5b6140a7-7f65-4ca3-a3f2-419ab04c93da","ios":"levelo://app?vid=5b6140a7-7f65-4ca3-a3f2-419ab04c93da"},"vehicle_type_id":"4","last_reported":1732892980,"current_range_meters":27200,"station_id":"cpo3532slgdg3j2ikp40","pricing_plan_id":"cebpf4jnsgd1na2vs0mg"},{"bike_id":"0174841e-8011-4a7b-bd18-480101bee765","system_id":"levelo_inurba_marseille","lat":43.23962,"lon":5.36639,"is_reserved":false,"is_disabled":true,"rental_uris":{"android":"levelo://app?vid=0174841e-8011-4a7b-bd18-480101bee765","ios":"levelo://app?vid=0174841e-8011-4a7b-bd18-480101bee765"},"vehicle_type_id":"4","last_reported":1732892980,"current_range_meters":800,"station_id":"ce4bhi12rcd13ifvqfp0","pricing_plan_id":"cebpf4jnsgd1na2vs0mg"},{"bike_id":"414ced6b-9457-41ed-a305-11df89f57c01","system_id":"levelo_inurba_marseille","lat":43.34144,"lon":5.40905,"is_reserved":false,"is_disabled":false,"rental_uris":{"android":"levelo://app?vid=414ced6b-9457-41ed-a305-11df89f57c01","ios":"levelo://app?vid=414ced6b-9457-41ed-a305-11df89f57c01"},"vehicle_type_id":"4","last_reported":1732892980,"current_range_meters":6800,"station_id":"ce4bhqh2rcd13ifvqhlg","pricing_plan_id":"cebpf4jnsgd1na2vs0mg"},{"bike_id":"afe9f006-e37a-4b13-8cd1-0dcd28b5fdb6","system_id":"levelo_inurba_marseille","lat":43.29958,"lon":5.41325,"is_reserved":false,"is_disabled":false,"rental_uris":{"android":"levelo://app?vid=afe9f006-e37a-4b13-8cd1-0dcd28b5fdb6","ios":"levelo://app?vid=afe9f006-e37a-4b13-8cd1-0dcd28b5fdb6"},"vehicle_type_id":"4","last_reported":1732892980,"current_range_meters":19200,"station_id":"ce4bhp12rcd13ifvqh9g","pricing_plan_id":"cebpf4jnsgd1na2vs0mg"},{"bike_id":"58ca60a4-d1e6-453f-a430-5f01999840d4","system_id":"levelo_inurba_marseille","lat":43.30916,"lon":5.36709,"is_reserved":false,"is_disabled":false,"rental_uris":{"android":"levelo://app?vid=58ca60a4-d1e6-453f-a430-5f01999840d4","ios":"levelo://app?vid=58ca60a4-d1e6-453f-a430-5f01999840d4"},"vehicle_type_id":"4","last_reported":1732892980,"current_range_meters":32000,"station_id":"","pricing_plan_id":"cebpf4jnsgd1na2vs0mg"},{"bike_id":"759518f4-9f32-4b72-97fe-df61c6c7bd05","system_id":"levelo_inurba_marseille","lat":43.31259,"lon":5.4019,"is_reserved":false,"is_disabled":true,"rental_uris":{"android":"levelo://app?vid=759518f4-9f32-4b72-97fe-df61c6c7bd05","ios":"levelo://app?vid=759518f4-9f32-4b72-97fe-df61c6c7bd05"},"vehicle_type_id":"4","last_reported":1732892980,"current_range_meters":6800,"station_id":"ce4bh092rcd13ifvqd30","pricing_plan_id":"cebpf4jnsgd1na2vs0mg"},{"bike_id":"4d8c52a6-898a-483a-af2c-690fbaafb5d1","system_id":"levelo_inurba_marseille","lat":43.25002,"lon":5.38935,"is_reserved":false,"is_disabled":true,"rental_uris":{"android":"levelo://app?vid=4d8c52a6-898a-483a-af2c-690fbaafb5d1","ios":"levelo://app?vid=4d8c52a6-898a-483a-af2c-690fbaafb5d1"},"vehicle_type_id":"4","last_reported":1732892980,"current_range_meters":0,"station_id":"ce4bhgp2rcd13ifvqfd0","pricing_plan_id":"cebpf4jnsgd1na2vs0mg"},{"bike_id":"226521fb-2ed2-4f7e-9c4a-60ee6ee3ae6c","system_id":"levelo_inurba_marseille","lat":43.31221,"lon":5.36859,"is_reserved":false,"is_disabled":false,"rental_uris":{"android":"levelo://app?vid=226521fb-2ed2-4f7e-9c4a-60ee6ee3ae6c","ios":"levelo://app?vid=226521fb-2ed2-4f7e-9c4a-60ee6ee3ae6c"},"vehicle_type_id":"4","last_reported":1732892980,"current_range_meters":38800,"station_id":"ce4bgl92rcd13ifvqbq0","pricing_plan_id":"cebpf4jnsgd1na2vs0mg"},{"bike_id":"478a3b7b-bcd1-47ef-b3b8-2e61b9492897","system_id":"levelo_inurba_marseille","lat":43.31231,"lon":5.36846,"is_reserved":false,"is_disabled":false,"rental_uris":{"android":"levelo://app?vid=478a3b7b-bcd1-47ef-b3b8-2e61b9492897","ios":"levelo://app?vid=478a3b7b-bcd1-47ef-b3b8-2e61b9492897"},"vehicle_type_id":"4","last_reported":1732892980,"current_range_meters":24400,"station_id":"ce4bgl92rcd13ifvqbq0","pricing_plan_id":"cebpf4jnsgd1na2vs0mg"},{"bike_id":"761e9d1f-8f74-441c-b33d-5b3257bd2e4c","system_id":"levelo_inurba_marseille","lat":43.3028,"lon":5.37813,"is_reserved":false,"is_disabled":false,"rental_uris":{"android":"levelo://app?vid=761e9d1f-8f74-441c-b33d-5b3257bd2e4c","ios":"levelo://app?vid=761e9d1f-8f74-441c-b33d-5b3257bd2e4c"},"vehicle_type_id":"4","last_reported":1732892980,"current_range_meters":6400,"station_id":"","pricing_plan_id":"cebpf4jnsgd1na2vs0mg"},{"bike_id":"8f732734-0640-449a-94e4-66c7fd47a99a","system_id":"levelo_inurba_marseille","lat":43.32296,"lon":5.38277,"is_reserved":false,"is_disabled":false,"rental_uris":{"android":"levelo://app?vid=8f732734-0640-449a-94e4-66c7fd47a99a","ios":"levelo://app?vid=8f732734-0640-449a-94e4-66c7fd47a99a"},"vehicle_type_id":"4","last_reported":1732892980,"current_range_meters":35200,"station_id":"ce4bhr12rcd13ifvqhqg","pricing_plan_id":"cebpf4jnsgd1na2vs0mg"},{"bike_id":"90589d3c-c27d-41de-b7ab-7085b76b35f2","system_id":"levelo_inurba_marseille","lat":43.28024,"lon":5.36959,"is_reserved":false,"is_disabled":false,"rental_uris":{"android":"levelo://app?vid=90589d3c-c27d-41de-b7ab-7085b76b35f2","ios":"levelo://app?vid=90589d3c-c27d-41de-b7ab-7085b76b35f2"},"vehicle_type_id":"4","last_reported":1732892980,"current_range_meters":34000,"station_id":"ce4bha12rcd13ifvqef0","pricing_plan_id":"cebpf4jnsgd1na2vs0mg"},{"bike_id":"9f71d9b1-f1c2-46eb-b001-c03b9e0d69c6","system_id":"levelo_inurba_marseille","lat":43.29946,"lon":5.36551,"is_reserved":false,"is_disabled":false,"rental_uris":{"android":"levelo://app?vid=9f71d9b1-f1c2-46eb-b001-c03b9e0d69c6","ios":"levelo://app?vid=9f71d9b1-f1c2-46eb-b001-c03b9e0d69c6"},"vehicle_type_id":"4","last_reported":1732892980,"current_range_meters":38800,"station_id":"ce4bgm92rcd13ifvqbr0","pricing_plan_id":"cebpf4jnsgd1na2vs0mg"},{"bike_id":"e0f751c1-e73d-4fd9-8fd5-b0800d31e948","system_id":"levelo_inurba_marseille","lat":43.25082,"lon":5.39523,"is_reserved":false,"is_disabled":false,"rental_uris":{"android":"levelo://app?vid=e0f751c1-e73d-4fd9-8fd5-b0800d31e948","ios":"levelo://app?vid=e0f751c1-e73d-4fd9-8fd5-b0800d31e948"},"vehicle_type_id":"4","last_reported":1732892980,"current_range_meters":16000,"station_id":"ce4bhm12rcd13ifvqgkg","pricing_plan_id":"cebpf4jnsgd1na2vs0mg"},{"bike_id":"606f4b92-39a8-4f88-978c-f3ff47b620c4","system_id":"levelo_inurba_marseille","lat":43.27173,"lon":5.40991,"is_reserved":false,"is_disabled":false,"rental_uris":{"android":"levelo://app?vid=606f4b92-39a8-4f88-978c-f3ff47b620c4","ios":"levelo://app?vid=606f4b92-39a8-4f88-978c-f3ff47b620c4"},"vehicle_type_id":"4","last_reported":1732892980,"current_range_meters":28400,"station_id":"ce4bhl12rcd13ifvqgf0","pricing_plan_id":"cebpf4jnsgd1na2vs0mg"},{"bike_id":"76cf05b8-b737-43a2-a8b0-2a3350d05016","system_id":"levelo_inurba_marseille","lat":43.27054,"lon":5.40258,"is_reserved":false,"is_disabled":true,"rental_uris":{"android":"levelo://app?vid=76cf05b8-b737-43a2-a8b0-2a3350d05016","ios":"levelo://app?vid=76cf05b8-b737-43a2-a8b0-2a3350d05016"},"vehicle_type_id":"4","last_reported":1732892980,"current_range_meters":0,"station_id":"ce4bhk92rcd13ifvqgc0","pricing_plan_id":"cebpf4jnsgd1na2vs0mg"},{"bike_id":"5136ee7f-86a0-4cc7-a4c4-a212ef9fb4a1","system_id":"levelo_inurba_marseille","lat":43.26569,"lon":5.39018,"is_reserved":false,"is_disabled":false,"rental_uris":{"android":"levelo://app?vid=5136ee7f-86a0-4cc7-a4c4-a212ef9fb4a1","ios":"levelo://app?vid=5136ee7f-86a0-4cc7-a4c4-a212ef9fb4a1"},"vehicle_type_id":"4","last_reported":1732892980,"current_range_meters":20800,"station_id":"ce4bhe12rcd13ifvqf30","pricing_plan_id":"cebpf4jnsgd1na2vs0mg"},{"bike_id":"2839c06e-dfc6-4bb4-92dd-cd78c43581f0","system_id":"levelo_inurba_marseille","lat":43.23197,"lon":5.35555,"is_reserved":false,"is_disabled":false,"rental_uris":{"android":"levelo://app?vid=2839c06e-dfc6-4bb4-92dd-cd78c43581f0","ios":"levelo://app?vid=2839c06e-dfc6-4bb4-92dd-cd78c43581f0"},"vehicle_type_id":"4","last_reported":1732892980,"current_range_meters":19200,"station_id":"ce4bhu92rcd13ifvqi70","pricing_plan_id":"cebpf4jnsgd1na2vs0mg"},{"bike_id":"f1eb81dc-28c7-4b84-ae5b-4c30f79e019c","system_id":"levelo_inurba_marseille","lat":43.28244,"lon":5.35068,"is_reserved":false,"is_disabled":false,"rental_uris":{"android":"levelo://app?vid=f1eb81dc-28c7-4b84-ae5b-4c30f79e019c","ios":"levelo://app?vid=f1eb81dc-28c7-4b84-ae5b-4c30f79e019c"},"vehicle_type_id":"4","last_reported":1732892980,"current_range_meters":38400,"station_id":"ce4bhbp2rcd13ifvqerg","pricing_plan_id":"cebpf4jnsgd1na2vs0mg"},{"bike_id":"5c17b913-95e4-4042-8d4d-625815324cb0","system_id":"levelo_inurba_marseille","lat":43.28575,"lon":5.39495,"is_reserved":false,"is_disabled":false,"rental_uris":{"android":"levelo://app?vid=5c17b913-95e4-4042-8d4d-625815324cb0","ios":"levelo://app?vid=5c17b913-95e4-4042-8d4d-625815324cb0"},"vehicle_type_id":"4","last_reported":1732892980,"current_range_meters":30400,"station_id":"ce4bh292rcd13ifvqdg0","pricing_plan_id":"cebpf4jnsgd1na2vs0mg"},{"bike_id":"fe1c6c60-0f4f-4b5c-a7ea-9f2ff8347245","system_id":"levelo_inurba_marseille","lat":43.27618,"lon":5.36122,"is_reserved":false,"is_disabled":true,"rental_uris":{"android":"levelo://app?vid=fe1c6c60-0f4f-4b5c-a7ea-9f2ff8347245","ios":"levelo://app?vid=fe1c6c60-0f4f-4b5c-a7ea-9f2ff8347245"},"vehicle_type_id":"4","last_reported":1732892980,"current_range_meters":0,"station_id":"ce4bgj92rcd13ifvqbe0","pricing_plan_id":"cebpf4jnsgd1na2vs0mg"},{"bike_id":"eae11ea9-c309-4b39-968b-00feee5cf0cf","system_id":"levelo_inurba_marseille","lat":43.25825,"lon":5.39414,"is_reserved":false,"is_disabled":false,"rental_uris":{"android":"levelo://app?vid=eae11ea9-c309-4b39-968b-00feee5cf0cf","ios":"levelo://app?vid=eae11ea9-c309-4b39-968b-00feee5cf0cf"},"vehicle_type_id":"4","last_reported":1732892980,"current_range_meters":38000,"station_id":"ce4bhip2rcd13ifvqft0","pricing_plan_id":"cebpf4jnsgd1na2vs0mg"},{"bike_id":"e42249bf-1ff8-4abf-b6d4-85655a6f5f87","system_id":"levelo_inurba_marseille","lat":43.32039,"lon":5.41573,"is_reserved":false,"is_disabled":false,"rental_uris":{"android":"levelo://app?vid=e42249bf-1ff8-4abf-b6d4-85655a6f5f87","ios":"levelo://app?vid=e42249bf-1ff8-4abf-b6d4-85655a6f5f87"},"vehicle_type_id":"4","last_reported":1732892980,"current_range_meters":38800,"station_id":"ce4bhq92rcd13ifvqhkg","pricing_plan_id":"cebpf4jnsgd1na2vs0mg"},{"bike_id":"2ecf31ee-a72b-4506-844b-610cd687fd67","system_id":"levelo_inurba_marseille","lat":43.29038,"lon":5.37562,"is_reserved":false,"is_disabled":false,"rental_uris":{"android":"levelo://app?vid=2ecf31ee-a72b-4506-844b-610cd687fd67","ios":"levelo://app?vid=2ecf31ee-a72b-4506-844b-610cd687fd67"},"vehicle_type_id":"4","last_reported":1732892980,"current_range_meters":24800,"station_id":"ce4bh692rcd13ifvqe90","pricing_plan_id":"cebpf4jnsgd1na2vs0mg"},{"bike_id":"80773253-21d5-47dd-8901-347f69116010","system_id":"levelo_inurba_marseille","lat":43.26495,"lon":5.39538,"is_reserved":false,"is_disabled":false,"rental_uris":{"android":"levelo://app?vid=80773253-21d5-47dd-8901-347f69116010","ios":"levelo://app?vid=80773253-21d5-47dd-8901-347f69116010"},"vehicle_type_id":"4","last_reported":1732892980,"current_range_meters":10000,"station_id":"ce4bhi12rcd13ifvqfq0","pricing_plan_id":"cebpf4jnsgd1na2vs0mg"},{"bike_id":"99feab85-5d51-412f-8ed3-9ba217469c8f","system_id":"levelo_inurba_marseille","lat":43.30441,"lon":5.38895,"is_reserved":false,"is_disabled":false,"rental_uris":{"android":"levelo://app?vid=99feab85-5d51-412f-8ed3-9ba217469c8f","ios":"levelo://app?vid=99feab85-5d51-412f-8ed3-9ba217469c8f"},"vehicle_type_id":"4","last_reported":1732892980,"current_range_meters":26000,"station_id":"ce4bgk12rcd13ifvqbi0","pricing_plan_id":"cebpf4jnsgd1na2vs0mg"},{"bike_id":"0bf1d693-84f9-48a1-81b2-68bc9a36cf35","system_id":"levelo_inurba_marseille","lat":43.31226,"lon":5.36851,"is_reserved":false,"is_disabled":false,"rental_uris":{"android":"levelo://app?vid=0bf1d693-84f9-48a1-81b2-68bc9a36cf35","ios":"levelo://app?vid=0bf1d693-84f9-48a1-81b2-68bc9a36cf35"},"vehicle_type_id":"4","last_reported":1732892980,"current_range_meters":20800,"station_id":"ce4bgl92rcd13ifvqbq0","pricing_plan_id":"cebpf4jnsgd1na2vs0mg"},{"bike_id":"e157a6c6-3649-4f8b-b5ab-15dbe5f914f9","system_id":"levelo_inurba_marseille","lat":43.31272,"lon":5.40177,"is_reserved":false,"is_disabled":false,"rental_uris":{"android":"levelo://app?vid=e157a6c6-3649-4f8b-b5ab-15dbe5f914f9","ios":"levelo://app?vid=e157a6c6-3649-4f8b-b5ab-15dbe5f914f9"},"vehicle_type_id":"4","last_reported":1732892980,"current_range_meters":28800,"station_id":"ce4bh092rcd13ifvqd30","pricing_plan_id":"cebpf4jnsgd1na2vs0mg"},{"bike_id":"c60ac7ff-2baf-40c2-84ea-5c74b8eec6a0","system_id":"levelo_inurba_marseille","lat":43.27933,"lon":5.412,"is_reserved":false,"is_disabled":false,"rental_uris":{"android":"levelo://app?vid=c60ac7ff-2baf-40c2-84ea-5c74b8eec6a0","ios":"levelo://app?vid=c60ac7ff-2baf-40c2-84ea-5c74b8eec6a0"},"vehicle_type_id":"4","last_reported":1732892980,"current_range_meters":4400,"station_id":"","pricing_plan_id":"cebpf4jnsgd1na2vs0mg"},{"bike_id":"5cbf1539-18e9-4c34-b3ac-bb7a0181213c","system_id":"levelo_inurba_marseille","lat":43.30284,"lon":5.36744,"is_reserved":false,"is_disabled":false,"rental_uris":{"android":"levelo://app?vid=5cbf1539-18e9-4c34-b3ac-bb7a0181213c","ios":"levelo://app?vid=5cbf1539-18e9-4c34-b3ac-bb7a0181213c"},"vehicle_type_id":"4","last_reported":1732892980,"current_range_meters":32400,"station_id":"","pricing_plan_id":"cebpf4jnsgd1na2vs0mg"},{"bike_id":"372dcf13-a9c5-4d94-8b71-13decc646750","system_id":"levelo_inurba_marseille","lat":43.30532,"lon":5.36544,"is_reserved":false,"is_disabled":false,"rental_uris":{"android":"levelo://app?vid=372dcf13-a9c5-4d94-8b71-13decc646750","ios":"levelo://app?vid=372dcf13-a9c5-4d94-8b71-13decc646750"},"vehicle_type_id":"4","last_reported":1732892980,"current_range_meters":6800,"station_id":"ce4bgs12rcd13ifvqcag","pricing_plan_id":"cebpf4jnsgd1na2vs0mg"},{"bike_id":"da774a29-d215-4f2b-bb3f-e5702ece1f4b","system_id":"levelo_inurba_marseille","lat":43.28939,"lon":5.39629,"is_reserved":false,"is_disabled":false,"rental_uris":{"android":"levelo://app?vid=da774a29-d215-4f2b-bb3f-e5702ece1f4b","ios":"levelo://app?vid=da774a29-d215-4f2b-bb3f-e5702ece1f4b"},"vehicle_type_id":"4","last_reported":1732892980,"current_range_meters":16000,"station_id":"ce4bh3h2rcd13ifvqdn0","pricing_plan_id":"cebpf4jnsgd1na2vs0mg"},{"bike_id":"f61644f8-cbd4-4e55-9bf2-7ce5bf92d4e1","system_id":"levelo_inurba_marseille","lat":43.3033,"lon":5.40433,"is_reserved":false,"is_disabled":false,"rental_uris":{"android":"levelo://app?vid=f61644f8-cbd4-4e55-9bf2-7ce5bf92d4e1","ios":"levelo://app?vid=f61644f8-cbd4-4e55-9bf2-7ce5bf92d4e1"},"vehicle_type_id":"4","last_reported":1732892980,"current_range_meters":37600,"station_id":"ce4bh012rcd13ifvqd10","pricing_plan_id":"cebpf4jnsgd1na2vs0mg"},{"bike_id":"a5909545-3e09-4859-9fda-9ffe4e6e4883","system_id":"levelo_inurba_marseille","lat":43.23066,"lon":5.35491,"is_reserved":false,"is_disabled":false,"rental_uris":{"android":"levelo://app?vid=a5909545-3e09-4859-9fda-9ffe4e6e4883","ios":"levelo://app?vid=a5909545-3e09-4859-9fda-9ffe4e6e4883"},"vehicle_type_id":"4","last_reported":1732892980,"current_range_meters":16800,"station_id":"cpo3342slgdg3j2ifvpg","pricing_plan_id":"cebpf4jnsgd1na2vs0mg"},{"bike_id":"c54fa7c9-a127-4d75-ac3d-fe8ea889edd3","system_id":"levelo_inurba_marseille","lat":43.3014,"lon":5.3988,"is_reserved":false,"is_disabled":true,"rental_uris":{"android":"levelo://app?vid=c54fa7c9-a127-4d75-ac3d-fe8ea889edd3","ios":"levelo://app?vid=c54fa7c9-a127-4d75-ac3d-fe8ea889edd3"},"vehicle_type_id":"4","last_reported":1732892980,"current_range_meters":12000,"station_id":"ce4bh0h2rcd13ifvqd40","pricing_plan_id":"cebpf4jnsgd1na2vs0mg"},{"bike_id":"c79e9016-c771-4ca5-97b0-4cb56342be14","system_id":"levelo_inurba_marseille","lat":43.3247,"lon":5.3657,"is_reserved":false,"is_disabled":false,"rental_uris":{"android":"levelo://app?vid=c79e9016-c771-4ca5-97b0-4cb56342be14","ios":"levelo://app?vid=c79e9016-c771-4ca5-97b0-4cb56342be14"},"vehicle_type_id":"4","last_reported":1732892980,"current_range_meters":39200,"station_id":"ce4bhs12rcd13ifvqhvg","pricing_plan_id":"cebpf4jnsgd1na2vs0mg"},{"bike_id":"1f3be82a-39fb-49be-9f70-2df7092d6f3c","system_id":"levelo_inurba_marseille","lat":43.32491,"lon":5.36586,"is_reserved":false,"is_disabled":false,"rental_uris":{"android":"levelo://app?vid=1f3be82a-39fb-49be-9f70-2df7092d6f3c","ios":"levelo://app?vid=1f3be82a-39fb-49be-9f70-2df7092d6f3c"},"vehicle_type_id":"4","last_reported":1732892980,"current_range_meters":12000,"station_id":"ce4bhs12rcd13ifvqhvg","pricing_plan_id":"cebpf4jnsgd1na2vs0mg"},{"bike_id":"0b1727ff-5b8a-491b-9368-c3dd578a1456","system_id":"levelo_inurba_marseille","lat":43.29094,"lon":5.38123,"is_reserved":false,"is_disabled":false,"rental_uris":{"android":"levelo://app?vid=0b1727ff-5b8a-491b-9368-c3dd578a1456","ios":"levelo://app?vid=0b1727ff-5b8a-491b-9368-c3dd578a1456"},"vehicle_type_id":"4","last_reported":1732892980,"current_range_meters":27600,"station_id":"ce4bh512rcd13ifvqe2g","pricing_plan_id":"cebpf4jnsgd1na2vs0mg"},{"bike_id":"7ff90747-4ed0-4252-ad9a-8c079d9cb5f3","system_id":"levelo_inurba_marseille","lat":43.27612,"lon":5.36117,"is_reserved":false,"is_disabled":false,"rental_uris":{"android":"levelo://app?vid=7ff90747-4ed0-4252-ad9a-8c079d9cb5f3","ios":"levelo://app?vid=7ff90747-4ed0-4252-ad9a-8c079d9cb5f3"},"vehicle_type_id":"4","last_reported":1732892980,"current_range_meters":10000,"station_id":"ce4bgj92rcd13ifvqbe0","pricing_plan_id":"cebpf4jnsgd1na2vs0mg"},{"bike_id":"d18cb028-fa03-4321-82e6-6bc4408b03bb","system_id":"levelo_inurba_marseille","lat":43.23158,"lon":5.437,"is_reserved":false,"is_disabled":false,"rental_uris":{"android":"levelo://app?vid=d18cb028-fa03-4321-82e6-6bc4408b03bb","ios":"levelo://app?vid=d18cb028-fa03-4321-82e6-6bc4408b03bb"},"vehicle_type_id":"4","last_reported":1732892980,"current_range_meters":32800,"station_id":"ce4bhmp2rcd13ifvqgog","pricing_plan_id":"cebpf4jnsgd1na2vs0mg"},{"bike_id":"e5951ee3-4a5a-4ebb-b469-096c5188dfa3","system_id":"levelo_inurba_marseille","lat":43.23195,"lon":5.35572,"is_reserved":false,"is_disabled":false,"rental_uris":{"android":"levelo://app?vid=e5951ee3-4a5a-4ebb-b469-096c5188dfa3","ios":"levelo://app?vid=e5951ee3-4a5a-4ebb-b469-096c5188dfa3"},"vehicle_type_id":"4","last_reported":1732892980,"current_range_meters":24000,"station_id":"ce4bhu92rcd13ifvqi70","pricing_plan_id":"cebpf4jnsgd1na2vs0mg"},{"bike_id":"f9a63393-5401-4f98-ae5a-dfbb8291ab6d","system_id":"levelo_inurba_marseille","lat":43.3004,"lon":5.37551,"is_reserved":false,"is_disabled":true,"rental_uris":{"android":"levelo://app?vid=f9a63393-5401-4f98-ae5a-dfbb8291ab6d","ios":"levelo://app?vid=f9a63393-5401-4f98-ae5a-dfbb8291ab6d"},"vehicle_type_id":"4","last_reported":1732892980,"current_range_meters":0,"station_id":"","pricing_plan_id":"cebpf4jnsgd1na2vs0mg"},{"bike_id":"d2300a67-e59d-4c6d-84e8-89c1777cddcc","system_id":"levelo_inurba_marseille","lat":43.3199,"lon":5.38155,"is_reserved":false,"is_disabled":false,"rental_uris":{"android":"levelo://app?vid=d2300a67-e59d-4c6d-84e8-89c1777cddcc","ios":"levelo://app?vid=d2300a67-e59d-4c6d-84e8-89c1777cddcc"},"vehicle_type_id":"4","last_reported":1732892980,"current_range_meters":18000,"station_id":"ce4bhr12rcd13ifvqhpg","pricing_plan_id":"cebpf4jnsgd1na2vs0mg"},{"bike_id":"4f0c1e85-c49b-4785-bb85-73966461f965","system_id":"levelo_inurba_marseille","lat":43.30506,"lon":5.36545,"is_reserved":false,"is_disabled":false,"rental_uris":{"android":"levelo://app?vid=4f0c1e85-c49b-4785-bb85-73966461f965","ios":"levelo://app?vid=4f0c1e85-c49b-4785-bb85-73966461f965"},"vehicle_type_id":"4","last_reported":1732892980,"current_range_meters":18000,"station_id":"","pricing_plan_id":"cebpf4jnsgd1na2vs0mg"},{"bike_id":"c010f690-823a-487a-92be-52c148a40608","system_id":"levelo_inurba_marseille","lat":43.28864,"lon":5.35846,"is_reserved":false,"is_disabled":false,"rental_uris":{"android":"levelo://app?vid=c010f690-823a-487a-92be-52c148a40608","ios":"levelo://app?vid=c010f690-823a-487a-92be-52c148a40608"},"vehicle_type_id":"4","last_reported":1732892980,"current_range_meters":37600,"station_id":"ce4bhb12rcd13ifvqem0","pricing_plan_id":"cebpf4jnsgd1na2vs0mg"},{"bike_id":"ca4a62cc-0162-4867-baae-5fed586cc0f8","system_id":"levelo_inurba_marseille","lat":43.27167,"lon":5.40996,"is_reserved":false,"is_disabled":false,"rental_uris":{"android":"levelo://app?vid=ca4a62cc-0162-4867-baae-5fed586cc0f8","ios":"levelo://app?vid=ca4a62cc-0162-4867-baae-5fed586cc0f8"},"vehicle_type_id":"4","last_reported":1732892980,"current_range_meters":18800,"station_id":"ce4bhl12rcd13ifvqgf0","pricing_plan_id":"cebpf4jnsgd1na2vs0mg"},{"bike_id":"209edce5-94bd-42b7-894c-233f806592a5","system_id":"levelo_inurba_marseille","lat":43.3236,"lon":5.36759,"is_reserved":false,"is_disabled":false,"rental_uris":{"android":"levelo://app?vid=209edce5-94bd-42b7-894c-233f806592a5","ios":"levelo://app?vid=209edce5-94bd-42b7-894c-233f806592a5"},"vehicle_type_id":"4","last_reported":1732892980,"current_range_meters":33600,"station_id":"ce4bhsh2rcd13ifvqi2g","pricing_plan_id":"cebpf4jnsgd1na2vs0mg"},{"bike_id":"cb90edb8-6b97-4f13-aaf4-7fc553c35336","system_id":"levelo_inurba_marseille","lat":43.31721,"lon":5.37795,"is_reserved":false,"is_disabled":false,"rental_uris":{"android":"levelo://app?vid=cb90edb8-6b97-4f13-aaf4-7fc553c35336","ios":"levelo://app?vid=cb90edb8-6b97-4f13-aaf4-7fc553c35336"},"vehicle_type_id":"4","last_reported":1732892980,"current_range_meters":37600,"station_id":"ce4bgth2rcd13ifvqch0","pricing_plan_id":"cebpf4jnsgd1na2vs0mg"},{"bike_id":"2c4104f6-53d4-4e19-a847-33783ca9468e","system_id":"levelo_inurba_marseille","lat":43.26691,"lon":5.38278,"is_reserved":false,"is_disabled":false,"rental_uris":{"android":"levelo://app?vid=2c4104f6-53d4-4e19-a847-33783ca9468e","ios":"levelo://app?vid=2c4104f6-53d4-4e19-a847-33783ca9468e"},"vehicle_type_id":"4","last_reported":1732892980,"current_range_meters":4400,"station_id":"ce4bhg92rcd13ifvqf90","pricing_plan_id":"cebpf4jnsgd1na2vs0mg"},{"bike_id":"1b908d23-f868-4587-9d3f-4538837120a8","system_id":"levelo_inurba_marseille","lat":43.29078,"lon":5.37178,"is_reserved":false,"is_disabled":false,"rental_uris":{"android":"levelo://app?vid=1b908d23-f868-4587-9d3f-4538837120a8","ios":"levelo://app?vid=1b908d23-f868-4587-9d3f-4538837120a8"},"vehicle_type_id":"4","last_reported":1732892980,"current_range_meters":38000,"station_id":"ce4bh5p2rcd13ifvqe4g","pricing_plan_id":"cebpf4jnsgd1na2vs0mg"},{"bike_id":"a1de088e-f9bc-437b-86db-027b9d5a0352","system_id":"levelo_inurba_marseille","lat":43.33027,"lon":5.39041,"is_reserved":false,"is_disabled":false,"rental_uris":{"android":"levelo://app?vid=a1de088e-f9bc-437b-86db-027b9d5a0352","ios":"levelo://app?vid=a1de088e-f9bc-437b-86db-027b9d5a0352"},"vehicle_type_id":"4","last_reported":1732892980,"current_range_meters":21600,"station_id":"ce4bhr92rcd13ifvqhrg","pricing_plan_id":"cebpf4jnsgd1na2vs0mg"},{"bike_id":"de8dedfd-c65e-4ce5-b8ec-b5ab34a22a6e","system_id":"levelo_inurba_marseille","lat":43.27068,"lon":5.42282,"is_reserved":false,"is_disabled":true,"rental_uris":{"android":"levelo://app?vid=de8dedfd-c65e-4ce5-b8ec-b5ab34a22a6e","ios":"levelo://app?vid=de8dedfd-c65e-4ce5-b8ec-b5ab34a22a6e"},"vehicle_type_id":"4","last_reported":1732892980,"current_range_meters":39200,"station_id":"ce4bhk92rcd13ifvqgb0","pricing_plan_id":"cebpf4jnsgd1na2vs0mg"},{"bike_id":"d650bd84-7b8b-4e65-9ac1-3b9de66e6bf0","system_id":"levelo_inurba_marseille","lat":43.29201,"lon":5.39325,"is_reserved":false,"is_disabled":false,"rental_uris":{"android":"levelo://app?vid=d650bd84-7b8b-4e65-9ac1-3b9de66e6bf0","ios":"levelo://app?vid=d650bd84-7b8b-4e65-9ac1-3b9de66e6bf0"},"vehicle_type_id":"4","last_reported":1732892980,"current_range_meters":22000,"station_id":"ce4bh192rcd13ifvqdd0","pricing_plan_id":"cebpf4jnsgd1na2vs0mg"},{"bike_id":"c9238e3d-341c-40ba-a271-f73ddb6908db","system_id":"levelo_inurba_marseille","lat":43.28364,"lon":5.38635,"is_reserved":false,"is_disabled":false,"rental_uris":{"android":"levelo://app?vid=c9238e3d-341c-40ba-a271-f73ddb6908db","ios":"levelo://app?vid=c9238e3d-341c-40ba-a271-f73ddb6908db"},"vehicle_type_id":"4","last_reported":1732892980,"current_range_meters":21600,"station_id":"ce4bh492rcd13ifvqdvg","pricing_plan_id":"cebpf4jnsgd1na2vs0mg"},{"bike_id":"f576f1ac-9441-4aaf-9239-99d550cb7b55","system_id":"levelo_inurba_marseille","lat":43.31705,"lon":5.3776,"is_reserved":false,"is_disabled":false,"rental_uris":{"android":"levelo://app?vid=f576f1ac-9441-4aaf-9239-99d550cb7b55","ios":"levelo://app?vid=f576f1ac-9441-4aaf-9239-99d550cb7b55"},"vehicle_type_id":"4","last_reported":1732892980,"current_range_meters":38000,"station_id":"ce4bgth2rcd13ifvqch0","pricing_plan_id":"cebpf4jnsgd1na2vs0mg"},{"bike_id":"47a43e08-c0ab-48e4-8264-39798859023a","system_id":"levelo_inurba_marseille","lat":43.29236,"lon":5.3609,"is_reserved":false,"is_disabled":false,"rental_uris":{"android":"levelo://app?vid=47a43e08-c0ab-48e4-8264-39798859023a","ios":"levelo://app?vid=47a43e08-c0ab-48e4-8264-39798859023a"},"vehicle_type_id":"4","last_reported":1732892980,"current_range_meters":27200,"station_id":"ce4bhbh2rcd13ifvqeqg","pricing_plan_id":"cebpf4jnsgd1na2vs0mg"},{"bike_id":"d1fd7c18-081f-4165-90f6-fbb5157ea749","system_id":"levelo_inurba_marseille","lat":43.27975,"lon":5.38757,"is_reserved":false,"is_disabled":true,"rental_uris":{"android":"levelo://app?vid=d1fd7c18-081f-4165-90f6-fbb5157ea749","ios":"levelo://app?vid=d1fd7c18-081f-4165-90f6-fbb5157ea749"},"vehicle_type_id":"4","last_reported":1732892980,"current_range_meters":0,"station_id":"ce4bhg12rcd13ifvqf80","pricing_plan_id":"cebpf4jnsgd1na2vs0mg"},{"bike_id":"87e1c3f0-2676-4aba-a932-1c001b2d4ed1","system_id":"levelo_inurba_marseille","lat":43.29267,"lon":5.3844,"is_reserved":false,"is_disabled":false,"rental_uris":{"android":"levelo://app?vid=87e1c3f0-2676-4aba-a932-1c001b2d4ed1","ios":"levelo://app?vid=87e1c3f0-2676-4aba-a932-1c001b2d4ed1"},"vehicle_type_id":"4","last_reported":1732892980,"current_range_meters":38800,"station_id":"ce4bh692rcd13ifvqea0","pricing_plan_id":"cebpf4jnsgd1na2vs0mg"},{"bike_id":"cf002d38-17c9-44fd-9354-c7910c4bd3ff","system_id":"levelo_inurba_marseille","lat":43.33028,"lon":5.3904,"is_reserved":false,"is_disabled":false,"rental_uris":{"android":"levelo://app?vid=cf002d38-17c9-44fd-9354-c7910c4bd3ff","ios":"levelo://app?vid=cf002d38-17c9-44fd-9354-c7910c4bd3ff"},"vehicle_type_id":"4","last_reported":1732892980,"current_range_meters":32000,"station_id":"ce4bhr92rcd13ifvqhrg","pricing_plan_id":"cebpf4jnsgd1na2vs0mg"},{"bike_id":"13e49c0d-8782-48c4-aa62-5b9e33c13a67","system_id":"levelo_inurba_marseille","lat":43.2738,"lon":5.36262,"is_reserved":false,"is_disabled":true,"rental_uris":{"android":"levelo://app?vid=13e49c0d-8782-48c4-aa62-5b9e33c13a67","ios":"levelo://app?vid=13e49c0d-8782-48c4-aa62-5b9e33c13a67"},"vehicle_type_id":"4","last_reported":1732892980,"current_range_meters":0,"station_id":"ce4bhbh2rcd13ifvqeo0","pricing_plan_id":"cebpf4jnsgd1na2vs0mg"},{"bike_id":"4dd218d0-4d2f-4262-b560-bcdc79c0606c","system_id":"levelo_inurba_marseille","lat":43.29081,"lon":5.3717,"is_reserved":false,"is_disabled":false,"rental_uris":{"android":"levelo://app?vid=4dd218d0-4d2f-4262-b560-bcdc79c0606c","ios":"levelo://app?vid=4dd218d0-4d2f-4262-b560-bcdc79c0606c"},"vehicle_type_id":"4","last_reported":1732892980,"current_range_meters":19600,"station_id":"ce4bh5p2rcd13ifvqe4g","pricing_plan_id":"cebpf4jnsgd1na2vs0mg"},{"bike_id":"43746d86-8a13-4845-9faf-ae69b548d714","system_id":"levelo_inurba_marseille","lat":43.29459,"lon":5.37917,"is_reserved":false,"is_disabled":true,"rental_uris":{"android":"levelo://app?vid=43746d86-8a13-4845-9faf-ae69b548d714","ios":"levelo://app?vid=43746d86-8a13-4845-9faf-ae69b548d714"},"vehicle_type_id":"4","last_reported":1732892980,"current_range_meters":0,"station_id":"","pricing_plan_id":"cebpf4jnsgd1na2vs0mg"},{"bike_id":"fed310ae-6982-438a-a6f5-d4158ce1c584","system_id":"levelo_inurba_marseille","lat":43.298052,"lon":5.381164,"is_reserved":false,"is_disabled":false,"rental_uris":{"android":"levelo://app?vid=fed310ae-6982-438a-a6f5-d4158ce1c584","ios":"levelo://app?vid=fed310ae-6982-438a-a6f5-d4158ce1c584"},"vehicle_type_id":"4","last_reported":1732892980,"current_range_meters":28800,"station_id":"ce4bgip2rcd13ifvqbb0","pricing_plan_id":"cebpf4jnsgd1na2vs0mg"},{"bike_id":"62d12256-3a16-4cc6-9113-a467945bc090","system_id":"levelo_inurba_marseille","lat":43.28458,"lon":5.39206,"is_reserved":false,"is_disabled":false,"rental_uris":{"android":"levelo://app?vid=62d12256-3a16-4cc6-9113-a467945bc090","ios":"levelo://app?vid=62d12256-3a16-4cc6-9113-a467945bc090"},"vehicle_type_id":"4","last_reported":1732892980,"current_range_meters":8800,"station_id":"ce4bhoh2rcd13ifvqh5g","pricing_plan_id":"cebpf4jnsgd1na2vs0mg"},{"bike_id":"c41e9656-284b-4495-ac9b-461982f10d89","system_id":"levelo_inurba_marseille","lat":43.26827,"lon":5.40328,"is_reserved":false,"is_disabled":false,"rental_uris":{"android":"levelo://app?vid=c41e9656-284b-4495-ac9b-461982f10d89","ios":"levelo://app?vid=c41e9656-284b-4495-ac9b-461982f10d89"},"vehicle_type_id":"4","last_reported":1732892980,"current_range_meters":35600,"station_id":"ce501612rcd8frsf0b60","pricing_plan_id":"cebpf4jnsgd1na2vs0mg"},{"bike_id":"124ff083-de96-48c3-be8a-967f23c1e374","system_id":"levelo_inurba_marseille","lat":43.25083,"lon":5.39519,"is_reserved":false,"is_disabled":false,"rental_uris":{"android":"levelo://app?vid=124ff083-de96-48c3-be8a-967f23c1e374","ios":"levelo://app?vid=124ff083-de96-48c3-be8a-967f23c1e374"},"vehicle_type_id":"4","last_reported":1732892980,"current_range_meters":32000,"station_id":"ce4bhm12rcd13ifvqgkg","pricing_plan_id":"cebpf4jnsgd1na2vs0mg"},{"bike_id":"f1394f70-a744-4e21-8145-167abbb5c345","system_id":"levelo_inurba_marseille","lat":43.26787,"lon":5.39415,"is_reserved":false,"is_disabled":false,"rental_uris":{"android":"levelo://app?vid=f1394f70-a744-4e21-8145-167abbb5c345","ios":"levelo://app?vid=f1394f70-a744-4e21-8145-167abbb5c345"},"vehicle_type_id":"4","last_reported":1732892980,"current_range_meters":38400,"station_id":"ce4bhh12rcd13ifvqfg0","pricing_plan_id":"cebpf4jnsgd1na2vs0mg"},{"bike_id":"4196d931-ad46-48ad-9039-a7812c7788f1","system_id":"levelo_inurba_marseille","lat":43.31266,"lon":5.40177,"is_reserved":false,"is_disabled":false,"rental_uris":{"android":"levelo://app?vid=4196d931-ad46-48ad-9039-a7812c7788f1","ios":"levelo://app?vid=4196d931-ad46-48ad-9039-a7812c7788f1"},"vehicle_type_id":"4","last_reported":1732892980,"current_range_meters":24800,"station_id":"ce4bh092rcd13ifvqd30","pricing_plan_id":"cebpf4jnsgd1na2vs0mg"},{"bike_id":"60bcfd83-20b5-46ea-b55f-3d3dab37186e","system_id":"levelo_inurba_marseille","lat":43.30437,"lon":5.39747,"is_reserved":false,"is_disabled":true,"rental_uris":{"android":"levelo://app?vid=60bcfd83-20b5-46ea-b55f-3d3dab37186e","ios":"levelo://app?vid=60bcfd83-20b5-46ea-b55f-3d3dab37186e"},"vehicle_type_id":"4","last_reported":1732892980,"current_range_meters":400,"station_id":"ce4bh092rcd13ifvqd20","pricing_plan_id":"cebpf4jnsgd1na2vs0mg"},{"bike_id":"9dd86fed-1f4c-42f0-b150-6604e85336d6","system_id":"levelo_inurba_marseille","lat":43.245113,"lon":5.395561,"is_reserved":false,"is_disabled":false,"rental_uris":{"android":"levelo://app?vid=9dd86fed-1f4c-42f0-b150-6604e85336d6","ios":"levelo://app?vid=9dd86fed-1f4c-42f0-b150-6604e85336d6"},"vehicle_type_id":"4","last_reported":1732892980,"current_range_meters":12800,"station_id":"ce4bhlp2rcd13ifvqgjg","pricing_plan_id":"cebpf4jnsgd1na2vs0mg"},{"bike_id":"9244d9fe-8890-4efa-bf2a-6d9fc44453ad","system_id":"levelo_inurba_marseille","lat":43.26783,"lon":5.39371,"is_reserved":false,"is_disabled":true,"rental_uris":{"android":"levelo://app?vid=9244d9fe-8890-4efa-bf2a-6d9fc44453ad","ios":"levelo://app?vid=9244d9fe-8890-4efa-bf2a-6d9fc44453ad"},"vehicle_type_id":"4","last_reported":1732892980,"current_range_meters":0,"station_id":"ce4bhh12rcd13ifvqfg0","pricing_plan_id":"cebpf4jnsgd1na2vs0mg"},{"bike_id":"5fed16e7-43aa-4d98-b2a6-7f0c81fe4bae","system_id":"levelo_inurba_marseille","lat":43.22926,"lon":5.35376,"is_reserved":false,"is_disabled":true,"rental_uris":{"android":"levelo://app?vid=5fed16e7-43aa-4d98-b2a6-7f0c81fe4bae","ios":"levelo://app?vid=5fed16e7-43aa-4d98-b2a6-7f0c81fe4bae"},"vehicle_type_id":"4","last_reported":1732892980,"current_range_meters":1600,"station_id":"cpo3532slgdg3j2ikp40","pricing_plan_id":"cebpf4jnsgd1na2vs0mg"},{"bike_id":"fc4d15f5-6256-45a3-90d6-77bb4c676955","system_id":"levelo_inurba_marseille","lat":43.296284,"lon":5.377877,"is_reserved":false,"is_disabled":true,"rental_uris":{"android":"levelo://app?vid=fc4d15f5-6256-45a3-90d6-77bb4c676955","ios":"levelo://app?vid=fc4d15f5-6256-45a3-90d6-77bb4c676955"},"vehicle_type_id":"4","last_reported":1732892980,"current_range_meters":28400,"station_id":"","pricing_plan_id":"cebpf4jnsgd1na2vs0mg"},{"bike_id":"c88f8730-1176-4717-97e2-17c27b15274f","system_id":"levelo_inurba_marseille","lat":43.23198,"lon":5.35549,"is_reserved":false,"is_disabled":false,"rental_uris":{"android":"levelo://app?vid=c88f8730-1176-4717-97e2-17c27b15274f","ios":"levelo://app?vid=c88f8730-1176-4717-97e2-17c27b15274f"},"vehicle_type_id":"4","last_reported":1732892980,"current_range_meters":38800,"station_id":"ce4bhu92rcd13ifvqi70","pricing_plan_id":"cebpf4jnsgd1na2vs0mg"},{"bike_id":"5547a441-9653-482c-905c-97a54076438b","system_id":"levelo_inurba_marseille","lat":43.32363,"lon":5.36757,"is_reserved":false,"is_disabled":false,"rental_uris":{"android":"levelo://app?vid=5547a441-9653-482c-905c-97a54076438b","ios":"levelo://app?vid=5547a441-9653-482c-905c-97a54076438b"},"vehicle_type_id":"4","last_reported":1732892980,"current_range_meters":20800,"station_id":"ce4bhsh2rcd13ifvqi2g","pricing_plan_id":"cebpf4jnsgd1na2vs0mg"},{"bike_id":"e2e99e42-ed6d-4f02-abba-c3f5cf725b4e","system_id":"levelo_inurba_marseille","lat":43.27991,"lon":5.41664,"is_reserved":false,"is_disabled":true,"rental_uris":{"android":"levelo://app?vid=e2e99e42-ed6d-4f02-abba-c3f5cf725b4e","ios":"levelo://app?vid=e2e99e42-ed6d-4f02-abba-c3f5cf725b4e"},"vehicle_type_id":"4","last_reported":1732892980,"current_range_meters":1600,"station_id":"ce4bho12rcd13ifvqh1g","pricing_plan_id":"cebpf4jnsgd1na2vs0mg"},{"bike_id":"d6acaf62-ce47-4c3e-89a9-6aad7d51700f","system_id":"levelo_inurba_marseille","lat":43.24075,"lon":5.37762,"is_reserved":false,"is_disabled":false,"rental_uris":{"android":"levelo://app?vid=d6acaf62-ce47-4c3e-89a9-6aad7d51700f","ios":"levelo://app?vid=d6acaf62-ce47-4c3e-89a9-6aad7d51700f"},"vehicle_type_id":"4","last_reported":1732892980,"current_range_meters":14800,"station_id":"ce4bhnp2rcd13ifvqgvg","pricing_plan_id":"cebpf4jnsgd1na2vs0mg"},{"bike_id":"3a4e6c41-3f77-4254-abd4-29776dd71545","system_id":"levelo_inurba_marseille","lat":43.30536,"lon":5.36538,"is_reserved":false,"is_disabled":false,"rental_uris":{"android":"levelo://app?vid=3a4e6c41-3f77-4254-abd4-29776dd71545","ios":"levelo://app?vid=3a4e6c41-3f77-4254-abd4-29776dd71545"},"vehicle_type_id":"4","last_reported":1732892980,"current_range_meters":38800,"station_id":"ce4bgs12rcd13ifvqcag","pricing_plan_id":"cebpf4jnsgd1na2vs0mg"},{"bike_id":"2545b486-f597-4ecd-8508-05df785b0c49","system_id":"levelo_inurba_marseille","lat":43.33022,"lon":5.39042,"is_reserved":false,"is_disabled":false,"rental_uris":{"android":"levelo://app?vid=2545b486-f597-4ecd-8508-05df785b0c49","ios":"levelo://app?vid=2545b486-f597-4ecd-8508-05df785b0c49"},"vehicle_type_id":"4","last_reported":1732892980,"current_range_meters":38800,"station_id":"ce4bhr92rcd13ifvqhrg","pricing_plan_id":"cebpf4jnsgd1na2vs0mg"},{"bike_id":"53832248-7ea6-4cc6-856c-2b60c3f17998","system_id":"levelo_inurba_marseille","lat":43.2955,"lon":5.422856,"is_reserved":false,"is_disabled":true,"rental_uris":{"android":"levelo://app?vid=53832248-7ea6-4cc6-856c-2b60c3f17998","ios":"levelo://app?vid=53832248-7ea6-4cc6-856c-2b60c3f17998"},"vehicle_type_id":"4","last_reported":1732892980,"current_range_meters":38800,"station_id":"ce4bhph2rcd13ifvqhdg","pricing_plan_id":"cebpf4jnsgd1na2vs0mg"},{"bike_id":"60059605-545f-46dc-8dd1-76523e372d48","system_id":"levelo_inurba_marseille","lat":43.28001,"lon":5.40013,"is_reserved":false,"is_disabled":false,"rental_uris":{"android":"levelo://app?vid=60059605-545f-46dc-8dd1-76523e372d48","ios":"levelo://app?vid=60059605-545f-46dc-8dd1-76523e372d48"},"vehicle_type_id":"4","last_reported":1732892980,"current_range_meters":6400,"station_id":"ce4bho92rcd13ifvqh4g","pricing_plan_id":"cebpf4jnsgd1na2vs0mg"},{"bike_id":"fec8a7a8-325a-4d39-ae6b-65442fb71483","system_id":"levelo_inurba_marseille","lat":43.30416,"lon":5.41288,"is_reserved":false,"is_disabled":false,"rental_uris":{"android":"levelo://app?vid=fec8a7a8-325a-4d39-ae6b-65442fb71483","ios":"levelo://app?vid=fec8a7a8-325a-4d39-ae6b-65442fb71483"},"vehicle_type_id":"4","last_reported":1732892980,"current_range_meters":37600,"station_id":"ce4bhop2rcd13ifvqh8g","pricing_plan_id":"cebpf4jnsgd1na2vs0mg"},{"bike_id":"40826a52-a3e4-4998-8cb2-d9199559c6fc","system_id":"levelo_inurba_marseille","lat":43.2794,"lon":5.41058,"is_reserved":false,"is_disabled":false,"rental_uris":{"android":"levelo://app?vid=40826a52-a3e4-4998-8cb2-d9199559c6fc","ios":"levelo://app?vid=40826a52-a3e4-4998-8cb2-d9199559c6fc"},"vehicle_type_id":"4","last_reported":1732892980,"current_range_meters":26000,"station_id":"ce4bhnp2rcd13ifvqh0g","pricing_plan_id":"cebpf4jnsgd1na2vs0mg"},{"bike_id":"92defe58-ac95-4158-a899-a1890c4e5262","system_id":"levelo_inurba_marseille","lat":43.26561,"lon":5.37286,"is_reserved":false,"is_disabled":true,"rental_uris":{"android":"levelo://app?vid=92defe58-ac95-4158-a899-a1890c4e5262","ios":"levelo://app?vid=92defe58-ac95-4158-a899-a1890c4e5262"},"vehicle_type_id":"4","last_reported":1732892980,"current_range_meters":0,"station_id":"ce4bhg12rcd13ifvqf70","pricing_plan_id":"cebpf4jnsgd1na2vs0mg"},{"bike_id":"801d6fa7-20c3-4d2f-a606-397f784396cc","system_id":"levelo_inurba_marseille","lat":43.30535,"lon":5.36548,"is_reserved":false,"is_disabled":false,"rental_uris":{"android":"levelo://app?vid=801d6fa7-20c3-4d2f-a606-397f784396cc","ios":"levelo://app?vid=801d6fa7-20c3-4d2f-a606-397f784396cc"},"vehicle_type_id":"4","last_reported":1732892980,"current_range_meters":38800,"station_id":"ce4bgs12rcd13ifvqcag","pricing_plan_id":"cebpf4jnsgd1na2vs0mg"},{"bike_id":"2c884c0f-3188-4857-803c-f10f40d6e634","system_id":"levelo_inurba_marseille","lat":43.30646,"lon":5.40102,"is_reserved":false,"is_disabled":false,"rental_uris":{"android":"levelo://app?vid=2c884c0f-3188-4857-803c-f10f40d6e634","ios":"levelo://app?vid=2c884c0f-3188-4857-803c-f10f40d6e634"},"vehicle_type_id":"4","last_reported":1732892980,"current_range_meters":10800,"station_id":"ce4bh112rcd13ifvqda0","pricing_plan_id":"cebpf4jnsgd1na2vs0mg"},{"bike_id":"ac90dcb9-1da8-4ffe-b21d-c0e55802a8cc","system_id":"levelo_inurba_marseille","lat":43.28423,"lon":5.34976,"is_reserved":false,"is_disabled":false,"rental_uris":{"android":"levelo://app?vid=ac90dcb9-1da8-4ffe-b21d-c0e55802a8cc","ios":"levelo://app?vid=ac90dcb9-1da8-4ffe-b21d-c0e55802a8cc"},"vehicle_type_id":"4","last_reported":1732892980,"current_range_meters":2800,"station_id":"ce4bhbh2rcd13ifvqepg","pricing_plan_id":"cebpf4jnsgd1na2vs0mg"},{"bike_id":"5561d8d2-5b80-45be-85e3-5900dadb75d8","system_id":"levelo_inurba_marseille","lat":43.28416,"lon":5.34995,"is_reserved":false,"is_disabled":false,"rental_uris":{"android":"levelo://app?vid=5561d8d2-5b80-45be-85e3-5900dadb75d8","ios":"levelo://app?vid=5561d8d2-5b80-45be-85e3-5900dadb75d8"},"vehicle_type_id":"4","last_reported":1732892980,"current_range_meters":37600,"station_id":"ce4bhbh2rcd13ifvqepg","pricing_plan_id":"cebpf4jnsgd1na2vs0mg"},{"bike_id":"3737c6cd-3a0a-48ec-9094-b2e0caf11430","system_id":"levelo_inurba_marseille","lat":43.32655,"lon":5.40996,"is_reserved":false,"is_disabled":false,"rental_uris":{"android":"levelo://app?vid=3737c6cd-3a0a-48ec-9094-b2e0caf11430","ios":"levelo://app?vid=3737c6cd-3a0a-48ec-9094-b2e0caf11430"},"vehicle_type_id":"4","last_reported":1732892980,"current_range_meters":18800,"station_id":"ce4bhpp2rcd13ifvqhgg","pricing_plan_id":"cebpf4jnsgd1na2vs0mg"},{"bike_id":"28cbf73b-8ad9-47d7-8117-514533a0f537","system_id":"levelo_inurba_marseille","lat":43.32339,"lon":5.40615,"is_reserved":false,"is_disabled":false,"rental_uris":{"android":"levelo://app?vid=28cbf73b-8ad9-47d7-8117-514533a0f537","ios":"levelo://app?vid=28cbf73b-8ad9-47d7-8117-514533a0f537"},"vehicle_type_id":"4","last_reported":1732892980,"current_range_meters":38800,"station_id":"ce4bhq92rcd13ifvqhjg","pricing_plan_id":"cebpf4jnsgd1na2vs0mg"},{"bike_id":"10bd7429-3f56-4a14-9f0c-a2d1b9a51f6b","system_id":"levelo_inurba_marseille","lat":43.26681,"lon":5.382655,"is_reserved":false,"is_disabled":false,"rental_uris":{"android":"levelo://app?vid=10bd7429-3f56-4a14-9f0c-a2d1b9a51f6b","ios":"levelo://app?vid=10bd7429-3f56-4a14-9f0c-a2d1b9a51f6b"},"vehicle_type_id":"4","last_reported":1732892980,"current_range_meters":24400,"station_id":"ce4bhg92rcd13ifvqf90","pricing_plan_id":"cebpf4jnsgd1na2vs0mg"},{"bike_id":"0bbddeff-1520-4828-89c8-a17125b6a8a4","system_id":"levelo_inurba_marseille","lat":43.28433,"lon":5.39201,"is_reserved":false,"is_disabled":false,"rental_uris":{"android":"levelo://app?vid=0bbddeff-1520-4828-89c8-a17125b6a8a4","ios":"levelo://app?vid=0bbddeff-1520-4828-89c8-a17125b6a8a4"},"vehicle_type_id":"4","last_reported":1732892980,"current_range_meters":29600,"station_id":"ce4bhoh2rcd13ifvqh5g","pricing_plan_id":"cebpf4jnsgd1na2vs0mg"},{"bike_id":"4dc20c49-107b-418c-b70b-2028da34304b","system_id":"levelo_inurba_marseille","lat":43.29525,"lon":5.394,"is_reserved":false,"is_disabled":false,"rental_uris":{"android":"levelo://app?vid=4dc20c49-107b-418c-b70b-2028da34304b","ios":"levelo://app?vid=4dc20c49-107b-418c-b70b-2028da34304b"},"vehicle_type_id":"4","last_reported":1732892980,"current_range_meters":17600,"station_id":"ce4bh292rcd13ifvqdf0","pricing_plan_id":"cebpf4jnsgd1na2vs0mg"},{"bike_id":"72cffca0-14e4-4c78-874a-13c6c971ee92","system_id":"levelo_inurba_marseille","lat":43.31115,"lon":5.37774,"is_reserved":false,"is_disabled":false,"rental_uris":{"android":"levelo://app?vid=72cffca0-14e4-4c78-874a-13c6c971ee92","ios":"levelo://app?vid=72cffca0-14e4-4c78-874a-13c6c971ee92"},"vehicle_type_id":"4","last_reported":1732892980,"current_range_meters":36800,"station_id":"ce4bgt92rcd13ifvqcg0","pricing_plan_id":"cebpf4jnsgd1na2vs0mg"},{"bike_id":"8da00c91-5c50-4e89-a866-9cc01848d01c","system_id":"levelo_inurba_marseille","lat":43.32342,"lon":5.40623,"is_reserved":false,"is_disabled":false,"rental_uris":{"android":"levelo://app?vid=8da00c91-5c50-4e89-a866-9cc01848d01c","ios":"levelo://app?vid=8da00c91-5c50-4e89-a866-9cc01848d01c"},"vehicle_type_id":"4","last_reported":1732892980,"current_range_meters":30800,"station_id":"ce4bhq92rcd13ifvqhjg","pricing_plan_id":"cebpf4jnsgd1na2vs0mg"},{"bike_id":"5207ea01-e0a6-490e-925f-d9b9db97cb38","system_id":"levelo_inurba_marseille","lat":43.27622,"lon":5.36111,"is_reserved":false,"is_disabled":false,"rental_uris":{"android":"levelo://app?vid=5207ea01-e0a6-490e-925f-d9b9db97cb38","ios":"levelo://app?vid=5207ea01-e0a6-490e-925f-d9b9db97cb38"},"vehicle_type_id":"4","last_reported":1732892980,"current_range_meters":17200,"station_id":"ce4bgj92rcd13ifvqbe0","pricing_plan_id":"cebpf4jnsgd1na2vs0mg"},{"bike_id":"fbb69a76-9f06-4ea3-954f-7f4b2f1d4bea","system_id":"levelo_inurba_marseille","lat":43.22926,"lon":5.35376,"is_reserved":false,"is_disabled":false,"rental_uris":{"android":"levelo://app?vid=fbb69a76-9f06-4ea3-954f-7f4b2f1d4bea","ios":"levelo://app?vid=fbb69a76-9f06-4ea3-954f-7f4b2f1d4bea"},"vehicle_type_id":"4","last_reported":1732892980,"current_range_meters":37600,"station_id":"cpo3532slgdg3j2ikp40","pricing_plan_id":"cebpf4jnsgd1na2vs0mg"},{"bike_id":"d3bd020b-eb8f-4b02-bbb7-20b5a626f336","system_id":"levelo_inurba_marseille","lat":43.26567,"lon":5.39004,"is_reserved":false,"is_disabled":false,"rental_uris":{"android":"levelo://app?vid=d3bd020b-eb8f-4b02-bbb7-20b5a626f336","ios":"levelo://app?vid=d3bd020b-eb8f-4b02-bbb7-20b5a626f336"},"vehicle_type_id":"4","last_reported":1732892980,"current_range_meters":38400,"station_id":"ce4bhe12rcd13ifvqf30","pricing_plan_id":"cebpf4jnsgd1na2vs0mg"},{"bike_id":"9e944db9-d48e-4848-b5fa-4af701aee80b","system_id":"levelo_inurba_marseille","lat":48.80797,"lon":2.40127,"is_reserved":false,"is_disabled":true,"rental_uris":{"android":"levelo://app?vid=9e944db9-d48e-4848-b5fa-4af701aee80b","ios":"levelo://app?vid=9e944db9-d48e-4848-b5fa-4af701aee80b"},"vehicle_type_id":"4","last_reported":1732892980,"current_range_meters":18800,"station_id":"","pricing_plan_id":"cebpf4jnsgd1na2vs0mg"},{"bike_id":"4455a78f-0893-4871-adb5-cb36246e80c9","system_id":"levelo_inurba_marseille","lat":43.23158,"lon":5.43708,"is_reserved":false,"is_disabled":false,"rental_uris":{"android":"levelo://app?vid=4455a78f-0893-4871-adb5-cb36246e80c9","ios":"levelo://app?vid=4455a78f-0893-4871-adb5-cb36246e80c9"},"vehicle_type_id":"4","last_reported":1732892980,"current_range_meters":7200,"station_id":"ce4bhmp2rcd13ifvqgog","pricing_plan_id":"cebpf4jnsgd1na2vs0mg"},{"bike_id":"bd0a8af7-1f3e-4512-8f92-c4ad8dfe2e23","system_id":"levelo_inurba_marseille","lat":43.29847,"lon":5.36287,"is_reserved":false,"is_disabled":false,"rental_uris":{"android":"levelo://app?vid=bd0a8af7-1f3e-4512-8f92-c4ad8dfe2e23","ios":"levelo://app?vid=bd0a8af7-1f3e-4512-8f92-c4ad8dfe2e23"},"vehicle_type_id":"4","last_reported":1732892980,"current_range_meters":32800,"station_id":"ce4bgpp2rcd13ifvqc3g","pricing_plan_id":"cebpf4jnsgd1na2vs0mg"},{"bike_id":"7731b2c5-0fb8-4613-a545-5c706fc6c9f2","system_id":"levelo_inurba_marseille","lat":43.28075,"lon":5.39658,"is_reserved":false,"is_disabled":false,"rental_uris":{"android":"levelo://app?vid=7731b2c5-0fb8-4613-a545-5c706fc6c9f2","ios":"levelo://app?vid=7731b2c5-0fb8-4613-a545-5c706fc6c9f2"},"vehicle_type_id":"4","last_reported":1732892980,"current_range_meters":38800,"station_id":"ce4bho12rcd13ifvqh2g","pricing_plan_id":"cebpf4jnsgd1na2vs0mg"},{"bike_id":"751555f6-d0ae-4f9c-af75-edcce904256b","system_id":"levelo_inurba_marseille","lat":43.22927,"lon":5.35378,"is_reserved":false,"is_disabled":true,"rental_uris":{"android":"levelo://app?vid=751555f6-d0ae-4f9c-af75-edcce904256b","ios":"levelo://app?vid=751555f6-d0ae-4f9c-af75-edcce904256b"},"vehicle_type_id":"4","last_reported":1732892980,"current_range_meters":0,"station_id":"cpo3532slgdg3j2ikp40","pricing_plan_id":"cebpf4jnsgd1na2vs0mg"},{"bike_id":"fb56fc5b-f01f-414d-9d83-b5faf7b3c2c3","system_id":"levelo_inurba_marseille","lat":43.301,"lon":5.40052,"is_reserved":false,"is_disabled":false,"rental_uris":{"android":"levelo://app?vid=fb56fc5b-f01f-414d-9d83-b5faf7b3c2c3","ios":"levelo://app?vid=fb56fc5b-f01f-414d-9d83-b5faf7b3c2c3"},"vehicle_type_id":"4","last_reported":1732892980,"current_range_meters":38000,"station_id":"ce4bh112rcd13ifvqda0","pricing_plan_id":"cebpf4jnsgd1na2vs0mg"},{"bike_id":"98d4a0f1-4cd5-4351-b127-4a6cfd93c7cf","system_id":"levelo_inurba_marseille","lat":43.2718,"lon":5.40998,"is_reserved":false,"is_disabled":false,"rental_uris":{"android":"levelo://app?vid=98d4a0f1-4cd5-4351-b127-4a6cfd93c7cf","ios":"levelo://app?vid=98d4a0f1-4cd5-4351-b127-4a6cfd93c7cf"},"vehicle_type_id":"4","last_reported":1732892980,"current_range_meters":21600,"station_id":"ce4bhl12rcd13ifvqgf0","pricing_plan_id":"cebpf4jnsgd1na2vs0mg"},{"bike_id":"b4a8605d-c615-4b87-8f90-59fb9a8a944e","system_id":"levelo_inurba_marseille","lat":43.27175,"lon":5.4099,"is_reserved":false,"is_disabled":false,"rental_uris":{"android":"levelo://app?vid=b4a8605d-c615-4b87-8f90-59fb9a8a944e","ios":"levelo://app?vid=b4a8605d-c615-4b87-8f90-59fb9a8a944e"},"vehicle_type_id":"4","last_reported":1732892980,"current_range_meters":10800,"station_id":"ce4bhl12rcd13ifvqgf0","pricing_plan_id":"cebpf4jnsgd1na2vs0mg"},{"bike_id":"e30fad8d-9e36-480c-b6f9-19ee627355b1","system_id":"levelo_inurba_marseille","lat":43.31221,"lon":5.36858,"is_reserved":false,"is_disabled":false,"rental_uris":{"android":"levelo://app?vid=e30fad8d-9e36-480c-b6f9-19ee627355b1","ios":"levelo://app?vid=e30fad8d-9e36-480c-b6f9-19ee627355b1"},"vehicle_type_id":"4","last_reported":1732892980,"current_range_meters":22800,"station_id":"ce4bgl92rcd13ifvqbq0","pricing_plan_id":"cebpf4jnsgd1na2vs0mg"},{"bike_id":"3fb0cd18-492b-4404-8c66-d85138ed9acc","system_id":"levelo_inurba_marseille","lat":43.28304,"lon":5.35121,"is_reserved":false,"is_disabled":false,"rental_uris":{"android":"levelo://app?vid=3fb0cd18-492b-4404-8c66-d85138ed9acc","ios":"levelo://app?vid=3fb0cd18-492b-4404-8c66-d85138ed9acc"},"vehicle_type_id":"4","last_reported":1732892980,"current_range_meters":21600,"station_id":"","pricing_plan_id":"cebpf4jnsgd1na2vs0mg"},{"bike_id":"e992ddc2-85e7-4753-8a06-1e0bdf6ae135","system_id":"levelo_inurba_marseille","lat":43.29005,"lon":5.3562,"is_reserved":false,"is_disabled":false,"rental_uris":{"android":"levelo://app?vid=e992ddc2-85e7-4753-8a06-1e0bdf6ae135","ios":"levelo://app?vid=e992ddc2-85e7-4753-8a06-1e0bdf6ae135"},"vehicle_type_id":"4","last_reported":1732892980,"current_range_meters":38800,"station_id":"ce4bhb92rcd13ifvqen0","pricing_plan_id":"cebpf4jnsgd1na2vs0mg"},{"bike_id":"1054ccf0-b78f-43e5-b035-af988f16a9e1","system_id":"levelo_inurba_marseille","lat":43.27375,"lon":5.36266,"is_reserved":false,"is_disabled":false,"rental_uris":{"android":"levelo://app?vid=1054ccf0-b78f-43e5-b035-af988f16a9e1","ios":"levelo://app?vid=1054ccf0-b78f-43e5-b035-af988f16a9e1"},"vehicle_type_id":"4","last_reported":1732892980,"current_range_meters":29600,"station_id":"ce4bhbh2rcd13ifvqeo0","pricing_plan_id":"cebpf4jnsgd1na2vs0mg"},{"bike_id":"7e5da380-c30a-4ca9-bb05-6884c5929d6d","system_id":"levelo_inurba_marseille","lat":43.28931,"lon":5.38399,"is_reserved":false,"is_disabled":false,"rental_uris":{"android":"levelo://app?vid=7e5da380-c30a-4ca9-bb05-6884c5929d6d","ios":"levelo://app?vid=7e5da380-c30a-4ca9-bb05-6884c5929d6d"},"vehicle_type_id":"4","last_reported":1732892980,"current_range_meters":32800,"station_id":"ce4bh612rcd13ifvqe6g","pricing_plan_id":"cebpf4jnsgd1na2vs0mg"},{"bike_id":"a81fe2e9-188b-4b50-b2db-bbda51577084","system_id":"levelo_inurba_marseille","lat":43.26854,"lon":5.40181,"is_reserved":false,"is_disabled":false,"rental_uris":{"android":"levelo://app?vid=a81fe2e9-188b-4b50-b2db-bbda51577084","ios":"levelo://app?vid=a81fe2e9-188b-4b50-b2db-bbda51577084"},"vehicle_type_id":"4","last_reported":1732892980,"current_range_meters":25600,"station_id":"ce501612rcd8frsf0b60","pricing_plan_id":"cebpf4jnsgd1na2vs0mg"},{"bike_id":"ae3817ed-117b-4ae4-bc47-be03692973ed","system_id":"levelo_inurba_marseille","lat":43.23193,"lon":5.35579,"is_reserved":false,"is_disabled":false,"rental_uris":{"android":"levelo://app?vid=ae3817ed-117b-4ae4-bc47-be03692973ed","ios":"levelo://app?vid=ae3817ed-117b-4ae4-bc47-be03692973ed"},"vehicle_type_id":"4","last_reported":1732892980,"current_range_meters":38800,"station_id":"ce4bhu92rcd13ifvqi70","pricing_plan_id":"cebpf4jnsgd1na2vs0mg"},{"bike_id":"281f50aa-d00f-4201-bc65-5771557de163","system_id":"levelo_inurba_marseille","lat":43.28029,"lon":5.36944,"is_reserved":false,"is_disabled":false,"rental_uris":{"android":"levelo://app?vid=281f50aa-d00f-4201-bc65-5771557de163","ios":"levelo://app?vid=281f50aa-d00f-4201-bc65-5771557de163"},"vehicle_type_id":"4","last_reported":1732892980,"current_range_meters":9200,"station_id":"ce4bha12rcd13ifvqef0","pricing_plan_id":"cebpf4jnsgd1na2vs0mg"},{"bike_id":"b868ebbb-a7f0-4f4f-a58d-cd5077f37acc","system_id":"levelo_inurba_marseille","lat":43.2396,"lon":5.36628,"is_reserved":false,"is_disabled":false,"rental_uris":{"android":"levelo://app?vid=b868ebbb-a7f0-4f4f-a58d-cd5077f37acc","ios":"levelo://app?vid=b868ebbb-a7f0-4f4f-a58d-cd5077f37acc"},"vehicle_type_id":"4","last_reported":1732892980,"current_range_meters":27600,"station_id":"ce4bhi12rcd13ifvqfp0","pricing_plan_id":"cebpf4jnsgd1na2vs0mg"},{"bike_id":"155f9dfd-372f-46b0-bea0-a3a937ac2886","system_id":"levelo_inurba_marseille","lat":43.30139,"lon":5.37415,"is_reserved":false,"is_disabled":true,"rental_uris":{"android":"levelo://app?vid=155f9dfd-372f-46b0-bea0-a3a937ac2886","ios":"levelo://app?vid=155f9dfd-372f-46b0-bea0-a3a937ac2886"},"vehicle_type_id":"4","last_reported":1732892980,"current_range_meters":26000,"station_id":"ce4bgs92rcd13ifvqcc0","pricing_plan_id":"cebpf4jnsgd1na2vs0mg"},{"bike_id":"202ceef9-7259-48a9-aa1e-d8da8494241e","system_id":"levelo_inurba_marseille","lat":43.28343,"lon":5.38113,"is_reserved":false,"is_disabled":true,"rental_uris":{"android":"levelo://app?vid=202ceef9-7259-48a9-aa1e-d8da8494241e","ios":"levelo://app?vid=202ceef9-7259-48a9-aa1e-d8da8494241e"},"vehicle_type_id":"4","last_reported":1732892980,"current_range_meters":1600,"station_id":"ce4bh412rcd13ifvqdr0","pricing_plan_id":"cebpf4jnsgd1na2vs0mg"},{"bike_id":"0dea9ac8-793e-4386-8ad8-bf0c3d9446f1","system_id":"levelo_inurba_marseille","lat":43.337444,"lon":5.374475,"is_reserved":false,"is_disabled":false,"rental_uris":{"android":"levelo://app?vid=0dea9ac8-793e-4386-8ad8-bf0c3d9446f1","ios":"levelo://app?vid=0dea9ac8-793e-4386-8ad8-bf0c3d9446f1"},"vehicle_type_id":"4","last_reported":1732892980,"current_range_meters":22800,"station_id":"","pricing_plan_id":"cebpf4jnsgd1na2vs0mg"},{"bike_id":"839c6504-c3ad-4a81-a876-be05cea51952","system_id":"levelo_inurba_marseille","lat":43.23154,"lon":5.43702,"is_reserved":false,"is_disabled":true,"rental_uris":{"android":"levelo://app?vid=839c6504-c3ad-4a81-a876-be05cea51952","ios":"levelo://app?vid=839c6504-c3ad-4a81-a876-be05cea51952"},"vehicle_type_id":"4","last_reported":1732892980,"current_range_meters":0,"station_id":"ce4bhmp2rcd13ifvqgog","pricing_plan_id":"cebpf4jnsgd1na2vs0mg"},{"bike_id":"597c12a8-b6f5-4903-b740-2c919cbb3db5","system_id":"levelo_inurba_marseille","lat":43.3127,"lon":5.40172,"is_reserved":false,"is_disabled":false,"rental_uris":{"android":"levelo://app?vid=597c12a8-b6f5-4903-b740-2c919cbb3db5","ios":"levelo://app?vid=597c12a8-b6f5-4903-b740-2c919cbb3db5"},"vehicle_type_id":"4","last_reported":1732892980,"current_range_meters":17600,"station_id":"ce4bh092rcd13ifvqd30","pricing_plan_id":"cebpf4jnsgd1na2vs0mg"},{"bike_id":"75e190b8-b5dc-4539-8d82-cfd1660476f3","system_id":"levelo_inurba_marseille","lat":43.26193,"lon":5.37453,"is_reserved":false,"is_disabled":false,"rental_uris":{"android":"levelo://app?vid=75e190b8-b5dc-4539-8d82-cfd1660476f3","ios":"levelo://app?vid=75e190b8-b5dc-4539-8d82-cfd1660476f3"},"vehicle_type_id":"4","last_reported":1732892980,"current_range_meters":32000,"station_id":"ce4bhgp2rcd13ifvqfc0","pricing_plan_id":"cebpf4jnsgd1na2vs0mg"},{"bike_id":"918683ab-af62-4fd6-9988-94bdf8329133","system_id":"levelo_inurba_marseille","lat":43.23184,"lon":5.39996,"is_reserved":false,"is_disabled":false,"rental_uris":{"android":"levelo://app?vid=918683ab-af62-4fd6-9988-94bdf8329133","ios":"levelo://app?vid=918683ab-af62-4fd6-9988-94bdf8329133"},"vehicle_type_id":"4","last_reported":1732892980,"current_range_meters":6400,"station_id":"ce4bhn12rcd13ifvqgqg","pricing_plan_id":"cebpf4jnsgd1na2vs0mg"},{"bike_id":"8f500ed1-9246-4c9a-9fe1-d5226bf9818e","system_id":"levelo_inurba_marseille","lat":43.30271,"lon":5.36873,"is_reserved":false,"is_disabled":false,"rental_uris":{"android":"levelo://app?vid=8f500ed1-9246-4c9a-9fe1-d5226bf9818e","ios":"levelo://app?vid=8f500ed1-9246-4c9a-9fe1-d5226bf9818e"},"vehicle_type_id":"4","last_reported":1732892980,"current_range_meters":30800,"station_id":"ce4bgqh2rcd13ifvqc5g","pricing_plan_id":"cebpf4jnsgd1na2vs0mg"},{"bike_id":"61978a4e-a7ec-4ab5-8c02-14ec13067cc4","system_id":"levelo_inurba_marseille","lat":43.2992,"lon":5.37474,"is_reserved":false,"is_disabled":true,"rental_uris":{"android":"levelo://app?vid=61978a4e-a7ec-4ab5-8c02-14ec13067cc4","ios":"levelo://app?vid=61978a4e-a7ec-4ab5-8c02-14ec13067cc4"},"vehicle_type_id":"4","last_reported":1732892980,"current_range_meters":0,"station_id":"ce4bgjh2rcd13ifvqbg0","pricing_plan_id":"cebpf4jnsgd1na2vs0mg"},{"bike_id":"3f198514-7e80-4e29-9f49-7ecad87e7825","system_id":"levelo_inurba_marseille","lat":43.28443,"lon":5.39209,"is_reserved":false,"is_disabled":false,"rental_uris":{"android":"levelo://app?vid=3f198514-7e80-4e29-9f49-7ecad87e7825","ios":"levelo://app?vid=3f198514-7e80-4e29-9f49-7ecad87e7825"},"vehicle_type_id":"4","last_reported":1732892980,"current_range_meters":16800,"station_id":"ce4bhoh2rcd13ifvqh5g","pricing_plan_id":"cebpf4jnsgd1na2vs0mg"},{"bike_id":"74d62d71-3c77-473f-8c93-b08a11632535","system_id":"levelo_inurba_marseille","lat":43.29093,"lon":5.35586,"is_reserved":false,"is_disabled":false,"rental_uris":{"android":"levelo://app?vid=74d62d71-3c77-473f-8c93-b08a11632535","ios":"levelo://app?vid=74d62d71-3c77-473f-8c93-b08a11632535"},"vehicle_type_id":"4","last_reported":1732892980,"current_range_meters":35200,"station_id":"","pricing_plan_id":"cebpf4jnsgd1na2vs0mg"},{"bike_id":"cffe9a99-ab22-497f-bc0c-f4895677e91d","system_id":"levelo_inurba_marseille","lat":43.29897,"lon":5.43667,"is_reserved":false,"is_disabled":true,"rental_uris":{"android":"levelo://app?vid=cffe9a99-ab22-497f-bc0c-f4895677e91d","ios":"levelo://app?vid=cffe9a99-ab22-497f-bc0c-f4895677e91d"},"vehicle_type_id":"4","last_reported":1732892980,"current_range_meters":0,"station_id":"ce4bhpp2rcd13ifvqhfg","pricing_plan_id":"cebpf4jnsgd1na2vs0mg"},{"bike_id":"1d87ed66-25fe-46b6-b3d6-5a4293a76e33","system_id":"levelo_inurba_marseille","lat":43.29222,"lon":5.3605,"is_reserved":false,"is_disabled":true,"rental_uris":{"android":"levelo://app?vid=1d87ed66-25fe-46b6-b3d6-5a4293a76e33","ios":"levelo://app?vid=1d87ed66-25fe-46b6-b3d6-5a4293a76e33"},"vehicle_type_id":"4","last_reported":1732892980,"current_range_meters":30000,"station_id":"ce4bhbh2rcd13ifvqeqg","pricing_plan_id":"cebpf4jnsgd1na2vs0mg"},{"bike_id":"1897fe77-db47-4f91-8a23-626f1fe8f104","system_id":"levelo_inurba_marseille","lat":43.27377,"lon":5.36269,"is_reserved":false,"is_disabled":true,"rental_uris":{"android":"levelo://app?vid=1897fe77-db47-4f91-8a23-626f1fe8f104","ios":"levelo://app?vid=1897fe77-db47-4f91-8a23-626f1fe8f104"},"vehicle_type_id":"4","last_reported":1732892980,"current_range_meters":0,"station_id":"ce4bhbh2rcd13ifvqeo0","pricing_plan_id":"cebpf4jnsgd1na2vs0mg"},{"bike_id":"591fd727-428e-48df-ae3e-b2494e9bc4c9","system_id":"levelo_inurba_marseille","lat":43.28434,"lon":5.39182,"is_reserved":false,"is_disabled":false,"rental_uris":{"android":"levelo://app?vid=591fd727-428e-48df-ae3e-b2494e9bc4c9","ios":"levelo://app?vid=591fd727-428e-48df-ae3e-b2494e9bc4c9"},"vehicle_type_id":"4","last_reported":1732892980,"current_range_meters":20400,"station_id":"ce4bhoh2rcd13ifvqh5g","pricing_plan_id":"cebpf4jnsgd1na2vs0mg"},{"bike_id":"19381b5a-47cc-43ac-8b14-6033b990daec","system_id":"levelo_inurba_marseille","lat":43.26207,"lon":5.37441,"is_reserved":false,"is_disabled":false,"rental_uris":{"android":"levelo://app?vid=19381b5a-47cc-43ac-8b14-6033b990daec","ios":"levelo://app?vid=19381b5a-47cc-43ac-8b14-6033b990daec"},"vehicle_type_id":"4","last_reported":1732892980,"current_range_meters":26800,"station_id":"ce4bhgp2rcd13ifvqfc0","pricing_plan_id":"cebpf4jnsgd1na2vs0mg"},{"bike_id":"2a9f2f53-4497-45e3-8001-de2d8ec60dbd","system_id":"levelo_inurba_marseille","lat":43.25719,"lon":5.41118,"is_reserved":false,"is_disabled":false,"rental_uris":{"android":"levelo://app?vid=2a9f2f53-4497-45e3-8001-de2d8ec60dbd","ios":"levelo://app?vid=2a9f2f53-4497-45e3-8001-de2d8ec60dbd"},"vehicle_type_id":"4","last_reported":1732892980,"current_range_meters":10000,"station_id":"ce4bhkp2rcd13ifvqgd0","pricing_plan_id":"cebpf4jnsgd1na2vs0mg"},