{"last_updated":1746025848,"ttl":60,"version":"2.2","data":{"bikes":[{"bike_id":"37e0846a-1d6c-49f9-aa62-1cd69e023615","system_id":"levelo_inurba_marseille","lat":43.31755,"lon":5.39013,"is_reserved":false,"is_disabled":false,"rental_uris":{"android":"levelo://app?vid=37e0846a-1d6c-49f9-aa62-1cd69e023615","ios":"levelo://app?vid=37e0846a-1d6c-49f9-aa62-1cd69e023615"},"vehicle_type_id":"4","last_reported":1746025848,"current_range_meters":2000,"station_id":"ce4bhqp2rcd13ifvqhng","pricing_plan_id":"cebpf4jnsgd1na2vs0mg"},{"bike_id":"cb848dd7-c150-48af-b4aa-467b6bbab13f","system_id":"levelo_inurba_marseille","lat":43.30934,"lon":5.40154,"is_reserved":false,"is_disabled":false,"rental_uris":{"android":"levelo://app?vid=cb848dd7-c150-48af-b4aa-467b6bbab13f","ios":"levelo://app?vid=cb848dd7-c150-48af-b4aa-467b6bbab13f"},"vehicle_type_id":"4","last_reported":1746025848,"current_range_meters":2000,"station_id":"ce4bgvp2rcd13ifvqct0","pricing_plan_id":"cebpf4jnsgd1na2vs0mg"},{"bike_id":"8b519b10-e201-4108-b2b1-1c4e2ee72288","system_id":"levelo_inurba_marseille","lat":43.2901,"lon":5.35602,"is_reserved":false,"is_disabled":false,"rental_uris":{"android":"levelo://app?vid=8b519b10-e201-4108-b2b1-1c4e2ee72288","ios":"levelo://app?vid=8b519b10-e201-4108-b2b1-1c4e2ee72288"},"vehicle_type_id":"4","last_reported":1746025848,"current_range_meters":2800,"station_id":"ce4bhb92rcd13ifvqen0","pricing_plan_id":"cebpf4jnsgd1na2vs0mg"},{"bike_id":"152ee8c0-68b4-41b6-af8f-a4af46767e77","system_id":"levelo_inurba_marseille","lat":43.26808,"lon":5.40263,"is_reserved":false,"is_disabled":false,"rental_uris":{"android":"levelo://app?vid=152ee8c0-68b4-41b6-af8f-a4af46767e77","ios":"levelo://app?vid=152ee8c0-68b4-41b6-af8f-a4af46767e77"},"vehicle_type_id":"4","last_reported":1746025848,"current_range_meters":2800,"station_id":"ce501612rcd8frsf0b60","pricing_plan_id":"cebpf4jnsgd1na2vs0mg"},{"bike_id":"65b2c87d-5809-45aa-a364-ac35170591b8","system_id":"levelo_inurba_marseille","lat":43.30957,"lon":5.39033,"is_reserved":false,"is_disabled":true,"rental_uris":{"android":"levelo://app?vid=65b2c87d-5809-45aa-a364-ac35170591b8","ios":"levelo://app?vid=65b2c87d-5809-45aa-a364-ac35170591b8"},"vehicle_type_id":"4","last_reported":1746025848,"current_range_meters":2800,"station_id":"ce4bgup2rcd13ifvqco0","pricing_plan_id":"cebpf4jnsgd1na2vs0mg"},{"bike_id":"556be8b2-f257-4d7e-aa46-09c99c2aeb4c","system_id":"levelo_inurba_marseille","lat":43.273822,"lon":5.362597,"is_reserved":false,"is_disabled":false,"rental_uris":{"android":"levelo://app?vid=556be8b2-f257-4d7e-aa46-09c99c2aeb4c","ios":"levelo://app?vid=556be8b2-f257-4d7e-aa46-09c99c2aeb4c"},"vehicle_type_id":"4","last_reported":1746025848,"current_range_meters":2800,"station_id":"ce4bhbh2rcd13ifvqeo0","pricing_plan_id":"cebpf4jnsgd1na2vs0mg"},{"bike_id":"7003e1d5-1463-4fa2-b5ec-2ff4ec6f5e3f","system_id":"levelo_inurba_marseille","lat":43.31354,"lon":5.367198,"is_reserved":false,"is_disabled":true,"rental_uris":{"android":"levelo://app?vid=7003e1d5-1463-4fa2-b5ec-2ff4ec6f5e3f","ios":"levelo://app?vid=7003e1d5-1463-4fa2-b5ec-2ff4ec6f5e3f"},"vehicle_type_id":"4","last_reported":1746025848,"current_range_meters":2800,"station_id":"ce4bgr92rcd13ifvqc6g","pricing_plan_id":"cebpf4jnsgd1na2vs0mg"},{"bike_id":"d543c615-f65d-4592-bd7f-90375aef4339","system_id":"levelo_inurba_marseille","lat":43.29556,"lon":5.42294,"is_reserved":false,"is_disabled":false,"rental_uris":{"android":"levelo://app?vid=d543c615-f65d-4592-bd7f-90375aef4339","ios":"levelo://app?vid=d543c615-f65d-4592-bd7f-90375aef4339"},"vehicle_type_id":"4","last_reported":1746025848,"current_range_meters":2800,"station_id":"ce4bhph2rcd13ifvqhdg","pricing_plan_id":"cebpf4jnsgd1na2vs0mg"},{"bike_id":"6be6d1c8-c1ba-46ab-9309-67f5a1fc97cf","system_id":"levelo_inurba_marseille","lat":43.26552,"lon":5.37288,"is_reserved":false,"is_disabled":false,"rental_uris":{"android":"levelo://app?vid=6be6d1c8-c1ba-46ab-9309-67f5a1fc97cf","ios":"levelo://app?vid=6be6d1c8-c1ba-46ab-9309-67f5a1fc97cf"},"vehicle_type_id":"4","last_reported":1746025848,"current_range_meters":3200,"station_id":"ce4bhg12rcd13ifvqf70","pricing_plan_id":"cebpf4jnsgd1na2vs0mg"},{"bike_id":"e5b4b90d-e268-4de2-98f4-f6d0513f8801","system_id":"levelo_inurba_marseille","lat":43.26544,"lon":5.42216,"is_reserved":false,"is_disabled":false,"rental_uris":{"android":"levelo://app?vid=e5b4b90d-e268-4de2-98f4-f6d0513f8801","ios":"levelo://app?vid=e5b4b90d-e268-4de2-98f4-f6d0513f8801"},"vehicle_type_id":"4","last_reported":1746025848,"current_range_meters":3200,"station_id":"","pricing_plan_id":"cebpf4jnsgd1na2vs0mg"},{"bike_id":"d8434a9d-85e5-44e6-b74a-c0fc2aaec589","system_id":"levelo_inurba_marseille","lat":43.28947,"lon":5.36399,"is_reserved":false,"is_disabled":false,"rental_uris":{"android":"levelo://app?vid=d8434a9d-85e5-44e6-b74a-c0fc2aaec589","ios":"levelo://app?vid=d8434a9d-85e5-44e6-b74a-c0fc2aaec589"},"vehicle_type_id":"4","last_reported":1746025848,"current_range_meters":3200,"station_id":"ce4bhc92rcd13ifvqetg","pricing_plan_id":"cebpf4jnsgd1na2vs0mg"},{"bike_id":"f1e3c12a-02a3-4893-b9e1-1aacd74f3f49","system_id":"levelo_inurba_marseille","lat":43.3211,"lon":5.36766,"is_reserved":false,"is_disabled":true,"rental_uris":{"android":"levelo://app?vid=f1e3c12a-02a3-4893-b9e1-1aacd74f3f49","ios":"levelo://app?vid=f1e3c12a-02a3-4893-b9e1-1aacd74f3f49"},"vehicle_type_id":"4","last_reported":1746025848,"current_range_meters":3600,"station_id":"ce4bhrh2rcd13ifvqhug","pricing_plan_id":"cebpf4jnsgd1na2vs0mg"},{"bike_id":"856389cf-005c-44f5-9398-b6482cf9679d","system_id":"levelo_inurba_marseille","lat":43.29009,"lon":5.35606,"is_reserved":false,"is_disabled":false,"rental_uris":{"android":"levelo://app?vid=856389cf-005c-44f5-9398-b6482cf9679d","ios":"levelo://app?vid=856389cf-005c-44f5-9398-b6482cf9679d"},"vehicle_type_id":"4","last_reported":1746025848,"current_range_meters":3600,"station_id":"ce4bhb92rcd13ifvqen0","pricing_plan_id":"cebpf4jnsgd1na2vs0mg"},{"bike_id":"4df50a3f-ec75-4abb-a66a-7f49c68de98b","system_id":"levelo_inurba_marseille","lat":43.298989,"lon":5.43659,"is_reserved":false,"is_disabled":false,"rental_uris":{"android":"levelo://app?vid=4df50a3f-ec75-4abb-a66a-7f49c68de98b","ios":"levelo://app?vid=4df50a3f-ec75-4abb-a66a-7f49c68de98b"},"vehicle_type_id":"4","last_reported":1746025848,"current_range_meters":3600,"station_id":"ce4bhpp2rcd13ifvqhfg","pricing_plan_id":"cebpf4jnsgd1na2vs0mg"},{"bike_id":"4699c915-6815-4b66-83a8-eee0878035e0","system_id":"levelo_inurba_marseille","lat":43.24184,"lon":5.39727,"is_reserved":false,"is_disabled":false,"rental_uris":{"android":"levelo://app?vid=4699c915-6815-4b66-83a8-eee0878035e0","ios":"levelo://app?vid=4699c915-6815-4b66-83a8-eee0878035e0"},"vehicle_type_id":"4","last_reported":1746025848,"current_range_meters":3600,"station_id":"ce4bhn12rcd13ifvqgpg","pricing_plan_id":"cebpf4jnsgd1na2vs0mg"},{"bike_id":"97ea5741-e8bb-4a5d-9ea8-d1a78a9e538b","system_id":"levelo_inurba_marseille","lat":43.28937,"lon":5.36637,"is_reserved":false,"is_disabled":false,"rental_uris":{"android":"levelo://app?vid=97ea5741-e8bb-4a5d-9ea8-d1a78a9e538b","ios":"levelo://app?vid=97ea5741-e8bb-4a5d-9ea8-d1a78a9e538b"},"vehicle_type_id":"4","last_reported":1746025848,"current_range_meters":3600,"station_id":"ce4bhap2rcd13ifvqek0","pricing_plan_id":"cebpf4jnsgd1na2vs0mg"},{"bike_id":"5f8225ac-93aa-48ab-addc-c53704b8581a","system_id":"levelo_inurba_marseille","lat":43.232086,"lon":5.355343,"is_reserved":false,"is_disabled":false,"rental_uris":{"android":"levelo://app?vid=5f8225ac-93aa-48ab-addc-c53704b8581a","ios":"levelo://app?vid=5f8225ac-93aa-48ab-addc-c53704b8581a"},"vehicle_type_id":"4","last_reported":1746025848,"current_range_meters":4000,"station_id":"","pricing_plan_id":"cebpf4jnsgd1na2vs0mg"},{"bike_id":"08665ae4-4879-4493-a64f-1672b392afa2","system_id":"levelo_inurba_marseille","lat":43.29628,"lon":5.40591,"is_reserved":false,"is_disabled":false,"rental_uris":{"android":"levelo://app?vid=08665ae4-4879-4493-a64f-1672b392afa2","ios":"levelo://app?vid=08665ae4-4879-4493-a64f-1672b392afa2"},"vehicle_type_id":"4","last_reported":1746025848,"current_range_meters":3600,"station_id":"ce4bh0h2rcd13ifvqd60","pricing_plan_id":"cebpf4jnsgd1na2vs0mg"},{"bike_id":"690274af-188a-4e1e-8f25-c855b568885e","system_id":"levelo_inurba_marseille","lat":43.27384,"lon":5.36245,"is_reserved":false,"is_disabled":false,"rental_uris":{"android":"levelo://app?vid=690274af-188a-4e1e-8f25-c855b568885e","ios":"levelo://app?vid=690274af-188a-4e1e-8f25-c855b568885e"},"vehicle_type_id":"4","last_reported":1746025848,"current_range_meters":4000,"station_id":"ce4bhbh2rcd13ifvqeo0","pricing_plan_id":"cebpf4jnsgd1na2vs0mg"},{"bike_id":"16d38500-acd8-4661-86a3-bf174bcb3081","system_id":"levelo_inurba_marseille","lat":43.29262,"lon":5.3844,"is_reserved":false,"is_disabled":false,"rental_uris":{"android":"levelo://app?vid=16d38500-acd8-4661-86a3-bf174bcb3081","ios":"levelo://app?vid=16d38500-acd8-4661-86a3-bf174bcb3081"},"vehicle_type_id":"4","last_reported":1746025848,"current_range_meters":4000,"station_id":"ce4bh692rcd13ifvqea0","pricing_plan_id":"cebpf4jnsgd1na2vs0mg"},{"bike_id":"b01a7e2b-c9f1-4ac2-a255-3ec190f6b2dc","system_id":"levelo_inurba_marseille","lat":43.2418,"lon":5.36396,"is_reserved":false,"is_disabled":false,"rental_uris":{"android":"levelo://app?vid=b01a7e2b-c9f1-4ac2-a255-3ec190f6b2dc","ios":"levelo://app?vid=b01a7e2b-c9f1-4ac2-a255-3ec190f6b2dc"},"vehicle_type_id":"4","last_reported":1746025848,"current_range_meters":4000,"station_id":"cpo36qri1sfpv3e86is0","pricing_plan_id":"cebpf4jnsgd1na2vs0mg"},{"bike_id":"3a674239-cc0b-4a86-b885-3aa965ee584d","system_id":"levelo_inurba_marseille","lat":43.25574,"lon":5.38245,"is_reserved":false,"is_disabled":false,"rental_uris":{"android":"levelo://app?vid=3a674239-cc0b-4a86-b885-3aa965ee584d","ios":"levelo://app?vid=3a674239-cc0b-4a86-b885-3aa965ee584d"},"vehicle_type_id":"4","last_reported":1746025848,"current_range_meters":4000,"station_id":"ce4bhih2rcd13ifvqfs0","pricing_plan_id":"cebpf4jnsgd1na2vs0mg"},{"bike_id":"bab84877-791d-4bca-a8b3-d3d044dc20bf","system_id":"levelo_inurba_marseille","lat":43.29569,"lon":5.39959,"is_reserved":false,"is_disabled":false,"rental_uris":{"android":"levelo://app?vid=bab84877-791d-4bca-a8b3-d3d044dc20bf","ios":"levelo://app?vid=bab84877-791d-4bca-a8b3-d3d044dc20bf"},"vehicle_type_id":"4","last_reported":1746025848,"current_range_meters":4400,"station_id":"ce4bh312rcd13ifvqdj0","pricing_plan_id":"cebpf4jnsgd1na2vs0mg"},{"bike_id":"d34c2c84-fcd9-4995-8856-de38a531d060","system_id":"levelo_inurba_marseille","lat":43.29031,"lon":5.39969,"is_reserved":false,"is_disabled":false,"rental_uris":{"android":"levelo://app?vid=d34c2c84-fcd9-4995-8856-de38a531d060","ios":"levelo://app?vid=d34c2c84-fcd9-4995-8856-de38a531d060"},"vehicle_type_id":"4","last_reported":1746025848,"current_range_meters":4800,"station_id":"ce4bh392rcd13ifvqdm0","pricing_plan_id":"cebpf4jnsgd1na2vs0mg"},{"bike_id":"beccd19b-2f60-41f2-be89-e5b67b89f53e","system_id":"levelo_inurba_marseille","lat":43.30733,"lon":5.42445,"is_reserved":false,"is_disabled":false,"rental_uris":{"android":"levelo://app?vid=beccd19b-2f60-41f2-be89-e5b67b89f53e","ios":"levelo://app?vid=beccd19b-2f60-41f2-be89-e5b67b89f53e"},"vehicle_type_id":"4","last_reported":1746025848,"current_range_meters":4400,"station_id":"st_cvj6ca6bvosntc0bfgr0","pricing_plan_id":"cebpf4jnsgd1na2vs0mg"},{"bike_id":"18f85f3e-d187-4724-bcac-7774bf71a783","system_id":"levelo_inurba_marseille","lat":43.224991,"lon":5.348042,"is_reserved":false,"is_disabled":false,"rental_uris":{"android":"levelo://app?vid=18f85f3e-d187-4724-bcac-7774bf71a783","ios":"levelo://app?vid=18f85f3e-d187-4724-bcac-7774bf71a783"},"vehicle_type_id":"4","last_reported":1746025848,"current_range_meters":4800,"station_id":"","pricing_plan_id":"cebpf4jnsgd1na2vs0mg"},{"bike_id":"f59c2de3-4ff7-4694-a562-5230f93237b7","system_id":"levelo_inurba_marseille","lat":43.25585,"lon":5.38221,"is_reserved":false,"is_disabled":false,"rental_uris":{"android":"levelo://app?vid=f59c2de3-4ff7-4694-a562-5230f93237b7","ios":"levelo://app?vid=f59c2de3-4ff7-4694-a562-5230f93237b7"},"vehicle_type_id":"4","last_reported":1746025848,"current_range_meters":4800,"station_id":"ce4bhih2rcd13ifvqfs0","pricing_plan_id":"cebpf4jnsgd1na2vs0mg"},{"bike_id":"94cbb7d8-9fdf-45d3-884c-c32b38df720b","system_id":"levelo_inurba_marseille","lat":43.30302,"lon":5.3919,"is_reserved":false,"is_disabled":false,"rental_uris":{"android":"levelo://app?vid=94cbb7d8-9fdf-45d3-884c-c32b38df720b","ios":"levelo://app?vid=94cbb7d8-9fdf-45d3-884c-c32b38df720b"},"vehicle_type_id":"4","last_reported":1746025848,"current_range_meters":5600,"station_id":"ce4bgkh2rcd13ifvqbk0","pricing_plan_id":"cebpf4jnsgd1na2vs0mg"},{"bike_id":"bf9ba034-a50b-4927-9375-9affe7b126db","system_id":"levelo_inurba_marseille","lat":43.23153,"lon":5.4372,"is_reserved":false,"is_disabled":false,"rental_uris":{"android":"levelo://app?vid=bf9ba034-a50b-4927-9375-9affe7b126db","ios":"levelo://app?vid=bf9ba034-a50b-4927-9375-9affe7b126db"},"vehicle_type_id":"4","last_reported":1746025848,"current_range_meters":5600,"station_id":"ce4bhmp2rcd13ifvqgog","pricing_plan_id":"cebpf4jnsgd1na2vs0mg"},{"bike_id":"a818700c-da01-40a7-a96d-a003d1f6f478","system_id":"levelo_inurba_marseille","lat":43.31758,"lon":5.39009,"is_reserved":false,"is_disabled":false,"rental_uris":{"android":"levelo://app?vid=a818700c-da01-40a7-a96d-a003d1f6f478","ios":"levelo://app?vid=a818700c-da01-40a7-a96d-a003d1f6f478"},"vehicle_type_id":"4","last_reported":1746025848,"current_range_meters":5600,"station_id":"ce4bhqp2rcd13ifvqhng","pricing_plan_id":"cebpf4jnsgd1na2vs0mg"},{"bike_id":"28378b54-cee3-4663-a9cf-3a2a8139b987","system_id":"levelo_inurba_marseille","lat":43.27072,"lon":5.42277,"is_reserved":false,"is_disabled":false,"rental_uris":{"android":"levelo://app?vid=28378b54-cee3-4663-a9cf-3a2a8139b987","ios":"levelo://app?vid=28378b54-cee3-4663-a9cf-3a2a8139b987"},"vehicle_type_id":"4","last_reported":1746025848,"current_range_meters":6000,"station_id":"ce4bhk92rcd13ifvqgb0","pricing_plan_id":"cebpf4jnsgd1na2vs0mg"},{"bike_id":"76b24ce2-028d-4242-be77-aff18401ff6c","system_id":"levelo_inurba_marseille","lat":43.27369,"lon":5.36256,"is_reserved":false,"is_disabled":false,"rental_uris":{"android":"levelo://app?vid=76b24ce2-028d-4242-be77-aff18401ff6c","ios":"levelo://app?vid=76b24ce2-028d-4242-be77-aff18401ff6c"},"vehicle_type_id":"4","last_reported":1746025848,"current_range_meters":6000,"station_id":"ce4bhbh2rcd13ifvqeo0","pricing_plan_id":"cebpf4jnsgd1na2vs0mg"},{"bike_id":"d53103e6-3535-409a-98cd-079917e65b42","system_id":"levelo_inurba_marseille","lat":43.25717,"lon":5.41116,"is_reserved":false,"is_disabled":false,"rental_uris":{"android":"levelo://app?vid=d53103e6-3535-409a-98cd-079917e65b42","ios":"levelo://app?vid=d53103e6-3535-409a-98cd-079917e65b42"},"vehicle_type_id":"4","last_reported":1746025848,"current_range_meters":6000,"station_id":"ce4bhkp2rcd13ifvqgd0","pricing_plan_id":"cebpf4jnsgd1na2vs0mg"},{"bike_id":"8d128561-4b60-4e68-80f5-7c2a1f462d33","system_id":"levelo_inurba_marseille","lat":43.29711,"lon":5.37702,"is_reserved":false,"is_disabled":false,"rental_uris":{"android":"levelo://app?vid=8d128561-4b60-4e68-80f5-7c2a1f462d33","ios":"levelo://app?vid=8d128561-4b60-4e68-80f5-7c2a1f462d33"},"vehicle_type_id":"4","last_reported":1746025848,"current_range_meters":6000,"station_id":"ce4bgkh2rcd13ifvqbl0","pricing_plan_id":"cebpf4jnsgd1na2vs0mg"},{"bike_id":"09e47da8-487d-4ae5-ad48-a4ef86bc5075","system_id":"levelo_inurba_marseille","lat":43.23193,"lon":5.35545,"is_reserved":false,"is_disabled":false,"rental_uris":{"android":"levelo://app?vid=09e47da8-487d-4ae5-ad48-a4ef86bc5075","ios":"levelo://app?vid=09e47da8-487d-4ae5-ad48-a4ef86bc5075"},"vehicle_type_id":"4","last_reported":1746025848,"current_range_meters":6000,"station_id":"ce4bhu92rcd13ifvqi70","pricing_plan_id":"cebpf4jnsgd1na2vs0mg"},{"bike_id":"27389e19-0b0b-4366-977a-fdb01d4ca436","system_id":"levelo_inurba_marseille","lat":43.258241,"lon":5.394382,"is_reserved":false,"is_disabled":false,"rental_uris":{"android":"levelo://app?vid=27389e19-0b0b-4366-977a-fdb01d4ca436","ios":"levelo://app?vid=27389e19-0b0b-4366-977a-fdb01d4ca436"},"vehicle_type_id":"4","last_reported":1746025848,"current_range_meters":6400,"station_id":"ce4bhip2rcd13ifvqft0","pricing_plan_id":"cebpf4jnsgd1na2vs0mg"},{"bike_id":"c3ccb954-ced3-4163-9867-7cfff0ce2aa6","system_id":"levelo_inurba_marseille","lat":43.28419,"lon":5.37577,"is_reserved":false,"is_disabled":false,"rental_uris":{"android":"levelo://app?vid=c3ccb954-ced3-4163-9867-7cfff0ce2aa6","ios":"levelo://app?vid=c3ccb954-ced3-4163-9867-7cfff0ce2aa6"},"vehicle_type_id":"4","last_reported":1746025848,"current_range_meters":6800,"station_id":"","pricing_plan_id":"cebpf4jnsgd1na2vs0mg"},{"bike_id":"7783e9c0-a683-4d26-b3cb-5d2cbeb3bb81","system_id":"levelo_inurba_marseille","lat":43.24168,"lon":5.36401,"is_reserved":false,"is_disabled":true,"rental_uris":{"android":"levelo://app?vid=7783e9c0-a683-4d26-b3cb-5d2cbeb3bb81","ios":"levelo://app?vid=7783e9c0-a683-4d26-b3cb-5d2cbeb3bb81"},"vehicle_type_id":"4","last_reported":1746025848,"current_range_meters":6400,"station_id":"cpo36qri1sfpv3e86is0","pricing_plan_id":"cebpf4jnsgd1na2vs0mg"},{"bike_id":"859594f3-923f-40d4-a2d2-a4a8bba9567e","system_id":"levelo_inurba_marseille","lat":43.26927,"lon":5.40271,"is_reserved":false,"is_disabled":false,"rental_uris":{"android":"levelo://app?vid=859594f3-923f-40d4-a2d2-a4a8bba9567e","ios":"levelo://app?vid=859594f3-923f-40d4-a2d2-a4a8bba9567e"},"vehicle_type_id":"4","last_reported":1746025848,"current_range_meters":6400,"station_id":"cjm6bp8fraef2m0cb0m0","pricing_plan_id":"cebpf4jnsgd1na2vs0mg"},{"bike_id":"3234a140-97c2-4441-8e61-c29a79e88c11","system_id":"levelo_inurba_marseille","lat":43.27378,"lon":5.36254,"is_reserved":false,"is_disabled":false,"rental_uris":{"android":"levelo://app?vid=3234a140-97c2-4441-8e61-c29a79e88c11","ios":"levelo://app?vid=3234a140-97c2-4441-8e61-c29a79e88c11"},"vehicle_type_id":"4","last_reported":1746025848,"current_range_meters":6800,"station_id":"ce4bhbh2rcd13ifvqeo0","pricing_plan_id":"cebpf4jnsgd1na2vs0mg"},{"bike_id":"56dc9050-d535-459c-84df-97aa6d961160","system_id":"levelo_inurba_marseille","lat":43.29073,"lon":5.37157,"is_reserved":false,"is_disabled":false,"rental_uris":{"android":"levelo://app?vid=56dc9050-d535-459c-84df-97aa6d961160","ios":"levelo://app?vid=56dc9050-d535-459c-84df-97aa6d961160"},"vehicle_type_id":"4","last_reported":1746025848,"current_range_meters":6400,"station_id":"ce4bh5p2rcd13ifvqe4g","pricing_plan_id":"cebpf4jnsgd1na2vs0mg"},{"bike_id":"91b9bd29-cf6f-4457-9d7e-1ed790c35a72","system_id":"levelo_inurba_marseille","lat":43.28454,"lon":5.35895,"is_reserved":false,"is_disabled":false,"rental_uris":{"android":"levelo://app?vid=91b9bd29-cf6f-4457-9d7e-1ed790c35a72","ios":"levelo://app?vid=91b9bd29-cf6f-4457-9d7e-1ed790c35a72"},"vehicle_type_id":"4","last_reported":1746025848,"current_range_meters":8000,"station_id":"ce4bhah2rcd13ifvqei0","pricing_plan_id":"cebpf4jnsgd1na2vs0mg"},{"bike_id":"5fd5fa18-7e1a-4205-b3b6-163c5240a372","system_id":"levelo_inurba_marseille","lat":43.28864,"lon":5.35837,"is_reserved":false,"is_disabled":false,"rental_uris":{"android":"levelo://app?vid=5fd5fa18-7e1a-4205-b3b6-163c5240a372","ios":"levelo://app?vid=5fd5fa18-7e1a-4205-b3b6-163c5240a372"},"vehicle_type_id":"4","last_reported":1746025848,"current_range_meters":7200,"station_id":"ce4bhb12rcd13ifvqem0","pricing_plan_id":"cebpf4jnsgd1na2vs0mg"},{"bike_id":"3a099ec1-7990-4038-9313-3c1f2562a259","system_id":"levelo_inurba_marseille","lat":43.262197,"lon":5.37527,"is_reserved":false,"is_disabled":false,"rental_uris":{"android":"levelo://app?vid=3a099ec1-7990-4038-9313-3c1f2562a259","ios":"levelo://app?vid=3a099ec1-7990-4038-9313-3c1f2562a259"},"vehicle_type_id":"4","last_reported":1746025848,"current_range_meters":7200,"station_id":"","pricing_plan_id":"cebpf4jnsgd1na2vs0mg"},{"bike_id":"3585f9c4-6a77-4fe2-ba49-d9021b75a910","system_id":"levelo_inurba_marseille","lat":43.29273,"lon":5.38431,"is_reserved":false,"is_disabled":false,"rental_uris":{"android":"levelo://app?vid=3585f9c4-6a77-4fe2-ba49-d9021b75a910","ios":"levelo://app?vid=3585f9c4-6a77-4fe2-ba49-d9021b75a910"},"vehicle_type_id":"4","last_reported":1746025848,"current_range_meters":7200,"station_id":"ce4bh692rcd13ifvqea0","pricing_plan_id":"cebpf4jnsgd1na2vs0mg"},{"bike_id":"64a8ed4f-9a09-4c7b-978e-6039ef3d5b82","system_id":"levelo_inurba_marseille","lat":43.27369,"lon":5.36239,"is_reserved":false,"is_disabled":false,"rental_uris":{"android":"levelo://app?vid=64a8ed4f-9a09-4c7b-978e-6039ef3d5b82","ios":"levelo://app?vid=64a8ed4f-9a09-4c7b-978e-6039ef3d5b82"},"vehicle_type_id":"4","last_reported":1746025848,"current_range_meters":7200,"station_id":"ce4bhbh2rcd13ifvqeo0","pricing_plan_id":"cebpf4jnsgd1na2vs0mg"},{"bike_id":"99aacb10-8f89-4408-a365-7b63e41822a1","system_id":"levelo_inurba_marseille","lat":43.28416,"lon":5.37516,"is_reserved":false,"is_disabled":false,"rental_uris":{"android":"levelo://app?vid=99aacb10-8f89-4408-a365-7b63e41822a1","ios":"levelo://app?vid=99aacb10-8f89-4408-a365-7b63e41822a1"},"vehicle_type_id":"4","last_reported":1746025848,"current_range_meters":8400,"station_id":"ce4bh412rcd13ifvqds0","pricing_plan_id":"cebpf4jnsgd1na2vs0mg"},{"bike_id":"4957cd64-8b57-4f12-b86c-7956edb964ee","system_id":"levelo_inurba_marseille","lat":43.3209,"lon":5.36794,"is_reserved":false,"is_disabled":false,"rental_uris":{"android":"levelo://app?vid=4957cd64-8b57-4f12-b86c-7956edb964ee","ios":"levelo://app?vid=4957cd64-8b57-4f12-b86c-7956edb964ee"},"vehicle_type_id":"4","last_reported":1746025848,"current_range_meters":8400,"station_id":"ce4bhrh2rcd13ifvqhug","pricing_plan_id":"cebpf4jnsgd1na2vs0mg"},{"bike_id":"091cdb46-4775-435c-b74a-e1fc3348bc8a","system_id":"levelo_inurba_marseille","lat":43.23152,"lon":5.43716,"is_reserved":false,"is_disabled":false,"rental_uris":{"android":"levelo://app?vid=091cdb46-4775-435c-b74a-e1fc3348bc8a","ios":"levelo://app?vid=091cdb46-4775-435c-b74a-e1fc3348bc8a"},"vehicle_type_id":"4","last_reported":1746025848,"current_range_meters":8400,"station_id":"ce4bhmp2rcd13ifvqgog","pricing_plan_id":"cebpf4jnsgd1na2vs0mg"},{"bike_id":"f7d434d6-c94a-44aa-85df-690d8ef2922e","system_id":"levelo_inurba_marseille","lat":43.32486,"lon":5.36572,"is_reserved":false,"is_disabled":false,"rental_uris":{"android":"levelo://app?vid=f7d434d6-c94a-44aa-85df-690d8ef2922e","ios":"levelo://app?vid=f7d434d6-c94a-44aa-85df-690d8ef2922e"},"vehicle_type_id":"4","last_reported":1746025848,"current_range_meters":8400,"station_id":"ce4bhs12rcd13ifvqhvg","pricing_plan_id":"cebpf4jnsgd1na2vs0mg"},{"bike_id":"a0f4bd78-f5c4-42c9-acdf-e7276b835249","system_id":"levelo_inurba_marseille","lat":43.33131,"lon":5.38218,"is_reserved":false,"is_disabled":false,"rental_uris":{"android":"levelo://app?vid=a0f4bd78-f5c4-42c9-acdf-e7276b835249","ios":"levelo://app?vid=a0f4bd78-f5c4-42c9-acdf-e7276b835249"},"vehicle_type_id":"4","last_reported":1746025848,"current_range_meters":8400,"station_id":"","pricing_plan_id":"cebpf4jnsgd1na2vs0mg"},{"bike_id":"c06f07d3-1013-483e-a267-a905eac3630f","system_id":"levelo_inurba_marseille","lat":43.29271,"lon":5.37609,"is_reserved":false,"is_disabled":false,"rental_uris":{"android":"levelo://app?vid=c06f07d3-1013-483e-a267-a905eac3630f","ios":"levelo://app?vid=c06f07d3-1013-483e-a267-a905eac3630f"},"vehicle_type_id":"4","last_reported":1746025848,"current_range_meters":8400,"station_id":"ce4bgi12rcd13ifvqb80","pricing_plan_id":"cebpf4jnsgd1na2vs0mg"},{"bike_id":"ebfe75b7-debf-4537-8dbe-902a175a08d4","system_id":"levelo_inurba_marseille","lat":43.2738,"lon":5.36253,"is_reserved":false,"is_disabled":false,"rental_uris":{"android":"levelo://app?vid=ebfe75b7-debf-4537-8dbe-902a175a08d4","ios":"levelo://app?vid=ebfe75b7-debf-4537-8dbe-902a175a08d4"},"vehicle_type_id":"4","last_reported":1746025848,"current_range_meters":8400,"station_id":"ce4bhbh2rcd13ifvqeo0","pricing_plan_id":"cebpf4jnsgd1na2vs0mg"},{"bike_id":"912336ca-6c8e-410d-8064-9384ab065b5a","system_id":"levelo_inurba_marseille","lat":43.26567,"lon":5.390035,"is_reserved":false,"is_disabled":false,"rental_uris":{"android":"levelo://app?vid=912336ca-6c8e-410d-8064-9384ab065b5a","ios":"levelo://app?vid=912336ca-6c8e-410d-8064-9384ab065b5a"},"vehicle_type_id":"4","last_reported":1746025848,"current_range_meters":8400,"station_id":"ce4bhe12rcd13ifvqf30","pricing_plan_id":"cebpf4jnsgd1na2vs0mg"},{"bike_id":"6c762325-22d4-409f-abd0-63634b302a04","system_id":"levelo_inurba_marseille","lat":43.23152,"lon":5.43732,"is_reserved":false,"is_disabled":false,"rental_uris":{"android":"levelo://app?vid=6c762325-22d4-409f-abd0-63634b302a04","ios":"levelo://app?vid=6c762325-22d4-409f-abd0-63634b302a04"},"vehicle_type_id":"4","last_reported":1746025848,"current_range_meters":8800,"station_id":"ce4bhmp2rcd13ifvqgog","pricing_plan_id":"cebpf4jnsgd1na2vs0mg"},{"bike_id":"64c8d3ea-9c6f-455a-b2d7-00a036fae7a4","system_id":"levelo_inurba_marseille","lat":43.268603,"lon":5.39166,"is_reserved":false,"is_disabled":false,"rental_uris":{"android":"levelo://app?vid=64c8d3ea-9c6f-455a-b2d7-00a036fae7a4","ios":"levelo://app?vid=64c8d3ea-9c6f-455a-b2d7-00a036fae7a4"},"vehicle_type_id":"4","last_reported":1746025848,"current_range_meters":8800,"station_id":"","pricing_plan_id":"cebpf4jnsgd1na2vs0mg"},{"bike_id":"140a7eee-29e6-44d9-8532-004b1dd0fb31","system_id":"levelo_inurba_marseille","lat":43.2842,"lon":5.34978,"is_reserved":false,"is_disabled":false,"rental_uris":{"android":"levelo://app?vid=140a7eee-29e6-44d9-8532-004b1dd0fb31","ios":"levelo://app?vid=140a7eee-29e6-44d9-8532-004b1dd0fb31"},"vehicle_type_id":"4","last_reported":1746025848,"current_range_meters":8800,"station_id":"ce4bhbh2rcd13ifvqepg","pricing_plan_id":"cebpf4jnsgd1na2vs0mg"},{"bike_id":"3ad48726-8c5b-4be3-a77e-579f9a44b449","system_id":"levelo_inurba_marseille","lat":43.2985,"lon":5.36284,"is_reserved":false,"is_disabled":false,"rental_uris":{"android":"levelo://app?vid=3ad48726-8c5b-4be3-a77e-579f9a44b449","ios":"levelo://app?vid=3ad48726-8c5b-4be3-a77e-579f9a44b449"},"vehicle_type_id":"4","last_reported":1746025848,"current_range_meters":9200,"station_id":"","pricing_plan_id":"cebpf4jnsgd1na2vs0mg"},{"bike_id":"489415b8-9254-45c1-b00c-e7554d56755c","system_id":"levelo_inurba_marseille","lat":43.245206,"lon":5.412101,"is_reserved":false,"is_disabled":false,"rental_uris":{"android":"levelo://app?vid=489415b8-9254-45c1-b00c-e7554d56755c","ios":"levelo://app?vid=489415b8-9254-45c1-b00c-e7554d56755c"},"vehicle_type_id":"4","last_reported":1746025848,"current_range_meters":9200,"station_id":"","pricing_plan_id":"cebpf4jnsgd1na2vs0mg"},{"bike_id":"531574f6-6d6c-4dbb-8af7-d0029c624630","system_id":"levelo_inurba_marseille","lat":43.26484,"lon":5.3955,"is_reserved":false,"is_disabled":false,"rental_uris":{"android":"levelo://app?vid=531574f6-6d6c-4dbb-8af7-d0029c624630","ios":"levelo://app?vid=531574f6-6d6c-4dbb-8af7-d0029c624630"},"vehicle_type_id":"4","last_reported":1746025848,"current_range_meters":9200,"station_id":"ce4bhi12rcd13ifvqfq0","pricing_plan_id":"cebpf4jnsgd1na2vs0mg"},{"bike_id":"07edfd45-c3fa-4b57-b865-cf1bf9963264","system_id":"levelo_inurba_marseille","lat":43.23394,"lon":5.36427,"is_reserved":false,"is_disabled":false,"rental_uris":{"android":"levelo://app?vid=07edfd45-c3fa-4b57-b865-cf1bf9963264","ios":"levelo://app?vid=07edfd45-c3fa-4b57-b865-cf1bf9963264"},"vehicle_type_id":"4","last_reported":1746025848,"current_range_meters":9200,"station_id":"","pricing_plan_id":"cebpf4jnsgd1na2vs0mg"},{"bike_id":"dffa465a-c696-4891-b15e-38e236a559f1","system_id":"levelo_inurba_marseille","lat":43.273825,"lon":5.362624,"is_reserved":false,"is_disabled":false,"rental_uris":{"android":"levelo://app?vid=dffa465a-c696-4891-b15e-38e236a559f1","ios":"levelo://app?vid=dffa465a-c696-4891-b15e-38e236a559f1"},"vehicle_type_id":"4","last_reported":1746025848,"current_range_meters":9600,"station_id":"ce4bhbh2rcd13ifvqeo0","pricing_plan_id":"cebpf4jnsgd1na2vs0mg"},{"bike_id":"35c0f3d4-ff18-4828-81b8-f361ba5e1ed5","system_id":"levelo_inurba_marseille","lat":43.298645,"lon":5.397235,"is_reserved":false,"is_disabled":false,"rental_uris":{"android":"levelo://app?vid=35c0f3d4-ff18-4828-81b8-f361ba5e1ed5","ios":"levelo://app?vid=35c0f3d4-ff18-4828-81b8-f361ba5e1ed5"},"vehicle_type_id":"4","last_reported":1746025848,"current_range_meters":12400,"station_id":"ce4bh0h2rcd13ifvqd50","pricing_plan_id":"cebpf4jnsgd1na2vs0mg"},{"bike_id":"ac80e985-cfdf-4940-bf6d-bf2ebe2c2fd0","system_id":"levelo_inurba_marseille","lat":43.32094,"lon":5.36785,"is_reserved":false,"is_disabled":false,"rental_uris":{"android":"levelo://app?vid=ac80e985-cfdf-4940-bf6d-bf2ebe2c2fd0","ios":"levelo://app?vid=ac80e985-cfdf-4940-bf6d-bf2ebe2c2fd0"},"vehicle_type_id":"4","last_reported":1746025848,"current_range_meters":10000,"station_id":"ce4bhrh2rcd13ifvqhug","pricing_plan_id":"cebpf4jnsgd1na2vs0mg"},{"bike_id":"ba05d6eb-cda6-42b4-883b-043418047f5a","system_id":"levelo_inurba_marseille","lat":43.289398,"lon":5.366462,"is_reserved":false,"is_disabled":false,"rental_uris":{"android":"levelo://app?vid=ba05d6eb-cda6-42b4-883b-043418047f5a","ios":"levelo://app?vid=ba05d6eb-cda6-42b4-883b-043418047f5a"},"vehicle_type_id":"4","last_reported":1746025848,"current_range_meters":10000,"station_id":"ce4bhap2rcd13ifvqek0","pricing_plan_id":"cebpf4jnsgd1na2vs0mg"},{"bike_id":"dcb0b990-89f9-495c-a9c1-10b17ae39667","system_id":"levelo_inurba_marseille","lat":43.2347,"lon":5.3806,"is_reserved":false,"is_disabled":false,"rental_uris":{"android":"levelo://app?vid=dcb0b990-89f9-495c-a9c1-10b17ae39667","ios":"levelo://app?vid=dcb0b990-89f9-495c-a9c1-10b17ae39667"},"vehicle_type_id":"4","last_reported":1746025848,"current_range_meters":10000,"station_id":"","pricing_plan_id":"cebpf4jnsgd1na2vs0mg"},{"bike_id":"d53f9d11-ea3e-481d-9ec4-1fbf5f821689","system_id":"levelo_inurba_marseille","lat":43.32,"lon":5.38158,"is_reserved":false,"is_disabled":false,"rental_uris":{"android":"levelo://app?vid=d53f9d11-ea3e-481d-9ec4-1fbf5f821689","ios":"levelo://app?vid=d53f9d11-ea3e-481d-9ec4-1fbf5f821689"},"vehicle_type_id":"4","last_reported":1746025848,"current_range_meters":10000,"station_id":"ce4bhr12rcd13ifvqhpg","pricing_plan_id":"cebpf4jnsgd1na2vs0mg"},{"bike_id":"ce5b795d-b5f5-4c2f-bb50-69e2ec328996","system_id":"levelo_inurba_marseille","lat":43.329909,"lon":5.385562,"is_reserved":false,"is_disabled":false,"rental_uris":{"android":"levelo://app?vid=ce5b795d-b5f5-4c2f-bb50-69e2ec328996","ios":"levelo://app?vid=ce5b795d-b5f5-4c2f-bb50-69e2ec328996"},"vehicle_type_id":"4","last_reported":1746025848,"current_range_meters":10000,"station_id":"","pricing_plan_id":"cebpf4jnsgd1na2vs0mg"},{"bike_id":"c90ff9d5-9eda-4261-8758-a0cf8f0aa8ca","system_id":"levelo_inurba_marseille","lat":43.24156,"lon":5.36409,"is_reserved":false,"is_disabled":false,"rental_uris":{"android":"levelo://app?vid=c90ff9d5-9eda-4261-8758-a0cf8f0aa8ca","ios":"levelo://app?vid=c90ff9d5-9eda-4261-8758-a0cf8f0aa8ca"},"vehicle_type_id":"4","last_reported":1746025848,"current_range_meters":10800,"station_id":"cpo36qri1sfpv3e86is0","pricing_plan_id":"cebpf4jnsgd1na2vs0mg"},{"bike_id":"d0a35acf-bee3-4e16-98e9-166ac13a3353","system_id":"levelo_inurba_marseille","lat":43.29037,"lon":5.37557,"is_reserved":false,"is_disabled":false,"rental_uris":{"android":"levelo://app?vid=d0a35acf-bee3-4e16-98e9-166ac13a3353","ios":"levelo://app?vid=d0a35acf-bee3-4e16-98e9-166ac13a3353"},"vehicle_type_id":"4","last_reported":1746025848,"current_range_meters":10800,"station_id":"ce4bh692rcd13ifvqe90","pricing_plan_id":"cebpf4jnsgd1na2vs0mg"},{"bike_id":"94b11dfe-21a6-45ef-88d4-a1e39b331742","system_id":"levelo_inurba_marseille","lat":43.29261,"lon":5.40908,"is_reserved":false,"is_disabled":false,"rental_uris":{"android":"levelo://app?vid=94b11dfe-21a6-45ef-88d4-a1e39b331742","ios":"levelo://app?vid=94b11dfe-21a6-45ef-88d4-a1e39b331742"},"vehicle_type_id":"4","last_reported":1746025848,"current_range_meters":10800,"station_id":"ce4bh192rcd13ifvqdc0","pricing_plan_id":"cebpf4jnsgd1na2vs0mg"},{"bike_id":"39c41898-ad14-4809-bc49-daca36a58dc8","system_id":"levelo_inurba_marseille","lat":43.27622,"lon":5.36105,"is_reserved":false,"is_disabled":false,"rental_uris":{"android":"levelo://app?vid=39c41898-ad14-4809-bc49-daca36a58dc8","ios":"levelo://app?vid=39c41898-ad14-4809-bc49-daca36a58dc8"},"vehicle_type_id":"4","last_reported":1746025848,"current_range_meters":11200,"station_id":"ce4bgj92rcd13ifvqbe0","pricing_plan_id":"cebpf4jnsgd1na2vs0mg"},{"bike_id":"eab3ebbd-4fbb-474e-8331-5baf21e716e8","system_id":"levelo_inurba_marseille","lat":43.27057,"lon":5.40262,"is_reserved":false,"is_disabled":false,"rental_uris":{"android":"levelo://app?vid=eab3ebbd-4fbb-474e-8331-5baf21e716e8","ios":"levelo://app?vid=eab3ebbd-4fbb-474e-8331-5baf21e716e8"},"vehicle_type_id":"4","last_reported":1746025848,"current_range_meters":11200,"station_id":"ce4bhk92rcd13ifvqgc0","pricing_plan_id":"cebpf4jnsgd1na2vs0mg"},{"bike_id":"7f770ba9-2e48-47c9-8bb4-942855273bad","system_id":"levelo_inurba_marseille","lat":43.25356,"lon":5.42442,"is_reserved":false,"is_disabled":false,"rental_uris":{"android":"levelo://app?vid=7f770ba9-2e48-47c9-8bb4-942855273bad","ios":"levelo://app?vid=7f770ba9-2e48-47c9-8bb4-942855273bad"},"vehicle_type_id":"4","last_reported":1746025848,"current_range_meters":11200,"station_id":"","pricing_plan_id":"cebpf4jnsgd1na2vs0mg"},{"bike_id":"92679136-c9cc-4468-89f8-d66e6eb29e55","system_id":"levelo_inurba_marseille","lat":43.25869,"lon":5.39888,"is_reserved":false,"is_disabled":false,"rental_uris":{"android":"levelo://app?vid=92679136-c9cc-4468-89f8-d66e6eb29e55","ios":"levelo://app?vid=92679136-c9cc-4468-89f8-d66e6eb29e55"},"vehicle_type_id":"4","last_reported":1746025848,"current_range_meters":12000,"station_id":"ce4bhl92rcd13ifvqghg","pricing_plan_id":"cebpf4jnsgd1na2vs0mg"},{"bike_id":"e5e92a64-e709-4b1a-a9b1-cbffe85789ca","system_id":"levelo_inurba_marseille","lat":43.255416,"lon":5.381416,"is_reserved":false,"is_disabled":false,"rental_uris":{"android":"levelo://app?vid=e5e92a64-e709-4b1a-a9b1-cbffe85789ca","ios":"levelo://app?vid=e5e92a64-e709-4b1a-a9b1-cbffe85789ca"},"vehicle_type_id":"4","last_reported":1746025848,"current_range_meters":12000,"station_id":"","pricing_plan_id":"cebpf4jnsgd1na2vs0mg"},{"bike_id":"747d04e3-7b34-43a6-9443-b649187adf8d","system_id":"levelo_inurba_marseille","lat":43.2738,"lon":5.36255,"is_reserved":false,"is_disabled":false,"rental_uris":{"android":"levelo://app?vid=747d04e3-7b34-43a6-9443-b649187adf8d","ios":"levelo://app?vid=747d04e3-7b34-43a6-9443-b649187adf8d"},"vehicle_type_id":"4","last_reported":1746025848,"current_range_meters":12000,"station_id":"ce4bhbh2rcd13ifvqeo0","pricing_plan_id":"cebpf4jnsgd1na2vs0mg"},{"bike_id":"9aa46099-3b01-4795-a11f-5c16321cf0cd","system_id":"levelo_inurba_marseille","lat":43.26213,"lon":5.37435,"is_reserved":false,"is_disabled":false,"rental_uris":{"android":"levelo://app?vid=9aa46099-3b01-4795-a11f-5c16321cf0cd","ios":"levelo://app?vid=9aa46099-3b01-4795-a11f-5c16321cf0cd"},"vehicle_type_id":"4","last_reported":1746025848,"current_range_meters":12400,"station_id":"ce4bhgp2rcd13ifvqfc0","pricing_plan_id":"cebpf4jnsgd1na2vs0mg"},{"bike_id":"ff416ab1-6f3d-4848-adcd-55906dc5d231","system_id":"levelo_inurba_marseille","lat":43.29712,"lon":5.377,"is_reserved":false,"is_disabled":false,"rental_uris":{"android":"levelo://app?vid=ff416ab1-6f3d-4848-adcd-55906dc5d231","ios":"levelo://app?vid=ff416ab1-6f3d-4848-adcd-55906dc5d231"},"vehicle_type_id":"4","last_reported":1746025848,"current_range_meters":12400,"station_id":"ce4bgkh2rcd13ifvqbl0","pricing_plan_id":"cebpf4jnsgd1na2vs0mg"},{"bike_id":"64405295-237d-47b6-9a26-fbd39bc585f1","system_id":"levelo_inurba_marseille","lat":43.291,"lon":5.38146,"is_reserved":false,"is_disabled":false,"rental_uris":{"android":"levelo://app?vid=64405295-237d-47b6-9a26-fbd39bc585f1","ios":"levelo://app?vid=64405295-237d-47b6-9a26-fbd39bc585f1"},"vehicle_type_id":"4","last_reported":1746025848,"current_range_meters":14400,"station_id":"ce4bh512rcd13ifvqe2g","pricing_plan_id":"cebpf4jnsgd1na2vs0mg"},{"bike_id":"5bfa1298-37ad-4d23-ac13-67422f86ea19","system_id":"levelo_inurba_marseille","lat":43.29271,"lon":5.38437,"is_reserved":false,"is_disabled":false,"rental_uris":{"android":"levelo://app?vid=5bfa1298-37ad-4d23-ac13-67422f86ea19","ios":"levelo://app?vid=5bfa1298-37ad-4d23-ac13-67422f86ea19"},"vehicle_type_id":"4","last_reported":1746025848,"current_range_meters":12400,"station_id":"ce4bh692rcd13ifvqea0","pricing_plan_id":"cebpf4jnsgd1na2vs0mg"},{"bike_id":"0ef033bb-1cc9-43d3-9ed0-6a0691f6e630","system_id":"levelo_inurba_marseille","lat":43.334073,"lon":5.400103,"is_reserved":false,"is_disabled":false,"rental_uris":{"android":"levelo://app?vid=0ef033bb-1cc9-43d3-9ed0-6a0691f6e630","ios":"levelo://app?vid=0ef033bb-1cc9-43d3-9ed0-6a0691f6e630"},"vehicle_type_id":"4","last_reported":1746025848,"current_range_meters":12800,"station_id":"","pricing_plan_id":"cebpf4jnsgd1na2vs0mg"},{"bike_id":"a732b3d6-472a-46b2-b5fc-7d86a14ed2fc","system_id":"levelo_inurba_marseille","lat":43.33016,"lon":5.39075,"is_reserved":false,"is_disabled":false,"rental_uris":{"android":"levelo://app?vid=a732b3d6-472a-46b2-b5fc-7d86a14ed2fc","ios":"levelo://app?vid=a732b3d6-472a-46b2-b5fc-7d86a14ed2fc"},"vehicle_type_id":"4","last_reported":1746025848,"current_range_meters":12800,"station_id":"ce4bhr92rcd13ifvqhrg","pricing_plan_id":"cebpf4jnsgd1na2vs0mg"},{"bike_id":"bcbf69be-a53f-40d2-9b32-e44e73dee435","system_id":"levelo_inurba_marseille","lat":43.26683,"lon":5.38271,"is_reserved":false,"is_disabled":false,"rental_uris":{"android":"levelo://app?vid=bcbf69be-a53f-40d2-9b32-e44e73dee435","ios":"levelo://app?vid=bcbf69be-a53f-40d2-9b32-e44e73dee435"},"vehicle_type_id":"4","last_reported":1746025848,"current_range_meters":16000,"station_id":"ce4bhg92rcd13ifvqf90","pricing_plan_id":"cebpf4jnsgd1na2vs0mg"},{"bike_id":"fca9dc8b-9c20-4eab-83ff-17d0ce9a6922","system_id":"levelo_inurba_marseille","lat":43.26078,"lon":5.41736,"is_reserved":false,"is_disabled":false,"rental_uris":{"android":"levelo://app?vid=fca9dc8b-9c20-4eab-83ff-17d0ce9a6922","ios":"levelo://app?vid=fca9dc8b-9c20-4eab-83ff-17d0ce9a6922"},"vehicle_type_id":"4","last_reported":1746025848,"current_range_meters":13600,"station_id":"","pricing_plan_id":"cebpf4jnsgd1na2vs0mg"},{"bike_id":"85ea9e1f-37a8-4bd5-a8e6-66e47a3d13bb","system_id":"levelo_inurba_marseille","lat":43.330268,"lon":5.390423,"is_reserved":false,"is_disabled":false,"rental_uris":{"android":"levelo://app?vid=85ea9e1f-37a8-4bd5-a8e6-66e47a3d13bb","ios":"levelo://app?vid=85ea9e1f-37a8-4bd5-a8e6-66e47a3d13bb"},"vehicle_type_id":"4","last_reported":1746025848,"current_range_meters":13600,"station_id":"ce4bhr92rcd13ifvqhrg","pricing_plan_id":"cebpf4jnsgd1na2vs0mg"},{"bike_id":"abcf20d4-90f6-4b84-9cc8-fd1dc6680b9a","system_id":"levelo_inurba_marseille","lat":43.28722,"lon":5.36083,"is_reserved":false,"is_disabled":false,"rental_uris":{"android":"levelo://app?vid=abcf20d4-90f6-4b84-9cc8-fd1dc6680b9a","ios":"levelo://app?vid=abcf20d4-90f6-4b84-9cc8-fd1dc6680b9a"},"vehicle_type_id":"4","last_reported":1746025848,"current_range_meters":13600,"station_id":"cki0cbj6b192h4jlfktg","pricing_plan_id":"cebpf4jnsgd1na2vs0mg"},{"bike_id":"2c5ec366-1e71-48a0-838b-cdd4be06b798","system_id":"levelo_inurba_marseille","lat":43.28613,"lon":5.35099,"is_reserved":false,"is_disabled":false,"rental_uris":{"android":"levelo://app?vid=2c5ec366-1e71-48a0-838b-cdd4be06b798","ios":"levelo://app?vid=2c5ec366-1e71-48a0-838b-cdd4be06b798"},"vehicle_type_id":"4","last_reported":1746025848,"current_range_meters":13600,"station_id":"ce4bhch2rcd13ifvqeug","pricing_plan_id":"cebpf4jnsgd1na2vs0mg"},{"bike_id":"7b32f9be-e4a1-4177-a957-a4b49e2633f9","system_id":"levelo_inurba_marseille","lat":43.29267,"lon":5.38435,"is_reserved":false,"is_disabled":false,"rental_uris":{"android":"levelo://app?vid=7b32f9be-e4a1-4177-a957-a4b49e2633f9","ios":"levelo://app?vid=7b32f9be-e4a1-4177-a957-a4b49e2633f9"},"vehicle_type_id":"4","last_reported":1746025848,"current_range_meters":13600,"station_id":"ce4bh692rcd13ifvqea0","pricing_plan_id":"cebpf4jnsgd1na2vs0mg"},{"bike_id":"c1cbc237-cfab-474a-aa26-81a87506105a","system_id":"levelo_inurba_marseille","lat":43.21755,"lon":5.34611,"is_reserved":false,"is_disabled":false,"rental_uris":{"android":"levelo://app?vid=c1cbc237-cfab-474a-aa26-81a87506105a","ios":"levelo://app?vid=c1cbc237-cfab-474a-aa26-81a87506105a"},"vehicle_type_id":"4","last_reported":1746025848,"current_range_meters":13600,"station_id":"st_cvj6r9ubvosntc0bgbag","pricing_plan_id":"cebpf4jnsgd1na2vs0mg"},{"bike_id":"e6dbf88b-a76e-4b79-b704-484109e38993","system_id":"levelo_inurba_marseille","lat":43.27377,"lon":5.36257,"is_reserved":false,"is_disabled":false,"rental_uris":{"android":"levelo://app?vid=e6dbf88b-a76e-4b79-b704-484109e38993","ios":"levelo://app?vid=e6dbf88b-a76e-4b79-b704-484109e38993"},"vehicle_type_id":"4","last_reported":1746025848,"current_range_meters":13600,"station_id":"ce4bhbh2rcd13ifvqeo0","pricing_plan_id":"cebpf4jnsgd1na2vs0mg"},{"bike_id":"fadf1ea2-b2fe-46d5-b7fc-32e54f630f19","system_id":"levelo_inurba_marseille","lat":43.27381,"lon":5.36249,"is_reserved":false,"is_disabled":false,"rental_uris":{"android":"levelo://app?vid=fadf1ea2-b2fe-46d5-b7fc-32e54f630f19","ios":"levelo://app?vid=fadf1ea2-b2fe-46d5-b7fc-32e54f630f19"},"vehicle_type_id":"4","last_reported":1746025848,"current_range_meters":14000,"station_id":"ce4bhbh2rcd13ifvqeo0","pricing_plan_id":"cebpf4jnsgd1na2vs0mg"},{"bike_id":"6c12ff60-ca47-4317-8fd9-41b438c555cc","system_id":"levelo_inurba_marseille","lat":43.21758,"lon":5.34601,"is_reserved":false,"is_disabled":false,"rental_uris":{"android":"levelo://app?vid=6c12ff60-ca47-4317-8fd9-41b438c555cc","ios":"levelo://app?vid=6c12ff60-ca47-4317-8fd9-41b438c555cc"},"vehicle_type_id":"4","last_reported":1746025848,"current_range_meters":14000,"station_id":"st_cvj6r9ubvosntc0bgbag","pricing_plan_id":"cebpf4jnsgd1na2vs0mg"},{"bike_id":"daa2af3f-d98c-4524-b80f-e9a98f2e9c8a","system_id":"levelo_inurba_marseille","lat":43.28266,"lon":5.35062,"is_reserved":false,"is_disabled":false,"rental_uris":{"android":"levelo://app?vid=daa2af3f-d98c-4524-b80f-e9a98f2e9c8a","ios":"levelo://app?vid=daa2af3f-d98c-4524-b80f-e9a98f2e9c8a"},"vehicle_type_id":"4","last_reported":1746025848,"current_range_meters":14000,"station_id":"ce4bhbp2rcd13ifvqerg","pricing_plan_id":"cebpf4jnsgd1na2vs0mg"},{"bike_id":"6c514869-018d-45a0-bcd0-8db0b70e42c1","system_id":"levelo_inurba_marseille","lat":43.318878,"lon":5.374812,"is_reserved":false,"is_disabled":false,"rental_uris":{"android":"levelo://app?vid=6c514869-018d-45a0-bcd0-8db0b70e42c1","ios":"levelo://app?vid=6c514869-018d-45a0-bcd0-8db0b70e42c1"},"vehicle_type_id":"4","last_reported":1746025848,"current_range_meters":14800,"station_id":"","pricing_plan_id":"cebpf4jnsgd1na2vs0mg"},{"bike_id":"31db7e25-964b-4095-8cce-7b014e161eb6","system_id":"levelo_inurba_marseille","lat":43.24631,"lon":5.3894,"is_reserved":false,"is_disabled":false,"rental_uris":{"android":"levelo://app?vid=31db7e25-964b-4095-8cce-7b014e161eb6","ios":"levelo://app?vid=31db7e25-964b-4095-8cce-7b014e161eb6"},"vehicle_type_id":"4","last_reported":1746025848,"current_range_meters":14400,"station_id":"ce4bhg12rcd13ifvqf60","pricing_plan_id":"cebpf4jnsgd1na2vs0mg"},{"bike_id":"b6b1b88c-6a4e-4683-bac8-358040d17230","system_id":"levelo_inurba_marseille","lat":43.29714,"lon":5.37697,"is_reserved":false,"is_disabled":false,"rental_uris":{"android":"levelo://app?vid=b6b1b88c-6a4e-4683-bac8-358040d17230","ios":"levelo://app?vid=b6b1b88c-6a4e-4683-bac8-358040d17230"},"vehicle_type_id":"4","last_reported":1746025848,"current_range_meters":14400,"station_id":"ce4bgkh2rcd13ifvqbl0","pricing_plan_id":"cebpf4jnsgd1na2vs0mg"},{"bike_id":"1b6c6503-613a-4dc6-aefe-98842ca25889","system_id":"levelo_inurba_marseille","lat":43.3121,"lon":5.36843,"is_reserved":false,"is_disabled":false,"rental_uris":{"android":"levelo://app?vid=1b6c6503-613a-4dc6-aefe-98842ca25889","ios":"levelo://app?vid=1b6c6503-613a-4dc6-aefe-98842ca25889"},"vehicle_type_id":"4","last_reported":1746025848,"current_range_meters":12800,"station_id":"ce4bgl92rcd13ifvqbq0","pricing_plan_id":"cebpf4jnsgd1na2vs0mg"},{"bike_id":"b12db72c-3dea-4fb6-a379-03afa6d20383","system_id":"levelo_inurba_marseille","lat":43.2844,"lon":5.34999,"is_reserved":false,"is_disabled":false,"rental_uris":{"android":"levelo://app?vid=b12db72c-3dea-4fb6-a379-03afa6d20383","ios":"levelo://app?vid=b12db72c-3dea-4fb6-a379-03afa6d20383"},"vehicle_type_id":"4","last_reported":1746025848,"current_range_meters":14800,"station_id":"ce4bhbh2rcd13ifvqepg","pricing_plan_id":"cebpf4jnsgd1na2vs0mg"},{"bike_id":"5f33d795-46d6-457b-a917-95b28cdaa090","system_id":"levelo_inurba_marseille","lat":43.241694,"lon":5.36664,"is_reserved":false,"is_disabled":false,"rental_uris":{"android":"levelo://app?vid=5f33d795-46d6-457b-a917-95b28cdaa090","ios":"levelo://app?vid=5f33d795-46d6-457b-a917-95b28cdaa090"},"vehicle_type_id":"4","last_reported":1746025848,"current_range_meters":14800,"station_id":"cpo36qri1sfpv3e86is0","pricing_plan_id":"cebpf4jnsgd1na2vs0mg"},{"bike_id":"4b3b1227-ef86-4836-a349-f3dfdd4f149e","system_id":"levelo_inurba_marseille","lat":43.31124,"lon":5.37757,"is_reserved":false,"is_disabled":false,"rental_uris":{"android":"levelo://app?vid=4b3b1227-ef86-4836-a349-f3dfdd4f149e","ios":"levelo://app?vid=4b3b1227-ef86-4836-a349-f3dfdd4f149e"},"vehicle_type_id":"4","last_reported":1746025848,"current_range_meters":15200,"station_id":"ce4bgt92rcd13ifvqcg0","pricing_plan_id":"cebpf4jnsgd1na2vs0mg"},{"bike_id":"be866266-000e-4683-98b6-c6ad0f7bfd25","system_id":"levelo_inurba_marseille","lat":43.2738,"lon":5.36252,"is_reserved":false,"is_disabled":false,"rental_uris":{"android":"levelo://app?vid=be866266-000e-4683-98b6-c6ad0f7bfd25","ios":"levelo://app?vid=be866266-000e-4683-98b6-c6ad0f7bfd25"},"vehicle_type_id":"4","last_reported":1746025848,"current_range_meters":14800,"station_id":"ce4bhbh2rcd13ifvqeo0","pricing_plan_id":"cebpf4jnsgd1na2vs0mg"},{"bike_id":"8ec2068c-6383-49f6-8423-dd597497f40d","system_id":"levelo_inurba_marseille","lat":43.27625,"lon":5.36126,"is_reserved":false,"is_disabled":false,"rental_uris":{"android":"levelo://app?vid=8ec2068c-6383-49f6-8423-dd597497f40d","ios":"levelo://app?vid=8ec2068c-6383-49f6-8423-dd597497f40d"},"vehicle_type_id":"4","last_reported":1746025848,"current_range_meters":15200,"station_id":"ce4bgj92rcd13ifvqbe0","pricing_plan_id":"cebpf4jnsgd1na2vs0mg"},{"bike_id":"7c4e3258-2f48-4e9c-a19a-c1c759e82263","system_id":"levelo_inurba_marseille","lat":43.298645,"lon":5.397313,"is_reserved":false,"is_disabled":false,"rental_uris":{"android":"levelo://app?vid=7c4e3258-2f48-4e9c-a19a-c1c759e82263","ios":"levelo://app?vid=7c4e3258-2f48-4e9c-a19a-c1c759e82263"},"vehicle_type_id":"4","last_reported":1746025848,"current_range_meters":14800,"station_id":"ce4bh0h2rcd13ifvqd50","pricing_plan_id":"cebpf4jnsgd1na2vs0mg"},{"bike_id":"27677013-4a3e-41cb-adef-810b72d5bde7","system_id":"levelo_inurba_marseille","lat":43.28619,"lon":5.35111,"is_reserved":false,"is_disabled":false,"rental_uris":{"android":"levelo://app?vid=27677013-4a3e-41cb-adef-810b72d5bde7","ios":"levelo://app?vid=27677013-4a3e-41cb-adef-810b72d5bde7"},"vehicle_type_id":"4","last_reported":1746025848,"current_range_meters":15200,"station_id":"ce4bhch2rcd13ifvqeug","pricing_plan_id":"cebpf4jnsgd1na2vs0mg"},{"bike_id":"b07aae76-c0fa-4fa0-ba99-586209d9896d","system_id":"levelo_inurba_marseille","lat":43.2901,"lon":5.35604,"is_reserved":false,"is_disabled":false,"rental_uris":{"android":"levelo://app?vid=b07aae76-c0fa-4fa0-ba99-586209d9896d","ios":"levelo://app?vid=b07aae76-c0fa-4fa0-ba99-586209d9896d"},"vehicle_type_id":"4","last_reported":1746025848,"current_range_meters":16000,"station_id":"ce4bhb92rcd13ifvqen0","pricing_plan_id":"cebpf4jnsgd1na2vs0mg"},{"bike_id":"02c34c65-9e29-4adf-87ca-500c6052f434","system_id":"levelo_inurba_marseille","lat":43.21195,"lon":5.35067,"is_reserved":false,"is_disabled":false,"rental_uris":{"android":"levelo://app?vid=02c34c65-9e29-4adf-87ca-500c6052f434","ios":"levelo://app?vid=02c34c65-9e29-4adf-87ca-500c6052f434"},"vehicle_type_id":"4","last_reported":1746025848,"current_range_meters":16000,"station_id":"st_cvj6sg6p6f1abm77japg","pricing_plan_id":"cebpf4jnsgd1na2vs0mg"},{"bike_id":"86c2979e-8cf6-48ed-bdb1-835ff11e3adc","system_id":"levelo_inurba_marseille","lat":43.25384,"lon":5.41891,"is_reserved":false,"is_disabled":false,"rental_uris":{"android":"levelo://app?vid=86c2979e-8cf6-48ed-bdb1-835ff11e3adc","ios":"levelo://app?vid=86c2979e-8cf6-48ed-bdb1-835ff11e3adc"},"vehicle_type_id":"4","last_reported":1746025848,"current_range_meters":16000,"station_id":"","pricing_plan_id":"cebpf4jnsgd1na2vs0mg"},{"bike_id":"df1cd735-c9cc-4b5c-8919-9e900ddc2485","system_id":"levelo_inurba_marseille","lat":43.28277,"lon":5.35063,"is_reserved":false,"is_disabled":false,"rental_uris":{"android":"levelo://app?vid=df1cd735-c9cc-4b5c-8919-9e900ddc2485","ios":"levelo://app?vid=df1cd735-c9cc-4b5c-8919-9e900ddc2485"},"vehicle_type_id":"4","last_reported":1746025848,"current_range_meters":16000,"station_id":"ce4bhbp2rcd13ifvqerg","pricing_plan_id":"cebpf4jnsgd1na2vs0mg"},{"bike_id":"d18aa8c7-bb13-4896-b908-ba80bf53511b","system_id":"levelo_inurba_marseille","lat":43.27835,"lon":5.39212,"is_reserved":false,"is_disabled":false,"rental_uris":{"android":"levelo://app?vid=d18aa8c7-bb13-4896-b908-ba80bf53511b","ios":"levelo://app?vid=d18aa8c7-bb13-4896-b908-ba80bf53511b"},"vehicle_type_id":"4","last_reported":1746025848,"current_range_meters":16400,"station_id":"ce4bhjp2rcd13ifvqga0","pricing_plan_id":"cebpf4jnsgd1na2vs0mg"},{"bike_id":"174cac4e-efc2-46e0-8e20-8a6bc76e0910","system_id":"levelo_inurba_marseille","lat":43.27561,"lon":5.38435,"is_reserved":false,"is_disabled":false,"rental_uris":{"android":"levelo://app?vid=174cac4e-efc2-46e0-8e20-8a6bc76e0910","ios":"levelo://app?vid=174cac4e-efc2-46e0-8e20-8a6bc76e0910"},"vehicle_type_id":"4","last_reported":1746025848,"current_range_meters":16400,"station_id":"ce4bhh92rcd13ifvqfi0","pricing_plan_id":"cebpf4jnsgd1na2vs0mg"},{"bike_id":"1786c8f4-fb57-48ed-bd26-2c425d0d0e24","system_id":"levelo_inurba_marseille","lat":43.337533,"lon":5.374215,"is_reserved":false,"is_disabled":false,"rental_uris":{"android":"levelo://app?vid=1786c8f4-fb57-48ed-bd26-2c425d0d0e24","ios":"levelo://app?vid=1786c8f4-fb57-48ed-bd26-2c425d0d0e24"},"vehicle_type_id":"4","last_reported":1746025848,"current_range_meters":16400,"station_id":"","pricing_plan_id":"cebpf4jnsgd1na2vs0mg"},{"bike_id":"7940bc1b-eaa7-4f49-a435-46dc9391f6a1","system_id":"levelo_inurba_marseille","lat":43.212015,"lon":5.350669,"is_reserved":false,"is_disabled":false,"rental_uris":{"android":"levelo://app?vid=7940bc1b-eaa7-4f49-a435-46dc9391f6a1","ios":"levelo://app?vid=7940bc1b-eaa7-4f49-a435-46dc9391f6a1"},"vehicle_type_id":"4","last_reported":1746025848,"current_range_meters":16400,"station_id":"st_cvj6sg6p6f1abm77japg","pricing_plan_id":"cebpf4jnsgd1na2vs0mg"},{"bike_id":"a398f988-ac2d-4dd2-85a6-d269f86b386f","system_id":"levelo_inurba_marseille","lat":43.284099,"lon":5.375048,"is_reserved":false,"is_disabled":false,"rental_uris":{"android":"levelo://app?vid=a398f988-ac2d-4dd2-85a6-d269f86b386f","ios":"levelo://app?vid=a398f988-ac2d-4dd2-85a6-d269f86b386f"},"vehicle_type_id":"4","last_reported":1746025848,"current_range_meters":16400,"station_id":"ce4bh412rcd13ifvqds0","pricing_plan_id":"cebpf4jnsgd1na2vs0mg"},{"bike_id":"77e11bfa-273f-415e-b846-60a0f7f40963","system_id":"levelo_inurba_marseille","lat":43.26569,"lon":5.39017,"is_reserved":false,"is_disabled":false,"rental_uris":{"android":"levelo://app?vid=77e11bfa-273f-415e-b846-60a0f7f40963","ios":"levelo://app?vid=77e11bfa-273f-415e-b846-60a0f7f40963"},"vehicle_type_id":"4","last_reported":1746025848,"current_range_meters":16800,"station_id":"ce4bhe12rcd13ifvqf30","pricing_plan_id":"cebpf4jnsgd1na2vs0mg"},{"bike_id":"eac45ed3-4bb8-4475-bdfb-10bcf318ddc3","system_id":"levelo_inurba_marseille","lat":43.26225,"lon":5.40443,"is_reserved":false,"is_disabled":false,"rental_uris":{"android":"levelo://app?vid=eac45ed3-4bb8-4475-bdfb-10bcf318ddc3","ios":"levelo://app?vid=eac45ed3-4bb8-4475-bdfb-10bcf318ddc3"},"vehicle_type_id":"4","last_reported":1746025848,"current_range_meters":16800,"station_id":"ce4bhmh2rcd13ifvqgmg","pricing_plan_id":"cebpf4jnsgd1na2vs0mg"},{"bike_id":"43d9f45f-00fc-46ed-ae45-191273f6a465","system_id":"levelo_inurba_marseille","lat":43.28043,"lon":5.36938,"is_reserved":false,"is_disabled":false,"rental_uris":{"android":"levelo://app?vid=43d9f45f-00fc-46ed-ae45-191273f6a465","ios":"levelo://app?vid=43d9f45f-00fc-46ed-ae45-191273f6a465"},"vehicle_type_id":"4","last_reported":1746025848,"current_range_meters":16800,"station_id":"ce4bha12rcd13ifvqef0","pricing_plan_id":"cebpf4jnsgd1na2vs0mg"},{"bike_id":"34b484ab-c0f1-4e55-b51a-e2bafdafb63e","system_id":"levelo_inurba_marseille","lat":43.23058,"lon":5.35484,"is_reserved":false,"is_disabled":false,"rental_uris":{"android":"levelo://app?vid=34b484ab-c0f1-4e55-b51a-e2bafdafb63e","ios":"levelo://app?vid=34b484ab-c0f1-4e55-b51a-e2bafdafb63e"},"vehicle_type_id":"4","last_reported":1746025848,"current_range_meters":16800,"station_id":"cpo3342slgdg3j2ifvpg","pricing_plan_id":"cebpf4jnsgd1na2vs0mg"},{"bike_id":"ce765abb-d0b7-4e53-a907-c100f9f867ec","system_id":"levelo_inurba_marseille","lat":43.31714,"lon":5.43703,"is_reserved":false,"is_disabled":false,"rental_uris":{"android":"levelo://app?vid=ce765abb-d0b7-4e53-a907-c100f9f867ec","ios":"levelo://app?vid=ce765abb-d0b7-4e53-a907-c100f9f867ec"},"vehicle_type_id":"4","last_reported":1746025848,"current_range_meters":16400,"station_id":"ce4bhp92rcd13ifvqhcg","pricing_plan_id":"cebpf4jnsgd1na2vs0mg"},{"bike_id":"6f22906b-94c9-4d7b-9ebc-9fe65ec0611d","system_id":"levelo_inurba_marseille","lat":43.321203,"lon":5.367753,"is_reserved":false,"is_disabled":false,"rental_uris":{"android":"levelo://app?vid=6f22906b-94c9-4d7b-9ebc-9fe65ec0611d","ios":"levelo://app?vid=6f22906b-94c9-4d7b-9ebc-9fe65ec0611d"},"vehicle_type_id":"4","last_reported":1746025848,"current_range_meters":17200,"station_id":"ce4bhrh2rcd13ifvqhug","pricing_plan_id":"cebpf4jnsgd1na2vs0mg"},{"bike_id":"d2415601-2401-43bd-9bad-08c4d7abf178","system_id":"levelo_inurba_marseille","lat":43.28671,"lon":5.36347,"is_reserved":false,"is_disabled":false,"rental_uris":{"android":"levelo://app?vid=d2415601-2401-43bd-9bad-08c4d7abf178","ios":"levelo://app?vid=d2415601-2401-43bd-9bad-08c4d7abf178"},"vehicle_type_id":"4","last_reported":1746025848,"current_range_meters":17200,"station_id":"ce4bhah2rcd13ifvqej0","pricing_plan_id":"cebpf4jnsgd1na2vs0mg"},{"bike_id":"1a348c0d-f19d-460f-8d9e-32b530507a88","system_id":"levelo_inurba_marseille","lat":43.29261,"lon":5.3762,"is_reserved":false,"is_disabled":false,"rental_uris":{"android":"levelo://app?vid=1a348c0d-f19d-460f-8d9e-32b530507a88","ios":"levelo://app?vid=1a348c0d-f19d-460f-8d9e-32b530507a88"},"vehicle_type_id":"4","last_reported":1746025848,"current_range_meters":17200,"station_id":"ce4bgi12rcd13ifvqb80","pricing_plan_id":"cebpf4jnsgd1na2vs0mg"},{"bike_id":"6a7b6153-543b-4459-bffa-b648bc79c612","system_id":"levelo_inurba_marseille","lat":43.24808,"lon":5.37458,"is_reserved":false,"is_disabled":false,"rental_uris":{"android":"levelo://app?vid=6a7b6153-543b-4459-bffa-b648bc79c612","ios":"levelo://app?vid=6a7b6153-543b-4459-bffa-b648bc79c612"},"vehicle_type_id":"4","last_reported":1746025848,"current_range_meters":17200,"station_id":"ce4bhgh2rcd13ifvqfb0","pricing_plan_id":"cebpf4jnsgd1na2vs0mg"},{"bike_id":"c7abf670-8267-4a85-92c0-246a6ead0bf3","system_id":"levelo_inurba_marseille","lat":43.29196,"lon":5.39309,"is_reserved":false,"is_disabled":false,"rental_uris":{"android":"levelo://app?vid=c7abf670-8267-4a85-92c0-246a6ead0bf3","ios":"levelo://app?vid=c7abf670-8267-4a85-92c0-246a6ead0bf3"},"vehicle_type_id":"4","last_reported":1746025848,"current_range_meters":17200,"station_id":"ce4bh192rcd13ifvqdd0","pricing_plan_id":"cebpf4jnsgd1na2vs0mg"},{"bike_id":"77202ba1-a1e8-4136-acc2-c4b668809ab3","system_id":"levelo_inurba_marseille","lat":43.30309,"lon":5.36853,"is_reserved":false,"is_disabled":false,"rental_uris":{"android":"levelo://app?vid=77202ba1-a1e8-4136-acc2-c4b668809ab3","ios":"levelo://app?vid=77202ba1-a1e8-4136-acc2-c4b668809ab3"},"vehicle_type_id":"4","last_reported":1746025848,"current_range_meters":17200,"station_id":"ce4bgqh2rcd13ifvqc5g","pricing_plan_id":"cebpf4jnsgd1na2vs0mg"},{"bike_id":"70a3f063-7f49-40dc-b61e-768d1217ff91","system_id":"levelo_inurba_marseille","lat":43.28271,"lon":5.35114,"is_reserved":false,"is_disabled":false,"rental_uris":{"android":"levelo://app?vid=70a3f063-7f49-40dc-b61e-768d1217ff91","ios":"levelo://app?vid=70a3f063-7f49-40dc-b61e-768d1217ff91"},"vehicle_type_id":"4","last_reported":1746025848,"current_range_meters":17200,"station_id":"ce4bhbp2rcd13ifvqerg","pricing_plan_id":"cebpf4jnsgd1na2vs0mg"},{"bike_id":"58b7935f-d0be-4d0c-849b-995a37fd7dad","system_id":"levelo_inurba_marseille","lat":43.27375,"lon":5.36257,"is_reserved":false,"is_disabled":false,"rental_uris":{"android":"levelo://app?vid=58b7935f-d0be-4d0c-849b-995a37fd7dad","ios":"levelo://app?vid=58b7935f-d0be-4d0c-849b-995a37fd7dad"},"vehicle_type_id":"4","last_reported":1746025848,"current_range_meters":17200,"station_id":"ce4bhbh2rcd13ifvqeo0","pricing_plan_id":"cebpf4jnsgd1na2vs0mg"},{"bike_id":"a1149e9c-fd50-4602-8f0f-b1511a3cc33e","system_id":"levelo_inurba_marseille","lat":43.32008,"lon":5.38151,"is_reserved":false,"is_disabled":false,"rental_uris":{"android":"levelo://app?vid=a1149e9c-fd50-4602-8f0f-b1511a3cc33e","ios":"levelo://app?vid=a1149e9c-fd50-4602-8f0f-b1511a3cc33e"},"vehicle_type_id":"4","last_reported":1746025848,"current_range_meters":17200,"station_id":"ce4bhr12rcd13ifvqhpg","pricing_plan_id":"cebpf4jnsgd1na2vs0mg"},{"bike_id":"68387bcf-91b9-4d94-9345-8087e5f6d466","system_id":"levelo_inurba_marseille","lat":43.31333,"lon":5.36771,"is_reserved":false,"is_disabled":false,"rental_uris":{"android":"levelo://app?vid=68387bcf-91b9-4d94-9345-8087e5f6d466","ios":"levelo://app?vid=68387bcf-91b9-4d94-9345-8087e5f6d466"},"vehicle_type_id":"4","last_reported":1746025848,"current_range_meters":17600,"station_id":"","pricing_plan_id":"cebpf4jnsgd1na2vs0mg"},{"bike_id":"4d5fabd9-085f-4135-9664-c819e5ad9ce7","system_id":"levelo_inurba_marseille","lat":43.33721,"lon":5.39176,"is_reserved":false,"is_disabled":false,"rental_uris":{"android":"levelo://app?vid=4d5fabd9-085f-4135-9664-c819e5ad9ce7","ios":"levelo://app?vid=4d5fabd9-085f-4135-9664-c819e5ad9ce7"},"vehicle_type_id":"4","last_reported":1746025848,"current_range_meters":17200,"station_id":"ce4bhr92rcd13ifvqhsg","pricing_plan_id":"cebpf4jnsgd1na2vs0mg"},{"bike_id":"9b701ab9-19f5-427e-aa66-39a21d43f058","system_id":"levelo_inurba_marseille","lat":43.29725,"lon":5.37685,"is_reserved":false,"is_disabled":false,"rental_uris":{"android":"levelo://app?vid=9b701ab9-19f5-427e-aa66-39a21d43f058","ios":"levelo://app?vid=9b701ab9-19f5-427e-aa66-39a21d43f058"},"vehicle_type_id":"4","last_reported":1746025848,"current_range_meters":17600,"station_id":"ce4bgkh2rcd13ifvqbl0","pricing_plan_id":"cebpf4jnsgd1na2vs0mg"},{"bike_id":"1f761fe8-ada2-436f-b88c-922e746fc3a8","system_id":"levelo_inurba_marseille","lat":43.28421,"lon":5.34974,"is_reserved":false,"is_disabled":false,"rental_uris":{"android":"levelo://app?vid=1f761fe8-ada2-436f-b88c-922e746fc3a8","ios":"levelo://app?vid=1f761fe8-ada2-436f-b88c-922e746fc3a8"},"vehicle_type_id":"4","last_reported":1746025848,"current_range_meters":17600,"station_id":"ce4bhbh2rcd13ifvqepg","pricing_plan_id":"cebpf4jnsgd1na2vs0mg"},{"bike_id":"134f40de-f71d-4759-b2bf-978980a57e54","system_id":"levelo_inurba_marseille","lat":43.283412,"lon":5.381105,"is_reserved":false,"is_disabled":false,"rental_uris":{"android":"levelo://app?vid=134f40de-f71d-4759-b2bf-978980a57e54","ios":"levelo://app?vid=134f40de-f71d-4759-b2bf-978980a57e54"},"vehicle_type_id":"4","last_reported":1746025848,"current_range_meters":17200,"station_id":"ce4bhh92rcd13ifvqfi0","pricing_plan_id":"cebpf4jnsgd1na2vs0mg"},{"bike_id":"425d9dbb-a5d5-440d-8cba-c60385f4318a","system_id":"levelo_inurba_marseille","lat":43.30158,"lon":5.38097,"is_reserved":false,"is_disabled":false,"rental_uris":{"android":"levelo://app?vid=425d9dbb-a5d5-440d-8cba-c60385f4318a","ios":"levelo://app?vid=425d9dbb-a5d5-440d-8cba-c60385f4318a"},"vehicle_type_id":"4","last_reported":1746025848,"current_range_meters":17600,"station_id":"ce4bgjp2rcd13ifvqbh0","pricing_plan_id":"cebpf4jnsgd1na2vs0mg"},{"bike_id":"7e523f76-cb82-44d5-8997-c4da136b3382","system_id":"levelo_inurba_marseille","lat":43.243907,"lon":5.370527,"is_reserved":false,"is_disabled":false,"rental_uris":{"android":"levelo://app?vid=7e523f76-cb82-44d5-8997-c4da136b3382","ios":"levelo://app?vid=7e523f76-cb82-44d5-8997-c4da136b3382"},"vehicle_type_id":"4","last_reported":1746025848,"current_range_meters":18800,"station_id":"ce4bhhh2rcd13ifvqfk0","pricing_plan_id":"cebpf4jnsgd1na2vs0mg"},{"bike_id":"c1f3acbf-9d7a-4a68-a052-54ea7f77b051","system_id":"levelo_inurba_marseille","lat":43.27388,"lon":5.36306,"is_reserved":false,"is_disabled":false,"rental_uris":{"android":"levelo://app?vid=c1f3acbf-9d7a-4a68-a052-54ea7f77b051","ios":"levelo://app?vid=c1f3acbf-9d7a-4a68-a052-54ea7f77b051"},"vehicle_type_id":"4","last_reported":1746025848,"current_range_meters":18000,"station_id":"ce4bhbh2rcd13ifvqeo0","pricing_plan_id":"cebpf4jnsgd1na2vs0mg"},{"bike_id":"108caee9-a4ad-426c-a382-ae99272836eb","system_id":"levelo_inurba_marseille","lat":43.31157,"lon":5.3872,"is_reserved":false,"is_disabled":false,"rental_uris":{"android":"levelo://app?vid=108caee9-a4ad-426c-a382-ae99272836eb","ios":"levelo://app?vid=108caee9-a4ad-426c-a382-ae99272836eb"},"vehicle_type_id":"4","last_reported":1746025848,"current_range_meters":18000,"station_id":"ce4bgv12rcd13ifvqcp0","pricing_plan_id":"cebpf4jnsgd1na2vs0mg"},{"bike_id":"d45f9540-f331-4745-9aaa-448a6a8d22e2","system_id":"levelo_inurba_marseille","lat":43.29007,"lon":5.3561,"is_reserved":false,"is_disabled":false,"rental_uris":{"android":"levelo://app?vid=d45f9540-f331-4745-9aaa-448a6a8d22e2","ios":"levelo://app?vid=d45f9540-f331-4745-9aaa-448a6a8d22e2"},"vehicle_type_id":"4","last_reported":1746025848,"current_range_meters":18800,"station_id":"ce4bhb92rcd13ifvqen0","pricing_plan_id":"cebpf4jnsgd1na2vs0mg"},{"bike_id":"960e8505-e8f3-44fa-9c03-60ca9503337c","system_id":"levelo_inurba_marseille","lat":43.27382,"lon":5.36255,"is_reserved":false,"is_disabled":false,"rental_uris":{"android":"levelo://app?vid=960e8505-e8f3-44fa-9c03-60ca9503337c","ios":"levelo://app?vid=960e8505-e8f3-44fa-9c03-60ca9503337c"},"vehicle_type_id":"4","last_reported":1746025848,"current_range_meters":18000,"station_id":"ce4bhbh2rcd13ifvqeo0","pricing_plan_id":"cebpf4jnsgd1na2vs0mg"},{"bike_id":"b58385b2-d1b2-4ecc-af75-eb7cf4772905","system_id":"levelo_inurba_marseille","lat":43.23059,"lon":5.35483,"is_reserved":false,"is_disabled":false,"rental_uris":{"android":"levelo://app?vid=b58385b2-d1b2-4ecc-af75-eb7cf4772905","ios":"levelo://app?vid=b58385b2-d1b2-4ecc-af75-eb7cf4772905"},"vehicle_type_id":"4","last_reported":1746025848,"current_range_meters":18000,"station_id":"cpo3342slgdg3j2ifvpg","pricing_plan_id":"cebpf4jnsgd1na2vs0mg"},{"bike_id":"b7473041-ccce-4833-9e7f-9339ea39fef9","system_id":"levelo_inurba_marseille","lat":43.29009,"lon":5.3561,"is_reserved":false,"is_disabled":false,"rental_uris":{"android":"levelo://app?vid=b7473041-ccce-4833-9e7f-9339ea39fef9","ios":"levelo://app?vid=b7473041-ccce-4833-9e7f-9339ea39fef9"},"vehicle_type_id":"4","last_reported":1746025848,"current_range_meters":18800,"station_id":"ce4bhb92rcd13ifvqen0","pricing_plan_id":"cebpf4jnsgd1na2vs0mg"},{"bike_id":"5a35b492-fbf2-4d85-8b0e-9d4dc0f3182a","system_id":"levelo_inurba_marseille","lat":43.29099,"lon":5.38125,"is_reserved":false,"is_disabled":false,"rental_uris":{"android":"levelo://app?vid=5a35b492-fbf2-4d85-8b0e-9d4dc0f3182a","ios":"levelo://app?vid=5a35b492-fbf2-4d85-8b0e-9d4dc0f3182a"},"vehicle_type_id":"4","last_reported":1746025848,"current_range_meters":18000,"station_id":"ce4bh512rcd13ifvqe2g","pricing_plan_id":"cebpf4jnsgd1na2vs0mg"},{"bike_id":"b401c838-71d1-4f50-bf46-77522932e26e","system_id":"levelo_inurba_marseille","lat":43.26204,"lon":5.37443,"is_reserved":false,"is_disabled":true,"rental_uris":{"android":"levelo://app?vid=b401c838-71d1-4f50-bf46-77522932e26e","ios":"levelo://app?vid=b401c838-71d1-4f50-bf46-77522932e26e"},"vehicle_type_id":"4","last_reported":1746025848,"current_range_meters":18800,"station_id":"ce4bhgp2rcd13ifvqfc0","pricing_plan_id":"cebpf4jnsgd1na2vs0mg"},{"bike_id":"54f66df5-4775-4097-9f04-5f4931134541","system_id":"levelo_inurba_marseille","lat":43.29205,"lon":5.39324,"is_reserved":false,"is_disabled":false,"rental_uris":{"android":"levelo://app?vid=54f66df5-4775-4097-9f04-5f4931134541","ios":"levelo://app?vid=54f66df5-4775-4097-9f04-5f4931134541"},"vehicle_type_id":"4","last_reported":1746025848,"current_range_meters":19200,"station_id":"ce4bh192rcd13ifvqdd0","pricing_plan_id":"cebpf4jnsgd1na2vs0mg"},{"bike_id":"45fca9b3-6fc9-4e85-b97d-edee69910c23","system_id":"levelo_inurba_marseille","lat":43.32283,"lon":5.38289,"is_reserved":false,"is_disabled":false,"rental_uris":{"android":"levelo://app?vid=45fca9b3-6fc9-4e85-b97d-edee69910c23","ios":"levelo://app?vid=45fca9b3-6fc9-4e85-b97d-edee69910c23"},"vehicle_type_id":"4","last_reported":1746025848,"current_range_meters":19200,"station_id":"ce4bhr12rcd13ifvqhqg","pricing_plan_id":"cebpf4jnsgd1na2vs0mg"},{"bike_id":"cc72cace-c85b-480b-b8ff-980710dfe869","system_id":"levelo_inurba_marseille","lat":43.28429,"lon":5.34988,"is_reserved":false,"is_disabled":false,"rental_uris":{"android":"levelo://app?vid=cc72cace-c85b-480b-b8ff-980710dfe869","ios":"levelo://app?vid=cc72cace-c85b-480b-b8ff-980710dfe869"},"vehicle_type_id":"4","last_reported":1746025848,"current_range_meters":19200,"station_id":"ce4bhbh2rcd13ifvqepg","pricing_plan_id":"cebpf4jnsgd1na2vs0mg"},{"bike_id":"8dbef283-e6f0-44aa-8096-78297a63623d","system_id":"levelo_inurba_marseille","lat":43.243879,"lon":5.370524,"is_reserved":false,"is_disabled":false,"rental_uris":{"android":"levelo://app?vid=8dbef283-e6f0-44aa-8096-78297a63623d","ios":"levelo://app?vid=8dbef283-e6f0-44aa-8096-78297a63623d"},"vehicle_type_id":"4","last_reported":1746025848,"current_range_meters":19600,"station_id":"ce4bhhh2rcd13ifvqfk0","pricing_plan_id":"cebpf4jnsgd1na2vs0mg"},{"bike_id":"48fe0a61-16d8-4c4d-8014-6583682528ed","system_id":"levelo_inurba_marseille","lat":43.217515,"lon":5.34593,"is_reserved":false,"is_disabled":false,"rental_uris":{"android":"levelo://app?vid=48fe0a61-16d8-4c4d-8014-6583682528ed","ios":"levelo://app?vid=48fe0a61-16d8-4c4d-8014-6583682528ed"},"vehicle_type_id":"4","last_reported":1746025848,"current_range_meters":19600,"station_id":"st_cvj6r9ubvosntc0bgbag","pricing_plan_id":"cebpf4jnsgd1na2vs0mg"},{"bike_id":"971ebdc3-2f41-4229-8a6f-da311f0fb661","system_id":"levelo_inurba_marseille","lat":43.27622,"lon":5.36106,"is_reserved":false,"is_disabled":false,"rental_uris":{"android":"levelo://app?vid=971ebdc3-2f41-4229-8a6f-da311f0fb661","ios":"levelo://app?vid=971ebdc3-2f41-4229-8a6f-da311f0fb661"},"vehicle_type_id":"4","last_reported":1746025848,"current_range_meters":20000,"station_id":"ce4bgj92rcd13ifvqbe0","pricing_plan_id":"cebpf4jnsgd1na2vs0mg"},{"bike_id":"e7ffe102-def9-44df-ab08-bcf2bfb76907","system_id":"levelo_inurba_marseille","lat":43.29618,"lon":5.37707,"is_reserved":false,"is_disabled":true,"rental_uris":{"android":"levelo://app?vid=e7ffe102-def9-44df-ab08-bcf2bfb76907","ios":"levelo://app?vid=e7ffe102-def9-44df-ab08-bcf2bfb76907"},"vehicle_type_id":"4","last_reported":1746025848,"current_range_meters":20000,"station_id":"ce4bgi92rcd13ifvqb90","pricing_plan_id":"cebpf4jnsgd1na2vs0mg"},{"bike_id":"ff9b210c-dbc3-4550-aa74-50b20daaa948","system_id":"levelo_inurba_marseille","lat":43.23967,"lon":5.36629,"is_reserved":false,"is_disabled":false,"rental_uris":{"android":"levelo://app?vid=ff9b210c-dbc3-4550-aa74-50b20daaa948","ios":"levelo://app?vid=ff9b210c-dbc3-4550-aa74-50b20daaa948"},"vehicle_type_id":"4","last_reported":1746025848,"current_range_meters":20000,"station_id":"ce4bhi12rcd13ifvqfp0","pricing_plan_id":"cebpf4jnsgd1na2vs0mg"},{"bike_id":"035669bd-f920-44e3-a7d3-5024acb5db3f","system_id":"levelo_inurba_marseille","lat":43.265579,"lon":5.373371,"is_reserved":false,"is_disabled":false,"rental_uris":{"android":"levelo://app?vid=035669bd-f920-44e3-a7d3-5024acb5db3f","ios":"levelo://app?vid=035669bd-f920-44e3-a7d3-5024acb5db3f"},"vehicle_type_id":"4","last_reported":1746025848,"current_range_meters":20400,"station_id":"ce4bhg12rcd13ifvqf70","pricing_plan_id":"cebpf4jnsgd1na2vs0mg"},{"bike_id":"78bd6b36-168d-41d2-bcce-932b973e2e8d","system_id":"levelo_inurba_marseille","lat":43.281242,"lon":5.378525,"is_reserved":false,"is_disabled":false,"rental_uris":{"android":"levelo://app?vid=78bd6b36-168d-41d2-bcce-932b973e2e8d","ios":"levelo://app?vid=78bd6b36-168d-41d2-bcce-932b973e2e8d"},"vehicle_type_id":"4","last_reported":1746025848,"current_range_meters":20400,"station_id":"ce4bha12rcd13ifvqee0","pricing_plan_id":"cebpf4jnsgd1na2vs0mg"},{"bike_id":"8a108257-ba62-40f1-b151-5864796d192a","system_id":"levelo_inurba_marseille","lat":43.21749,"lon":5.34611,"is_reserved":false,"is_disabled":false,"rental_uris":{"android":"levelo://app?vid=8a108257-ba62-40f1-b151-5864796d192a","ios":"levelo://app?vid=8a108257-ba62-40f1-b151-5864796d192a"},"vehicle_type_id":"4","last_reported":1746025848,"current_range_meters":20400,"station_id":"st_cvj6r9ubvosntc0bgbag","pricing_plan_id":"cebpf4jnsgd1na2vs0mg"},{"bike_id":"e2e61a8c-bdc6-4f5b-8077-037999f48fdc","system_id":"levelo_inurba_marseille","lat":43.28421,"lon":5.35015,"is_reserved":false,"is_disabled":false,"rental_uris":{"android":"levelo://app?vid=e2e61a8c-bdc6-4f5b-8077-037999f48fdc","ios":"levelo://app?vid=e2e61a8c-bdc6-4f5b-8077-037999f48fdc"},"vehicle_type_id":"4","last_reported":1746025848,"current_range_meters":20400,"station_id":"ce4bhbh2rcd13ifvqepg","pricing_plan_id":"cebpf4jnsgd1na2vs0mg"},{"bike_id":"85d41d74-9d1e-4717-be27-06f5a8403b09","system_id":"levelo_inurba_marseille","lat":43.23186,"lon":5.3555,"is_reserved":false,"is_disabled":false,"rental_uris":{"android":"levelo://app?vid=85d41d74-9d1e-4717-be27-06f5a8403b09","ios":"levelo://app?vid=85d41d74-9d1e-4717-be27-06f5a8403b09"},"vehicle_type_id":"4","last_reported":1746025848,"current_range_meters":20800,"station_id":"ce4bhu92rcd13ifvqi70","pricing_plan_id":"cebpf4jnsgd1na2vs0mg"},{"bike_id":"077d7e47-f86c-43b5-a8ca-7f48125a2e9b","system_id":"levelo_inurba_marseille","lat":43.24806,"lon":5.37453,"is_reserved":false,"is_disabled":false,"rental_uris":{"android":"levelo://app?vid=077d7e47-f86c-43b5-a8ca-7f48125a2e9b","ios":"levelo://app?vid=077d7e47-f86c-43b5-a8ca-7f48125a2e9b"},"vehicle_type_id":"4","last_reported":1746025848,"current_range_meters":20400,"station_id":"ce4bhgh2rcd13ifvqfb0","pricing_plan_id":"cebpf4jnsgd1na2vs0mg"},{"bike_id":"322e39c1-93cc-43fe-ba02-8b5b1430723d","system_id":"levelo_inurba_marseille","lat":43.2848,"lon":5.38407,"is_reserved":false,"is_disabled":false,"rental_uris":{"android":"levelo://app?vid=322e39c1-93cc-43fe-ba02-8b5b1430723d","ios":"levelo://app?vid=322e39c1-93cc-43fe-ba02-8b5b1430723d"},"vehicle_type_id":"4","last_reported":1746025848,"current_range_meters":20800,"station_id":"ce4bh512rcd13ifvqe3g","pricing_plan_id":"cebpf4jnsgd1na2vs0mg"},{"bike_id":"cde443bb-9a98-4dfc-a82f-cbb08d6f149e","system_id":"levelo_inurba_marseille","lat":43.241815,"lon":5.397079,"is_reserved":false,"is_disabled":false,"rental_uris":{"android":"levelo://app?vid=cde443bb-9a98-4dfc-a82f-cbb08d6f149e","ios":"levelo://app?vid=cde443bb-9a98-4dfc-a82f-cbb08d6f149e"},"vehicle_type_id":"4","last_reported":1746025848,"current_range_meters":20800,"station_id":"ce4bhn12rcd13ifvqgpg","pricing_plan_id":"cebpf4jnsgd1na2vs0mg"},{"bike_id":"7dcbd1c1-ab9f-47c1-a062-860c3d127b5d","system_id":"levelo_inurba_marseille","lat":43.27366,"lon":5.36308,"is_reserved":false,"is_disabled":false,"rental_uris":{"android":"levelo://app?vid=7dcbd1c1-ab9f-47c1-a062-860c3d127b5d","ios":"levelo://app?vid=7dcbd1c1-ab9f-47c1-a062-860c3d127b5d"},"vehicle_type_id":"4","last_reported":1746025848,"current_range_meters":20800,"station_id":"ce4bhbh2rcd13ifvqeo0","pricing_plan_id":"cebpf4jnsgd1na2vs0mg"},{"bike_id":"14ad4215-57c9-4423-b3f2-3d8acf4bce45","system_id":"levelo_inurba_marseille","lat":43.27346,"lon":5.36161,"is_reserved":false,"is_disabled":false,"rental_uris":{"android":"levelo://app?vid=14ad4215-57c9-4423-b3f2-3d8acf4bce45","ios":"levelo://app?vid=14ad4215-57c9-4423-b3f2-3d8acf4bce45"},"vehicle_type_id":"4","last_reported":1746025848,"current_range_meters":20800,"station_id":"","pricing_plan_id":"cebpf4jnsgd1na2vs0mg"},{"bike_id":"d99bf105-2a68-4379-a106-5dfa667da890","system_id":"levelo_inurba_marseille","lat":43.33029,"lon":5.39033,"is_reserved":false,"is_disabled":false,"rental_uris":{"android":"levelo://app?vid=d99bf105-2a68-4379-a106-5dfa667da890","ios":"levelo://app?vid=d99bf105-2a68-4379-a106-5dfa667da890"},"vehicle_type_id":"4","last_reported":1746025848,"current_range_meters":20400,"station_id":"ce4bhr92rcd13ifvqhrg","pricing_plan_id":"cebpf4jnsgd1na2vs0mg"},{"bike_id":"772c2df1-59ca-42dc-b4ed-ba91205a4b51","system_id":"levelo_inurba_marseille","lat":43.31334,"lon":5.39679,"is_reserved":false,"is_disabled":false,"rental_uris":{"android":"levelo://app?vid=772c2df1-59ca-42dc-b4ed-ba91205a4b51","ios":"levelo://app?vid=772c2df1-59ca-42dc-b4ed-ba91205a4b51"},"vehicle_type_id":"4","last_reported":1746025848,"current_range_meters":20400,"station_id":"ce4bgvp2rcd13ifvqcu0","pricing_plan_id":"cebpf4jnsgd1na2vs0mg"},{"bike_id":"f049f752-cd02-4a3f-8c8d-ac6dbafce647","system_id":"levelo_inurba_marseille","lat":43.32294,"lon":5.38275,"is_reserved":false,"is_disabled":false,"rental_uris":{"android":"levelo://app?vid=f049f752-cd02-4a3f-8c8d-ac6dbafce647","ios":"levelo://app?vid=f049f752-cd02-4a3f-8c8d-ac6dbafce647"},"vehicle_type_id":"4","last_reported":1746025848,"current_range_meters":20800,"station_id":"ce4bhr12rcd13ifvqhqg","pricing_plan_id":"cebpf4jnsgd1na2vs0mg"},{"bike_id":"347ed23a-c6d9-4358-be5e-51ffc2b76a0b","system_id":"levelo_inurba_marseille","lat":43.31566,"lon":5.38957,"is_reserved":false,"is_disabled":false,"rental_uris":{"android":"levelo://app?vid=347ed23a-c6d9-4358-be5e-51ffc2b76a0b","ios":"levelo://app?vid=347ed23a-c6d9-4358-be5e-51ffc2b76a0b"},"vehicle_type_id":"4","last_reported":1746025848,"current_range_meters":21600,"station_id":"","pricing_plan_id":"cebpf4jnsgd1na2vs0mg"},{"bike_id":"707f5aed-1fec-4ced-90c2-2dbd0743866a","system_id":"levelo_inurba_marseille","lat":43.276821,"lon":5.407408,"is_reserved":false,"is_disabled":false,"rental_uris":{"android":"levelo://app?vid=707f5aed-1fec-4ced-90c2-2dbd0743866a","ios":"levelo://app?vid=707f5aed-1fec-4ced-90c2-2dbd0743866a"},"vehicle_type_id":"4","last_reported":1746025848,"current_range_meters":21600,"station_id":"ce4bhk92rcd13ifvqgc0","pricing_plan_id":"cebpf4jnsgd1na2vs0mg"},{"bike_id":"f6c6a2da-a2ec-415b-9ac1-ca93a3b183bc","system_id":"levelo_inurba_marseille","lat":43.23195,"lon":5.35546,"is_reserved":false,"is_disabled":false,"rental_uris":{"android":"levelo://app?vid=f6c6a2da-a2ec-415b-9ac1-ca93a3b183bc","ios":"levelo://app?vid=f6c6a2da-a2ec-415b-9ac1-ca93a3b183bc"},"vehicle_type_id":"4","last_reported":1746025848,"current_range_meters":21600,"station_id":"ce4bhu92rcd13ifvqi70","pricing_plan_id":"cebpf4jnsgd1na2vs0mg"},{"bike_id":"e07d62a1-8528-4e05-9e15-828a10ab3116","system_id":"levelo_inurba_marseille","lat":43.282696,"lon":5.350719,"is_reserved":false,"is_disabled":false,"rental_uris":{"android":"levelo://app?vid=e07d62a1-8528-4e05-9e15-828a10ab3116","ios":"levelo://app?vid=e07d62a1-8528-4e05-9e15-828a10ab3116"},"vehicle_type_id":"4","last_reported":1746025848,"current_range_meters":21600,"station_id":"ce4bhbp2rcd13ifvqerg","pricing_plan_id":"cebpf4jnsgd1na2vs0mg"},{"bike_id":"279a4b63-1d9a-49b0-84c4-26b2cb2c478b","system_id":"levelo_inurba_marseille","lat":43.27378,"lon":5.3625,"is_reserved":false,"is_disabled":false,"rental_uris":{"android":"levelo://app?vid=279a4b63-1d9a-49b0-84c4-26b2cb2c478b","ios":"levelo://app?vid=279a4b63-1d9a-49b0-84c4-26b2cb2c478b"},"vehicle_type_id":"4","last_reported":1746025848,"current_range_meters":21600,"station_id":"ce4bhbh2rcd13ifvqeo0","pricing_plan_id":"cebpf4jnsgd1na2vs0mg"},{"bike_id":"a476e7b1-6337-4da1-a8a7-24c662acd4a6","system_id":"levelo_inurba_marseille","lat":43.32345,"lon":5.40621,"is_reserved":false,"is_disabled":false,"rental_uris":{"android":"levelo://app?vid=a476e7b1-6337-4da1-a8a7-24c662acd4a6","ios":"levelo://app?vid=a476e7b1-6337-4da1-a8a7-24c662acd4a6"},"vehicle_type_id":"4","last_reported":1746025848,"current_range_meters":22000,"station_id":"ce4bhq92rcd13ifvqhjg","pricing_plan_id":"cebpf4jnsgd1na2vs0mg"},{"bike_id":"9a6d1a0d-0520-4c44-b0a9-74ddbe754418","system_id":"levelo_inurba_marseille","lat":43.25745,"lon":5.4109,"is_reserved":false,"is_disabled":false,"rental_uris":{"android":"levelo://app?vid=9a6d1a0d-0520-4c44-b0a9-74ddbe754418","ios":"levelo://app?vid=9a6d1a0d-0520-4c44-b0a9-74ddbe754418"},"vehicle_type_id":"4","last_reported":1746025848,"current_range_meters":22000,"station_id":"ce4bhkp2rcd13ifvqgd0","pricing_plan_id":"cebpf4jnsgd1na2vs0mg"},{"bike_id":"8061eba4-54eb-4084-95c7-5999c397f89c","system_id":"levelo_inurba_marseille","lat":43.3211,"lon":5.3681,"is_reserved":false,"is_disabled":false,"rental_uris":{"android":"levelo://app?vid=8061eba4-54eb-4084-95c7-5999c397f89c","ios":"levelo://app?vid=8061eba4-54eb-4084-95c7-5999c397f89c"},"vehicle_type_id":"4","last_reported":1746025848,"current_range_meters":22000,"station_id":"ce4bhrh2rcd13ifvqhug","pricing_plan_id":"cebpf4jnsgd1na2vs0mg"},{"bike_id":"7949b144-6e78-416a-b70e-551c6a131699","system_id":"levelo_inurba_marseille","lat":43.28725,"lon":5.36083,"is_reserved":false,"is_disabled":false,"rental_uris":{"android":"levelo://app?vid=7949b144-6e78-416a-b70e-551c6a131699","ios":"levelo://app?vid=7949b144-6e78-416a-b70e-551c6a131699"},"vehicle_type_id":"4","last_reported":1746025848,"current_range_meters":22000,"station_id":"cki0cbj6b192h4jlfktg","pricing_plan_id":"cebpf4jnsgd1na2vs0mg"},{"bike_id":"010d3977-d811-4ad3-a5c9-4cc91ae8c795","system_id":"levelo_inurba_marseille","lat":43.29954,"lon":5.38552,"is_reserved":false,"is_disabled":false,"rental_uris":{"android":"levelo://app?vid=010d3977-d811-4ad3-a5c9-4cc91ae8c795","ios":"levelo://app?vid=010d3977-d811-4ad3-a5c9-4cc91ae8c795"},"vehicle_type_id":"4","last_reported":1746025848,"current_range_meters":22000,"station_id":"","pricing_plan_id":"cebpf4jnsgd1na2vs0mg"},{"bike_id":"2ba4f2a6-ea88-4fb2-9b4b-2f69082498eb","system_id":"levelo_inurba_marseille","lat":43.27378,"lon":5.36254,"is_reserved":false,"is_disabled":false,"rental_uris":{"android":"levelo://app?vid=2ba4f2a6-ea88-4fb2-9b4b-2f69082498eb","ios":"levelo://app?vid=2ba4f2a6-ea88-4fb2-9b4b-2f69082498eb"},"vehicle_type_id":"4","last_reported":1746025848,"current_range_meters":22000,"station_id":"ce4bhbh2rcd13ifvqeo0","pricing_plan_id":"cebpf4jnsgd1na2vs0mg"},{"bike_id":"3aeb961f-88b6-47fd-986a-c7b2a855fefd","system_id":"levelo_inurba_marseille","lat":43.23118,"lon":5.35502,"is_reserved":false,"is_disabled":false,"rental_uris":{"android":"levelo://app?vid=3aeb961f-88b6-47fd-986a-c7b2a855fefd","ios":"levelo://app?vid=3aeb961f-88b6-47fd-986a-c7b2a855fefd"},"vehicle_type_id":"4","last_reported":1746025848,"current_range_meters":22400,"station_id":"","pricing_plan_id":"cebpf4jnsgd1na2vs0mg"},{"bike_id":"92f4a1fb-5678-43ad-8c47-f3e699838d72","system_id":"levelo_inurba_marseille","lat":43.27376,"lon":5.36265,"is_reserved":false,"is_disabled":false,"rental_uris":{"android":"levelo://app?vid=92f4a1fb-5678-43ad-8c47-f3e699838d72","ios":"levelo://app?vid=92f4a1fb-5678-43ad-8c47-f3e699838d72"},"vehicle_type_id":"4","last_reported":1746025848,"current_range_meters":22400,"station_id":"ce4bhbh2rcd13ifvqeo0","pricing_plan_id":"cebpf4jnsgd1na2vs0mg"},{"bike_id":"593b7652-a996-43e7-92ec-aa9b87baaea4","system_id":"levelo_inurba_marseille","lat":43.2963,"lon":5.40606,"is_reserved":false,"is_disabled":false,"rental_uris":{"android":"levelo://app?vid=593b7652-a996-43e7-92ec-aa9b87baaea4","ios":"levelo://app?vid=593b7652-a996-43e7-92ec-aa9b87baaea4"},"vehicle_type_id":"4","last_reported":1746025848,"current_range_meters":22400,"station_id":"ce4bh0h2rcd13ifvqd60","pricing_plan_id":"cebpf4jnsgd1na2vs0mg"},{"bike_id":"3c8414d9-6c84-4c74-80f7-57685b84fea0","system_id":"levelo_inurba_marseille","lat":43.31369,"lon":5.38491,"is_reserved":false,"is_disabled":false,"rental_uris":{"android":"levelo://app?vid=3c8414d9-6c84-4c74-80f7-57685b84fea0","ios":"levelo://app?vid=3c8414d9-6c84-4c74-80f7-57685b84fea0"},"vehicle_type_id":"4","last_reported":1746025848,"current_range_meters":22400,"station_id":"ce4bgt92rcd13ifvqcf0","pricing_plan_id":"cebpf4jnsgd1na2vs0mg"},{"bike_id":"ea8276f6-baa0-4a30-8cf0-1c272135950c","system_id":"levelo_inurba_marseille","lat":43.27995,"lon":5.40007,"is_reserved":false,"is_disabled":false,"rental_uris":{"android":"levelo://app?vid=ea8276f6-baa0-4a30-8cf0-1c272135950c","ios":"levelo://app?vid=ea8276f6-baa0-4a30-8cf0-1c272135950c"},"vehicle_type_id":"4","last_reported":1746025848,"current_range_meters":22400,"station_id":"ce4bho92rcd13ifvqh4g","pricing_plan_id":"cebpf4jnsgd1na2vs0mg"},{"bike_id":"caddebca-fa33-4ba8-976e-6b2a58e7eae6","system_id":"levelo_inurba_marseille","lat":43.28354,"lon":5.38103,"is_reserved":false,"is_disabled":false,"rental_uris":{"android":"levelo://app?vid=caddebca-fa33-4ba8-976e-6b2a58e7eae6","ios":"levelo://app?vid=caddebca-fa33-4ba8-976e-6b2a58e7eae6"},"vehicle_type_id":"4","last_reported":1746025848,"current_range_meters":22400,"station_id":"ce4bh412rcd13ifvqdr0","pricing_plan_id":"cebpf4jnsgd1na2vs0mg"},{"bike_id":"f709b1d1-725b-4776-9964-54f6aca05c41","system_id":"levelo_inurba_marseille","lat":43.27366,"lon":5.36266,"is_reserved":false,"is_disabled":false,"rental_uris":{"android":"levelo://app?vid=f709b1d1-725b-4776-9964-54f6aca05c41","ios":"levelo://app?vid=f709b1d1-725b-4776-9964-54f6aca05c41"},"vehicle_type_id":"4","last_reported":1746025848,"current_range_meters":22800,"station_id":"ce4bhbh2rcd13ifvqeo0","pricing_plan_id":"cebpf4jnsgd1na2vs0mg"},{"bike_id":"0bbc06ca-396e-444b-ac5a-91786c91639f","system_id":"levelo_inurba_marseille","lat":43.31327,"lon":5.39697,"is_reserved":false,"is_disabled":false,"rental_uris":{"android":"levelo://app?vid=0bbc06ca-396e-444b-ac5a-91786c91639f","ios":"levelo://app?vid=0bbc06ca-396e-444b-ac5a-91786c91639f"},"vehicle_type_id":"4","last_reported":1746025848,"current_range_meters":22800,"station_id":"ce4bgvp2rcd13ifvqcu0","pricing_plan_id":"cebpf4jnsgd1na2vs0mg"},{"bike_id":"8918510d-adef-4348-a657-b8d319950526","system_id":"levelo_inurba_marseille","lat":43.24998,"lon":5.38945,"is_reserved":false,"is_disabled":false,"rental_uris":{"android":"levelo://app?vid=8918510d-adef-4348-a657-b8d319950526","ios":"levelo://app?vid=8918510d-adef-4348-a657-b8d319950526"},"vehicle_type_id":"4","last_reported":1746025848,"current_range_meters":22800,"station_id":"ce4bhgp2rcd13ifvqfd0","pricing_plan_id":"cebpf4jnsgd1na2vs0mg"},{"bike_id":"ab2bee09-cd0f-4f9a-a348-95b1d061e92d","system_id":"levelo_inurba_marseille","lat":43.27376,"lon":5.36258,"is_reserved":false,"is_disabled":false,"rental_uris":{"android":"levelo://app?vid=ab2bee09-cd0f-4f9a-a348-95b1d061e92d","ios":"levelo://app?vid=ab2bee09-cd0f-4f9a-a348-95b1d061e92d"},"vehicle_type_id":"4","last_reported":1746025848,"current_range_meters":22800,"station_id":"ce4bhbh2rcd13ifvqeo0","pricing_plan_id":"cebpf4jnsgd1na2vs0mg"},{"bike_id":"95a5a23d-8108-4047-8f97-db30ab64fb69","system_id":"levelo_inurba_marseille","lat":43.29303,"lon":5.37458,"is_reserved":false,"is_disabled":false,"rental_uris":{"android":"levelo://app?vid=95a5a23d-8108-4047-8f97-db30ab64fb69","ios":"levelo://app?vid=95a5a23d-8108-4047-8f97-db30ab64fb69"},"vehicle_type_id":"4","last_reported":1746025848,"current_range_meters":22800,"station_id":"ce4bgi12rcd13ifvqb70","pricing_plan_id":"cebpf4jnsgd1na2vs0mg"},{"bike_id":"fbfc2562-25dd-4894-bb50-99589a57ff26","system_id":"levelo_inurba_marseille","lat":43.28409,"lon":5.37516,"is_reserved":false,"is_disabled":false,"rental_uris":{"android":"levelo://app?vid=fbfc2562-25dd-4894-bb50-99589a57ff26","ios":"levelo://app?vid=fbfc2562-25dd-4894-bb50-99589a57ff26"},"vehicle_type_id":"4","last_reported":1746025848,"current_range_meters":22800,"station_id":"ce4bh412rcd13ifvqds0","pricing_plan_id":"cebpf4jnsgd1na2vs0mg"},{"bike_id":"8152f1cc-a7db-421f-b868-e1cb45cf2017","system_id":"levelo_inurba_marseille","lat":43.33023,"lon":5.39035,"is_reserved":false,"is_disabled":false,"rental_uris":{"android":"levelo://app?vid=8152f1cc-a7db-421f-b868-e1cb45cf2017","ios":"levelo://app?vid=8152f1cc-a7db-421f-b868-e1cb45cf2017"},"vehicle_type_id":"4","last_reported":1746025848,"current_range_meters":23200,"station_id":"ce4bhr92rcd13ifvqhrg","pricing_plan_id":"cebpf4jnsgd1na2vs0mg"},{"bike_id":"1504394b-bf58-4c06-a784-42ffc05ff14f","system_id":"levelo_inurba_marseille","lat":43.33149,"lon":5.38187,"is_reserved":false,"is_disabled":false,"rental_uris":{"android":"levelo://app?vid=1504394b-bf58-4c06-a784-42ffc05ff14f","ios":"levelo://app?vid=1504394b-bf58-4c06-a784-42ffc05ff14f"},"vehicle_type_id":"4","last_reported":1746025848,"current_range_meters":23200,"station_id":"","pricing_plan_id":"cebpf4jnsgd1na2vs0mg"},{"bike_id":"c695bac2-0581-4a6a-b9c9-eb8e0d8673ed","system_id":"levelo_inurba_marseille","lat":43.33712,"lon":5.39202,"is_reserved":false,"is_disabled":false,"rental_uris":{"android":"levelo://app?vid=c695bac2-0581-4a6a-b9c9-eb8e0d8673ed","ios":"levelo://app?vid=c695bac2-0581-4a6a-b9c9-eb8e0d8673ed"},"vehicle_type_id":"4","last_reported":1746025848,"current_range_meters":23200,"station_id":"ce4bhr92rcd13ifvqhsg","pricing_plan_id":"cebpf4jnsgd1na2vs0mg"},{"bike_id":"480126cf-a0b0-4781-b654-ff4b2a358c73","system_id":"levelo_inurba_marseille","lat":43.28412,"lon":5.35035,"is_reserved":false,"is_disabled":false,"rental_uris":{"android":"levelo://app?vid=480126cf-a0b0-4781-b654-ff4b2a358c73","ios":"levelo://app?vid=480126cf-a0b0-4781-b654-ff4b2a358c73"},"vehicle_type_id":"4","last_reported":1746025848,"current_range_meters":23200,"station_id":"","pricing_plan_id":"cebpf4jnsgd1na2vs0mg"},{"bike_id":"226ac0c7-efe8-4cfb-8681-2373e3af2f77","system_id":"levelo_inurba_marseille","lat":43.28941,"lon":5.36387,"is_reserved":false,"is_disabled":false,"rental_uris":{"android":"levelo://app?vid=226ac0c7-efe8-4cfb-8681-2373e3af2f77","ios":"levelo://app?vid=226ac0c7-efe8-4cfb-8681-2373e3af2f77"},"vehicle_type_id":"4","last_reported":1746025848,"current_range_meters":23200,"station_id":"ce4bhc92rcd13ifvqetg","pricing_plan_id":"cebpf4jnsgd1na2vs0mg"},{"bike_id":"5f4ad0b3-4c31-444a-8de1-2d3e6730b34e","system_id":"levelo_inurba_marseille","lat":43.29923,"lon":5.37505,"is_reserved":false,"is_disabled":false,"rental_uris":{"android":"levelo://app?vid=5f4ad0b3-4c31-444a-8de1-2d3e6730b34e","ios":"levelo://app?vid=5f4ad0b3-4c31-444a-8de1-2d3e6730b34e"},"vehicle_type_id":"4","last_reported":1746025848,"current_range_meters":22800,"station_id":"ce4bgjh2rcd13ifvqbg0","pricing_plan_id":"cebpf4jnsgd1na2vs0mg"},{"bike_id":"a712735d-a0bf-443b-a9a1-69abf607d72e","system_id":"levelo_inurba_marseille","lat":43.24673,"lon":5.38161,"is_reserved":false,"is_disabled":false,"rental_uris":{"android":"levelo://app?vid=a712735d-a0bf-443b-a9a1-69abf607d72e","ios":"levelo://app?vid=a712735d-a0bf-443b-a9a1-69abf607d72e"},"vehicle_type_id":"4","last_reported":1746025848,"current_range_meters":23200,"station_id":"ce4bhih2rcd13ifvqfr0","pricing_plan_id":"cebpf4jnsgd1na2vs0mg"},{"bike_id":"10fe5799-109b-4d80-885d-3358ac5a1648","system_id":"levelo_inurba_marseille","lat":43.30565,"lon":5.37034,"is_reserved":false,"is_disabled":true,"rental_uris":{"android":"levelo://app?vid=10fe5799-109b-4d80-885d-3358ac5a1648","ios":"levelo://app?vid=10fe5799-109b-4d80-885d-3358ac5a1648"},"vehicle_type_id":"4","last_reported":1746025848,"current_range_meters":24000,"station_id":"","pricing_plan_id":"cebpf4jnsgd1na2vs0mg"},{"bike_id":"5d5a77b4-baf5-4437-9e69-a2896f2fabc3","system_id":"levelo_inurba_marseille","lat":43.29878,"lon":5.38939,"is_reserved":false,"is_disabled":false,"rental_uris":{"android":"levelo://app?vid=5d5a77b4-baf5-4437-9e69-a2896f2fabc3","ios":"levelo://app?vid=5d5a77b4-baf5-4437-9e69-a2896f2fabc3"},"vehicle_type_id":"4","last_reported":1746025848,"current_range_meters":24000,"station_id":"ce4bh392rcd13ifvqdl0","pricing_plan_id":"cebpf4jnsgd1na2vs0mg"},{"bike_id":"b4bd60ad-0e17-4c16-8ce8-3740f412611b","system_id":"levelo_inurba_marseille","lat":43.2873,"lon":5.36079,"is_reserved":false,"is_disabled":false,"rental_uris":{"android":"levelo://app?vid=b4bd60ad-0e17-4c16-8ce8-3740f412611b","ios":"levelo://app?vid=b4bd60ad-0e17-4c16-8ce8-3740f412611b"},"vehicle_type_id":"4","last_reported":1746025848,"current_range_meters":23200,"station_id":"cki0cbj6b192h4jlfktg","pricing_plan_id":"cebpf4jnsgd1na2vs0mg"},{"bike_id":"0d6f487c-98d6-4395-a4f2-203b2ac4f4ab","system_id":"levelo_inurba_marseille","lat":43.3233,"lon":5.40641,"is_reserved":false,"is_disabled":false,"rental_uris":{"android":"levelo://app?vid=0d6f487c-98d6-4395-a4f2-203b2ac4f4ab","ios":"levelo://app?vid=0d6f487c-98d6-4395-a4f2-203b2ac4f4ab"},"vehicle_type_id":"4","last_reported":1746025848,"current_range_meters":24000,"station_id":"ce4bhq92rcd13ifvqhjg","pricing_plan_id":"cebpf4jnsgd1na2vs0mg"},{"bike_id":"3f00e37b-59d3-45c0-b6d0-a693a2286741","system_id":"levelo_inurba_marseille","lat":43.313372,"lon":5.396954,"is_reserved":false,"is_disabled":false,"rental_uris":{"android":"levelo://app?vid=3f00e37b-59d3-45c0-b6d0-a693a2286741","ios":"levelo://app?vid=3f00e37b-59d3-45c0-b6d0-a693a2286741"},"vehicle_type_id":"4","last_reported":1746025848,"current_range_meters":24000,"station_id":"ce4bgvp2rcd13ifvqcu0","pricing_plan_id":"cebpf4jnsgd1na2vs0mg"},{"bike_id":"02910266-fe43-4eed-ae76-e5e39def5e18","system_id":"levelo_inurba_marseille","lat":43.31178,"lon":5.38254,"is_reserved":false,"is_disabled":false,"rental_uris":{"android":"levelo://app?vid=02910266-fe43-4eed-ae76-e5e39def5e18","ios":"levelo://app?vid=02910266-fe43-4eed-ae76-e5e39def5e18"},"vehicle_type_id":"4","last_reported":1746025848,"current_range_meters":24000,"station_id":"","pricing_plan_id":"cebpf4jnsgd1na2vs0mg"},{"bike_id":"c6efa4cf-2f1f-4c35-9e0a-3b5615641feb","system_id":"levelo_inurba_marseille","lat":43.28613,"lon":5.37063,"is_reserved":false,"is_disabled":false,"rental_uris":{"android":"levelo://app?vid=c6efa4cf-2f1f-4c35-9e0a-3b5615641feb","ios":"levelo://app?vid=c6efa4cf-2f1f-4c35-9e0a-3b5615641feb"},"vehicle_type_id":"4","last_reported":1746025848,"current_range_meters":24000,"station_id":"ce4bht12rcd13ifvqi60","pricing_plan_id":"cebpf4jnsgd1na2vs0mg"},{"bike_id":"e44c746d-015c-4382-9a19-b1f80194c78b","system_id":"levelo_inurba_marseille","lat":43.29005,"lon":5.35605,"is_reserved":false,"is_disabled":false,"rental_uris":{"android":"levelo://app?vid=e44c746d-015c-4382-9a19-b1f80194c78b","ios":"levelo://app?vid=e44c746d-015c-4382-9a19-b1f80194c78b"},"vehicle_type_id":"4","last_reported":1746025848,"current_range_meters":24000,"station_id":"ce4bhb92rcd13ifvqen0","pricing_plan_id":"cebpf4jnsgd1na2vs0mg"},{"bike_id":"dd23856c-89d6-49bb-a203-de4e05d377e0","system_id":"levelo_inurba_marseille","lat":43.27382,"lon":5.36248,"is_reserved":false,"is_disabled":false,"rental_uris":{"android":"levelo://app?vid=dd23856c-89d6-49bb-a203-de4e05d377e0","ios":"levelo://app?vid=dd23856c-89d6-49bb-a203-de4e05d377e0"},"vehicle_type_id":"4","last_reported":1746025848,"current_range_meters":24000,"station_id":"ce4bhbh2rcd13ifvqeo0","pricing_plan_id":"cebpf4jnsgd1na2vs0mg"},{"bike_id":"ed38bb1e-4255-4052-b8c3-234ac98fdbb0","system_id":"levelo_inurba_marseille","lat":43.28274,"lon":5.35066,"is_reserved":false,"is_disabled":false,"rental_uris":{"android":"levelo://app?vid=ed38bb1e-4255-4052-b8c3-234ac98fdbb0","ios":"levelo://app?vid=ed38bb1e-4255-4052-b8c3-234ac98fdbb0"},"vehicle_type_id":"4","last_reported":1746025848,"current_range_meters":24000,"station_id":"ce4bhbp2rcd13ifvqerg","pricing_plan_id":"cebpf4jnsgd1na2vs0mg"},{"bike_id":"a88ed632-926c-43ab-a502-42777c9325f4","system_id":"levelo_inurba_marseille","lat":43.31332,"lon":5.39685,"is_reserved":false,"is_disabled":false,"rental_uris":{"android":"levelo://app?vid=a88ed632-926c-43ab-a502-42777c9325f4","ios":"levelo://app?vid=a88ed632-926c-43ab-a502-42777c9325f4"},"vehicle_type_id":"4","last_reported":1746025848,"current_range_meters":24000,"station_id":"ce4bgvp2rcd13ifvqcu0","pricing_plan_id":"cebpf4jnsgd1na2vs0mg"},{"bike_id":"3cc59bf7-d3c5-4822-b2c1-f195fe30e1f3","system_id":"levelo_inurba_marseille","lat":43.28401,"lon":5.37523,"is_reserved":false,"is_disabled":false,"rental_uris":{"android":"levelo://app?vid=3cc59bf7-d3c5-4822-b2c1-f195fe30e1f3","ios":"levelo://app?vid=3cc59bf7-d3c5-4822-b2c1-f195fe30e1f3"},"vehicle_type_id":"4","last_reported":1746025848,"current_range_meters":24400,"station_id":"ce4bh412rcd13ifvqds0","pricing_plan_id":"cebpf4jnsgd1na2vs0mg"},{"bike_id":"8d370147-1dc2-4181-8064-282be2ba6a57","system_id":"levelo_inurba_marseille","lat":43.24812,"lon":5.3745,"is_reserved":false,"is_disabled":false,"rental_uris":{"android":"levelo://app?vid=8d370147-1dc2-4181-8064-282be2ba6a57","ios":"levelo://app?vid=8d370147-1dc2-4181-8064-282be2ba6a57"},"vehicle_type_id":"4","last_reported":1746025848,"current_range_meters":24400,"station_id":"ce4bhgh2rcd13ifvqfb0","pricing_plan_id":"cebpf4jnsgd1na2vs0mg"},{"bike_id":"e4c827cd-d846-4f3d-852d-70c7ae41c297","system_id":"levelo_inurba_marseille","lat":43.31631,"lon":5.38319,"is_reserved":false,"is_disabled":false,"rental_uris":{"android":"levelo://app?vid=e4c827cd-d846-4f3d-852d-70c7ae41c297","ios":"levelo://app?vid=e4c827cd-d846-4f3d-852d-70c7ae41c297"},"vehicle_type_id":"4","last_reported":1746025848,"current_range_meters":24400,"station_id":"","pricing_plan_id":"cebpf4jnsgd1na2vs0mg"},{"bike_id":"a3c0af02-f02e-468e-8abd-56e1404e7599","system_id":"levelo_inurba_marseille","lat":43.30141,"lon":5.39853,"is_reserved":false,"is_disabled":false,"rental_uris":{"android":"levelo://app?vid=a3c0af02-f02e-468e-8abd-56e1404e7599","ios":"levelo://app?vid=a3c0af02-f02e-468e-8abd-56e1404e7599"},"vehicle_type_id":"4","last_reported":1746025848,"current_range_meters":24000,"station_id":"ce4bh0h2rcd13ifvqd40","pricing_plan_id":"cebpf4jnsgd1na2vs0mg"},{"bike_id":"4a31c4cc-821a-415b-a480-cfc00adaad20","system_id":"levelo_inurba_marseille","lat":43.292725,"lon":5.368435,"is_reserved":false,"is_disabled":true,"rental_uris":{"android":"levelo://app?vid=4a31c4cc-821a-415b-a480-cfc00adaad20","ios":"levelo://app?vid=4a31c4cc-821a-415b-a480-cfc00adaad20"},"vehicle_type_id":"4","last_reported":1746025848,"current_range_meters":24800,"station_id":"ce4bhbp2rcd13ifvqesg","pricing_plan_id":"cebpf4jnsgd1na2vs0mg"},{"bike_id":"11690b41-5a35-4ffb-86b3-31d50d02f27e","system_id":"levelo_inurba_marseille","lat":43.31544,"lon":5.37967,"is_reserved":false,"is_disabled":false,"rental_uris":{"android":"levelo://app?vid=11690b41-5a35-4ffb-86b3-31d50d02f27e","ios":"levelo://app?vid=11690b41-5a35-4ffb-86b3-31d50d02f27e"},"vehicle_type_id":"4","last_reported":1746025848,"current_range_meters":24800,"station_id":"","pricing_plan_id":"cebpf4jnsgd1na2vs0mg"},{"bike_id":"2ab0eeeb-5787-4ff7-890f-17fc0c7ec7c4","system_id":"levelo_inurba_marseille","lat":43.306049,"lon":5.381689,"is_reserved":false,"is_disabled":false,"rental_uris":{"android":"levelo://app?vid=2ab0eeeb-5787-4ff7-890f-17fc0c7ec7c4","ios":"levelo://app?vid=2ab0eeeb-5787-4ff7-890f-17fc0c7ec7c4"},"vehicle_type_id":"4","last_reported":1746025848,"current_range_meters":24800,"station_id":"","pricing_plan_id":"cebpf4jnsgd1na2vs0mg"},{"bike_id":"90c4a319-35f9-4ec2-8098-d4a3849efdcc","system_id":"levelo_inurba_marseille","lat":43.27378,"lon":5.36253,"is_reserved":false,"is_disabled":false,"rental_uris":{"android":"levelo://app?vid=90c4a319-35f9-4ec2-8098-d4a3849efdcc","ios":"levelo://app?vid=90c4a319-35f9-4ec2-8098-d4a3849efdcc"},"vehicle_type_id":"4","last_reported":1746025848,"current_range_meters":24800,"station_id":"ce4bhbh2rcd13ifvqeo0","pricing_plan_id":"cebpf4jnsgd1na2vs0mg"},{"bike_id":"ae316b10-ecfd-497c-9aa9-a4ebb8ec9a55","system_id":"levelo_inurba_marseille","lat":43.32726,"lon":5.39249,"is_reserved":false,"is_disabled":false,"rental_uris":{"android":"levelo://app?vid=ae316b10-ecfd-497c-9aa9-a4ebb8ec9a55","ios":"levelo://app?vid=ae316b10-ecfd-497c-9aa9-a4ebb8ec9a55"},"vehicle_type_id":"4","last_reported":1746025848,"current_range_meters":24800,"station_id":"","pricing_plan_id":"cebpf4jnsgd1na2vs0mg"},{"bike_id":"1832257f-77c0-47fb-99ca-abeae559c084","system_id":"levelo_inurba_marseille","lat":43.27364,"lon":5.36255,"is_reserved":false,"is_disabled":false,"rental_uris":{"android":"levelo://app?vid=1832257f-77c0-47fb-99ca-abeae559c084","ios":"levelo://app?vid=1832257f-77c0-47fb-99ca-abeae559c084"},"vehicle_type_id":"4","last_reported":1746025848,"current_range_meters":24800,"station_id":"ce4bhbh2rcd13ifvqeo0","pricing_plan_id":"cebpf4jnsgd1na2vs0mg"},{"bike_id":"830be8f0-b813-4d59-b2f2-d4033b104b18","system_id":"levelo_inurba_marseille","lat":43.21778,"lon":5.34618,"is_reserved":false,"is_disabled":false,"rental_uris":{"android":"levelo://app?vid=830be8f0-b813-4d59-b2f2-d4033b104b18","ios":"levelo://app?vid=830be8f0-b813-4d59-b2f2-d4033b104b18"},"vehicle_type_id":"4","last_reported":1746025848,"current_range_meters":24800,"station_id":"st_cvj6r9ubvosntc0bgbag","pricing_plan_id":"cebpf4jnsgd1na2vs0mg"},{"bike_id":"e5b8ff0c-4d2a-4245-a337-1cd80228c91d","system_id":"levelo_inurba_marseille","lat":43.31083,"lon":5.37113,"is_reserved":false,"is_disabled":false,"rental_uris":{"android":"levelo://app?vid=e5b8ff0c-4d2a-4245-a337-1cd80228c91d","ios":"levelo://app?vid=e5b8ff0c-4d2a-4245-a337-1cd80228c91d"},"vehicle_type_id":"4","last_reported":1746025848,"current_range_meters":24800,"station_id":"","pricing_plan_id":"cebpf4jnsgd1na2vs0mg"},{"bike_id":"e3f797e5-fbd9-470a-9188-de948a3645b3","system_id":"levelo_inurba_marseille","lat":43.27374,"lon":5.36261,"is_reserved":false,"is_disabled":false,"rental_uris":{"android":"levelo://app?vid=e3f797e5-fbd9-470a-9188-de948a3645b3","ios":"levelo://app?vid=e3f797e5-fbd9-470a-9188-de948a3645b3"},"vehicle_type_id":"4","last_reported":1746025848,"current_range_meters":24800,"station_id":"ce4bhbh2rcd13ifvqeo0","pricing_plan_id":"cebpf4jnsgd1na2vs0mg"},{"bike_id":"c2e40ee7-7534-4092-9d51-670c399ef876","system_id":"levelo_inurba_marseille","lat":43.34078,"lon":5.39832,"is_reserved":false,"is_disabled":false,"rental_uris":{"android":"levelo://app?vid=c2e40ee7-7534-4092-9d51-670c399ef876","ios":"levelo://app?vid=c2e40ee7-7534-4092-9d51-670c399ef876"},"vehicle_type_id":"4","last_reported":1746025848,"current_range_meters":25200,"station_id":"","pricing_plan_id":"cebpf4jnsgd1na2vs0mg"},{"bike_id":"c69c3df4-9932-46a1-bed5-b1a0436092d6","system_id":"levelo_inurba_marseille","lat":43.271933,"lon":5.409903,"is_reserved":false,"is_disabled":false,"rental_uris":{"android":"levelo://app?vid=c69c3df4-9932-46a1-bed5-b1a0436092d6","ios":"levelo://app?vid=c69c3df4-9932-46a1-bed5-b1a0436092d6"},"vehicle_type_id":"4","last_reported":1746025848,"current_range_meters":25200,"station_id":"ce4bhl12rcd13ifvqgf0","pricing_plan_id":"cebpf4jnsgd1na2vs0mg"},