{"last_updated":1731003124,"ttl":60,"version":"2.2","data":{"bikes":[{"bike_id":"1cef1b77-5483-44b9-8e97-f29b4779b0b1","system_id":"levelo_inurba_marseille","lat":43.28728,"lon":5.36083,"is_reserved":false,"is_disabled":false,"rental_uris":{"android":"levelo://app?vid=1cef1b77-5483-44b9-8e97-f29b4779b0b1","ios":"levelo://app?vid=1cef1b77-5483-44b9-8e97-f29b4779b0b1"},"vehicle_type_id":"4","last_reported":1731003124,"current_range_meters":38800,"station_id":"cki0cbj6b192h4jlfktg","pricing_plan_id":"cebpf4jnsgd1na2vs0mg"},{"bike_id":"7f774ae5-6cb7-4c53-91e0-4e9519e7a5f3","system_id":"levelo_inurba_marseille","lat":43.3173,"lon":5.4239,"is_reserved":false,"is_disabled":false,"rental_uris":{"android":"levelo://app?vid=7f774ae5-6cb7-4c53-91e0-4e9519e7a5f3","ios":"levelo://app?vid=7f774ae5-6cb7-4c53-91e0-4e9519e7a5f3"},"vehicle_type_id":"4","last_reported":1731003124,"current_range_meters":35200,"station_id":"ce4bhp92rcd13ifvqhbg","pricing_plan_id":"cebpf4jnsgd1na2vs0mg"},{"bike_id":"0a3c058a-15f6-4433-96a9-2d1ebbf83be8","system_id":"levelo_inurba_marseille","lat":43.29095,"lon":5.38113,"is_reserved":false,"is_disabled":false,"rental_uris":{"android":"levelo://app?vid=0a3c058a-15f6-4433-96a9-2d1ebbf83be8","ios":"levelo://app?vid=0a3c058a-15f6-4433-96a9-2d1ebbf83be8"},"vehicle_type_id":"4","last_reported":1731003124,"current_range_meters":38800,"station_id":"ce4bh512rcd13ifvqe2g","pricing_plan_id":"cebpf4jnsgd1na2vs0mg"},{"bike_id":"ecb7df9b-19e2-4f11-95bb-27a8c311d033","system_id":"levelo_inurba_marseille","lat":43.2857,"lon":5.395,"is_reserved":false,"is_disabled":false,"rental_uris":{"android":"levelo://app?vid=ecb7df9b-19e2-4f11-95bb-27a8c311d033","ios":"levelo://app?vid=ecb7df9b-19e2-4f11-95bb-27a8c311d033"},"vehicle_type_id":"4","last_reported":1731003124,"current_range_meters":7200,"station_id":"ce4bh292rcd13ifvqdg0","pricing_plan_id":"cebpf4jnsgd1na2vs0mg"},{"bike_id":"40dd4257-d6e7-454b-ba60-8d003c5e1cfc","system_id":"levelo_inurba_marseille","lat":43.30874,"lon":5.3963,"is_reserved":false,"is_disabled":false,"rental_uris":{"android":"levelo://app?vid=40dd4257-d6e7-454b-ba60-8d003c5e1cfc","ios":"levelo://app?vid=40dd4257-d6e7-454b-ba60-8d003c5e1cfc"},"vehicle_type_id":"4","last_reported":1731003124,"current_range_meters":22000,"station_id":"ce4bh012rcd13ifvqcv0","pricing_plan_id":"cebpf4jnsgd1na2vs0mg"},{"bike_id":"c0fd3d82-7a9a-4922-b0f5-bcdc2b7cf632","system_id":"levelo_inurba_marseille","lat":43.33021,"lon":5.39045,"is_reserved":false,"is_disabled":false,"rental_uris":{"android":"levelo://app?vid=c0fd3d82-7a9a-4922-b0f5-bcdc2b7cf632","ios":"levelo://app?vid=c0fd3d82-7a9a-4922-b0f5-bcdc2b7cf632"},"vehicle_type_id":"4","last_reported":1731003124,"current_range_meters":13600,"station_id":"ce4bhr92rcd13ifvqhrg","pricing_plan_id":"cebpf4jnsgd1na2vs0mg"},{"bike_id":"6441f0a6-ca90-4a7b-aa82-358330e3e383","system_id":"levelo_inurba_marseille","lat":43.26806,"lon":5.40268,"is_reserved":false,"is_disabled":false,"rental_uris":{"android":"levelo://app?vid=6441f0a6-ca90-4a7b-aa82-358330e3e383","ios":"levelo://app?vid=6441f0a6-ca90-4a7b-aa82-358330e3e383"},"vehicle_type_id":"4","last_reported":1731003124,"current_range_meters":3600,"station_id":"ce501612rcd8frsf0b60","pricing_plan_id":"cebpf4jnsgd1na2vs0mg"},{"bike_id":"228a45be-9f13-42f7-aaaf-a5c481dd09de","system_id":"levelo_inurba_marseille","lat":43.29259,"lon":5.40911,"is_reserved":false,"is_disabled":false,"rental_uris":{"android":"levelo://app?vid=228a45be-9f13-42f7-aaaf-a5c481dd09de","ios":"levelo://app?vid=228a45be-9f13-42f7-aaaf-a5c481dd09de"},"vehicle_type_id":"4","last_reported":1731003124,"current_range_meters":6800,"station_id":"ce4bh192rcd13ifvqdc0","pricing_plan_id":"cebpf4jnsgd1na2vs0mg"},{"bike_id":"fe6ce54e-68f1-4703-acec-2c3f3f32f0e3","system_id":"levelo_inurba_marseille","lat":43.29201,"lon":5.39313,"is_reserved":false,"is_disabled":false,"rental_uris":{"android":"levelo://app?vid=fe6ce54e-68f1-4703-acec-2c3f3f32f0e3","ios":"levelo://app?vid=fe6ce54e-68f1-4703-acec-2c3f3f32f0e3"},"vehicle_type_id":"4","last_reported":1731003124,"current_range_meters":29600,"station_id":"ce4bh192rcd13ifvqdd0","pricing_plan_id":"cebpf4jnsgd1na2vs0mg"},{"bike_id":"bcf5dad1-721a-4f4e-82b2-15a9cc44926f","system_id":"levelo_inurba_marseille","lat":43.33776,"lon":5.37438,"is_reserved":false,"is_disabled":false,"rental_uris":{"android":"levelo://app?vid=bcf5dad1-721a-4f4e-82b2-15a9cc44926f","ios":"levelo://app?vid=bcf5dad1-721a-4f4e-82b2-15a9cc44926f"},"vehicle_type_id":"4","last_reported":1731003124,"current_range_meters":34800,"station_id":"","pricing_plan_id":"cebpf4jnsgd1na2vs0mg"},{"bike_id":"a99c7b07-62da-4c79-87ab-35fca31ba9ef","system_id":"levelo_inurba_marseille","lat":43.26681,"lon":5.38265,"is_reserved":false,"is_disabled":false,"rental_uris":{"android":"levelo://app?vid=a99c7b07-62da-4c79-87ab-35fca31ba9ef","ios":"levelo://app?vid=a99c7b07-62da-4c79-87ab-35fca31ba9ef"},"vehicle_type_id":"4","last_reported":1731003124,"current_range_meters":2000,"station_id":"ce4bhg92rcd13ifvqf90","pricing_plan_id":"cebpf4jnsgd1na2vs0mg"},{"bike_id":"1b4ae358-5cd1-4ddf-b008-fec3648f8286","system_id":"levelo_inurba_marseille","lat":43.30423,"lon":5.4128,"is_reserved":false,"is_disabled":false,"rental_uris":{"android":"levelo://app?vid=1b4ae358-5cd1-4ddf-b008-fec3648f8286","ios":"levelo://app?vid=1b4ae358-5cd1-4ddf-b008-fec3648f8286"},"vehicle_type_id":"4","last_reported":1731003124,"current_range_meters":26000,"station_id":"ce4bhop2rcd13ifvqh8g","pricing_plan_id":"cebpf4jnsgd1na2vs0mg"},{"bike_id":"123f6207-e5f7-4a86-815d-3aa76283c5cb","system_id":"levelo_inurba_marseille","lat":43.28007,"lon":5.44226,"is_reserved":false,"is_disabled":false,"rental_uris":{"android":"levelo://app?vid=123f6207-e5f7-4a86-815d-3aa76283c5cb","ios":"levelo://app?vid=123f6207-e5f7-4a86-815d-3aa76283c5cb"},"vehicle_type_id":"4","last_reported":1731003124,"current_range_meters":12000,"station_id":"","pricing_plan_id":"cebpf4jnsgd1na2vs0mg"},{"bike_id":"4654c5d8-752f-4f4b-bf52-6ada77a502e7","system_id":"levelo_inurba_marseille","lat":43.24748,"lon":5.38142,"is_reserved":false,"is_disabled":false,"rental_uris":{"android":"levelo://app?vid=4654c5d8-752f-4f4b-bf52-6ada77a502e7","ios":"levelo://app?vid=4654c5d8-752f-4f4b-bf52-6ada77a502e7"},"vehicle_type_id":"4","last_reported":1731003124,"current_range_meters":32400,"station_id":"ce4bhlp2rcd13ifvqgjg","pricing_plan_id":"cebpf4jnsgd1na2vs0mg"},{"bike_id":"ff3d86de-5c8f-44df-8c76-d883f8fa9ba1","system_id":"levelo_inurba_marseille","lat":43.23182,"lon":5.39985,"is_reserved":false,"is_disabled":false,"rental_uris":{"android":"levelo://app?vid=ff3d86de-5c8f-44df-8c76-d883f8fa9ba1","ios":"levelo://app?vid=ff3d86de-5c8f-44df-8c76-d883f8fa9ba1"},"vehicle_type_id":"4","last_reported":1731003124,"current_range_meters":20800,"station_id":"ce4bhn12rcd13ifvqgqg","pricing_plan_id":"cebpf4jnsgd1na2vs0mg"},{"bike_id":"3232343b-b00a-47b1-9de8-95cc6580cbfa","system_id":"levelo_inurba_marseille","lat":43.2293,"lon":5.35376,"is_reserved":false,"is_disabled":false,"rental_uris":{"android":"levelo://app?vid=3232343b-b00a-47b1-9de8-95cc6580cbfa","ios":"levelo://app?vid=3232343b-b00a-47b1-9de8-95cc6580cbfa"},"vehicle_type_id":"4","last_reported":1731003124,"current_range_meters":30000,"station_id":"cpo3532slgdg3j2ikp40","pricing_plan_id":"cebpf4jnsgd1na2vs0mg"},{"bike_id":"edf10fa0-e130-4749-92da-ee0d7aeecf40","system_id":"levelo_inurba_marseille","lat":43.30138,"lon":5.39856,"is_reserved":false,"is_disabled":false,"rental_uris":{"android":"levelo://app?vid=edf10fa0-e130-4749-92da-ee0d7aeecf40","ios":"levelo://app?vid=edf10fa0-e130-4749-92da-ee0d7aeecf40"},"vehicle_type_id":"4","last_reported":1731003124,"current_range_meters":8800,"station_id":"ce4bh0h2rcd13ifvqd40","pricing_plan_id":"cebpf4jnsgd1na2vs0mg"},{"bike_id":"13713c29-0e0d-481b-a9ab-94d3f4d2e1a3","system_id":"levelo_inurba_marseille","lat":43.28728,"lon":5.36087,"is_reserved":false,"is_disabled":false,"rental_uris":{"android":"levelo://app?vid=13713c29-0e0d-481b-a9ab-94d3f4d2e1a3","ios":"levelo://app?vid=13713c29-0e0d-481b-a9ab-94d3f4d2e1a3"},"vehicle_type_id":"4","last_reported":1731003124,"current_range_meters":19200,"station_id":"cki0cbj6b192h4jlfktg","pricing_plan_id":"cebpf4jnsgd1na2vs0mg"},{"bike_id":"30c122d9-3c8b-4500-b013-ed517a07df34","system_id":"levelo_inurba_marseille","lat":43.27921,"lon":5.39581,"is_reserved":false,"is_disabled":false,"rental_uris":{"android":"levelo://app?vid=30c122d9-3c8b-4500-b013-ed517a07df34","ios":"levelo://app?vid=30c122d9-3c8b-4500-b013-ed517a07df34"},"vehicle_type_id":"4","last_reported":1731003124,"current_range_meters":30000,"station_id":"ce4bhf92rcd13ifvqf40","pricing_plan_id":"cebpf4jnsgd1na2vs0mg"},{"bike_id":"72c658b7-e9b5-48f3-8a85-0c044f096792","system_id":"levelo_inurba_marseille","lat":43.29579,"lon":5.36732,"is_reserved":false,"is_disabled":false,"rental_uris":{"android":"levelo://app?vid=72c658b7-e9b5-48f3-8a85-0c044f096792","ios":"levelo://app?vid=72c658b7-e9b5-48f3-8a85-0c044f096792"},"vehicle_type_id":"4","last_reported":1731003124,"current_range_meters":4000,"station_id":"ce4bgph2rcd13ifvqc2g","pricing_plan_id":"cebpf4jnsgd1na2vs0mg"},{"bike_id":"d46fc949-017c-4337-a007-b5f9f19a0bfa","system_id":"levelo_inurba_marseille","lat":43.337444,"lon":5.374475,"is_reserved":false,"is_disabled":false,"rental_uris":{"android":"levelo://app?vid=d46fc949-017c-4337-a007-b5f9f19a0bfa","ios":"levelo://app?vid=d46fc949-017c-4337-a007-b5f9f19a0bfa"},"vehicle_type_id":"4","last_reported":1731003124,"current_range_meters":33600,"station_id":"","pricing_plan_id":"cebpf4jnsgd1na2vs0mg"},{"bike_id":"14b65986-fbd9-49f4-886f-98578981e21a","system_id":"levelo_inurba_marseille","lat":43.31752,"lon":5.39016,"is_reserved":false,"is_disabled":false,"rental_uris":{"android":"levelo://app?vid=14b65986-fbd9-49f4-886f-98578981e21a","ios":"levelo://app?vid=14b65986-fbd9-49f4-886f-98578981e21a"},"vehicle_type_id":"4","last_reported":1731003124,"current_range_meters":8400,"station_id":"ce4bhqp2rcd13ifvqhng","pricing_plan_id":"cebpf4jnsgd1na2vs0mg"},{"bike_id":"b856fee3-5c8e-425e-8bbb-320e2cda8238","system_id":"levelo_inurba_marseille","lat":43.31324,"lon":5.3969,"is_reserved":false,"is_disabled":false,"rental_uris":{"android":"levelo://app?vid=b856fee3-5c8e-425e-8bbb-320e2cda8238","ios":"levelo://app?vid=b856fee3-5c8e-425e-8bbb-320e2cda8238"},"vehicle_type_id":"4","last_reported":1731003124,"current_range_meters":39200,"station_id":"ce4bgvp2rcd13ifvqcu0","pricing_plan_id":"cebpf4jnsgd1na2vs0mg"},{"bike_id":"ea97513e-c1d7-45d6-8da1-53081899724a","system_id":"levelo_inurba_marseille","lat":43.30093,"lon":5.39094,"is_reserved":false,"is_disabled":false,"rental_uris":{"android":"levelo://app?vid=ea97513e-c1d7-45d6-8da1-53081899724a","ios":"levelo://app?vid=ea97513e-c1d7-45d6-8da1-53081899724a"},"vehicle_type_id":"4","last_reported":1731003124,"current_range_meters":12800,"station_id":"ce4bh192rcd13ifvqdb0","pricing_plan_id":"cebpf4jnsgd1na2vs0mg"},{"bike_id":"456d5e44-3cb9-4023-91c6-ede11b6560f7","system_id":"levelo_inurba_marseille","lat":43.28705,"lon":5.37376,"is_reserved":false,"is_disabled":false,"rental_uris":{"android":"levelo://app?vid=456d5e44-3cb9-4023-91c6-ede11b6560f7","ios":"levelo://app?vid=456d5e44-3cb9-4023-91c6-ede11b6560f7"},"vehicle_type_id":"4","last_reported":1731003124,"current_range_meters":38800,"station_id":"ce4bh3p2rcd13ifvqdq0","pricing_plan_id":"cebpf4jnsgd1na2vs0mg"},{"bike_id":"fb9a4917-24cd-45ae-967d-97aed9b41d4d","system_id":"levelo_inurba_marseille","lat":43.31995,"lon":5.38153,"is_reserved":false,"is_disabled":false,"rental_uris":{"android":"levelo://app?vid=fb9a4917-24cd-45ae-967d-97aed9b41d4d","ios":"levelo://app?vid=fb9a4917-24cd-45ae-967d-97aed9b41d4d"},"vehicle_type_id":"4","last_reported":1731003124,"current_range_meters":30000,"station_id":"ce4bhr12rcd13ifvqhpg","pricing_plan_id":"cebpf4jnsgd1na2vs0mg"},{"bike_id":"9b96d1a7-1bb0-4837-8ce5-5f6325109a7b","system_id":"levelo_inurba_marseille","lat":43.23185,"lon":5.39996,"is_reserved":false,"is_disabled":false,"rental_uris":{"android":"levelo://app?vid=9b96d1a7-1bb0-4837-8ce5-5f6325109a7b","ios":"levelo://app?vid=9b96d1a7-1bb0-4837-8ce5-5f6325109a7b"},"vehicle_type_id":"4","last_reported":1731003124,"current_range_meters":9600,"station_id":"ce4bhn12rcd13ifvqgqg","pricing_plan_id":"cebpf4jnsgd1na2vs0mg"},{"bike_id":"7148e5a3-e345-4df8-9602-6c428d6f2779","system_id":"levelo_inurba_marseille","lat":43.2667,"lon":5.40289,"is_reserved":false,"is_disabled":false,"rental_uris":{"android":"levelo://app?vid=7148e5a3-e345-4df8-9602-6c428d6f2779","ios":"levelo://app?vid=7148e5a3-e345-4df8-9602-6c428d6f2779"},"vehicle_type_id":"4","last_reported":1731003124,"current_range_meters":14800,"station_id":"","pricing_plan_id":"cebpf4jnsgd1na2vs0mg"},{"bike_id":"3c5eb033-d4c8-4599-9cb2-3cbc11befe15","system_id":"levelo_inurba_marseille","lat":43.27883,"lon":5.38029,"is_reserved":false,"is_disabled":false,"rental_uris":{"android":"levelo://app?vid=3c5eb033-d4c8-4599-9cb2-3cbc11befe15","ios":"levelo://app?vid=3c5eb033-d4c8-4599-9cb2-3cbc11befe15"},"vehicle_type_id":"4","last_reported":1731003124,"current_range_meters":4800,"station_id":"ce4bhf92rcd13ifvqf50","pricing_plan_id":"cebpf4jnsgd1na2vs0mg"},{"bike_id":"14a66910-2e94-4fbc-860a-5889a2a2ac9a","system_id":"levelo_inurba_marseille","lat":43.27177,"lon":5.40985,"is_reserved":false,"is_disabled":false,"rental_uris":{"android":"levelo://app?vid=14a66910-2e94-4fbc-860a-5889a2a2ac9a","ios":"levelo://app?vid=14a66910-2e94-4fbc-860a-5889a2a2ac9a"},"vehicle_type_id":"4","last_reported":1731003124,"current_range_meters":22800,"station_id":"ce4bhl12rcd13ifvqgf0","pricing_plan_id":"cebpf4jnsgd1na2vs0mg"},{"bike_id":"3237c08b-3f60-4397-9ce5-5832cbf0e8f9","system_id":"levelo_inurba_marseille","lat":43.33023,"lon":5.39038,"is_reserved":false,"is_disabled":false,"rental_uris":{"android":"levelo://app?vid=3237c08b-3f60-4397-9ce5-5832cbf0e8f9","ios":"levelo://app?vid=3237c08b-3f60-4397-9ce5-5832cbf0e8f9"},"vehicle_type_id":"4","last_reported":1731003124,"current_range_meters":6400,"station_id":"ce4bhr92rcd13ifvqhrg","pricing_plan_id":"cebpf4jnsgd1na2vs0mg"},{"bike_id":"3fe818df-b666-45b2-9bb1-df8b5048c602","system_id":"levelo_inurba_marseille","lat":43.28011,"lon":5.400246,"is_reserved":false,"is_disabled":false,"rental_uris":{"android":"levelo://app?vid=3fe818df-b666-45b2-9bb1-df8b5048c602","ios":"levelo://app?vid=3fe818df-b666-45b2-9bb1-df8b5048c602"},"vehicle_type_id":"4","last_reported":1731003124,"current_range_meters":36800,"station_id":"ce4bho92rcd13ifvqh4g","pricing_plan_id":"cebpf4jnsgd1na2vs0mg"},{"bike_id":"42758877-c4e6-4f54-b67e-2527e84c4894","system_id":"levelo_inurba_marseille","lat":43.23184,"lon":5.39985,"is_reserved":false,"is_disabled":false,"rental_uris":{"android":"levelo://app?vid=42758877-c4e6-4f54-b67e-2527e84c4894","ios":"levelo://app?vid=42758877-c4e6-4f54-b67e-2527e84c4894"},"vehicle_type_id":"4","last_reported":1731003124,"current_range_meters":21600,"station_id":"ce4bhn12rcd13ifvqgqg","pricing_plan_id":"cebpf4jnsgd1na2vs0mg"},{"bike_id":"cf966fef-29be-45d0-abc2-ceb371a6d872","system_id":"levelo_inurba_marseille","lat":43.28445,"lon":5.39195,"is_reserved":false,"is_disabled":false,"rental_uris":{"android":"levelo://app?vid=cf966fef-29be-45d0-abc2-ceb371a6d872","ios":"levelo://app?vid=cf966fef-29be-45d0-abc2-ceb371a6d872"},"vehicle_type_id":"4","last_reported":1731003124,"current_range_meters":3200,"station_id":"ce4bhoh2rcd13ifvqh5g","pricing_plan_id":"cebpf4jnsgd1na2vs0mg"},{"bike_id":"d2af987b-e681-4bbc-badd-709ed8c22e5d","system_id":"levelo_inurba_marseille","lat":43.31288,"lon":5.40162,"is_reserved":false,"is_disabled":false,"rental_uris":{"android":"levelo://app?vid=d2af987b-e681-4bbc-badd-709ed8c22e5d","ios":"levelo://app?vid=d2af987b-e681-4bbc-badd-709ed8c22e5d"},"vehicle_type_id":"4","last_reported":1731003124,"current_range_meters":18000,"station_id":"ce4bh092rcd13ifvqd30","pricing_plan_id":"cebpf4jnsgd1na2vs0mg"},{"bike_id":"aefded7b-2f30-41be-a245-8a559d7a2984","system_id":"levelo_inurba_marseille","lat":43.30133,"lon":5.39847,"is_reserved":false,"is_disabled":false,"rental_uris":{"android":"levelo://app?vid=aefded7b-2f30-41be-a245-8a559d7a2984","ios":"levelo://app?vid=aefded7b-2f30-41be-a245-8a559d7a2984"},"vehicle_type_id":"4","last_reported":1731003124,"current_range_meters":22400,"station_id":"ce4bh0h2rcd13ifvqd40","pricing_plan_id":"cebpf4jnsgd1na2vs0mg"},{"bike_id":"18ca944d-6259-45bf-91c0-a5713b6d1e9a","system_id":"levelo_inurba_marseille","lat":43.28708,"lon":5.37382,"is_reserved":false,"is_disabled":false,"rental_uris":{"android":"levelo://app?vid=18ca944d-6259-45bf-91c0-a5713b6d1e9a","ios":"levelo://app?vid=18ca944d-6259-45bf-91c0-a5713b6d1e9a"},"vehicle_type_id":"4","last_reported":1731003124,"current_range_meters":8000,"station_id":"ce4bh3p2rcd13ifvqdq0","pricing_plan_id":"cebpf4jnsgd1na2vs0mg"},{"bike_id":"3d31e9ab-b778-41c0-a959-bb8b0dd15e0e","system_id":"levelo_inurba_marseille","lat":43.29273,"lon":5.36844,"is_reserved":false,"is_disabled":false,"rental_uris":{"android":"levelo://app?vid=3d31e9ab-b778-41c0-a959-bb8b0dd15e0e","ios":"levelo://app?vid=3d31e9ab-b778-41c0-a959-bb8b0dd15e0e"},"vehicle_type_id":"4","last_reported":1731003124,"current_range_meters":38800,"station_id":"ce4bhbp2rcd13ifvqesg","pricing_plan_id":"cebpf4jnsgd1na2vs0mg"},{"bike_id":"96af24a7-9c6e-4e43-9718-e21c9845789c","system_id":"levelo_inurba_marseille","lat":43.28421,"lon":5.37506,"is_reserved":false,"is_disabled":false,"rental_uris":{"android":"levelo://app?vid=96af24a7-9c6e-4e43-9718-e21c9845789c","ios":"levelo://app?vid=96af24a7-9c6e-4e43-9718-e21c9845789c"},"vehicle_type_id":"4","last_reported":1731003124,"current_range_meters":4800,"station_id":"ce4bh412rcd13ifvqds0","pricing_plan_id":"cebpf4jnsgd1na2vs0mg"},{"bike_id":"acd7e83a-3e26-4f2e-b66c-57cc305c3025","system_id":"levelo_inurba_marseille","lat":43.29042,"lon":5.38647,"is_reserved":false,"is_disabled":false,"rental_uris":{"android":"levelo://app?vid=acd7e83a-3e26-4f2e-b66c-57cc305c3025","ios":"levelo://app?vid=acd7e83a-3e26-4f2e-b66c-57cc305c3025"},"vehicle_type_id":"4","last_reported":1731003124,"current_range_meters":30400,"station_id":"ce4bh4p2rcd13ifvqe0g","pricing_plan_id":"cebpf4jnsgd1na2vs0mg"},{"bike_id":"207ed067-29d8-4a8f-b9f3-0849ce579f81","system_id":"levelo_inurba_marseille","lat":43.3302,"lon":5.39044,"is_reserved":false,"is_disabled":false,"rental_uris":{"android":"levelo://app?vid=207ed067-29d8-4a8f-b9f3-0849ce579f81","ios":"levelo://app?vid=207ed067-29d8-4a8f-b9f3-0849ce579f81"},"vehicle_type_id":"4","last_reported":1731003124,"current_range_meters":39200,"station_id":"ce4bhr92rcd13ifvqhrg","pricing_plan_id":"cebpf4jnsgd1na2vs0mg"},{"bike_id":"6ee84fef-bc76-4b47-88f3-3c4344293f4b","system_id":"levelo_inurba_marseille","lat":43.31325,"lon":5.39695,"is_reserved":false,"is_disabled":false,"rental_uris":{"android":"levelo://app?vid=6ee84fef-bc76-4b47-88f3-3c4344293f4b","ios":"levelo://app?vid=6ee84fef-bc76-4b47-88f3-3c4344293f4b"},"vehicle_type_id":"4","last_reported":1731003124,"current_range_meters":22400,"station_id":"ce4bgvp2rcd13ifvqcu0","pricing_plan_id":"cebpf4jnsgd1na2vs0mg"},{"bike_id":"c54d8938-bd66-4746-8397-6468d0e45158","system_id":"levelo_inurba_marseille","lat":43.30798,"lon":5.43521,"is_reserved":false,"is_disabled":false,"rental_uris":{"android":"levelo://app?vid=c54d8938-bd66-4746-8397-6468d0e45158","ios":"levelo://app?vid=c54d8938-bd66-4746-8397-6468d0e45158"},"vehicle_type_id":"4","last_reported":1731003124,"current_range_meters":32000,"station_id":"ce4bhph2rcd13ifvqheg","pricing_plan_id":"cebpf4jnsgd1na2vs0mg"},{"bike_id":"95ac8b55-d461-4c79-bf07-3deece0b5544","system_id":"levelo_inurba_marseille","lat":43.337444,"lon":5.374475,"is_reserved":false,"is_disabled":false,"rental_uris":{"android":"levelo://app?vid=95ac8b55-d461-4c79-bf07-3deece0b5544","ios":"levelo://app?vid=95ac8b55-d461-4c79-bf07-3deece0b5544"},"vehicle_type_id":"4","last_reported":1731003124,"current_range_meters":36400,"station_id":"","pricing_plan_id":"cebpf4jnsgd1na2vs0mg"},{"bike_id":"498e45fc-d415-4206-9fc9-d05db95061f4","system_id":"levelo_inurba_marseille","lat":43.3095,"lon":5.39032,"is_reserved":false,"is_disabled":false,"rental_uris":{"android":"levelo://app?vid=498e45fc-d415-4206-9fc9-d05db95061f4","ios":"levelo://app?vid=498e45fc-d415-4206-9fc9-d05db95061f4"},"vehicle_type_id":"4","last_reported":1731003124,"current_range_meters":35200,"station_id":"ce4bgup2rcd13ifvqco0","pricing_plan_id":"cebpf4jnsgd1na2vs0mg"},{"bike_id":"2e20f2a1-b564-48ea-877a-8fba77b4c953","system_id":"levelo_inurba_marseille","lat":43.22926,"lon":5.35376,"is_reserved":false,"is_disabled":false,"rental_uris":{"android":"levelo://app?vid=2e20f2a1-b564-48ea-877a-8fba77b4c953","ios":"levelo://app?vid=2e20f2a1-b564-48ea-877a-8fba77b4c953"},"vehicle_type_id":"4","last_reported":1731003124,"current_range_meters":36000,"station_id":"cpo3532slgdg3j2ikp40","pricing_plan_id":"cebpf4jnsgd1na2vs0mg"},{"bike_id":"6863c962-b387-40c5-af79-c7c73c685811","system_id":"levelo_inurba_marseille","lat":43.33024,"lon":5.39036,"is_reserved":false,"is_disabled":false,"rental_uris":{"android":"levelo://app?vid=6863c962-b387-40c5-af79-c7c73c685811","ios":"levelo://app?vid=6863c962-b387-40c5-af79-c7c73c685811"},"vehicle_type_id":"4","last_reported":1731003124,"current_range_meters":18800,"station_id":"ce4bhr92rcd13ifvqhrg","pricing_plan_id":"cebpf4jnsgd1na2vs0mg"},{"bike_id":"a33de4ee-a3bf-4089-85aa-47e730f8c2c0","system_id":"levelo_inurba_marseille","lat":43.28274,"lon":5.35072,"is_reserved":false,"is_disabled":false,"rental_uris":{"android":"levelo://app?vid=a33de4ee-a3bf-4089-85aa-47e730f8c2c0","ios":"levelo://app?vid=a33de4ee-a3bf-4089-85aa-47e730f8c2c0"},"vehicle_type_id":"4","last_reported":1731003124,"current_range_meters":16400,"station_id":"ce4bhbp2rcd13ifvqerg","pricing_plan_id":"cebpf4jnsgd1na2vs0mg"},{"bike_id":"a5317aa5-9b24-4e08-b792-49a9aabb2f94","system_id":"levelo_inurba_marseille","lat":43.28445,"lon":5.39201,"is_reserved":false,"is_disabled":false,"rental_uris":{"android":"levelo://app?vid=a5317aa5-9b24-4e08-b792-49a9aabb2f94","ios":"levelo://app?vid=a5317aa5-9b24-4e08-b792-49a9aabb2f94"},"vehicle_type_id":"4","last_reported":1731003124,"current_range_meters":12400,"station_id":"ce4bhoh2rcd13ifvqh5g","pricing_plan_id":"cebpf4jnsgd1na2vs0mg"},{"bike_id":"f139c0b7-52a7-4153-bf41-ccb9fdb0faad","system_id":"levelo_inurba_marseille","lat":43.28724,"lon":5.36087,"is_reserved":false,"is_disabled":false,"rental_uris":{"android":"levelo://app?vid=f139c0b7-52a7-4153-bf41-ccb9fdb0faad","ios":"levelo://app?vid=f139c0b7-52a7-4153-bf41-ccb9fdb0faad"},"vehicle_type_id":"4","last_reported":1731003124,"current_range_meters":38800,"station_id":"cki0cbj6b192h4jlfktg","pricing_plan_id":"cebpf4jnsgd1na2vs0mg"},{"bike_id":"4ab5195d-86f1-45bb-a318-b19c0f6fdf4a","system_id":"levelo_inurba_marseille","lat":43.27072,"lon":5.42283,"is_reserved":false,"is_disabled":false,"rental_uris":{"android":"levelo://app?vid=4ab5195d-86f1-45bb-a318-b19c0f6fdf4a","ios":"levelo://app?vid=4ab5195d-86f1-45bb-a318-b19c0f6fdf4a"},"vehicle_type_id":"4","last_reported":1731003124,"current_range_meters":27600,"station_id":"ce4bhk92rcd13ifvqgb0","pricing_plan_id":"cebpf4jnsgd1na2vs0mg"},{"bike_id":"6e2909c9-a5f7-4f56-b2a3-9fdf697a7fcb","system_id":"levelo_inurba_marseille","lat":43.27914,"lon":5.39569,"is_reserved":false,"is_disabled":false,"rental_uris":{"android":"levelo://app?vid=6e2909c9-a5f7-4f56-b2a3-9fdf697a7fcb","ios":"levelo://app?vid=6e2909c9-a5f7-4f56-b2a3-9fdf697a7fcb"},"vehicle_type_id":"4","last_reported":1731003124,"current_range_meters":2000,"station_id":"ce4bhf92rcd13ifvqf40","pricing_plan_id":"cebpf4jnsgd1na2vs0mg"},{"bike_id":"1d54bac7-f3b4-4cf5-8cdc-1f15f612d813","system_id":"levelo_inurba_marseille","lat":43.28674,"lon":5.38693,"is_reserved":false,"is_disabled":false,"rental_uris":{"android":"levelo://app?vid=1d54bac7-f3b4-4cf5-8cdc-1f15f612d813","ios":"levelo://app?vid=1d54bac7-f3b4-4cf5-8cdc-1f15f612d813"},"vehicle_type_id":"4","last_reported":1731003124,"current_range_meters":6800,"station_id":"ce4bh492rcd13ifvqdug","pricing_plan_id":"cebpf4jnsgd1na2vs0mg"},{"bike_id":"03aac47a-870f-474f-98b2-53c038d2acf5","system_id":"levelo_inurba_marseille","lat":43.31763,"lon":5.39014,"is_reserved":false,"is_disabled":false,"rental_uris":{"android":"levelo://app?vid=03aac47a-870f-474f-98b2-53c038d2acf5","ios":"levelo://app?vid=03aac47a-870f-474f-98b2-53c038d2acf5"},"vehicle_type_id":"4","last_reported":1731003124,"current_range_meters":16400,"station_id":"ce4bhqp2rcd13ifvqhng","pricing_plan_id":"cebpf4jnsgd1na2vs0mg"},{"bike_id":"b78ba3d8-cc60-4a8f-b683-f30d007ec64c","system_id":"levelo_inurba_marseille","lat":43.30951,"lon":5.39036,"is_reserved":false,"is_disabled":false,"rental_uris":{"android":"levelo://app?vid=b78ba3d8-cc60-4a8f-b683-f30d007ec64c","ios":"levelo://app?vid=b78ba3d8-cc60-4a8f-b683-f30d007ec64c"},"vehicle_type_id":"4","last_reported":1731003124,"current_range_meters":26800,"station_id":"ce4bgup2rcd13ifvqco0","pricing_plan_id":"cebpf4jnsgd1na2vs0mg"},{"bike_id":"746f8df5-cd38-4c92-9c55-a49257706bc6","system_id":"levelo_inurba_marseille","lat":43.31325,"lon":5.39694,"is_reserved":false,"is_disabled":false,"rental_uris":{"android":"levelo://app?vid=746f8df5-cd38-4c92-9c55-a49257706bc6","ios":"levelo://app?vid=746f8df5-cd38-4c92-9c55-a49257706bc6"},"vehicle_type_id":"4","last_reported":1731003124,"current_range_meters":39200,"station_id":"ce4bgvp2rcd13ifvqcu0","pricing_plan_id":"cebpf4jnsgd1na2vs0mg"},{"bike_id":"80d5c89e-745d-46d6-9ab9-4f5ea40b6def","system_id":"levelo_inurba_marseille","lat":43.27178,"lon":5.41005,"is_reserved":false,"is_disabled":false,"rental_uris":{"android":"levelo://app?vid=80d5c89e-745d-46d6-9ab9-4f5ea40b6def","ios":"levelo://app?vid=80d5c89e-745d-46d6-9ab9-4f5ea40b6def"},"vehicle_type_id":"4","last_reported":1731003124,"current_range_meters":14800,"station_id":"ce4bhl12rcd13ifvqgf0","pricing_plan_id":"cebpf4jnsgd1na2vs0mg"},{"bike_id":"7edf48a5-86b0-440d-9f42-94cf46ce791e","system_id":"levelo_inurba_marseille","lat":43.31715,"lon":5.42404,"is_reserved":false,"is_disabled":false,"rental_uris":{"android":"levelo://app?vid=7edf48a5-86b0-440d-9f42-94cf46ce791e","ios":"levelo://app?vid=7edf48a5-86b0-440d-9f42-94cf46ce791e"},"vehicle_type_id":"4","last_reported":1731003124,"current_range_meters":3200,"station_id":"ce4bhp92rcd13ifvqhbg","pricing_plan_id":"cebpf4jnsgd1na2vs0mg"},{"bike_id":"ef288286-229d-4b9a-a189-8d61840dcffb","system_id":"levelo_inurba_marseille","lat":43.23196,"lon":5.35553,"is_reserved":false,"is_disabled":false,"rental_uris":{"android":"levelo://app?vid=ef288286-229d-4b9a-a189-8d61840dcffb","ios":"levelo://app?vid=ef288286-229d-4b9a-a189-8d61840dcffb"},"vehicle_type_id":"4","last_reported":1731003124,"current_range_meters":9600,"station_id":"ce4bhu92rcd13ifvqi70","pricing_plan_id":"cebpf4jnsgd1na2vs0mg"},{"bike_id":"9044ed43-de46-4645-b2ad-5e136647239a","system_id":"levelo_inurba_marseille","lat":43.337444,"lon":5.374475,"is_reserved":false,"is_disabled":false,"rental_uris":{"android":"levelo://app?vid=9044ed43-de46-4645-b2ad-5e136647239a","ios":"levelo://app?vid=9044ed43-de46-4645-b2ad-5e136647239a"},"vehicle_type_id":"4","last_reported":1731003124,"current_range_meters":36000,"station_id":"","pricing_plan_id":"cebpf4jnsgd1na2vs0mg"},{"bike_id":"0e2b7fe2-e116-40cc-a675-ef2c386223b4","system_id":"levelo_inurba_marseille","lat":43.26805,"lon":5.4026,"is_reserved":false,"is_disabled":false,"rental_uris":{"android":"levelo://app?vid=0e2b7fe2-e116-40cc-a675-ef2c386223b4","ios":"levelo://app?vid=0e2b7fe2-e116-40cc-a675-ef2c386223b4"},"vehicle_type_id":"4","last_reported":1731003124,"current_range_meters":9600,"station_id":"ce501612rcd8frsf0b60","pricing_plan_id":"cebpf4jnsgd1na2vs0mg"},{"bike_id":"cde33d01-4fdf-4588-9993-50576e545d63","system_id":"levelo_inurba_marseille","lat":43.29902,"lon":5.43662,"is_reserved":false,"is_disabled":false,"rental_uris":{"android":"levelo://app?vid=cde33d01-4fdf-4588-9993-50576e545d63","ios":"levelo://app?vid=cde33d01-4fdf-4588-9993-50576e545d63"},"vehicle_type_id":"4","last_reported":1731003124,"current_range_meters":32800,"station_id":"ce4bhpp2rcd13ifvqhfg","pricing_plan_id":"cebpf4jnsgd1na2vs0mg"},{"bike_id":"84d60574-e97d-416a-bb69-40e9fb469182","system_id":"levelo_inurba_marseille","lat":43.22928,"lon":5.35377,"is_reserved":false,"is_disabled":false,"rental_uris":{"android":"levelo://app?vid=84d60574-e97d-416a-bb69-40e9fb469182","ios":"levelo://app?vid=84d60574-e97d-416a-bb69-40e9fb469182"},"vehicle_type_id":"4","last_reported":1731003124,"current_range_meters":40000,"station_id":"cpo3532slgdg3j2ikp40","pricing_plan_id":"cebpf4jnsgd1na2vs0mg"},{"bike_id":"5df28b50-bf08-414a-bc05-65d82f3873f7","system_id":"levelo_inurba_marseille","lat":43.29532,"lon":5.38532,"is_reserved":false,"is_disabled":false,"rental_uris":{"android":"levelo://app?vid=5df28b50-bf08-414a-bc05-65d82f3873f7","ios":"levelo://app?vid=5df28b50-bf08-414a-bc05-65d82f3873f7"},"vehicle_type_id":"4","last_reported":1731003124,"current_range_meters":34800,"station_id":"ce4bgih2rcd13ifvqba0","pricing_plan_id":"cebpf4jnsgd1na2vs0mg"},{"bike_id":"cb27be9f-a9a1-403d-aae5-a10a151cfdbe","system_id":"levelo_inurba_marseille","lat":43.29001,"lon":5.35606,"is_reserved":false,"is_disabled":false,"rental_uris":{"android":"levelo://app?vid=cb27be9f-a9a1-403d-aae5-a10a151cfdbe","ios":"levelo://app?vid=cb27be9f-a9a1-403d-aae5-a10a151cfdbe"},"vehicle_type_id":"4","last_reported":1731003124,"current_range_meters":38800,"station_id":"ce4bhb92rcd13ifvqen0","pricing_plan_id":"cebpf4jnsgd1na2vs0mg"},{"bike_id":"5174ae6b-73b7-4eb9-b82e-9c61c1f78ce8","system_id":"levelo_inurba_marseille","lat":43.31233,"lon":5.4062,"is_reserved":false,"is_disabled":false,"rental_uris":{"android":"levelo://app?vid=5174ae6b-73b7-4eb9-b82e-9c61c1f78ce8","ios":"levelo://app?vid=5174ae6b-73b7-4eb9-b82e-9c61c1f78ce8"},"vehicle_type_id":"4","last_reported":1731003124,"current_range_meters":16000,"station_id":"","pricing_plan_id":"cebpf4jnsgd1na2vs0mg"},{"bike_id":"38c9c563-2dc8-4ec3-94f6-fd20caf6397c","system_id":"levelo_inurba_marseille","lat":43.2858,"lon":5.39492,"is_reserved":false,"is_disabled":false,"rental_uris":{"android":"levelo://app?vid=38c9c563-2dc8-4ec3-94f6-fd20caf6397c","ios":"levelo://app?vid=38c9c563-2dc8-4ec3-94f6-fd20caf6397c"},"vehicle_type_id":"4","last_reported":1731003124,"current_range_meters":38400,"station_id":"ce4bh292rcd13ifvqdg0","pricing_plan_id":"cebpf4jnsgd1na2vs0mg"},{"bike_id":"ab807314-093d-4c8e-952d-4c19605aaec3","system_id":"levelo_inurba_marseille","lat":43.24995,"lon":5.38935,"is_reserved":false,"is_disabled":false,"rental_uris":{"android":"levelo://app?vid=ab807314-093d-4c8e-952d-4c19605aaec3","ios":"levelo://app?vid=ab807314-093d-4c8e-952d-4c19605aaec3"},"vehicle_type_id":"4","last_reported":1731003124,"current_range_meters":26000,"station_id":"ce4bhgp2rcd13ifvqfd0","pricing_plan_id":"cebpf4jnsgd1na2vs0mg"},{"bike_id":"e7cd005d-d362-4c36-a955-3c59f122a64d","system_id":"levelo_inurba_marseille","lat":43.28152,"lon":5.42639,"is_reserved":false,"is_disabled":false,"rental_uris":{"android":"levelo://app?vid=e7cd005d-d362-4c36-a955-3c59f122a64d","ios":"levelo://app?vid=e7cd005d-d362-4c36-a955-3c59f122a64d"},"vehicle_type_id":"4","last_reported":1731003124,"current_range_meters":27200,"station_id":"ce4bhnh2rcd13ifvqgug","pricing_plan_id":"cebpf4jnsgd1na2vs0mg"},{"bike_id":"2e76dd59-ec63-4649-ad46-78b9285259df","system_id":"levelo_inurba_marseille","lat":43.30265,"lon":5.37723,"is_reserved":false,"is_disabled":false,"rental_uris":{"android":"levelo://app?vid=2e76dd59-ec63-4649-ad46-78b9285259df","ios":"levelo://app?vid=2e76dd59-ec63-4649-ad46-78b9285259df"},"vehicle_type_id":"4","last_reported":1731003124,"current_range_meters":4800,"station_id":"ce4bguh2rcd13ifvqcj0","pricing_plan_id":"cebpf4jnsgd1na2vs0mg"},{"bike_id":"0b9e700d-9258-4472-8882-d6ad40d66901","system_id":"levelo_inurba_marseille","lat":43.260672,"lon":5.393949,"is_reserved":false,"is_disabled":false,"rental_uris":{"android":"levelo://app?vid=0b9e700d-9258-4472-8882-d6ad40d66901","ios":"levelo://app?vid=0b9e700d-9258-4472-8882-d6ad40d66901"},"vehicle_type_id":"4","last_reported":1731003124,"current_range_meters":39200,"station_id":"ce4bhh92rcd13ifvqfj0","pricing_plan_id":"cebpf4jnsgd1na2vs0mg"},{"bike_id":"5f5fed70-1a16-4a51-9daa-ef868c6df0d0","system_id":"levelo_inurba_marseille","lat":43.23966,"lon":5.36629,"is_reserved":false,"is_disabled":false,"rental_uris":{"android":"levelo://app?vid=5f5fed70-1a16-4a51-9daa-ef868c6df0d0","ios":"levelo://app?vid=5f5fed70-1a16-4a51-9daa-ef868c6df0d0"},"vehicle_type_id":"4","last_reported":1731003124,"current_range_meters":18000,"station_id":"ce4bhi12rcd13ifvqfp0","pricing_plan_id":"cebpf4jnsgd1na2vs0mg"},{"bike_id":"67678471-8900-40c3-b5bb-806b24feb686","system_id":"levelo_inurba_marseille","lat":43.31333,"lon":5.39696,"is_reserved":false,"is_disabled":false,"rental_uris":{"android":"levelo://app?vid=67678471-8900-40c3-b5bb-806b24feb686","ios":"levelo://app?vid=67678471-8900-40c3-b5bb-806b24feb686"},"vehicle_type_id":"4","last_reported":1731003124,"current_range_meters":28000,"station_id":"ce4bgvp2rcd13ifvqcu0","pricing_plan_id":"cebpf4jnsgd1na2vs0mg"},{"bike_id":"65eea0cd-2ca5-4855-b964-b026702e1d71","system_id":"levelo_inurba_marseille","lat":43.27922,"lon":5.39583,"is_reserved":false,"is_disabled":false,"rental_uris":{"android":"levelo://app?vid=65eea0cd-2ca5-4855-b964-b026702e1d71","ios":"levelo://app?vid=65eea0cd-2ca5-4855-b964-b026702e1d71"},"vehicle_type_id":"4","last_reported":1731003124,"current_range_meters":22800,"station_id":"ce4bhf92rcd13ifvqf40","pricing_plan_id":"cebpf4jnsgd1na2vs0mg"},{"bike_id":"c70f3a51-3c77-47f4-afdc-c467e625745f","system_id":"levelo_inurba_marseille","lat":43.28107,"lon":5.38219,"is_reserved":false,"is_disabled":false,"rental_uris":{"android":"levelo://app?vid=c70f3a51-3c77-47f4-afdc-c467e625745f","ios":"levelo://app?vid=c70f3a51-3c77-47f4-afdc-c467e625745f"},"vehicle_type_id":"4","last_reported":1731003124,"current_range_meters":26800,"station_id":"","pricing_plan_id":"cebpf4jnsgd1na2vs0mg"},{"bike_id":"45c50a96-a710-41e2-875f-7078d93fa577","system_id":"levelo_inurba_marseille","lat":43.26498,"lon":5.39542,"is_reserved":false,"is_disabled":false,"rental_uris":{"android":"levelo://app?vid=45c50a96-a710-41e2-875f-7078d93fa577","ios":"levelo://app?vid=45c50a96-a710-41e2-875f-7078d93fa577"},"vehicle_type_id":"4","last_reported":1731003124,"current_range_meters":11200,"station_id":"ce4bhi12rcd13ifvqfq0","pricing_plan_id":"cebpf4jnsgd1na2vs0mg"},{"bike_id":"d6fdae69-642e-4d84-a8fd-edeb75ed0ef4","system_id":"levelo_inurba_marseille","lat":43.22934,"lon":5.35378,"is_reserved":false,"is_disabled":false,"rental_uris":{"android":"levelo://app?vid=d6fdae69-642e-4d84-a8fd-edeb75ed0ef4","ios":"levelo://app?vid=d6fdae69-642e-4d84-a8fd-edeb75ed0ef4"},"vehicle_type_id":"4","last_reported":1731003124,"current_range_meters":27200,"station_id":"cpo3532slgdg3j2ikp40","pricing_plan_id":"cebpf4jnsgd1na2vs0mg"},{"bike_id":"657c99cf-5615-48db-877e-251e9b6242e8","system_id":"levelo_inurba_marseille","lat":43.251025,"lon":5.403286,"is_reserved":false,"is_disabled":false,"rental_uris":{"android":"levelo://app?vid=657c99cf-5615-48db-877e-251e9b6242e8","ios":"levelo://app?vid=657c99cf-5615-48db-877e-251e9b6242e8"},"vehicle_type_id":"4","last_reported":1731003124,"current_range_meters":14800,"station_id":"ce4bhgh2rcd13ifvqfb0","pricing_plan_id":"cebpf4jnsgd1na2vs0mg"},{"bike_id":"42e59f4f-02e5-4657-aab7-27019ec177bf","system_id":"levelo_inurba_marseille","lat":43.3211,"lon":5.36773,"is_reserved":false,"is_disabled":false,"rental_uris":{"android":"levelo://app?vid=42e59f4f-02e5-4657-aab7-27019ec177bf","ios":"levelo://app?vid=42e59f4f-02e5-4657-aab7-27019ec177bf"},"vehicle_type_id":"4","last_reported":1731003124,"current_range_meters":24800,"station_id":"ce4bhrh2rcd13ifvqhug","pricing_plan_id":"cebpf4jnsgd1na2vs0mg"},{"bike_id":"425c09ff-2a3c-49d2-8b8a-6129d65e3011","system_id":"levelo_inurba_marseille","lat":43.30304,"lon":5.395357,"is_reserved":false,"is_disabled":false,"rental_uris":{"android":"levelo://app?vid=425c09ff-2a3c-49d2-8b8a-6129d65e3011","ios":"levelo://app?vid=425c09ff-2a3c-49d2-8b8a-6129d65e3011"},"vehicle_type_id":"4","last_reported":1731003124,"current_range_meters":27600,"station_id":"ce4bgh92rcd13ifvqb40","pricing_plan_id":"cebpf4jnsgd1na2vs0mg"},{"bike_id":"001b7c42-40a7-47a9-927f-6c03197892aa","system_id":"levelo_inurba_marseille","lat":43.33731,"lon":5.39179,"is_reserved":false,"is_disabled":false,"rental_uris":{"android":"levelo://app?vid=001b7c42-40a7-47a9-927f-6c03197892aa","ios":"levelo://app?vid=001b7c42-40a7-47a9-927f-6c03197892aa"},"vehicle_type_id":"4","last_reported":1731003124,"current_range_meters":39200,"station_id":"ce4bhr92rcd13ifvqhsg","pricing_plan_id":"cebpf4jnsgd1na2vs0mg"},{"bike_id":"32f6acfd-d862-49d8-85be-df8344a93fd0","system_id":"levelo_inurba_marseille","lat":43.29865,"lon":5.39746,"is_reserved":false,"is_disabled":false,"rental_uris":{"android":"levelo://app?vid=32f6acfd-d862-49d8-85be-df8344a93fd0","ios":"levelo://app?vid=32f6acfd-d862-49d8-85be-df8344a93fd0"},"vehicle_type_id":"4","last_reported":1731003124,"current_range_meters":38800,"station_id":"ce4bh0h2rcd13ifvqd50","pricing_plan_id":"cebpf4jnsgd1na2vs0mg"},{"bike_id":"d45628f9-b0bb-4e9b-addd-9b627203addd","system_id":"levelo_inurba_marseille","lat":43.28447,"lon":5.39203,"is_reserved":false,"is_disabled":false,"rental_uris":{"android":"levelo://app?vid=d45628f9-b0bb-4e9b-addd-9b627203addd","ios":"levelo://app?vid=d45628f9-b0bb-4e9b-addd-9b627203addd"},"vehicle_type_id":"4","last_reported":1731003124,"current_range_meters":11200,"station_id":"ce4bhoh2rcd13ifvqh5g","pricing_plan_id":"cebpf4jnsgd1na2vs0mg"},{"bike_id":"ca763399-3ba5-42e2-bc34-25800c82fd73","system_id":"levelo_inurba_marseille","lat":43.30919,"lon":5.40155,"is_reserved":false,"is_disabled":false,"rental_uris":{"android":"levelo://app?vid=ca763399-3ba5-42e2-bc34-25800c82fd73","ios":"levelo://app?vid=ca763399-3ba5-42e2-bc34-25800c82fd73"},"vehicle_type_id":"4","last_reported":1731003124,"current_range_meters":38800,"station_id":"ce4bgvp2rcd13ifvqct0","pricing_plan_id":"cebpf4jnsgd1na2vs0mg"},{"bike_id":"9178d598-d5de-4d5c-85ae-0efa9377149a","system_id":"levelo_inurba_marseille","lat":43.23188,"lon":5.3998,"is_reserved":false,"is_disabled":false,"rental_uris":{"android":"levelo://app?vid=9178d598-d5de-4d5c-85ae-0efa9377149a","ios":"levelo://app?vid=9178d598-d5de-4d5c-85ae-0efa9377149a"},"vehicle_type_id":"4","last_reported":1731003124,"current_range_meters":20000,"station_id":"ce4bhn12rcd13ifvqgqg","pricing_plan_id":"cebpf4jnsgd1na2vs0mg"},{"bike_id":"a28c7768-889b-4bbd-a5b6-d7b80039efcd","system_id":"levelo_inurba_marseille","lat":43.28842,"lon":5.3932,"is_reserved":false,"is_disabled":false,"rental_uris":{"android":"levelo://app?vid=a28c7768-889b-4bbd-a5b6-d7b80039efcd","ios":"levelo://app?vid=a28c7768-889b-4bbd-a5b6-d7b80039efcd"},"vehicle_type_id":"4","last_reported":1731003124,"current_range_meters":38000,"station_id":"ce4bh2p2rcd13ifvqdi0","pricing_plan_id":"cebpf4jnsgd1na2vs0mg"},{"bike_id":"0f6720d0-0074-4d75-8954-368ef2125385","system_id":"levelo_inurba_marseille","lat":43.31732,"lon":5.37749,"is_reserved":false,"is_disabled":false,"rental_uris":{"android":"levelo://app?vid=0f6720d0-0074-4d75-8954-368ef2125385","ios":"levelo://app?vid=0f6720d0-0074-4d75-8954-368ef2125385"},"vehicle_type_id":"4","last_reported":1731003124,"current_range_meters":35200,"station_id":"ce4bgth2rcd13ifvqch0","pricing_plan_id":"cebpf4jnsgd1na2vs0mg"},{"bike_id":"53f46b84-45b7-4411-be62-aa0c41917550","system_id":"levelo_inurba_marseille","lat":43.30133,"lon":5.39882,"is_reserved":false,"is_disabled":false,"rental_uris":{"android":"levelo://app?vid=53f46b84-45b7-4411-be62-aa0c41917550","ios":"levelo://app?vid=53f46b84-45b7-4411-be62-aa0c41917550"},"vehicle_type_id":"4","last_reported":1731003124,"current_range_meters":19600,"station_id":"ce4bh0h2rcd13ifvqd40","pricing_plan_id":"cebpf4jnsgd1na2vs0mg"},{"bike_id":"fdf26527-6c0f-4b2a-b565-d41399ed3242","system_id":"levelo_inurba_marseille","lat":43.31537,"lon":5.3804,"is_reserved":false,"is_disabled":false,"rental_uris":{"android":"levelo://app?vid=fdf26527-6c0f-4b2a-b565-d41399ed3242","ios":"levelo://app?vid=fdf26527-6c0f-4b2a-b565-d41399ed3242"},"vehicle_type_id":"4","last_reported":1731003124,"current_range_meters":4800,"station_id":"ce4bhsp2rcd13ifvqi50","pricing_plan_id":"cebpf4jnsgd1na2vs0mg"},{"bike_id":"39a49672-befb-44d3-b560-9d6609ce1c88","system_id":"levelo_inurba_marseille","lat":43.30132,"lon":5.39858,"is_reserved":false,"is_disabled":false,"rental_uris":{"android":"levelo://app?vid=39a49672-befb-44d3-b560-9d6609ce1c88","ios":"levelo://app?vid=39a49672-befb-44d3-b560-9d6609ce1c88"},"vehicle_type_id":"4","last_reported":1731003124,"current_range_meters":39200,"station_id":"ce4bh0h2rcd13ifvqd40","pricing_plan_id":"cebpf4jnsgd1na2vs0mg"},{"bike_id":"a1419dd0-4643-4c3c-bbcd-e9d5dbc30536","system_id":"levelo_inurba_marseille","lat":43.30127,"lon":5.39854,"is_reserved":false,"is_disabled":false,"rental_uris":{"android":"levelo://app?vid=a1419dd0-4643-4c3c-bbcd-e9d5dbc30536","ios":"levelo://app?vid=a1419dd0-4643-4c3c-bbcd-e9d5dbc30536"},"vehicle_type_id":"4","last_reported":1731003124,"current_range_meters":18800,"station_id":"ce4bh0h2rcd13ifvqd40","pricing_plan_id":"cebpf4jnsgd1na2vs0mg"},{"bike_id":"227b6b47-9a28-4fd4-b4d4-5f279bc510ba","system_id":"levelo_inurba_marseille","lat":43.307267,"lon":5.382133,"is_reserved":false,"is_disabled":false,"rental_uris":{"android":"levelo://app?vid=227b6b47-9a28-4fd4-b4d4-5f279bc510ba","ios":"levelo://app?vid=227b6b47-9a28-4fd4-b4d4-5f279bc510ba"},"vehicle_type_id":"4","last_reported":1731003124,"current_range_meters":26000,"station_id":"ce4bh0p2rcd13ifvqd70","pricing_plan_id":"cebpf4jnsgd1na2vs0mg"},{"bike_id":"82ebc219-5932-4d44-983f-1783ad177edd","system_id":"levelo_inurba_marseille","lat":43.29686,"lon":5.37291,"is_reserved":false,"is_disabled":false,"rental_uris":{"android":"levelo://app?vid=82ebc219-5932-4d44-983f-1783ad177edd","ios":"levelo://app?vid=82ebc219-5932-4d44-983f-1783ad177edd"},"vehicle_type_id":"4","last_reported":1731003124,"current_range_meters":6800,"station_id":"ce4bgk12rcd13ifvqbj0","pricing_plan_id":"cebpf4jnsgd1na2vs0mg"},{"bike_id":"0993ae53-b33b-4ec0-8420-6942bdb9eb84","system_id":"levelo_inurba_marseille","lat":43.30791,"lon":5.43512,"is_reserved":false,"is_disabled":false,"rental_uris":{"android":"levelo://app?vid=0993ae53-b33b-4ec0-8420-6942bdb9eb84","ios":"levelo://app?vid=0993ae53-b33b-4ec0-8420-6942bdb9eb84"},"vehicle_type_id":"4","last_reported":1731003124,"current_range_meters":39200,"station_id":"ce4bhph2rcd13ifvqheg","pricing_plan_id":"cebpf4jnsgd1na2vs0mg"},{"bike_id":"49b092dd-a0cf-48dd-86a7-9e15aa373d4a","system_id":"levelo_inurba_marseille","lat":43.32474,"lon":5.36566,"is_reserved":false,"is_disabled":false,"rental_uris":{"android":"levelo://app?vid=49b092dd-a0cf-48dd-86a7-9e15aa373d4a","ios":"levelo://app?vid=49b092dd-a0cf-48dd-86a7-9e15aa373d4a"},"vehicle_type_id":"4","last_reported":1731003124,"current_range_meters":18000,"station_id":"ce4bhs12rcd13ifvqhvg","pricing_plan_id":"cebpf4jnsgd1na2vs0mg"},{"bike_id":"f2272917-66e4-42ae-84cc-f15f7f5dbf3b","system_id":"levelo_inurba_marseille","lat":43.31165,"lon":5.38716,"is_reserved":false,"is_disabled":false,"rental_uris":{"android":"levelo://app?vid=f2272917-66e4-42ae-84cc-f15f7f5dbf3b","ios":"levelo://app?vid=f2272917-66e4-42ae-84cc-f15f7f5dbf3b"},"vehicle_type_id":"4","last_reported":1731003124,"current_range_meters":9600,"station_id":"ce4bgv12rcd13ifvqcp0","pricing_plan_id":"cebpf4jnsgd1na2vs0mg"},{"bike_id":"bcbb8b4f-0b40-4a73-ba39-d99337986b2c","system_id":"levelo_inurba_marseille","lat":43.32118,"lon":5.36773,"is_reserved":false,"is_disabled":false,"rental_uris":{"android":"levelo://app?vid=bcbb8b4f-0b40-4a73-ba39-d99337986b2c","ios":"levelo://app?vid=bcbb8b4f-0b40-4a73-ba39-d99337986b2c"},"vehicle_type_id":"4","last_reported":1731003124,"current_range_meters":37600,"station_id":"ce4bhrh2rcd13ifvqhug","pricing_plan_id":"cebpf4jnsgd1na2vs0mg"},{"bike_id":"ec86512c-ed88-4614-afe5-960d32eaf26c","system_id":"levelo_inurba_marseille","lat":43.30277,"lon":5.39774,"is_reserved":false,"is_disabled":false,"rental_uris":{"android":"levelo://app?vid=ec86512c-ed88-4614-afe5-960d32eaf26c","ios":"levelo://app?vid=ec86512c-ed88-4614-afe5-960d32eaf26c"},"vehicle_type_id":"4","last_reported":1731003124,"current_range_meters":33600,"station_id":"","pricing_plan_id":"cebpf4jnsgd1na2vs0mg"},{"bike_id":"bd572909-429e-4d97-9ad8-87f8aff7a49b","system_id":"levelo_inurba_marseille","lat":43.29424,"lon":5.38626,"is_reserved":false,"is_disabled":false,"rental_uris":{"android":"levelo://app?vid=bd572909-429e-4d97-9ad8-87f8aff7a49b","ios":"levelo://app?vid=bd572909-429e-4d97-9ad8-87f8aff7a49b"},"vehicle_type_id":"4","last_reported":1731003124,"current_range_meters":3200,"station_id":"ce4bh2h2rcd13ifvqdh0","pricing_plan_id":"cebpf4jnsgd1na2vs0mg"},{"bike_id":"35b6e6be-f67d-4c3c-83b4-1d629b101568","system_id":"levelo_inurba_marseille","lat":43.27814,"lon":5.40718,"is_reserved":false,"is_disabled":false,"rental_uris":{"android":"levelo://app?vid=35b6e6be-f67d-4c3c-83b4-1d629b101568","ios":"levelo://app?vid=35b6e6be-f67d-4c3c-83b4-1d629b101568"},"vehicle_type_id":"4","last_reported":1731003124,"current_range_meters":31200,"station_id":"ce4bhnh2rcd13ifvqgtg","pricing_plan_id":"cebpf4jnsgd1na2vs0mg"},{"bike_id":"92bbe5af-b5d9-48fc-afb8-3b15fc8d3190","system_id":"levelo_inurba_marseille","lat":43.31718,"lon":5.42401,"is_reserved":false,"is_disabled":false,"rental_uris":{"android":"levelo://app?vid=92bbe5af-b5d9-48fc-afb8-3b15fc8d3190","ios":"levelo://app?vid=92bbe5af-b5d9-48fc-afb8-3b15fc8d3190"},"vehicle_type_id":"4","last_reported":1731003124,"current_range_meters":32800,"station_id":"ce4bhp92rcd13ifvqhbg","pricing_plan_id":"cebpf4jnsgd1na2vs0mg"},{"bike_id":"b89da140-c3b6-426f-a346-4fa42ea03fdf","system_id":"levelo_inurba_marseille","lat":43.28573,"lon":5.3949,"is_reserved":false,"is_disabled":false,"rental_uris":{"android":"levelo://app?vid=b89da140-c3b6-426f-a346-4fa42ea03fdf","ios":"levelo://app?vid=b89da140-c3b6-426f-a346-4fa42ea03fdf"},"vehicle_type_id":"4","last_reported":1731003124,"current_range_meters":33200,"station_id":"ce4bh292rcd13ifvqdg0","pricing_plan_id":"cebpf4jnsgd1na2vs0mg"},{"bike_id":"087c12e0-51d1-40d3-8796-641de37d21e4","system_id":"levelo_inurba_marseille","lat":43.28269,"lon":5.35075,"is_reserved":false,"is_disabled":false,"rental_uris":{"android":"levelo://app?vid=087c12e0-51d1-40d3-8796-641de37d21e4","ios":"levelo://app?vid=087c12e0-51d1-40d3-8796-641de37d21e4"},"vehicle_type_id":"4","last_reported":1731003124,"current_range_meters":4000,"station_id":"ce4bhbp2rcd13ifvqerg","pricing_plan_id":"cebpf4jnsgd1na2vs0mg"},{"bike_id":"6b793bbd-5954-4f81-bfef-fd4d8b2129e3","system_id":"levelo_inurba_marseille","lat":43.33724,"lon":5.39175,"is_reserved":false,"is_disabled":false,"rental_uris":{"android":"levelo://app?vid=6b793bbd-5954-4f81-bfef-fd4d8b2129e3","ios":"levelo://app?vid=6b793bbd-5954-4f81-bfef-fd4d8b2129e3"},"vehicle_type_id":"4","last_reported":1731003124,"current_range_meters":28400,"station_id":"ce4bhr92rcd13ifvqhsg","pricing_plan_id":"cebpf4jnsgd1na2vs0mg"},{"bike_id":"0366bdb5-16ac-4a75-93d2-d1f7e545a0e7","system_id":"levelo_inurba_marseille","lat":43.24668,"lon":5.38171,"is_reserved":false,"is_disabled":false,"rental_uris":{"android":"levelo://app?vid=0366bdb5-16ac-4a75-93d2-d1f7e545a0e7","ios":"levelo://app?vid=0366bdb5-16ac-4a75-93d2-d1f7e545a0e7"},"vehicle_type_id":"4","last_reported":1731003124,"current_range_meters":19600,"station_id":"ce4bhih2rcd13ifvqfr0","pricing_plan_id":"cebpf4jnsgd1na2vs0mg"},{"bike_id":"82249930-49fa-479f-bef4-f6fa9c7557f9","system_id":"levelo_inurba_marseille","lat":43.279985,"lon":5.400093,"is_reserved":false,"is_disabled":false,"rental_uris":{"android":"levelo://app?vid=82249930-49fa-479f-bef4-f6fa9c7557f9","ios":"levelo://app?vid=82249930-49fa-479f-bef4-f6fa9c7557f9"},"vehicle_type_id":"4","last_reported":1731003124,"current_range_meters":16000,"station_id":"ce4bho92rcd13ifvqh4g","pricing_plan_id":"cebpf4jnsgd1na2vs0mg"},{"bike_id":"6e6e001a-2d4b-4e63-8f57-413c2cf4540c","system_id":"levelo_inurba_marseille","lat":43.27915,"lon":5.39577,"is_reserved":false,"is_disabled":false,"rental_uris":{"android":"levelo://app?vid=6e6e001a-2d4b-4e63-8f57-413c2cf4540c","ios":"levelo://app?vid=6e6e001a-2d4b-4e63-8f57-413c2cf4540c"},"vehicle_type_id":"4","last_reported":1731003124,"current_range_meters":29600,"station_id":"ce4bhf92rcd13ifvqf40","pricing_plan_id":"cebpf4jnsgd1na2vs0mg"},{"bike_id":"4c361e07-e679-48b2-a634-b08738d10d74","system_id":"levelo_inurba_marseille","lat":43.28712,"lon":5.37412,"is_reserved":false,"is_disabled":false,"rental_uris":{"android":"levelo://app?vid=4c361e07-e679-48b2-a634-b08738d10d74","ios":"levelo://app?vid=4c361e07-e679-48b2-a634-b08738d10d74"},"vehicle_type_id":"4","last_reported":1731003124,"current_range_meters":38800,"station_id":"ce4bh3p2rcd13ifvqdq0","pricing_plan_id":"cebpf4jnsgd1na2vs0mg"},{"bike_id":"79a83e70-e43d-430f-abe3-782d3589814d","system_id":"levelo_inurba_marseille","lat":43.29029,"lon":5.3865,"is_reserved":false,"is_disabled":false,"rental_uris":{"android":"levelo://app?vid=79a83e70-e43d-430f-abe3-782d3589814d","ios":"levelo://app?vid=79a83e70-e43d-430f-abe3-782d3589814d"},"vehicle_type_id":"4","last_reported":1731003124,"current_range_meters":2000,"station_id":"ce4bh4p2rcd13ifvqe0g","pricing_plan_id":"cebpf4jnsgd1na2vs0mg"},{"bike_id":"032d4074-2170-4e34-9214-2ed0fe66f29c","system_id":"levelo_inurba_marseille","lat":43.28076,"lon":5.39664,"is_reserved":false,"is_disabled":false,"rental_uris":{"android":"levelo://app?vid=032d4074-2170-4e34-9214-2ed0fe66f29c","ios":"levelo://app?vid=032d4074-2170-4e34-9214-2ed0fe66f29c"},"vehicle_type_id":"4","last_reported":1731003124,"current_range_meters":16400,"station_id":"ce4bho12rcd13ifvqh2g","pricing_plan_id":"cebpf4jnsgd1na2vs0mg"},{"bike_id":"26ee007d-c521-4271-a726-fe0c9aeca07e","system_id":"levelo_inurba_marseille","lat":43.33113,"lon":5.3822,"is_reserved":false,"is_disabled":false,"rental_uris":{"android":"levelo://app?vid=26ee007d-c521-4271-a726-fe0c9aeca07e","ios":"levelo://app?vid=26ee007d-c521-4271-a726-fe0c9aeca07e"},"vehicle_type_id":"4","last_reported":1731003124,"current_range_meters":7200,"station_id":"","pricing_plan_id":"cebpf4jnsgd1na2vs0mg"},{"bike_id":"f2dffc67-356e-4a74-8069-85edbcb6981d","system_id":"levelo_inurba_marseille","lat":43.24804,"lon":5.37458,"is_reserved":false,"is_disabled":false,"rental_uris":{"android":"levelo://app?vid=f2dffc67-356e-4a74-8069-85edbcb6981d","ios":"levelo://app?vid=f2dffc67-356e-4a74-8069-85edbcb6981d"},"vehicle_type_id":"4","last_reported":1731003124,"current_range_meters":9600,"station_id":"ce4bhgh2rcd13ifvqfb0","pricing_plan_id":"cebpf4jnsgd1na2vs0mg"},{"bike_id":"7e02be68-6753-41d9-adcd-443fd738b253","system_id":"levelo_inurba_marseille","lat":43.24662,"lon":5.38164,"is_reserved":false,"is_disabled":false,"rental_uris":{"android":"levelo://app?vid=7e02be68-6753-41d9-adcd-443fd738b253","ios":"levelo://app?vid=7e02be68-6753-41d9-adcd-443fd738b253"},"vehicle_type_id":"4","last_reported":1731003124,"current_range_meters":31200,"station_id":"ce4bhih2rcd13ifvqfr0","pricing_plan_id":"cebpf4jnsgd1na2vs0mg"},{"bike_id":"0fcdfcbb-8978-49f6-b022-06cb7babfb17","system_id":"levelo_inurba_marseille","lat":43.28706,"lon":5.39982,"is_reserved":false,"is_disabled":false,"rental_uris":{"android":"levelo://app?vid=0fcdfcbb-8978-49f6-b022-06cb7babfb17","ios":"levelo://app?vid=0fcdfcbb-8978-49f6-b022-06cb7babfb17"},"vehicle_type_id":"4","last_reported":1731003124,"current_range_meters":9600,"station_id":"ce4bho92rcd13ifvqh3g","pricing_plan_id":"cebpf4jnsgd1na2vs0mg"},{"bike_id":"e4ce18c1-f0d1-4853-8513-93a558b7b11d","system_id":"levelo_inurba_marseille","lat":43.297047,"lon":5.365874,"is_reserved":false,"is_disabled":false,"rental_uris":{"android":"levelo://app?vid=e4ce18c1-f0d1-4853-8513-93a558b7b11d","ios":"levelo://app?vid=e4ce18c1-f0d1-4853-8513-93a558b7b11d"},"vehicle_type_id":"4","last_reported":1731003124,"current_range_meters":23200,"station_id":"ce4bgn12rcd13ifvqbt0","pricing_plan_id":"cebpf4jnsgd1na2vs0mg"},{"bike_id":"db3be9b5-b5a1-496d-96ee-f20bdda12379","system_id":"levelo_inurba_marseille","lat":43.2967,"lon":5.37296,"is_reserved":false,"is_disabled":false,"rental_uris":{"android":"levelo://app?vid=db3be9b5-b5a1-496d-96ee-f20bdda12379","ios":"levelo://app?vid=db3be9b5-b5a1-496d-96ee-f20bdda12379"},"vehicle_type_id":"4","last_reported":1731003124,"current_range_meters":13600,"station_id":"ce4bgk12rcd13ifvqbj0","pricing_plan_id":"cebpf4jnsgd1na2vs0mg"},{"bike_id":"dfcf3015-64e1-4c73-9065-23a58d1a316f","system_id":"levelo_inurba_marseille","lat":43.337444,"lon":5.374475,"is_reserved":false,"is_disabled":false,"rental_uris":{"android":"levelo://app?vid=dfcf3015-64e1-4c73-9065-23a58d1a316f","ios":"levelo://app?vid=dfcf3015-64e1-4c73-9065-23a58d1a316f"},"vehicle_type_id":"4","last_reported":1731003124,"current_range_meters":33600,"station_id":"","pricing_plan_id":"cebpf4jnsgd1na2vs0mg"},{"bike_id":"1e803bdd-3770-48c7-9e72-71ce7c6ba7a7","system_id":"levelo_inurba_marseille","lat":43.24673,"lon":5.38156,"is_reserved":false,"is_disabled":false,"rental_uris":{"android":"levelo://app?vid=1e803bdd-3770-48c7-9e72-71ce7c6ba7a7","ios":"levelo://app?vid=1e803bdd-3770-48c7-9e72-71ce7c6ba7a7"},"vehicle_type_id":"4","last_reported":1731003124,"current_range_meters":20400,"station_id":"ce4bhih2rcd13ifvqfr0","pricing_plan_id":"cebpf4jnsgd1na2vs0mg"},{"bike_id":"1a4da3d4-5f38-4038-87f3-4fe4d4322da2","system_id":"levelo_inurba_marseille","lat":43.28274,"lon":5.35069,"is_reserved":false,"is_disabled":false,"rental_uris":{"android":"levelo://app?vid=1a4da3d4-5f38-4038-87f3-4fe4d4322da2","ios":"levelo://app?vid=1a4da3d4-5f38-4038-87f3-4fe4d4322da2"},"vehicle_type_id":"4","last_reported":1731003124,"current_range_meters":8400,"station_id":"ce4bhbp2rcd13ifvqerg","pricing_plan_id":"cebpf4jnsgd1na2vs0mg"},{"bike_id":"ddedc5e3-265f-42ee-8eae-f6e64ec71e7a","system_id":"levelo_inurba_marseille","lat":43.296051,"lon":5.404433,"is_reserved":false,"is_disabled":false,"rental_uris":{"android":"levelo://app?vid=ddedc5e3-265f-42ee-8eae-f6e64ec71e7a","ios":"levelo://app?vid=ddedc5e3-265f-42ee-8eae-f6e64ec71e7a"},"vehicle_type_id":"4","last_reported":1731003124,"current_range_meters":17200,"station_id":"ce4bhp12rcd13ifvqh9g","pricing_plan_id":"cebpf4jnsgd1na2vs0mg"},{"bike_id":"ab4310e9-3c36-4cf2-ba69-f21f6884a694","system_id":"levelo_inurba_marseille","lat":43.28277,"lon":5.35079,"is_reserved":false,"is_disabled":false,"rental_uris":{"android":"levelo://app?vid=ab4310e9-3c36-4cf2-ba69-f21f6884a694","ios":"levelo://app?vid=ab4310e9-3c36-4cf2-ba69-f21f6884a694"},"vehicle_type_id":"4","last_reported":1731003124,"current_range_meters":38800,"station_id":"ce4bhbp2rcd13ifvqerg","pricing_plan_id":"cebpf4jnsgd1na2vs0mg"},{"bike_id":"595b5542-527c-401a-aa84-a350467429ed","system_id":"levelo_inurba_marseille","lat":43.28726,"lon":5.36084,"is_reserved":false,"is_disabled":false,"rental_uris":{"android":"levelo://app?vid=595b5542-527c-401a-aa84-a350467429ed","ios":"levelo://app?vid=595b5542-527c-401a-aa84-a350467429ed"},"vehicle_type_id":"4","last_reported":1731003124,"current_range_meters":37600,"station_id":"cki0cbj6b192h4jlfktg","pricing_plan_id":"cebpf4jnsgd1na2vs0mg"},{"bike_id":"f9e0e860-b179-4625-a59c-99869d49b901","system_id":"levelo_inurba_marseille","lat":43.295311,"lon":5.38543,"is_reserved":false,"is_disabled":false,"rental_uris":{"android":"levelo://app?vid=f9e0e860-b179-4625-a59c-99869d49b901","ios":"levelo://app?vid=f9e0e860-b179-4625-a59c-99869d49b901"},"vehicle_type_id":"4","last_reported":1731003124,"current_range_meters":8400,"station_id":"ce4bgih2rcd13ifvqba0","pricing_plan_id":"cebpf4jnsgd1na2vs0mg"},{"bike_id":"e9c8a630-2d73-4117-9bf7-aca5570a0743","system_id":"levelo_inurba_marseille","lat":43.23182,"lon":5.39994,"is_reserved":false,"is_disabled":false,"rental_uris":{"android":"levelo://app?vid=e9c8a630-2d73-4117-9bf7-aca5570a0743","ios":"levelo://app?vid=e9c8a630-2d73-4117-9bf7-aca5570a0743"},"vehicle_type_id":"4","last_reported":1731003124,"current_range_meters":38800,"station_id":"ce4bhn12rcd13ifvqgqg","pricing_plan_id":"cebpf4jnsgd1na2vs0mg"},{"bike_id":"f24105d9-ae0c-4434-b8b9-2eeb31afa2b6","system_id":"levelo_inurba_marseille","lat":43.3095,"lon":5.39034,"is_reserved":false,"is_disabled":false,"rental_uris":{"android":"levelo://app?vid=f24105d9-ae0c-4434-b8b9-2eeb31afa2b6","ios":"levelo://app?vid=f24105d9-ae0c-4434-b8b9-2eeb31afa2b6"},"vehicle_type_id":"4","last_reported":1731003124,"current_range_meters":10800,"station_id":"ce4bgup2rcd13ifvqco0","pricing_plan_id":"cebpf4jnsgd1na2vs0mg"},{"bike_id":"a0121c66-97d1-4700-b689-0769c61f0b5e","system_id":"levelo_inurba_marseille","lat":43.28071,"lon":5.39655,"is_reserved":false,"is_disabled":false,"rental_uris":{"android":"levelo://app?vid=a0121c66-97d1-4700-b689-0769c61f0b5e","ios":"levelo://app?vid=a0121c66-97d1-4700-b689-0769c61f0b5e"},"vehicle_type_id":"4","last_reported":1731003124,"current_range_meters":10800,"station_id":"ce4bho12rcd13ifvqh2g","pricing_plan_id":"cebpf4jnsgd1na2vs0mg"},{"bike_id":"e6d0ad3c-ae92-456e-a412-f5ce46062196","system_id":"levelo_inurba_marseille","lat":43.25077,"lon":5.39493,"is_reserved":false,"is_disabled":false,"rental_uris":{"android":"levelo://app?vid=e6d0ad3c-ae92-456e-a412-f5ce46062196","ios":"levelo://app?vid=e6d0ad3c-ae92-456e-a412-f5ce46062196"},"vehicle_type_id":"4","last_reported":1731003124,"current_range_meters":24400,"station_id":"ce4bhm12rcd13ifvqgkg","pricing_plan_id":"cebpf4jnsgd1na2vs0mg"},{"bike_id":"5082748c-4f62-4b73-849f-d9d3bcc8091b","system_id":"levelo_inurba_marseille","lat":43.2621,"lon":5.37443,"is_reserved":false,"is_disabled":false,"rental_uris":{"android":"levelo://app?vid=5082748c-4f62-4b73-849f-d9d3bcc8091b","ios":"levelo://app?vid=5082748c-4f62-4b73-849f-d9d3bcc8091b"},"vehicle_type_id":"4","last_reported":1731003124,"current_range_meters":23200,"station_id":"ce4bhgp2rcd13ifvqfc0","pricing_plan_id":"cebpf4jnsgd1na2vs0mg"},{"bike_id":"774826ea-966a-460a-aece-e791a5be5038","system_id":"levelo_inurba_marseille","lat":43.25581,"lon":5.38235,"is_reserved":false,"is_disabled":false,"rental_uris":{"android":"levelo://app?vid=774826ea-966a-460a-aece-e791a5be5038","ios":"levelo://app?vid=774826ea-966a-460a-aece-e791a5be5038"},"vehicle_type_id":"4","last_reported":1731003124,"current_range_meters":9200,"station_id":"ce4bhih2rcd13ifvqfs0","pricing_plan_id":"cebpf4jnsgd1na2vs0mg"},{"bike_id":"79d52c0f-d1cd-4104-b7b0-1077bd5bf860","system_id":"levelo_inurba_marseille","lat":43.281566,"lon":5.426454,"is_reserved":false,"is_disabled":false,"rental_uris":{"android":"levelo://app?vid=79d52c0f-d1cd-4104-b7b0-1077bd5bf860","ios":"levelo://app?vid=79d52c0f-d1cd-4104-b7b0-1077bd5bf860"},"vehicle_type_id":"4","last_reported":1731003124,"current_range_meters":39200,"station_id":"ce4bhnh2rcd13ifvqgug","pricing_plan_id":"cebpf4jnsgd1na2vs0mg"},{"bike_id":"0e65a751-1254-4d73-ba68-a3930f19cf5e","system_id":"levelo_inurba_marseille","lat":43.33028,"lon":5.39043,"is_reserved":false,"is_disabled":false,"rental_uris":{"android":"levelo://app?vid=0e65a751-1254-4d73-ba68-a3930f19cf5e","ios":"levelo://app?vid=0e65a751-1254-4d73-ba68-a3930f19cf5e"},"vehicle_type_id":"4","last_reported":1731003124,"current_range_meters":39200,"station_id":"ce4bhr92rcd13ifvqhrg","pricing_plan_id":"cebpf4jnsgd1na2vs0mg"},{"bike_id":"cb3bbfe8-eb15-4cf2-b9b1-50cc4da0eb6a","system_id":"levelo_inurba_marseille","lat":43.26808,"lon":5.40266,"is_reserved":false,"is_disabled":false,"rental_uris":{"android":"levelo://app?vid=cb3bbfe8-eb15-4cf2-b9b1-50cc4da0eb6a","ios":"levelo://app?vid=cb3bbfe8-eb15-4cf2-b9b1-50cc4da0eb6a"},"vehicle_type_id":"4","last_reported":1731003124,"current_range_meters":3200,"station_id":"ce501612rcd8frsf0b60","pricing_plan_id":"cebpf4jnsgd1na2vs0mg"},{"bike_id":"be16878b-2944-4903-b0da-8d02aded3ffb","system_id":"levelo_inurba_marseille","lat":43.245547,"lon":5.39486,"is_reserved":false,"is_disabled":false,"rental_uris":{"android":"levelo://app?vid=be16878b-2944-4903-b0da-8d02aded3ffb","ios":"levelo://app?vid=be16878b-2944-4903-b0da-8d02aded3ffb"},"vehicle_type_id":"4","last_reported":1731003124,"current_range_meters":27200,"station_id":"ce4bhlp2rcd13ifvqgjg","pricing_plan_id":"cebpf4jnsgd1na2vs0mg"},{"bike_id":"2a99cadc-e566-461e-b399-e00ac0e9f094","system_id":"levelo_inurba_marseille","lat":43.25587,"lon":5.38227,"is_reserved":false,"is_disabled":false,"rental_uris":{"android":"levelo://app?vid=2a99cadc-e566-461e-b399-e00ac0e9f094","ios":"levelo://app?vid=2a99cadc-e566-461e-b399-e00ac0e9f094"},"vehicle_type_id":"4","last_reported":1731003124,"current_range_meters":39200,"station_id":"ce4bhih2rcd13ifvqfs0","pricing_plan_id":"cebpf4jnsgd1na2vs0mg"},{"bike_id":"2601a4a5-f7a6-43c0-9d1f-9261f8a0f7a5","system_id":"levelo_inurba_marseille","lat":43.27915,"lon":5.39581,"is_reserved":false,"is_disabled":false,"rental_uris":{"android":"levelo://app?vid=2601a4a5-f7a6-43c0-9d1f-9261f8a0f7a5","ios":"levelo://app?vid=2601a4a5-f7a6-43c0-9d1f-9261f8a0f7a5"},"vehicle_type_id":"4","last_reported":1731003124,"current_range_meters":8400,"station_id":"ce4bhf92rcd13ifvqf40","pricing_plan_id":"cebpf4jnsgd1na2vs0mg"},{"bike_id":"27c72b0f-5938-4132-9291-fafd39748705","system_id":"levelo_inurba_marseille","lat":43.28456,"lon":5.35888,"is_reserved":false,"is_disabled":false,"rental_uris":{"android":"levelo://app?vid=27c72b0f-5938-4132-9291-fafd39748705","ios":"levelo://app?vid=27c72b0f-5938-4132-9291-fafd39748705"},"vehicle_type_id":"4","last_reported":1731003124,"current_range_meters":6000,"station_id":"ce4bhah2rcd13ifvqei0","pricing_plan_id":"cebpf4jnsgd1na2vs0mg"},{"bike_id":"bfd1b0d0-ddfc-4178-96a4-d2a79cc068e9","system_id":"levelo_inurba_marseille","lat":43.29667,"lon":5.37296,"is_reserved":false,"is_disabled":false,"rental_uris":{"android":"levelo://app?vid=bfd1b0d0-ddfc-4178-96a4-d2a79cc068e9","ios":"levelo://app?vid=bfd1b0d0-ddfc-4178-96a4-d2a79cc068e9"},"vehicle_type_id":"4","last_reported":1731003124,"current_range_meters":27600,"station_id":"ce4bgk12rcd13ifvqbj0","pricing_plan_id":"cebpf4jnsgd1na2vs0mg"},{"bike_id":"31c780e0-87de-4878-b279-05ae02ba59b1","system_id":"levelo_inurba_marseille","lat":43.28728,"lon":5.36078,"is_reserved":false,"is_disabled":false,"rental_uris":{"android":"levelo://app?vid=31c780e0-87de-4878-b279-05ae02ba59b1","ios":"levelo://app?vid=31c780e0-87de-4878-b279-05ae02ba59b1"},"vehicle_type_id":"4","last_reported":1731003124,"current_range_meters":24400,"station_id":"cki0cbj6b192h4jlfktg","pricing_plan_id":"cebpf4jnsgd1na2vs0mg"},{"bike_id":"48c46658-8011-4da9-9b69-4a0242fcee8e","system_id":"levelo_inurba_marseille","lat":43.26681,"lon":5.38272,"is_reserved":false,"is_disabled":false,"rental_uris":{"android":"levelo://app?vid=48c46658-8011-4da9-9b69-4a0242fcee8e","ios":"levelo://app?vid=48c46658-8011-4da9-9b69-4a0242fcee8e"},"vehicle_type_id":"4","last_reported":1731003124,"current_range_meters":20400,"station_id":"ce4bhg92rcd13ifvqf90","pricing_plan_id":"cebpf4jnsgd1na2vs0mg"},{"bike_id":"d3e54780-ddfb-432e-bfd3-55d19e8c43c8","system_id":"levelo_inurba_marseille","lat":43.31754,"lon":5.39012,"is_reserved":false,"is_disabled":false,"rental_uris":{"android":"levelo://app?vid=d3e54780-ddfb-432e-bfd3-55d19e8c43c8","ios":"levelo://app?vid=d3e54780-ddfb-432e-bfd3-55d19e8c43c8"},"vehicle_type_id":"4","last_reported":1731003124,"current_range_meters":30000,"station_id":"ce4bhqp2rcd13ifvqhng","pricing_plan_id":"cebpf4jnsgd1na2vs0mg"},{"bike_id":"f48ced8d-222f-42c7-a912-0f18b0eecc42","system_id":"levelo_inurba_marseille","lat":43.32111,"lon":5.36767,"is_reserved":false,"is_disabled":false,"rental_uris":{"android":"levelo://app?vid=f48ced8d-222f-42c7-a912-0f18b0eecc42","ios":"levelo://app?vid=f48ced8d-222f-42c7-a912-0f18b0eecc42"},"vehicle_type_id":"4","last_reported":1731003124,"current_range_meters":20400,"station_id":"ce4bhrh2rcd13ifvqhug","pricing_plan_id":"cebpf4jnsgd1na2vs0mg"},{"bike_id":"f6240ba0-900a-4bbb-b767-16165ed8fd4d","system_id":"levelo_inurba_marseille","lat":43.31319,"lon":5.39694,"is_reserved":false,"is_disabled":false,"rental_uris":{"android":"levelo://app?vid=f6240ba0-900a-4bbb-b767-16165ed8fd4d","ios":"levelo://app?vid=f6240ba0-900a-4bbb-b767-16165ed8fd4d"},"vehicle_type_id":"4","last_reported":1731003124,"current_range_meters":16400,"station_id":"ce4bgvp2rcd13ifvqcu0","pricing_plan_id":"cebpf4jnsgd1na2vs0mg"},{"bike_id":"82b97aae-830e-4430-ae99-7cef8ad2c993","system_id":"levelo_inurba_marseille","lat":43.337444,"lon":5.374475,"is_reserved":false,"is_disabled":false,"rental_uris":{"android":"levelo://app?vid=82b97aae-830e-4430-ae99-7cef8ad2c993","ios":"levelo://app?vid=82b97aae-830e-4430-ae99-7cef8ad2c993"},"vehicle_type_id":"4","last_reported":1731003124,"current_range_meters":35600,"station_id":"","pricing_plan_id":"cebpf4jnsgd1na2vs0mg"},{"bike_id":"3971fa10-e036-45be-b0a3-d36e00cbd28b","system_id":"levelo_inurba_marseille","lat":43.31074,"lon":5.3835,"is_reserved":false,"is_disabled":false,"rental_uris":{"android":"levelo://app?vid=3971fa10-e036-45be-b0a3-d36e00cbd28b","ios":"levelo://app?vid=3971fa10-e036-45be-b0a3-d36e00cbd28b"},"vehicle_type_id":"4","last_reported":1731003124,"current_range_meters":28000,"station_id":"ce4bgv92rcd13ifvqcr0","pricing_plan_id":"cebpf4jnsgd1na2vs0mg"},{"bike_id":"e11f2957-c866-431f-b50b-d0178644b09f","system_id":"levelo_inurba_marseille","lat":43.2319,"lon":5.39983,"is_reserved":false,"is_disabled":false,"rental_uris":{"android":"levelo://app?vid=e11f2957-c866-431f-b50b-d0178644b09f","ios":"levelo://app?vid=e11f2957-c866-431f-b50b-d0178644b09f"},"vehicle_type_id":"4","last_reported":1731003124,"current_range_meters":40000,"station_id":"ce4bhn12rcd13ifvqgqg","pricing_plan_id":"cebpf4jnsgd1na2vs0mg"},{"bike_id":"e97817e3-857c-4e4f-a2df-09e460e32ea0","system_id":"levelo_inurba_marseille","lat":43.32364,"lon":5.38881,"is_reserved":false,"is_disabled":false,"rental_uris":{"android":"levelo://app?vid=e97817e3-857c-4e4f-a2df-09e460e32ea0","ios":"levelo://app?vid=e97817e3-857c-4e4f-a2df-09e460e32ea0"},"vehicle_type_id":"4","last_reported":1731003124,"current_range_meters":7200,"station_id":"ce4bhqp2rcd13ifvqhog","pricing_plan_id":"cebpf4jnsgd1na2vs0mg"},{"bike_id":"8befa393-3872-493a-9a5d-6005d6827670","system_id":"levelo_inurba_marseille","lat":43.33735,"lon":5.39175,"is_reserved":false,"is_disabled":false,"rental_uris":{"android":"levelo://app?vid=8befa393-3872-493a-9a5d-6005d6827670","ios":"levelo://app?vid=8befa393-3872-493a-9a5d-6005d6827670"},"vehicle_type_id":"4","last_reported":1731003124,"current_range_meters":39200,"station_id":"ce4bhr92rcd13ifvqhsg","pricing_plan_id":"cebpf4jnsgd1na2vs0mg"},{"bike_id":"0d0ff24e-86ec-4f53-a53e-729084bc5fd4","system_id":"levelo_inurba_marseille","lat":43.28409,"lon":5.37514,"is_reserved":false,"is_disabled":false,"rental_uris":{"android":"levelo://app?vid=0d0ff24e-86ec-4f53-a53e-729084bc5fd4","ios":"levelo://app?vid=0d0ff24e-86ec-4f53-a53e-729084bc5fd4"},"vehicle_type_id":"4","last_reported":1731003124,"current_range_meters":12400,"station_id":"ce4bh412rcd13ifvqds0","pricing_plan_id":"cebpf4jnsgd1na2vs0mg"},{"bike_id":"75b94260-785a-4b7b-b7ac-a6131b897a7e","system_id":"levelo_inurba_marseille","lat":43.24075,"lon":5.37762,"is_reserved":false,"is_disabled":false,"rental_uris":{"android":"levelo://app?vid=75b94260-785a-4b7b-b7ac-a6131b897a7e","ios":"levelo://app?vid=75b94260-785a-4b7b-b7ac-a6131b897a7e"},"vehicle_type_id":"4","last_reported":1731003124,"current_range_meters":22400,"station_id":"ce4bhnp2rcd13ifvqgvg","pricing_plan_id":"cebpf4jnsgd1na2vs0mg"},{"bike_id":"8df542a5-2fc0-461f-a704-87b523dfbe44","system_id":"levelo_inurba_marseille","lat":43.29028,"lon":5.38653,"is_reserved":false,"is_disabled":false,"rental_uris":{"android":"levelo://app?vid=8df542a5-2fc0-461f-a704-87b523dfbe44","ios":"levelo://app?vid=8df542a5-2fc0-461f-a704-87b523dfbe44"},"vehicle_type_id":"4","last_reported":1731003124,"current_range_meters":23200,"station_id":"ce4bh4p2rcd13ifvqe0g","pricing_plan_id":"cebpf4jnsgd1na2vs0mg"},{"bike_id":"a7d16c9a-f939-41f1-8e45-aad2b558ff2a","system_id":"levelo_inurba_marseille","lat":43.30155,"lon":5.38851,"is_reserved":false,"is_disabled":false,"rental_uris":{"android":"levelo://app?vid=a7d16c9a-f939-41f1-8e45-aad2b558ff2a","ios":"levelo://app?vid=a7d16c9a-f939-41f1-8e45-aad2b558ff2a"},"vehicle_type_id":"4","last_reported":1731003124,"current_range_meters":31200,"station_id":"ce4bh112rcd13ifvqda0","pricing_plan_id":"cebpf4jnsgd1na2vs0mg"},{"bike_id":"c11dcc2f-2a15-4349-9a07-037ad2cda36c","system_id":"levelo_inurba_marseille","lat":43.30426,"lon":5.388925,"is_reserved":false,"is_disabled":false,"rental_uris":{"android":"levelo://app?vid=c11dcc2f-2a15-4349-9a07-037ad2cda36c","ios":"levelo://app?vid=c11dcc2f-2a15-4349-9a07-037ad2cda36c"},"vehicle_type_id":"4","last_reported":1731003124,"current_range_meters":24800,"station_id":"ce4bgv12rcd13ifvqcp0","pricing_plan_id":"cebpf4jnsgd1na2vs0mg"},{"bike_id":"5b029729-1b9a-4a05-93bb-5675f79339f8","system_id":"levelo_inurba_marseille","lat":43.29272,"lon":5.36846,"is_reserved":false,"is_disabled":false,"rental_uris":{"android":"levelo://app?vid=5b029729-1b9a-4a05-93bb-5675f79339f8","ios":"levelo://app?vid=5b029729-1b9a-4a05-93bb-5675f79339f8"},"vehicle_type_id":"4","last_reported":1731003124,"current_range_meters":38800,"station_id":"ce4bhbp2rcd13ifvqesg","pricing_plan_id":"cebpf4jnsgd1na2vs0mg"},{"bike_id":"9f845d93-6bd2-4f0f-a836-9ddf5aa70670","system_id":"levelo_inurba_marseille","lat":43.30949,"lon":5.39034,"is_reserved":false,"is_disabled":false,"rental_uris":{"android":"levelo://app?vid=9f845d93-6bd2-4f0f-a836-9ddf5aa70670","ios":"levelo://app?vid=9f845d93-6bd2-4f0f-a836-9ddf5aa70670"},"vehicle_type_id":"4","last_reported":1731003124,"current_range_meters":28800,"station_id":"ce4bgup2rcd13ifvqco0","pricing_plan_id":"cebpf4jnsgd1na2vs0mg"},{"bike_id":"f2c98f04-ea49-496d-a0e4-9927339047a2","system_id":"levelo_inurba_marseille","lat":43.29622,"lon":5.37167,"is_reserved":false,"is_disabled":false,"rental_uris":{"android":"levelo://app?vid=f2c98f04-ea49-496d-a0e4-9927339047a2","ios":"levelo://app?vid=f2c98f04-ea49-496d-a0e4-9927339047a2"},"vehicle_type_id":"4","last_reported":1731003124,"current_range_meters":39200,"station_id":"ce4bgnh2rcd13ifvqc0g","pricing_plan_id":"cebpf4jnsgd1na2vs0mg"},{"bike_id":"fe7e3579-a119-400b-8f17-3c2acef46518","system_id":"levelo_inurba_marseille","lat":43.24994,"lon":5.40287,"is_reserved":false,"is_disabled":false,"rental_uris":{"android":"levelo://app?vid=fe7e3579-a119-400b-8f17-3c2acef46518","ios":"levelo://app?vid=fe7e3579-a119-400b-8f17-3c2acef46518"},"vehicle_type_id":"4","last_reported":1731003124,"current_range_meters":24000,"station_id":"ce4bhlh2rcd13ifvqgig","pricing_plan_id":"cebpf4jnsgd1na2vs0mg"},{"bike_id":"939a1012-d6ec-4aac-aa31-e841d479600a","system_id":"levelo_inurba_marseille","lat":43.31118,"lon":5.37775,"is_reserved":false,"is_disabled":false,"rental_uris":{"android":"levelo://app?vid=939a1012-d6ec-4aac-aa31-e841d479600a","ios":"levelo://app?vid=939a1012-d6ec-4aac-aa31-e841d479600a"},"vehicle_type_id":"4","last_reported":1731003124,"current_range_meters":23200,"station_id":"ce4bgt92rcd13ifvqcg0","pricing_plan_id":"cebpf4jnsgd1na2vs0mg"},{"bike_id":"8f81d04f-0cbb-4276-9a50-e5da464ca0dd","system_id":"levelo_inurba_marseille","lat":43.25088,"lon":5.39519,"is_reserved":false,"is_disabled":false,"rental_uris":{"android":"levelo://app?vid=8f81d04f-0cbb-4276-9a50-e5da464ca0dd","ios":"levelo://app?vid=8f81d04f-0cbb-4276-9a50-e5da464ca0dd"},"vehicle_type_id":"4","last_reported":1731003124,"current_range_meters":38800,"station_id":"ce4bhm12rcd13ifvqgkg","pricing_plan_id":"cebpf4jnsgd1na2vs0mg"},{"bike_id":"ff90f044-b67a-4b64-a278-2703b27d5b23","system_id":"levelo_inurba_marseille","lat":43.28538,"lon":5.3778,"is_reserved":false,"is_disabled":false,"rental_uris":{"android":"levelo://app?vid=ff90f044-b67a-4b64-a278-2703b27d5b23","ios":"levelo://app?vid=ff90f044-b67a-4b64-a278-2703b27d5b23"},"vehicle_type_id":"4","last_reported":1731003124,"current_range_meters":24800,"station_id":"","pricing_plan_id":"cebpf4jnsgd1na2vs0mg"},{"bike_id":"b7fe6014-4664-4f7c-8a9b-560c569d17fe","system_id":"levelo_inurba_marseille","lat":43.29026,"lon":5.38646,"is_reserved":false,"is_disabled":false,"rental_uris":{"android":"levelo://app?vid=b7fe6014-4664-4f7c-8a9b-560c569d17fe","ios":"levelo://app?vid=b7fe6014-4664-4f7c-8a9b-560c569d17fe"},"vehicle_type_id":"4","last_reported":1731003124,"current_range_meters":15200,"station_id":"ce4bh4p2rcd13ifvqe0g","pricing_plan_id":"cebpf4jnsgd1na2vs0mg"},{"bike_id":"9b5c6175-fdca-4d6f-94d8-8fb34e0267d9","system_id":"levelo_inurba_marseille","lat":43.24074,"lon":5.37762,"is_reserved":false,"is_disabled":false,"rental_uris":{"android":"levelo://app?vid=9b5c6175-fdca-4d6f-94d8-8fb34e0267d9","ios":"levelo://app?vid=9b5c6175-fdca-4d6f-94d8-8fb34e0267d9"},"vehicle_type_id":"4","last_reported":1731003124,"current_range_meters":34000,"station_id":"ce4bhnp2rcd13ifvqgvg","pricing_plan_id":"cebpf4jnsgd1na2vs0mg"},{"bike_id":"9b02f56e-5bad-4ba2-bea5-5c8ed470eb2b","system_id":"levelo_inurba_marseille","lat":43.28936,"lon":5.38383,"is_reserved":false,"is_disabled":false,"rental_uris":{"android":"levelo://app?vid=9b02f56e-5bad-4ba2-bea5-5c8ed470eb2b","ios":"levelo://app?vid=9b02f56e-5bad-4ba2-bea5-5c8ed470eb2b"},"vehicle_type_id":"4","last_reported":1731003124,"current_range_meters":28000,"station_id":"ce4bh612rcd13ifvqe6g","pricing_plan_id":"cebpf4jnsgd1na2vs0mg"},{"bike_id":"74a57a09-403d-48eb-be12-7bdece1e2a42","system_id":"levelo_inurba_marseille","lat":43.317198,"lon":5.42394,"is_reserved":false,"is_disabled":false,"rental_uris":{"android":"levelo://app?vid=74a57a09-403d-48eb-be12-7bdece1e2a42","ios":"levelo://app?vid=74a57a09-403d-48eb-be12-7bdece1e2a42"},"vehicle_type_id":"4","last_reported":1731003124,"current_range_meters":6000,"station_id":"ce4bhp92rcd13ifvqhbg","pricing_plan_id":"cebpf4jnsgd1na2vs0mg"},{"bike_id":"7cb37c0c-d9ad-439f-9960-82ef3da545fa","system_id":"levelo_inurba_marseille","lat":43.29038,"lon":5.37559,"is_reserved":false,"is_disabled":false,"rental_uris":{"android":"levelo://app?vid=7cb37c0c-d9ad-439f-9960-82ef3da545fa","ios":"levelo://app?vid=7cb37c0c-d9ad-439f-9960-82ef3da545fa"},"vehicle_type_id":"4","last_reported":1731003124,"current_range_meters":26000,"station_id":"ce4bh692rcd13ifvqe90","pricing_plan_id":"cebpf4jnsgd1na2vs0mg"},{"bike_id":"45836ad7-2e92-4f2f-9fe7-fb3e6b64650d","system_id":"levelo_inurba_marseille","lat":43.28728,"lon":5.36091,"is_reserved":false,"is_disabled":false,"rental_uris":{"android":"levelo://app?vid=45836ad7-2e92-4f2f-9fe7-fb3e6b64650d","ios":"levelo://app?vid=45836ad7-2e92-4f2f-9fe7-fb3e6b64650d"},"vehicle_type_id":"4","last_reported":1731003124,"current_range_meters":38800,"station_id":"cki0cbj6b192h4jlfktg","pricing_plan_id":"cebpf4jnsgd1na2vs0mg"},{"bike_id":"ad7dd926-67aa-4c5f-abd1-35020f337e23","system_id":"levelo_inurba_marseille","lat":43.29258,"lon":5.40905,"is_reserved":false,"is_disabled":false,"rental_uris":{"android":"levelo://app?vid=ad7dd926-67aa-4c5f-abd1-35020f337e23","ios":"levelo://app?vid=ad7dd926-67aa-4c5f-abd1-35020f337e23"},"vehicle_type_id":"4","last_reported":1731003124,"current_range_meters":30800,"station_id":"ce4bh192rcd13ifvqdc0","pricing_plan_id":"cebpf4jnsgd1na2vs0mg"},{"bike_id":"fa6a4eb7-8a12-45f6-8e41-cd60af17fbf9","system_id":"levelo_inurba_marseille","lat":43.29278,"lon":5.40118,"is_reserved":false,"is_disabled":false,"rental_uris":{"android":"levelo://app?vid=fa6a4eb7-8a12-45f6-8e41-cd60af17fbf9","ios":"levelo://app?vid=fa6a4eb7-8a12-45f6-8e41-cd60af17fbf9"},"vehicle_type_id":"4","last_reported":1731003124,"current_range_meters":6400,"station_id":"ce4bh312rcd13ifvqdk0","pricing_plan_id":"cebpf4jnsgd1na2vs0mg"},{"bike_id":"5b3b4202-5abc-4b67-9cd0-f08d9124df40","system_id":"levelo_inurba_marseille","lat":43.337444,"lon":5.374475,"is_reserved":false,"is_disabled":false,"rental_uris":{"android":"levelo://app?vid=5b3b4202-5abc-4b67-9cd0-f08d9124df40","ios":"levelo://app?vid=5b3b4202-5abc-4b67-9cd0-f08d9124df40"},"vehicle_type_id":"4","last_reported":1731003124,"current_range_meters":38000,"station_id":"","pricing_plan_id":"cebpf4jnsgd1na2vs0mg"},{"bike_id":"54b7f1f6-7341-4bb2-bbd6-8766f023bcaf","system_id":"levelo_inurba_marseille","lat":43.30322,"lon":5.40444,"is_reserved":false,"is_disabled":false,"rental_uris":{"android":"levelo://app?vid=54b7f1f6-7341-4bb2-bbd6-8766f023bcaf","ios":"levelo://app?vid=54b7f1f6-7341-4bb2-bbd6-8766f023bcaf"},"vehicle_type_id":"4","last_reported":1731003124,"current_range_meters":20000,"station_id":"ce4bh012rcd13ifvqd10","pricing_plan_id":"cebpf4jnsgd1na2vs0mg"},{"bike_id":"53c2d71b-a41e-4e06-bcc8-cc5ff84cece4","system_id":"levelo_inurba_marseille","lat":43.33025,"lon":5.39045,"is_reserved":false,"is_disabled":false,"rental_uris":{"android":"levelo://app?vid=53c2d71b-a41e-4e06-bcc8-cc5ff84cece4","ios":"levelo://app?vid=53c2d71b-a41e-4e06-bcc8-cc5ff84cece4"},"vehicle_type_id":"4","last_reported":1731003124,"current_range_meters":28800,"station_id":"ce4bhr92rcd13ifvqhrg","pricing_plan_id":"cebpf4jnsgd1na2vs0mg"},{"bike_id":"f3588e1e-fbb3-40a6-b38a-0dc3fe7727f7","system_id":"levelo_inurba_marseille","lat":43.311676,"lon":5.387171,"is_reserved":false,"is_disabled":false,"rental_uris":{"android":"levelo://app?vid=f3588e1e-fbb3-40a6-b38a-0dc3fe7727f7","ios":"levelo://app?vid=f3588e1e-fbb3-40a6-b38a-0dc3fe7727f7"},"vehicle_type_id":"4","last_reported":1731003124,"current_range_meters":38400,"station_id":"ce4bgv12rcd13ifvqcp0","pricing_plan_id":"cebpf4jnsgd1na2vs0mg"},{"bike_id":"ed7e367d-c5af-41cd-95a8-a414ea0e86a6","system_id":"levelo_inurba_marseille","lat":43.27383,"lon":5.36254,"is_reserved":false,"is_disabled":false,"rental_uris":{"android":"levelo://app?vid=ed7e367d-c5af-41cd-95a8-a414ea0e86a6","ios":"levelo://app?vid=ed7e367d-c5af-41cd-95a8-a414ea0e86a6"},"vehicle_type_id":"4","last_reported":1731003124,"current_range_meters":24000,"station_id":"ce4bhbh2rcd13ifvqeo0","pricing_plan_id":"cebpf4jnsgd1na2vs0mg"},{"bike_id":"d8c458ca-e41f-4dfa-8abf-e24693a7fbfe","system_id":"levelo_inurba_marseille","lat":43.268163,"lon":5.402834,"is_reserved":false,"is_disabled":false,"rental_uris":{"android":"levelo://app?vid=d8c458ca-e41f-4dfa-8abf-e24693a7fbfe","ios":"levelo://app?vid=d8c458ca-e41f-4dfa-8abf-e24693a7fbfe"},"vehicle_type_id":"4","last_reported":1731003124,"current_range_meters":8800,"station_id":"ce501612rcd8frsf0b60","pricing_plan_id":"cebpf4jnsgd1na2vs0mg"},{"bike_id":"c598bba8-f360-4ccc-9806-6cc9665deb5d","system_id":"levelo_inurba_marseille","lat":43.29892,"lon":5.43658,"is_reserved":false,"is_disabled":false,"rental_uris":{"android":"levelo://app?vid=c598bba8-f360-4ccc-9806-6cc9665deb5d","ios":"levelo://app?vid=c598bba8-f360-4ccc-9806-6cc9665deb5d"},"vehicle_type_id":"4","last_reported":1731003124,"current_range_meters":32000,"station_id":"ce4bhpp2rcd13ifvqhfg","pricing_plan_id":"cebpf4jnsgd1na2vs0mg"},{"bike_id":"9f4a1336-50f2-4c60-9fc9-5ed56515e270","system_id":"levelo_inurba_marseille","lat":43.32368,"lon":5.38892,"is_reserved":false,"is_disabled":false,"rental_uris":{"android":"levelo://app?vid=9f4a1336-50f2-4c60-9fc9-5ed56515e270","ios":"levelo://app?vid=9f4a1336-50f2-4c60-9fc9-5ed56515e270"},"vehicle_type_id":"4","last_reported":1731003124,"current_range_meters":38800,"station_id":"ce4bhqp2rcd13ifvqhog","pricing_plan_id":"cebpf4jnsgd1na2vs0mg"},{"bike_id":"9414d650-137d-4ce1-a1fc-df039437fda8","system_id":"levelo_inurba_marseille","lat":43.28455,"lon":5.35885,"is_reserved":false,"is_disabled":false,"rental_uris":{"android":"levelo://app?vid=9414d650-137d-4ce1-a1fc-df039437fda8","ios":"levelo://app?vid=9414d650-137d-4ce1-a1fc-df039437fda8"},"vehicle_type_id":"4","last_reported":1731003124,"current_range_meters":2000,"station_id":"ce4bhah2rcd13ifvqei0","pricing_plan_id":"cebpf4jnsgd1na2vs0mg"},{"bike_id":"af801b28-c363-43fd-a1b7-d5236d43e80c","system_id":"levelo_inurba_marseille","lat":43.250862,"lon":5.395277,"is_reserved":false,"is_disabled":false,"rental_uris":{"android":"levelo://app?vid=af801b28-c363-43fd-a1b7-d5236d43e80c","ios":"levelo://app?vid=af801b28-c363-43fd-a1b7-d5236d43e80c"},"vehicle_type_id":"4","last_reported":1731003124,"current_range_meters":39200,"station_id":"ce4bhm12rcd13ifvqgkg","pricing_plan_id":"cebpf4jnsgd1na2vs0mg"},{"bike_id":"735e0a66-c20d-4585-ada5-a98fa293ea8c","system_id":"levelo_inurba_marseille","lat":43.30911,"lon":5.3685,"is_reserved":false,"is_disabled":false,"rental_uris":{"android":"levelo://app?vid=735e0a66-c20d-4585-ada5-a98fa293ea8c","ios":"levelo://app?vid=735e0a66-c20d-4585-ada5-a98fa293ea8c"},"vehicle_type_id":"4","last_reported":1731003124,"current_range_meters":38800,"station_id":"ce4bgn92rcd13ifvqbvg","pricing_plan_id":"cebpf4jnsgd1na2vs0mg"},{"bike_id":"8e8448ab-0e1c-422d-80bd-f41fa2cbe6ec","system_id":"levelo_inurba_marseille","lat":43.25578,"lon":5.38233,"is_reserved":false,"is_disabled":false,"rental_uris":{"android":"levelo://app?vid=8e8448ab-0e1c-422d-80bd-f41fa2cbe6ec","ios":"levelo://app?vid=8e8448ab-0e1c-422d-80bd-f41fa2cbe6ec"},"vehicle_type_id":"4","last_reported":1731003124,"current_range_meters":32800,"station_id":"ce4bhih2rcd13ifvqfs0","pricing_plan_id":"cebpf4jnsgd1na2vs0mg"},{"bike_id":"1ba5d5ce-780c-497d-aaf8-089f037f252a","system_id":"levelo_inurba_marseille","lat":43.29877,"lon":5.39739,"is_reserved":false,"is_disabled":false,"rental_uris":{"android":"levelo://app?vid=1ba5d5ce-780c-497d-aaf8-089f037f252a","ios":"levelo://app?vid=1ba5d5ce-780c-497d-aaf8-089f037f252a"},"vehicle_type_id":"4","last_reported":1731003124,"current_range_meters":38800,"station_id":"ce4bh0h2rcd13ifvqd50","pricing_plan_id":"cebpf4jnsgd1na2vs0mg"},{"bike_id":"826fcacf-11c4-4625-99ac-d3208c0ca8ff","system_id":"levelo_inurba_marseille","lat":43.30184,"lon":5.36605,"is_reserved":false,"is_disabled":false,"rental_uris":{"android":"levelo://app?vid=826fcacf-11c4-4625-99ac-d3208c0ca8ff","ios":"levelo://app?vid=826fcacf-11c4-4625-99ac-d3208c0ca8ff"},"vehicle_type_id":"4","last_reported":1731003124,"current_range_meters":5600,"station_id":"ce4bgrh2rcd13ifvqc8g","pricing_plan_id":"cebpf4jnsgd1na2vs0mg"},{"bike_id":"30db738d-37d4-4891-8dea-ad45e7119b51","system_id":"levelo_inurba_marseille","lat":43.30955,"lon":5.39036,"is_reserved":false,"is_disabled":false,"rental_uris":{"android":"levelo://app?vid=30db738d-37d4-4891-8dea-ad45e7119b51","ios":"levelo://app?vid=30db738d-37d4-4891-8dea-ad45e7119b51"},"vehicle_type_id":"4","last_reported":1731003124,"current_range_meters":24800,"station_id":"ce4bgup2rcd13ifvqco0","pricing_plan_id":"cebpf4jnsgd1na2vs0mg"},{"bike_id":"8363663c-1d8b-41f0-ae30-83495bca8de7","system_id":"levelo_inurba_marseille","lat":43.3078,"lon":5.37653,"is_reserved":false,"is_disabled":false,"rental_uris":{"android":"levelo://app?vid=8363663c-1d8b-41f0-ae30-83495bca8de7","ios":"levelo://app?vid=8363663c-1d8b-41f0-ae30-83495bca8de7"},"vehicle_type_id":"4","last_reported":1731003124,"current_range_meters":9600,"station_id":"ce4bgv92rcd13ifvqcq0","pricing_plan_id":"cebpf4jnsgd1na2vs0mg"},{"bike_id":"9ec3c8e0-44c1-41be-a187-ed5c093d65b5","system_id":"levelo_inurba_marseille","lat":43.26206,"lon":5.37442,"is_reserved":false,"is_disabled":false,"rental_uris":{"android":"levelo://app?vid=9ec3c8e0-44c1-41be-a187-ed5c093d65b5","ios":"levelo://app?vid=9ec3c8e0-44c1-41be-a187-ed5c093d65b5"},"vehicle_type_id":"4","last_reported":1731003124,"current_range_meters":8400,"station_id":"ce4bhgp2rcd13ifvqfc0","pricing_plan_id":"cebpf4jnsgd1na2vs0mg"},{"bike_id":"8f5983c7-03f6-495b-ab62-a85b6281b6d3","system_id":"levelo_inurba_marseille","lat":43.31072,"lon":5.38355,"is_reserved":false,"is_disabled":false,"rental_uris":{"android":"levelo://app?vid=8f5983c7-03f6-495b-ab62-a85b6281b6d3","ios":"levelo://app?vid=8f5983c7-03f6-495b-ab62-a85b6281b6d3"},"vehicle_type_id":"4","last_reported":1731003124,"current_range_meters":18000,"station_id":"ce4bgv92rcd13ifvqcr0","pricing_plan_id":"cebpf4jnsgd1na2vs0mg"},{"bike_id":"f160a927-4fa0-44ab-8f03-4eb0c8fef6d2","system_id":"levelo_inurba_marseille","lat":43.28724,"lon":5.36081,"is_reserved":false,"is_disabled":false,"rental_uris":{"android":"levelo://app?vid=f160a927-4fa0-44ab-8f03-4eb0c8fef6d2","ios":"levelo://app?vid=f160a927-4fa0-44ab-8f03-4eb0c8fef6d2"},"vehicle_type_id":"4","last_reported":1731003124,"current_range_meters":4800,"station_id":"cki0cbj6b192h4jlfktg","pricing_plan_id":"cebpf4jnsgd1na2vs0mg"},{"bike_id":"1b953554-595a-4065-bbb8-7db5127495c8","system_id":"levelo_inurba_marseille","lat":43.27043,"lon":5.41636,"is_reserved":false,"is_disabled":false,"rental_uris":{"android":"levelo://app?vid=1b953554-595a-4065-bbb8-7db5127495c8","ios":"levelo://app?vid=1b953554-595a-4065-bbb8-7db5127495c8"},"vehicle_type_id":"4","last_reported":1731003124,"current_range_meters":26000,"station_id":"","pricing_plan_id":"cebpf4jnsgd1na2vs0mg"},{"bike_id":"4e880b1f-0d65-4465-bdbe-761b2e9fded2","system_id":"levelo_inurba_marseille","lat":43.31366,"lon":5.39473,"is_reserved":false,"is_disabled":false,"rental_uris":{"android":"levelo://app?vid=4e880b1f-0d65-4465-bdbe-761b2e9fded2","ios":"levelo://app?vid=4e880b1f-0d65-4465-bdbe-761b2e9fded2"},"vehicle_type_id":"4","last_reported":1731003124,"current_range_meters":31200,"station_id":"","pricing_plan_id":"cebpf4jnsgd1na2vs0mg"},{"bike_id":"d24ced80-341b-4862-ae7b-07840095ea03","system_id":"levelo_inurba_marseille","lat":43.27176,"lon":5.40995,"is_reserved":false,"is_disabled":false,"rental_uris":{"android":"levelo://app?vid=d24ced80-341b-4862-ae7b-07840095ea03","ios":"levelo://app?vid=d24ced80-341b-4862-ae7b-07840095ea03"},"vehicle_type_id":"4","last_reported":1731003124,"current_range_meters":39200,"station_id":"ce4bhl12rcd13ifvqgf0","pricing_plan_id":"cebpf4jnsgd1na2vs0mg"},{"bike_id":"1d7e828a-d92d-49eb-b180-6fedc375391a","system_id":"levelo_inurba_marseille","lat":43.28919,"lon":5.38392,"is_reserved":false,"is_disabled":false,"rental_uris":{"android":"levelo://app?vid=1d7e828a-d92d-49eb-b180-6fedc375391a","ios":"levelo://app?vid=1d7e828a-d92d-49eb-b180-6fedc375391a"},"vehicle_type_id":"4","last_reported":1731003124,"current_range_meters":20800,"station_id":"ce4bh612rcd13ifvqe6g","pricing_plan_id":"cebpf4jnsgd1na2vs0mg"},{"bike_id":"e4e0867e-acab-4f28-bcf4-d2f926a640d4","system_id":"levelo_inurba_marseille","lat":43.31708,"lon":5.37738,"is_reserved":false,"is_disabled":false,"rental_uris":{"android":"levelo://app?vid=e4e0867e-acab-4f28-bcf4-d2f926a640d4","ios":"levelo://app?vid=e4e0867e-acab-4f28-bcf4-d2f926a640d4"},"vehicle_type_id":"4","last_reported":1731003124,"current_range_meters":4000,"station_id":"ce4bgth2rcd13ifvqch0","pricing_plan_id":"cebpf4jnsgd1na2vs0mg"},{"bike_id":"4dd3dd42-3c34-4312-b885-5cbf58c530c2","system_id":"levelo_inurba_marseille","lat":43.23184,"lon":5.39989,"is_reserved":false,"is_disabled":false,"rental_uris":{"android":"levelo://app?vid=4dd3dd42-3c34-4312-b885-5cbf58c530c2","ios":"levelo://app?vid=4dd3dd42-3c34-4312-b885-5cbf58c530c2"},"vehicle_type_id":"4","last_reported":1731003124,"current_range_meters":9200,"station_id":"ce4bhn12rcd13ifvqgqg","pricing_plan_id":"cebpf4jnsgd1na2vs0mg"},{"bike_id":"90469741-474b-435a-8826-172733cceb94","system_id":"levelo_inurba_marseille","lat":43.29909,"lon":5.38502,"is_reserved":false,"is_disabled":false,"rental_uris":{"android":"levelo://app?vid=90469741-474b-435a-8826-172733cceb94","ios":"levelo://app?vid=90469741-474b-435a-8826-172733cceb94"},"vehicle_type_id":"4","last_reported":1731003124,"current_range_meters":33600,"station_id":"","pricing_plan_id":"cebpf4jnsgd1na2vs0mg"},{"bike_id":"8c85185f-566a-42a0-aea6-1433ede3ba5c","system_id":"levelo_inurba_marseille","lat":43.29524,"lon":5.39052,"is_reserved":false,"is_disabled":false,"rental_uris":{"android":"levelo://app?vid=8c85185f-566a-42a0-aea6-1433ede3ba5c","ios":"levelo://app?vid=8c85185f-566a-42a0-aea6-1433ede3ba5c"},"vehicle_type_id":"4","last_reported":1731003124,"current_range_meters":32800,"station_id":"ce4bh0h2rcd13ifvqd60","pricing_plan_id":"cebpf4jnsgd1na2vs0mg"},{"bike_id":"2d36061b-6c80-40c8-bce4-ba116b411d90","system_id":"levelo_inurba_marseille","lat":43.27376,"lon":5.36246,"is_reserved":false,"is_disabled":false,"rental_uris":{"android":"levelo://app?vid=2d36061b-6c80-40c8-bce4-ba116b411d90","ios":"levelo://app?vid=2d36061b-6c80-40c8-bce4-ba116b411d90"},"vehicle_type_id":"4","last_reported":1731003124,"current_range_meters":32400,"station_id":"ce4bhbh2rcd13ifvqeo0","pricing_plan_id":"cebpf4jnsgd1na2vs0mg"},{"bike_id":"c7386b96-27be-4100-a0b2-045e9a201619","system_id":"levelo_inurba_marseille","lat":43.292755,"lon":5.368392,"is_reserved":false,"is_disabled":false,"rental_uris":{"android":"levelo://app?vid=c7386b96-27be-4100-a0b2-045e9a201619","ios":"levelo://app?vid=c7386b96-27be-4100-a0b2-045e9a201619"},"vehicle_type_id":"4","last_reported":1731003124,"current_range_meters":33600,"station_id":"ce4bhbp2rcd13ifvqesg","pricing_plan_id":"cebpf4jnsgd1na2vs0mg"},{"bike_id":"b2787cf1-82b6-458d-aa79-d1e23500f066","system_id":"levelo_inurba_marseille","lat":43.29283,"lon":5.40116,"is_reserved":false,"is_disabled":false,"rental_uris":{"android":"levelo://app?vid=b2787cf1-82b6-458d-aa79-d1e23500f066","ios":"levelo://app?vid=b2787cf1-82b6-458d-aa79-d1e23500f066"},"vehicle_type_id":"4","last_reported":1731003124,"current_range_meters":12000,"station_id":"ce4bh312rcd13ifvqdk0","pricing_plan_id":"cebpf4jnsgd1na2vs0mg"},{"bike_id":"6e6d0421-70b6-40f0-bb46-e646c7659cdf","system_id":"levelo_inurba_marseille","lat":43.305752,"lon":5.399302,"is_reserved":false,"is_disabled":false,"rental_uris":{"android":"levelo://app?vid=6e6d0421-70b6-40f0-bb46-e646c7659cdf","ios":"levelo://app?vid=6e6d0421-70b6-40f0-bb46-e646c7659cdf"},"vehicle_type_id":"4","last_reported":1731003124,"current_range_meters":4800,"station_id":"ce4bgvp2rcd13ifvqcu0","pricing_plan_id":"cebpf4jnsgd1na2vs0mg"},{"bike_id":"1f45c9c1-b60e-4529-9b10-0b5daef218f2","system_id":"levelo_inurba_marseille","lat":43.31272,"lon":5.40166,"is_reserved":false,"is_disabled":false,"rental_uris":{"android":"levelo://app?vid=1f45c9c1-b60e-4529-9b10-0b5daef218f2","ios":"levelo://app?vid=1f45c9c1-b60e-4529-9b10-0b5daef218f2"},"vehicle_type_id":"4","last_reported":1731003124,"current_range_meters":6400,"station_id":"ce4bh092rcd13ifvqd30","pricing_plan_id":"cebpf4jnsgd1na2vs0mg"},{"bike_id":"2baf0f11-17d0-49f4-9684-eae74ab74a3d","system_id":"levelo_inurba_marseille","lat":43.27072,"lon":5.42278,"is_reserved":false,"is_disabled":false,"rental_uris":{"android":"levelo://app?vid=2baf0f11-17d0-49f4-9684-eae74ab74a3d","ios":"levelo://app?vid=2baf0f11-17d0-49f4-9684-eae74ab74a3d"},"vehicle_type_id":"4","last_reported":1731003124,"current_range_meters":11200,"station_id":"ce4bhk92rcd13ifvqgb0","pricing_plan_id":"cebpf4jnsgd1na2vs0mg"},{"bike_id":"24e2dfae-89d6-4586-b79e-c87a93c83825","system_id":"levelo_inurba_marseille","lat":43.23199,"lon":5.35551,"is_reserved":false,"is_disabled":false,"rental_uris":{"android":"levelo://app?vid=24e2dfae-89d6-4586-b79e-c87a93c83825","ios":"levelo://app?vid=24e2dfae-89d6-4586-b79e-c87a93c83825"},"vehicle_type_id":"4","last_reported":1731003124,"current_range_meters":34000,"station_id":"ce4bhu92rcd13ifvqi70","pricing_plan_id":"cebpf4jnsgd1na2vs0mg"},{"bike_id":"4fcf3408-30b9-4ad7-b447-72f87507543b","system_id":"levelo_inurba_marseille","lat":43.22936,"lon":5.35376,"is_reserved":false,"is_disabled":false,"rental_uris":{"android":"levelo://app?vid=4fcf3408-30b9-4ad7-b447-72f87507543b","ios":"levelo://app?vid=4fcf3408-30b9-4ad7-b447-72f87507543b"},"vehicle_type_id":"4","last_reported":1731003124,"current_range_meters":40000,"station_id":"cpo3532slgdg3j2ikp40","pricing_plan_id":"cebpf4jnsgd1na2vs0mg"},{"bike_id":"017b75cb-9ecb-4776-af8b-dd95a49be0ea","system_id":"levelo_inurba_marseille","lat":43.27494,"lon":5.42452,"is_reserved":false,"is_disabled":false,"rental_uris":{"android":"levelo://app?vid=017b75cb-9ecb-4776-af8b-dd95a49be0ea","ios":"levelo://app?vid=017b75cb-9ecb-4776-af8b-dd95a49be0ea"},"vehicle_type_id":"4","last_reported":1731003124,"current_range_meters":31200,"station_id":"ce4bhn92rcd13ifvqgrg","pricing_plan_id":"cebpf4jnsgd1na2vs0mg"},{"bike_id":"8dd36005-c78c-423c-9588-934547036315","system_id":"levelo_inurba_marseille","lat":43.28456,"lon":5.35884,"is_reserved":false,"is_disabled":false,"rental_uris":{"android":"levelo://app?vid=8dd36005-c78c-423c-9588-934547036315","ios":"levelo://app?vid=8dd36005-c78c-423c-9588-934547036315"},"vehicle_type_id":"4","last_reported":1731003124,"current_range_meters":4400,"station_id":"ce4bhah2rcd13ifvqei0","pricing_plan_id":"cebpf4jnsgd1na2vs0mg"},{"bike_id":"a48171a6-2d6b-49bb-8eb3-f46478a41608","system_id":"levelo_inurba_marseille","lat":43.31335,"lon":5.39701,"is_reserved":false,"is_disabled":false,"rental_uris":{"android":"levelo://app?vid=a48171a6-2d6b-49bb-8eb3-f46478a41608","ios":"levelo://app?vid=a48171a6-2d6b-49bb-8eb3-f46478a41608"},"vehicle_type_id":"4","last_reported":1731003124,"current_range_meters":39200,"station_id":"ce4bgvp2rcd13ifvqcu0","pricing_plan_id":"cebpf4jnsgd1na2vs0mg"},{"bike_id":"a5f61d01-96ea-4485-8e83-a001f8725b75","system_id":"levelo_inurba_marseille","lat":43.28154,"lon":5.42646,"is_reserved":false,"is_disabled":false,"rental_uris":{"android":"levelo://app?vid=a5f61d01-96ea-4485-8e83-a001f8725b75","ios":"levelo://app?vid=a5f61d01-96ea-4485-8e83-a001f8725b75"},"vehicle_type_id":"4","last_reported":1731003124,"current_range_meters":30800,"station_id":"ce4bhnh2rcd13ifvqgug","pricing_plan_id":"cebpf4jnsgd1na2vs0mg"},{"bike_id":"5e86a304-875a-484d-a63a-ef141960df3c","system_id":"levelo_inurba_marseille","lat":43.29707,"lon":5.36629,"is_reserved":false,"is_disabled":false,"rental_uris":{"android":"levelo://app?vid=5e86a304-875a-484d-a63a-ef141960df3c","ios":"levelo://app?vid=5e86a304-875a-484d-a63a-ef141960df3c"},"vehicle_type_id":"4","last_reported":1731003124,"current_range_meters":33600,"station_id":"ce4bgn12rcd13ifvqbt0","pricing_plan_id":"cebpf4jnsgd1na2vs0mg"},{"bike_id":"ece49b23-e261-479a-9592-dcbc1711916e","system_id":"levelo_inurba_marseille","lat":43.28691,"lon":5.37391,"is_reserved":false,"is_disabled":false,"rental_uris":{"android":"levelo://app?vid=ece49b23-e261-479a-9592-dcbc1711916e","ios":"levelo://app?vid=ece49b23-e261-479a-9592-dcbc1711916e"},"vehicle_type_id":"4","last_reported":1731003124,"current_range_meters":6000,"station_id":"ce4bh3p2rcd13ifvqdq0","pricing_plan_id":"cebpf4jnsgd1na2vs0mg"},{"bike_id":"13e24658-10c6-4415-acdf-e70f0794bb87","system_id":"levelo_inurba_marseille","lat":43.25121,"lon":5.4032,"is_reserved":false,"is_disabled":false,"rental_uris":{"android":"levelo://app?vid=13e24658-10c6-4415-acdf-e70f0794bb87","ios":"levelo://app?vid=13e24658-10c6-4415-acdf-e70f0794bb87"},"vehicle_type_id":"4","last_reported":1731003124,"current_range_meters":12800,"station_id":"ce4bhlh2rcd13ifvqgig","pricing_plan_id":"cebpf4jnsgd1na2vs0mg"},{"bike_id":"0202aad8-0c13-4e83-8675-dbdb2d702c57","system_id":"levelo_inurba_marseille","lat":43.29412,"lon":5.38624,"is_reserved":false,"is_disabled":false,"rental_uris":{"android":"levelo://app?vid=0202aad8-0c13-4e83-8675-dbdb2d702c57","ios":"levelo://app?vid=0202aad8-0c13-4e83-8675-dbdb2d702c57"},"vehicle_type_id":"4","last_reported":1731003124,"current_range_meters":3600,"station_id":"ce4bh2h2rcd13ifvqdh0","pricing_plan_id":"cebpf4jnsgd1na2vs0mg"},{"bike_id":"d9b5403c-835a-4be9-b415-102ea6a80080","system_id":"levelo_inurba_marseille","lat":43.29304,"lon":5.37457,"is_reserved":false,"is_disabled":false,"rental_uris":{"android":"levelo://app?vid=d9b5403c-835a-4be9-b415-102ea6a80080","ios":"levelo://app?vid=d9b5403c-835a-4be9-b415-102ea6a80080"},"vehicle_type_id":"4","last_reported":1731003124,"current_range_meters":16000,"station_id":"ce4bgi12rcd13ifvqb70","pricing_plan_id":"cebpf4jnsgd1na2vs0mg"},{"bike_id":"f308e41b-d798-46dd-ac14-b1274eeb30a8","system_id":"levelo_inurba_marseille","lat":43.23152,"lon":5.43707,"is_reserved":false,"is_disabled":false,"rental_uris":{"android":"levelo://app?vid=f308e41b-d798-46dd-ac14-b1274eeb30a8","ios":"levelo://app?vid=f308e41b-d798-46dd-ac14-b1274eeb30a8"},"vehicle_type_id":"4","last_reported":1731003124,"current_range_meters":38800,"station_id":"ce4bhmp2rcd13ifvqgog","pricing_plan_id":"cebpf4jnsgd1na2vs0mg"},{"bike_id":"186d4c05-d540-42ce-9d8b-e591c1492c72","system_id":"levelo_inurba_marseille","lat":43.30802,"lon":5.39205,"is_reserved":false,"is_disabled":false,"rental_uris":{"android":"levelo://app?vid=186d4c05-d540-42ce-9d8b-e591c1492c72","ios":"levelo://app?vid=186d4c05-d540-42ce-9d8b-e591c1492c72"},"vehicle_type_id":"4","last_reported":1731003124,"current_range_meters":11200,"station_id":"ce4bgv12rcd13ifvqcp0","pricing_plan_id":"cebpf4jnsgd1na2vs0mg"},{"bike_id":"69243178-6295-4802-bade-507f69a23c07","system_id":"levelo_inurba_marseille","lat":43.22932,"lon":5.35375,"is_reserved":false,"is_disabled":false,"rental_uris":{"android":"levelo://app?vid=69243178-6295-4802-bade-507f69a23c07","ios":"levelo://app?vid=69243178-6295-4802-bade-507f69a23c07"},"vehicle_type_id":"4","last_reported":1731003124,"current_range_meters":35200,"station_id":"cpo3532slgdg3j2ikp40","pricing_plan_id":"cebpf4jnsgd1na2vs0mg"},{"bike_id":"cabb7165-a4f9-475b-b8c6-8db37a86a1cf","system_id":"levelo_inurba_marseille","lat":43.29195,"lon":5.35808,"is_reserved":false,"is_disabled":false,"rental_uris":{"android":"levelo://app?vid=cabb7165-a4f9-475b-b8c6-8db37a86a1cf","ios":"levelo://app?vid=cabb7165-a4f9-475b-b8c6-8db37a86a1cf"},"vehicle_type_id":"4","last_reported":1731003124,"current_range_meters":36800,"station_id":"ce4bhb12rcd13ifvqel0","pricing_plan_id":"cebpf4jnsgd1na2vs0mg"},{"bike_id":"eae7def2-1a9a-469c-97bd-a4dbd3fb2ae5","system_id":"levelo_inurba_marseille","lat":43.33754,"lon":5.37477,"is_reserved":false,"is_disabled":false,"rental_uris":{"android":"levelo://app?vid=eae7def2-1a9a-469c-97bd-a4dbd3fb2ae5","ios":"levelo://app?vid=eae7def2-1a9a-469c-97bd-a4dbd3fb2ae5"},"vehicle_type_id":"4","last_reported":1731003124,"current_range_meters":32000,"station_id":"","pricing_plan_id":"cebpf4jnsgd1na2vs0mg"},{"bike_id":"b881b1f4-de8f-4df2-9f9f-1679247b7eb1","system_id":"levelo_inurba_marseille","lat":43.311699,"lon":5.387225,"is_reserved":false,"is_disabled":false,"rental_uris":{"android":"levelo://app?vid=b881b1f4-de8f-4df2-9f9f-1679247b7eb1","ios":"levelo://app?vid=b881b1f4-de8f-4df2-9f9f-1679247b7eb1"},"vehicle_type_id":"4","last_reported":1731003124,"current_range_meters":3600,"station_id":"ce4bgv12rcd13ifvqcp0","pricing_plan_id":"cebpf4jnsgd1na2vs0mg"},{"bike_id":"9dddf5a4-fc64-42f3-8e06-54f097db4dc0","system_id":"levelo_inurba_marseille","lat":43.28264,"lon":5.35056,"is_reserved":false,"is_disabled":false,"rental_uris":{"android":"levelo://app?vid=9dddf5a4-fc64-42f3-8e06-54f097db4dc0","ios":"levelo://app?vid=9dddf5a4-fc64-42f3-8e06-54f097db4dc0"},"vehicle_type_id":"4","last_reported":1731003124,"current_range_meters":11200,"station_id":"ce4bhbp2rcd13ifvqerg","pricing_plan_id":"cebpf4jnsgd1na2vs0mg"},{"bike_id":"3a801cbb-1e2e-46c3-bc85-0c5198b9902c","system_id":"levelo_inurba_marseille","lat":43.265378,"lon":5.388412,"is_reserved":false,"is_disabled":false,"rental_uris":{"android":"levelo://app?vid=3a801cbb-1e2e-46c3-bc85-0c5198b9902c","ios":"levelo://app?vid=3a801cbb-1e2e-46c3-bc85-0c5198b9902c"},"vehicle_type_id":"4","last_reported":1731003124,"current_range_meters":6400,"station_id":"","pricing_plan_id":"cebpf4jnsgd1na2vs0mg"},