{"last_updated":1766938354,"ttl":60,"version":"2.2","data":{"bikes":[{"bike_id":"e7195f19-4fc7-4c9a-b655-a9b129278d8e","system_id":"levelo_inurba_marseille","lat":43.26729,"lon":5.40573,"is_reserved":false,"is_disabled":false,"rental_uris":{"android":"levelo://app?vid=e7195f19-4fc7-4c9a-b655-a9b129278d8e","ios":"levelo://app?vid=e7195f19-4fc7-4c9a-b655-a9b129278d8e"},"vehicle_type_id":"4","last_reported":1766938354,"current_range_meters":2800,"station_id":"","pricing_plan_id":"cebpf4jnsgd1na2vs0mg"},{"bike_id":"3b300654-3df6-40a1-906c-c6c5983de03f","system_id":"levelo_inurba_marseille","lat":43.27054,"lon":5.40269,"is_reserved":false,"is_disabled":false,"rental_uris":{"android":"levelo://app?vid=3b300654-3df6-40a1-906c-c6c5983de03f","ios":"levelo://app?vid=3b300654-3df6-40a1-906c-c6c5983de03f"},"vehicle_type_id":"4","last_reported":1766938354,"current_range_meters":3200,"station_id":"ce4bhk92rcd13ifvqgc0","pricing_plan_id":"cebpf4jnsgd1na2vs0mg"},{"bike_id":"5f1c6459-3fd3-43ad-89d7-e2075908cbe7","system_id":"levelo_inurba_marseille","lat":43.27085,"lon":5.42514,"is_reserved":false,"is_disabled":false,"rental_uris":{"android":"levelo://app?vid=5f1c6459-3fd3-43ad-89d7-e2075908cbe7","ios":"levelo://app?vid=5f1c6459-3fd3-43ad-89d7-e2075908cbe7"},"vehicle_type_id":"4","last_reported":1766938354,"current_range_meters":3200,"station_id":"","pricing_plan_id":"cebpf4jnsgd1na2vs0mg"},{"bike_id":"bd895381-591d-40e4-b298-bce862c07d56","system_id":"levelo_inurba_marseille","lat":43.29007,"lon":5.3562,"is_reserved":false,"is_disabled":false,"rental_uris":{"android":"levelo://app?vid=bd895381-591d-40e4-b298-bce862c07d56","ios":"levelo://app?vid=bd895381-591d-40e4-b298-bce862c07d56"},"vehicle_type_id":"4","last_reported":1766938354,"current_range_meters":3200,"station_id":"ce4bhb92rcd13ifvqen0","pricing_plan_id":"cebpf4jnsgd1na2vs0mg"},{"bike_id":"c6c751ca-f0d9-4d7d-924c-b26f574b394e","system_id":"levelo_inurba_marseille","lat":43.26746,"lon":5.3844,"is_reserved":false,"is_disabled":false,"rental_uris":{"android":"levelo://app?vid=c6c751ca-f0d9-4d7d-924c-b26f574b394e","ios":"levelo://app?vid=c6c751ca-f0d9-4d7d-924c-b26f574b394e"},"vehicle_type_id":"4","last_reported":1766938354,"current_range_meters":3200,"station_id":"","pricing_plan_id":"cebpf4jnsgd1na2vs0mg"},{"bike_id":"7889c44c-66c5-491e-bce1-ab4755d90e40","system_id":"levelo_inurba_marseille","lat":43.2536,"lon":5.39326,"is_reserved":false,"is_disabled":false,"rental_uris":{"android":"levelo://app?vid=7889c44c-66c5-491e-bce1-ab4755d90e40","ios":"levelo://app?vid=7889c44c-66c5-491e-bce1-ab4755d90e40"},"vehicle_type_id":"4","last_reported":1766938354,"current_range_meters":3600,"station_id":"","pricing_plan_id":"cebpf4jnsgd1na2vs0mg"},{"bike_id":"1f45b2b1-d2e0-4187-926d-9979c716f8a5","system_id":"levelo_inurba_marseille","lat":43.25069,"lon":5.40462,"is_reserved":false,"is_disabled":false,"rental_uris":{"android":"levelo://app?vid=1f45b2b1-d2e0-4187-926d-9979c716f8a5","ios":"levelo://app?vid=1f45b2b1-d2e0-4187-926d-9979c716f8a5"},"vehicle_type_id":"4","last_reported":1766938354,"current_range_meters":3600,"station_id":"","pricing_plan_id":"cebpf4jnsgd1na2vs0mg"},{"bike_id":"2b6ede29-e300-4797-99aa-aa5bac615a35","system_id":"levelo_inurba_marseille","lat":43.24952,"lon":5.40481,"is_reserved":false,"is_disabled":false,"rental_uris":{"android":"levelo://app?vid=2b6ede29-e300-4797-99aa-aa5bac615a35","ios":"levelo://app?vid=2b6ede29-e300-4797-99aa-aa5bac615a35"},"vehicle_type_id":"4","last_reported":1766938354,"current_range_meters":3600,"station_id":"st_d2ngiaodas8pm72gd1h0","pricing_plan_id":"cebpf4jnsgd1na2vs0mg"},{"bike_id":"9c1ff02c-df35-4545-98b6-54b455499ca0","system_id":"levelo_inurba_marseille","lat":43.27194,"lon":5.40985,"is_reserved":false,"is_disabled":true,"rental_uris":{"android":"levelo://app?vid=9c1ff02c-df35-4545-98b6-54b455499ca0","ios":"levelo://app?vid=9c1ff02c-df35-4545-98b6-54b455499ca0"},"vehicle_type_id":"4","last_reported":1766938354,"current_range_meters":4000,"station_id":"ce4bhl12rcd13ifvqgf0","pricing_plan_id":"cebpf4jnsgd1na2vs0mg"},{"bike_id":"c2d0634e-71ff-4483-9190-0171881a0c85","system_id":"levelo_inurba_marseille","lat":43.28409,"lon":5.37517,"is_reserved":false,"is_disabled":false,"rental_uris":{"android":"levelo://app?vid=c2d0634e-71ff-4483-9190-0171881a0c85","ios":"levelo://app?vid=c2d0634e-71ff-4483-9190-0171881a0c85"},"vehicle_type_id":"4","last_reported":1766938354,"current_range_meters":4000,"station_id":"ce4bh412rcd13ifvqds0","pricing_plan_id":"cebpf4jnsgd1na2vs0mg"},{"bike_id":"30754e3c-9b6d-4a7b-a571-ac555d0043a4","system_id":"levelo_inurba_marseille","lat":43.25491,"lon":5.37645,"is_reserved":false,"is_disabled":false,"rental_uris":{"android":"levelo://app?vid=30754e3c-9b6d-4a7b-a571-ac555d0043a4","ios":"levelo://app?vid=30754e3c-9b6d-4a7b-a571-ac555d0043a4"},"vehicle_type_id":"4","last_reported":1766938354,"current_range_meters":4400,"station_id":"ce4bhh12rcd13ifvqff0","pricing_plan_id":"cebpf4jnsgd1na2vs0mg"},{"bike_id":"9c4aa544-d71d-4720-9198-09b2132e3b69","system_id":"levelo_inurba_marseille","lat":43.2439,"lon":5.37078,"is_reserved":false,"is_disabled":false,"rental_uris":{"android":"levelo://app?vid=9c4aa544-d71d-4720-9198-09b2132e3b69","ios":"levelo://app?vid=9c4aa544-d71d-4720-9198-09b2132e3b69"},"vehicle_type_id":"4","last_reported":1766938354,"current_range_meters":4400,"station_id":"ce4bhhh2rcd13ifvqfk0","pricing_plan_id":"cebpf4jnsgd1na2vs0mg"},{"bike_id":"2e945729-04b9-4d96-9b6f-83c17b35f5b2","system_id":"levelo_inurba_marseille","lat":43.29005,"lon":5.35613,"is_reserved":false,"is_disabled":false,"rental_uris":{"android":"levelo://app?vid=2e945729-04b9-4d96-9b6f-83c17b35f5b2","ios":"levelo://app?vid=2e945729-04b9-4d96-9b6f-83c17b35f5b2"},"vehicle_type_id":"4","last_reported":1766938354,"current_range_meters":4400,"station_id":"ce4bhb92rcd13ifvqen0","pricing_plan_id":"cebpf4jnsgd1na2vs0mg"},{"bike_id":"dac24c5c-9a42-4fdf-bf17-c0729a4a9a2a","system_id":"levelo_inurba_marseille","lat":43.32511,"lon":5.41219,"is_reserved":false,"is_disabled":false,"rental_uris":{"android":"levelo://app?vid=dac24c5c-9a42-4fdf-bf17-c0729a4a9a2a","ios":"levelo://app?vid=dac24c5c-9a42-4fdf-bf17-c0729a4a9a2a"},"vehicle_type_id":"4","last_reported":1766938354,"current_range_meters":4800,"station_id":"","pricing_plan_id":"cebpf4jnsgd1na2vs0mg"},{"bike_id":"339a0c71-2a9a-4cfb-a54e-2a5557b4296a","system_id":"levelo_inurba_marseille","lat":43.241667,"lon":5.364035,"is_reserved":false,"is_disabled":false,"rental_uris":{"android":"levelo://app?vid=339a0c71-2a9a-4cfb-a54e-2a5557b4296a","ios":"levelo://app?vid=339a0c71-2a9a-4cfb-a54e-2a5557b4296a"},"vehicle_type_id":"4","last_reported":1766938354,"current_range_meters":4800,"station_id":"cpo36qri1sfpv3e86is0","pricing_plan_id":"cebpf4jnsgd1na2vs0mg"},{"bike_id":"fa00a805-a06d-4724-b505-86f55fa59415","system_id":"levelo_inurba_marseille","lat":43.24646,"lon":5.38891,"is_reserved":false,"is_disabled":false,"rental_uris":{"android":"levelo://app?vid=fa00a805-a06d-4724-b505-86f55fa59415","ios":"levelo://app?vid=fa00a805-a06d-4724-b505-86f55fa59415"},"vehicle_type_id":"4","last_reported":1766938354,"current_range_meters":4800,"station_id":"ce4bhg12rcd13ifvqf60","pricing_plan_id":"cebpf4jnsgd1na2vs0mg"},{"bike_id":"c9050b5e-210a-4351-bd9d-1aeb248517b4","system_id":"levelo_inurba_marseille","lat":43.27376,"lon":5.36249,"is_reserved":false,"is_disabled":false,"rental_uris":{"android":"levelo://app?vid=c9050b5e-210a-4351-bd9d-1aeb248517b4","ios":"levelo://app?vid=c9050b5e-210a-4351-bd9d-1aeb248517b4"},"vehicle_type_id":"4","last_reported":1766938354,"current_range_meters":5600,"station_id":"ce4bhbh2rcd13ifvqeo0","pricing_plan_id":"cebpf4jnsgd1na2vs0mg"},{"bike_id":"6b78340e-55ee-4906-99eb-9187de7ae8d6","system_id":"levelo_inurba_marseille","lat":43.29302,"lon":5.37153,"is_reserved":false,"is_disabled":false,"rental_uris":{"android":"levelo://app?vid=6b78340e-55ee-4906-99eb-9187de7ae8d6","ios":"levelo://app?vid=6b78340e-55ee-4906-99eb-9187de7ae8d6"},"vehicle_type_id":"4","last_reported":1766938354,"current_range_meters":5600,"station_id":"ce4bgh92rcd13ifvqb40","pricing_plan_id":"cebpf4jnsgd1na2vs0mg"},{"bike_id":"98d3e21c-e98a-46fc-9d4c-ae572223d85f","system_id":"levelo_inurba_marseille","lat":43.26548,"lon":5.37291,"is_reserved":false,"is_disabled":false,"rental_uris":{"android":"levelo://app?vid=98d3e21c-e98a-46fc-9d4c-ae572223d85f","ios":"levelo://app?vid=98d3e21c-e98a-46fc-9d4c-ae572223d85f"},"vehicle_type_id":"4","last_reported":1766938354,"current_range_meters":5600,"station_id":"ce4bhg12rcd13ifvqf70","pricing_plan_id":"cebpf4jnsgd1na2vs0mg"},{"bike_id":"5e3f4feb-570e-4d98-bbff-99622c4ef1b1","system_id":"levelo_inurba_marseille","lat":43.292694,"lon":5.368483,"is_reserved":false,"is_disabled":false,"rental_uris":{"android":"levelo://app?vid=5e3f4feb-570e-4d98-bbff-99622c4ef1b1","ios":"levelo://app?vid=5e3f4feb-570e-4d98-bbff-99622c4ef1b1"},"vehicle_type_id":"4","last_reported":1766938354,"current_range_meters":6000,"station_id":"ce4bhbp2rcd13ifvqesg","pricing_plan_id":"cebpf4jnsgd1na2vs0mg"},{"bike_id":"8f1fbae4-9ae2-42cf-94dd-daad6d586514","system_id":"levelo_inurba_marseille","lat":43.22568,"lon":5.41635,"is_reserved":false,"is_disabled":false,"rental_uris":{"android":"levelo://app?vid=8f1fbae4-9ae2-42cf-94dd-daad6d586514","ios":"levelo://app?vid=8f1fbae4-9ae2-42cf-94dd-daad6d586514"},"vehicle_type_id":"4","last_reported":1766938354,"current_range_meters":6000,"station_id":"st_d2o4gvlbi1j2169b742g","pricing_plan_id":"cebpf4jnsgd1na2vs0mg"},{"bike_id":"2275fdf3-2956-456a-ac7b-ed90d45d74fd","system_id":"levelo_inurba_marseille","lat":43.26951,"lon":5.38897,"is_reserved":false,"is_disabled":false,"rental_uris":{"android":"levelo://app?vid=2275fdf3-2956-456a-ac7b-ed90d45d74fd","ios":"levelo://app?vid=2275fdf3-2956-456a-ac7b-ed90d45d74fd"},"vehicle_type_id":"4","last_reported":1766938354,"current_range_meters":6000,"station_id":"ce4bhhh2rcd13ifvqfl0","pricing_plan_id":"cebpf4jnsgd1na2vs0mg"},{"bike_id":"9946c4ed-7a05-42ed-9877-9de77083527d","system_id":"levelo_inurba_marseille","lat":43.337444,"lon":5.374475,"is_reserved":false,"is_disabled":false,"rental_uris":{"android":"levelo://app?vid=9946c4ed-7a05-42ed-9877-9de77083527d","ios":"levelo://app?vid=9946c4ed-7a05-42ed-9877-9de77083527d"},"vehicle_type_id":"4","last_reported":1766938354,"current_range_meters":6000,"station_id":"ce4bgqh2rcd13ifvqc4g","pricing_plan_id":"cebpf4jnsgd1na2vs0mg"},{"bike_id":"0cb5447a-cfaa-4eb9-96bd-0ba22efde85c","system_id":"levelo_inurba_marseille","lat":43.2733,"lon":5.39076,"is_reserved":false,"is_disabled":false,"rental_uris":{"android":"levelo://app?vid=0cb5447a-cfaa-4eb9-96bd-0ba22efde85c","ios":"levelo://app?vid=0cb5447a-cfaa-4eb9-96bd-0ba22efde85c"},"vehicle_type_id":"4","last_reported":1766938354,"current_range_meters":6400,"station_id":"ce4bhgp2rcd13ifvqfe0","pricing_plan_id":"cebpf4jnsgd1na2vs0mg"},{"bike_id":"f0d8fe54-e37d-4344-bff7-37c7ffceff03","system_id":"levelo_inurba_marseille","lat":43.28411,"lon":5.34992,"is_reserved":false,"is_disabled":false,"rental_uris":{"android":"levelo://app?vid=f0d8fe54-e37d-4344-bff7-37c7ffceff03","ios":"levelo://app?vid=f0d8fe54-e37d-4344-bff7-37c7ffceff03"},"vehicle_type_id":"4","last_reported":1766938354,"current_range_meters":6400,"station_id":"ce4bhbh2rcd13ifvqepg","pricing_plan_id":"cebpf4jnsgd1na2vs0mg"},{"bike_id":"bc568f99-2d83-4e5a-8b80-4c8ab7d8ad1f","system_id":"levelo_inurba_marseille","lat":43.241568,"lon":5.376538,"is_reserved":false,"is_disabled":false,"rental_uris":{"android":"levelo://app?vid=bc568f99-2d83-4e5a-8b80-4c8ab7d8ad1f","ios":"levelo://app?vid=bc568f99-2d83-4e5a-8b80-4c8ab7d8ad1f"},"vehicle_type_id":"4","last_reported":1766938354,"current_range_meters":6400,"station_id":"","pricing_plan_id":"cebpf4jnsgd1na2vs0mg"},{"bike_id":"08f4624a-a23d-4738-b794-a8bd53bfd7e8","system_id":"levelo_inurba_marseille","lat":43.29833,"lon":5.37645,"is_reserved":false,"is_disabled":false,"rental_uris":{"android":"levelo://app?vid=08f4624a-a23d-4738-b794-a8bd53bfd7e8","ios":"levelo://app?vid=08f4624a-a23d-4738-b794-a8bd53bfd7e8"},"vehicle_type_id":"4","last_reported":1766938354,"current_range_meters":6800,"station_id":"","pricing_plan_id":"cebpf4jnsgd1na2vs0mg"},{"bike_id":"cde75731-be94-4954-af76-b79651b240b9","system_id":"levelo_inurba_marseille","lat":43.29901,"lon":5.39401,"is_reserved":false,"is_disabled":false,"rental_uris":{"android":"levelo://app?vid=cde75731-be94-4954-af76-b79651b240b9","ios":"levelo://app?vid=cde75731-be94-4954-af76-b79651b240b9"},"vehicle_type_id":"4","last_reported":1766938354,"current_range_meters":6800,"station_id":"","pricing_plan_id":"cebpf4jnsgd1na2vs0mg"},{"bike_id":"8526cb13-c70f-4134-9aed-80c4c9d31e4e","system_id":"levelo_inurba_marseille","lat":43.27895,"lon":5.39157,"is_reserved":false,"is_disabled":false,"rental_uris":{"android":"levelo://app?vid=8526cb13-c70f-4134-9aed-80c4c9d31e4e","ios":"levelo://app?vid=8526cb13-c70f-4134-9aed-80c4c9d31e4e"},"vehicle_type_id":"4","last_reported":1766938354,"current_range_meters":6800,"station_id":"","pricing_plan_id":"cebpf4jnsgd1na2vs0mg"},{"bike_id":"474434a9-d546-42bc-a5bb-96f99de370c7","system_id":"levelo_inurba_marseille","lat":43.26547,"lon":5.37299,"is_reserved":false,"is_disabled":true,"rental_uris":{"android":"levelo://app?vid=474434a9-d546-42bc-a5bb-96f99de370c7","ios":"levelo://app?vid=474434a9-d546-42bc-a5bb-96f99de370c7"},"vehicle_type_id":"4","last_reported":1766938354,"current_range_meters":6800,"station_id":"ce4bhg12rcd13ifvqf70","pricing_plan_id":"cebpf4jnsgd1na2vs0mg"},{"bike_id":"8ae2c467-618c-4762-80c0-e9b89171ebce","system_id":"levelo_inurba_marseille","lat":43.31194,"lon":5.36983,"is_reserved":false,"is_disabled":false,"rental_uris":{"android":"levelo://app?vid=8ae2c467-618c-4762-80c0-e9b89171ebce","ios":"levelo://app?vid=8ae2c467-618c-4762-80c0-e9b89171ebce"},"vehicle_type_id":"4","last_reported":1766938354,"current_range_meters":6800,"station_id":"","pricing_plan_id":"cebpf4jnsgd1na2vs0mg"},{"bike_id":"1c79eb29-135e-40c1-8651-901759d4aaa6","system_id":"levelo_inurba_marseille","lat":43.28573,"lon":5.353033,"is_reserved":false,"is_disabled":false,"rental_uris":{"android":"levelo://app?vid=1c79eb29-135e-40c1-8651-901759d4aaa6","ios":"levelo://app?vid=1c79eb29-135e-40c1-8651-901759d4aaa6"},"vehicle_type_id":"4","last_reported":1766938354,"current_range_meters":6800,"station_id":"","pricing_plan_id":"cebpf4jnsgd1na2vs0mg"},{"bike_id":"9c494ab4-6064-41cc-867f-94d1d4b9902e","system_id":"levelo_inurba_marseille","lat":43.29064,"lon":5.36558,"is_reserved":false,"is_disabled":false,"rental_uris":{"android":"levelo://app?vid=9c494ab4-6064-41cc-867f-94d1d4b9902e","ios":"levelo://app?vid=9c494ab4-6064-41cc-867f-94d1d4b9902e"},"vehicle_type_id":"4","last_reported":1766938354,"current_range_meters":6800,"station_id":"","pricing_plan_id":"cebpf4jnsgd1na2vs0mg"},{"bike_id":"c401d671-7fdd-4c2f-92dc-81ebb6341f4a","system_id":"levelo_inurba_marseille","lat":43.29885,"lon":5.38896,"is_reserved":false,"is_disabled":false,"rental_uris":{"android":"levelo://app?vid=c401d671-7fdd-4c2f-92dc-81ebb6341f4a","ios":"levelo://app?vid=c401d671-7fdd-4c2f-92dc-81ebb6341f4a"},"vehicle_type_id":"4","last_reported":1766938354,"current_range_meters":6800,"station_id":"ce4bh392rcd13ifvqdl0","pricing_plan_id":"cebpf4jnsgd1na2vs0mg"},{"bike_id":"6baba0a9-8e75-4061-9208-ac16fff817bf","system_id":"levelo_inurba_marseille","lat":43.278658,"lon":5.416377,"is_reserved":false,"is_disabled":false,"rental_uris":{"android":"levelo://app?vid=6baba0a9-8e75-4061-9208-ac16fff817bf","ios":"levelo://app?vid=6baba0a9-8e75-4061-9208-ac16fff817bf"},"vehicle_type_id":"4","last_reported":1766938354,"current_range_meters":6800,"station_id":"ce4bho12rcd13ifvqh1g","pricing_plan_id":"cebpf4jnsgd1na2vs0mg"},{"bike_id":"7ef0cae7-d0ce-42f4-8945-1ef1b36c8fff","system_id":"levelo_inurba_marseille","lat":43.29053,"lon":5.39939,"is_reserved":false,"is_disabled":false,"rental_uris":{"android":"levelo://app?vid=7ef0cae7-d0ce-42f4-8945-1ef1b36c8fff","ios":"levelo://app?vid=7ef0cae7-d0ce-42f4-8945-1ef1b36c8fff"},"vehicle_type_id":"4","last_reported":1766938354,"current_range_meters":6800,"station_id":"ce4bh392rcd13ifvqdm0","pricing_plan_id":"cebpf4jnsgd1na2vs0mg"},{"bike_id":"009a7a68-4265-42d4-9da8-13cb93ff2baf","system_id":"levelo_inurba_marseille","lat":43.283614,"lon":5.386362,"is_reserved":false,"is_disabled":false,"rental_uris":{"android":"levelo://app?vid=009a7a68-4265-42d4-9da8-13cb93ff2baf","ios":"levelo://app?vid=009a7a68-4265-42d4-9da8-13cb93ff2baf"},"vehicle_type_id":"4","last_reported":1766938354,"current_range_meters":6800,"station_id":"ce4bh492rcd13ifvqdvg","pricing_plan_id":"cebpf4jnsgd1na2vs0mg"},{"bike_id":"80e5704f-ad4a-47fa-8434-b81adbddb3a7","system_id":"levelo_inurba_marseille","lat":43.28005,"lon":5.4102,"is_reserved":false,"is_disabled":true,"rental_uris":{"android":"levelo://app?vid=80e5704f-ad4a-47fa-8434-b81adbddb3a7","ios":"levelo://app?vid=80e5704f-ad4a-47fa-8434-b81adbddb3a7"},"vehicle_type_id":"4","last_reported":1766938354,"current_range_meters":7200,"station_id":"","pricing_plan_id":"cebpf4jnsgd1na2vs0mg"},{"bike_id":"50f2d474-ee9b-4c75-ad2b-2a2a28d29ffb","system_id":"levelo_inurba_marseille","lat":43.29677,"lon":5.38557,"is_reserved":false,"is_disabled":false,"rental_uris":{"android":"levelo://app?vid=50f2d474-ee9b-4c75-ad2b-2a2a28d29ffb","ios":"levelo://app?vid=50f2d474-ee9b-4c75-ad2b-2a2a28d29ffb"},"vehicle_type_id":"4","last_reported":1766938354,"current_range_meters":7200,"station_id":"","pricing_plan_id":"cebpf4jnsgd1na2vs0mg"},{"bike_id":"7451e2f1-97cc-4a6a-824e-1c725c74e9d6","system_id":"levelo_inurba_marseille","lat":43.32452,"lon":5.38984,"is_reserved":false,"is_disabled":false,"rental_uris":{"android":"levelo://app?vid=7451e2f1-97cc-4a6a-824e-1c725c74e9d6","ios":"levelo://app?vid=7451e2f1-97cc-4a6a-824e-1c725c74e9d6"},"vehicle_type_id":"4","last_reported":1766938354,"current_range_meters":7200,"station_id":"","pricing_plan_id":"cebpf4jnsgd1na2vs0mg"},{"bike_id":"e4c29ad7-fc11-4e21-ac8f-ee889630bca4","system_id":"levelo_inurba_marseille","lat":43.291984,"lon":5.39316,"is_reserved":false,"is_disabled":false,"rental_uris":{"android":"levelo://app?vid=e4c29ad7-fc11-4e21-ac8f-ee889630bca4","ios":"levelo://app?vid=e4c29ad7-fc11-4e21-ac8f-ee889630bca4"},"vehicle_type_id":"4","last_reported":1766938354,"current_range_meters":7200,"station_id":"","pricing_plan_id":"cebpf4jnsgd1na2vs0mg"},{"bike_id":"ae6f5036-1aa0-4a83-abdc-77ced3fab898","system_id":"levelo_inurba_marseille","lat":43.30933,"lon":5.38027,"is_reserved":false,"is_disabled":false,"rental_uris":{"android":"levelo://app?vid=ae6f5036-1aa0-4a83-abdc-77ced3fab898","ios":"levelo://app?vid=ae6f5036-1aa0-4a83-abdc-77ced3fab898"},"vehicle_type_id":"4","last_reported":1766938354,"current_range_meters":8000,"station_id":"","pricing_plan_id":"cebpf4jnsgd1na2vs0mg"},{"bike_id":"39140483-9069-4537-9a59-4d2c06301956","system_id":"levelo_inurba_marseille","lat":43.28446,"lon":5.392,"is_reserved":false,"is_disabled":false,"rental_uris":{"android":"levelo://app?vid=39140483-9069-4537-9a59-4d2c06301956","ios":"levelo://app?vid=39140483-9069-4537-9a59-4d2c06301956"},"vehicle_type_id":"4","last_reported":1766938354,"current_range_meters":8000,"station_id":"ce4bhoh2rcd13ifvqh5g","pricing_plan_id":"cebpf4jnsgd1na2vs0mg"},{"bike_id":"3a7d51a9-02fa-49c0-9323-106c627a2fee","system_id":"levelo_inurba_marseille","lat":43.2979,"lon":5.38105,"is_reserved":false,"is_disabled":false,"rental_uris":{"android":"levelo://app?vid=3a7d51a9-02fa-49c0-9323-106c627a2fee","ios":"levelo://app?vid=3a7d51a9-02fa-49c0-9323-106c627a2fee"},"vehicle_type_id":"4","last_reported":1766938354,"current_range_meters":8000,"station_id":"ce4bgip2rcd13ifvqbb0","pricing_plan_id":"cebpf4jnsgd1na2vs0mg"},{"bike_id":"9d21dcb0-ce26-48db-a303-317550439f40","system_id":"levelo_inurba_marseille","lat":43.28518,"lon":5.48358,"is_reserved":false,"is_disabled":false,"rental_uris":{"android":"levelo://app?vid=9d21dcb0-ce26-48db-a303-317550439f40","ios":"levelo://app?vid=9d21dcb0-ce26-48db-a303-317550439f40"},"vehicle_type_id":"4","last_reported":1766938354,"current_range_meters":8000,"station_id":"","pricing_plan_id":"cebpf4jnsgd1na2vs0mg"},{"bike_id":"c0723a55-d0d0-493e-a4c5-9479bcaeff93","system_id":"levelo_inurba_marseille","lat":43.28464,"lon":5.48399,"is_reserved":false,"is_disabled":false,"rental_uris":{"android":"levelo://app?vid=c0723a55-d0d0-493e-a4c5-9479bcaeff93","ios":"levelo://app?vid=c0723a55-d0d0-493e-a4c5-9479bcaeff93"},"vehicle_type_id":"4","last_reported":1766938354,"current_range_meters":8000,"station_id":"","pricing_plan_id":"cebpf4jnsgd1na2vs0mg"},{"bike_id":"7c5ef131-acab-4659-999a-8e7261371087","system_id":"levelo_inurba_marseille","lat":43.29862,"lon":5.37852,"is_reserved":false,"is_disabled":true,"rental_uris":{"android":"levelo://app?vid=7c5ef131-acab-4659-999a-8e7261371087","ios":"levelo://app?vid=7c5ef131-acab-4659-999a-8e7261371087"},"vehicle_type_id":"4","last_reported":1766938354,"current_range_meters":8000,"station_id":"","pricing_plan_id":"cebpf4jnsgd1na2vs0mg"},{"bike_id":"2774eca9-c878-4033-8514-2330fd47f167","system_id":"levelo_inurba_marseille","lat":43.2848,"lon":5.483934,"is_reserved":false,"is_disabled":false,"rental_uris":{"android":"levelo://app?vid=2774eca9-c878-4033-8514-2330fd47f167","ios":"levelo://app?vid=2774eca9-c878-4033-8514-2330fd47f167"},"vehicle_type_id":"4","last_reported":1766938354,"current_range_meters":8000,"station_id":"st_d3svhcjqgbts73a3dn0g","pricing_plan_id":"cebpf4jnsgd1na2vs0mg"},{"bike_id":"bafbac57-f95d-474f-9ab8-4089c3a4d706","system_id":"levelo_inurba_marseille","lat":43.28551,"lon":5.44091,"is_reserved":false,"is_disabled":false,"rental_uris":{"android":"levelo://app?vid=bafbac57-f95d-474f-9ab8-4089c3a4d706","ios":"levelo://app?vid=bafbac57-f95d-474f-9ab8-4089c3a4d706"},"vehicle_type_id":"4","last_reported":1766938354,"current_range_meters":8000,"station_id":"st_d3j3df2ikq2c7380ej80","pricing_plan_id":"cebpf4jnsgd1na2vs0mg"},{"bike_id":"afba0818-afb7-4fd6-afa8-059ecafca4bb","system_id":"levelo_inurba_marseille","lat":43.30531,"lon":5.36537,"is_reserved":false,"is_disabled":false,"rental_uris":{"android":"levelo://app?vid=afba0818-afb7-4fd6-afa8-059ecafca4bb","ios":"levelo://app?vid=afba0818-afb7-4fd6-afa8-059ecafca4bb"},"vehicle_type_id":"4","last_reported":1766938354,"current_range_meters":8000,"station_id":"ce4bgs12rcd13ifvqcag","pricing_plan_id":"cebpf4jnsgd1na2vs0mg"},{"bike_id":"a600964c-6918-498f-ab87-e4a5af27547d","system_id":"levelo_inurba_marseille","lat":43.29714,"lon":5.37711,"is_reserved":false,"is_disabled":false,"rental_uris":{"android":"levelo://app?vid=a600964c-6918-498f-ab87-e4a5af27547d","ios":"levelo://app?vid=a600964c-6918-498f-ab87-e4a5af27547d"},"vehicle_type_id":"4","last_reported":1766938354,"current_range_meters":8000,"station_id":"ce4bgkh2rcd13ifvqbl0","pricing_plan_id":"cebpf4jnsgd1na2vs0mg"},{"bike_id":"118f18ad-f988-43a9-ad4b-ee75fba025a0","system_id":"levelo_inurba_marseille","lat":43.292633,"lon":5.384536,"is_reserved":false,"is_disabled":false,"rental_uris":{"android":"levelo://app?vid=118f18ad-f988-43a9-ad4b-ee75fba025a0","ios":"levelo://app?vid=118f18ad-f988-43a9-ad4b-ee75fba025a0"},"vehicle_type_id":"4","last_reported":1766938354,"current_range_meters":8400,"station_id":"ce4bh692rcd13ifvqea0","pricing_plan_id":"cebpf4jnsgd1na2vs0mg"},{"bike_id":"c8583ced-96a8-4f3a-bf58-5af394f117b7","system_id":"levelo_inurba_marseille","lat":43.28614,"lon":5.35108,"is_reserved":false,"is_disabled":false,"rental_uris":{"android":"levelo://app?vid=c8583ced-96a8-4f3a-bf58-5af394f117b7","ios":"levelo://app?vid=c8583ced-96a8-4f3a-bf58-5af394f117b7"},"vehicle_type_id":"4","last_reported":1766938354,"current_range_meters":8400,"station_id":"ce4bhch2rcd13ifvqeug","pricing_plan_id":"cebpf4jnsgd1na2vs0mg"},{"bike_id":"97848435-e4dc-4eee-ab50-f0d1b0b6b0f3","system_id":"levelo_inurba_marseille","lat":43.25848,"lon":5.39907,"is_reserved":false,"is_disabled":true,"rental_uris":{"android":"levelo://app?vid=97848435-e4dc-4eee-ab50-f0d1b0b6b0f3","ios":"levelo://app?vid=97848435-e4dc-4eee-ab50-f0d1b0b6b0f3"},"vehicle_type_id":"4","last_reported":1766938354,"current_range_meters":8400,"station_id":"ce4bhl92rcd13ifvqghg","pricing_plan_id":"cebpf4jnsgd1na2vs0mg"},{"bike_id":"7c5aad66-529f-4b9e-b9ff-01b6a9c23739","system_id":"levelo_inurba_marseille","lat":43.295423,"lon":5.394141,"is_reserved":false,"is_disabled":false,"rental_uris":{"android":"levelo://app?vid=7c5aad66-529f-4b9e-b9ff-01b6a9c23739","ios":"levelo://app?vid=7c5aad66-529f-4b9e-b9ff-01b6a9c23739"},"vehicle_type_id":"4","last_reported":1766938354,"current_range_meters":8400,"station_id":"ce4bh0h2rcd13ifvqd50","pricing_plan_id":"cebpf4jnsgd1na2vs0mg"},{"bike_id":"d9e8cf7b-7cc2-4619-b1dc-f8bb728e67f5","system_id":"levelo_inurba_marseille","lat":43.23963,"lon":5.366239,"is_reserved":false,"is_disabled":false,"rental_uris":{"android":"levelo://app?vid=d9e8cf7b-7cc2-4619-b1dc-f8bb728e67f5","ios":"levelo://app?vid=d9e8cf7b-7cc2-4619-b1dc-f8bb728e67f5"},"vehicle_type_id":"4","last_reported":1766938354,"current_range_meters":8800,"station_id":"ce4bhi12rcd13ifvqfp0","pricing_plan_id":"cebpf4jnsgd1na2vs0mg"},{"bike_id":"eab00788-a42e-40cb-a9e6-044c77b732fa","system_id":"levelo_inurba_marseille","lat":43.29512,"lon":5.39396,"is_reserved":false,"is_disabled":false,"rental_uris":{"android":"levelo://app?vid=eab00788-a42e-40cb-a9e6-044c77b732fa","ios":"levelo://app?vid=eab00788-a42e-40cb-a9e6-044c77b732fa"},"vehicle_type_id":"4","last_reported":1766938354,"current_range_meters":8800,"station_id":"ce4bh292rcd13ifvqdf0","pricing_plan_id":"cebpf4jnsgd1na2vs0mg"},{"bike_id":"ee8ca4e8-f3dc-48b9-b5f2-1235114e76c1","system_id":"levelo_inurba_marseille","lat":43.23956,"lon":5.36646,"is_reserved":false,"is_disabled":false,"rental_uris":{"android":"levelo://app?vid=ee8ca4e8-f3dc-48b9-b5f2-1235114e76c1","ios":"levelo://app?vid=ee8ca4e8-f3dc-48b9-b5f2-1235114e76c1"},"vehicle_type_id":"4","last_reported":1766938354,"current_range_meters":8800,"station_id":"ce4bhi12rcd13ifvqfp0","pricing_plan_id":"cebpf4jnsgd1na2vs0mg"},{"bike_id":"23887e2e-6364-4691-94bb-f54bd67e804e","system_id":"levelo_inurba_marseille","lat":43.30543,"lon":5.36534,"is_reserved":false,"is_disabled":false,"rental_uris":{"android":"levelo://app?vid=23887e2e-6364-4691-94bb-f54bd67e804e","ios":"levelo://app?vid=23887e2e-6364-4691-94bb-f54bd67e804e"},"vehicle_type_id":"4","last_reported":1766938354,"current_range_meters":8800,"station_id":"ce4bgs12rcd13ifvqcag","pricing_plan_id":"cebpf4jnsgd1na2vs0mg"},{"bike_id":"dc888270-a1ca-4b91-92f3-11c1f5de61ac","system_id":"levelo_inurba_marseille","lat":43.26218,"lon":5.37435,"is_reserved":false,"is_disabled":false,"rental_uris":{"android":"levelo://app?vid=dc888270-a1ca-4b91-92f3-11c1f5de61ac","ios":"levelo://app?vid=dc888270-a1ca-4b91-92f3-11c1f5de61ac"},"vehicle_type_id":"4","last_reported":1766938354,"current_range_meters":8800,"station_id":"ce4bhgp2rcd13ifvqfc0","pricing_plan_id":"cebpf4jnsgd1na2vs0mg"},{"bike_id":"d7ee54e6-2519-4ac6-8f67-c3a659f7d88b","system_id":"levelo_inurba_marseille","lat":43.28528,"lon":5.44099,"is_reserved":false,"is_disabled":false,"rental_uris":{"android":"levelo://app?vid=d7ee54e6-2519-4ac6-8f67-c3a659f7d88b","ios":"levelo://app?vid=d7ee54e6-2519-4ac6-8f67-c3a659f7d88b"},"vehicle_type_id":"4","last_reported":1766938354,"current_range_meters":8800,"station_id":"st_d3j3df2ikq2c7380ej80","pricing_plan_id":"cebpf4jnsgd1na2vs0mg"},{"bike_id":"5c6e3ec7-cc1e-4910-93fe-8737f63c13e6","system_id":"levelo_inurba_marseille","lat":43.34145,"lon":5.40899,"is_reserved":false,"is_disabled":false,"rental_uris":{"android":"levelo://app?vid=5c6e3ec7-cc1e-4910-93fe-8737f63c13e6","ios":"levelo://app?vid=5c6e3ec7-cc1e-4910-93fe-8737f63c13e6"},"vehicle_type_id":"4","last_reported":1766938354,"current_range_meters":9200,"station_id":"ce4bhqh2rcd13ifvqhlg","pricing_plan_id":"cebpf4jnsgd1na2vs0mg"},{"bike_id":"364a48f3-8473-4e00-9d33-2eb0fe242911","system_id":"levelo_inurba_marseille","lat":43.27657,"lon":5.3888,"is_reserved":false,"is_disabled":true,"rental_uris":{"android":"levelo://app?vid=364a48f3-8473-4e00-9d33-2eb0fe242911","ios":"levelo://app?vid=364a48f3-8473-4e00-9d33-2eb0fe242911"},"vehicle_type_id":"4","last_reported":1766938354,"current_range_meters":9200,"station_id":"ce4bhi12rcd13ifvqfo0","pricing_plan_id":"cebpf4jnsgd1na2vs0mg"},{"bike_id":"17a49efb-d179-4b85-b20c-4afe87c0613f","system_id":"levelo_inurba_marseille","lat":43.31064,"lon":5.37191,"is_reserved":false,"is_disabled":true,"rental_uris":{"android":"levelo://app?vid=17a49efb-d179-4b85-b20c-4afe87c0613f","ios":"levelo://app?vid=17a49efb-d179-4b85-b20c-4afe87c0613f"},"vehicle_type_id":"4","last_reported":1766938354,"current_range_meters":9200,"station_id":"st_d4kl2rp97mjs73e7tdfg","pricing_plan_id":"cebpf4jnsgd1na2vs0mg"},{"bike_id":"3c6dfb34-82b5-4988-93a7-7ce81fb8808f","system_id":"levelo_inurba_marseille","lat":43.27938,"lon":5.39588,"is_reserved":false,"is_disabled":true,"rental_uris":{"android":"levelo://app?vid=3c6dfb34-82b5-4988-93a7-7ce81fb8808f","ios":"levelo://app?vid=3c6dfb34-82b5-4988-93a7-7ce81fb8808f"},"vehicle_type_id":"4","last_reported":1766938354,"current_range_meters":9200,"station_id":"ce4bhf92rcd13ifvqf40","pricing_plan_id":"cebpf4jnsgd1na2vs0mg"},{"bike_id":"e44fdb7f-8720-46ac-981c-054c6ce20310","system_id":"levelo_inurba_marseille","lat":43.284771,"lon":5.484057,"is_reserved":false,"is_disabled":true,"rental_uris":{"android":"levelo://app?vid=e44fdb7f-8720-46ac-981c-054c6ce20310","ios":"levelo://app?vid=e44fdb7f-8720-46ac-981c-054c6ce20310"},"vehicle_type_id":"4","last_reported":1766938354,"current_range_meters":9600,"station_id":"st_d3svhcjqgbts73a3dn0g","pricing_plan_id":"cebpf4jnsgd1na2vs0mg"},{"bike_id":"7af3df8d-22dd-46d1-8a51-6ea855ba95c5","system_id":"levelo_inurba_marseille","lat":43.29529,"lon":5.39038,"is_reserved":false,"is_disabled":false,"rental_uris":{"android":"levelo://app?vid=7af3df8d-22dd-46d1-8a51-6ea855ba95c5","ios":"levelo://app?vid=7af3df8d-22dd-46d1-8a51-6ea855ba95c5"},"vehicle_type_id":"4","last_reported":1766938354,"current_range_meters":9600,"station_id":"ce4bh3p2rcd13ifvqdp0","pricing_plan_id":"cebpf4jnsgd1na2vs0mg"},{"bike_id":"ec3a5f28-5370-4e1c-b1b6-6097f5c40c08","system_id":"levelo_inurba_marseille","lat":43.28767,"lon":5.38419,"is_reserved":false,"is_disabled":false,"rental_uris":{"android":"levelo://app?vid=ec3a5f28-5370-4e1c-b1b6-6097f5c40c08","ios":"levelo://app?vid=ec3a5f28-5370-4e1c-b1b6-6097f5c40c08"},"vehicle_type_id":"4","last_reported":1766938354,"current_range_meters":9600,"station_id":"","pricing_plan_id":"cebpf4jnsgd1na2vs0mg"},{"bike_id":"32f49207-46d3-4d49-8820-a70ce4cfc86a","system_id":"levelo_inurba_marseille","lat":43.292262,"lon":5.360812,"is_reserved":false,"is_disabled":false,"rental_uris":{"android":"levelo://app?vid=32f49207-46d3-4d49-8820-a70ce4cfc86a","ios":"levelo://app?vid=32f49207-46d3-4d49-8820-a70ce4cfc86a"},"vehicle_type_id":"4","last_reported":1766938354,"current_range_meters":9600,"station_id":"ce4bhbh2rcd13ifvqeqg","pricing_plan_id":"cebpf4jnsgd1na2vs0mg"},{"bike_id":"278b026d-7c90-4296-9421-3e0684d777fa","system_id":"levelo_inurba_marseille","lat":43.30044,"lon":5.38225,"is_reserved":false,"is_disabled":false,"rental_uris":{"android":"levelo://app?vid=278b026d-7c90-4296-9421-3e0684d777fa","ios":"levelo://app?vid=278b026d-7c90-4296-9421-3e0684d777fa"},"vehicle_type_id":"4","last_reported":1766938354,"current_range_meters":9600,"station_id":"","pricing_plan_id":"cebpf4jnsgd1na2vs0mg"},{"bike_id":"b7166de2-1d61-4c79-9744-9f412287c996","system_id":"levelo_inurba_marseille","lat":43.31231,"lon":5.38085,"is_reserved":false,"is_disabled":false,"rental_uris":{"android":"levelo://app?vid=b7166de2-1d61-4c79-9744-9f412287c996","ios":"levelo://app?vid=b7166de2-1d61-4c79-9744-9f412287c996"},"vehicle_type_id":"4","last_reported":1766938354,"current_range_meters":10000,"station_id":"","pricing_plan_id":"cebpf4jnsgd1na2vs0mg"},{"bike_id":"80de60ca-64a0-4e5b-8a4a-906f78b8b649","system_id":"levelo_inurba_marseille","lat":43.27064,"lon":5.42275,"is_reserved":false,"is_disabled":false,"rental_uris":{"android":"levelo://app?vid=80de60ca-64a0-4e5b-8a4a-906f78b8b649","ios":"levelo://app?vid=80de60ca-64a0-4e5b-8a4a-906f78b8b649"},"vehicle_type_id":"4","last_reported":1766938354,"current_range_meters":10000,"station_id":"ce4bhk92rcd13ifvqgb0","pricing_plan_id":"cebpf4jnsgd1na2vs0mg"},{"bike_id":"0138c639-4746-4d87-852b-4d947828456a","system_id":"levelo_inurba_marseille","lat":43.2508,"lon":5.39508,"is_reserved":false,"is_disabled":false,"rental_uris":{"android":"levelo://app?vid=0138c639-4746-4d87-852b-4d947828456a","ios":"levelo://app?vid=0138c639-4746-4d87-852b-4d947828456a"},"vehicle_type_id":"4","last_reported":1766938354,"current_range_meters":10000,"station_id":"ce4bhm12rcd13ifvqgkg","pricing_plan_id":"cebpf4jnsgd1na2vs0mg"},{"bike_id":"13510b18-4a9b-47d0-a954-6d7cdc2c118c","system_id":"levelo_inurba_marseille","lat":43.28489,"lon":5.48396,"is_reserved":false,"is_disabled":false,"rental_uris":{"android":"levelo://app?vid=13510b18-4a9b-47d0-a954-6d7cdc2c118c","ios":"levelo://app?vid=13510b18-4a9b-47d0-a954-6d7cdc2c118c"},"vehicle_type_id":"4","last_reported":1766938354,"current_range_meters":10000,"station_id":"st_d3svhcjqgbts73a3dn0g","pricing_plan_id":"cebpf4jnsgd1na2vs0mg"},{"bike_id":"bbf79c3d-08ca-4c87-b5f9-8b31cf1aef88","system_id":"levelo_inurba_marseille","lat":43.320576,"lon":5.415416,"is_reserved":false,"is_disabled":false,"rental_uris":{"android":"levelo://app?vid=bbf79c3d-08ca-4c87-b5f9-8b31cf1aef88","ios":"levelo://app?vid=bbf79c3d-08ca-4c87-b5f9-8b31cf1aef88"},"vehicle_type_id":"4","last_reported":1766938354,"current_range_meters":10000,"station_id":"ce4bhq92rcd13ifvqhkg","pricing_plan_id":"cebpf4jnsgd1na2vs0mg"},{"bike_id":"f21fe9bf-f3b6-40e2-a040-797febd6921f","system_id":"levelo_inurba_marseille","lat":43.24238,"lon":5.39321,"is_reserved":false,"is_disabled":false,"rental_uris":{"android":"levelo://app?vid=f21fe9bf-f3b6-40e2-a040-797febd6921f","ios":"levelo://app?vid=f21fe9bf-f3b6-40e2-a040-797febd6921f"},"vehicle_type_id":"4","last_reported":1766938354,"current_range_meters":10000,"station_id":"","pricing_plan_id":"cebpf4jnsgd1na2vs0mg"},{"bike_id":"898113a0-4857-44ff-94de-b1b7a47646b6","system_id":"levelo_inurba_marseille","lat":43.30299,"lon":5.38477,"is_reserved":false,"is_disabled":false,"rental_uris":{"android":"levelo://app?vid=898113a0-4857-44ff-94de-b1b7a47646b6","ios":"levelo://app?vid=898113a0-4857-44ff-94de-b1b7a47646b6"},"vehicle_type_id":"4","last_reported":1766938354,"current_range_meters":10000,"station_id":"","pricing_plan_id":"cebpf4jnsgd1na2vs0mg"},{"bike_id":"de5c828e-7c24-4a48-8887-f41b13b5b165","system_id":"levelo_inurba_marseille","lat":43.27618,"lon":5.36109,"is_reserved":false,"is_disabled":false,"rental_uris":{"android":"levelo://app?vid=de5c828e-7c24-4a48-8887-f41b13b5b165","ios":"levelo://app?vid=de5c828e-7c24-4a48-8887-f41b13b5b165"},"vehicle_type_id":"4","last_reported":1766938354,"current_range_meters":10000,"station_id":"ce4bgj92rcd13ifvqbe0","pricing_plan_id":"cebpf4jnsgd1na2vs0mg"},{"bike_id":"f01cc437-ef1e-483b-a62b-741f6f5f54be","system_id":"levelo_inurba_marseille","lat":43.29613,"lon":5.37727,"is_reserved":false,"is_disabled":false,"rental_uris":{"android":"levelo://app?vid=f01cc437-ef1e-483b-a62b-741f6f5f54be","ios":"levelo://app?vid=f01cc437-ef1e-483b-a62b-741f6f5f54be"},"vehicle_type_id":"4","last_reported":1766938354,"current_range_meters":10800,"station_id":"ce4bgi92rcd13ifvqb90","pricing_plan_id":"cebpf4jnsgd1na2vs0mg"},{"bike_id":"17122469-6fe8-44cc-83aa-2add588c9ff0","system_id":"levelo_inurba_marseille","lat":43.27072,"lon":5.42273,"is_reserved":false,"is_disabled":false,"rental_uris":{"android":"levelo://app?vid=17122469-6fe8-44cc-83aa-2add588c9ff0","ios":"levelo://app?vid=17122469-6fe8-44cc-83aa-2add588c9ff0"},"vehicle_type_id":"4","last_reported":1766938354,"current_range_meters":10800,"station_id":"ce4bhk92rcd13ifvqgb0","pricing_plan_id":"cebpf4jnsgd1na2vs0mg"},{"bike_id":"821fef51-8ad4-4b0b-b2da-173c4ed2d51d","system_id":"levelo_inurba_marseille","lat":43.24628,"lon":5.38905,"is_reserved":false,"is_disabled":true,"rental_uris":{"android":"levelo://app?vid=821fef51-8ad4-4b0b-b2da-173c4ed2d51d","ios":"levelo://app?vid=821fef51-8ad4-4b0b-b2da-173c4ed2d51d"},"vehicle_type_id":"4","last_reported":1766938354,"current_range_meters":10800,"station_id":"ce4bhg12rcd13ifvqf60","pricing_plan_id":"cebpf4jnsgd1na2vs0mg"},{"bike_id":"8005b977-26b8-44ee-acfb-f090bacc502a","system_id":"levelo_inurba_marseille","lat":43.24958,"lon":5.40491,"is_reserved":false,"is_disabled":false,"rental_uris":{"android":"levelo://app?vid=8005b977-26b8-44ee-acfb-f090bacc502a","ios":"levelo://app?vid=8005b977-26b8-44ee-acfb-f090bacc502a"},"vehicle_type_id":"4","last_reported":1766938354,"current_range_meters":10800,"station_id":"st_d2ngiaodas8pm72gd1h0","pricing_plan_id":"cebpf4jnsgd1na2vs0mg"},{"bike_id":"c5365846-c619-4f12-8c92-97c9f9725a15","system_id":"levelo_inurba_marseille","lat":43.29516,"lon":5.37936,"is_reserved":false,"is_disabled":false,"rental_uris":{"android":"levelo://app?vid=c5365846-c619-4f12-8c92-97c9f9725a15","ios":"levelo://app?vid=c5365846-c619-4f12-8c92-97c9f9725a15"},"vehicle_type_id":"4","last_reported":1766938354,"current_range_meters":10800,"station_id":"","pricing_plan_id":"cebpf4jnsgd1na2vs0mg"},{"bike_id":"7a26756b-c1db-416d-85d9-644bca1f1fea","system_id":"levelo_inurba_marseille","lat":43.286,"lon":5.3708,"is_reserved":false,"is_disabled":false,"rental_uris":{"android":"levelo://app?vid=7a26756b-c1db-416d-85d9-644bca1f1fea","ios":"levelo://app?vid=7a26756b-c1db-416d-85d9-644bca1f1fea"},"vehicle_type_id":"4","last_reported":1766938354,"current_range_meters":10800,"station_id":"ce4bht12rcd13ifvqi60","pricing_plan_id":"cebpf4jnsgd1na2vs0mg"},{"bike_id":"4db2dd6f-8183-4e90-af8a-d7adac78a5ac","system_id":"levelo_inurba_marseille","lat":43.27206,"lon":5.39196,"is_reserved":false,"is_disabled":true,"rental_uris":{"android":"levelo://app?vid=4db2dd6f-8183-4e90-af8a-d7adac78a5ac","ios":"levelo://app?vid=4db2dd6f-8183-4e90-af8a-d7adac78a5ac"},"vehicle_type_id":"4","last_reported":1766938354,"current_range_meters":10800,"station_id":"ce4bhhp2rcd13ifvqfm0","pricing_plan_id":"cebpf4jnsgd1na2vs0mg"},{"bike_id":"945eb126-c9ee-4f01-8c11-f3e0bd3eb3ad","system_id":"levelo_inurba_marseille","lat":43.29708,"lon":5.37699,"is_reserved":false,"is_disabled":false,"rental_uris":{"android":"levelo://app?vid=945eb126-c9ee-4f01-8c11-f3e0bd3eb3ad","ios":"levelo://app?vid=945eb126-c9ee-4f01-8c11-f3e0bd3eb3ad"},"vehicle_type_id":"4","last_reported":1766938354,"current_range_meters":11200,"station_id":"ce4bgkh2rcd13ifvqbl0","pricing_plan_id":"cebpf4jnsgd1na2vs0mg"},{"bike_id":"651c8d18-a513-45b6-8ce4-7babf693645e","system_id":"levelo_inurba_marseille","lat":43.29599,"lon":5.37543,"is_reserved":false,"is_disabled":false,"rental_uris":{"android":"levelo://app?vid=651c8d18-a513-45b6-8ce4-7babf693645e","ios":"levelo://app?vid=651c8d18-a513-45b6-8ce4-7babf693645e"},"vehicle_type_id":"4","last_reported":1766938354,"current_range_meters":11200,"station_id":"ce4bgh92rcd13ifvqb50","pricing_plan_id":"cebpf4jnsgd1na2vs0mg"},{"bike_id":"96cff8a2-c8e3-4b17-8132-2de8c70febcb","system_id":"levelo_inurba_marseille","lat":43.28533,"lon":5.44089,"is_reserved":false,"is_disabled":false,"rental_uris":{"android":"levelo://app?vid=96cff8a2-c8e3-4b17-8132-2de8c70febcb","ios":"levelo://app?vid=96cff8a2-c8e3-4b17-8132-2de8c70febcb"},"vehicle_type_id":"4","last_reported":1766938354,"current_range_meters":11200,"station_id":"st_d3j3df2ikq2c7380ej80","pricing_plan_id":"cebpf4jnsgd1na2vs0mg"},{"bike_id":"d384a9df-7728-4c53-be17-7057305f0e11","system_id":"levelo_inurba_marseille","lat":43.231928,"lon":5.399817,"is_reserved":false,"is_disabled":false,"rental_uris":{"android":"levelo://app?vid=d384a9df-7728-4c53-be17-7057305f0e11","ios":"levelo://app?vid=d384a9df-7728-4c53-be17-7057305f0e11"},"vehicle_type_id":"4","last_reported":1766938354,"current_range_meters":11200,"station_id":"ce4bhn12rcd13ifvqgqg","pricing_plan_id":"cebpf4jnsgd1na2vs0mg"},{"bike_id":"e77a2825-2f18-453f-84dc-7cda1b3d469d","system_id":"levelo_inurba_marseille","lat":43.2901,"lon":5.3813,"is_reserved":false,"is_disabled":true,"rental_uris":{"android":"levelo://app?vid=e77a2825-2f18-453f-84dc-7cda1b3d469d","ios":"levelo://app?vid=e77a2825-2f18-453f-84dc-7cda1b3d469d"},"vehicle_type_id":"4","last_reported":1766938354,"current_range_meters":11200,"station_id":"ce4bh4p2rcd13ifvqe1g","pricing_plan_id":"cebpf4jnsgd1na2vs0mg"},{"bike_id":"cf0e2dfe-8751-4251-bbd3-3ad00be9f3ad","system_id":"levelo_inurba_marseille","lat":43.28487,"lon":5.48409,"is_reserved":false,"is_disabled":false,"rental_uris":{"android":"levelo://app?vid=cf0e2dfe-8751-4251-bbd3-3ad00be9f3ad","ios":"levelo://app?vid=cf0e2dfe-8751-4251-bbd3-3ad00be9f3ad"},"vehicle_type_id":"4","last_reported":1766938354,"current_range_meters":11200,"station_id":"st_d3svhcjqgbts73a3dn0g","pricing_plan_id":"cebpf4jnsgd1na2vs0mg"},{"bike_id":"417386cf-4059-4a1f-ab41-a9b62b453096","system_id":"levelo_inurba_marseille","lat":43.33758,"lon":5.37425,"is_reserved":false,"is_disabled":false,"rental_uris":{"android":"levelo://app?vid=417386cf-4059-4a1f-ab41-a9b62b453096","ios":"levelo://app?vid=417386cf-4059-4a1f-ab41-a9b62b453096"},"vehicle_type_id":"4","last_reported":1766938354,"current_range_meters":11200,"station_id":"","pricing_plan_id":"cebpf4jnsgd1na2vs0mg"},{"bike_id":"81062f73-91d6-4254-837a-3a79f2f3a1d9","system_id":"levelo_inurba_marseille","lat":43.28105,"lon":5.38926,"is_reserved":false,"is_disabled":false,"rental_uris":{"android":"levelo://app?vid=81062f73-91d6-4254-837a-3a79f2f3a1d9","ios":"levelo://app?vid=81062f73-91d6-4254-837a-3a79f2f3a1d9"},"vehicle_type_id":"4","last_reported":1766938354,"current_range_meters":11200,"station_id":"","pricing_plan_id":"cebpf4jnsgd1na2vs0mg"},{"bike_id":"f4bd4050-bbb2-4a3a-89ad-dc72c5505cbb","system_id":"levelo_inurba_marseille","lat":43.29747,"lon":5.37684,"is_reserved":false,"is_disabled":false,"rental_uris":{"android":"levelo://app?vid=f4bd4050-bbb2-4a3a-89ad-dc72c5505cbb","ios":"levelo://app?vid=f4bd4050-bbb2-4a3a-89ad-dc72c5505cbb"},"vehicle_type_id":"4","last_reported":1766938354,"current_range_meters":11200,"station_id":"ce4bgkh2rcd13ifvqbl0","pricing_plan_id":"cebpf4jnsgd1na2vs0mg"},{"bike_id":"aec7723b-aa32-4163-9e48-d2409ae98963","system_id":"levelo_inurba_marseille","lat":43.28856,"lon":5.35847,"is_reserved":false,"is_disabled":false,"rental_uris":{"android":"levelo://app?vid=aec7723b-aa32-4163-9e48-d2409ae98963","ios":"levelo://app?vid=aec7723b-aa32-4163-9e48-d2409ae98963"},"vehicle_type_id":"4","last_reported":1766938354,"current_range_meters":11200,"station_id":"ce4bhb12rcd13ifvqem0","pricing_plan_id":"cebpf4jnsgd1na2vs0mg"},{"bike_id":"9141ee2b-d91f-49a3-bbcc-689b195cdf74","system_id":"levelo_inurba_marseille","lat":43.28567,"lon":5.39487,"is_reserved":false,"is_disabled":false,"rental_uris":{"android":"levelo://app?vid=9141ee2b-d91f-49a3-bbcc-689b195cdf74","ios":"levelo://app?vid=9141ee2b-d91f-49a3-bbcc-689b195cdf74"},"vehicle_type_id":"4","last_reported":1766938354,"current_range_meters":11200,"station_id":"ce4bh292rcd13ifvqdg0","pricing_plan_id":"cebpf4jnsgd1na2vs0mg"},{"bike_id":"a00ce252-0fae-4b4f-86e8-69902a717211","system_id":"levelo_inurba_marseille","lat":43.24181,"lon":5.39733,"is_reserved":false,"is_disabled":false,"rental_uris":{"android":"levelo://app?vid=a00ce252-0fae-4b4f-86e8-69902a717211","ios":"levelo://app?vid=a00ce252-0fae-4b4f-86e8-69902a717211"},"vehicle_type_id":"4","last_reported":1766938354,"current_range_meters":11200,"station_id":"ce4bhn12rcd13ifvqgpg","pricing_plan_id":"cebpf4jnsgd1na2vs0mg"},{"bike_id":"fd8ea5ab-939b-419a-920d-cc27abcf8749","system_id":"levelo_inurba_marseille","lat":43.239527,"lon":5.366149,"is_reserved":false,"is_disabled":false,"rental_uris":{"android":"levelo://app?vid=fd8ea5ab-939b-419a-920d-cc27abcf8749","ios":"levelo://app?vid=fd8ea5ab-939b-419a-920d-cc27abcf8749"},"vehicle_type_id":"4","last_reported":1766938354,"current_range_meters":11200,"station_id":"ce4bhi12rcd13ifvqfp0","pricing_plan_id":"cebpf4jnsgd1na2vs0mg"},{"bike_id":"ea4d1947-e1dd-4490-afa3-9091e516826b","system_id":"levelo_inurba_marseille","lat":43.28999,"lon":5.35609,"is_reserved":false,"is_disabled":false,"rental_uris":{"android":"levelo://app?vid=ea4d1947-e1dd-4490-afa3-9091e516826b","ios":"levelo://app?vid=ea4d1947-e1dd-4490-afa3-9091e516826b"},"vehicle_type_id":"4","last_reported":1766938354,"current_range_meters":11200,"station_id":"ce4bhb92rcd13ifvqen0","pricing_plan_id":"cebpf4jnsgd1na2vs0mg"},{"bike_id":"80e31eed-a0b1-4d06-8a22-dbf8a7378562","system_id":"levelo_inurba_marseille","lat":43.29078,"lon":5.37166,"is_reserved":false,"is_disabled":false,"rental_uris":{"android":"levelo://app?vid=80e31eed-a0b1-4d06-8a22-dbf8a7378562","ios":"levelo://app?vid=80e31eed-a0b1-4d06-8a22-dbf8a7378562"},"vehicle_type_id":"4","last_reported":1766938354,"current_range_meters":11600,"station_id":"ce4bh5p2rcd13ifvqe4g","pricing_plan_id":"cebpf4jnsgd1na2vs0mg"},{"bike_id":"c4841078-6c77-4db6-bd87-68a697b4299e","system_id":"levelo_inurba_marseille","lat":43.31228,"lon":5.36858,"is_reserved":false,"is_disabled":false,"rental_uris":{"android":"levelo://app?vid=c4841078-6c77-4db6-bd87-68a697b4299e","ios":"levelo://app?vid=c4841078-6c77-4db6-bd87-68a697b4299e"},"vehicle_type_id":"4","last_reported":1766938354,"current_range_meters":11600,"station_id":"ce4bgl92rcd13ifvqbq0","pricing_plan_id":"cebpf4jnsgd1na2vs0mg"},{"bike_id":"19f74941-04e4-478b-8e11-a2167d213916","system_id":"levelo_inurba_marseille","lat":43.26564,"lon":5.39001,"is_reserved":false,"is_disabled":false,"rental_uris":{"android":"levelo://app?vid=19f74941-04e4-478b-8e11-a2167d213916","ios":"levelo://app?vid=19f74941-04e4-478b-8e11-a2167d213916"},"vehicle_type_id":"4","last_reported":1766938354,"current_range_meters":11600,"station_id":"ce4bhe12rcd13ifvqf30","pricing_plan_id":"cebpf4jnsgd1na2vs0mg"},{"bike_id":"36e3ab74-d85b-46de-9904-53928a1da310","system_id":"levelo_inurba_marseille","lat":43.25673,"lon":5.40018,"is_reserved":false,"is_disabled":false,"rental_uris":{"android":"levelo://app?vid=36e3ab74-d85b-46de-9904-53928a1da310","ios":"levelo://app?vid=36e3ab74-d85b-46de-9904-53928a1da310"},"vehicle_type_id":"4","last_reported":1766938354,"current_range_meters":11600,"station_id":"","pricing_plan_id":"cebpf4jnsgd1na2vs0mg"},{"bike_id":"b8359eb8-309f-4919-a9d8-14bc8a289068","system_id":"levelo_inurba_marseille","lat":43.29845,"lon":5.381046,"is_reserved":false,"is_disabled":false,"rental_uris":{"android":"levelo://app?vid=b8359eb8-309f-4919-a9d8-14bc8a289068","ios":"levelo://app?vid=b8359eb8-309f-4919-a9d8-14bc8a289068"},"vehicle_type_id":"4","last_reported":1766938354,"current_range_meters":11600,"station_id":"","pricing_plan_id":"cebpf4jnsgd1na2vs0mg"},{"bike_id":"5b749fe2-f403-49d1-914b-4e5a1f99b92b","system_id":"levelo_inurba_marseille","lat":43.25331,"lon":5.42158,"is_reserved":false,"is_disabled":false,"rental_uris":{"android":"levelo://app?vid=5b749fe2-f403-49d1-914b-4e5a1f99b92b","ios":"levelo://app?vid=5b749fe2-f403-49d1-914b-4e5a1f99b92b"},"vehicle_type_id":"4","last_reported":1766938354,"current_range_meters":11600,"station_id":"st_d2m65c5bi1j21697t3ng","pricing_plan_id":"cebpf4jnsgd1na2vs0mg"},{"bike_id":"6f43cfcd-5b7c-4880-b513-fb31e9502d04","system_id":"levelo_inurba_marseille","lat":43.28015,"lon":5.440322,"is_reserved":false,"is_disabled":false,"rental_uris":{"android":"levelo://app?vid=6f43cfcd-5b7c-4880-b513-fb31e9502d04","ios":"levelo://app?vid=6f43cfcd-5b7c-4880-b513-fb31e9502d04"},"vehicle_type_id":"4","last_reported":1766938354,"current_range_meters":11600,"station_id":"","pricing_plan_id":"cebpf4jnsgd1na2vs0mg"},{"bike_id":"d6a449d9-67ef-4444-ae17-bd1e29b48728","system_id":"levelo_inurba_marseille","lat":43.285767,"lon":5.429835,"is_reserved":false,"is_disabled":false,"rental_uris":{"android":"levelo://app?vid=d6a449d9-67ef-4444-ae17-bd1e29b48728","ios":"levelo://app?vid=d6a449d9-67ef-4444-ae17-bd1e29b48728"},"vehicle_type_id":"4","last_reported":1766938354,"current_range_meters":11600,"station_id":"","pricing_plan_id":"cebpf4jnsgd1na2vs0mg"},{"bike_id":"93668d68-d030-4a6b-8a18-92aae4171ebd","system_id":"levelo_inurba_marseille","lat":43.30528,"lon":5.36548,"is_reserved":false,"is_disabled":false,"rental_uris":{"android":"levelo://app?vid=93668d68-d030-4a6b-8a18-92aae4171ebd","ios":"levelo://app?vid=93668d68-d030-4a6b-8a18-92aae4171ebd"},"vehicle_type_id":"4","last_reported":1766938354,"current_range_meters":12000,"station_id":"ce4bgs12rcd13ifvqcag","pricing_plan_id":"cebpf4jnsgd1na2vs0mg"},{"bike_id":"8b31d071-5fde-4a77-9541-06c44ba6f416","system_id":"levelo_inurba_marseille","lat":43.2719,"lon":5.40985,"is_reserved":false,"is_disabled":false,"rental_uris":{"android":"levelo://app?vid=8b31d071-5fde-4a77-9541-06c44ba6f416","ios":"levelo://app?vid=8b31d071-5fde-4a77-9541-06c44ba6f416"},"vehicle_type_id":"4","last_reported":1766938354,"current_range_meters":12000,"station_id":"ce4bhl12rcd13ifvqgf0","pricing_plan_id":"cebpf4jnsgd1na2vs0mg"},{"bike_id":"b854b6ee-7341-4f78-909e-177f500ef203","system_id":"levelo_inurba_marseille","lat":43.28481,"lon":5.38411,"is_reserved":false,"is_disabled":false,"rental_uris":{"android":"levelo://app?vid=b854b6ee-7341-4f78-909e-177f500ef203","ios":"levelo://app?vid=b854b6ee-7341-4f78-909e-177f500ef203"},"vehicle_type_id":"4","last_reported":1766938354,"current_range_meters":12000,"station_id":"ce4bh512rcd13ifvqe3g","pricing_plan_id":"cebpf4jnsgd1na2vs0mg"},{"bike_id":"9197e0cd-d425-4870-b05c-e97175fb7e55","system_id":"levelo_inurba_marseille","lat":43.28006,"lon":5.41664,"is_reserved":false,"is_disabled":false,"rental_uris":{"android":"levelo://app?vid=9197e0cd-d425-4870-b05c-e97175fb7e55","ios":"levelo://app?vid=9197e0cd-d425-4870-b05c-e97175fb7e55"},"vehicle_type_id":"4","last_reported":1766938354,"current_range_meters":12000,"station_id":"ce4bho12rcd13ifvqh1g","pricing_plan_id":"cebpf4jnsgd1na2vs0mg"},{"bike_id":"12c38b32-5974-4311-910a-572392b8079a","system_id":"levelo_inurba_marseille","lat":43.28051,"lon":5.35075,"is_reserved":false,"is_disabled":false,"rental_uris":{"android":"levelo://app?vid=12c38b32-5974-4311-910a-572392b8079a","ios":"levelo://app?vid=12c38b32-5974-4311-910a-572392b8079a"},"vehicle_type_id":"4","last_reported":1766938354,"current_range_meters":12000,"station_id":"","pricing_plan_id":"cebpf4jnsgd1na2vs0mg"},{"bike_id":"9b2d0712-3ac5-402d-bf31-0ee5331ac79b","system_id":"levelo_inurba_marseille","lat":43.30041,"lon":5.38089,"is_reserved":false,"is_disabled":false,"rental_uris":{"android":"levelo://app?vid=9b2d0712-3ac5-402d-bf31-0ee5331ac79b","ios":"levelo://app?vid=9b2d0712-3ac5-402d-bf31-0ee5331ac79b"},"vehicle_type_id":"4","last_reported":1766938354,"current_range_meters":12000,"station_id":"","pricing_plan_id":"cebpf4jnsgd1na2vs0mg"},{"bike_id":"8e9d5089-31e7-465f-ac6c-3a93651db4d5","system_id":"levelo_inurba_marseille","lat":43.31918,"lon":5.36749,"is_reserved":false,"is_disabled":false,"rental_uris":{"android":"levelo://app?vid=8e9d5089-31e7-465f-ac6c-3a93651db4d5","ios":"levelo://app?vid=8e9d5089-31e7-465f-ac6c-3a93651db4d5"},"vehicle_type_id":"4","last_reported":1766938354,"current_range_meters":12000,"station_id":"","pricing_plan_id":"cebpf4jnsgd1na2vs0mg"},{"bike_id":"288d269f-f0c6-4422-a385-c2440e16dd70","system_id":"levelo_inurba_marseille","lat":43.28936,"lon":5.3663,"is_reserved":false,"is_disabled":false,"rental_uris":{"android":"levelo://app?vid=288d269f-f0c6-4422-a385-c2440e16dd70","ios":"levelo://app?vid=288d269f-f0c6-4422-a385-c2440e16dd70"},"vehicle_type_id":"4","last_reported":1766938354,"current_range_meters":12400,"station_id":"ce4bhap2rcd13ifvqek0","pricing_plan_id":"cebpf4jnsgd1na2vs0mg"},{"bike_id":"5e62b23f-3386-4337-a1a4-edfe3d7f3411","system_id":"levelo_inurba_marseille","lat":43.28153,"lon":5.42638,"is_reserved":false,"is_disabled":false,"rental_uris":{"android":"levelo://app?vid=5e62b23f-3386-4337-a1a4-edfe3d7f3411","ios":"levelo://app?vid=5e62b23f-3386-4337-a1a4-edfe3d7f3411"},"vehicle_type_id":"4","last_reported":1766938354,"current_range_meters":12400,"station_id":"ce4bhnh2rcd13ifvqgug","pricing_plan_id":"cebpf4jnsgd1na2vs0mg"},{"bike_id":"ef10592e-adff-49b5-8467-d9f686a1a24b","system_id":"levelo_inurba_marseille","lat":43.28147,"lon":5.42654,"is_reserved":false,"is_disabled":false,"rental_uris":{"android":"levelo://app?vid=ef10592e-adff-49b5-8467-d9f686a1a24b","ios":"levelo://app?vid=ef10592e-adff-49b5-8467-d9f686a1a24b"},"vehicle_type_id":"4","last_reported":1766938354,"current_range_meters":12400,"station_id":"ce4bhnh2rcd13ifvqgug","pricing_plan_id":"cebpf4jnsgd1na2vs0mg"},{"bike_id":"c5ceed16-6dfe-409f-82bf-89ae8b5810cf","system_id":"levelo_inurba_marseille","lat":43.28474,"lon":5.44055,"is_reserved":false,"is_disabled":false,"rental_uris":{"android":"levelo://app?vid=c5ceed16-6dfe-409f-82bf-89ae8b5810cf","ios":"levelo://app?vid=c5ceed16-6dfe-409f-82bf-89ae8b5810cf"},"vehicle_type_id":"4","last_reported":1766938354,"current_range_meters":12400,"station_id":"st_d3j3df2ikq2c7380ej80","pricing_plan_id":"cebpf4jnsgd1na2vs0mg"},{"bike_id":"c84b8e47-5802-4c21-b1cc-1df47c4f26c2","system_id":"levelo_inurba_marseille","lat":43.28482,"lon":5.48399,"is_reserved":false,"is_disabled":false,"rental_uris":{"android":"levelo://app?vid=c84b8e47-5802-4c21-b1cc-1df47c4f26c2","ios":"levelo://app?vid=c84b8e47-5802-4c21-b1cc-1df47c4f26c2"},"vehicle_type_id":"4","last_reported":1766938354,"current_range_meters":12400,"station_id":"st_d3svhcjqgbts73a3dn0g","pricing_plan_id":"cebpf4jnsgd1na2vs0mg"},{"bike_id":"e9ffa096-acd4-4048-a7b2-1c444588a8ee","system_id":"levelo_inurba_marseille","lat":43.285366,"lon":5.440813,"is_reserved":false,"is_disabled":false,"rental_uris":{"android":"levelo://app?vid=e9ffa096-acd4-4048-a7b2-1c444588a8ee","ios":"levelo://app?vid=e9ffa096-acd4-4048-a7b2-1c444588a8ee"},"vehicle_type_id":"4","last_reported":1766938354,"current_range_meters":12400,"station_id":"st_d3j3df2ikq2c7380ej80","pricing_plan_id":"cebpf4jnsgd1na2vs0mg"},{"bike_id":"3d8062de-4bd0-49c7-86a6-7bf3b5df4845","system_id":"levelo_inurba_marseille","lat":43.28481,"lon":5.4839,"is_reserved":false,"is_disabled":false,"rental_uris":{"android":"levelo://app?vid=3d8062de-4bd0-49c7-86a6-7bf3b5df4845","ios":"levelo://app?vid=3d8062de-4bd0-49c7-86a6-7bf3b5df4845"},"vehicle_type_id":"4","last_reported":1766938354,"current_range_meters":12400,"station_id":"","pricing_plan_id":"cebpf4jnsgd1na2vs0mg"},{"bike_id":"407dd647-e9ed-414c-ac0e-f97247bbddbd","system_id":"levelo_inurba_marseille","lat":43.2652,"lon":5.395298,"is_reserved":false,"is_disabled":false,"rental_uris":{"android":"levelo://app?vid=407dd647-e9ed-414c-ac0e-f97247bbddbd","ios":"levelo://app?vid=407dd647-e9ed-414c-ac0e-f97247bbddbd"},"vehicle_type_id":"4","last_reported":1766938354,"current_range_meters":12400,"station_id":"ce4bhi12rcd13ifvqfq0","pricing_plan_id":"cebpf4jnsgd1na2vs0mg"},{"bike_id":"5089722c-f7e0-4066-8ac8-35582342af82","system_id":"levelo_inurba_marseille","lat":43.29905,"lon":5.37467,"is_reserved":false,"is_disabled":false,"rental_uris":{"android":"levelo://app?vid=5089722c-f7e0-4066-8ac8-35582342af82","ios":"levelo://app?vid=5089722c-f7e0-4066-8ac8-35582342af82"},"vehicle_type_id":"4","last_reported":1766938354,"current_range_meters":12800,"station_id":"ce4bgjh2rcd13ifvqbg0","pricing_plan_id":"cebpf4jnsgd1na2vs0mg"},{"bike_id":"f6e6dcdd-f74f-4d28-9f48-2ce11c11db83","system_id":"levelo_inurba_marseille","lat":43.2956,"lon":5.37491,"is_reserved":false,"is_disabled":false,"rental_uris":{"android":"levelo://app?vid=f6e6dcdd-f74f-4d28-9f48-2ce11c11db83","ios":"levelo://app?vid=f6e6dcdd-f74f-4d28-9f48-2ce11c11db83"},"vehicle_type_id":"4","last_reported":1766938354,"current_range_meters":12800,"station_id":"ce4bgh92rcd13ifvqb50","pricing_plan_id":"cebpf4jnsgd1na2vs0mg"},{"bike_id":"d07dc22c-a864-4104-81e7-c60339403064","system_id":"levelo_inurba_marseille","lat":43.2993,"lon":5.3827,"is_reserved":false,"is_disabled":false,"rental_uris":{"android":"levelo://app?vid=d07dc22c-a864-4104-81e7-c60339403064","ios":"levelo://app?vid=d07dc22c-a864-4104-81e7-c60339403064"},"vehicle_type_id":"4","last_reported":1766938354,"current_range_meters":12800,"station_id":"","pricing_plan_id":"cebpf4jnsgd1na2vs0mg"},{"bike_id":"80dbd64a-bc91-4c6f-885a-5048f29c86df","system_id":"levelo_inurba_marseille","lat":43.26494,"lon":5.39547,"is_reserved":false,"is_disabled":false,"rental_uris":{"android":"levelo://app?vid=80dbd64a-bc91-4c6f-885a-5048f29c86df","ios":"levelo://app?vid=80dbd64a-bc91-4c6f-885a-5048f29c86df"},"vehicle_type_id":"4","last_reported":1766938354,"current_range_meters":12800,"station_id":"ce4bhi12rcd13ifvqfq0","pricing_plan_id":"cebpf4jnsgd1na2vs0mg"},{"bike_id":"eb087d7f-76f2-4f0e-ab86-400d39571005","system_id":"levelo_inurba_marseille","lat":43.28431,"lon":5.39169,"is_reserved":false,"is_disabled":true,"rental_uris":{"android":"levelo://app?vid=eb087d7f-76f2-4f0e-ab86-400d39571005","ios":"levelo://app?vid=eb087d7f-76f2-4f0e-ab86-400d39571005"},"vehicle_type_id":"4","last_reported":1766938354,"current_range_meters":12800,"station_id":"ce4bhoh2rcd13ifvqh5g","pricing_plan_id":"cebpf4jnsgd1na2vs0mg"},{"bike_id":"5f21b680-0e53-4e6f-9ac5-fe1b3088ec26","system_id":"levelo_inurba_marseille","lat":43.29608,"lon":5.3773,"is_reserved":false,"is_disabled":false,"rental_uris":{"android":"levelo://app?vid=5f21b680-0e53-4e6f-9ac5-fe1b3088ec26","ios":"levelo://app?vid=5f21b680-0e53-4e6f-9ac5-fe1b3088ec26"},"vehicle_type_id":"4","last_reported":1766938354,"current_range_meters":12800,"station_id":"ce4bgi92rcd13ifvqb90","pricing_plan_id":"cebpf4jnsgd1na2vs0mg"},{"bike_id":"3840688d-cc44-40a4-80d2-25998707e735","system_id":"levelo_inurba_marseille","lat":43.26492,"lon":5.39549,"is_reserved":false,"is_disabled":false,"rental_uris":{"android":"levelo://app?vid=3840688d-cc44-40a4-80d2-25998707e735","ios":"levelo://app?vid=3840688d-cc44-40a4-80d2-25998707e735"},"vehicle_type_id":"4","last_reported":1766938354,"current_range_meters":12800,"station_id":"ce4bhi12rcd13ifvqfq0","pricing_plan_id":"cebpf4jnsgd1na2vs0mg"},{"bike_id":"94b65cfe-edaf-4322-865d-06eff46e3ede","system_id":"levelo_inurba_marseille","lat":43.30039,"lon":5.3736,"is_reserved":false,"is_disabled":false,"rental_uris":{"android":"levelo://app?vid=94b65cfe-edaf-4322-865d-06eff46e3ede","ios":"levelo://app?vid=94b65cfe-edaf-4322-865d-06eff46e3ede"},"vehicle_type_id":"4","last_reported":1766938354,"current_range_meters":12800,"station_id":"","pricing_plan_id":"cebpf4jnsgd1na2vs0mg"},{"bike_id":"2519b827-c9d8-4509-a9fb-981228585237","system_id":"levelo_inurba_marseille","lat":43.27169,"lon":5.40995,"is_reserved":false,"is_disabled":false,"rental_uris":{"android":"levelo://app?vid=2519b827-c9d8-4509-a9fb-981228585237","ios":"levelo://app?vid=2519b827-c9d8-4509-a9fb-981228585237"},"vehicle_type_id":"4","last_reported":1766938354,"current_range_meters":12800,"station_id":"ce4bhl12rcd13ifvqgf0","pricing_plan_id":"cebpf4jnsgd1na2vs0mg"},{"bike_id":"fd5cd993-4b09-4646-bbbe-9f81fe896843","system_id":"levelo_inurba_marseille","lat":43.21746,"lon":5.346034,"is_reserved":false,"is_disabled":false,"rental_uris":{"android":"levelo://app?vid=fd5cd993-4b09-4646-bbbe-9f81fe896843","ios":"levelo://app?vid=fd5cd993-4b09-4646-bbbe-9f81fe896843"},"vehicle_type_id":"4","last_reported":1766938354,"current_range_meters":12800,"station_id":"","pricing_plan_id":"cebpf4jnsgd1na2vs0mg"},{"bike_id":"d2c9e496-16a1-43d6-ba4a-005e0ef09b1f","system_id":"levelo_inurba_marseille","lat":43.25865,"lon":5.39896,"is_reserved":false,"is_disabled":false,"rental_uris":{"android":"levelo://app?vid=d2c9e496-16a1-43d6-ba4a-005e0ef09b1f","ios":"levelo://app?vid=d2c9e496-16a1-43d6-ba4a-005e0ef09b1f"},"vehicle_type_id":"4","last_reported":1766938354,"current_range_meters":12800,"station_id":"ce4bhl92rcd13ifvqghg","pricing_plan_id":"cebpf4jnsgd1na2vs0mg"},{"bike_id":"b672c522-aca1-4885-98f6-4e99eceec109","system_id":"levelo_inurba_marseille","lat":43.30091,"lon":5.38692,"is_reserved":false,"is_disabled":true,"rental_uris":{"android":"levelo://app?vid=b672c522-aca1-4885-98f6-4e99eceec109","ios":"levelo://app?vid=b672c522-aca1-4885-98f6-4e99eceec109"},"vehicle_type_id":"4","last_reported":1766938354,"current_range_meters":13600,"station_id":"","pricing_plan_id":"cebpf4jnsgd1na2vs0mg"},{"bike_id":"a4821bb1-a15b-42d7-b80c-382f45814acf","system_id":"levelo_inurba_marseille","lat":43.31896,"lon":5.40732,"is_reserved":false,"is_disabled":false,"rental_uris":{"android":"levelo://app?vid=a4821bb1-a15b-42d7-b80c-382f45814acf","ios":"levelo://app?vid=a4821bb1-a15b-42d7-b80c-382f45814acf"},"vehicle_type_id":"4","last_reported":1766938354,"current_range_meters":13600,"station_id":"ce4bhq12rcd13ifvqhig","pricing_plan_id":"cebpf4jnsgd1na2vs0mg"},{"bike_id":"3e57a6f8-7147-44eb-a54c-68bae7613c1b","system_id":"levelo_inurba_marseille","lat":43.28617,"lon":5.37055,"is_reserved":false,"is_disabled":false,"rental_uris":{"android":"levelo://app?vid=3e57a6f8-7147-44eb-a54c-68bae7613c1b","ios":"levelo://app?vid=3e57a6f8-7147-44eb-a54c-68bae7613c1b"},"vehicle_type_id":"4","last_reported":1766938354,"current_range_meters":13600,"station_id":"ce4bht12rcd13ifvqi60","pricing_plan_id":"cebpf4jnsgd1na2vs0mg"},{"bike_id":"010f640b-8c43-4285-8342-8aa6197561a4","system_id":"levelo_inurba_marseille","lat":43.28473,"lon":5.38403,"is_reserved":false,"is_disabled":false,"rental_uris":{"android":"levelo://app?vid=010f640b-8c43-4285-8342-8aa6197561a4","ios":"levelo://app?vid=010f640b-8c43-4285-8342-8aa6197561a4"},"vehicle_type_id":"4","last_reported":1766938354,"current_range_meters":13600,"station_id":"ce4bh512rcd13ifvqe3g","pricing_plan_id":"cebpf4jnsgd1na2vs0mg"},{"bike_id":"84edb561-7951-432d-ad1a-5c5c09f836c7","system_id":"levelo_inurba_marseille","lat":43.21189,"lon":5.35067,"is_reserved":false,"is_disabled":false,"rental_uris":{"android":"levelo://app?vid=84edb561-7951-432d-ad1a-5c5c09f836c7","ios":"levelo://app?vid=84edb561-7951-432d-ad1a-5c5c09f836c7"},"vehicle_type_id":"4","last_reported":1766938354,"current_range_meters":13600,"station_id":"st_cvj6sg6p6f1abm77japg","pricing_plan_id":"cebpf4jnsgd1na2vs0mg"},{"bike_id":"dc47a473-6377-4424-adf4-6498be065ab5","system_id":"levelo_inurba_marseille","lat":43.269382,"lon":5.389214,"is_reserved":false,"is_disabled":false,"rental_uris":{"android":"levelo://app?vid=dc47a473-6377-4424-adf4-6498be065ab5","ios":"levelo://app?vid=dc47a473-6377-4424-adf4-6498be065ab5"},"vehicle_type_id":"4","last_reported":1766938354,"current_range_meters":13600,"station_id":"ce4bhhh2rcd13ifvqfl0","pricing_plan_id":"cebpf4jnsgd1na2vs0mg"},{"bike_id":"c03aa070-26a3-46a4-b104-b236ef7e32dd","system_id":"levelo_inurba_marseille","lat":43.2988,"lon":5.3627,"is_reserved":false,"is_disabled":false,"rental_uris":{"android":"levelo://app?vid=c03aa070-26a3-46a4-b104-b236ef7e32dd","ios":"levelo://app?vid=c03aa070-26a3-46a4-b104-b236ef7e32dd"},"vehicle_type_id":"4","last_reported":1766938354,"current_range_meters":13600,"station_id":"ce4bgpp2rcd13ifvqc3g","pricing_plan_id":"cebpf4jnsgd1na2vs0mg"},{"bike_id":"009a3abe-17db-45a4-962d-ccda5205be12","system_id":"levelo_inurba_marseille","lat":43.30564,"lon":5.36518,"is_reserved":false,"is_disabled":false,"rental_uris":{"android":"levelo://app?vid=009a3abe-17db-45a4-962d-ccda5205be12","ios":"levelo://app?vid=009a3abe-17db-45a4-962d-ccda5205be12"},"vehicle_type_id":"4","last_reported":1766938354,"current_range_meters":13600,"station_id":"ce4bgs12rcd13ifvqcag","pricing_plan_id":"cebpf4jnsgd1na2vs0mg"},{"bike_id":"4ac20ed1-ab47-463c-96de-d7def8de3118","system_id":"levelo_inurba_marseille","lat":43.32351,"lon":5.36756,"is_reserved":false,"is_disabled":true,"rental_uris":{"android":"levelo://app?vid=4ac20ed1-ab47-463c-96de-d7def8de3118","ios":"levelo://app?vid=4ac20ed1-ab47-463c-96de-d7def8de3118"},"vehicle_type_id":"4","last_reported":1766938354,"current_range_meters":13600,"station_id":"ce4bhsh2rcd13ifvqi2g","pricing_plan_id":"cebpf4jnsgd1na2vs0mg"},{"bike_id":"f1e029ec-966a-4c18-90a6-6313298321ec","system_id":"levelo_inurba_marseille","lat":43.24243,"lon":5.39312,"is_reserved":false,"is_disabled":false,"rental_uris":{"android":"levelo://app?vid=f1e029ec-966a-4c18-90a6-6313298321ec","ios":"levelo://app?vid=f1e029ec-966a-4c18-90a6-6313298321ec"},"vehicle_type_id":"4","last_reported":1766938354,"current_range_meters":13600,"station_id":"","pricing_plan_id":"cebpf4jnsgd1na2vs0mg"},{"bike_id":"9f81db56-9f18-4d2c-a126-f0fd49630ab7","system_id":"levelo_inurba_marseille","lat":43.32039,"lon":5.41564,"is_reserved":false,"is_disabled":false,"rental_uris":{"android":"levelo://app?vid=9f81db56-9f18-4d2c-a126-f0fd49630ab7","ios":"levelo://app?vid=9f81db56-9f18-4d2c-a126-f0fd49630ab7"},"vehicle_type_id":"4","last_reported":1766938354,"current_range_meters":13600,"station_id":"ce4bhq92rcd13ifvqhkg","pricing_plan_id":"cebpf4jnsgd1na2vs0mg"},{"bike_id":"ce26e8f2-8c0c-42c7-b011-e9ee1a3ff606","system_id":"levelo_inurba_marseille","lat":43.29069,"lon":5.359194,"is_reserved":false,"is_disabled":false,"rental_uris":{"android":"levelo://app?vid=ce26e8f2-8c0c-42c7-b011-e9ee1a3ff606","ios":"levelo://app?vid=ce26e8f2-8c0c-42c7-b011-e9ee1a3ff606"},"vehicle_type_id":"4","last_reported":1766938354,"current_range_meters":13600,"station_id":"ce4bha92rcd13ifvqeg0","pricing_plan_id":"cebpf4jnsgd1na2vs0mg"},{"bike_id":"9ed771ac-eca7-498f-ab71-09b59c20bf40","system_id":"levelo_inurba_marseille","lat":43.240765,"lon":5.377318,"is_reserved":false,"is_disabled":false,"rental_uris":{"android":"levelo://app?vid=9ed771ac-eca7-498f-ab71-09b59c20bf40","ios":"levelo://app?vid=9ed771ac-eca7-498f-ab71-09b59c20bf40"},"vehicle_type_id":"4","last_reported":1766938354,"current_range_meters":13600,"station_id":"ce4bhnp2rcd13ifvqgvg","pricing_plan_id":"cebpf4jnsgd1na2vs0mg"},{"bike_id":"49166d3a-7d57-41ae-b5e6-9a6cbabce031","system_id":"levelo_inurba_marseille","lat":43.29686,"lon":5.36771,"is_reserved":false,"is_disabled":false,"rental_uris":{"android":"levelo://app?vid=49166d3a-7d57-41ae-b5e6-9a6cbabce031","ios":"levelo://app?vid=49166d3a-7d57-41ae-b5e6-9a6cbabce031"},"vehicle_type_id":"4","last_reported":1766938354,"current_range_meters":14000,"station_id":"","pricing_plan_id":"cebpf4jnsgd1na2vs0mg"},{"bike_id":"93238dbe-7e18-4ff9-acc5-cf08ef47ac5a","system_id":"levelo_inurba_marseille","lat":43.27426,"lon":5.41462,"is_reserved":false,"is_disabled":false,"rental_uris":{"android":"levelo://app?vid=93238dbe-7e18-4ff9-acc5-cf08ef47ac5a","ios":"levelo://app?vid=93238dbe-7e18-4ff9-acc5-cf08ef47ac5a"},"vehicle_type_id":"4","last_reported":1766938354,"current_range_meters":14000,"station_id":"","pricing_plan_id":"cebpf4jnsgd1na2vs0mg"},{"bike_id":"0ee2d8ee-30d6-4fd2-8f80-1432daed5592","system_id":"levelo_inurba_marseille","lat":43.27191,"lon":5.40991,"is_reserved":false,"is_disabled":false,"rental_uris":{"android":"levelo://app?vid=0ee2d8ee-30d6-4fd2-8f80-1432daed5592","ios":"levelo://app?vid=0ee2d8ee-30d6-4fd2-8f80-1432daed5592"},"vehicle_type_id":"4","last_reported":1766938354,"current_range_meters":14000,"station_id":"ce4bhl12rcd13ifvqgf0","pricing_plan_id":"cebpf4jnsgd1na2vs0mg"},{"bike_id":"f9aefd96-ff9f-436b-9129-ecd99bd3e479","system_id":"levelo_inurba_marseille","lat":43.29573,"lon":5.39957,"is_reserved":false,"is_disabled":false,"rental_uris":{"android":"levelo://app?vid=f9aefd96-ff9f-436b-9129-ecd99bd3e479","ios":"levelo://app?vid=f9aefd96-ff9f-436b-9129-ecd99bd3e479"},"vehicle_type_id":"4","last_reported":1766938354,"current_range_meters":14000,"station_id":"ce4bh312rcd13ifvqdj0","pricing_plan_id":"cebpf4jnsgd1na2vs0mg"},{"bike_id":"8c27f8dd-49de-48cb-b4c0-2c146ce86148","system_id":"levelo_inurba_marseille","lat":43.29586,"lon":5.38096,"is_reserved":false,"is_disabled":false,"rental_uris":{"android":"levelo://app?vid=8c27f8dd-49de-48cb-b4c0-2c146ce86148","ios":"levelo://app?vid=8c27f8dd-49de-48cb-b4c0-2c146ce86148"},"vehicle_type_id":"4","last_reported":1766938354,"current_range_meters":14000,"station_id":"ce4bgl12rcd13ifvqbo0","pricing_plan_id":"cebpf4jnsgd1na2vs0mg"},{"bike_id":"ac674099-70d8-4cdc-97e6-f0209215976d","system_id":"levelo_inurba_marseille","lat":43.33546,"lon":5.37483,"is_reserved":false,"is_disabled":false,"rental_uris":{"android":"levelo://app?vid=ac674099-70d8-4cdc-97e6-f0209215976d","ios":"levelo://app?vid=ac674099-70d8-4cdc-97e6-f0209215976d"},"vehicle_type_id":"4","last_reported":1766938354,"current_range_meters":14000,"station_id":"st_d46tts09ee8s73dlu43g","pricing_plan_id":"cebpf4jnsgd1na2vs0mg"},{"bike_id":"5f26fd32-d57c-4a0b-a416-65f73ea2479e","system_id":"levelo_inurba_marseille","lat":43.32797,"lon":5.40652,"is_reserved":false,"is_disabled":false,"rental_uris":{"android":"levelo://app?vid=5f26fd32-d57c-4a0b-a416-65f73ea2479e","ios":"levelo://app?vid=5f26fd32-d57c-4a0b-a416-65f73ea2479e"},"vehicle_type_id":"4","last_reported":1766938354,"current_range_meters":14000,"station_id":"","pricing_plan_id":"cebpf4jnsgd1na2vs0mg"},{"bike_id":"c54bdd15-33ff-4528-8646-09bb7a1d6f60","system_id":"levelo_inurba_marseille","lat":43.27177,"lon":5.40997,"is_reserved":false,"is_disabled":false,"rental_uris":{"android":"levelo://app?vid=c54bdd15-33ff-4528-8646-09bb7a1d6f60","ios":"levelo://app?vid=c54bdd15-33ff-4528-8646-09bb7a1d6f60"},"vehicle_type_id":"4","last_reported":1766938354,"current_range_meters":14000,"station_id":"ce4bhl12rcd13ifvqgf0","pricing_plan_id":"cebpf4jnsgd1na2vs0mg"},{"bike_id":"37b5581b-7896-4bc8-89a6-9f3aaa164561","system_id":"levelo_inurba_marseille","lat":43.29627,"lon":5.37723,"is_reserved":false,"is_disabled":false,"rental_uris":{"android":"levelo://app?vid=37b5581b-7896-4bc8-89a6-9f3aaa164561","ios":"levelo://app?vid=37b5581b-7896-4bc8-89a6-9f3aaa164561"},"vehicle_type_id":"4","last_reported":1766938354,"current_range_meters":14400,"station_id":"ce4bgi92rcd13ifvqb90","pricing_plan_id":"cebpf4jnsgd1na2vs0mg"},{"bike_id":"8e408ba0-2118-43f7-a8ba-d277410a9103","system_id":"levelo_inurba_marseille","lat":43.31239,"lon":5.3807,"is_reserved":false,"is_disabled":false,"rental_uris":{"android":"levelo://app?vid=8e408ba0-2118-43f7-a8ba-d277410a9103","ios":"levelo://app?vid=8e408ba0-2118-43f7-a8ba-d277410a9103"},"vehicle_type_id":"4","last_reported":1766938354,"current_range_meters":14400,"station_id":"","pricing_plan_id":"cebpf4jnsgd1na2vs0mg"},{"bike_id":"62cf4cee-7c0c-4908-8bd6-9190e5298cee","system_id":"levelo_inurba_marseille","lat":43.22569,"lon":5.41622,"is_reserved":false,"is_disabled":false,"rental_uris":{"android":"levelo://app?vid=62cf4cee-7c0c-4908-8bd6-9190e5298cee","ios":"levelo://app?vid=62cf4cee-7c0c-4908-8bd6-9190e5298cee"},"vehicle_type_id":"4","last_reported":1766938354,"current_range_meters":14400,"station_id":"st_d2o4gvlbi1j2169b742g","pricing_plan_id":"cebpf4jnsgd1na2vs0mg"},{"bike_id":"11b98af3-c435-4c49-b9a3-6f66ee04ce85","system_id":"levelo_inurba_marseille","lat":43.30424,"lon":5.41283,"is_reserved":false,"is_disabled":false,"rental_uris":{"android":"levelo://app?vid=11b98af3-c435-4c49-b9a3-6f66ee04ce85","ios":"levelo://app?vid=11b98af3-c435-4c49-b9a3-6f66ee04ce85"},"vehicle_type_id":"4","last_reported":1766938354,"current_range_meters":14400,"station_id":"ce4bhop2rcd13ifvqh8g","pricing_plan_id":"cebpf4jnsgd1na2vs0mg"},{"bike_id":"4ddc4a6d-25fa-4d94-abd4-993ccb085693","system_id":"levelo_inurba_marseille","lat":43.28701,"lon":5.3999,"is_reserved":false,"is_disabled":false,"rental_uris":{"android":"levelo://app?vid=4ddc4a6d-25fa-4d94-abd4-993ccb085693","ios":"levelo://app?vid=4ddc4a6d-25fa-4d94-abd4-993ccb085693"},"vehicle_type_id":"4","last_reported":1766938354,"current_range_meters":14400,"station_id":"ce4bho92rcd13ifvqh3g","pricing_plan_id":"cebpf4jnsgd1na2vs0mg"},{"bike_id":"78039576-c8c3-4c49-a798-f19dacb4adff","system_id":"levelo_inurba_marseille","lat":43.30149,"lon":5.38097,"is_reserved":false,"is_disabled":false,"rental_uris":{"android":"levelo://app?vid=78039576-c8c3-4c49-a798-f19dacb4adff","ios":"levelo://app?vid=78039576-c8c3-4c49-a798-f19dacb4adff"},"vehicle_type_id":"4","last_reported":1766938354,"current_range_meters":14400,"station_id":"ce4bgjp2rcd13ifvqbh0","pricing_plan_id":"cebpf4jnsgd1na2vs0mg"},{"bike_id":"1e40507a-3cfc-4e85-9242-52456e41ee8c","system_id":"levelo_inurba_marseille","lat":43.21191,"lon":5.35073,"is_reserved":false,"is_disabled":false,"rental_uris":{"android":"levelo://app?vid=1e40507a-3cfc-4e85-9242-52456e41ee8c","ios":"levelo://app?vid=1e40507a-3cfc-4e85-9242-52456e41ee8c"},"vehicle_type_id":"4","last_reported":1766938354,"current_range_meters":14400,"station_id":"st_cvj6sg6p6f1abm77japg","pricing_plan_id":"cebpf4jnsgd1na2vs0mg"},{"bike_id":"0587f04e-e1d2-45f2-83bf-7bb7cf6afa1b","system_id":"levelo_inurba_marseille","lat":43.2314,"lon":5.43691,"is_reserved":false,"is_disabled":true,"rental_uris":{"android":"levelo://app?vid=0587f04e-e1d2-45f2-83bf-7bb7cf6afa1b","ios":"levelo://app?vid=0587f04e-e1d2-45f2-83bf-7bb7cf6afa1b"},"vehicle_type_id":"4","last_reported":1766938354,"current_range_meters":14400,"station_id":"ce4bhmp2rcd13ifvqgog","pricing_plan_id":"cebpf4jnsgd1na2vs0mg"},{"bike_id":"757122f6-080a-424e-8657-a7d9bec52449","system_id":"levelo_inurba_marseille","lat":43.31334,"lon":5.36733,"is_reserved":false,"is_disabled":false,"rental_uris":{"android":"levelo://app?vid=757122f6-080a-424e-8657-a7d9bec52449","ios":"levelo://app?vid=757122f6-080a-424e-8657-a7d9bec52449"},"vehicle_type_id":"4","last_reported":1766938354,"current_range_meters":14400,"station_id":"ce4bgr92rcd13ifvqc6g","pricing_plan_id":"cebpf4jnsgd1na2vs0mg"},{"bike_id":"4da4d4a4-6ba6-462c-b911-56889a9a05c2","system_id":"levelo_inurba_marseille","lat":43.29964,"lon":5.38514,"is_reserved":false,"is_disabled":false,"rental_uris":{"android":"levelo://app?vid=4da4d4a4-6ba6-462c-b911-56889a9a05c2","ios":"levelo://app?vid=4da4d4a4-6ba6-462c-b911-56889a9a05c2"},"vehicle_type_id":"4","last_reported":1766938354,"current_range_meters":14400,"station_id":"ce4bgip2rcd13ifvqbb0","pricing_plan_id":"cebpf4jnsgd1na2vs0mg"},{"bike_id":"c716b9c9-0fb0-4ddd-9ec8-29130ccf5bf6","system_id":"levelo_inurba_marseille","lat":43.32106,"lon":5.36764,"is_reserved":false,"is_disabled":false,"rental_uris":{"android":"levelo://app?vid=c716b9c9-0fb0-4ddd-9ec8-29130ccf5bf6","ios":"levelo://app?vid=c716b9c9-0fb0-4ddd-9ec8-29130ccf5bf6"},"vehicle_type_id":"4","last_reported":1766938354,"current_range_meters":14400,"station_id":"ce4bhrh2rcd13ifvqhug","pricing_plan_id":"cebpf4jnsgd1na2vs0mg"},{"bike_id":"a944d8b8-16d2-4f8f-ad76-bfa63a6f7554","system_id":"levelo_inurba_marseille","lat":43.26939,"lon":5.38634,"is_reserved":false,"is_disabled":false,"rental_uris":{"android":"levelo://app?vid=a944d8b8-16d2-4f8f-ad76-bfa63a6f7554","ios":"levelo://app?vid=a944d8b8-16d2-4f8f-ad76-bfa63a6f7554"},"vehicle_type_id":"4","last_reported":1766938354,"current_range_meters":14400,"station_id":"ce4bhh92rcd13ifvqfh0","pricing_plan_id":"cebpf4jnsgd1na2vs0mg"},{"bike_id":"05529623-bee0-4fc7-8cb6-1ab1da084930","system_id":"levelo_inurba_marseille","lat":43.28228,"lon":5.39042,"is_reserved":false,"is_disabled":false,"rental_uris":{"android":"levelo://app?vid=05529623-bee0-4fc7-8cb6-1ab1da084930","ios":"levelo://app?vid=05529623-bee0-4fc7-8cb6-1ab1da084930"},"vehicle_type_id":"4","last_reported":1766938354,"current_range_meters":14400,"station_id":"ce4bh8p2rcd13ifvqeb0","pricing_plan_id":"cebpf4jnsgd1na2vs0mg"},{"bike_id":"04b61149-510d-4bf6-81d6-a065cc99d735","system_id":"levelo_inurba_marseille","lat":43.23167,"lon":5.39966,"is_reserved":false,"is_disabled":false,"rental_uris":{"android":"levelo://app?vid=04b61149-510d-4bf6-81d6-a065cc99d735","ios":"levelo://app?vid=04b61149-510d-4bf6-81d6-a065cc99d735"},"vehicle_type_id":"4","last_reported":1766938354,"current_range_meters":14400,"station_id":"ce4bhn12rcd13ifvqgqg","pricing_plan_id":"cebpf4jnsgd1na2vs0mg"},{"bike_id":"d1dc8efa-dd66-42cd-93bc-e2e6f65b4cd3","system_id":"levelo_inurba_marseille","lat":43.29932,"lon":5.38137,"is_reserved":false,"is_disabled":false,"rental_uris":{"android":"levelo://app?vid=d1dc8efa-dd66-42cd-93bc-e2e6f65b4cd3","ios":"levelo://app?vid=d1dc8efa-dd66-42cd-93bc-e2e6f65b4cd3"},"vehicle_type_id":"4","last_reported":1766938354,"current_range_meters":14800,"station_id":"ce4bgj12rcd13ifvqbc0","pricing_plan_id":"cebpf4jnsgd1na2vs0mg"},{"bike_id":"a431f10d-1c1b-486a-93bf-1bf3d2057a18","system_id":"levelo_inurba_marseille","lat":43.27327,"lon":5.39069,"is_reserved":false,"is_disabled":false,"rental_uris":{"android":"levelo://app?vid=a431f10d-1c1b-486a-93bf-1bf3d2057a18","ios":"levelo://app?vid=a431f10d-1c1b-486a-93bf-1bf3d2057a18"},"vehicle_type_id":"4","last_reported":1766938354,"current_range_meters":14800,"station_id":"ce4bhgp2rcd13ifvqfe0","pricing_plan_id":"cebpf4jnsgd1na2vs0mg"},{"bike_id":"de4385f1-aa77-4586-be45-30664e41a66a","system_id":"levelo_inurba_marseille","lat":43.2924,"lon":5.36844,"is_reserved":false,"is_disabled":false,"rental_uris":{"android":"levelo://app?vid=de4385f1-aa77-4586-be45-30664e41a66a","ios":"levelo://app?vid=de4385f1-aa77-4586-be45-30664e41a66a"},"vehicle_type_id":"4","last_reported":1766938354,"current_range_meters":14800,"station_id":"ce4bhbp2rcd13ifvqesg","pricing_plan_id":"cebpf4jnsgd1na2vs0mg"},{"bike_id":"54928690-97c0-48f0-b287-763b4f8d51ba","system_id":"levelo_inurba_marseille","lat":43.28155,"lon":5.42636,"is_reserved":false,"is_disabled":false,"rental_uris":{"android":"levelo://app?vid=54928690-97c0-48f0-b287-763b4f8d51ba","ios":"levelo://app?vid=54928690-97c0-48f0-b287-763b4f8d51ba"},"vehicle_type_id":"4","last_reported":1766938354,"current_range_meters":14800,"station_id":"ce4bhnh2rcd13ifvqgug","pricing_plan_id":"cebpf4jnsgd1na2vs0mg"},{"bike_id":"af1f9193-90aa-4f34-b2c4-fb0bbaea183c","system_id":"levelo_inurba_marseille","lat":43.28479,"lon":5.48381,"is_reserved":false,"is_disabled":false,"rental_uris":{"android":"levelo://app?vid=af1f9193-90aa-4f34-b2c4-fb0bbaea183c","ios":"levelo://app?vid=af1f9193-90aa-4f34-b2c4-fb0bbaea183c"},"vehicle_type_id":"4","last_reported":1766938354,"current_range_meters":14800,"station_id":"","pricing_plan_id":"cebpf4jnsgd1na2vs0mg"},{"bike_id":"2f9b1f72-cc3d-4901-b915-3d7bc2868e52","system_id":"levelo_inurba_marseille","lat":43.2558,"lon":5.38228,"is_reserved":false,"is_disabled":false,"rental_uris":{"android":"levelo://app?vid=2f9b1f72-cc3d-4901-b915-3d7bc2868e52","ios":"levelo://app?vid=2f9b1f72-cc3d-4901-b915-3d7bc2868e52"},"vehicle_type_id":"4","last_reported":1766938354,"current_range_meters":14800,"station_id":"ce4bhih2rcd13ifvqfs0","pricing_plan_id":"cebpf4jnsgd1na2vs0mg"},{"bike_id":"937c8557-3458-4133-a59b-8bb38309dd16","system_id":"levelo_inurba_marseille","lat":43.28487,"lon":5.38415,"is_reserved":false,"is_disabled":false,"rental_uris":{"android":"levelo://app?vid=937c8557-3458-4133-a59b-8bb38309dd16","ios":"levelo://app?vid=937c8557-3458-4133-a59b-8bb38309dd16"},"vehicle_type_id":"4","last_reported":1766938354,"current_range_meters":15200,"station_id":"ce4bh512rcd13ifvqe3g","pricing_plan_id":"cebpf4jnsgd1na2vs0mg"},{"bike_id":"ca108dd5-43c0-433a-bcb7-55c9a2e6c037","system_id":"levelo_inurba_marseille","lat":43.32015,"lon":5.37435,"is_reserved":false,"is_disabled":false,"rental_uris":{"android":"levelo://app?vid=ca108dd5-43c0-433a-bcb7-55c9a2e6c037","ios":"levelo://app?vid=ca108dd5-43c0-433a-bcb7-55c9a2e6c037"},"vehicle_type_id":"4","last_reported":1766938354,"current_range_meters":15200,"station_id":"","pricing_plan_id":"cebpf4jnsgd1na2vs0mg"},{"bike_id":"23fef27e-16b1-41b3-8527-38d1a2c1bd4c","system_id":"levelo_inurba_marseille","lat":43.30547,"lon":5.36503,"is_reserved":false,"is_disabled":false,"rental_uris":{"android":"levelo://app?vid=23fef27e-16b1-41b3-8527-38d1a2c1bd4c","ios":"levelo://app?vid=23fef27e-16b1-41b3-8527-38d1a2c1bd4c"},"vehicle_type_id":"4","last_reported":1766938354,"current_range_meters":15200,"station_id":"","pricing_plan_id":"cebpf4jnsgd1na2vs0mg"},{"bike_id":"fdd77af3-8e6b-4198-9033-45b5ff3a53e7","system_id":"levelo_inurba_marseille","lat":43.31235,"lon":5.36842,"is_reserved":false,"is_disabled":false,"rental_uris":{"android":"levelo://app?vid=fdd77af3-8e6b-4198-9033-45b5ff3a53e7","ios":"levelo://app?vid=fdd77af3-8e6b-4198-9033-45b5ff3a53e7"},"vehicle_type_id":"4","last_reported":1766938354,"current_range_meters":15200,"station_id":"ce4bgl92rcd13ifvqbq0","pricing_plan_id":"cebpf4jnsgd1na2vs0mg"},{"bike_id":"59ce43fb-ff44-4d6d-a90f-61c10ba0732a","system_id":"levelo_inurba_marseille","lat":43.27501,"lon":5.4246,"is_reserved":false,"is_disabled":false,"rental_uris":{"android":"levelo://app?vid=59ce43fb-ff44-4d6d-a90f-61c10ba0732a","ios":"levelo://app?vid=59ce43fb-ff44-4d6d-a90f-61c10ba0732a"},"vehicle_type_id":"4","last_reported":1766938354,"current_range_meters":15200,"station_id":"ce4bhn92rcd13ifvqgrg","pricing_plan_id":"cebpf4jnsgd1na2vs0mg"},{"bike_id":"14ae9959-6d18-4598-8253-e78df69f7308","system_id":"levelo_inurba_marseille","lat":43.303162,"lon":5.369192,"is_reserved":false,"is_disabled":false,"rental_uris":{"android":"levelo://app?vid=14ae9959-6d18-4598-8253-e78df69f7308","ios":"levelo://app?vid=14ae9959-6d18-4598-8253-e78df69f7308"},"vehicle_type_id":"4","last_reported":1766938354,"current_range_meters":15200,"station_id":"ce4bgqh2rcd13ifvqc5g","pricing_plan_id":"cebpf4jnsgd1na2vs0mg"},{"bike_id":"631b4917-b2c5-4925-86d4-958dd23950ab","system_id":"levelo_inurba_marseille","lat":43.30748,"lon":5.42436,"is_reserved":false,"is_disabled":false,"rental_uris":{"android":"levelo://app?vid=631b4917-b2c5-4925-86d4-958dd23950ab","ios":"levelo://app?vid=631b4917-b2c5-4925-86d4-958dd23950ab"},"vehicle_type_id":"4","last_reported":1766938354,"current_range_meters":15200,"station_id":"st_cvj6ca6bvosntc0bfgr0","pricing_plan_id":"cebpf4jnsgd1na2vs0mg"},{"bike_id":"0ab236f4-714d-4f83-b124-2b3bc8970a00","system_id":"levelo_inurba_marseille","lat":43.32117,"lon":5.36775,"is_reserved":false,"is_disabled":false,"rental_uris":{"android":"levelo://app?vid=0ab236f4-714d-4f83-b124-2b3bc8970a00","ios":"levelo://app?vid=0ab236f4-714d-4f83-b124-2b3bc8970a00"},"vehicle_type_id":"4","last_reported":1766938354,"current_range_meters":15200,"station_id":"ce4bhrh2rcd13ifvqhug","pricing_plan_id":"cebpf4jnsgd1na2vs0mg"},{"bike_id":"1b98c6d3-988a-40e8-a138-836b264a962b","system_id":"levelo_inurba_marseille","lat":43.32331,"lon":5.36678,"is_reserved":false,"is_disabled":false,"rental_uris":{"android":"levelo://app?vid=1b98c6d3-988a-40e8-a138-836b264a962b","ios":"levelo://app?vid=1b98c6d3-988a-40e8-a138-836b264a962b"},"vehicle_type_id":"4","last_reported":1766938354,"current_range_meters":15200,"station_id":"","pricing_plan_id":"cebpf4jnsgd1na2vs0mg"},{"bike_id":"cfc68cfa-696a-4683-bc70-2f0af19ddd34","system_id":"levelo_inurba_marseille","lat":43.337598,"lon":5.374618,"is_reserved":false,"is_disabled":false,"rental_uris":{"android":"levelo://app?vid=cfc68cfa-696a-4683-bc70-2f0af19ddd34","ios":"levelo://app?vid=cfc68cfa-696a-4683-bc70-2f0af19ddd34"},"vehicle_type_id":"4","last_reported":1766938354,"current_range_meters":15200,"station_id":"","pricing_plan_id":"cebpf4jnsgd1na2vs0mg"},{"bike_id":"ebcb581e-e8b8-4142-ac3f-46b1c0af4eef","system_id":"levelo_inurba_marseille","lat":43.26201,"lon":5.40446,"is_reserved":false,"is_disabled":false,"rental_uris":{"android":"levelo://app?vid=ebcb581e-e8b8-4142-ac3f-46b1c0af4eef","ios":"levelo://app?vid=ebcb581e-e8b8-4142-ac3f-46b1c0af4eef"},"vehicle_type_id":"4","last_reported":1766938354,"current_range_meters":15200,"station_id":"ce4bhmh2rcd13ifvqgmg","pricing_plan_id":"cebpf4jnsgd1na2vs0mg"},{"bike_id":"d92812f8-5b57-4c59-8c7f-259f28af8665","system_id":"levelo_inurba_marseille","lat":43.28221,"lon":5.43095,"is_reserved":false,"is_disabled":false,"rental_uris":{"android":"levelo://app?vid=d92812f8-5b57-4c59-8c7f-259f28af8665","ios":"levelo://app?vid=d92812f8-5b57-4c59-8c7f-259f28af8665"},"vehicle_type_id":"4","last_reported":1766938354,"current_range_meters":15200,"station_id":"","pricing_plan_id":"cebpf4jnsgd1na2vs0mg"},{"bike_id":"8edc1ab8-c82c-4ca3-afef-ae2ed37ce96b","system_id":"levelo_inurba_marseille","lat":43.31212,"lon":5.3691,"is_reserved":false,"is_disabled":false,"rental_uris":{"android":"levelo://app?vid=8edc1ab8-c82c-4ca3-afef-ae2ed37ce96b","ios":"levelo://app?vid=8edc1ab8-c82c-4ca3-afef-ae2ed37ce96b"},"vehicle_type_id":"4","last_reported":1766938354,"current_range_meters":16000,"station_id":"ce4bgl92rcd13ifvqbq0","pricing_plan_id":"cebpf4jnsgd1na2vs0mg"},{"bike_id":"5294767e-dd69-4945-8c8e-03dd74e904a7","system_id":"levelo_inurba_marseille","lat":43.230631,"lon":5.35491,"is_reserved":false,"is_disabled":false,"rental_uris":{"android":"levelo://app?vid=5294767e-dd69-4945-8c8e-03dd74e904a7","ios":"levelo://app?vid=5294767e-dd69-4945-8c8e-03dd74e904a7"},"vehicle_type_id":"4","last_reported":1766938354,"current_range_meters":16000,"station_id":"","pricing_plan_id":"cebpf4jnsgd1na2vs0mg"},{"bike_id":"0c8752f9-67a9-4eee-998d-0a21d8c8f9f0","system_id":"levelo_inurba_marseille","lat":43.328827,"lon":5.405193,"is_reserved":false,"is_disabled":false,"rental_uris":{"android":"levelo://app?vid=0c8752f9-67a9-4eee-998d-0a21d8c8f9f0","ios":"levelo://app?vid=0c8752f9-67a9-4eee-998d-0a21d8c8f9f0"},"vehicle_type_id":"4","last_reported":1766938354,"current_range_meters":16000,"station_id":"ce4bhq92rcd13ifvqhkg","pricing_plan_id":"cebpf4jnsgd1na2vs0mg"},{"bike_id":"409f22f5-c320-45ca-851d-1966d2bb3619","system_id":"levelo_inurba_marseille","lat":43.30746,"lon":5.37021,"is_reserved":false,"is_disabled":false,"rental_uris":{"android":"levelo://app?vid=409f22f5-c320-45ca-851d-1966d2bb3619","ios":"levelo://app?vid=409f22f5-c320-45ca-851d-1966d2bb3619"},"vehicle_type_id":"4","last_reported":1766938354,"current_range_meters":16000,"station_id":"","pricing_plan_id":"cebpf4jnsgd1na2vs0mg"},{"bike_id":"a670ebcb-a6f0-45dc-95de-0aa0be581eab","system_id":"levelo_inurba_marseille","lat":43.24086,"lon":5.37745,"is_reserved":false,"is_disabled":false,"rental_uris":{"android":"levelo://app?vid=a670ebcb-a6f0-45dc-95de-0aa0be581eab","ios":"levelo://app?vid=a670ebcb-a6f0-45dc-95de-0aa0be581eab"},"vehicle_type_id":"4","last_reported":1766938354,"current_range_meters":16000,"station_id":"ce4bhnp2rcd13ifvqgvg","pricing_plan_id":"cebpf4jnsgd1na2vs0mg"},{"bike_id":"4466e4e7-7d9e-4691-9c78-17a073c9b554","system_id":"levelo_inurba_marseille","lat":43.324538,"lon":5.365669,"is_reserved":false,"is_disabled":false,"rental_uris":{"android":"levelo://app?vid=4466e4e7-7d9e-4691-9c78-17a073c9b554","ios":"levelo://app?vid=4466e4e7-7d9e-4691-9c78-17a073c9b554"},"vehicle_type_id":"4","last_reported":1766938354,"current_range_meters":16000,"station_id":"ce4bhs12rcd13ifvqhvg","pricing_plan_id":"cebpf4jnsgd1na2vs0mg"},{"bike_id":"d5157bc4-281e-4273-a854-3dd0ece413ba","system_id":"levelo_inurba_marseille","lat":43.30734,"lon":5.42439,"is_reserved":false,"is_disabled":false,"rental_uris":{"android":"levelo://app?vid=d5157bc4-281e-4273-a854-3dd0ece413ba","ios":"levelo://app?vid=d5157bc4-281e-4273-a854-3dd0ece413ba"},"vehicle_type_id":"4","last_reported":1766938354,"current_range_meters":16000,"station_id":"st_cvj6ca6bvosntc0bfgr0","pricing_plan_id":"cebpf4jnsgd1na2vs0mg"},{"bike_id":"982576f6-88af-4391-b950-330d16ae1404","system_id":"levelo_inurba_marseille","lat":43.27376,"lon":5.36261,"is_reserved":false,"is_disabled":false,"rental_uris":{"android":"levelo://app?vid=982576f6-88af-4391-b950-330d16ae1404","ios":"levelo://app?vid=982576f6-88af-4391-b950-330d16ae1404"},"vehicle_type_id":"4","last_reported":1766938354,"current_range_meters":16000,"station_id":"ce4bhbh2rcd13ifvqeo0","pricing_plan_id":"cebpf4jnsgd1na2vs0mg"},{"bike_id":"60931b26-689a-488c-9bd9-5b895f45b3d8","system_id":"levelo_inurba_marseille","lat":43.30536,"lon":5.39911,"is_reserved":false,"is_disabled":false,"rental_uris":{"android":"levelo://app?vid=60931b26-689a-488c-9bd9-5b895f45b3d8","ios":"levelo://app?vid=60931b26-689a-488c-9bd9-5b895f45b3d8"},"vehicle_type_id":"4","last_reported":1766938354,"current_range_meters":16000,"station_id":"","pricing_plan_id":"cebpf4jnsgd1na2vs0mg"},{"bike_id":"ab07ab4d-8c00-4184-a952-35d08d673f0e","system_id":"levelo_inurba_marseille","lat":43.30767,"lon":5.43714,"is_reserved":false,"is_disabled":false,"rental_uris":{"android":"levelo://app?vid=ab07ab4d-8c00-4184-a952-35d08d673f0e","ios":"levelo://app?vid=ab07ab4d-8c00-4184-a952-35d08d673f0e"},"vehicle_type_id":"4","last_reported":1766938354,"current_range_meters":16000,"station_id":"","pricing_plan_id":"cebpf4jnsgd1na2vs0mg"},{"bike_id":"b388443f-e6d4-4125-a04a-5dae673a45a3","system_id":"levelo_inurba_marseille","lat":43.28469,"lon":5.38434,"is_reserved":false,"is_disabled":false,"rental_uris":{"android":"levelo://app?vid=b388443f-e6d4-4125-a04a-5dae673a45a3","ios":"levelo://app?vid=b388443f-e6d4-4125-a04a-5dae673a45a3"},"vehicle_type_id":"4","last_reported":1766938354,"current_range_meters":16000,"station_id":"ce4bh512rcd13ifvqe3g","pricing_plan_id":"cebpf4jnsgd1na2vs0mg"},{"bike_id":"d256e78a-a653-4742-acf5-80fcd9be5f91","system_id":"levelo_inurba_marseille","lat":43.32096,"lon":5.36788,"is_reserved":false,"is_disabled":false,"rental_uris":{"android":"levelo://app?vid=d256e78a-a653-4742-acf5-80fcd9be5f91","ios":"levelo://app?vid=d256e78a-a653-4742-acf5-80fcd9be5f91"},"vehicle_type_id":"4","last_reported":1766938354,"current_range_meters":16000,"station_id":"ce4bhrh2rcd13ifvqhug","pricing_plan_id":"cebpf4jnsgd1na2vs0mg"},{"bike_id":"0324683c-4043-4512-bd18-614da6ff13bb","system_id":"levelo_inurba_marseille","lat":43.32065,"lon":5.41533,"is_reserved":false,"is_disabled":false,"rental_uris":{"android":"levelo://app?vid=0324683c-4043-4512-bd18-614da6ff13bb","ios":"levelo://app?vid=0324683c-4043-4512-bd18-614da6ff13bb"},"vehicle_type_id":"4","last_reported":1766938354,"current_range_meters":16000,"station_id":"ce4bhq92rcd13ifvqhkg","pricing_plan_id":"cebpf4jnsgd1na2vs0mg"},{"bike_id":"8a0495a7-0c65-4221-9d31-5939737c06bb","system_id":"levelo_inurba_marseille","lat":43.26553,"lon":5.37295,"is_reserved":false,"is_disabled":false,"rental_uris":{"android":"levelo://app?vid=8a0495a7-0c65-4221-9d31-5939737c06bb","ios":"levelo://app?vid=8a0495a7-0c65-4221-9d31-5939737c06bb"},"vehicle_type_id":"4","last_reported":1766938354,"current_range_meters":16000,"station_id":"ce4bhg12rcd13ifvqf70","pricing_plan_id":"cebpf4jnsgd1na2vs0mg"},{"bike_id":"9a2077a2-cebc-468c-82f9-fecda68a9ec3","system_id":"levelo_inurba_marseille","lat":43.29439,"lon":5.40981,"is_reserved":false,"is_disabled":false,"rental_uris":{"android":"levelo://app?vid=9a2077a2-cebc-468c-82f9-fecda68a9ec3","ios":"levelo://app?vid=9a2077a2-cebc-468c-82f9-fecda68a9ec3"},"vehicle_type_id":"4","last_reported":1766938354,"current_range_meters":16000,"station_id":"","pricing_plan_id":"cebpf4jnsgd1na2vs0mg"},{"bike_id":"c93bbf3c-9650-44c3-9782-9bef181a9bed","system_id":"levelo_inurba_marseille","lat":43.26551,"lon":5.37293,"is_reserved":false,"is_disabled":false,"rental_uris":{"android":"levelo://app?vid=c93bbf3c-9650-44c3-9782-9bef181a9bed","ios":"levelo://app?vid=c93bbf3c-9650-44c3-9782-9bef181a9bed"},"vehicle_type_id":"4","last_reported":1766938354,"current_range_meters":16000,"station_id":"ce4bhg12rcd13ifvqf70","pricing_plan_id":"cebpf4jnsgd1na2vs0mg"},{"bike_id":"22650f94-9fdb-4e8a-89db-d52c54e1f7d6","system_id":"levelo_inurba_marseille","lat":43.28471,"lon":5.38425,"is_reserved":false,"is_disabled":true,"rental_uris":{"android":"levelo://app?vid=22650f94-9fdb-4e8a-89db-d52c54e1f7d6","ios":"levelo://app?vid=22650f94-9fdb-4e8a-89db-d52c54e1f7d6"},"vehicle_type_id":"4","last_reported":1766938354,"current_range_meters":16400,"station_id":"ce4bh512rcd13ifvqe3g","pricing_plan_id":"cebpf4jnsgd1na2vs0mg"},{"bike_id":"2bede430-4250-4bb5-9cc1-2011ee04070d","system_id":"levelo_inurba_marseille","lat":43.28484,"lon":5.48394,"is_reserved":false,"is_disabled":false,"rental_uris":{"android":"levelo://app?vid=2bede430-4250-4bb5-9cc1-2011ee04070d","ios":"levelo://app?vid=2bede430-4250-4bb5-9cc1-2011ee04070d"},"vehicle_type_id":"4","last_reported":1766938354,"current_range_meters":16400,"station_id":"st_d3svhcjqgbts73a3dn0g","pricing_plan_id":"cebpf4jnsgd1na2vs0mg"},{"bike_id":"40347d43-8e8a-4477-a251-ac58e8294d4a","system_id":"levelo_inurba_marseille","lat":43.27618,"lon":5.36105,"is_reserved":false,"is_disabled":false,"rental_uris":{"android":"levelo://app?vid=40347d43-8e8a-4477-a251-ac58e8294d4a","ios":"levelo://app?vid=40347d43-8e8a-4477-a251-ac58e8294d4a"},"vehicle_type_id":"4","last_reported":1766938354,"current_range_meters":16400,"station_id":"ce4bgj92rcd13ifvqbe0","pricing_plan_id":"cebpf4jnsgd1na2vs0mg"},{"bike_id":"6100a49b-b7a6-4aa2-b731-6d812cff6227","system_id":"levelo_inurba_marseille","lat":43.24684,"lon":5.38164,"is_reserved":false,"is_disabled":false,"rental_uris":{"android":"levelo://app?vid=6100a49b-b7a6-4aa2-b731-6d812cff6227","ios":"levelo://app?vid=6100a49b-b7a6-4aa2-b731-6d812cff6227"},"vehicle_type_id":"4","last_reported":1766938354,"current_range_meters":16400,"station_id":"ce4bhih2rcd13ifvqfr0","pricing_plan_id":"cebpf4jnsgd1na2vs0mg"},{"bike_id":"84886109-4483-4131-9b99-6aabd40c89aa","system_id":"levelo_inurba_marseille","lat":43.25925,"lon":5.40891,"is_reserved":false,"is_disabled":false,"rental_uris":{"android":"levelo://app?vid=84886109-4483-4131-9b99-6aabd40c89aa","ios":"levelo://app?vid=84886109-4483-4131-9b99-6aabd40c89aa"},"vehicle_type_id":"4","last_reported":1766938354,"current_range_meters":16400,"station_id":"ce4bhm92rcd13ifvqglg","pricing_plan_id":"cebpf4jnsgd1na2vs0mg"},{"bike_id":"a875dbb3-0ecc-4340-a068-a391d54950ba","system_id":"levelo_inurba_marseille","lat":43.296789,"lon":5.372923,"is_reserved":false,"is_disabled":false,"rental_uris":{"android":"levelo://app?vid=a875dbb3-0ecc-4340-a068-a391d54950ba","ios":"levelo://app?vid=a875dbb3-0ecc-4340-a068-a391d54950ba"},"vehicle_type_id":"4","last_reported":1766938354,"current_range_meters":16400,"station_id":"ce4bgk12rcd13ifvqbj0","pricing_plan_id":"cebpf4jnsgd1na2vs0mg"},{"bike_id":"f03054fd-325c-4942-bb69-32004d79c98e","system_id":"levelo_inurba_marseille","lat":43.30439,"lon":5.39736,"is_reserved":false,"is_disabled":false,"rental_uris":{"android":"levelo://app?vid=f03054fd-325c-4942-bb69-32004d79c98e","ios":"levelo://app?vid=f03054fd-325c-4942-bb69-32004d79c98e"},"vehicle_type_id":"4","last_reported":1766938354,"current_range_meters":16400,"station_id":"ce4bh092rcd13ifvqd20","pricing_plan_id":"cebpf4jnsgd1na2vs0mg"},{"bike_id":"dc72a47d-0da3-4605-b41c-5e0e4e708d67","system_id":"levelo_inurba_marseille","lat":43.26772,"lon":5.39438,"is_reserved":false,"is_disabled":false,"rental_uris":{"android":"levelo://app?vid=dc72a47d-0da3-4605-b41c-5e0e4e708d67","ios":"levelo://app?vid=dc72a47d-0da3-4605-b41c-5e0e4e708d67"},"vehicle_type_id":"4","last_reported":1766938354,"current_range_meters":16400,"station_id":"ce4bhh12rcd13ifvqfg0","pricing_plan_id":"cebpf4jnsgd1na2vs0mg"},{"bike_id":"4e7e8783-063a-415a-8210-8d534bc456e2","system_id":"levelo_inurba_marseille","lat":43.2985,"lon":5.36281,"is_reserved":false,"is_disabled":false,"rental_uris":{"android":"levelo://app?vid=4e7e8783-063a-415a-8210-8d534bc456e2","ios":"levelo://app?vid=4e7e8783-063a-415a-8210-8d534bc456e2"},"vehicle_type_id":"4","last_reported":1766938354,"current_range_meters":16400,"station_id":"ce4bgpp2rcd13ifvqc3g","pricing_plan_id":"cebpf4jnsgd1na2vs0mg"},{"bike_id":"38903d39-a592-449b-8e78-90cadfcc7c28","system_id":"levelo_inurba_marseille","lat":43.335468,"lon":5.374707,"is_reserved":false,"is_disabled":false,"rental_uris":{"android":"levelo://app?vid=38903d39-a592-449b-8e78-90cadfcc7c28","ios":"levelo://app?vid=38903d39-a592-449b-8e78-90cadfcc7c28"},"vehicle_type_id":"4","last_reported":1766938354,"current_range_meters":16400,"station_id":"st_d46tts09ee8s73dlu43g","pricing_plan_id":"cebpf4jnsgd1na2vs0mg"},{"bike_id":"9b83f865-8af6-453d-980e-50cbfb13843e","system_id":"levelo_inurba_marseille","lat":43.25513,"lon":5.37652,"is_reserved":false,"is_disabled":true,"rental_uris":{"android":"levelo://app?vid=9b83f865-8af6-453d-980e-50cbfb13843e","ios":"levelo://app?vid=9b83f865-8af6-453d-980e-50cbfb13843e"},"vehicle_type_id":"4","last_reported":1766938354,"current_range_meters":16400,"station_id":"ce4bhh12rcd13ifvqff0","pricing_plan_id":"cebpf4jnsgd1na2vs0mg"},{"bike_id":"fd4467b5-dbcb-4ead-98d2-8d3da410caee","system_id":"levelo_inurba_marseille","lat":43.3208,"lon":5.41568,"is_reserved":false,"is_disabled":true,"rental_uris":{"android":"levelo://app?vid=fd4467b5-dbcb-4ead-98d2-8d3da410caee","ios":"levelo://app?vid=fd4467b5-dbcb-4ead-98d2-8d3da410caee"},"vehicle_type_id":"4","last_reported":1766938354,"current_range_meters":16400,"station_id":"ce4bhq92rcd13ifvqhkg","pricing_plan_id":"cebpf4jnsgd1na2vs0mg"},{"bike_id":"e1338188-95ec-40d2-afb8-23ec464bcb95","system_id":"levelo_inurba_marseille","lat":43.30441,"lon":5.41305,"is_reserved":false,"is_disabled":false,"rental_uris":{"android":"levelo://app?vid=e1338188-95ec-40d2-afb8-23ec464bcb95","ios":"levelo://app?vid=e1338188-95ec-40d2-afb8-23ec464bcb95"},"vehicle_type_id":"4","last_reported":1766938354,"current_range_meters":16400,"station_id":"ce4bhop2rcd13ifvqh8g","pricing_plan_id":"cebpf4jnsgd1na2vs0mg"},{"bike_id":"37823827-89d5-4f0a-a251-56a7e383ca5a","system_id":"levelo_inurba_marseille","lat":43.29715,"lon":5.37709,"is_reserved":false,"is_disabled":false,"rental_uris":{"android":"levelo://app?vid=37823827-89d5-4f0a-a251-56a7e383ca5a","ios":"levelo://app?vid=37823827-89d5-4f0a-a251-56a7e383ca5a"},"vehicle_type_id":"4","last_reported":1766938354,"current_range_meters":16400,"station_id":"ce4bgkh2rcd13ifvqbl0","pricing_plan_id":"cebpf4jnsgd1na2vs0mg"},{"bike_id":"cb4324a0-44b1-4079-90a1-e8c3c42b4e43","system_id":"levelo_inurba_marseille","lat":43.31486,"lon":5.37269,"is_reserved":false,"is_disabled":false,"rental_uris":{"android":"levelo://app?vid=cb4324a0-44b1-4079-90a1-e8c3c42b4e43","ios":"levelo://app?vid=cb4324a0-44b1-4079-90a1-e8c3c42b4e43"},"vehicle_type_id":"4","last_reported":1766938354,"current_range_meters":16400,"station_id":"ce4bgt12rcd13ifvqcd0","pricing_plan_id":"cebpf4jnsgd1na2vs0mg"},{"bike_id":"b893064f-c413-4696-9d61-dedc983d4458","system_id":"levelo_inurba_marseille","lat":43.29309,"lon":5.37172,"is_reserved":false,"is_disabled":false,"rental_uris":{"android":"levelo://app?vid=b893064f-c413-4696-9d61-dedc983d4458","ios":"levelo://app?vid=b893064f-c413-4696-9d61-dedc983d4458"},"vehicle_type_id":"4","last_reported":1766938354,"current_range_meters":16400,"station_id":"ce4bgh92rcd13ifvqb40","pricing_plan_id":"cebpf4jnsgd1na2vs0mg"},{"bike_id":"edb724d4-b987-4565-8c02-9982b262483c","system_id":"levelo_inurba_marseille","lat":43.29002,"lon":5.35605,"is_reserved":false,"is_disabled":false,"rental_uris":{"android":"levelo://app?vid=edb724d4-b987-4565-8c02-9982b262483c","ios":"levelo://app?vid=edb724d4-b987-4565-8c02-9982b262483c"},"vehicle_type_id":"4","last_reported":1766938354,"current_range_meters":16400,"station_id":"ce4bhb92rcd13ifvqen0","pricing_plan_id":"cebpf4jnsgd1na2vs0mg"},{"bike_id":"80444e06-d995-4c1c-8a85-4d36bd37b6e0","system_id":"levelo_inurba_marseille","lat":43.29185,"lon":5.35798,"is_reserved":false,"is_disabled":false,"rental_uris":{"android":"levelo://app?vid=80444e06-d995-4c1c-8a85-4d36bd37b6e0","ios":"levelo://app?vid=80444e06-d995-4c1c-8a85-4d36bd37b6e0"},"vehicle_type_id":"4","last_reported":1766938354,"current_range_meters":16400,"station_id":"ce4bhb12rcd13ifvqel0","pricing_plan_id":"cebpf4jnsgd1na2vs0mg"},{"bike_id":"6a694001-45e2-470a-bec0-e92f05ca1ece","system_id":"levelo_inurba_marseille","lat":43.24532,"lon":5.39544,"is_reserved":false,"is_disabled":false,"rental_uris":{"android":"levelo://app?vid=6a694001-45e2-470a-bec0-e92f05ca1ece","ios":"levelo://app?vid=6a694001-45e2-470a-bec0-e92f05ca1ece"},"vehicle_type_id":"4","last_reported":1766938354,"current_range_meters":16400,"station_id":"ce4bhlp2rcd13ifvqgjg","pricing_plan_id":"cebpf4jnsgd1na2vs0mg"},