{"last_updated":1747926635,"ttl":60,"version":"2.2","data":{"bikes":[{"bike_id":"c0b9fd4f-e181-46ce-b0bf-f5119973334f","system_id":"levelo_inurba_marseille","lat":43.33771,"lon":5.37424,"is_reserved":false,"is_disabled":true,"rental_uris":{"android":"levelo://app?vid=c0b9fd4f-e181-46ce-b0bf-f5119973334f","ios":"levelo://app?vid=c0b9fd4f-e181-46ce-b0bf-f5119973334f"},"vehicle_type_id":"4","last_reported":1747926635,"current_range_meters":0,"station_id":"","pricing_plan_id":"cebpf4jnsgd1na2vs0mg"},{"bike_id":"99f73d8c-ff21-451c-8082-80384eaeabfc","system_id":"levelo_inurba_marseille","lat":43.30563,"lon":5.401787,"is_reserved":false,"is_disabled":true,"rental_uris":{"android":"levelo://app?vid=99f73d8c-ff21-451c-8082-80384eaeabfc","ios":"levelo://app?vid=99f73d8c-ff21-451c-8082-80384eaeabfc"},"vehicle_type_id":"4","last_reported":1747926635,"current_range_meters":0,"station_id":"","pricing_plan_id":"cebpf4jnsgd1na2vs0mg"},{"bike_id":"c306fa7d-481e-4ae3-9585-ff4c1f5ddcb9","system_id":"levelo_inurba_marseille","lat":43.34959,"lon":5.379394,"is_reserved":false,"is_disabled":true,"rental_uris":{"android":"levelo://app?vid=c306fa7d-481e-4ae3-9585-ff4c1f5ddcb9","ios":"levelo://app?vid=c306fa7d-481e-4ae3-9585-ff4c1f5ddcb9"},"vehicle_type_id":"4","last_reported":1747926635,"current_range_meters":0,"station_id":"","pricing_plan_id":"cebpf4jnsgd1na2vs0mg"},{"bike_id":"c2b4a03e-0b64-4ca0-8ea3-612bc6668100","system_id":"levelo_inurba_marseille","lat":43.31402,"lon":5.37562,"is_reserved":false,"is_disabled":true,"rental_uris":{"android":"levelo://app?vid=c2b4a03e-0b64-4ca0-8ea3-612bc6668100","ios":"levelo://app?vid=c2b4a03e-0b64-4ca0-8ea3-612bc6668100"},"vehicle_type_id":"4","last_reported":1747926635,"current_range_meters":0,"station_id":"","pricing_plan_id":"cebpf4jnsgd1na2vs0mg"},{"bike_id":"8f0f531d-6a65-4647-8a6f-baa3d982f42f","system_id":"levelo_inurba_marseille","lat":43.28116,"lon":5.42551,"is_reserved":false,"is_disabled":true,"rental_uris":{"android":"levelo://app?vid=8f0f531d-6a65-4647-8a6f-baa3d982f42f","ios":"levelo://app?vid=8f0f531d-6a65-4647-8a6f-baa3d982f42f"},"vehicle_type_id":"4","last_reported":1747926635,"current_range_meters":0,"station_id":"","pricing_plan_id":"cebpf4jnsgd1na2vs0mg"},{"bike_id":"70c5c5ad-5e66-4a49-9450-c4d67d96b788","system_id":"levelo_inurba_marseille","lat":43.27126,"lon":5.42758,"is_reserved":false,"is_disabled":true,"rental_uris":{"android":"levelo://app?vid=70c5c5ad-5e66-4a49-9450-c4d67d96b788","ios":"levelo://app?vid=70c5c5ad-5e66-4a49-9450-c4d67d96b788"},"vehicle_type_id":"4","last_reported":1747926635,"current_range_meters":0,"station_id":"","pricing_plan_id":"cebpf4jnsgd1na2vs0mg"},{"bike_id":"9913adaa-d53d-44af-8cc0-e1c41d052752","system_id":"levelo_inurba_marseille","lat":43.27991,"lon":5.38625,"is_reserved":false,"is_disabled":true,"rental_uris":{"android":"levelo://app?vid=9913adaa-d53d-44af-8cc0-e1c41d052752","ios":"levelo://app?vid=9913adaa-d53d-44af-8cc0-e1c41d052752"},"vehicle_type_id":"4","last_reported":1747926635,"current_range_meters":0,"station_id":"","pricing_plan_id":"cebpf4jnsgd1na2vs0mg"},{"bike_id":"ed3ea663-8717-4b5a-ac00-8c1f2c9bf850","system_id":"levelo_inurba_marseille","lat":43.29697,"lon":5.37623,"is_reserved":false,"is_disabled":true,"rental_uris":{"android":"levelo://app?vid=ed3ea663-8717-4b5a-ac00-8c1f2c9bf850","ios":"levelo://app?vid=ed3ea663-8717-4b5a-ac00-8c1f2c9bf850"},"vehicle_type_id":"4","last_reported":1747926635,"current_range_meters":0,"station_id":"","pricing_plan_id":"cebpf4jnsgd1na2vs0mg"},{"bike_id":"e9dd3aa4-b5e7-4480-926d-d7f537719bfa","system_id":"levelo_inurba_marseille","lat":43.230331,"lon":5.401847,"is_reserved":false,"is_disabled":true,"rental_uris":{"android":"levelo://app?vid=e9dd3aa4-b5e7-4480-926d-d7f537719bfa","ios":"levelo://app?vid=e9dd3aa4-b5e7-4480-926d-d7f537719bfa"},"vehicle_type_id":"4","last_reported":1747926635,"current_range_meters":0,"station_id":"","pricing_plan_id":"cebpf4jnsgd1na2vs0mg"},{"bike_id":"14603e41-b2dd-4757-a53c-2e366aa4f983","system_id":"levelo_inurba_marseille","lat":43.26994,"lon":5.4282,"is_reserved":false,"is_disabled":true,"rental_uris":{"android":"levelo://app?vid=14603e41-b2dd-4757-a53c-2e366aa4f983","ios":"levelo://app?vid=14603e41-b2dd-4757-a53c-2e366aa4f983"},"vehicle_type_id":"4","last_reported":1747926635,"current_range_meters":0,"station_id":"","pricing_plan_id":"cebpf4jnsgd1na2vs0mg"},{"bike_id":"c1f369bf-430e-4ea5-bc2a-4c08c31385df","system_id":"levelo_inurba_marseille","lat":43.3138,"lon":5.38499,"is_reserved":false,"is_disabled":true,"rental_uris":{"android":"levelo://app?vid=c1f369bf-430e-4ea5-bc2a-4c08c31385df","ios":"levelo://app?vid=c1f369bf-430e-4ea5-bc2a-4c08c31385df"},"vehicle_type_id":"4","last_reported":1747926635,"current_range_meters":0,"station_id":"ce4bgt92rcd13ifvqcf0","pricing_plan_id":"cebpf4jnsgd1na2vs0mg"},{"bike_id":"27fcfb7f-fd7e-41b0-8939-c103136da582","system_id":"levelo_inurba_marseille","lat":43.30921,"lon":5.40146,"is_reserved":false,"is_disabled":true,"rental_uris":{"android":"levelo://app?vid=27fcfb7f-fd7e-41b0-8939-c103136da582","ios":"levelo://app?vid=27fcfb7f-fd7e-41b0-8939-c103136da582"},"vehicle_type_id":"4","last_reported":1747926635,"current_range_meters":0,"station_id":"ce4bgvp2rcd13ifvqct0","pricing_plan_id":"cebpf4jnsgd1na2vs0mg"},{"bike_id":"658921b9-1968-4c46-ae4a-e2d7b8ff09f0","system_id":"levelo_inurba_marseille","lat":43.29283,"lon":5.40124,"is_reserved":false,"is_disabled":true,"rental_uris":{"android":"levelo://app?vid=658921b9-1968-4c46-ae4a-e2d7b8ff09f0","ios":"levelo://app?vid=658921b9-1968-4c46-ae4a-e2d7b8ff09f0"},"vehicle_type_id":"4","last_reported":1747926635,"current_range_meters":0,"station_id":"ce4bh312rcd13ifvqdk0","pricing_plan_id":"cebpf4jnsgd1na2vs0mg"},{"bike_id":"28f5641c-3b88-45e6-8a4e-c4db2aff452a","system_id":"levelo_inurba_marseille","lat":43.28047,"lon":5.37026,"is_reserved":false,"is_disabled":true,"rental_uris":{"android":"levelo://app?vid=28f5641c-3b88-45e6-8a4e-c4db2aff452a","ios":"levelo://app?vid=28f5641c-3b88-45e6-8a4e-c4db2aff452a"},"vehicle_type_id":"4","last_reported":1747926635,"current_range_meters":0,"station_id":"ce4bha12rcd13ifvqef0","pricing_plan_id":"cebpf4jnsgd1na2vs0mg"},{"bike_id":"43c6fc20-41d8-4b35-b01f-8c10ad0ac4d6","system_id":"levelo_inurba_marseille","lat":43.28029,"lon":5.36941,"is_reserved":false,"is_disabled":true,"rental_uris":{"android":"levelo://app?vid=43c6fc20-41d8-4b35-b01f-8c10ad0ac4d6","ios":"levelo://app?vid=43c6fc20-41d8-4b35-b01f-8c10ad0ac4d6"},"vehicle_type_id":"4","last_reported":1747926635,"current_range_meters":0,"station_id":"ce4bha12rcd13ifvqef0","pricing_plan_id":"cebpf4jnsgd1na2vs0mg"},{"bike_id":"b58a53ae-9ec2-4e4c-8dcc-795c5d9ac70c","system_id":"levelo_inurba_marseille","lat":43.28941,"lon":5.3663,"is_reserved":false,"is_disabled":true,"rental_uris":{"android":"levelo://app?vid=b58a53ae-9ec2-4e4c-8dcc-795c5d9ac70c","ios":"levelo://app?vid=b58a53ae-9ec2-4e4c-8dcc-795c5d9ac70c"},"vehicle_type_id":"4","last_reported":1747926635,"current_range_meters":0,"station_id":"ce4bhap2rcd13ifvqek0","pricing_plan_id":"cebpf4jnsgd1na2vs0mg"},{"bike_id":"56ae3812-e361-4564-b157-4dc0683e3b6f","system_id":"levelo_inurba_marseille","lat":43.265447,"lon":5.390427,"is_reserved":false,"is_disabled":true,"rental_uris":{"android":"levelo://app?vid=56ae3812-e361-4564-b157-4dc0683e3b6f","ios":"levelo://app?vid=56ae3812-e361-4564-b157-4dc0683e3b6f"},"vehicle_type_id":"4","last_reported":1747926635,"current_range_meters":0,"station_id":"ce4bhe12rcd13ifvqf30","pricing_plan_id":"cebpf4jnsgd1na2vs0mg"},{"bike_id":"421aa59c-12cc-49ed-80af-25ab8cc301e4","system_id":"levelo_inurba_marseille","lat":43.26554,"lon":5.37283,"is_reserved":false,"is_disabled":true,"rental_uris":{"android":"levelo://app?vid=421aa59c-12cc-49ed-80af-25ab8cc301e4","ios":"levelo://app?vid=421aa59c-12cc-49ed-80af-25ab8cc301e4"},"vehicle_type_id":"4","last_reported":1747926635,"current_range_meters":0,"station_id":"ce4bhg12rcd13ifvqf70","pricing_plan_id":"cebpf4jnsgd1na2vs0mg"},{"bike_id":"ddea1036-6b99-4d66-853c-ddea54e4d5b4","system_id":"levelo_inurba_marseille","lat":43.2766,"lon":5.38911,"is_reserved":false,"is_disabled":true,"rental_uris":{"android":"levelo://app?vid=ddea1036-6b99-4d66-853c-ddea54e4d5b4","ios":"levelo://app?vid=ddea1036-6b99-4d66-853c-ddea54e4d5b4"},"vehicle_type_id":"4","last_reported":1747926635,"current_range_meters":0,"station_id":"ce4bhi12rcd13ifvqfo0","pricing_plan_id":"cebpf4jnsgd1na2vs0mg"},{"bike_id":"0bcb4903-3a6c-425f-9a42-6783ce97e8d3","system_id":"levelo_inurba_marseille","lat":43.24685,"lon":5.3816,"is_reserved":false,"is_disabled":true,"rental_uris":{"android":"levelo://app?vid=0bcb4903-3a6c-425f-9a42-6783ce97e8d3","ios":"levelo://app?vid=0bcb4903-3a6c-425f-9a42-6783ce97e8d3"},"vehicle_type_id":"4","last_reported":1747926635,"current_range_meters":0,"station_id":"ce4bhih2rcd13ifvqfr0","pricing_plan_id":"cebpf4jnsgd1na2vs0mg"},{"bike_id":"492b3e01-94b4-479c-9fcc-068974b23c2d","system_id":"levelo_inurba_marseille","lat":43.255775,"lon":5.38232,"is_reserved":false,"is_disabled":true,"rental_uris":{"android":"levelo://app?vid=492b3e01-94b4-479c-9fcc-068974b23c2d","ios":"levelo://app?vid=492b3e01-94b4-479c-9fcc-068974b23c2d"},"vehicle_type_id":"4","last_reported":1747926635,"current_range_meters":0,"station_id":"ce4bhih2rcd13ifvqfs0","pricing_plan_id":"cebpf4jnsgd1na2vs0mg"},{"bike_id":"20a476e6-0c93-4a9e-820d-51a73f4cd511","system_id":"levelo_inurba_marseille","lat":43.27841,"lon":5.39216,"is_reserved":false,"is_disabled":true,"rental_uris":{"android":"levelo://app?vid=20a476e6-0c93-4a9e-820d-51a73f4cd511","ios":"levelo://app?vid=20a476e6-0c93-4a9e-820d-51a73f4cd511"},"vehicle_type_id":"4","last_reported":1747926635,"current_range_meters":0,"station_id":"ce4bhjp2rcd13ifvqga0","pricing_plan_id":"cebpf4jnsgd1na2vs0mg"},{"bike_id":"1539c708-ed9b-4a02-811a-8a649ebdf968","system_id":"levelo_inurba_marseille","lat":43.30348,"lon":5.41894,"is_reserved":false,"is_disabled":true,"rental_uris":{"android":"levelo://app?vid=1539c708-ed9b-4a02-811a-8a649ebdf968","ios":"levelo://app?vid=1539c708-ed9b-4a02-811a-8a649ebdf968"},"vehicle_type_id":"4","last_reported":1747926635,"current_range_meters":0,"station_id":"ce4bhop2rcd13ifvqh7g","pricing_plan_id":"cebpf4jnsgd1na2vs0mg"},{"bike_id":"8ff33dc6-b71e-40dd-880f-b6f2135e538e","system_id":"levelo_inurba_marseille","lat":43.30419,"lon":5.41279,"is_reserved":false,"is_disabled":true,"rental_uris":{"android":"levelo://app?vid=8ff33dc6-b71e-40dd-880f-b6f2135e538e","ios":"levelo://app?vid=8ff33dc6-b71e-40dd-880f-b6f2135e538e"},"vehicle_type_id":"4","last_reported":1747926635,"current_range_meters":0,"station_id":"ce4bhop2rcd13ifvqh8g","pricing_plan_id":"cebpf4jnsgd1na2vs0mg"},{"bike_id":"e6443527-757d-4b43-946e-ae12740f228a","system_id":"levelo_inurba_marseille","lat":43.29901,"lon":5.436723,"is_reserved":false,"is_disabled":true,"rental_uris":{"android":"levelo://app?vid=e6443527-757d-4b43-946e-ae12740f228a","ios":"levelo://app?vid=e6443527-757d-4b43-946e-ae12740f228a"},"vehicle_type_id":"4","last_reported":1747926635,"current_range_meters":0,"station_id":"ce4bhpp2rcd13ifvqhfg","pricing_plan_id":"cebpf4jnsgd1na2vs0mg"},{"bike_id":"f0d30152-4837-4d0b-94b8-6030aa76fd65","system_id":"levelo_inurba_marseille","lat":43.230593,"lon":5.355008,"is_reserved":false,"is_disabled":true,"rental_uris":{"android":"levelo://app?vid=f0d30152-4837-4d0b-94b8-6030aa76fd65","ios":"levelo://app?vid=f0d30152-4837-4d0b-94b8-6030aa76fd65"},"vehicle_type_id":"4","last_reported":1747926635,"current_range_meters":0,"station_id":"cpo3342slgdg3j2ifvpg","pricing_plan_id":"cebpf4jnsgd1na2vs0mg"},{"bike_id":"4423a85b-d9bf-4bae-9b71-5e55af3ecc63","system_id":"levelo_inurba_marseille","lat":43.2418,"lon":5.36435,"is_reserved":false,"is_disabled":true,"rental_uris":{"android":"levelo://app?vid=4423a85b-d9bf-4bae-9b71-5e55af3ecc63","ios":"levelo://app?vid=4423a85b-d9bf-4bae-9b71-5e55af3ecc63"},"vehicle_type_id":"4","last_reported":1747926635,"current_range_meters":0,"station_id":"cpo36qri1sfpv3e86is0","pricing_plan_id":"cebpf4jnsgd1na2vs0mg"},{"bike_id":"5281ff50-15a3-4882-a775-51088d6a98cc","system_id":"levelo_inurba_marseille","lat":43.31219,"lon":5.37856,"is_reserved":false,"is_disabled":true,"rental_uris":{"android":"levelo://app?vid=5281ff50-15a3-4882-a775-51088d6a98cc","ios":"levelo://app?vid=5281ff50-15a3-4882-a775-51088d6a98cc"},"vehicle_type_id":"4","last_reported":1747926635,"current_range_meters":400,"station_id":"","pricing_plan_id":"cebpf4jnsgd1na2vs0mg"},{"bike_id":"15dcdbbd-a41e-43eb-9ed6-26ec15ce7a50","system_id":"levelo_inurba_marseille","lat":43.21408,"lon":5.34136,"is_reserved":false,"is_disabled":true,"rental_uris":{"android":"levelo://app?vid=15dcdbbd-a41e-43eb-9ed6-26ec15ce7a50","ios":"levelo://app?vid=15dcdbbd-a41e-43eb-9ed6-26ec15ce7a50"},"vehicle_type_id":"4","last_reported":1747926635,"current_range_meters":400,"station_id":"","pricing_plan_id":"cebpf4jnsgd1na2vs0mg"},{"bike_id":"edda304d-2390-4494-ae0e-945b66f9e0b2","system_id":"levelo_inurba_marseille","lat":43.30953,"lon":5.39038,"is_reserved":false,"is_disabled":true,"rental_uris":{"android":"levelo://app?vid=edda304d-2390-4494-ae0e-945b66f9e0b2","ios":"levelo://app?vid=edda304d-2390-4494-ae0e-945b66f9e0b2"},"vehicle_type_id":"4","last_reported":1747926635,"current_range_meters":400,"station_id":"ce4bgup2rcd13ifvqco0","pricing_plan_id":"cebpf4jnsgd1na2vs0mg"},{"bike_id":"07c74767-8722-4b4f-8503-cfd97fec0d51","system_id":"levelo_inurba_marseille","lat":43.24134,"lon":5.37697,"is_reserved":false,"is_disabled":true,"rental_uris":{"android":"levelo://app?vid=07c74767-8722-4b4f-8503-cfd97fec0d51","ios":"levelo://app?vid=07c74767-8722-4b4f-8503-cfd97fec0d51"},"vehicle_type_id":"4","last_reported":1747926635,"current_range_meters":800,"station_id":"","pricing_plan_id":"cebpf4jnsgd1na2vs0mg"},{"bike_id":"d8bc2224-be57-4968-9c83-9fa46f458984","system_id":"levelo_inurba_marseille","lat":43.28218,"lon":5.39043,"is_reserved":false,"is_disabled":true,"rental_uris":{"android":"levelo://app?vid=d8bc2224-be57-4968-9c83-9fa46f458984","ios":"levelo://app?vid=d8bc2224-be57-4968-9c83-9fa46f458984"},"vehicle_type_id":"4","last_reported":1747926635,"current_range_meters":800,"station_id":"","pricing_plan_id":"cebpf4jnsgd1na2vs0mg"},{"bike_id":"cea31c47-d23b-49bc-ade9-83e53feeaa6c","system_id":"levelo_inurba_marseille","lat":43.30204,"lon":5.395,"is_reserved":false,"is_disabled":true,"rental_uris":{"android":"levelo://app?vid=cea31c47-d23b-49bc-ade9-83e53feeaa6c","ios":"levelo://app?vid=cea31c47-d23b-49bc-ade9-83e53feeaa6c"},"vehicle_type_id":"4","last_reported":1747926635,"current_range_meters":800,"station_id":"ce4bh0p2rcd13ifvqd70","pricing_plan_id":"cebpf4jnsgd1na2vs0mg"},{"bike_id":"49351f7d-f679-4d36-93cf-5330114e1fd6","system_id":"levelo_inurba_marseille","lat":43.28733,"lon":5.37932,"is_reserved":false,"is_disabled":true,"rental_uris":{"android":"levelo://app?vid=49351f7d-f679-4d36-93cf-5330114e1fd6","ios":"levelo://app?vid=49351f7d-f679-4d36-93cf-5330114e1fd6"},"vehicle_type_id":"4","last_reported":1747926635,"current_range_meters":800,"station_id":"ce4bh9p2rcd13ifvqec0","pricing_plan_id":"cebpf4jnsgd1na2vs0mg"},{"bike_id":"9fafafc6-dcb5-465d-9875-05acc0376a01","system_id":"levelo_inurba_marseille","lat":43.28423,"lon":5.34978,"is_reserved":false,"is_disabled":true,"rental_uris":{"android":"levelo://app?vid=9fafafc6-dcb5-465d-9875-05acc0376a01","ios":"levelo://app?vid=9fafafc6-dcb5-465d-9875-05acc0376a01"},"vehicle_type_id":"4","last_reported":1747926635,"current_range_meters":800,"station_id":"ce4bhbh2rcd13ifvqepg","pricing_plan_id":"cebpf4jnsgd1na2vs0mg"},{"bike_id":"87b1b993-b0f1-4e6f-a022-ab7b7dfe9c1d","system_id":"levelo_inurba_marseille","lat":43.26556,"lon":5.37281,"is_reserved":false,"is_disabled":true,"rental_uris":{"android":"levelo://app?vid=87b1b993-b0f1-4e6f-a022-ab7b7dfe9c1d","ios":"levelo://app?vid=87b1b993-b0f1-4e6f-a022-ab7b7dfe9c1d"},"vehicle_type_id":"4","last_reported":1747926635,"current_range_meters":800,"station_id":"ce4bhg12rcd13ifvqf70","pricing_plan_id":"cebpf4jnsgd1na2vs0mg"},{"bike_id":"a539180e-6962-4342-86d9-a05a3be6bbdb","system_id":"levelo_inurba_marseille","lat":43.317041,"lon":5.423996,"is_reserved":false,"is_disabled":true,"rental_uris":{"android":"levelo://app?vid=a539180e-6962-4342-86d9-a05a3be6bbdb","ios":"levelo://app?vid=a539180e-6962-4342-86d9-a05a3be6bbdb"},"vehicle_type_id":"4","last_reported":1747926635,"current_range_meters":800,"station_id":"ce4bhp92rcd13ifvqhbg","pricing_plan_id":"cebpf4jnsgd1na2vs0mg"},{"bike_id":"addacb63-eaa1-4b88-b2d5-f495030c26ce","system_id":"levelo_inurba_marseille","lat":43.2317,"lon":5.43738,"is_reserved":false,"is_disabled":true,"rental_uris":{"android":"levelo://app?vid=addacb63-eaa1-4b88-b2d5-f495030c26ce","ios":"levelo://app?vid=addacb63-eaa1-4b88-b2d5-f495030c26ce"},"vehicle_type_id":"4","last_reported":1747926635,"current_range_meters":1200,"station_id":"ce4bhmp2rcd13ifvqgog","pricing_plan_id":"cebpf4jnsgd1na2vs0mg"},{"bike_id":"db518ad3-c649-4070-a3b5-af5575cbcb0e","system_id":"levelo_inurba_marseille","lat":43.30416,"lon":5.4126,"is_reserved":false,"is_disabled":true,"rental_uris":{"android":"levelo://app?vid=db518ad3-c649-4070-a3b5-af5575cbcb0e","ios":"levelo://app?vid=db518ad3-c649-4070-a3b5-af5575cbcb0e"},"vehicle_type_id":"4","last_reported":1747926635,"current_range_meters":1200,"station_id":"ce4bhop2rcd13ifvqh8g","pricing_plan_id":"cebpf4jnsgd1na2vs0mg"},{"bike_id":"4f6cb513-967e-4f04-bcf8-ff9b94285632","system_id":"levelo_inurba_marseille","lat":43.28735,"lon":5.361,"is_reserved":false,"is_disabled":true,"rental_uris":{"android":"levelo://app?vid=4f6cb513-967e-4f04-bcf8-ff9b94285632","ios":"levelo://app?vid=4f6cb513-967e-4f04-bcf8-ff9b94285632"},"vehicle_type_id":"4","last_reported":1747926635,"current_range_meters":1200,"station_id":"cki0cbj6b192h4jlfktg","pricing_plan_id":"cebpf4jnsgd1na2vs0mg"},{"bike_id":"c629e8bc-7830-458c-837a-d5fd5130f4b1","system_id":"levelo_inurba_marseille","lat":43.30652,"lon":5.40105,"is_reserved":false,"is_disabled":true,"rental_uris":{"android":"levelo://app?vid=c629e8bc-7830-458c-837a-d5fd5130f4b1","ios":"levelo://app?vid=c629e8bc-7830-458c-837a-d5fd5130f4b1"},"vehicle_type_id":"4","last_reported":1747926635,"current_range_meters":1600,"station_id":"ce4bh112rcd13ifvqda0","pricing_plan_id":"cebpf4jnsgd1na2vs0mg"},{"bike_id":"4fe04fe5-d22f-4013-a9e1-6ddf3e99aff6","system_id":"levelo_inurba_marseille","lat":43.24801,"lon":5.37476,"is_reserved":false,"is_disabled":true,"rental_uris":{"android":"levelo://app?vid=4fe04fe5-d22f-4013-a9e1-6ddf3e99aff6","ios":"levelo://app?vid=4fe04fe5-d22f-4013-a9e1-6ddf3e99aff6"},"vehicle_type_id":"4","last_reported":1747926635,"current_range_meters":1600,"station_id":"ce4bhgh2rcd13ifvqfb0","pricing_plan_id":"cebpf4jnsgd1na2vs0mg"},{"bike_id":"ca1ef42c-a88e-4a5c-bdc1-61570156b583","system_id":"levelo_inurba_marseille","lat":43.23173,"lon":5.43729,"is_reserved":false,"is_disabled":true,"rental_uris":{"android":"levelo://app?vid=ca1ef42c-a88e-4a5c-bdc1-61570156b583","ios":"levelo://app?vid=ca1ef42c-a88e-4a5c-bdc1-61570156b583"},"vehicle_type_id":"4","last_reported":1747926635,"current_range_meters":1600,"station_id":"ce4bhmp2rcd13ifvqgog","pricing_plan_id":"cebpf4jnsgd1na2vs0mg"},{"bike_id":"5a5a4185-e852-415a-961f-4e42e43a304e","system_id":"levelo_inurba_marseille","lat":43.29878,"lon":5.39731,"is_reserved":false,"is_disabled":true,"rental_uris":{"android":"levelo://app?vid=5a5a4185-e852-415a-961f-4e42e43a304e","ios":"levelo://app?vid=5a5a4185-e852-415a-961f-4e42e43a304e"},"vehicle_type_id":"4","last_reported":1747926635,"current_range_meters":2000,"station_id":"ce4bh0h2rcd13ifvqd50","pricing_plan_id":"cebpf4jnsgd1na2vs0mg"},{"bike_id":"7bf3196f-f0d8-47da-a407-f354396185ad","system_id":"levelo_inurba_marseille","lat":43.27434,"lon":5.39428,"is_reserved":false,"is_disabled":true,"rental_uris":{"android":"levelo://app?vid=7bf3196f-f0d8-47da-a407-f354396185ad","ios":"levelo://app?vid=7bf3196f-f0d8-47da-a407-f354396185ad"},"vehicle_type_id":"4","last_reported":1747926635,"current_range_meters":2000,"station_id":"ce4bhdp2rcd13ifvqf20","pricing_plan_id":"cebpf4jnsgd1na2vs0mg"},{"bike_id":"fde167e6-fe87-44b1-b3de-7fd70ea21f1f","system_id":"levelo_inurba_marseille","lat":43.30146,"lon":5.38051,"is_reserved":false,"is_disabled":false,"rental_uris":{"android":"levelo://app?vid=fde167e6-fe87-44b1-b3de-7fd70ea21f1f","ios":"levelo://app?vid=fde167e6-fe87-44b1-b3de-7fd70ea21f1f"},"vehicle_type_id":"4","last_reported":1747926635,"current_range_meters":2800,"station_id":"ce4bgjp2rcd13ifvqbh0","pricing_plan_id":"cebpf4jnsgd1na2vs0mg"},{"bike_id":"d9180345-c606-4400-b8ec-f5385573604a","system_id":"levelo_inurba_marseille","lat":43.25573,"lon":5.38233,"is_reserved":false,"is_disabled":false,"rental_uris":{"android":"levelo://app?vid=d9180345-c606-4400-b8ec-f5385573604a","ios":"levelo://app?vid=d9180345-c606-4400-b8ec-f5385573604a"},"vehicle_type_id":"4","last_reported":1747926635,"current_range_meters":2800,"station_id":"ce4bhih2rcd13ifvqfs0","pricing_plan_id":"cebpf4jnsgd1na2vs0mg"},{"bike_id":"b8b511c7-6f48-45be-97af-1e0036b54cc5","system_id":"levelo_inurba_marseille","lat":43.273813,"lon":5.424067,"is_reserved":false,"is_disabled":false,"rental_uris":{"android":"levelo://app?vid=b8b511c7-6f48-45be-97af-1e0036b54cc5","ios":"levelo://app?vid=b8b511c7-6f48-45be-97af-1e0036b54cc5"},"vehicle_type_id":"4","last_reported":1747926635,"current_range_meters":3200,"station_id":"","pricing_plan_id":"cebpf4jnsgd1na2vs0mg"},{"bike_id":"5c5aae79-1b9d-44da-a443-a651b4a76d05","system_id":"levelo_inurba_marseille","lat":43.3266,"lon":5.40996,"is_reserved":false,"is_disabled":false,"rental_uris":{"android":"levelo://app?vid=5c5aae79-1b9d-44da-a443-a651b4a76d05","ios":"levelo://app?vid=5c5aae79-1b9d-44da-a443-a651b4a76d05"},"vehicle_type_id":"4","last_reported":1747926635,"current_range_meters":3200,"station_id":"","pricing_plan_id":"cebpf4jnsgd1na2vs0mg"},{"bike_id":"e8162579-a5ad-485f-ad83-fec8a2ebe7e1","system_id":"levelo_inurba_marseille","lat":43.26826,"lon":5.39099,"is_reserved":false,"is_disabled":false,"rental_uris":{"android":"levelo://app?vid=e8162579-a5ad-485f-ad83-fec8a2ebe7e1","ios":"levelo://app?vid=e8162579-a5ad-485f-ad83-fec8a2ebe7e1"},"vehicle_type_id":"4","last_reported":1747926635,"current_range_meters":3600,"station_id":"","pricing_plan_id":"cebpf4jnsgd1na2vs0mg"},{"bike_id":"1ff4dd87-bf56-4ab1-8365-aad71fcb827c","system_id":"levelo_inurba_marseille","lat":43.32678,"lon":5.42543,"is_reserved":false,"is_disabled":false,"rental_uris":{"android":"levelo://app?vid=1ff4dd87-bf56-4ab1-8365-aad71fcb827c","ios":"levelo://app?vid=1ff4dd87-bf56-4ab1-8365-aad71fcb827c"},"vehicle_type_id":"4","last_reported":1747926635,"current_range_meters":3600,"station_id":"","pricing_plan_id":"cebpf4jnsgd1na2vs0mg"},{"bike_id":"29d91b96-6da9-4d31-8cd5-ba1ce23c10e6","system_id":"levelo_inurba_marseille","lat":43.291888,"lon":5.393377,"is_reserved":false,"is_disabled":false,"rental_uris":{"android":"levelo://app?vid=29d91b96-6da9-4d31-8cd5-ba1ce23c10e6","ios":"levelo://app?vid=29d91b96-6da9-4d31-8cd5-ba1ce23c10e6"},"vehicle_type_id":"4","last_reported":1747926635,"current_range_meters":3600,"station_id":"ce4bh192rcd13ifvqdd0","pricing_plan_id":"cebpf4jnsgd1na2vs0mg"},{"bike_id":"66292817-3af8-421e-a8ea-618ed143b495","system_id":"levelo_inurba_marseille","lat":43.26037,"lon":5.37554,"is_reserved":false,"is_disabled":false,"rental_uris":{"android":"levelo://app?vid=66292817-3af8-421e-a8ea-618ed143b495","ios":"levelo://app?vid=66292817-3af8-421e-a8ea-618ed143b495"},"vehicle_type_id":"4","last_reported":1747926635,"current_range_meters":3600,"station_id":"ce4bhgh2rcd13ifvqfa0","pricing_plan_id":"cebpf4jnsgd1na2vs0mg"},{"bike_id":"72d7f818-5214-4aae-a2bc-b504a55d4d16","system_id":"levelo_inurba_marseille","lat":43.31372,"lon":5.384937,"is_reserved":false,"is_disabled":false,"rental_uris":{"android":"levelo://app?vid=72d7f818-5214-4aae-a2bc-b504a55d4d16","ios":"levelo://app?vid=72d7f818-5214-4aae-a2bc-b504a55d4d16"},"vehicle_type_id":"4","last_reported":1747926635,"current_range_meters":4000,"station_id":"ce4bgt92rcd13ifvqcf0","pricing_plan_id":"cebpf4jnsgd1na2vs0mg"},{"bike_id":"31f15756-5d74-4f57-a355-42d45a080711","system_id":"levelo_inurba_marseille","lat":43.26679,"lon":5.38267,"is_reserved":false,"is_disabled":false,"rental_uris":{"android":"levelo://app?vid=31f15756-5d74-4f57-a355-42d45a080711","ios":"levelo://app?vid=31f15756-5d74-4f57-a355-42d45a080711"},"vehicle_type_id":"4","last_reported":1747926635,"current_range_meters":4000,"station_id":"ce4bhg92rcd13ifvqf90","pricing_plan_id":"cebpf4jnsgd1na2vs0mg"},{"bike_id":"99d6b5e2-e6e9-406a-a3b9-4e90ffd3b9c6","system_id":"levelo_inurba_marseille","lat":43.3054,"lon":5.38433,"is_reserved":false,"is_disabled":false,"rental_uris":{"android":"levelo://app?vid=99d6b5e2-e6e9-406a-a3b9-4e90ffd3b9c6","ios":"levelo://app?vid=99d6b5e2-e6e9-406a-a3b9-4e90ffd3b9c6"},"vehicle_type_id":"4","last_reported":1747926635,"current_range_meters":4400,"station_id":"ce4bgg92rcd13ifvqb30","pricing_plan_id":"cebpf4jnsgd1na2vs0mg"},{"bike_id":"edc10dd1-6729-473c-b9c9-05450c89cec1","system_id":"levelo_inurba_marseille","lat":43.30151,"lon":5.37424,"is_reserved":false,"is_disabled":false,"rental_uris":{"android":"levelo://app?vid=edc10dd1-6729-473c-b9c9-05450c89cec1","ios":"levelo://app?vid=edc10dd1-6729-473c-b9c9-05450c89cec1"},"vehicle_type_id":"4","last_reported":1747926635,"current_range_meters":4400,"station_id":"ce4bgs92rcd13ifvqcc0","pricing_plan_id":"cebpf4jnsgd1na2vs0mg"},{"bike_id":"d8fd7eac-9b33-4b2b-bcc4-2d624a1e9f62","system_id":"levelo_inurba_marseille","lat":43.29259,"lon":5.40913,"is_reserved":false,"is_disabled":false,"rental_uris":{"android":"levelo://app?vid=d8fd7eac-9b33-4b2b-bcc4-2d624a1e9f62","ios":"levelo://app?vid=d8fd7eac-9b33-4b2b-bcc4-2d624a1e9f62"},"vehicle_type_id":"4","last_reported":1747926635,"current_range_meters":4400,"station_id":"ce4bh192rcd13ifvqdc0","pricing_plan_id":"cebpf4jnsgd1na2vs0mg"},{"bike_id":"c209e27e-9ac1-4869-bc38-7899d9d5e153","system_id":"levelo_inurba_marseille","lat":43.29265,"lon":5.38443,"is_reserved":false,"is_disabled":false,"rental_uris":{"android":"levelo://app?vid=c209e27e-9ac1-4869-bc38-7899d9d5e153","ios":"levelo://app?vid=c209e27e-9ac1-4869-bc38-7899d9d5e153"},"vehicle_type_id":"4","last_reported":1747926635,"current_range_meters":4400,"station_id":"ce4bh692rcd13ifvqea0","pricing_plan_id":"cebpf4jnsgd1na2vs0mg"},{"bike_id":"4724448e-ff22-492a-ad57-05a55b2e23eb","system_id":"levelo_inurba_marseille","lat":43.32337,"lon":5.40621,"is_reserved":false,"is_disabled":false,"rental_uris":{"android":"levelo://app?vid=4724448e-ff22-492a-ad57-05a55b2e23eb","ios":"levelo://app?vid=4724448e-ff22-492a-ad57-05a55b2e23eb"},"vehicle_type_id":"4","last_reported":1747926635,"current_range_meters":4400,"station_id":"ce4bhq92rcd13ifvqhjg","pricing_plan_id":"cebpf4jnsgd1na2vs0mg"},{"bike_id":"cc449a85-d66e-4497-9eac-363f069f5b64","system_id":"levelo_inurba_marseille","lat":43.29578,"lon":5.367465,"is_reserved":false,"is_disabled":false,"rental_uris":{"android":"levelo://app?vid=cc449a85-d66e-4497-9eac-363f069f5b64","ios":"levelo://app?vid=cc449a85-d66e-4497-9eac-363f069f5b64"},"vehicle_type_id":"4","last_reported":1747926635,"current_range_meters":4800,"station_id":"ce4bgph2rcd13ifvqc2g","pricing_plan_id":"cebpf4jnsgd1na2vs0mg"},{"bike_id":"f976aca9-a7cd-4ffb-a522-4ebd4d86d8a5","system_id":"levelo_inurba_marseille","lat":43.27309,"lon":5.39076,"is_reserved":false,"is_disabled":false,"rental_uris":{"android":"levelo://app?vid=f976aca9-a7cd-4ffb-a522-4ebd4d86d8a5","ios":"levelo://app?vid=f976aca9-a7cd-4ffb-a522-4ebd4d86d8a5"},"vehicle_type_id":"4","last_reported":1747926635,"current_range_meters":5600,"station_id":"ce4bhgp2rcd13ifvqfe0","pricing_plan_id":"cebpf4jnsgd1na2vs0mg"},{"bike_id":"c172b8b2-6068-4ecd-9788-1fbcc3584e8e","system_id":"levelo_inurba_marseille","lat":43.28216,"lon":5.39055,"is_reserved":false,"is_disabled":false,"rental_uris":{"android":"levelo://app?vid=c172b8b2-6068-4ecd-9788-1fbcc3584e8e","ios":"levelo://app?vid=c172b8b2-6068-4ecd-9788-1fbcc3584e8e"},"vehicle_type_id":"4","last_reported":1747926635,"current_range_meters":6000,"station_id":"","pricing_plan_id":"cebpf4jnsgd1na2vs0mg"},{"bike_id":"df106770-a124-4ecf-95cd-288da587773b","system_id":"levelo_inurba_marseille","lat":43.28661,"lon":5.38302,"is_reserved":false,"is_disabled":false,"rental_uris":{"android":"levelo://app?vid=df106770-a124-4ecf-95cd-288da587773b","ios":"levelo://app?vid=df106770-a124-4ecf-95cd-288da587773b"},"vehicle_type_id":"4","last_reported":1747926635,"current_range_meters":6000,"station_id":"","pricing_plan_id":"cebpf4jnsgd1na2vs0mg"},{"bike_id":"957d6fad-1893-4e87-9644-7c6342300385","system_id":"levelo_inurba_marseille","lat":43.30888,"lon":5.39654,"is_reserved":false,"is_disabled":false,"rental_uris":{"android":"levelo://app?vid=957d6fad-1893-4e87-9644-7c6342300385","ios":"levelo://app?vid=957d6fad-1893-4e87-9644-7c6342300385"},"vehicle_type_id":"4","last_reported":1747926635,"current_range_meters":6000,"station_id":"ce4bh012rcd13ifvqcv0","pricing_plan_id":"cebpf4jnsgd1na2vs0mg"},{"bike_id":"6d6ce074-56c0-4c13-a2ea-a1a05449cdfd","system_id":"levelo_inurba_marseille","lat":43.2606,"lon":5.39398,"is_reserved":false,"is_disabled":false,"rental_uris":{"android":"levelo://app?vid=6d6ce074-56c0-4c13-a2ea-a1a05449cdfd","ios":"levelo://app?vid=6d6ce074-56c0-4c13-a2ea-a1a05449cdfd"},"vehicle_type_id":"4","last_reported":1747926635,"current_range_meters":6000,"station_id":"ce4bhh92rcd13ifvqfj0","pricing_plan_id":"cebpf4jnsgd1na2vs0mg"},{"bike_id":"a965f51f-aafb-4afe-bfe3-121b43346203","system_id":"levelo_inurba_marseille","lat":43.279985,"lon":5.400292,"is_reserved":false,"is_disabled":false,"rental_uris":{"android":"levelo://app?vid=a965f51f-aafb-4afe-bfe3-121b43346203","ios":"levelo://app?vid=a965f51f-aafb-4afe-bfe3-121b43346203"},"vehicle_type_id":"4","last_reported":1747926635,"current_range_meters":6000,"station_id":"ce4bho92rcd13ifvqh4g","pricing_plan_id":"cebpf4jnsgd1na2vs0mg"},{"bike_id":"a36558f2-d7e5-4ff2-9eff-4e802dc233b3","system_id":"levelo_inurba_marseille","lat":43.32002,"lon":5.38155,"is_reserved":false,"is_disabled":false,"rental_uris":{"android":"levelo://app?vid=a36558f2-d7e5-4ff2-9eff-4e802dc233b3","ios":"levelo://app?vid=a36558f2-d7e5-4ff2-9eff-4e802dc233b3"},"vehicle_type_id":"4","last_reported":1747926635,"current_range_meters":6000,"station_id":"ce4bhr12rcd13ifvqhpg","pricing_plan_id":"cebpf4jnsgd1na2vs0mg"},{"bike_id":"7ac99038-6586-4263-9d56-cebe528bf4dd","system_id":"levelo_inurba_marseille","lat":43.25015,"lon":5.38975,"is_reserved":false,"is_disabled":false,"rental_uris":{"android":"levelo://app?vid=7ac99038-6586-4263-9d56-cebe528bf4dd","ios":"levelo://app?vid=7ac99038-6586-4263-9d56-cebe528bf4dd"},"vehicle_type_id":"4","last_reported":1747926635,"current_range_meters":6400,"station_id":"","pricing_plan_id":"cebpf4jnsgd1na2vs0mg"},{"bike_id":"339762da-63b9-4da4-9ce8-412492c1c8b9","system_id":"levelo_inurba_marseille","lat":43.29289,"lon":5.37465,"is_reserved":false,"is_disabled":false,"rental_uris":{"android":"levelo://app?vid=339762da-63b9-4da4-9ce8-412492c1c8b9","ios":"levelo://app?vid=339762da-63b9-4da4-9ce8-412492c1c8b9"},"vehicle_type_id":"4","last_reported":1747926635,"current_range_meters":6400,"station_id":"ce4bgi12rcd13ifvqb70","pricing_plan_id":"cebpf4jnsgd1na2vs0mg"},{"bike_id":"797c807e-4643-4c97-91cf-152b5fb7a34b","system_id":"levelo_inurba_marseille","lat":43.29706,"lon":5.36621,"is_reserved":false,"is_disabled":false,"rental_uris":{"android":"levelo://app?vid=797c807e-4643-4c97-91cf-152b5fb7a34b","ios":"levelo://app?vid=797c807e-4643-4c97-91cf-152b5fb7a34b"},"vehicle_type_id":"4","last_reported":1747926635,"current_range_meters":6400,"station_id":"ce4bgn12rcd13ifvqbt0","pricing_plan_id":"cebpf4jnsgd1na2vs0mg"},{"bike_id":"50170c98-e5dc-4924-8469-67ad32c60315","system_id":"levelo_inurba_marseille","lat":43.27174,"lon":5.40991,"is_reserved":false,"is_disabled":false,"rental_uris":{"android":"levelo://app?vid=50170c98-e5dc-4924-8469-67ad32c60315","ios":"levelo://app?vid=50170c98-e5dc-4924-8469-67ad32c60315"},"vehicle_type_id":"4","last_reported":1747926635,"current_range_meters":6400,"station_id":"ce4bhl12rcd13ifvqgf0","pricing_plan_id":"cebpf4jnsgd1na2vs0mg"},{"bike_id":"31907cb9-b067-459a-920f-da7df97f835b","system_id":"levelo_inurba_marseille","lat":43.2512,"lon":5.40319,"is_reserved":false,"is_disabled":false,"rental_uris":{"android":"levelo://app?vid=31907cb9-b067-459a-920f-da7df97f835b","ios":"levelo://app?vid=31907cb9-b067-459a-920f-da7df97f835b"},"vehicle_type_id":"4","last_reported":1747926635,"current_range_meters":6400,"station_id":"ce4bhlh2rcd13ifvqgig","pricing_plan_id":"cebpf4jnsgd1na2vs0mg"},{"bike_id":"c59660a7-f300-4b9b-a58b-f2bc724bb7a8","system_id":"levelo_inurba_marseille","lat":43.32104,"lon":5.36766,"is_reserved":false,"is_disabled":false,"rental_uris":{"android":"levelo://app?vid=c59660a7-f300-4b9b-a58b-f2bc724bb7a8","ios":"levelo://app?vid=c59660a7-f300-4b9b-a58b-f2bc724bb7a8"},"vehicle_type_id":"4","last_reported":1747926635,"current_range_meters":6400,"station_id":"ce4bhrh2rcd13ifvqhug","pricing_plan_id":"cebpf4jnsgd1na2vs0mg"},{"bike_id":"6c3a39b4-a92f-4496-bb65-86f81060f517","system_id":"levelo_inurba_marseille","lat":43.31505,"lon":5.3704,"is_reserved":false,"is_disabled":false,"rental_uris":{"android":"levelo://app?vid=6c3a39b4-a92f-4496-bb65-86f81060f517","ios":"levelo://app?vid=6c3a39b4-a92f-4496-bb65-86f81060f517"},"vehicle_type_id":"4","last_reported":1747926635,"current_range_meters":6800,"station_id":"","pricing_plan_id":"cebpf4jnsgd1na2vs0mg"},{"bike_id":"325a04d7-0c6c-4a4d-804e-27b29ba6514b","system_id":"levelo_inurba_marseille","lat":43.23959,"lon":5.36639,"is_reserved":false,"is_disabled":false,"rental_uris":{"android":"levelo://app?vid=325a04d7-0c6c-4a4d-804e-27b29ba6514b","ios":"levelo://app?vid=325a04d7-0c6c-4a4d-804e-27b29ba6514b"},"vehicle_type_id":"4","last_reported":1747926635,"current_range_meters":6800,"station_id":"ce4bhi12rcd13ifvqfp0","pricing_plan_id":"cebpf4jnsgd1na2vs0mg"},{"bike_id":"b032db85-a602-42bb-bc9a-65b3dfd9e2fe","system_id":"levelo_inurba_marseille","lat":43.25585,"lon":5.38192,"is_reserved":false,"is_disabled":false,"rental_uris":{"android":"levelo://app?vid=b032db85-a602-42bb-bc9a-65b3dfd9e2fe","ios":"levelo://app?vid=b032db85-a602-42bb-bc9a-65b3dfd9e2fe"},"vehicle_type_id":"4","last_reported":1747926635,"current_range_meters":6800,"station_id":"ce4bhih2rcd13ifvqfs0","pricing_plan_id":"cebpf4jnsgd1na2vs0mg"},{"bike_id":"84de57e5-2da5-43ce-90cb-e2fec7be6e1c","system_id":"levelo_inurba_marseille","lat":43.27176,"lon":5.40992,"is_reserved":false,"is_disabled":false,"rental_uris":{"android":"levelo://app?vid=84de57e5-2da5-43ce-90cb-e2fec7be6e1c","ios":"levelo://app?vid=84de57e5-2da5-43ce-90cb-e2fec7be6e1c"},"vehicle_type_id":"4","last_reported":1747926635,"current_range_meters":6800,"station_id":"ce4bhl12rcd13ifvqgf0","pricing_plan_id":"cebpf4jnsgd1na2vs0mg"},{"bike_id":"9af9cc90-d190-4174-8e66-0e8ba880e252","system_id":"levelo_inurba_marseille","lat":43.29264,"lon":5.38429,"is_reserved":false,"is_disabled":false,"rental_uris":{"android":"levelo://app?vid=9af9cc90-d190-4174-8e66-0e8ba880e252","ios":"levelo://app?vid=9af9cc90-d190-4174-8e66-0e8ba880e252"},"vehicle_type_id":"4","last_reported":1747926635,"current_range_meters":7200,"station_id":"ce4bh692rcd13ifvqea0","pricing_plan_id":"cebpf4jnsgd1na2vs0mg"},{"bike_id":"b28a31f6-31d4-41b1-a55c-4e042a084c03","system_id":"levelo_inurba_marseille","lat":43.24392,"lon":5.37061,"is_reserved":false,"is_disabled":false,"rental_uris":{"android":"levelo://app?vid=b28a31f6-31d4-41b1-a55c-4e042a084c03","ios":"levelo://app?vid=b28a31f6-31d4-41b1-a55c-4e042a084c03"},"vehicle_type_id":"4","last_reported":1747926635,"current_range_meters":7200,"station_id":"ce4bhhh2rcd13ifvqfk0","pricing_plan_id":"cebpf4jnsgd1na2vs0mg"},{"bike_id":"1218ad4d-6ad6-4ccc-8443-b6a29a6b60a8","system_id":"levelo_inurba_marseille","lat":43.25114,"lon":5.40319,"is_reserved":false,"is_disabled":false,"rental_uris":{"android":"levelo://app?vid=1218ad4d-6ad6-4ccc-8443-b6a29a6b60a8","ios":"levelo://app?vid=1218ad4d-6ad6-4ccc-8443-b6a29a6b60a8"},"vehicle_type_id":"4","last_reported":1747926635,"current_range_meters":7200,"station_id":"ce4bhlh2rcd13ifvqgig","pricing_plan_id":"cebpf4jnsgd1na2vs0mg"},{"bike_id":"d01873a6-e43f-4341-b9d5-e038cf8f2807","system_id":"levelo_inurba_marseille","lat":43.25111,"lon":5.403217,"is_reserved":false,"is_disabled":false,"rental_uris":{"android":"levelo://app?vid=d01873a6-e43f-4341-b9d5-e038cf8f2807","ios":"levelo://app?vid=d01873a6-e43f-4341-b9d5-e038cf8f2807"},"vehicle_type_id":"4","last_reported":1747926635,"current_range_meters":7200,"station_id":"ce4bhlh2rcd13ifvqgig","pricing_plan_id":"cebpf4jnsgd1na2vs0mg"},{"bike_id":"eebfa399-9785-4fc2-b66a-eed62a9fa6a0","system_id":"levelo_inurba_marseille","lat":43.32344,"lon":5.40656,"is_reserved":false,"is_disabled":false,"rental_uris":{"android":"levelo://app?vid=eebfa399-9785-4fc2-b66a-eed62a9fa6a0","ios":"levelo://app?vid=eebfa399-9785-4fc2-b66a-eed62a9fa6a0"},"vehicle_type_id":"4","last_reported":1747926635,"current_range_meters":7200,"station_id":"ce4bhq92rcd13ifvqhjg","pricing_plan_id":"cebpf4jnsgd1na2vs0mg"},{"bike_id":"3fe3d6c4-138a-47df-b6b4-e6f19e8f7d46","system_id":"levelo_inurba_marseille","lat":43.21406,"lon":5.34177,"is_reserved":false,"is_disabled":false,"rental_uris":{"android":"levelo://app?vid=3fe3d6c4-138a-47df-b6b4-e6f19e8f7d46","ios":"levelo://app?vid=3fe3d6c4-138a-47df-b6b4-e6f19e8f7d46"},"vehicle_type_id":"4","last_reported":1747926635,"current_range_meters":8000,"station_id":"","pricing_plan_id":"cebpf4jnsgd1na2vs0mg"},{"bike_id":"6d4dad0f-e6e4-4d0a-9de7-0ee99ff019c8","system_id":"levelo_inurba_marseille","lat":43.28665,"lon":5.36355,"is_reserved":false,"is_disabled":false,"rental_uris":{"android":"levelo://app?vid=6d4dad0f-e6e4-4d0a-9de7-0ee99ff019c8","ios":"levelo://app?vid=6d4dad0f-e6e4-4d0a-9de7-0ee99ff019c8"},"vehicle_type_id":"4","last_reported":1747926635,"current_range_meters":8000,"station_id":"ce4bhah2rcd13ifvqej0","pricing_plan_id":"cebpf4jnsgd1na2vs0mg"},{"bike_id":"7b19ae3d-375f-484a-ac22-3d52f30e632f","system_id":"levelo_inurba_marseille","lat":43.23198,"lon":5.39986,"is_reserved":false,"is_disabled":false,"rental_uris":{"android":"levelo://app?vid=7b19ae3d-375f-484a-ac22-3d52f30e632f","ios":"levelo://app?vid=7b19ae3d-375f-484a-ac22-3d52f30e632f"},"vehicle_type_id":"4","last_reported":1747926635,"current_range_meters":8000,"station_id":"ce4bhn12rcd13ifvqgqg","pricing_plan_id":"cebpf4jnsgd1na2vs0mg"},{"bike_id":"2f34c329-54fe-438b-a307-b47c6ac8481c","system_id":"levelo_inurba_marseille","lat":43.29911,"lon":5.43684,"is_reserved":false,"is_disabled":false,"rental_uris":{"android":"levelo://app?vid=2f34c329-54fe-438b-a307-b47c6ac8481c","ios":"levelo://app?vid=2f34c329-54fe-438b-a307-b47c6ac8481c"},"vehicle_type_id":"4","last_reported":1747926635,"current_range_meters":8000,"station_id":"ce4bhpp2rcd13ifvqhfg","pricing_plan_id":"cebpf4jnsgd1na2vs0mg"},{"bike_id":"06650079-de14-4147-8d8e-91de761e22b5","system_id":"levelo_inurba_marseille","lat":43.31482,"lon":5.37301,"is_reserved":false,"is_disabled":false,"rental_uris":{"android":"levelo://app?vid=06650079-de14-4147-8d8e-91de761e22b5","ios":"levelo://app?vid=06650079-de14-4147-8d8e-91de761e22b5"},"vehicle_type_id":"4","last_reported":1747926635,"current_range_meters":8400,"station_id":"","pricing_plan_id":"cebpf4jnsgd1na2vs0mg"},{"bike_id":"ec9a52ce-df14-42cb-9f3b-81d649c29489","system_id":"levelo_inurba_marseille","lat":43.30151,"lon":5.3809,"is_reserved":false,"is_disabled":false,"rental_uris":{"android":"levelo://app?vid=ec9a52ce-df14-42cb-9f3b-81d649c29489","ios":"levelo://app?vid=ec9a52ce-df14-42cb-9f3b-81d649c29489"},"vehicle_type_id":"4","last_reported":1747926635,"current_range_meters":8400,"station_id":"ce4bgjp2rcd13ifvqbh0","pricing_plan_id":"cebpf4jnsgd1na2vs0mg"},{"bike_id":"57d98a57-5313-4024-acf7-06835a732c5e","system_id":"levelo_inurba_marseille","lat":43.29744,"lon":5.37697,"is_reserved":false,"is_disabled":false,"rental_uris":{"android":"levelo://app?vid=57d98a57-5313-4024-acf7-06835a732c5e","ios":"levelo://app?vid=57d98a57-5313-4024-acf7-06835a732c5e"},"vehicle_type_id":"4","last_reported":1747926635,"current_range_meters":8400,"station_id":"ce4bgkh2rcd13ifvqbl0","pricing_plan_id":"cebpf4jnsgd1na2vs0mg"},{"bike_id":"33b8ba2c-0253-4dd0-a6f3-87ae3d35d402","system_id":"levelo_inurba_marseille","lat":43.28036,"lon":5.36945,"is_reserved":false,"is_disabled":false,"rental_uris":{"android":"levelo://app?vid=33b8ba2c-0253-4dd0-a6f3-87ae3d35d402","ios":"levelo://app?vid=33b8ba2c-0253-4dd0-a6f3-87ae3d35d402"},"vehicle_type_id":"4","last_reported":1747926635,"current_range_meters":8400,"station_id":"ce4bha12rcd13ifvqef0","pricing_plan_id":"cebpf4jnsgd1na2vs0mg"},{"bike_id":"d858f44b-9c17-42bd-95f4-9a76461b956c","system_id":"levelo_inurba_marseille","lat":43.27179,"lon":5.40983,"is_reserved":false,"is_disabled":false,"rental_uris":{"android":"levelo://app?vid=d858f44b-9c17-42bd-95f4-9a76461b956c","ios":"levelo://app?vid=d858f44b-9c17-42bd-95f4-9a76461b956c"},"vehicle_type_id":"4","last_reported":1747926635,"current_range_meters":8400,"station_id":"ce4bhl12rcd13ifvqgf0","pricing_plan_id":"cebpf4jnsgd1na2vs0mg"},{"bike_id":"3944f00c-e9fc-4706-a38a-ade0f43ef779","system_id":"levelo_inurba_marseille","lat":43.25104,"lon":5.40325,"is_reserved":false,"is_disabled":false,"rental_uris":{"android":"levelo://app?vid=3944f00c-e9fc-4706-a38a-ade0f43ef779","ios":"levelo://app?vid=3944f00c-e9fc-4706-a38a-ade0f43ef779"},"vehicle_type_id":"4","last_reported":1747926635,"current_range_meters":8400,"station_id":"ce4bhlh2rcd13ifvqgig","pricing_plan_id":"cebpf4jnsgd1na2vs0mg"},{"bike_id":"9490cc49-fd64-4c51-b27a-562a53985dbd","system_id":"levelo_inurba_marseille","lat":43.27817,"lon":5.40682,"is_reserved":false,"is_disabled":false,"rental_uris":{"android":"levelo://app?vid=9490cc49-fd64-4c51-b27a-562a53985dbd","ios":"levelo://app?vid=9490cc49-fd64-4c51-b27a-562a53985dbd"},"vehicle_type_id":"4","last_reported":1747926635,"current_range_meters":8400,"station_id":"ce4bhnh2rcd13ifvqgtg","pricing_plan_id":"cebpf4jnsgd1na2vs0mg"},{"bike_id":"14feda73-7baf-4b64-8ae9-79f4fe7d4a5f","system_id":"levelo_inurba_marseille","lat":43.32401,"lon":5.36791,"is_reserved":false,"is_disabled":false,"rental_uris":{"android":"levelo://app?vid=14feda73-7baf-4b64-8ae9-79f4fe7d4a5f","ios":"levelo://app?vid=14feda73-7baf-4b64-8ae9-79f4fe7d4a5f"},"vehicle_type_id":"4","last_reported":1747926635,"current_range_meters":8400,"station_id":"ce4bhsh2rcd13ifvqi2g","pricing_plan_id":"cebpf4jnsgd1na2vs0mg"},{"bike_id":"4d220435-47a8-4d82-80db-a1284cf3e4c5","system_id":"levelo_inurba_marseille","lat":43.28665,"lon":5.38741,"is_reserved":false,"is_disabled":false,"rental_uris":{"android":"levelo://app?vid=4d220435-47a8-4d82-80db-a1284cf3e4c5","ios":"levelo://app?vid=4d220435-47a8-4d82-80db-a1284cf3e4c5"},"vehicle_type_id":"4","last_reported":1747926635,"current_range_meters":8800,"station_id":"","pricing_plan_id":"cebpf4jnsgd1na2vs0mg"},{"bike_id":"fe6f4934-e620-4bf9-90f5-ef9d0cbd82e9","system_id":"levelo_inurba_marseille","lat":43.29905,"lon":5.38157,"is_reserved":false,"is_disabled":false,"rental_uris":{"android":"levelo://app?vid=fe6f4934-e620-4bf9-90f5-ef9d0cbd82e9","ios":"levelo://app?vid=fe6f4934-e620-4bf9-90f5-ef9d0cbd82e9"},"vehicle_type_id":"4","last_reported":1747926635,"current_range_meters":8800,"station_id":"ce4bgj12rcd13ifvqbc0","pricing_plan_id":"cebpf4jnsgd1na2vs0mg"},{"bike_id":"b91980aa-60ff-467c-bd75-7d53cde9d475","system_id":"levelo_inurba_marseille","lat":43.25118,"lon":5.40377,"is_reserved":false,"is_disabled":false,"rental_uris":{"android":"levelo://app?vid=b91980aa-60ff-467c-bd75-7d53cde9d475","ios":"levelo://app?vid=b91980aa-60ff-467c-bd75-7d53cde9d475"},"vehicle_type_id":"4","last_reported":1747926635,"current_range_meters":8800,"station_id":"ce4bhlh2rcd13ifvqgig","pricing_plan_id":"cebpf4jnsgd1na2vs0mg"},{"bike_id":"5563212e-fea7-4ca3-b042-de56a8bc994b","system_id":"levelo_inurba_marseille","lat":43.25114,"lon":5.40324,"is_reserved":false,"is_disabled":false,"rental_uris":{"android":"levelo://app?vid=5563212e-fea7-4ca3-b042-de56a8bc994b","ios":"levelo://app?vid=5563212e-fea7-4ca3-b042-de56a8bc994b"},"vehicle_type_id":"4","last_reported":1747926635,"current_range_meters":8800,"station_id":"ce4bhlh2rcd13ifvqgig","pricing_plan_id":"cebpf4jnsgd1na2vs0mg"},{"bike_id":"5790750a-c8ef-43bf-82cb-93622b1b553a","system_id":"levelo_inurba_marseille","lat":43.26745,"lon":5.38943,"is_reserved":false,"is_disabled":false,"rental_uris":{"android":"levelo://app?vid=5790750a-c8ef-43bf-82cb-93622b1b553a","ios":"levelo://app?vid=5790750a-c8ef-43bf-82cb-93622b1b553a"},"vehicle_type_id":"4","last_reported":1747926635,"current_range_meters":9200,"station_id":"","pricing_plan_id":"cebpf4jnsgd1na2vs0mg"},{"bike_id":"f9fb40c0-1fcd-48cb-8e26-3f2dc0fb2451","system_id":"levelo_inurba_marseille","lat":43.33751,"lon":5.37509,"is_reserved":false,"is_disabled":false,"rental_uris":{"android":"levelo://app?vid=f9fb40c0-1fcd-48cb-8e26-3f2dc0fb2451","ios":"levelo://app?vid=f9fb40c0-1fcd-48cb-8e26-3f2dc0fb2451"},"vehicle_type_id":"4","last_reported":1747926635,"current_range_meters":9200,"station_id":"","pricing_plan_id":"cebpf4jnsgd1na2vs0mg"},{"bike_id":"e556f496-5a3c-4193-8a6e-47c89f34776d","system_id":"levelo_inurba_marseille","lat":43.28896,"lon":5.37863,"is_reserved":false,"is_disabled":false,"rental_uris":{"android":"levelo://app?vid=e556f496-5a3c-4193-8a6e-47c89f34776d","ios":"levelo://app?vid=e556f496-5a3c-4193-8a6e-47c89f34776d"},"vehicle_type_id":"4","last_reported":1747926635,"current_range_meters":9200,"station_id":"","pricing_plan_id":"cebpf4jnsgd1na2vs0mg"},{"bike_id":"3b163a9e-ecde-4d22-b81a-e3209853e546","system_id":"levelo_inurba_marseille","lat":43.30534,"lon":5.38434,"is_reserved":false,"is_disabled":false,"rental_uris":{"android":"levelo://app?vid=3b163a9e-ecde-4d22-b81a-e3209853e546","ios":"levelo://app?vid=3b163a9e-ecde-4d22-b81a-e3209853e546"},"vehicle_type_id":"4","last_reported":1747926635,"current_range_meters":9200,"station_id":"ce4bgg92rcd13ifvqb30","pricing_plan_id":"cebpf4jnsgd1na2vs0mg"},{"bike_id":"d80ef5cd-a9f0-4543-b61a-951c69d7f4d0","system_id":"levelo_inurba_marseille","lat":43.30322,"lon":5.40434,"is_reserved":false,"is_disabled":false,"rental_uris":{"android":"levelo://app?vid=d80ef5cd-a9f0-4543-b61a-951c69d7f4d0","ios":"levelo://app?vid=d80ef5cd-a9f0-4543-b61a-951c69d7f4d0"},"vehicle_type_id":"4","last_reported":1747926635,"current_range_meters":9200,"station_id":"ce4bh012rcd13ifvqd10","pricing_plan_id":"cebpf4jnsgd1na2vs0mg"},{"bike_id":"2f6d3903-6414-426a-bdc1-7b07009de06f","system_id":"levelo_inurba_marseille","lat":43.24986,"lon":5.38961,"is_reserved":false,"is_disabled":false,"rental_uris":{"android":"levelo://app?vid=2f6d3903-6414-426a-bdc1-7b07009de06f","ios":"levelo://app?vid=2f6d3903-6414-426a-bdc1-7b07009de06f"},"vehicle_type_id":"4","last_reported":1747926635,"current_range_meters":9200,"station_id":"ce4bhgp2rcd13ifvqfd0","pricing_plan_id":"cebpf4jnsgd1na2vs0mg"},{"bike_id":"40082cca-a7a2-4d69-9727-bd72824c6c32","system_id":"levelo_inurba_marseille","lat":43.27184,"lon":5.40981,"is_reserved":false,"is_disabled":false,"rental_uris":{"android":"levelo://app?vid=40082cca-a7a2-4d69-9727-bd72824c6c32","ios":"levelo://app?vid=40082cca-a7a2-4d69-9727-bd72824c6c32"},"vehicle_type_id":"4","last_reported":1747926635,"current_range_meters":9200,"station_id":"ce4bhl12rcd13ifvqgf0","pricing_plan_id":"cebpf4jnsgd1na2vs0mg"},{"bike_id":"6acbbaed-ee24-4cc1-ae38-beeafdb24db7","system_id":"levelo_inurba_marseille","lat":43.24083,"lon":5.37754,"is_reserved":false,"is_disabled":false,"rental_uris":{"android":"levelo://app?vid=6acbbaed-ee24-4cc1-ae38-beeafdb24db7","ios":"levelo://app?vid=6acbbaed-ee24-4cc1-ae38-beeafdb24db7"},"vehicle_type_id":"4","last_reported":1747926635,"current_range_meters":9200,"station_id":"ce4bhnp2rcd13ifvqgvg","pricing_plan_id":"cebpf4jnsgd1na2vs0mg"},{"bike_id":"05610750-aaa3-410e-b3d9-83e71f945db3","system_id":"levelo_inurba_marseille","lat":43.283447,"lon":5.388136,"is_reserved":false,"is_disabled":false,"rental_uris":{"android":"levelo://app?vid=05610750-aaa3-410e-b3d9-83e71f945db3","ios":"levelo://app?vid=05610750-aaa3-410e-b3d9-83e71f945db3"},"vehicle_type_id":"4","last_reported":1747926635,"current_range_meters":9200,"station_id":"ce4bho92rcd13ifvqh3g","pricing_plan_id":"cebpf4jnsgd1na2vs0mg"},{"bike_id":"27653dcd-dec9-4f13-b172-8968c20c1725","system_id":"levelo_inurba_marseille","lat":43.2387,"lon":5.43101,"is_reserved":false,"is_disabled":false,"rental_uris":{"android":"levelo://app?vid=27653dcd-dec9-4f13-b172-8968c20c1725","ios":"levelo://app?vid=27653dcd-dec9-4f13-b172-8968c20c1725"},"vehicle_type_id":"4","last_reported":1747926635,"current_range_meters":9600,"station_id":"","pricing_plan_id":"cebpf4jnsgd1na2vs0mg"},{"bike_id":"96f61ab4-a921-4bd1-bf0a-432d058ac1c0","system_id":"levelo_inurba_marseille","lat":43.3015,"lon":5.37435,"is_reserved":false,"is_disabled":false,"rental_uris":{"android":"levelo://app?vid=96f61ab4-a921-4bd1-bf0a-432d058ac1c0","ios":"levelo://app?vid=96f61ab4-a921-4bd1-bf0a-432d058ac1c0"},"vehicle_type_id":"4","last_reported":1747926635,"current_range_meters":9600,"station_id":"ce4bgs92rcd13ifvqcc0","pricing_plan_id":"cebpf4jnsgd1na2vs0mg"},{"bike_id":"53aedf84-ebce-44e8-b2f2-abe234b5b49c","system_id":"levelo_inurba_marseille","lat":43.31178,"lon":5.38719,"is_reserved":false,"is_disabled":false,"rental_uris":{"android":"levelo://app?vid=53aedf84-ebce-44e8-b2f2-abe234b5b49c","ios":"levelo://app?vid=53aedf84-ebce-44e8-b2f2-abe234b5b49c"},"vehicle_type_id":"4","last_reported":1747926635,"current_range_meters":9600,"station_id":"ce4bgv12rcd13ifvqcp0","pricing_plan_id":"cebpf4jnsgd1na2vs0mg"},{"bike_id":"f3bc3583-17ec-4374-abd3-28d4a25948ac","system_id":"levelo_inurba_marseille","lat":43.28919,"lon":5.38396,"is_reserved":false,"is_disabled":false,"rental_uris":{"android":"levelo://app?vid=f3bc3583-17ec-4374-abd3-28d4a25948ac","ios":"levelo://app?vid=f3bc3583-17ec-4374-abd3-28d4a25948ac"},"vehicle_type_id":"4","last_reported":1747926635,"current_range_meters":9600,"station_id":"ce4bh612rcd13ifvqe6g","pricing_plan_id":"cebpf4jnsgd1na2vs0mg"},{"bike_id":"405e5892-bb49-4417-a6c2-5d83434c0fad","system_id":"levelo_inurba_marseille","lat":43.24067,"lon":5.37766,"is_reserved":false,"is_disabled":false,"rental_uris":{"android":"levelo://app?vid=405e5892-bb49-4417-a6c2-5d83434c0fad","ios":"levelo://app?vid=405e5892-bb49-4417-a6c2-5d83434c0fad"},"vehicle_type_id":"4","last_reported":1747926635,"current_range_meters":9600,"station_id":"ce4bhnp2rcd13ifvqgvg","pricing_plan_id":"cebpf4jnsgd1na2vs0mg"},{"bike_id":"971c8a5c-db56-48ea-b476-188519cb0562","system_id":"levelo_inurba_marseille","lat":43.30074,"lon":5.40512,"is_reserved":false,"is_disabled":false,"rental_uris":{"android":"levelo://app?vid=971c8a5c-db56-48ea-b476-188519cb0562","ios":"levelo://app?vid=971c8a5c-db56-48ea-b476-188519cb0562"},"vehicle_type_id":"4","last_reported":1747926635,"current_range_meters":10000,"station_id":"","pricing_plan_id":"cebpf4jnsgd1na2vs0mg"},{"bike_id":"6a85369f-636f-4448-91f6-e3994a0fb52b","system_id":"levelo_inurba_marseille","lat":43.27793,"lon":5.38716,"is_reserved":false,"is_disabled":false,"rental_uris":{"android":"levelo://app?vid=6a85369f-636f-4448-91f6-e3994a0fb52b","ios":"levelo://app?vid=6a85369f-636f-4448-91f6-e3994a0fb52b"},"vehicle_type_id":"4","last_reported":1747926635,"current_range_meters":10000,"station_id":"","pricing_plan_id":"cebpf4jnsgd1na2vs0mg"},{"bike_id":"c87f2817-7f53-435a-9b2c-9985876a283f","system_id":"levelo_inurba_marseille","lat":43.29296,"lon":5.37445,"is_reserved":false,"is_disabled":false,"rental_uris":{"android":"levelo://app?vid=c87f2817-7f53-435a-9b2c-9985876a283f","ios":"levelo://app?vid=c87f2817-7f53-435a-9b2c-9985876a283f"},"vehicle_type_id":"4","last_reported":1747926635,"current_range_meters":10000,"station_id":"ce4bgi12rcd13ifvqb70","pricing_plan_id":"cebpf4jnsgd1na2vs0mg"},{"bike_id":"84064103-4f9e-4e9e-b5d1-ea32a92eb02e","system_id":"levelo_inurba_marseille","lat":43.26562,"lon":5.3729,"is_reserved":false,"is_disabled":false,"rental_uris":{"android":"levelo://app?vid=84064103-4f9e-4e9e-b5d1-ea32a92eb02e","ios":"levelo://app?vid=84064103-4f9e-4e9e-b5d1-ea32a92eb02e"},"vehicle_type_id":"4","last_reported":1747926635,"current_range_meters":10000,"station_id":"ce4bhg12rcd13ifvqf70","pricing_plan_id":"cebpf4jnsgd1na2vs0mg"},{"bike_id":"7dfdfdc8-9c79-46b6-9a4b-924773b53f29","system_id":"levelo_inurba_marseille","lat":43.26869,"lon":5.39158,"is_reserved":false,"is_disabled":false,"rental_uris":{"android":"levelo://app?vid=7dfdfdc8-9c79-46b6-9a4b-924773b53f29","ios":"levelo://app?vid=7dfdfdc8-9c79-46b6-9a4b-924773b53f29"},"vehicle_type_id":"4","last_reported":1747926635,"current_range_meters":10800,"station_id":"","pricing_plan_id":"cebpf4jnsgd1na2vs0mg"},{"bike_id":"ac8c7c81-6a0e-49a4-a65a-c88eba9d251a","system_id":"levelo_inurba_marseille","lat":43.2986,"lon":5.36318,"is_reserved":false,"is_disabled":false,"rental_uris":{"android":"levelo://app?vid=ac8c7c81-6a0e-49a4-a65a-c88eba9d251a","ios":"levelo://app?vid=ac8c7c81-6a0e-49a4-a65a-c88eba9d251a"},"vehicle_type_id":"4","last_reported":1747926635,"current_range_meters":10800,"station_id":"ce4bgpp2rcd13ifvqc3g","pricing_plan_id":"cebpf4jnsgd1na2vs0mg"},{"bike_id":"78737def-c64d-4e65-be94-60bc7a08af79","system_id":"levelo_inurba_marseille","lat":43.3081,"lon":5.38157,"is_reserved":false,"is_disabled":false,"rental_uris":{"android":"levelo://app?vid=78737def-c64d-4e65-be94-60bc7a08af79","ios":"levelo://app?vid=78737def-c64d-4e65-be94-60bc7a08af79"},"vehicle_type_id":"4","last_reported":1747926635,"current_range_meters":10800,"station_id":"ce4bgt12rcd13ifvqce0","pricing_plan_id":"cebpf4jnsgd1na2vs0mg"},{"bike_id":"0cd1e23d-35ab-4b98-9bec-13cada2e2ad7","system_id":"levelo_inurba_marseille","lat":43.307883,"lon":5.376473,"is_reserved":false,"is_disabled":false,"rental_uris":{"android":"levelo://app?vid=0cd1e23d-35ab-4b98-9bec-13cada2e2ad7","ios":"levelo://app?vid=0cd1e23d-35ab-4b98-9bec-13cada2e2ad7"},"vehicle_type_id":"4","last_reported":1747926635,"current_range_meters":10800,"station_id":"ce4bgv92rcd13ifvqcq0","pricing_plan_id":"cebpf4jnsgd1na2vs0mg"},{"bike_id":"7c5f4212-8137-40a2-b47d-e3f163a1290b","system_id":"levelo_inurba_marseille","lat":43.27174,"lon":5.40992,"is_reserved":false,"is_disabled":false,"rental_uris":{"android":"levelo://app?vid=7c5f4212-8137-40a2-b47d-e3f163a1290b","ios":"levelo://app?vid=7c5f4212-8137-40a2-b47d-e3f163a1290b"},"vehicle_type_id":"4","last_reported":1747926635,"current_range_meters":10800,"station_id":"ce4bhl12rcd13ifvqgf0","pricing_plan_id":"cebpf4jnsgd1na2vs0mg"},{"bike_id":"26bfef64-e90f-4d6a-9087-3f54be4a3422","system_id":"levelo_inurba_marseille","lat":43.241853,"lon":5.397315,"is_reserved":false,"is_disabled":false,"rental_uris":{"android":"levelo://app?vid=26bfef64-e90f-4d6a-9087-3f54be4a3422","ios":"levelo://app?vid=26bfef64-e90f-4d6a-9087-3f54be4a3422"},"vehicle_type_id":"4","last_reported":1747926635,"current_range_meters":10800,"station_id":"ce4bhn12rcd13ifvqgpg","pricing_plan_id":"cebpf4jnsgd1na2vs0mg"},{"bike_id":"b346db9a-8027-43c6-8021-eebe66bf245b","system_id":"levelo_inurba_marseille","lat":43.275,"lon":5.42446,"is_reserved":false,"is_disabled":false,"rental_uris":{"android":"levelo://app?vid=b346db9a-8027-43c6-8021-eebe66bf245b","ios":"levelo://app?vid=b346db9a-8027-43c6-8021-eebe66bf245b"},"vehicle_type_id":"4","last_reported":1747926635,"current_range_meters":10800,"station_id":"ce4bhn92rcd13ifvqgrg","pricing_plan_id":"cebpf4jnsgd1na2vs0mg"},{"bike_id":"13fdfe9f-3184-4d45-9e71-c598f8135175","system_id":"levelo_inurba_marseille","lat":43.29896,"lon":5.43672,"is_reserved":false,"is_disabled":false,"rental_uris":{"android":"levelo://app?vid=13fdfe9f-3184-4d45-9e71-c598f8135175","ios":"levelo://app?vid=13fdfe9f-3184-4d45-9e71-c598f8135175"},"vehicle_type_id":"4","last_reported":1747926635,"current_range_meters":10800,"station_id":"ce4bhpp2rcd13ifvqhfg","pricing_plan_id":"cebpf4jnsgd1na2vs0mg"},{"bike_id":"073e72cd-4403-4000-a74e-ca38c5b4d6da","system_id":"levelo_inurba_marseille","lat":43.32493,"lon":5.36572,"is_reserved":false,"is_disabled":false,"rental_uris":{"android":"levelo://app?vid=073e72cd-4403-4000-a74e-ca38c5b4d6da","ios":"levelo://app?vid=073e72cd-4403-4000-a74e-ca38c5b4d6da"},"vehicle_type_id":"4","last_reported":1747926635,"current_range_meters":10800,"station_id":"ce4bhs12rcd13ifvqhvg","pricing_plan_id":"cebpf4jnsgd1na2vs0mg"},{"bike_id":"8a9416d3-2a37-4312-9622-494ce1845d80","system_id":"levelo_inurba_marseille","lat":43.32366,"lon":5.3676,"is_reserved":false,"is_disabled":false,"rental_uris":{"android":"levelo://app?vid=8a9416d3-2a37-4312-9622-494ce1845d80","ios":"levelo://app?vid=8a9416d3-2a37-4312-9622-494ce1845d80"},"vehicle_type_id":"4","last_reported":1747926635,"current_range_meters":10800,"station_id":"ce4bhsh2rcd13ifvqi2g","pricing_plan_id":"cebpf4jnsgd1na2vs0mg"},{"bike_id":"2f55c777-cbc9-4506-ac49-3bc0669b4bcb","system_id":"levelo_inurba_marseille","lat":43.30735,"lon":5.42437,"is_reserved":false,"is_disabled":false,"rental_uris":{"android":"levelo://app?vid=2f55c777-cbc9-4506-ac49-3bc0669b4bcb","ios":"levelo://app?vid=2f55c777-cbc9-4506-ac49-3bc0669b4bcb"},"vehicle_type_id":"4","last_reported":1747926635,"current_range_meters":11200,"station_id":"st_cvj6ca6bvosntc0bfgr0","pricing_plan_id":"cebpf4jnsgd1na2vs0mg"},{"bike_id":"d22511e7-598b-4f16-9345-4dac9f006484","system_id":"levelo_inurba_marseille","lat":43.295333,"lon":5.38558,"is_reserved":false,"is_disabled":false,"rental_uris":{"android":"levelo://app?vid=d22511e7-598b-4f16-9345-4dac9f006484","ios":"levelo://app?vid=d22511e7-598b-4f16-9345-4dac9f006484"},"vehicle_type_id":"4","last_reported":1747926635,"current_range_meters":11600,"station_id":"ce4bgih2rcd13ifvqba0","pricing_plan_id":"cebpf4jnsgd1na2vs0mg"},{"bike_id":"932e2e3e-a3ba-4b6b-84e1-e74f28914530","system_id":"levelo_inurba_marseille","lat":43.29525,"lon":5.37498,"is_reserved":false,"is_disabled":false,"rental_uris":{"android":"levelo://app?vid=932e2e3e-a3ba-4b6b-84e1-e74f28914530","ios":"levelo://app?vid=932e2e3e-a3ba-4b6b-84e1-e74f28914530"},"vehicle_type_id":"4","last_reported":1747926635,"current_range_meters":11600,"station_id":"ce4bgkp2rcd13ifvqbmg","pricing_plan_id":"cebpf4jnsgd1na2vs0mg"},{"bike_id":"eb216437-d82c-4d12-8abc-2ddaab70ce51","system_id":"levelo_inurba_marseille","lat":43.30094,"lon":5.39085,"is_reserved":false,"is_disabled":false,"rental_uris":{"android":"levelo://app?vid=eb216437-d82c-4d12-8abc-2ddaab70ce51","ios":"levelo://app?vid=eb216437-d82c-4d12-8abc-2ddaab70ce51"},"vehicle_type_id":"4","last_reported":1747926635,"current_range_meters":11600,"station_id":"ce4bh192rcd13ifvqdb0","pricing_plan_id":"cebpf4jnsgd1na2vs0mg"},{"bike_id":"0c67c620-286c-4b9b-9926-6bb07a7a2f76","system_id":"levelo_inurba_marseille","lat":43.29258,"lon":5.40912,"is_reserved":false,"is_disabled":false,"rental_uris":{"android":"levelo://app?vid=0c67c620-286c-4b9b-9926-6bb07a7a2f76","ios":"levelo://app?vid=0c67c620-286c-4b9b-9926-6bb07a7a2f76"},"vehicle_type_id":"4","last_reported":1747926635,"current_range_meters":11600,"station_id":"ce4bh192rcd13ifvqdc0","pricing_plan_id":"cebpf4jnsgd1na2vs0mg"},{"bike_id":"c0148896-c86d-4062-b9f2-6362f09d9c7d","system_id":"levelo_inurba_marseille","lat":43.29004,"lon":5.35617,"is_reserved":false,"is_disabled":false,"rental_uris":{"android":"levelo://app?vid=c0148896-c86d-4062-b9f2-6362f09d9c7d","ios":"levelo://app?vid=c0148896-c86d-4062-b9f2-6362f09d9c7d"},"vehicle_type_id":"4","last_reported":1747926635,"current_range_meters":11600,"station_id":"ce4bhb92rcd13ifvqen0","pricing_plan_id":"cebpf4jnsgd1na2vs0mg"},{"bike_id":"de0fb914-815f-496e-b265-257c322a0437","system_id":"levelo_inurba_marseille","lat":43.26565,"lon":5.37325,"is_reserved":false,"is_disabled":false,"rental_uris":{"android":"levelo://app?vid=de0fb914-815f-496e-b265-257c322a0437","ios":"levelo://app?vid=de0fb914-815f-496e-b265-257c322a0437"},"vehicle_type_id":"4","last_reported":1747926635,"current_range_meters":11600,"station_id":"ce4bhg12rcd13ifvqf70","pricing_plan_id":"cebpf4jnsgd1na2vs0mg"},{"bike_id":"332574d3-de4c-4af7-9337-03ba18ed0438","system_id":"levelo_inurba_marseille","lat":43.26492,"lon":5.39556,"is_reserved":false,"is_disabled":false,"rental_uris":{"android":"levelo://app?vid=332574d3-de4c-4af7-9337-03ba18ed0438","ios":"levelo://app?vid=332574d3-de4c-4af7-9337-03ba18ed0438"},"vehicle_type_id":"4","last_reported":1747926635,"current_range_meters":11600,"station_id":"ce4bhi12rcd13ifvqfq0","pricing_plan_id":"cebpf4jnsgd1na2vs0mg"},{"bike_id":"97cefe16-8a9e-44aa-b4cb-d578d05e2968","system_id":"levelo_inurba_marseille","lat":43.26813,"lon":5.40263,"is_reserved":false,"is_disabled":false,"rental_uris":{"android":"levelo://app?vid=97cefe16-8a9e-44aa-b4cb-d578d05e2968","ios":"levelo://app?vid=97cefe16-8a9e-44aa-b4cb-d578d05e2968"},"vehicle_type_id":"4","last_reported":1747926635,"current_range_meters":11600,"station_id":"ce501612rcd8frsf0b60","pricing_plan_id":"cebpf4jnsgd1na2vs0mg"},{"bike_id":"70300a9a-ffa0-4301-ac47-f8e034b9fd69","system_id":"levelo_inurba_marseille","lat":43.3016,"lon":5.3806,"is_reserved":false,"is_disabled":false,"rental_uris":{"android":"levelo://app?vid=70300a9a-ffa0-4301-ac47-f8e034b9fd69","ios":"levelo://app?vid=70300a9a-ffa0-4301-ac47-f8e034b9fd69"},"vehicle_type_id":"4","last_reported":1747926635,"current_range_meters":12000,"station_id":"ce4bgjp2rcd13ifvqbh0","pricing_plan_id":"cebpf4jnsgd1na2vs0mg"},{"bike_id":"c27c7bc0-babc-498a-9ed6-77dbf352b20a","system_id":"levelo_inurba_marseille","lat":43.24391,"lon":5.37067,"is_reserved":false,"is_disabled":false,"rental_uris":{"android":"levelo://app?vid=c27c7bc0-babc-498a-9ed6-77dbf352b20a","ios":"levelo://app?vid=c27c7bc0-babc-498a-9ed6-77dbf352b20a"},"vehicle_type_id":"4","last_reported":1747926635,"current_range_meters":12000,"station_id":"ce4bhhh2rcd13ifvqfk0","pricing_plan_id":"cebpf4jnsgd1na2vs0mg"},{"bike_id":"8072a9c2-7d0e-42a4-862d-f1cb9bff6ca5","system_id":"levelo_inurba_marseille","lat":43.31529,"lon":5.38033,"is_reserved":false,"is_disabled":false,"rental_uris":{"android":"levelo://app?vid=8072a9c2-7d0e-42a4-862d-f1cb9bff6ca5","ios":"levelo://app?vid=8072a9c2-7d0e-42a4-862d-f1cb9bff6ca5"},"vehicle_type_id":"4","last_reported":1747926635,"current_range_meters":12000,"station_id":"ce4bhsp2rcd13ifvqi50","pricing_plan_id":"cebpf4jnsgd1na2vs0mg"},{"bike_id":"d8ef93ab-6594-4205-bec9-cbf07e2aa23e","system_id":"levelo_inurba_marseille","lat":43.24169,"lon":5.36436,"is_reserved":false,"is_disabled":false,"rental_uris":{"android":"levelo://app?vid=d8ef93ab-6594-4205-bec9-cbf07e2aa23e","ios":"levelo://app?vid=d8ef93ab-6594-4205-bec9-cbf07e2aa23e"},"vehicle_type_id":"4","last_reported":1747926635,"current_range_meters":12000,"station_id":"cpo36qri1sfpv3e86is0","pricing_plan_id":"cebpf4jnsgd1na2vs0mg"},{"bike_id":"005f73d7-eef9-4171-9c05-5855f079a097","system_id":"levelo_inurba_marseille","lat":43.33775,"lon":5.37432,"is_reserved":false,"is_disabled":false,"rental_uris":{"android":"levelo://app?vid=005f73d7-eef9-4171-9c05-5855f079a097","ios":"levelo://app?vid=005f73d7-eef9-4171-9c05-5855f079a097"},"vehicle_type_id":"4","last_reported":1747926635,"current_range_meters":12400,"station_id":"","pricing_plan_id":"cebpf4jnsgd1na2vs0mg"},{"bike_id":"fb6e3095-ecec-49bd-86fe-8525ad9eb8dc","system_id":"levelo_inurba_marseille","lat":43.29258,"lon":5.37622,"is_reserved":false,"is_disabled":false,"rental_uris":{"android":"levelo://app?vid=fb6e3095-ecec-49bd-86fe-8525ad9eb8dc","ios":"levelo://app?vid=fb6e3095-ecec-49bd-86fe-8525ad9eb8dc"},"vehicle_type_id":"4","last_reported":1747926635,"current_range_meters":12400,"station_id":"ce4bgi12rcd13ifvqb80","pricing_plan_id":"cebpf4jnsgd1na2vs0mg"},{"bike_id":"9f37996c-fba0-4ecf-9df1-f3a73e079ddb","system_id":"levelo_inurba_marseille","lat":43.29911,"lon":5.38116,"is_reserved":false,"is_disabled":false,"rental_uris":{"android":"levelo://app?vid=9f37996c-fba0-4ecf-9df1-f3a73e079ddb","ios":"levelo://app?vid=9f37996c-fba0-4ecf-9df1-f3a73e079ddb"},"vehicle_type_id":"4","last_reported":1747926635,"current_range_meters":12400,"station_id":"ce4bgj12rcd13ifvqbc0","pricing_plan_id":"cebpf4jnsgd1na2vs0mg"},{"bike_id":"f1e46e82-2ba4-401a-9dfc-780c928659f5","system_id":"levelo_inurba_marseille","lat":43.29438,"lon":5.39764,"is_reserved":false,"is_disabled":false,"rental_uris":{"android":"levelo://app?vid=f1e46e82-2ba4-401a-9dfc-780c928659f5","ios":"levelo://app?vid=f1e46e82-2ba4-401a-9dfc-780c928659f5"},"vehicle_type_id":"4","last_reported":1747926635,"current_range_meters":12400,"station_id":"ce4bh3h2rcd13ifvqdo0","pricing_plan_id":"cebpf4jnsgd1na2vs0mg"},{"bike_id":"f9223343-51dd-4eb0-a255-7d7bd8e5d0ef","system_id":"levelo_inurba_marseille","lat":43.31172,"lon":5.40172,"is_reserved":false,"is_disabled":false,"rental_uris":{"android":"levelo://app?vid=f9223343-51dd-4eb0-a255-7d7bd8e5d0ef","ios":"levelo://app?vid=f9223343-51dd-4eb0-a255-7d7bd8e5d0ef"},"vehicle_type_id":"4","last_reported":1747926635,"current_range_meters":12800,"station_id":"","pricing_plan_id":"cebpf4jnsgd1na2vs0mg"},{"bike_id":"21124f9d-1d20-4b3f-bd0c-8cf467fe8664","system_id":"levelo_inurba_marseille","lat":43.28037,"lon":5.36946,"is_reserved":false,"is_disabled":false,"rental_uris":{"android":"levelo://app?vid=21124f9d-1d20-4b3f-bd0c-8cf467fe8664","ios":"levelo://app?vid=21124f9d-1d20-4b3f-bd0c-8cf467fe8664"},"vehicle_type_id":"4","last_reported":1747926635,"current_range_meters":12800,"station_id":"ce4bha12rcd13ifvqef0","pricing_plan_id":"cebpf4jnsgd1na2vs0mg"},{"bike_id":"d95f6148-1152-4433-a54d-2a3b94789ab0","system_id":"levelo_inurba_marseille","lat":43.31998,"lon":5.38162,"is_reserved":false,"is_disabled":false,"rental_uris":{"android":"levelo://app?vid=d95f6148-1152-4433-a54d-2a3b94789ab0","ios":"levelo://app?vid=d95f6148-1152-4433-a54d-2a3b94789ab0"},"vehicle_type_id":"4","last_reported":1747926635,"current_range_meters":12800,"station_id":"ce4bhr12rcd13ifvqhpg","pricing_plan_id":"cebpf4jnsgd1na2vs0mg"},{"bike_id":"ecd3ea43-9361-4b4a-a5b5-a98611be74c7","system_id":"levelo_inurba_marseille","lat":43.29533,"lon":5.38549,"is_reserved":false,"is_disabled":false,"rental_uris":{"android":"levelo://app?vid=ecd3ea43-9361-4b4a-a5b5-a98611be74c7","ios":"levelo://app?vid=ecd3ea43-9361-4b4a-a5b5-a98611be74c7"},"vehicle_type_id":"4","last_reported":1747926635,"current_range_meters":13600,"station_id":"ce4bgih2rcd13ifvqba0","pricing_plan_id":"cebpf4jnsgd1na2vs0mg"},{"bike_id":"db8e7a86-3159-4708-8b56-5837e9fa33d8","system_id":"levelo_inurba_marseille","lat":43.29561,"lon":5.399905,"is_reserved":false,"is_disabled":false,"rental_uris":{"android":"levelo://app?vid=db8e7a86-3159-4708-8b56-5837e9fa33d8","ios":"levelo://app?vid=db8e7a86-3159-4708-8b56-5837e9fa33d8"},"vehicle_type_id":"4","last_reported":1747926635,"current_range_meters":13600,"station_id":"ce4bh312rcd13ifvqdj0","pricing_plan_id":"cebpf4jnsgd1na2vs0mg"},{"bike_id":"0fc04741-d3cf-40e2-81d4-c2e04ed1f10c","system_id":"levelo_inurba_marseille","lat":43.2582,"lon":5.39432,"is_reserved":false,"is_disabled":false,"rental_uris":{"android":"levelo://app?vid=0fc04741-d3cf-40e2-81d4-c2e04ed1f10c","ios":"levelo://app?vid=0fc04741-d3cf-40e2-81d4-c2e04ed1f10c"},"vehicle_type_id":"4","last_reported":1747926635,"current_range_meters":13600,"station_id":"ce4bhip2rcd13ifvqft0","pricing_plan_id":"cebpf4jnsgd1na2vs0mg"},{"bike_id":"36089fa2-1e09-4288-8592-617a81d30225","system_id":"levelo_inurba_marseille","lat":43.24078,"lon":5.37757,"is_reserved":false,"is_disabled":false,"rental_uris":{"android":"levelo://app?vid=36089fa2-1e09-4288-8592-617a81d30225","ios":"levelo://app?vid=36089fa2-1e09-4288-8592-617a81d30225"},"vehicle_type_id":"4","last_reported":1747926635,"current_range_meters":13600,"station_id":"ce4bhnp2rcd13ifvqgvg","pricing_plan_id":"cebpf4jnsgd1na2vs0mg"},{"bike_id":"6e5a4f4d-6bfc-4d28-ba3c-9f90010616c9","system_id":"levelo_inurba_marseille","lat":43.2893,"lon":5.3838,"is_reserved":false,"is_disabled":false,"rental_uris":{"android":"levelo://app?vid=6e5a4f4d-6bfc-4d28-ba3c-9f90010616c9","ios":"levelo://app?vid=6e5a4f4d-6bfc-4d28-ba3c-9f90010616c9"},"vehicle_type_id":"4","last_reported":1747926635,"current_range_meters":14000,"station_id":"ce4bh612rcd13ifvqe6g","pricing_plan_id":"cebpf4jnsgd1na2vs0mg"},{"bike_id":"7da06f34-e019-4b18-921d-8f77e54cc2f1","system_id":"levelo_inurba_marseille","lat":43.2491,"lon":5.39444,"is_reserved":false,"is_disabled":false,"rental_uris":{"android":"levelo://app?vid=7da06f34-e019-4b18-921d-8f77e54cc2f1","ios":"levelo://app?vid=7da06f34-e019-4b18-921d-8f77e54cc2f1"},"vehicle_type_id":"4","last_reported":1747926635,"current_range_meters":14400,"station_id":"","pricing_plan_id":"cebpf4jnsgd1na2vs0mg"},{"bike_id":"e77b9d43-a803-4f5c-912a-7a91f5e7da59","system_id":"levelo_inurba_marseille","lat":43.28414,"lon":5.34981,"is_reserved":false,"is_disabled":false,"rental_uris":{"android":"levelo://app?vid=e77b9d43-a803-4f5c-912a-7a91f5e7da59","ios":"levelo://app?vid=e77b9d43-a803-4f5c-912a-7a91f5e7da59"},"vehicle_type_id":"4","last_reported":1747926635,"current_range_meters":14400,"station_id":"ce4bhbh2rcd13ifvqepg","pricing_plan_id":"cebpf4jnsgd1na2vs0mg"},{"bike_id":"e3e19b90-9823-4b53-b8a7-4c599b3176c2","system_id":"levelo_inurba_marseille","lat":43.25112,"lon":5.403209,"is_reserved":false,"is_disabled":false,"rental_uris":{"android":"levelo://app?vid=e3e19b90-9823-4b53-b8a7-4c599b3176c2","ios":"levelo://app?vid=e3e19b90-9823-4b53-b8a7-4c599b3176c2"},"vehicle_type_id":"4","last_reported":1747926635,"current_range_meters":14400,"station_id":"ce4bhlh2rcd13ifvqgig","pricing_plan_id":"cebpf4jnsgd1na2vs0mg"},{"bike_id":"2117d719-86e8-4288-aab6-e676be1e6a6a","system_id":"levelo_inurba_marseille","lat":43.24085,"lon":5.3775,"is_reserved":false,"is_disabled":false,"rental_uris":{"android":"levelo://app?vid=2117d719-86e8-4288-aab6-e676be1e6a6a","ios":"levelo://app?vid=2117d719-86e8-4288-aab6-e676be1e6a6a"},"vehicle_type_id":"4","last_reported":1747926635,"current_range_meters":14400,"station_id":"ce4bhnp2rcd13ifvqgvg","pricing_plan_id":"cebpf4jnsgd1na2vs0mg"},{"bike_id":"84f00b51-2429-41be-8a43-83978d7764de","system_id":"levelo_inurba_marseille","lat":43.28,"lon":5.40027,"is_reserved":false,"is_disabled":false,"rental_uris":{"android":"levelo://app?vid=84f00b51-2429-41be-8a43-83978d7764de","ios":"levelo://app?vid=84f00b51-2429-41be-8a43-83978d7764de"},"vehicle_type_id":"4","last_reported":1747926635,"current_range_meters":14400,"station_id":"ce4bho92rcd13ifvqh4g","pricing_plan_id":"cebpf4jnsgd1na2vs0mg"},{"bike_id":"18922951-d38e-4180-ba66-a41240ad6fc3","system_id":"levelo_inurba_marseille","lat":43.29292,"lon":5.37448,"is_reserved":false,"is_disabled":false,"rental_uris":{"android":"levelo://app?vid=18922951-d38e-4180-ba66-a41240ad6fc3","ios":"levelo://app?vid=18922951-d38e-4180-ba66-a41240ad6fc3"},"vehicle_type_id":"4","last_reported":1747926635,"current_range_meters":14800,"station_id":"ce4bgi12rcd13ifvqb70","pricing_plan_id":"cebpf4jnsgd1na2vs0mg"},{"bike_id":"a4063c46-3866-442c-abbc-91a2ecf04bac","system_id":"levelo_inurba_marseille","lat":43.2742,"lon":5.39403,"is_reserved":false,"is_disabled":false,"rental_uris":{"android":"levelo://app?vid=a4063c46-3866-442c-abbc-91a2ecf04bac","ios":"levelo://app?vid=a4063c46-3866-442c-abbc-91a2ecf04bac"},"vehicle_type_id":"4","last_reported":1747926635,"current_range_meters":14800,"station_id":"ce4bhdp2rcd13ifvqf20","pricing_plan_id":"cebpf4jnsgd1na2vs0mg"},{"bike_id":"4d1dee15-b64d-4948-b76e-4235503234d9","system_id":"levelo_inurba_marseille","lat":43.270585,"lon":5.4026,"is_reserved":false,"is_disabled":false,"rental_uris":{"android":"levelo://app?vid=4d1dee15-b64d-4948-b76e-4235503234d9","ios":"levelo://app?vid=4d1dee15-b64d-4948-b76e-4235503234d9"},"vehicle_type_id":"4","last_reported":1747926635,"current_range_meters":14800,"station_id":"ce4bhk92rcd13ifvqgc0","pricing_plan_id":"cebpf4jnsgd1na2vs0mg"},{"bike_id":"a30e9205-cc02-4dfc-aaaa-7ec0a8cd3df5","system_id":"levelo_inurba_marseille","lat":43.32328,"lon":5.40626,"is_reserved":false,"is_disabled":false,"rental_uris":{"android":"levelo://app?vid=a30e9205-cc02-4dfc-aaaa-7ec0a8cd3df5","ios":"levelo://app?vid=a30e9205-cc02-4dfc-aaaa-7ec0a8cd3df5"},"vehicle_type_id":"4","last_reported":1747926635,"current_range_meters":14800,"station_id":"ce4bhq92rcd13ifvqhjg","pricing_plan_id":"cebpf4jnsgd1na2vs0mg"},{"bike_id":"72e79826-2622-4a99-987c-9d4529904630","system_id":"levelo_inurba_marseille","lat":43.28454,"lon":5.35884,"is_reserved":false,"is_disabled":false,"rental_uris":{"android":"levelo://app?vid=72e79826-2622-4a99-987c-9d4529904630","ios":"levelo://app?vid=72e79826-2622-4a99-987c-9d4529904630"},"vehicle_type_id":"4","last_reported":1747926635,"current_range_meters":15200,"station_id":"ce4bhah2rcd13ifvqei0","pricing_plan_id":"cebpf4jnsgd1na2vs0mg"},{"bike_id":"c48e871c-0285-48f4-a795-5ba447592dd5","system_id":"levelo_inurba_marseille","lat":43.27203,"lon":5.39175,"is_reserved":false,"is_disabled":false,"rental_uris":{"android":"levelo://app?vid=c48e871c-0285-48f4-a795-5ba447592dd5","ios":"levelo://app?vid=c48e871c-0285-48f4-a795-5ba447592dd5"},"vehicle_type_id":"4","last_reported":1747926635,"current_range_meters":15200,"station_id":"ce4bhhp2rcd13ifvqfm0","pricing_plan_id":"cebpf4jnsgd1na2vs0mg"},{"bike_id":"f4b4099d-e89f-46ce-8522-b2606512713d","system_id":"levelo_inurba_marseille","lat":43.26491,"lon":5.3955,"is_reserved":false,"is_disabled":false,"rental_uris":{"android":"levelo://app?vid=f4b4099d-e89f-46ce-8522-b2606512713d","ios":"levelo://app?vid=f4b4099d-e89f-46ce-8522-b2606512713d"},"vehicle_type_id":"4","last_reported":1747926635,"current_range_meters":15200,"station_id":"ce4bhi12rcd13ifvqfq0","pricing_plan_id":"cebpf4jnsgd1na2vs0mg"},{"bike_id":"64e8d141-7d8b-48cf-90b9-b154ac715691","system_id":"levelo_inurba_marseille","lat":43.29747,"lon":5.38079,"is_reserved":false,"is_disabled":false,"rental_uris":{"android":"levelo://app?vid=64e8d141-7d8b-48cf-90b9-b154ac715691","ios":"levelo://app?vid=64e8d141-7d8b-48cf-90b9-b154ac715691"},"vehicle_type_id":"4","last_reported":1747926635,"current_range_meters":16000,"station_id":"","pricing_plan_id":"cebpf4jnsgd1na2vs0mg"},{"bike_id":"41bef200-0210-46a9-afd1-c001d345c4b0","system_id":"levelo_inurba_marseille","lat":43.336542,"lon":5.378325,"is_reserved":false,"is_disabled":false,"rental_uris":{"android":"levelo://app?vid=41bef200-0210-46a9-afd1-c001d345c4b0","ios":"levelo://app?vid=41bef200-0210-46a9-afd1-c001d345c4b0"},"vehicle_type_id":"4","last_reported":1747926635,"current_range_meters":16000,"station_id":"","pricing_plan_id":"cebpf4jnsgd1na2vs0mg"},{"bike_id":"a03001da-8894-4565-b325-fad67363573b","system_id":"levelo_inurba_marseille","lat":43.29975,"lon":5.37175,"is_reserved":false,"is_disabled":false,"rental_uris":{"android":"levelo://app?vid=a03001da-8894-4565-b325-fad67363573b","ios":"levelo://app?vid=a03001da-8894-4565-b325-fad67363573b"},"vehicle_type_id":"4","last_reported":1747926635,"current_range_meters":16000,"station_id":"ce4bgr92rcd13ifvqc7g","pricing_plan_id":"cebpf4jnsgd1na2vs0mg"},{"bike_id":"fd02fd84-f605-4a38-83ea-b8a638957a2c","system_id":"levelo_inurba_marseille","lat":43.30892,"lon":5.39651,"is_reserved":false,"is_disabled":false,"rental_uris":{"android":"levelo://app?vid=fd02fd84-f605-4a38-83ea-b8a638957a2c","ios":"levelo://app?vid=fd02fd84-f605-4a38-83ea-b8a638957a2c"},"vehicle_type_id":"4","last_reported":1747926635,"current_range_meters":16000,"station_id":"ce4bh012rcd13ifvqcv0","pricing_plan_id":"cebpf4jnsgd1na2vs0mg"},{"bike_id":"7a5bbfb1-dafb-4777-8f4b-4b1e0e7c5d19","system_id":"levelo_inurba_marseille","lat":43.27378,"lon":5.36259,"is_reserved":false,"is_disabled":false,"rental_uris":{"android":"levelo://app?vid=7a5bbfb1-dafb-4777-8f4b-4b1e0e7c5d19","ios":"levelo://app?vid=7a5bbfb1-dafb-4777-8f4b-4b1e0e7c5d19"},"vehicle_type_id":"4","last_reported":1747926635,"current_range_meters":16000,"station_id":"ce4bhbh2rcd13ifvqeo0","pricing_plan_id":"cebpf4jnsgd1na2vs0mg"},{"bike_id":"605be4bf-deee-4b33-a4cb-0294e9797557","system_id":"levelo_inurba_marseille","lat":43.23062,"lon":5.35492,"is_reserved":false,"is_disabled":false,"rental_uris":{"android":"levelo://app?vid=605be4bf-deee-4b33-a4cb-0294e9797557","ios":"levelo://app?vid=605be4bf-deee-4b33-a4cb-0294e9797557"},"vehicle_type_id":"4","last_reported":1747926635,"current_range_meters":16000,"station_id":"cpo3342slgdg3j2ifvpg","pricing_plan_id":"cebpf4jnsgd1na2vs0mg"},{"bike_id":"817348e2-fb05-4de7-96f6-c8b207cb8ed8","system_id":"levelo_inurba_marseille","lat":43.21206,"lon":5.3508,"is_reserved":false,"is_disabled":false,"rental_uris":{"android":"levelo://app?vid=817348e2-fb05-4de7-96f6-c8b207cb8ed8","ios":"levelo://app?vid=817348e2-fb05-4de7-96f6-c8b207cb8ed8"},"vehicle_type_id":"4","last_reported":1747926635,"current_range_meters":16000,"station_id":"st_cvj6sg6p6f1abm77japg","pricing_plan_id":"cebpf4jnsgd1na2vs0mg"},{"bike_id":"11ab2703-cdd4-4079-8231-11aca04ccce2","system_id":"levelo_inurba_marseille","lat":43.29965,"lon":5.37182,"is_reserved":false,"is_disabled":false,"rental_uris":{"android":"levelo://app?vid=11ab2703-cdd4-4079-8231-11aca04ccce2","ios":"levelo://app?vid=11ab2703-cdd4-4079-8231-11aca04ccce2"},"vehicle_type_id":"4","last_reported":1747926635,"current_range_meters":16400,"station_id":"ce4bgr92rcd13ifvqc7g","pricing_plan_id":"cebpf4jnsgd1na2vs0mg"},{"bike_id":"206c5d44-e84b-4ee8-b2e7-68144b8b62ba","system_id":"levelo_inurba_marseille","lat":43.29533,"lon":5.39405,"is_reserved":false,"is_disabled":false,"rental_uris":{"android":"levelo://app?vid=206c5d44-e84b-4ee8-b2e7-68144b8b62ba","ios":"levelo://app?vid=206c5d44-e84b-4ee8-b2e7-68144b8b62ba"},"vehicle_type_id":"4","last_reported":1747926635,"current_range_meters":16400,"station_id":"ce4bh292rcd13ifvqdf0","pricing_plan_id":"cebpf4jnsgd1na2vs0mg"},{"bike_id":"252a65c7-01ab-4224-a7c1-d62197661f72","system_id":"levelo_inurba_marseille","lat":43.27372,"lon":5.36254,"is_reserved":false,"is_disabled":false,"rental_uris":{"android":"levelo://app?vid=252a65c7-01ab-4224-a7c1-d62197661f72","ios":"levelo://app?vid=252a65c7-01ab-4224-a7c1-d62197661f72"},"vehicle_type_id":"4","last_reported":1747926635,"current_range_meters":16400,"station_id":"ce4bhbh2rcd13ifvqeo0","pricing_plan_id":"cebpf4jnsgd1na2vs0mg"},{"bike_id":"bafa6d31-974a-466d-bafb-1113bbddbf4f","system_id":"levelo_inurba_marseille","lat":43.25108,"lon":5.40318,"is_reserved":false,"is_disabled":false,"rental_uris":{"android":"levelo://app?vid=bafa6d31-974a-466d-bafb-1113bbddbf4f","ios":"levelo://app?vid=bafa6d31-974a-466d-bafb-1113bbddbf4f"},"vehicle_type_id":"4","last_reported":1747926635,"current_range_meters":16400,"station_id":"ce4bhlh2rcd13ifvqgig","pricing_plan_id":"cebpf4jnsgd1na2vs0mg"},{"bike_id":"6dde22b3-be2c-4353-838d-05c85608e4d3","system_id":"levelo_inurba_marseille","lat":43.32375,"lon":5.36794,"is_reserved":false,"is_disabled":false,"rental_uris":{"android":"levelo://app?vid=6dde22b3-be2c-4353-838d-05c85608e4d3","ios":"levelo://app?vid=6dde22b3-be2c-4353-838d-05c85608e4d3"},"vehicle_type_id":"4","last_reported":1747926635,"current_range_meters":16400,"station_id":"ce4bhsh2rcd13ifvqi2g","pricing_plan_id":"cebpf4jnsgd1na2vs0mg"},{"bike_id":"1960b685-4a42-467a-9ed3-80e27346495b","system_id":"levelo_inurba_marseille","lat":43.23198,"lon":5.35554,"is_reserved":false,"is_disabled":false,"rental_uris":{"android":"levelo://app?vid=1960b685-4a42-467a-9ed3-80e27346495b","ios":"levelo://app?vid=1960b685-4a42-467a-9ed3-80e27346495b"},"vehicle_type_id":"4","last_reported":1747926635,"current_range_meters":16400,"station_id":"ce4bhu92rcd13ifvqi70","pricing_plan_id":"cebpf4jnsgd1na2vs0mg"},{"bike_id":"c0a363d1-3bb5-4d7a-a4e8-50a1272c1a00","system_id":"levelo_inurba_marseille","lat":43.23196,"lon":5.35543,"is_reserved":false,"is_disabled":false,"rental_uris":{"android":"levelo://app?vid=c0a363d1-3bb5-4d7a-a4e8-50a1272c1a00","ios":"levelo://app?vid=c0a363d1-3bb5-4d7a-a4e8-50a1272c1a00"},"vehicle_type_id":"4","last_reported":1747926635,"current_range_meters":16400,"station_id":"ce4bhu92rcd13ifvqi70","pricing_plan_id":"cebpf4jnsgd1na2vs0mg"},{"bike_id":"37844bcf-e6b5-4f86-9cc0-88711b06431d","system_id":"levelo_inurba_marseille","lat":43.30278,"lon":5.37305,"is_reserved":false,"is_disabled":false,"rental_uris":{"android":"levelo://app?vid=37844bcf-e6b5-4f86-9cc0-88711b06431d","ios":"levelo://app?vid=37844bcf-e6b5-4f86-9cc0-88711b06431d"},"vehicle_type_id":"4","last_reported":1747926635,"current_range_meters":16800,"station_id":"","pricing_plan_id":"cebpf4jnsgd1na2vs0mg"},{"bike_id":"e015743e-cdd5-445a-b0e7-b5e96aa2b287","system_id":"levelo_inurba_marseille","lat":43.27632,"lon":5.36117,"is_reserved":false,"is_disabled":false,"rental_uris":{"android":"levelo://app?vid=e015743e-cdd5-445a-b0e7-b5e96aa2b287","ios":"levelo://app?vid=e015743e-cdd5-445a-b0e7-b5e96aa2b287"},"vehicle_type_id":"4","last_reported":1747926635,"current_range_meters":16800,"station_id":"ce4bgj92rcd13ifvqbe0","pricing_plan_id":"cebpf4jnsgd1na2vs0mg"},{"bike_id":"98de259a-f5d5-4b48-b33b-ac165cc35cfc","system_id":"levelo_inurba_marseille","lat":43.30603,"lon":5.37226,"is_reserved":false,"is_disabled":false,"rental_uris":{"android":"levelo://app?vid=98de259a-f5d5-4b48-b33b-ac165cc35cfc","ios":"levelo://app?vid=98de259a-f5d5-4b48-b33b-ac165cc35cfc"},"vehicle_type_id":"4","last_reported":1747926635,"current_range_meters":16800,"station_id":"ce4bgqh2rcd13ifvqc4g","pricing_plan_id":"cebpf4jnsgd1na2vs0mg"},{"bike_id":"6b5259c2-a375-4f50-bc88-9993a6d6bf2f","system_id":"levelo_inurba_marseille","lat":43.3054,"lon":5.36544,"is_reserved":false,"is_disabled":false,"rental_uris":{"android":"levelo://app?vid=6b5259c2-a375-4f50-bc88-9993a6d6bf2f","ios":"levelo://app?vid=6b5259c2-a375-4f50-bc88-9993a6d6bf2f"},"vehicle_type_id":"4","last_reported":1747926635,"current_range_meters":16800,"station_id":"ce4bgs12rcd13ifvqcag","pricing_plan_id":"cebpf4jnsgd1na2vs0mg"},{"bike_id":"98516618-1ccc-4940-b260-a655b0f32be6","system_id":"levelo_inurba_marseille","lat":43.23958,"lon":5.36638,"is_reserved":false,"is_disabled":false,"rental_uris":{"android":"levelo://app?vid=98516618-1ccc-4940-b260-a655b0f32be6","ios":"levelo://app?vid=98516618-1ccc-4940-b260-a655b0f32be6"},"vehicle_type_id":"4","last_reported":1747926635,"current_range_meters":16800,"station_id":"ce4bhi12rcd13ifvqfp0","pricing_plan_id":"cebpf4jnsgd1na2vs0mg"},{"bike_id":"7a174cf0-49bb-442b-9787-ed977ba34ca4","system_id":"levelo_inurba_marseille","lat":43.241833,"lon":5.39744,"is_reserved":false,"is_disabled":false,"rental_uris":{"android":"levelo://app?vid=7a174cf0-49bb-442b-9787-ed977ba34ca4","ios":"levelo://app?vid=7a174cf0-49bb-442b-9787-ed977ba34ca4"},"vehicle_type_id":"4","last_reported":1747926635,"current_range_meters":16800,"station_id":"ce4bhn12rcd13ifvqgpg","pricing_plan_id":"cebpf4jnsgd1na2vs0mg"},{"bike_id":"1a340bac-8012-4c7c-b50a-247d19f083a9","system_id":"levelo_inurba_marseille","lat":43.22516,"lon":5.34788,"is_reserved":false,"is_disabled":false,"rental_uris":{"android":"levelo://app?vid=1a340bac-8012-4c7c-b50a-247d19f083a9","ios":"levelo://app?vid=1a340bac-8012-4c7c-b50a-247d19f083a9"},"vehicle_type_id":"4","last_reported":1747926635,"current_range_meters":16800,"station_id":"st_cvj5dfep6f1abm77gieg","pricing_plan_id":"cebpf4jnsgd1na2vs0mg"},{"bike_id":"769db34b-ce0c-4954-9bf7-3dde7255f501","system_id":"levelo_inurba_marseille","lat":43.29598,"lon":5.38097,"is_reserved":false,"is_disabled":false,"rental_uris":{"android":"levelo://app?vid=769db34b-ce0c-4954-9bf7-3dde7255f501","ios":"levelo://app?vid=769db34b-ce0c-4954-9bf7-3dde7255f501"},"vehicle_type_id":"4","last_reported":1747926635,"current_range_meters":17200,"station_id":"ce4bgl12rcd13ifvqbo0","pricing_plan_id":"cebpf4jnsgd1na2vs0mg"},{"bike_id":"65492fdf-0143-41a3-bd90-553209103edf","system_id":"levelo_inurba_marseille","lat":43.31079,"lon":5.38354,"is_reserved":false,"is_disabled":false,"rental_uris":{"android":"levelo://app?vid=65492fdf-0143-41a3-bd90-553209103edf","ios":"levelo://app?vid=65492fdf-0143-41a3-bd90-553209103edf"},"vehicle_type_id":"4","last_reported":1747926635,"current_range_meters":17200,"station_id":"ce4bgv92rcd13ifvqcr0","pricing_plan_id":"cebpf4jnsgd1na2vs0mg"},{"bike_id":"5466a1e3-bbe7-4afc-83f5-05d8498d69be","system_id":"levelo_inurba_marseille","lat":43.29007,"lon":5.35607,"is_reserved":false,"is_disabled":false,"rental_uris":{"android":"levelo://app?vid=5466a1e3-bbe7-4afc-83f5-05d8498d69be","ios":"levelo://app?vid=5466a1e3-bbe7-4afc-83f5-05d8498d69be"},"vehicle_type_id":"4","last_reported":1747926635,"current_range_meters":17200,"station_id":"ce4bhb92rcd13ifvqen0","pricing_plan_id":"cebpf4jnsgd1na2vs0mg"},{"bike_id":"876e5d3a-f66b-47f1-ba27-739d627d9d9d","system_id":"levelo_inurba_marseille","lat":43.27375,"lon":5.36251,"is_reserved":false,"is_disabled":false,"rental_uris":{"android":"levelo://app?vid=876e5d3a-f66b-47f1-ba27-739d627d9d9d","ios":"levelo://app?vid=876e5d3a-f66b-47f1-ba27-739d627d9d9d"},"vehicle_type_id":"4","last_reported":1747926635,"current_range_meters":17200,"station_id":"ce4bhbh2rcd13ifvqeo0","pricing_plan_id":"cebpf4jnsgd1na2vs0mg"},{"bike_id":"59aa252f-9923-4da6-b784-702eb21726fb","system_id":"levelo_inurba_marseille","lat":43.25114,"lon":5.40339,"is_reserved":false,"is_disabled":false,"rental_uris":{"android":"levelo://app?vid=59aa252f-9923-4da6-b784-702eb21726fb","ios":"levelo://app?vid=59aa252f-9923-4da6-b784-702eb21726fb"},"vehicle_type_id":"4","last_reported":1747926635,"current_range_meters":17200,"station_id":"ce4bhlh2rcd13ifvqgig","pricing_plan_id":"cebpf4jnsgd1na2vs0mg"},{"bike_id":"1e164eaf-2ffb-4814-9442-b43f6b5c9f80","system_id":"levelo_inurba_marseille","lat":43.24168,"lon":5.36418,"is_reserved":false,"is_disabled":false,"rental_uris":{"android":"levelo://app?vid=1e164eaf-2ffb-4814-9442-b43f6b5c9f80","ios":"levelo://app?vid=1e164eaf-2ffb-4814-9442-b43f6b5c9f80"},"vehicle_type_id":"4","last_reported":1747926635,"current_range_meters":17200,"station_id":"cpo36qri1sfpv3e86is0","pricing_plan_id":"cebpf4jnsgd1na2vs0mg"},{"bike_id":"beb93ece-8a2b-401d-b7e3-ad77b01ce941","system_id":"levelo_inurba_marseille","lat":43.217565,"lon":5.345971,"is_reserved":false,"is_disabled":false,"rental_uris":{"android":"levelo://app?vid=beb93ece-8a2b-401d-b7e3-ad77b01ce941","ios":"levelo://app?vid=beb93ece-8a2b-401d-b7e3-ad77b01ce941"},"vehicle_type_id":"4","last_reported":1747926635,"current_range_meters":17200,"station_id":"st_cvj6r9ubvosntc0bgbag","pricing_plan_id":"cebpf4jnsgd1na2vs0mg"},{"bike_id":"0e27a530-5aca-4bdb-bcfe-2711f03311f8","system_id":"levelo_inurba_marseille","lat":43.21732,"lon":5.34641,"is_reserved":false,"is_disabled":false,"rental_uris":{"android":"levelo://app?vid=0e27a530-5aca-4bdb-bcfe-2711f03311f8","ios":"levelo://app?vid=0e27a530-5aca-4bdb-bcfe-2711f03311f8"},"vehicle_type_id":"4","last_reported":1747926635,"current_range_meters":17200,"station_id":"st_cvj6r9ubvosntc0bgbag","pricing_plan_id":"cebpf4jnsgd1na2vs0mg"},{"bike_id":"2dff1620-2dff-47e5-9217-76664f58d5c9","system_id":"levelo_inurba_marseille","lat":43.29849,"lon":5.36288,"is_reserved":false,"is_disabled":false,"rental_uris":{"android":"levelo://app?vid=2dff1620-2dff-47e5-9217-76664f58d5c9","ios":"levelo://app?vid=2dff1620-2dff-47e5-9217-76664f58d5c9"},"vehicle_type_id":"4","last_reported":1747926635,"current_range_meters":17600,"station_id":"ce4bgpp2rcd13ifvqc3g","pricing_plan_id":"cebpf4jnsgd1na2vs0mg"},{"bike_id":"fe2366fd-02d8-4043-a614-e27d5b263337","system_id":"levelo_inurba_marseille","lat":43.30597,"lon":5.3723,"is_reserved":false,"is_disabled":false,"rental_uris":{"android":"levelo://app?vid=fe2366fd-02d8-4043-a614-e27d5b263337","ios":"levelo://app?vid=fe2366fd-02d8-4043-a614-e27d5b263337"},"vehicle_type_id":"4","last_reported":1747926635,"current_range_meters":17600,"station_id":"ce4bgqh2rcd13ifvqc4g","pricing_plan_id":"cebpf4jnsgd1na2vs0mg"},{"bike_id":"fe02095b-854a-4f0a-b8a3-f0a6f3d3b2d8","system_id":"levelo_inurba_marseille","lat":43.28032,"lon":5.36941,"is_reserved":false,"is_disabled":false,"rental_uris":{"android":"levelo://app?vid=fe02095b-854a-4f0a-b8a3-f0a6f3d3b2d8","ios":"levelo://app?vid=fe02095b-854a-4f0a-b8a3-f0a6f3d3b2d8"},"vehicle_type_id":"4","last_reported":1747926635,"current_range_meters":17600,"station_id":"ce4bha12rcd13ifvqef0","pricing_plan_id":"cebpf4jnsgd1na2vs0mg"},{"bike_id":"3c91cc13-6b67-48b0-a53a-9a80b8bdeda0","system_id":"levelo_inurba_marseille","lat":43.29041,"lon":5.37571,"is_reserved":false,"is_disabled":false,"rental_uris":{"android":"levelo://app?vid=3c91cc13-6b67-48b0-a53a-9a80b8bdeda0","ios":"levelo://app?vid=3c91cc13-6b67-48b0-a53a-9a80b8bdeda0"},"vehicle_type_id":"4","last_reported":1747926635,"current_range_meters":18000,"station_id":"ce4bh692rcd13ifvqe90","pricing_plan_id":"cebpf4jnsgd1na2vs0mg"},{"bike_id":"e2fb855a-6930-43c2-9392-96ef711af040","system_id":"levelo_inurba_marseille","lat":43.23964,"lon":5.36641,"is_reserved":false,"is_disabled":false,"rental_uris":{"android":"levelo://app?vid=e2fb855a-6930-43c2-9392-96ef711af040","ios":"levelo://app?vid=e2fb855a-6930-43c2-9392-96ef711af040"},"vehicle_type_id":"4","last_reported":1747926635,"current_range_meters":18000,"station_id":"ce4bhi12rcd13ifvqfp0","pricing_plan_id":"cebpf4jnsgd1na2vs0mg"},{"bike_id":"03c27706-dafc-4e44-b173-3742dda15e11","system_id":"levelo_inurba_marseille","lat":43.23213,"lon":5.35532,"is_reserved":false,"is_disabled":false,"rental_uris":{"android":"levelo://app?vid=03c27706-dafc-4e44-b173-3742dda15e11","ios":"levelo://app?vid=03c27706-dafc-4e44-b173-3742dda15e11"},"vehicle_type_id":"4","last_reported":1747926635,"current_range_meters":18000,"station_id":"ce4bhu92rcd13ifvqi70","pricing_plan_id":"cebpf4jnsgd1na2vs0mg"},{"bike_id":"c6bf2e46-fb2f-4485-b1e5-f93500b0678b","system_id":"levelo_inurba_marseille","lat":43.23046,"lon":5.35482,"is_reserved":false,"is_disabled":false,"rental_uris":{"android":"levelo://app?vid=c6bf2e46-fb2f-4485-b1e5-f93500b0678b","ios":"levelo://app?vid=c6bf2e46-fb2f-4485-b1e5-f93500b0678b"},"vehicle_type_id":"4","last_reported":1747926635,"current_range_meters":18000,"station_id":"cpo3342slgdg3j2ifvpg","pricing_plan_id":"cebpf4jnsgd1na2vs0mg"},{"bike_id":"a90f8e9a-f6e2-4b3d-9d6c-5156fa8f0a33","system_id":"levelo_inurba_marseille","lat":43.2324,"lon":5.35574,"is_reserved":false,"is_disabled":false,"rental_uris":{"android":"levelo://app?vid=a90f8e9a-f6e2-4b3d-9d6c-5156fa8f0a33","ios":"levelo://app?vid=a90f8e9a-f6e2-4b3d-9d6c-5156fa8f0a33"},"vehicle_type_id":"4","last_reported":1747926635,"current_range_meters":18800,"station_id":"","pricing_plan_id":"cebpf4jnsgd1na2vs0mg"},{"bike_id":"2867e999-a46e-4513-a9bd-b3cc32ebdca5","system_id":"levelo_inurba_marseille","lat":43.29296,"lon":5.37473,"is_reserved":false,"is_disabled":false,"rental_uris":{"android":"levelo://app?vid=2867e999-a46e-4513-a9bd-b3cc32ebdca5","ios":"levelo://app?vid=2867e999-a46e-4513-a9bd-b3cc32ebdca5"},"vehicle_type_id":"4","last_reported":1747926635,"current_range_meters":18800,"station_id":"ce4bgi12rcd13ifvqb70","pricing_plan_id":"cebpf4jnsgd1na2vs0mg"},{"bike_id":"8cbf1614-2d53-4678-857d-d03337570520","system_id":"levelo_inurba_marseille","lat":43.295835,"lon":5.367453,"is_reserved":false,"is_disabled":false,"rental_uris":{"android":"levelo://app?vid=8cbf1614-2d53-4678-857d-d03337570520","ios":"levelo://app?vid=8cbf1614-2d53-4678-857d-d03337570520"},"vehicle_type_id":"4","last_reported":1747926635,"current_range_meters":18800,"station_id":"ce4bgph2rcd13ifvqc2g","pricing_plan_id":"cebpf4jnsgd1na2vs0mg"},{"bike_id":"6d3e779a-58f8-492a-b6e7-b380731a6d74","system_id":"levelo_inurba_marseille","lat":43.29419,"lon":5.38632,"is_reserved":false,"is_disabled":false,"rental_uris":{"android":"levelo://app?vid=6d3e779a-58f8-492a-b6e7-b380731a6d74","ios":"levelo://app?vid=6d3e779a-58f8-492a-b6e7-b380731a6d74"},"vehicle_type_id":"4","last_reported":1747926635,"current_range_meters":18800,"station_id":"ce4bh2h2rcd13ifvqdh0","pricing_plan_id":"cebpf4jnsgd1na2vs0mg"},{"bike_id":"7cd0e8f6-3147-4146-a0de-9b80bdaf6d83","system_id":"levelo_inurba_marseille","lat":43.27965,"lon":5.38728,"is_reserved":false,"is_disabled":false,"rental_uris":{"android":"levelo://app?vid=7cd0e8f6-3147-4146-a0de-9b80bdaf6d83","ios":"levelo://app?vid=7cd0e8f6-3147-4146-a0de-9b80bdaf6d83"},"vehicle_type_id":"4","last_reported":1747926635,"current_range_meters":18800,"station_id":"ce4bhg12rcd13ifvqf80","pricing_plan_id":"cebpf4jnsgd1na2vs0mg"},{"bike_id":"e884cf19-53e5-4874-8e6f-05ec0900000e","system_id":"levelo_inurba_marseille","lat":43.27977,"lon":5.38739,"is_reserved":false,"is_disabled":false,"rental_uris":{"android":"levelo://app?vid=e884cf19-53e5-4874-8e6f-05ec0900000e","ios":"levelo://app?vid=e884cf19-53e5-4874-8e6f-05ec0900000e"},"vehicle_type_id":"4","last_reported":1747926635,"current_range_meters":18800,"station_id":"ce4bhg12rcd13ifvqf80","pricing_plan_id":"cebpf4jnsgd1na2vs0mg"},{"bike_id":"7df7c817-7a2a-49e3-82e2-fb7a7f1e00f8","system_id":"levelo_inurba_marseille","lat":43.24084,"lon":5.37749,"is_reserved":false,"is_disabled":false,"rental_uris":{"android":"levelo://app?vid=7df7c817-7a2a-49e3-82e2-fb7a7f1e00f8","ios":"levelo://app?vid=7df7c817-7a2a-49e3-82e2-fb7a7f1e00f8"},"vehicle_type_id":"4","last_reported":1747926635,"current_range_meters":18800,"station_id":"ce4bhnp2rcd13ifvqgvg","pricing_plan_id":"cebpf4jnsgd1na2vs0mg"},{"bike_id":"3c627d69-a2b4-4f60-8a0a-c04c968f8c35","system_id":"levelo_inurba_marseille","lat":43.2174,"lon":5.34586,"is_reserved":false,"is_disabled":false,"rental_uris":{"android":"levelo://app?vid=3c627d69-a2b4-4f60-8a0a-c04c968f8c35","ios":"levelo://app?vid=3c627d69-a2b4-4f60-8a0a-c04c968f8c35"},"vehicle_type_id":"4","last_reported":1747926635,"current_range_meters":18800,"station_id":"st_cvj6r9ubvosntc0bgbag","pricing_plan_id":"cebpf4jnsgd1na2vs0mg"},{"bike_id":"59e86a7a-e8b9-481c-93cf-968bdb5ba166","system_id":"levelo_inurba_marseille","lat":43.211987,"lon":5.350843,"is_reserved":false,"is_disabled":false,"rental_uris":{"android":"levelo://app?vid=59e86a7a-e8b9-481c-93cf-968bdb5ba166","ios":"levelo://app?vid=59e86a7a-e8b9-481c-93cf-968bdb5ba166"},"vehicle_type_id":"4","last_reported":1747926635,"current_range_meters":18800,"station_id":"st_cvj6sg6p6f1abm77japg","pricing_plan_id":"cebpf4jnsgd1na2vs0mg"},{"bike_id":"cdefc6ab-3c8c-4a75-8dfe-12fbaa2ddb03","system_id":"levelo_inurba_marseille","lat":43.28032,"lon":5.36948,"is_reserved":false,"is_disabled":false,"rental_uris":{"android":"levelo://app?vid=cdefc6ab-3c8c-4a75-8dfe-12fbaa2ddb03","ios":"levelo://app?vid=cdefc6ab-3c8c-4a75-8dfe-12fbaa2ddb03"},"vehicle_type_id":"4","last_reported":1747926635,"current_range_meters":19200,"station_id":"ce4bha12rcd13ifvqef0","pricing_plan_id":"cebpf4jnsgd1na2vs0mg"},{"bike_id":"09bd4578-4568-4993-b051-5e33d74711c9","system_id":"levelo_inurba_marseille","lat":43.29569,"lon":5.4229,"is_reserved":false,"is_disabled":false,"rental_uris":{"android":"levelo://app?vid=09bd4578-4568-4993-b051-5e33d74711c9","ios":"levelo://app?vid=09bd4578-4568-4993-b051-5e33d74711c9"},"vehicle_type_id":"4","last_reported":1747926635,"current_range_meters":19200,"station_id":"ce4bhph2rcd13ifvqhdg","pricing_plan_id":"cebpf4jnsgd1na2vs0mg"},{"bike_id":"229ef344-2a37-46c7-905e-60444e0c082e","system_id":"levelo_inurba_marseille","lat":43.29421,"lon":5.38626,"is_reserved":false,"is_disabled":false,"rental_uris":{"android":"levelo://app?vid=229ef344-2a37-46c7-905e-60444e0c082e","ios":"levelo://app?vid=229ef344-2a37-46c7-905e-60444e0c082e"},"vehicle_type_id":"4","last_reported":1747926635,"current_range_meters":19600,"station_id":"ce4bh2h2rcd13ifvqdh0","pricing_plan_id":"cebpf4jnsgd1na2vs0mg"},{"bike_id":"4f2f4bc2-0009-47f8-b686-b68fd1bb7400","system_id":"levelo_inurba_marseille","lat":43.26782,"lon":5.39412,"is_reserved":false,"is_disabled":false,"rental_uris":{"android":"levelo://app?vid=4f2f4bc2-0009-47f8-b686-b68fd1bb7400","ios":"levelo://app?vid=4f2f4bc2-0009-47f8-b686-b68fd1bb7400"},"vehicle_type_id":"4","last_reported":1747926635,"current_range_meters":19600,"station_id":"ce4bhh12rcd13ifvqfg0","pricing_plan_id":"cebpf4jnsgd1na2vs0mg"},{"bike_id":"40295a92-0c71-4824-afc9-e9766e591a50","system_id":"levelo_inurba_marseille","lat":43.24183,"lon":5.39725,"is_reserved":false,"is_disabled":false,"rental_uris":{"android":"levelo://app?vid=40295a92-0c71-4824-afc9-e9766e591a50","ios":"levelo://app?vid=40295a92-0c71-4824-afc9-e9766e591a50"},"vehicle_type_id":"4","last_reported":1747926635,"current_range_meters":19600,"station_id":"ce4bhn12rcd13ifvqgpg","pricing_plan_id":"cebpf4jnsgd1na2vs0mg"},{"bike_id":"77f30024-81a0-4787-8c59-87f17c670108","system_id":"levelo_inurba_marseille","lat":43.21215,"lon":5.351,"is_reserved":false,"is_disabled":false,"rental_uris":{"android":"levelo://app?vid=77f30024-81a0-4787-8c59-87f17c670108","ios":"levelo://app?vid=77f30024-81a0-4787-8c59-87f17c670108"},"vehicle_type_id":"4","last_reported":1747926635,"current_range_meters":19600,"station_id":"st_cvj6sg6p6f1abm77japg","pricing_plan_id":"cebpf4jnsgd1na2vs0mg"},{"bike_id":"ea3129a3-2a72-40f3-a8ff-b310ad34de9e","system_id":"levelo_inurba_marseille","lat":43.30533,"lon":5.36534,"is_reserved":false,"is_disabled":false,"rental_uris":{"android":"levelo://app?vid=ea3129a3-2a72-40f3-a8ff-b310ad34de9e","ios":"levelo://app?vid=ea3129a3-2a72-40f3-a8ff-b310ad34de9e"},"vehicle_type_id":"4","last_reported":1747926635,"current_range_meters":20000,"station_id":"ce4bgs12rcd13ifvqcag","pricing_plan_id":"cebpf4jnsgd1na2vs0mg"},{"bike_id":"77d5a178-148e-4a13-8a4f-0d3c18314803","system_id":"levelo_inurba_marseille","lat":43.30816,"lon":5.38169,"is_reserved":false,"is_disabled":false,"rental_uris":{"android":"levelo://app?vid=77d5a178-148e-4a13-8a4f-0d3c18314803","ios":"levelo://app?vid=77d5a178-148e-4a13-8a4f-0d3c18314803"},"vehicle_type_id":"4","last_reported":1747926635,"current_range_meters":20000,"station_id":"ce4bgt12rcd13ifvqce0","pricing_plan_id":"cebpf4jnsgd1na2vs0mg"},{"bike_id":"70de81e9-2e43-45b8-8f9f-b0bbf214c0bd","system_id":"levelo_inurba_marseille","lat":43.30691,"lon":5.38073,"is_reserved":false,"is_disabled":false,"rental_uris":{"android":"levelo://app?vid=70de81e9-2e43-45b8-8f9f-b0bbf214c0bd","ios":"levelo://app?vid=70de81e9-2e43-45b8-8f9f-b0bbf214c0bd"},"vehicle_type_id":"4","last_reported":1747926635,"current_range_meters":20400,"station_id":"","pricing_plan_id":"cebpf4jnsgd1na2vs0mg"},{"bike_id":"9890629c-d5ea-4dd6-9297-19fa0572b456","system_id":"levelo_inurba_marseille","lat":43.23175,"lon":5.35482,"is_reserved":false,"is_disabled":false,"rental_uris":{"android":"levelo://app?vid=9890629c-d5ea-4dd6-9297-19fa0572b456","ios":"levelo://app?vid=9890629c-d5ea-4dd6-9297-19fa0572b456"},"vehicle_type_id":"4","last_reported":1747926635,"current_range_meters":20400,"station_id":"","pricing_plan_id":"cebpf4jnsgd1na2vs0mg"},{"bike_id":"e319490c-89d6-48a7-8fe5-adc437b91c51","system_id":"levelo_inurba_marseille","lat":43.30181,"lon":5.3661,"is_reserved":false,"is_disabled":false,"rental_uris":{"android":"levelo://app?vid=e319490c-89d6-48a7-8fe5-adc437b91c51","ios":"levelo://app?vid=e319490c-89d6-48a7-8fe5-adc437b91c51"},"vehicle_type_id":"4","last_reported":1747926635,"current_range_meters":20400,"station_id":"ce4bgrh2rcd13ifvqc8g","pricing_plan_id":"cebpf4jnsgd1na2vs0mg"},{"bike_id":"bb5ba72f-434f-4ad3-9c32-a859679d1486","system_id":"levelo_inurba_marseille","lat":43.29416,"lon":5.38634,"is_reserved":false,"is_disabled":false,"rental_uris":{"android":"levelo://app?vid=bb5ba72f-434f-4ad3-9c32-a859679d1486","ios":"levelo://app?vid=bb5ba72f-434f-4ad3-9c32-a859679d1486"},