{"last_updated":1729433283,"ttl":60,"version":"2.2","data":{"bikes":[{"bike_id":"f58e8ebe-d622-48f2-ac8a-5bd095a7b561","system_id":"levelo_inurba_marseille","lat":43.2737,"lon":5.36258,"is_reserved":false,"is_disabled":false,"rental_uris":{"android":"levelo://app?vid=f58e8ebe-d622-48f2-ac8a-5bd095a7b561","ios":"levelo://app?vid=f58e8ebe-d622-48f2-ac8a-5bd095a7b561"},"vehicle_type_id":"4","last_reported":1729433284,"current_range_meters":11200,"station_id":"ce4bhbh2rcd13ifvqeo0","pricing_plan_id":"cebpf4jnsgd1na2vs0mg"},{"bike_id":"74754eaf-7e23-43c1-a8aa-d89098ec69ea","system_id":"levelo_inurba_marseille","lat":43.28265,"lon":5.35072,"is_reserved":false,"is_disabled":false,"rental_uris":{"android":"levelo://app?vid=74754eaf-7e23-43c1-a8aa-d89098ec69ea","ios":"levelo://app?vid=74754eaf-7e23-43c1-a8aa-d89098ec69ea"},"vehicle_type_id":"4","last_reported":1729433284,"current_range_meters":38800,"station_id":"ce4bhbp2rcd13ifvqerg","pricing_plan_id":"cebpf4jnsgd1na2vs0mg"},{"bike_id":"0d8788f2-e8ba-44d4-ae4d-90d0c9ed2a6f","system_id":"levelo_inurba_marseille","lat":43.262054,"lon":5.379323,"is_reserved":false,"is_disabled":false,"rental_uris":{"android":"levelo://app?vid=0d8788f2-e8ba-44d4-ae4d-90d0c9ed2a6f","ios":"levelo://app?vid=0d8788f2-e8ba-44d4-ae4d-90d0c9ed2a6f"},"vehicle_type_id":"4","last_reported":1729433284,"current_range_meters":24000,"station_id":"ce4bhjp2rcd13ifvqg90","pricing_plan_id":"cebpf4jnsgd1na2vs0mg"},{"bike_id":"74b87163-e4d7-43e2-a408-00e2ad49e85f","system_id":"levelo_inurba_marseille","lat":43.27006,"lon":5.36572,"is_reserved":false,"is_disabled":false,"rental_uris":{"android":"levelo://app?vid=74b87163-e4d7-43e2-a408-00e2ad49e85f","ios":"levelo://app?vid=74b87163-e4d7-43e2-a408-00e2ad49e85f"},"vehicle_type_id":"4","last_reported":1729433284,"current_range_meters":22400,"station_id":"ce4bhgh2rcd13ifvqfb0","pricing_plan_id":"cebpf4jnsgd1na2vs0mg"},{"bike_id":"079f0eb0-2f43-406f-bfbc-68285c577f87","system_id":"levelo_inurba_marseille","lat":43.2815,"lon":5.42639,"is_reserved":false,"is_disabled":false,"rental_uris":{"android":"levelo://app?vid=079f0eb0-2f43-406f-bfbc-68285c577f87","ios":"levelo://app?vid=079f0eb0-2f43-406f-bfbc-68285c577f87"},"vehicle_type_id":"4","last_reported":1729433284,"current_range_meters":6400,"station_id":"ce4bhnh2rcd13ifvqgug","pricing_plan_id":"cebpf4jnsgd1na2vs0mg"},{"bike_id":"814a8b4c-43f0-4f31-87f7-0f70c081bccd","system_id":"levelo_inurba_marseille","lat":43.24804,"lon":5.3745,"is_reserved":false,"is_disabled":false,"rental_uris":{"android":"levelo://app?vid=814a8b4c-43f0-4f31-87f7-0f70c081bccd","ios":"levelo://app?vid=814a8b4c-43f0-4f31-87f7-0f70c081bccd"},"vehicle_type_id":"4","last_reported":1729433284,"current_range_meters":37600,"station_id":"ce4bhgh2rcd13ifvqfb0","pricing_plan_id":"cebpf4jnsgd1na2vs0mg"},{"bike_id":"a0d572d6-38a8-494d-bb5c-517472ff38aa","system_id":"levelo_inurba_marseille","lat":43.26746,"lon":5.394079,"is_reserved":false,"is_disabled":false,"rental_uris":{"android":"levelo://app?vid=a0d572d6-38a8-494d-bb5c-517472ff38aa","ios":"levelo://app?vid=a0d572d6-38a8-494d-bb5c-517472ff38aa"},"vehicle_type_id":"4","last_reported":1729433284,"current_range_meters":16800,"station_id":"ce4bhh12rcd13ifvqfg0","pricing_plan_id":"cebpf4jnsgd1na2vs0mg"},{"bike_id":"298f33aa-c0ce-4a01-ba42-43ec3b4e3b23","system_id":"levelo_inurba_marseille","lat":43.28267,"lon":5.35075,"is_reserved":false,"is_disabled":false,"rental_uris":{"android":"levelo://app?vid=298f33aa-c0ce-4a01-ba42-43ec3b4e3b23","ios":"levelo://app?vid=298f33aa-c0ce-4a01-ba42-43ec3b4e3b23"},"vehicle_type_id":"4","last_reported":1729433284,"current_range_meters":39200,"station_id":"ce4bhbp2rcd13ifvqerg","pricing_plan_id":"cebpf4jnsgd1na2vs0mg"},{"bike_id":"481d201b-0f9b-4ded-8406-5042d6b7a84b","system_id":"levelo_inurba_marseille","lat":43.23958,"lon":5.36622,"is_reserved":false,"is_disabled":false,"rental_uris":{"android":"levelo://app?vid=481d201b-0f9b-4ded-8406-5042d6b7a84b","ios":"levelo://app?vid=481d201b-0f9b-4ded-8406-5042d6b7a84b"},"vehicle_type_id":"4","last_reported":1729433284,"current_range_meters":28800,"station_id":"ce4bhi12rcd13ifvqfp0","pricing_plan_id":"cebpf4jnsgd1na2vs0mg"},{"bike_id":"3c542d24-c53e-4899-8c72-748e72210bc5","system_id":"levelo_inurba_marseille","lat":43.22926,"lon":5.35375,"is_reserved":false,"is_disabled":false,"rental_uris":{"android":"levelo://app?vid=3c542d24-c53e-4899-8c72-748e72210bc5","ios":"levelo://app?vid=3c542d24-c53e-4899-8c72-748e72210bc5"},"vehicle_type_id":"4","last_reported":1729433284,"current_range_meters":38000,"station_id":"cpo3532slgdg3j2ikp40","pricing_plan_id":"cebpf4jnsgd1na2vs0mg"},{"bike_id":"6967c4c2-f057-49d9-80b0-41170e417f9c","system_id":"levelo_inurba_marseille","lat":43.24072,"lon":5.37756,"is_reserved":false,"is_disabled":false,"rental_uris":{"android":"levelo://app?vid=6967c4c2-f057-49d9-80b0-41170e417f9c","ios":"levelo://app?vid=6967c4c2-f057-49d9-80b0-41170e417f9c"},"vehicle_type_id":"4","last_reported":1729433284,"current_range_meters":36400,"station_id":"ce4bhnp2rcd13ifvqgvg","pricing_plan_id":"cebpf4jnsgd1na2vs0mg"},{"bike_id":"8a73e7ba-a0f3-44c6-966e-e18fb2e0d01f","system_id":"levelo_inurba_marseille","lat":43.2417,"lon":5.36403,"is_reserved":false,"is_disabled":false,"rental_uris":{"android":"levelo://app?vid=8a73e7ba-a0f3-44c6-966e-e18fb2e0d01f","ios":"levelo://app?vid=8a73e7ba-a0f3-44c6-966e-e18fb2e0d01f"},"vehicle_type_id":"4","last_reported":1729433284,"current_range_meters":24000,"station_id":"cpo36qri1sfpv3e86is0","pricing_plan_id":"cebpf4jnsgd1na2vs0mg"},{"bike_id":"06d79016-3a6f-4b08-90e6-7479b4cef6f8","system_id":"levelo_inurba_marseille","lat":43.26199,"lon":5.37932,"is_reserved":false,"is_disabled":false,"rental_uris":{"android":"levelo://app?vid=06d79016-3a6f-4b08-90e6-7479b4cef6f8","ios":"levelo://app?vid=06d79016-3a6f-4b08-90e6-7479b4cef6f8"},"vehicle_type_id":"4","last_reported":1729433284,"current_range_meters":3200,"station_id":"ce4bhjp2rcd13ifvqg90","pricing_plan_id":"cebpf4jnsgd1na2vs0mg"},{"bike_id":"474ccd54-d884-4c48-ac27-1f7190ae4438","system_id":"levelo_inurba_marseille","lat":43.33721,"lon":5.39191,"is_reserved":false,"is_disabled":false,"rental_uris":{"android":"levelo://app?vid=474ccd54-d884-4c48-ac27-1f7190ae4438","ios":"levelo://app?vid=474ccd54-d884-4c48-ac27-1f7190ae4438"},"vehicle_type_id":"4","last_reported":1729433284,"current_range_meters":6800,"station_id":"ce4bhr92rcd13ifvqhsg","pricing_plan_id":"cebpf4jnsgd1na2vs0mg"},{"bike_id":"36460c59-eb1c-4e33-871e-1455f1779c08","system_id":"levelo_inurba_marseille","lat":43.297987,"lon":5.38107,"is_reserved":false,"is_disabled":false,"rental_uris":{"android":"levelo://app?vid=36460c59-eb1c-4e33-871e-1455f1779c08","ios":"levelo://app?vid=36460c59-eb1c-4e33-871e-1455f1779c08"},"vehicle_type_id":"4","last_reported":1729433284,"current_range_meters":18800,"station_id":"ce4bgip2rcd13ifvqbb0","pricing_plan_id":"cebpf4jnsgd1na2vs0mg"},{"bike_id":"41e47c39-1e05-4792-8b1c-a21233819757","system_id":"levelo_inurba_marseille","lat":43.25586,"lon":5.38227,"is_reserved":false,"is_disabled":false,"rental_uris":{"android":"levelo://app?vid=41e47c39-1e05-4792-8b1c-a21233819757","ios":"levelo://app?vid=41e47c39-1e05-4792-8b1c-a21233819757"},"vehicle_type_id":"4","last_reported":1729433284,"current_range_meters":29600,"station_id":"ce4bhih2rcd13ifvqfs0","pricing_plan_id":"cebpf4jnsgd1na2vs0mg"},{"bike_id":"34281cba-34ce-4361-bd1a-500d6523cd83","system_id":"levelo_inurba_marseille","lat":43.27323,"lon":5.39061,"is_reserved":false,"is_disabled":false,"rental_uris":{"android":"levelo://app?vid=34281cba-34ce-4361-bd1a-500d6523cd83","ios":"levelo://app?vid=34281cba-34ce-4361-bd1a-500d6523cd83"},"vehicle_type_id":"4","last_reported":1729433284,"current_range_meters":2800,"station_id":"ce4bhgp2rcd13ifvqfe0","pricing_plan_id":"cebpf4jnsgd1na2vs0mg"},{"bike_id":"d85aed35-4005-4c2e-863d-273016e09085","system_id":"levelo_inurba_marseille","lat":43.24394,"lon":5.37059,"is_reserved":false,"is_disabled":false,"rental_uris":{"android":"levelo://app?vid=d85aed35-4005-4c2e-863d-273016e09085","ios":"levelo://app?vid=d85aed35-4005-4c2e-863d-273016e09085"},"vehicle_type_id":"4","last_reported":1729433284,"current_range_meters":30000,"station_id":"ce4bhhh2rcd13ifvqfk0","pricing_plan_id":"cebpf4jnsgd1na2vs0mg"},{"bike_id":"06912fae-3cbe-4afc-9d09-b4cbf28b58ee","system_id":"levelo_inurba_marseille","lat":43.29965,"lon":5.38489,"is_reserved":false,"is_disabled":false,"rental_uris":{"android":"levelo://app?vid=06912fae-3cbe-4afc-9d09-b4cbf28b58ee","ios":"levelo://app?vid=06912fae-3cbe-4afc-9d09-b4cbf28b58ee"},"vehicle_type_id":"4","last_reported":1729433284,"current_range_meters":39200,"station_id":"ce4bgj92rcd13ifvqbd0","pricing_plan_id":"cebpf4jnsgd1na2vs0mg"},{"bike_id":"5b47cbfd-3740-4a35-b9bd-478cf093a87d","system_id":"levelo_inurba_marseille","lat":43.23958,"lon":5.36619,"is_reserved":false,"is_disabled":false,"rental_uris":{"android":"levelo://app?vid=5b47cbfd-3740-4a35-b9bd-478cf093a87d","ios":"levelo://app?vid=5b47cbfd-3740-4a35-b9bd-478cf093a87d"},"vehicle_type_id":"4","last_reported":1729433284,"current_range_meters":27600,"station_id":"ce4bhi12rcd13ifvqfp0","pricing_plan_id":"cebpf4jnsgd1na2vs0mg"},{"bike_id":"6c4fed87-6be3-4d97-9301-4412accaca73","system_id":"levelo_inurba_marseille","lat":43.23962,"lon":5.3664,"is_reserved":false,"is_disabled":false,"rental_uris":{"android":"levelo://app?vid=6c4fed87-6be3-4d97-9301-4412accaca73","ios":"levelo://app?vid=6c4fed87-6be3-4d97-9301-4412accaca73"},"vehicle_type_id":"4","last_reported":1729433284,"current_range_meters":38800,"station_id":"ce4bhi12rcd13ifvqfp0","pricing_plan_id":"cebpf4jnsgd1na2vs0mg"},{"bike_id":"1e352529-cc66-4980-b16e-da437f6c214d","system_id":"levelo_inurba_marseille","lat":43.261889,"lon":5.379261,"is_reserved":false,"is_disabled":false,"rental_uris":{"android":"levelo://app?vid=1e352529-cc66-4980-b16e-da437f6c214d","ios":"levelo://app?vid=1e352529-cc66-4980-b16e-da437f6c214d"},"vehicle_type_id":"4","last_reported":1729433284,"current_range_meters":26000,"station_id":"ce4bhjp2rcd13ifvqg90","pricing_plan_id":"cebpf4jnsgd1na2vs0mg"},{"bike_id":"ab25e50e-031e-49b2-92c3-bc31c1e4e638","system_id":"levelo_inurba_marseille","lat":43.27976,"lon":5.41679,"is_reserved":false,"is_disabled":false,"rental_uris":{"android":"levelo://app?vid=ab25e50e-031e-49b2-92c3-bc31c1e4e638","ios":"levelo://app?vid=ab25e50e-031e-49b2-92c3-bc31c1e4e638"},"vehicle_type_id":"4","last_reported":1729433284,"current_range_meters":8800,"station_id":"ce4bho12rcd13ifvqh1g","pricing_plan_id":"cebpf4jnsgd1na2vs0mg"},{"bike_id":"9909b094-d1f8-40d5-9333-7b963c180073","system_id":"levelo_inurba_marseille","lat":43.26032,"lon":5.3755,"is_reserved":false,"is_disabled":false,"rental_uris":{"android":"levelo://app?vid=9909b094-d1f8-40d5-9333-7b963c180073","ios":"levelo://app?vid=9909b094-d1f8-40d5-9333-7b963c180073"},"vehicle_type_id":"4","last_reported":1729433284,"current_range_meters":32000,"station_id":"ce4bhgh2rcd13ifvqfa0","pricing_plan_id":"cebpf4jnsgd1na2vs0mg"},{"bike_id":"57dd0012-e7c2-43e3-90a1-087125ac63fa","system_id":"levelo_inurba_marseille","lat":43.33753,"lon":5.37454,"is_reserved":false,"is_disabled":false,"rental_uris":{"android":"levelo://app?vid=57dd0012-e7c2-43e3-90a1-087125ac63fa","ios":"levelo://app?vid=57dd0012-e7c2-43e3-90a1-087125ac63fa"},"vehicle_type_id":"4","last_reported":1729433284,"current_range_meters":35200,"station_id":"","pricing_plan_id":"cebpf4jnsgd1na2vs0mg"},{"bike_id":"13461479-e279-4f52-a628-a9e3279971ed","system_id":"levelo_inurba_marseille","lat":43.24812,"lon":5.37458,"is_reserved":false,"is_disabled":false,"rental_uris":{"android":"levelo://app?vid=13461479-e279-4f52-a628-a9e3279971ed","ios":"levelo://app?vid=13461479-e279-4f52-a628-a9e3279971ed"},"vehicle_type_id":"4","last_reported":1729433284,"current_range_meters":16800,"station_id":"ce4bhgh2rcd13ifvqfb0","pricing_plan_id":"cebpf4jnsgd1na2vs0mg"},{"bike_id":"400f182b-cdd9-43e1-90a7-f30ff73f0bea","system_id":"levelo_inurba_marseille","lat":43.28153,"lon":5.42643,"is_reserved":false,"is_disabled":false,"rental_uris":{"android":"levelo://app?vid=400f182b-cdd9-43e1-90a7-f30ff73f0bea","ios":"levelo://app?vid=400f182b-cdd9-43e1-90a7-f30ff73f0bea"},"vehicle_type_id":"4","last_reported":1729433284,"current_range_meters":35200,"station_id":"ce4bhnh2rcd13ifvqgug","pricing_plan_id":"cebpf4jnsgd1na2vs0mg"},{"bike_id":"196626cd-238d-4d33-b02f-5b68db337528","system_id":"levelo_inurba_marseille","lat":43.22929,"lon":5.35372,"is_reserved":false,"is_disabled":false,"rental_uris":{"android":"levelo://app?vid=196626cd-238d-4d33-b02f-5b68db337528","ios":"levelo://app?vid=196626cd-238d-4d33-b02f-5b68db337528"},"vehicle_type_id":"4","last_reported":1729433284,"current_range_meters":14000,"station_id":"cpo3532slgdg3j2ikp40","pricing_plan_id":"cebpf4jnsgd1na2vs0mg"},{"bike_id":"343aa4d1-f953-489c-ab86-dc9d91d2a18b","system_id":"levelo_inurba_marseille","lat":43.30396,"lon":5.37001,"is_reserved":false,"is_disabled":false,"rental_uris":{"android":"levelo://app?vid=343aa4d1-f953-489c-ab86-dc9d91d2a18b","ios":"levelo://app?vid=343aa4d1-f953-489c-ab86-dc9d91d2a18b"},"vehicle_type_id":"4","last_reported":1729433284,"current_range_meters":24000,"station_id":"ce4bgnh2rcd13ifvqc0g","pricing_plan_id":"cebpf4jnsgd1na2vs0mg"},{"bike_id":"3fc3344c-8b02-4a3d-b256-2e7a5003b4bf","system_id":"levelo_inurba_marseille","lat":43.23965,"lon":5.36638,"is_reserved":false,"is_disabled":false,"rental_uris":{"android":"levelo://app?vid=3fc3344c-8b02-4a3d-b256-2e7a5003b4bf","ios":"levelo://app?vid=3fc3344c-8b02-4a3d-b256-2e7a5003b4bf"},"vehicle_type_id":"4","last_reported":1729433284,"current_range_meters":11200,"station_id":"ce4bhi12rcd13ifvqfp0","pricing_plan_id":"cebpf4jnsgd1na2vs0mg"},{"bike_id":"b419bdd7-0288-4678-b69e-20415cad23e7","system_id":"levelo_inurba_marseille","lat":43.31181,"lon":5.38711,"is_reserved":false,"is_disabled":false,"rental_uris":{"android":"levelo://app?vid=b419bdd7-0288-4678-b69e-20415cad23e7","ios":"levelo://app?vid=b419bdd7-0288-4678-b69e-20415cad23e7"},"vehicle_type_id":"4","last_reported":1729433284,"current_range_meters":12400,"station_id":"ce4bgv12rcd13ifvqcp0","pricing_plan_id":"cebpf4jnsgd1na2vs0mg"},{"bike_id":"46e6e615-03b9-42d8-be78-f8dac0c1966b","system_id":"levelo_inurba_marseille","lat":43.27373,"lon":5.36259,"is_reserved":false,"is_disabled":false,"rental_uris":{"android":"levelo://app?vid=46e6e615-03b9-42d8-be78-f8dac0c1966b","ios":"levelo://app?vid=46e6e615-03b9-42d8-be78-f8dac0c1966b"},"vehicle_type_id":"4","last_reported":1729433284,"current_range_meters":28400,"station_id":"ce4bhbh2rcd13ifvqeo0","pricing_plan_id":"cebpf4jnsgd1na2vs0mg"},{"bike_id":"fca55886-769e-4104-8bc2-0030b8dbff79","system_id":"levelo_inurba_marseille","lat":43.24078,"lon":5.37741,"is_reserved":false,"is_disabled":false,"rental_uris":{"android":"levelo://app?vid=fca55886-769e-4104-8bc2-0030b8dbff79","ios":"levelo://app?vid=fca55886-769e-4104-8bc2-0030b8dbff79"},"vehicle_type_id":"4","last_reported":1729433284,"current_range_meters":37600,"station_id":"ce4bhnp2rcd13ifvqgvg","pricing_plan_id":"cebpf4jnsgd1na2vs0mg"},{"bike_id":"c052e5f3-0f87-4988-9be5-74b491b82108","system_id":"levelo_inurba_marseille","lat":43.3248,"lon":5.36557,"is_reserved":false,"is_disabled":false,"rental_uris":{"android":"levelo://app?vid=c052e5f3-0f87-4988-9be5-74b491b82108","ios":"levelo://app?vid=c052e5f3-0f87-4988-9be5-74b491b82108"},"vehicle_type_id":"4","last_reported":1729433284,"current_range_meters":38800,"station_id":"ce4bhs12rcd13ifvqhvg","pricing_plan_id":"cebpf4jnsgd1na2vs0mg"},{"bike_id":"08fd2fcf-de45-467c-80fd-dff7c4232679","system_id":"levelo_inurba_marseille","lat":43.27065,"lon":5.4228,"is_reserved":false,"is_disabled":false,"rental_uris":{"android":"levelo://app?vid=08fd2fcf-de45-467c-80fd-dff7c4232679","ios":"levelo://app?vid=08fd2fcf-de45-467c-80fd-dff7c4232679"},"vehicle_type_id":"4","last_reported":1729433284,"current_range_meters":32400,"station_id":"ce4bhk92rcd13ifvqgb0","pricing_plan_id":"cebpf4jnsgd1na2vs0mg"},{"bike_id":"9d72efb5-067b-4e7b-bb8c-c3db84e079d4","system_id":"levelo_inurba_marseille","lat":43.26494,"lon":5.3954,"is_reserved":false,"is_disabled":false,"rental_uris":{"android":"levelo://app?vid=9d72efb5-067b-4e7b-bb8c-c3db84e079d4","ios":"levelo://app?vid=9d72efb5-067b-4e7b-bb8c-c3db84e079d4"},"vehicle_type_id":"4","last_reported":1729433284,"current_range_meters":8800,"station_id":"ce4bhi12rcd13ifvqfq0","pricing_plan_id":"cebpf4jnsgd1na2vs0mg"},{"bike_id":"724c08e2-dacc-4e14-8177-46a0a3dd1af2","system_id":"levelo_inurba_marseille","lat":43.29589,"lon":5.38089,"is_reserved":false,"is_disabled":false,"rental_uris":{"android":"levelo://app?vid=724c08e2-dacc-4e14-8177-46a0a3dd1af2","ios":"levelo://app?vid=724c08e2-dacc-4e14-8177-46a0a3dd1af2"},"vehicle_type_id":"4","last_reported":1729433284,"current_range_meters":6400,"station_id":"ce4bgl12rcd13ifvqbo0","pricing_plan_id":"cebpf4jnsgd1na2vs0mg"},{"bike_id":"55b3a8f5-19d1-4d08-bf99-ccf2c312bc04","system_id":"levelo_inurba_marseille","lat":43.23193,"lon":5.35559,"is_reserved":false,"is_disabled":false,"rental_uris":{"android":"levelo://app?vid=55b3a8f5-19d1-4d08-bf99-ccf2c312bc04","ios":"levelo://app?vid=55b3a8f5-19d1-4d08-bf99-ccf2c312bc04"},"vehicle_type_id":"4","last_reported":1729433284,"current_range_meters":38000,"station_id":"ce4bhu92rcd13ifvqi70","pricing_plan_id":"cebpf4jnsgd1na2vs0mg"},{"bike_id":"a1959acc-2134-48f6-b71a-a276b531caee","system_id":"levelo_inurba_marseille","lat":43.32367,"lon":5.38887,"is_reserved":false,"is_disabled":false,"rental_uris":{"android":"levelo://app?vid=a1959acc-2134-48f6-b71a-a276b531caee","ios":"levelo://app?vid=a1959acc-2134-48f6-b71a-a276b531caee"},"vehicle_type_id":"4","last_reported":1729433284,"current_range_meters":18800,"station_id":"ce4bhqp2rcd13ifvqhog","pricing_plan_id":"cebpf4jnsgd1na2vs0mg"},{"bike_id":"43d24770-4ece-4a77-a029-fe46e9bde13b","system_id":"levelo_inurba_marseille","lat":43.31572,"lon":5.37422,"is_reserved":false,"is_disabled":false,"rental_uris":{"android":"levelo://app?vid=43d24770-4ece-4a77-a029-fe46e9bde13b","ios":"levelo://app?vid=43d24770-4ece-4a77-a029-fe46e9bde13b"},"vehicle_type_id":"4","last_reported":1729433284,"current_range_meters":36800,"station_id":"","pricing_plan_id":"cebpf4jnsgd1na2vs0mg"},{"bike_id":"766da900-471d-42f5-8cfa-8db494f945d7","system_id":"levelo_inurba_marseille","lat":43.28919,"lon":5.4605,"is_reserved":false,"is_disabled":false,"rental_uris":{"android":"levelo://app?vid=766da900-471d-42f5-8cfa-8db494f945d7","ios":"levelo://app?vid=766da900-471d-42f5-8cfa-8db494f945d7"},"vehicle_type_id":"4","last_reported":1729433284,"current_range_meters":25200,"station_id":"","pricing_plan_id":"cebpf4jnsgd1na2vs0mg"},{"bike_id":"61f46ee9-944d-4a53-80aa-8db1134d64ec","system_id":"levelo_inurba_marseille","lat":43.255,"lon":5.37648,"is_reserved":false,"is_disabled":false,"rental_uris":{"android":"levelo://app?vid=61f46ee9-944d-4a53-80aa-8db1134d64ec","ios":"levelo://app?vid=61f46ee9-944d-4a53-80aa-8db1134d64ec"},"vehicle_type_id":"4","last_reported":1729433284,"current_range_meters":7200,"station_id":"ce4bhh12rcd13ifvqff0","pricing_plan_id":"cebpf4jnsgd1na2vs0mg"},{"bike_id":"3b0ede49-66d7-4b8a-9a29-0cb52aeba9bf","system_id":"levelo_inurba_marseille","lat":43.29379,"lon":5.37856,"is_reserved":false,"is_disabled":false,"rental_uris":{"android":"levelo://app?vid=3b0ede49-66d7-4b8a-9a29-0cb52aeba9bf","ios":"levelo://app?vid=3b0ede49-66d7-4b8a-9a29-0cb52aeba9bf"},"vehicle_type_id":"4","last_reported":1729433284,"current_range_meters":22800,"station_id":"ce4bgjh2rcd13ifvqbf0","pricing_plan_id":"cebpf4jnsgd1na2vs0mg"},{"bike_id":"cc10d048-9360-4f1c-b075-bd6d08c1c67a","system_id":"levelo_inurba_marseille","lat":43.24161,"lon":5.36393,"is_reserved":false,"is_disabled":false,"rental_uris":{"android":"levelo://app?vid=cc10d048-9360-4f1c-b075-bd6d08c1c67a","ios":"levelo://app?vid=cc10d048-9360-4f1c-b075-bd6d08c1c67a"},"vehicle_type_id":"4","last_reported":1729433284,"current_range_meters":14000,"station_id":"cpo36qri1sfpv3e86is0","pricing_plan_id":"cebpf4jnsgd1na2vs0mg"},{"bike_id":"61aab6bf-f1b0-4966-a148-ea1e7445d90f","system_id":"levelo_inurba_marseille","lat":43.23959,"lon":5.36626,"is_reserved":false,"is_disabled":false,"rental_uris":{"android":"levelo://app?vid=61aab6bf-f1b0-4966-a148-ea1e7445d90f","ios":"levelo://app?vid=61aab6bf-f1b0-4966-a148-ea1e7445d90f"},"vehicle_type_id":"4","last_reported":1729433284,"current_range_meters":31200,"station_id":"ce4bhi12rcd13ifvqfp0","pricing_plan_id":"cebpf4jnsgd1na2vs0mg"},{"bike_id":"76de854f-6778-4b92-a242-1708dbad3d4a","system_id":"levelo_inurba_marseille","lat":43.29982,"lon":5.38462,"is_reserved":false,"is_disabled":false,"rental_uris":{"android":"levelo://app?vid=76de854f-6778-4b92-a242-1708dbad3d4a","ios":"levelo://app?vid=76de854f-6778-4b92-a242-1708dbad3d4a"},"vehicle_type_id":"4","last_reported":1729433284,"current_range_meters":0,"station_id":"ce4bgj92rcd13ifvqbd0","pricing_plan_id":"cebpf4jnsgd1na2vs0mg"},{"bike_id":"cf02474b-a1f4-4b0b-a928-57ddb3a9ecbd","system_id":"levelo_inurba_marseille","lat":43.243866,"lon":5.370697,"is_reserved":false,"is_disabled":false,"rental_uris":{"android":"levelo://app?vid=cf02474b-a1f4-4b0b-a928-57ddb3a9ecbd","ios":"levelo://app?vid=cf02474b-a1f4-4b0b-a928-57ddb3a9ecbd"},"vehicle_type_id":"4","last_reported":1729433284,"current_range_meters":20800,"station_id":"ce4bhbh2rcd13ifvqeo0","pricing_plan_id":"cebpf4jnsgd1na2vs0mg"},{"bike_id":"8fc04f3a-a28c-4dd7-b0b6-60fbc5fd8b27","system_id":"levelo_inurba_marseille","lat":43.27811,"lon":5.40706,"is_reserved":false,"is_disabled":false,"rental_uris":{"android":"levelo://app?vid=8fc04f3a-a28c-4dd7-b0b6-60fbc5fd8b27","ios":"levelo://app?vid=8fc04f3a-a28c-4dd7-b0b6-60fbc5fd8b27"},"vehicle_type_id":"4","last_reported":1729433284,"current_range_meters":12400,"station_id":"ce4bhnh2rcd13ifvqgtg","pricing_plan_id":"cebpf4jnsgd1na2vs0mg"},{"bike_id":"556c727f-6769-40b4-8f94-345fbd71ff17","system_id":"levelo_inurba_marseille","lat":43.24391,"lon":5.3705,"is_reserved":false,"is_disabled":false,"rental_uris":{"android":"levelo://app?vid=556c727f-6769-40b4-8f94-345fbd71ff17","ios":"levelo://app?vid=556c727f-6769-40b4-8f94-345fbd71ff17"},"vehicle_type_id":"4","last_reported":1729433284,"current_range_meters":28800,"station_id":"ce4bhhh2rcd13ifvqfk0","pricing_plan_id":"cebpf4jnsgd1na2vs0mg"},{"bike_id":"dacfc94d-6140-480f-845a-f5ed00233451","system_id":"levelo_inurba_marseille","lat":43.23957,"lon":5.36635,"is_reserved":false,"is_disabled":false,"rental_uris":{"android":"levelo://app?vid=dacfc94d-6140-480f-845a-f5ed00233451","ios":"levelo://app?vid=dacfc94d-6140-480f-845a-f5ed00233451"},"vehicle_type_id":"4","last_reported":1729433284,"current_range_meters":12000,"station_id":"ce4bhi12rcd13ifvqfp0","pricing_plan_id":"cebpf4jnsgd1na2vs0mg"},{"bike_id":"1aa838fb-6969-4db5-ace6-43bd95052f09","system_id":"levelo_inurba_marseille","lat":43.23056,"lon":5.35491,"is_reserved":false,"is_disabled":false,"rental_uris":{"android":"levelo://app?vid=1aa838fb-6969-4db5-ace6-43bd95052f09","ios":"levelo://app?vid=1aa838fb-6969-4db5-ace6-43bd95052f09"},"vehicle_type_id":"4","last_reported":1729433284,"current_range_meters":33600,"station_id":"cpo3342slgdg3j2ifvpg","pricing_plan_id":"cebpf4jnsgd1na2vs0mg"},{"bike_id":"7772d39f-5e28-445c-af91-069b0cf63793","system_id":"levelo_inurba_marseille","lat":43.33765,"lon":5.37438,"is_reserved":false,"is_disabled":false,"rental_uris":{"android":"levelo://app?vid=7772d39f-5e28-445c-af91-069b0cf63793","ios":"levelo://app?vid=7772d39f-5e28-445c-af91-069b0cf63793"},"vehicle_type_id":"4","last_reported":1729433284,"current_range_meters":4000,"station_id":"","pricing_plan_id":"cebpf4jnsgd1na2vs0mg"},{"bike_id":"f4e2ae64-3082-4a9d-924e-46d401d4a0eb","system_id":"levelo_inurba_marseille","lat":43.2842,"lon":5.34974,"is_reserved":false,"is_disabled":false,"rental_uris":{"android":"levelo://app?vid=f4e2ae64-3082-4a9d-924e-46d401d4a0eb","ios":"levelo://app?vid=f4e2ae64-3082-4a9d-924e-46d401d4a0eb"},"vehicle_type_id":"4","last_reported":1729433284,"current_range_meters":3200,"station_id":"ce4bhbh2rcd13ifvqepg","pricing_plan_id":"cebpf4jnsgd1na2vs0mg"},{"bike_id":"c93540be-cf98-45b1-96dd-1ffb261e039c","system_id":"levelo_inurba_marseille","lat":43.29788,"lon":5.37105,"is_reserved":false,"is_disabled":false,"rental_uris":{"android":"levelo://app?vid=c93540be-cf98-45b1-96dd-1ffb261e039c","ios":"levelo://app?vid=c93540be-cf98-45b1-96dd-1ffb261e039c"},"vehicle_type_id":"4","last_reported":1729433284,"current_range_meters":23200,"station_id":"ce4bgop2rcd13ifvqc1g","pricing_plan_id":"cebpf4jnsgd1na2vs0mg"},{"bike_id":"3213665e-989c-4d22-9f5a-31c8522597dd","system_id":"levelo_inurba_marseille","lat":43.296,"lon":5.36142,"is_reserved":false,"is_disabled":false,"rental_uris":{"android":"levelo://app?vid=3213665e-989c-4d22-9f5a-31c8522597dd","ios":"levelo://app?vid=3213665e-989c-4d22-9f5a-31c8522597dd"},"vehicle_type_id":"4","last_reported":1729433284,"current_range_meters":14800,"station_id":"","pricing_plan_id":"cebpf4jnsgd1na2vs0mg"},{"bike_id":"23bad941-e7bc-4f53-853a-62bdf995de8f","system_id":"levelo_inurba_marseille","lat":43.33025,"lon":5.39042,"is_reserved":false,"is_disabled":false,"rental_uris":{"android":"levelo://app?vid=23bad941-e7bc-4f53-853a-62bdf995de8f","ios":"levelo://app?vid=23bad941-e7bc-4f53-853a-62bdf995de8f"},"vehicle_type_id":"4","last_reported":1729433284,"current_range_meters":32400,"station_id":"ce4bhr92rcd13ifvqhrg","pricing_plan_id":"cebpf4jnsgd1na2vs0mg"},{"bike_id":"9a2117f0-c5b0-4dc2-891b-026a24af23f1","system_id":"levelo_inurba_marseille","lat":43.3105,"lon":5.40092,"is_reserved":false,"is_disabled":false,"rental_uris":{"android":"levelo://app?vid=9a2117f0-c5b0-4dc2-891b-026a24af23f1","ios":"levelo://app?vid=9a2117f0-c5b0-4dc2-891b-026a24af23f1"},"vehicle_type_id":"4","last_reported":1729433284,"current_range_meters":35600,"station_id":"","pricing_plan_id":"cebpf4jnsgd1na2vs0mg"},{"bike_id":"a2e28cb1-833f-429b-bea9-718303419b82","system_id":"levelo_inurba_marseille","lat":43.28273,"lon":5.35075,"is_reserved":false,"is_disabled":false,"rental_uris":{"android":"levelo://app?vid=a2e28cb1-833f-429b-bea9-718303419b82","ios":"levelo://app?vid=a2e28cb1-833f-429b-bea9-718303419b82"},"vehicle_type_id":"4","last_reported":1729433284,"current_range_meters":38800,"station_id":"ce4bhbp2rcd13ifvqerg","pricing_plan_id":"cebpf4jnsgd1na2vs0mg"},{"bike_id":"91c013b7-299f-4b6b-994a-7edd6ce5e611","system_id":"levelo_inurba_marseille","lat":43.2825,"lon":5.37168,"is_reserved":false,"is_disabled":false,"rental_uris":{"android":"levelo://app?vid=91c013b7-299f-4b6b-994a-7edd6ce5e611","ios":"levelo://app?vid=91c013b7-299f-4b6b-994a-7edd6ce5e611"},"vehicle_type_id":"4","last_reported":1729433284,"current_range_meters":12000,"station_id":"","pricing_plan_id":"cebpf4jnsgd1na2vs0mg"},{"bike_id":"2a429aa6-0197-4f73-9dbd-b2b190eba55b","system_id":"levelo_inurba_marseille","lat":43.24072,"lon":5.37756,"is_reserved":false,"is_disabled":false,"rental_uris":{"android":"levelo://app?vid=2a429aa6-0197-4f73-9dbd-b2b190eba55b","ios":"levelo://app?vid=2a429aa6-0197-4f73-9dbd-b2b190eba55b"},"vehicle_type_id":"4","last_reported":1729433284,"current_range_meters":30400,"station_id":"ce4bhnp2rcd13ifvqgvg","pricing_plan_id":"cebpf4jnsgd1na2vs0mg"},{"bike_id":"23a601e9-39d1-43bb-8817-94bec5636d8f","system_id":"levelo_inurba_marseille","lat":43.26562,"lon":5.37281,"is_reserved":false,"is_disabled":false,"rental_uris":{"android":"levelo://app?vid=23a601e9-39d1-43bb-8817-94bec5636d8f","ios":"levelo://app?vid=23a601e9-39d1-43bb-8817-94bec5636d8f"},"vehicle_type_id":"4","last_reported":1729433284,"current_range_meters":36400,"station_id":"ce4bhg12rcd13ifvqf70","pricing_plan_id":"cebpf4jnsgd1na2vs0mg"},{"bike_id":"aa9ee92f-812a-4b7a-b9c2-250f5801d5c4","system_id":"levelo_inurba_marseille","lat":43.24388,"lon":5.37059,"is_reserved":false,"is_disabled":false,"rental_uris":{"android":"levelo://app?vid=aa9ee92f-812a-4b7a-b9c2-250f5801d5c4","ios":"levelo://app?vid=aa9ee92f-812a-4b7a-b9c2-250f5801d5c4"},"vehicle_type_id":"4","last_reported":1729433284,"current_range_meters":2000,"station_id":"ce4bhhh2rcd13ifvqfk0","pricing_plan_id":"cebpf4jnsgd1na2vs0mg"},{"bike_id":"f7b5f56c-96a1-445f-b511-773f0f01cf87","system_id":"levelo_inurba_marseille","lat":43.28156,"lon":5.42645,"is_reserved":false,"is_disabled":false,"rental_uris":{"android":"levelo://app?vid=f7b5f56c-96a1-445f-b511-773f0f01cf87","ios":"levelo://app?vid=f7b5f56c-96a1-445f-b511-773f0f01cf87"},"vehicle_type_id":"4","last_reported":1729433284,"current_range_meters":38400,"station_id":"ce4bhnh2rcd13ifvqgug","pricing_plan_id":"cebpf4jnsgd1na2vs0mg"},{"bike_id":"2217c8ae-120c-4a17-a00c-636ae17db60a","system_id":"levelo_inurba_marseille","lat":43.28265,"lon":5.35066,"is_reserved":false,"is_disabled":false,"rental_uris":{"android":"levelo://app?vid=2217c8ae-120c-4a17-a00c-636ae17db60a","ios":"levelo://app?vid=2217c8ae-120c-4a17-a00c-636ae17db60a"},"vehicle_type_id":"4","last_reported":1729433284,"current_range_meters":38800,"station_id":"ce4bhbp2rcd13ifvqerg","pricing_plan_id":"cebpf4jnsgd1na2vs0mg"},{"bike_id":"fac9a3a2-2dd0-4efd-afd6-73cc4f4edd9a","system_id":"levelo_inurba_marseille","lat":43.24813,"lon":5.37456,"is_reserved":false,"is_disabled":false,"rental_uris":{"android":"levelo://app?vid=fac9a3a2-2dd0-4efd-afd6-73cc4f4edd9a","ios":"levelo://app?vid=fac9a3a2-2dd0-4efd-afd6-73cc4f4edd9a"},"vehicle_type_id":"4","last_reported":1729433284,"current_range_meters":36800,"station_id":"ce4bhgh2rcd13ifvqfb0","pricing_plan_id":"cebpf4jnsgd1na2vs0mg"},{"bike_id":"9ea96991-8d22-487b-94dc-f521d3e0b3d6","system_id":"levelo_inurba_marseille","lat":43.240875,"lon":5.368147,"is_reserved":false,"is_disabled":false,"rental_uris":{"android":"levelo://app?vid=9ea96991-8d22-487b-94dc-f521d3e0b3d6","ios":"levelo://app?vid=9ea96991-8d22-487b-94dc-f521d3e0b3d6"},"vehicle_type_id":"4","last_reported":1729433284,"current_range_meters":10000,"station_id":"ce4bh292rcd13ifvqdf0","pricing_plan_id":"cebpf4jnsgd1na2vs0mg"},{"bike_id":"2a246db4-f904-41af-827f-2dc4e0c10587","system_id":"levelo_inurba_marseille","lat":43.26181,"lon":5.41426,"is_reserved":false,"is_disabled":false,"rental_uris":{"android":"levelo://app?vid=2a246db4-f904-41af-827f-2dc4e0c10587","ios":"levelo://app?vid=2a246db4-f904-41af-827f-2dc4e0c10587"},"vehicle_type_id":"4","last_reported":1729433284,"current_range_meters":21600,"station_id":"ce4bhn92rcd13ifvqgrg","pricing_plan_id":"cebpf4jnsgd1na2vs0mg"},{"bike_id":"65bdf8a7-581b-4618-bccb-c8132147d71a","system_id":"levelo_inurba_marseille","lat":43.27562,"lon":5.3601,"is_reserved":false,"is_disabled":false,"rental_uris":{"android":"levelo://app?vid=65bdf8a7-581b-4618-bccb-c8132147d71a","ios":"levelo://app?vid=65bdf8a7-581b-4618-bccb-c8132147d71a"},"vehicle_type_id":"4","last_reported":1729433284,"current_range_meters":12000,"station_id":"","pricing_plan_id":"cebpf4jnsgd1na2vs0mg"},{"bike_id":"3b265a1a-a547-4e7a-9672-9018e4a62c9b","system_id":"levelo_inurba_marseille","lat":43.26195,"lon":5.37447,"is_reserved":false,"is_disabled":false,"rental_uris":{"android":"levelo://app?vid=3b265a1a-a547-4e7a-9672-9018e4a62c9b","ios":"levelo://app?vid=3b265a1a-a547-4e7a-9672-9018e4a62c9b"},"vehicle_type_id":"4","last_reported":1729433284,"current_range_meters":38000,"station_id":"ce4bhgp2rcd13ifvqfc0","pricing_plan_id":"cebpf4jnsgd1na2vs0mg"},{"bike_id":"bb5a070d-9d78-4632-a075-9714e2441add","system_id":"levelo_inurba_marseille","lat":43.27205,"lon":5.39183,"is_reserved":false,"is_disabled":false,"rental_uris":{"android":"levelo://app?vid=bb5a070d-9d78-4632-a075-9714e2441add","ios":"levelo://app?vid=bb5a070d-9d78-4632-a075-9714e2441add"},"vehicle_type_id":"4","last_reported":1729433284,"current_range_meters":8400,"station_id":"ce4bhhp2rcd13ifvqfm0","pricing_plan_id":"cebpf4jnsgd1na2vs0mg"},{"bike_id":"528fef3b-bb8b-42d1-985d-ca1adbc390f0","system_id":"levelo_inurba_marseille","lat":43.24394,"lon":5.37058,"is_reserved":false,"is_disabled":false,"rental_uris":{"android":"levelo://app?vid=528fef3b-bb8b-42d1-985d-ca1adbc390f0","ios":"levelo://app?vid=528fef3b-bb8b-42d1-985d-ca1adbc390f0"},"vehicle_type_id":"4","last_reported":1729433284,"current_range_meters":10000,"station_id":"ce4bhhh2rcd13ifvqfk0","pricing_plan_id":"cebpf4jnsgd1na2vs0mg"},{"bike_id":"e120d26e-05e1-4715-ac19-c809b2dd28da","system_id":"levelo_inurba_marseille","lat":43.33451,"lon":5.38961,"is_reserved":false,"is_disabled":false,"rental_uris":{"android":"levelo://app?vid=e120d26e-05e1-4715-ac19-c809b2dd28da","ios":"levelo://app?vid=e120d26e-05e1-4715-ac19-c809b2dd28da"},"vehicle_type_id":"4","last_reported":1729433284,"current_range_meters":35600,"station_id":"","pricing_plan_id":"cebpf4jnsgd1na2vs0mg"},{"bike_id":"0419c0fc-bfd2-4f0f-9f92-b330bfbd274a","system_id":"levelo_inurba_marseille","lat":43.289398,"lon":5.364114,"is_reserved":false,"is_disabled":false,"rental_uris":{"android":"levelo://app?vid=0419c0fc-bfd2-4f0f-9f92-b330bfbd274a","ios":"levelo://app?vid=0419c0fc-bfd2-4f0f-9f92-b330bfbd274a"},"vehicle_type_id":"4","last_reported":1729433284,"current_range_meters":24000,"station_id":"ce4bhc92rcd13ifvqetg","pricing_plan_id":"cebpf4jnsgd1na2vs0mg"},{"bike_id":"4f2eab08-dd71-45a7-98ce-83b994d7b352","system_id":"levelo_inurba_marseille","lat":43.23277,"lon":5.35373,"is_reserved":false,"is_disabled":false,"rental_uris":{"android":"levelo://app?vid=4f2eab08-dd71-45a7-98ce-83b994d7b352","ios":"levelo://app?vid=4f2eab08-dd71-45a7-98ce-83b994d7b352"},"vehicle_type_id":"4","last_reported":1729433284,"current_range_meters":20400,"station_id":"","pricing_plan_id":"cebpf4jnsgd1na2vs0mg"},{"bike_id":"4cf3e5d8-4f9a-4007-b965-622ecd99339e","system_id":"levelo_inurba_marseille","lat":43.31074,"lon":5.40085,"is_reserved":false,"is_disabled":false,"rental_uris":{"android":"levelo://app?vid=4cf3e5d8-4f9a-4007-b965-622ecd99339e","ios":"levelo://app?vid=4cf3e5d8-4f9a-4007-b965-622ecd99339e"},"vehicle_type_id":"4","last_reported":1729433284,"current_range_meters":8800,"station_id":"","pricing_plan_id":"cebpf4jnsgd1na2vs0mg"},{"bike_id":"0f9a36d0-23eb-4a1e-a8e2-26f38c9e895d","system_id":"levelo_inurba_marseille","lat":43.26567,"lon":5.39004,"is_reserved":false,"is_disabled":false,"rental_uris":{"android":"levelo://app?vid=0f9a36d0-23eb-4a1e-a8e2-26f38c9e895d","ios":"levelo://app?vid=0f9a36d0-23eb-4a1e-a8e2-26f38c9e895d"},"vehicle_type_id":"4","last_reported":1729433284,"current_range_meters":18800,"station_id":"ce4bhe12rcd13ifvqf30","pricing_plan_id":"cebpf4jnsgd1na2vs0mg"},{"bike_id":"11b5fcc1-d0bb-42ae-9b98-57df4381949e","system_id":"levelo_inurba_marseille","lat":43.33021,"lon":5.39044,"is_reserved":false,"is_disabled":false,"rental_uris":{"android":"levelo://app?vid=11b5fcc1-d0bb-42ae-9b98-57df4381949e","ios":"levelo://app?vid=11b5fcc1-d0bb-42ae-9b98-57df4381949e"},"vehicle_type_id":"4","last_reported":1729433284,"current_range_meters":38800,"station_id":"ce4bhr92rcd13ifvqhrg","pricing_plan_id":"cebpf4jnsgd1na2vs0mg"},{"bike_id":"6cd1b414-32fb-4395-a611-666613033e2c","system_id":"levelo_inurba_marseille","lat":43.28264,"lon":5.35056,"is_reserved":false,"is_disabled":false,"rental_uris":{"android":"levelo://app?vid=6cd1b414-32fb-4395-a611-666613033e2c","ios":"levelo://app?vid=6cd1b414-32fb-4395-a611-666613033e2c"},"vehicle_type_id":"4","last_reported":1729433284,"current_range_meters":33600,"station_id":"ce4bhbp2rcd13ifvqerg","pricing_plan_id":"cebpf4jnsgd1na2vs0mg"},{"bike_id":"f9928a1b-5e01-4359-8549-3825d8c7f41a","system_id":"levelo_inurba_marseille","lat":43.22928,"lon":5.35377,"is_reserved":false,"is_disabled":false,"rental_uris":{"android":"levelo://app?vid=f9928a1b-5e01-4359-8549-3825d8c7f41a","ios":"levelo://app?vid=f9928a1b-5e01-4359-8549-3825d8c7f41a"},"vehicle_type_id":"4","last_reported":1729433284,"current_range_meters":38400,"station_id":"cpo3532slgdg3j2ikp40","pricing_plan_id":"cebpf4jnsgd1na2vs0mg"},{"bike_id":"ce2eac7a-cff7-4d0a-b1ea-81fd043c966e","system_id":"levelo_inurba_marseille","lat":43.25882,"lon":5.39928,"is_reserved":false,"is_disabled":false,"rental_uris":{"android":"levelo://app?vid=ce2eac7a-cff7-4d0a-b1ea-81fd043c966e","ios":"levelo://app?vid=ce2eac7a-cff7-4d0a-b1ea-81fd043c966e"},"vehicle_type_id":"4","last_reported":1729433284,"current_range_meters":10800,"station_id":"ce4bh492rcd13ifvqdvg","pricing_plan_id":"cebpf4jnsgd1na2vs0mg"},{"bike_id":"b3da6c3a-2a10-4172-a1ac-14d12204275b","system_id":"levelo_inurba_marseille","lat":43.27492,"lon":5.42452,"is_reserved":false,"is_disabled":false,"rental_uris":{"android":"levelo://app?vid=b3da6c3a-2a10-4172-a1ac-14d12204275b","ios":"levelo://app?vid=b3da6c3a-2a10-4172-a1ac-14d12204275b"},"vehicle_type_id":"4","last_reported":1729433284,"current_range_meters":39200,"station_id":"ce4bhn92rcd13ifvqgrg","pricing_plan_id":"cebpf4jnsgd1na2vs0mg"},{"bike_id":"76536070-92d5-4302-8e45-15c764d0c051","system_id":"levelo_inurba_marseille","lat":43.23189,"lon":5.35546,"is_reserved":false,"is_disabled":false,"rental_uris":{"android":"levelo://app?vid=76536070-92d5-4302-8e45-15c764d0c051","ios":"levelo://app?vid=76536070-92d5-4302-8e45-15c764d0c051"},"vehicle_type_id":"4","last_reported":1729433284,"current_range_meters":8400,"station_id":"ce4bhu92rcd13ifvqi70","pricing_plan_id":"cebpf4jnsgd1na2vs0mg"},{"bike_id":"a7933557-00af-4edd-b59e-5318c3b3c4ef","system_id":"levelo_inurba_marseille","lat":43.24808,"lon":5.37454,"is_reserved":false,"is_disabled":false,"rental_uris":{"android":"levelo://app?vid=a7933557-00af-4edd-b59e-5318c3b3c4ef","ios":"levelo://app?vid=a7933557-00af-4edd-b59e-5318c3b3c4ef"},"vehicle_type_id":"4","last_reported":1729433284,"current_range_meters":36800,"station_id":"ce4bhgh2rcd13ifvqfb0","pricing_plan_id":"cebpf4jnsgd1na2vs0mg"},{"bike_id":"df79050e-4b09-405e-be7e-48cf6c248ce9","system_id":"levelo_inurba_marseille","lat":43.24809,"lon":5.37459,"is_reserved":false,"is_disabled":false,"rental_uris":{"android":"levelo://app?vid=df79050e-4b09-405e-be7e-48cf6c248ce9","ios":"levelo://app?vid=df79050e-4b09-405e-be7e-48cf6c248ce9"},"vehicle_type_id":"4","last_reported":1729433284,"current_range_meters":35600,"station_id":"ce4bhgh2rcd13ifvqfb0","pricing_plan_id":"cebpf4jnsgd1na2vs0mg"},{"bike_id":"396333df-c3de-4cc8-93ac-3c8982b64e9b","system_id":"levelo_inurba_marseille","lat":43.32114,"lon":5.36774,"is_reserved":false,"is_disabled":false,"rental_uris":{"android":"levelo://app?vid=396333df-c3de-4cc8-93ac-3c8982b64e9b","ios":"levelo://app?vid=396333df-c3de-4cc8-93ac-3c8982b64e9b"},"vehicle_type_id":"4","last_reported":1729433284,"current_range_meters":17200,"station_id":"ce4bhrh2rcd13ifvqhug","pricing_plan_id":"cebpf4jnsgd1na2vs0mg"},{"bike_id":"6671273e-6852-40f2-9400-98c739a8f645","system_id":"levelo_inurba_marseille","lat":43.2926,"lon":5.40904,"is_reserved":false,"is_disabled":false,"rental_uris":{"android":"levelo://app?vid=6671273e-6852-40f2-9400-98c739a8f645","ios":"levelo://app?vid=6671273e-6852-40f2-9400-98c739a8f645"},"vehicle_type_id":"4","last_reported":1729433284,"current_range_meters":9200,"station_id":"ce4bh192rcd13ifvqdc0","pricing_plan_id":"cebpf4jnsgd1na2vs0mg"},{"bike_id":"ed1e5003-3313-48b5-8d05-de760221319d","system_id":"levelo_inurba_marseille","lat":43.23063,"lon":5.3549,"is_reserved":false,"is_disabled":false,"rental_uris":{"android":"levelo://app?vid=ed1e5003-3313-48b5-8d05-de760221319d","ios":"levelo://app?vid=ed1e5003-3313-48b5-8d05-de760221319d"},"vehicle_type_id":"4","last_reported":1729433284,"current_range_meters":26800,"station_id":"cpo3342slgdg3j2ifvpg","pricing_plan_id":"cebpf4jnsgd1na2vs0mg"},{"bike_id":"13688a66-70dc-4161-963f-ef62efcb08c7","system_id":"levelo_inurba_marseille","lat":43.25117,"lon":5.40318,"is_reserved":false,"is_disabled":false,"rental_uris":{"android":"levelo://app?vid=13688a66-70dc-4161-963f-ef62efcb08c7","ios":"levelo://app?vid=13688a66-70dc-4161-963f-ef62efcb08c7"},"vehicle_type_id":"4","last_reported":1729433284,"current_range_meters":2000,"station_id":"ce4bhlh2rcd13ifvqgig","pricing_plan_id":"cebpf4jnsgd1na2vs0mg"},{"bike_id":"e279e206-22ab-45cf-b5f2-0e7905c68fca","system_id":"levelo_inurba_marseille","lat":43.30146,"lon":5.38071,"is_reserved":false,"is_disabled":false,"rental_uris":{"android":"levelo://app?vid=e279e206-22ab-45cf-b5f2-0e7905c68fca","ios":"levelo://app?vid=e279e206-22ab-45cf-b5f2-0e7905c68fca"},"vehicle_type_id":"4","last_reported":1729433284,"current_range_meters":6000,"station_id":"ce4bgjp2rcd13ifvqbh0","pricing_plan_id":"cebpf4jnsgd1na2vs0mg"},{"bike_id":"404b14be-518a-4d59-b4de-29dc31f3798d","system_id":"levelo_inurba_marseille","lat":43.27906,"lon":5.3801,"is_reserved":false,"is_disabled":false,"rental_uris":{"android":"levelo://app?vid=404b14be-518a-4d59-b4de-29dc31f3798d","ios":"levelo://app?vid=404b14be-518a-4d59-b4de-29dc31f3798d"},"vehicle_type_id":"4","last_reported":1729433284,"current_range_meters":22400,"station_id":"ce4bhf92rcd13ifvqf50","pricing_plan_id":"cebpf4jnsgd1na2vs0mg"},{"bike_id":"30c58473-7596-4192-9968-1e62083c0fc6","system_id":"levelo_inurba_marseille","lat":43.30461,"lon":5.37899,"is_reserved":false,"is_disabled":false,"rental_uris":{"android":"levelo://app?vid=30c58473-7596-4192-9968-1e62083c0fc6","ios":"levelo://app?vid=30c58473-7596-4192-9968-1e62083c0fc6"},"vehicle_type_id":"4","last_reported":1729433284,"current_range_meters":11600,"station_id":"ce4bgup2rcd13ifvqcn0","pricing_plan_id":"cebpf4jnsgd1na2vs0mg"},{"bike_id":"fafd28dd-e408-4bcd-b398-d4c0001f7820","system_id":"levelo_inurba_marseille","lat":43.23059,"lon":5.35492,"is_reserved":false,"is_disabled":false,"rental_uris":{"android":"levelo://app?vid=fafd28dd-e408-4bcd-b398-d4c0001f7820","ios":"levelo://app?vid=fafd28dd-e408-4bcd-b398-d4c0001f7820"},"vehicle_type_id":"4","last_reported":1729433284,"current_range_meters":8400,"station_id":"cpo3342slgdg3j2ifvpg","pricing_plan_id":"cebpf4jnsgd1na2vs0mg"},{"bike_id":"595711b7-de3f-41c9-b47f-ff6c3f6c4612","system_id":"levelo_inurba_marseille","lat":43.2307,"lon":5.35491,"is_reserved":false,"is_disabled":false,"rental_uris":{"android":"levelo://app?vid=595711b7-de3f-41c9-b47f-ff6c3f6c4612","ios":"levelo://app?vid=595711b7-de3f-41c9-b47f-ff6c3f6c4612"},"vehicle_type_id":"4","last_reported":1729433284,"current_range_meters":29600,"station_id":"cpo3342slgdg3j2ifvpg","pricing_plan_id":"cebpf4jnsgd1na2vs0mg"},{"bike_id":"503d6e76-7e87-4b5e-baa8-cb729c36f504","system_id":"levelo_inurba_marseille","lat":43.27052,"lon":5.40261,"is_reserved":false,"is_disabled":false,"rental_uris":{"android":"levelo://app?vid=503d6e76-7e87-4b5e-baa8-cb729c36f504","ios":"levelo://app?vid=503d6e76-7e87-4b5e-baa8-cb729c36f504"},"vehicle_type_id":"4","last_reported":1729433284,"current_range_meters":3600,"station_id":"ce4bhk92rcd13ifvqgc0","pricing_plan_id":"cebpf4jnsgd1na2vs0mg"},{"bike_id":"f3b18d4c-688e-4e02-9104-7f1d559134af","system_id":"levelo_inurba_marseille","lat":43.32099,"lon":5.36774,"is_reserved":false,"is_disabled":false,"rental_uris":{"android":"levelo://app?vid=f3b18d4c-688e-4e02-9104-7f1d559134af","ios":"levelo://app?vid=f3b18d4c-688e-4e02-9104-7f1d559134af"},"vehicle_type_id":"4","last_reported":1729433284,"current_range_meters":36400,"station_id":"ce4bhrh2rcd13ifvqhug","pricing_plan_id":"cebpf4jnsgd1na2vs0mg"},{"bike_id":"99a36e8e-83dc-4174-97c1-e95b5764b998","system_id":"levelo_inurba_marseille","lat":43.2396,"lon":5.36634,"is_reserved":false,"is_disabled":false,"rental_uris":{"android":"levelo://app?vid=99a36e8e-83dc-4174-97c1-e95b5764b998","ios":"levelo://app?vid=99a36e8e-83dc-4174-97c1-e95b5764b998"},"vehicle_type_id":"4","last_reported":1729433284,"current_range_meters":8800,"station_id":"ce4bhi12rcd13ifvqfp0","pricing_plan_id":"cebpf4jnsgd1na2vs0mg"},{"bike_id":"8a61b0d3-96ba-49fc-af75-dd8176297036","system_id":"levelo_inurba_marseille","lat":43.23958,"lon":5.36625,"is_reserved":false,"is_disabled":false,"rental_uris":{"android":"levelo://app?vid=8a61b0d3-96ba-49fc-af75-dd8176297036","ios":"levelo://app?vid=8a61b0d3-96ba-49fc-af75-dd8176297036"},"vehicle_type_id":"4","last_reported":1729433284,"current_range_meters":8800,"station_id":"ce4bhi12rcd13ifvqfp0","pricing_plan_id":"cebpf4jnsgd1na2vs0mg"},{"bike_id":"6e1b5ad3-df3b-4b8e-a3c9-6debca14fa36","system_id":"levelo_inurba_marseille","lat":43.255744,"lon":5.382302,"is_reserved":false,"is_disabled":false,"rental_uris":{"android":"levelo://app?vid=6e1b5ad3-df3b-4b8e-a3c9-6debca14fa36","ios":"levelo://app?vid=6e1b5ad3-df3b-4b8e-a3c9-6debca14fa36"},"vehicle_type_id":"4","last_reported":1729433284,"current_range_meters":24000,"station_id":"ce4bhih2rcd13ifvqfs0","pricing_plan_id":"cebpf4jnsgd1na2vs0mg"},{"bike_id":"6374ce30-6f7b-49b3-a513-73d110e30081","system_id":"levelo_inurba_marseille","lat":43.33024,"lon":5.39038,"is_reserved":false,"is_disabled":false,"rental_uris":{"android":"levelo://app?vid=6374ce30-6f7b-49b3-a513-73d110e30081","ios":"levelo://app?vid=6374ce30-6f7b-49b3-a513-73d110e30081"},"vehicle_type_id":"4","last_reported":1729433284,"current_range_meters":40000,"station_id":"ce4bhr92rcd13ifvqhrg","pricing_plan_id":"cebpf4jnsgd1na2vs0mg"},{"bike_id":"9834b4fc-87bb-449a-aaaf-d9fa9b836f03","system_id":"levelo_inurba_marseille","lat":43.28426,"lon":5.3498,"is_reserved":false,"is_disabled":false,"rental_uris":{"android":"levelo://app?vid=9834b4fc-87bb-449a-aaaf-d9fa9b836f03","ios":"levelo://app?vid=9834b4fc-87bb-449a-aaaf-d9fa9b836f03"},"vehicle_type_id":"4","last_reported":1729433284,"current_range_meters":12400,"station_id":"ce4bhbh2rcd13ifvqepg","pricing_plan_id":"cebpf4jnsgd1na2vs0mg"},{"bike_id":"e6995291-f44b-484a-9f9a-f02ad2446979","system_id":"levelo_inurba_marseille","lat":43.28424,"lon":5.34974,"is_reserved":false,"is_disabled":false,"rental_uris":{"android":"levelo://app?vid=e6995291-f44b-484a-9f9a-f02ad2446979","ios":"levelo://app?vid=e6995291-f44b-484a-9f9a-f02ad2446979"},"vehicle_type_id":"4","last_reported":1729433284,"current_range_meters":20800,"station_id":"ce4bhbh2rcd13ifvqepg","pricing_plan_id":"cebpf4jnsgd1na2vs0mg"},{"bike_id":"2130d4d9-d511-47a7-bf74-550f0efb9572","system_id":"levelo_inurba_marseille","lat":43.23196,"lon":5.35545,"is_reserved":false,"is_disabled":false,"rental_uris":{"android":"levelo://app?vid=2130d4d9-d511-47a7-bf74-550f0efb9572","ios":"levelo://app?vid=2130d4d9-d511-47a7-bf74-550f0efb9572"},"vehicle_type_id":"4","last_reported":1729433284,"current_range_meters":5600,"station_id":"ce4bhu92rcd13ifvqi70","pricing_plan_id":"cebpf4jnsgd1na2vs0mg"},{"bike_id":"74dfc011-b743-4437-ab18-1c0771d21816","system_id":"levelo_inurba_marseille","lat":43.29004,"lon":5.35614,"is_reserved":false,"is_disabled":false,"rental_uris":{"android":"levelo://app?vid=74dfc011-b743-4437-ab18-1c0771d21816","ios":"levelo://app?vid=74dfc011-b743-4437-ab18-1c0771d21816"},"vehicle_type_id":"4","last_reported":1729433284,"current_range_meters":38800,"station_id":"ce4bhb92rcd13ifvqen0","pricing_plan_id":"cebpf4jnsgd1na2vs0mg"},{"bike_id":"b84a0585-caea-4c03-adfc-0cd1a5924d21","system_id":"levelo_inurba_marseille","lat":43.28263,"lon":5.35072,"is_reserved":false,"is_disabled":false,"rental_uris":{"android":"levelo://app?vid=b84a0585-caea-4c03-adfc-0cd1a5924d21","ios":"levelo://app?vid=b84a0585-caea-4c03-adfc-0cd1a5924d21"},"vehicle_type_id":"4","last_reported":1729433284,"current_range_meters":39200,"station_id":"ce4bhbp2rcd13ifvqerg","pricing_plan_id":"cebpf4jnsgd1na2vs0mg"},{"bike_id":"865d56d8-3bdc-4f19-bbfd-efec386a1dd7","system_id":"levelo_inurba_marseille","lat":43.27996,"lon":5.40008,"is_reserved":false,"is_disabled":false,"rental_uris":{"android":"levelo://app?vid=865d56d8-3bdc-4f19-bbfd-efec386a1dd7","ios":"levelo://app?vid=865d56d8-3bdc-4f19-bbfd-efec386a1dd7"},"vehicle_type_id":"4","last_reported":1729433284,"current_range_meters":38000,"station_id":"ce4bho92rcd13ifvqh4g","pricing_plan_id":"cebpf4jnsgd1na2vs0mg"},{"bike_id":"4f357a8f-803f-4ef1-b82a-19fa9f305e74","system_id":"levelo_inurba_marseille","lat":43.23188,"lon":5.35549,"is_reserved":false,"is_disabled":false,"rental_uris":{"android":"levelo://app?vid=4f357a8f-803f-4ef1-b82a-19fa9f305e74","ios":"levelo://app?vid=4f357a8f-803f-4ef1-b82a-19fa9f305e74"},"vehicle_type_id":"4","last_reported":1729433284,"current_range_meters":36800,"station_id":"ce4bhu92rcd13ifvqi70","pricing_plan_id":"cebpf4jnsgd1na2vs0mg"},{"bike_id":"57d6c459-9f04-4869-8203-b0341cdb2874","system_id":"levelo_inurba_marseille","lat":43.290009,"lon":5.356181,"is_reserved":false,"is_disabled":false,"rental_uris":{"android":"levelo://app?vid=57d6c459-9f04-4869-8203-b0341cdb2874","ios":"levelo://app?vid=57d6c459-9f04-4869-8203-b0341cdb2874"},"vehicle_type_id":"4","last_reported":1729433284,"current_range_meters":19600,"station_id":"","pricing_plan_id":"cebpf4jnsgd1na2vs0mg"},{"bike_id":"00628067-a533-4c3d-ba92-5303b07ceaf2","system_id":"levelo_inurba_marseille","lat":43.24394,"lon":5.37067,"is_reserved":false,"is_disabled":false,"rental_uris":{"android":"levelo://app?vid=00628067-a533-4c3d-ba92-5303b07ceaf2","ios":"levelo://app?vid=00628067-a533-4c3d-ba92-5303b07ceaf2"},"vehicle_type_id":"4","last_reported":1729433284,"current_range_meters":30800,"station_id":"ce4bhhh2rcd13ifvqfk0","pricing_plan_id":"cebpf4jnsgd1na2vs0mg"},{"bike_id":"e78e5b07-8aad-4233-8caa-3a2852780ccb","system_id":"levelo_inurba_marseille","lat":43.23963,"lon":5.36636,"is_reserved":false,"is_disabled":false,"rental_uris":{"android":"levelo://app?vid=e78e5b07-8aad-4233-8caa-3a2852780ccb","ios":"levelo://app?vid=e78e5b07-8aad-4233-8caa-3a2852780ccb"},"vehicle_type_id":"4","last_reported":1729433284,"current_range_meters":16800,"station_id":"ce4bhi12rcd13ifvqfp0","pricing_plan_id":"cebpf4jnsgd1na2vs0mg"},{"bike_id":"9362a3c1-a524-424a-8405-9c9a41216ff5","system_id":"levelo_inurba_marseille","lat":43.28271,"lon":5.35067,"is_reserved":false,"is_disabled":false,"rental_uris":{"android":"levelo://app?vid=9362a3c1-a524-424a-8405-9c9a41216ff5","ios":"levelo://app?vid=9362a3c1-a524-424a-8405-9c9a41216ff5"},"vehicle_type_id":"4","last_reported":1729433284,"current_range_meters":36400,"station_id":"ce4bhbp2rcd13ifvqerg","pricing_plan_id":"cebpf4jnsgd1na2vs0mg"},{"bike_id":"3c807220-758f-40c8-b4f1-96669d1b8d8b","system_id":"levelo_inurba_marseille","lat":43.23193,"lon":5.35557,"is_reserved":false,"is_disabled":false,"rental_uris":{"android":"levelo://app?vid=3c807220-758f-40c8-b4f1-96669d1b8d8b","ios":"levelo://app?vid=3c807220-758f-40c8-b4f1-96669d1b8d8b"},"vehicle_type_id":"4","last_reported":1729433284,"current_range_meters":33200,"station_id":"ce4bhu92rcd13ifvqi70","pricing_plan_id":"cebpf4jnsgd1na2vs0mg"},{"bike_id":"c11b0555-b997-4036-8536-79587f1a9f2e","system_id":"levelo_inurba_marseille","lat":43.27673,"lon":5.389,"is_reserved":false,"is_disabled":false,"rental_uris":{"android":"levelo://app?vid=c11b0555-b997-4036-8536-79587f1a9f2e","ios":"levelo://app?vid=c11b0555-b997-4036-8536-79587f1a9f2e"},"vehicle_type_id":"4","last_reported":1729433284,"current_range_meters":32000,"station_id":"ce4bhi12rcd13ifvqfo0","pricing_plan_id":"cebpf4jnsgd1na2vs0mg"},{"bike_id":"82a00698-baf1-4c5e-9fb6-f2047fe95aea","system_id":"levelo_inurba_marseille","lat":43.28155,"lon":5.42642,"is_reserved":false,"is_disabled":false,"rental_uris":{"android":"levelo://app?vid=82a00698-baf1-4c5e-9fb6-f2047fe95aea","ios":"levelo://app?vid=82a00698-baf1-4c5e-9fb6-f2047fe95aea"},"vehicle_type_id":"4","last_reported":1729433284,"current_range_meters":14000,"station_id":"ce4bhnh2rcd13ifvqgug","pricing_plan_id":"cebpf4jnsgd1na2vs0mg"},{"bike_id":"e96ea3e4-ed8e-427d-9aee-aa0543b38893","system_id":"levelo_inurba_marseille","lat":43.286072,"lon":5.351067,"is_reserved":false,"is_disabled":false,"rental_uris":{"android":"levelo://app?vid=e96ea3e4-ed8e-427d-9aee-aa0543b38893","ios":"levelo://app?vid=e96ea3e4-ed8e-427d-9aee-aa0543b38893"},"vehicle_type_id":"4","last_reported":1729433284,"current_range_meters":34800,"station_id":"ce4bhch2rcd13ifvqeug","pricing_plan_id":"cebpf4jnsgd1na2vs0mg"},{"bike_id":"108d45f3-d15d-47be-84a6-b8c459688d6a","system_id":"levelo_inurba_marseille","lat":43.26943,"lon":5.40245,"is_reserved":false,"is_disabled":false,"rental_uris":{"android":"levelo://app?vid=108d45f3-d15d-47be-84a6-b8c459688d6a","ios":"levelo://app?vid=108d45f3-d15d-47be-84a6-b8c459688d6a"},"vehicle_type_id":"4","last_reported":1729433284,"current_range_meters":24000,"station_id":"cjm6bp8fraef2m0cb0m0","pricing_plan_id":"cebpf4jnsgd1na2vs0mg"},{"bike_id":"47074052-e8df-4045-9540-913f8ec86e52","system_id":"levelo_inurba_marseille","lat":43.27813,"lon":5.4071,"is_reserved":false,"is_disabled":false,"rental_uris":{"android":"levelo://app?vid=47074052-e8df-4045-9540-913f8ec86e52","ios":"levelo://app?vid=47074052-e8df-4045-9540-913f8ec86e52"},"vehicle_type_id":"4","last_reported":1729433284,"current_range_meters":16800,"station_id":"ce4bhnh2rcd13ifvqgtg","pricing_plan_id":"cebpf4jnsgd1na2vs0mg"},{"bike_id":"b93b21c1-6660-47dd-b694-c09472999d91","system_id":"levelo_inurba_marseille","lat":43.31369,"lon":5.38495,"is_reserved":false,"is_disabled":false,"rental_uris":{"android":"levelo://app?vid=b93b21c1-6660-47dd-b694-c09472999d91","ios":"levelo://app?vid=b93b21c1-6660-47dd-b694-c09472999d91"},"vehicle_type_id":"4","last_reported":1729433284,"current_range_meters":25200,"station_id":"ce4bgt92rcd13ifvqcf0","pricing_plan_id":"cebpf4jnsgd1na2vs0mg"},{"bike_id":"77291753-8c8c-4497-aa81-5ef2d0e5d1d8","system_id":"levelo_inurba_marseille","lat":43.28428,"lon":5.34978,"is_reserved":false,"is_disabled":false,"rental_uris":{"android":"levelo://app?vid=77291753-8c8c-4497-aa81-5ef2d0e5d1d8","ios":"levelo://app?vid=77291753-8c8c-4497-aa81-5ef2d0e5d1d8"},"vehicle_type_id":"4","last_reported":1729433284,"current_range_meters":34800,"station_id":"ce4bhbh2rcd13ifvqepg","pricing_plan_id":"cebpf4jnsgd1na2vs0mg"},{"bike_id":"032dfc03-df23-4185-8f22-f19c9f62b065","system_id":"levelo_inurba_marseille","lat":43.29529,"lon":5.39023,"is_reserved":false,"is_disabled":false,"rental_uris":{"android":"levelo://app?vid=032dfc03-df23-4185-8f22-f19c9f62b065","ios":"levelo://app?vid=032dfc03-df23-4185-8f22-f19c9f62b065"},"vehicle_type_id":"4","last_reported":1729433284,"current_range_meters":2000,"station_id":"ce4bh3p2rcd13ifvqdp0","pricing_plan_id":"cebpf4jnsgd1na2vs0mg"},{"bike_id":"2d9e3df1-0dca-43ea-b82c-f5159aab9faa","system_id":"levelo_inurba_marseille","lat":43.23962,"lon":5.36641,"is_reserved":false,"is_disabled":false,"rental_uris":{"android":"levelo://app?vid=2d9e3df1-0dca-43ea-b82c-f5159aab9faa","ios":"levelo://app?vid=2d9e3df1-0dca-43ea-b82c-f5159aab9faa"},"vehicle_type_id":"4","last_reported":1729433284,"current_range_meters":18800,"station_id":"ce4bhi12rcd13ifvqfp0","pricing_plan_id":"cebpf4jnsgd1na2vs0mg"},{"bike_id":"bf24d256-8265-4904-871b-7092d76f5df5","system_id":"levelo_inurba_marseille","lat":43.25582,"lon":5.38232,"is_reserved":false,"is_disabled":false,"rental_uris":{"android":"levelo://app?vid=bf24d256-8265-4904-871b-7092d76f5df5","ios":"levelo://app?vid=bf24d256-8265-4904-871b-7092d76f5df5"},"vehicle_type_id":"4","last_reported":1729433284,"current_range_meters":38000,"station_id":"ce4bhih2rcd13ifvqfs0","pricing_plan_id":"cebpf4jnsgd1na2vs0mg"},{"bike_id":"d1ca469b-b396-4867-8b4f-97c7673ce247","system_id":"levelo_inurba_marseille","lat":43.32479,"lon":5.3657,"is_reserved":false,"is_disabled":false,"rental_uris":{"android":"levelo://app?vid=d1ca469b-b396-4867-8b4f-97c7673ce247","ios":"levelo://app?vid=d1ca469b-b396-4867-8b4f-97c7673ce247"},"vehicle_type_id":"4","last_reported":1729433284,"current_range_meters":11200,"station_id":"ce4bhs12rcd13ifvqhvg","pricing_plan_id":"cebpf4jnsgd1na2vs0mg"},{"bike_id":"765477b4-7648-4c7a-8240-1916f126a509","system_id":"levelo_inurba_marseille","lat":43.2815,"lon":5.42641,"is_reserved":false,"is_disabled":false,"rental_uris":{"android":"levelo://app?vid=765477b4-7648-4c7a-8240-1916f126a509","ios":"levelo://app?vid=765477b4-7648-4c7a-8240-1916f126a509"},"vehicle_type_id":"4","last_reported":1729433284,"current_range_meters":37600,"station_id":"ce4bhnh2rcd13ifvqgug","pricing_plan_id":"cebpf4jnsgd1na2vs0mg"},{"bike_id":"5c28a995-646a-4a1d-888e-296e57e3c789","system_id":"levelo_inurba_marseille","lat":43.2396,"lon":5.36637,"is_reserved":false,"is_disabled":false,"rental_uris":{"android":"levelo://app?vid=5c28a995-646a-4a1d-888e-296e57e3c789","ios":"levelo://app?vid=5c28a995-646a-4a1d-888e-296e57e3c789"},"vehicle_type_id":"4","last_reported":1729433284,"current_range_meters":30800,"station_id":"ce4bhi12rcd13ifvqfp0","pricing_plan_id":"cebpf4jnsgd1na2vs0mg"},{"bike_id":"f8616216-5cf6-4bfa-a4c7-750905418f81","system_id":"levelo_inurba_marseille","lat":43.26677,"lon":5.38267,"is_reserved":false,"is_disabled":false,"rental_uris":{"android":"levelo://app?vid=f8616216-5cf6-4bfa-a4c7-750905418f81","ios":"levelo://app?vid=f8616216-5cf6-4bfa-a4c7-750905418f81"},"vehicle_type_id":"4","last_reported":1729433284,"current_range_meters":27200,"station_id":"ce4bhg92rcd13ifvqf90","pricing_plan_id":"cebpf4jnsgd1na2vs0mg"},{"bike_id":"758c6577-fd26-423c-9903-150e329b236b","system_id":"levelo_inurba_marseille","lat":43.28424,"lon":5.34991,"is_reserved":false,"is_disabled":false,"rental_uris":{"android":"levelo://app?vid=758c6577-fd26-423c-9903-150e329b236b","ios":"levelo://app?vid=758c6577-fd26-423c-9903-150e329b236b"},"vehicle_type_id":"4","last_reported":1729433284,"current_range_meters":26000,"station_id":"ce4bhbh2rcd13ifvqepg","pricing_plan_id":"cebpf4jnsgd1na2vs0mg"},{"bike_id":"818162d3-fdfb-450d-a61d-c6730161d1e7","system_id":"levelo_inurba_marseille","lat":43.2827,"lon":5.3506,"is_reserved":false,"is_disabled":false,"rental_uris":{"android":"levelo://app?vid=818162d3-fdfb-450d-a61d-c6730161d1e7","ios":"levelo://app?vid=818162d3-fdfb-450d-a61d-c6730161d1e7"},"vehicle_type_id":"4","last_reported":1729433284,"current_range_meters":13600,"station_id":"ce4bhbp2rcd13ifvqerg","pricing_plan_id":"cebpf4jnsgd1na2vs0mg"},{"bike_id":"73834f8c-ef12-4652-8f75-18c4940f7a00","system_id":"levelo_inurba_marseille","lat":43.3372,"lon":5.3918,"is_reserved":false,"is_disabled":false,"rental_uris":{"android":"levelo://app?vid=73834f8c-ef12-4652-8f75-18c4940f7a00","ios":"levelo://app?vid=73834f8c-ef12-4652-8f75-18c4940f7a00"},"vehicle_type_id":"4","last_reported":1729433284,"current_range_meters":38400,"station_id":"ce4bhr92rcd13ifvqhsg","pricing_plan_id":"cebpf4jnsgd1na2vs0mg"},{"bike_id":"92f7df7d-df24-487b-bd50-576b9b8a64f3","system_id":"levelo_inurba_marseille","lat":43.28269,"lon":5.35062,"is_reserved":false,"is_disabled":false,"rental_uris":{"android":"levelo://app?vid=92f7df7d-df24-487b-bd50-576b9b8a64f3","ios":"levelo://app?vid=92f7df7d-df24-487b-bd50-576b9b8a64f3"},"vehicle_type_id":"4","last_reported":1729433284,"current_range_meters":20400,"station_id":"ce4bhbp2rcd13ifvqerg","pricing_plan_id":"cebpf4jnsgd1na2vs0mg"},{"bike_id":"34d83802-4336-4ce1-a0bb-1bdfbef852b6","system_id":"levelo_inurba_marseille","lat":43.27378,"lon":5.36263,"is_reserved":false,"is_disabled":false,"rental_uris":{"android":"levelo://app?vid=34d83802-4336-4ce1-a0bb-1bdfbef852b6","ios":"levelo://app?vid=34d83802-4336-4ce1-a0bb-1bdfbef852b6"},"vehicle_type_id":"4","last_reported":1729433284,"current_range_meters":4000,"station_id":"ce4bhbh2rcd13ifvqeo0","pricing_plan_id":"cebpf4jnsgd1na2vs0mg"},{"bike_id":"4e0894e0-6fe1-48af-8a91-4a96273b6b3b","system_id":"levelo_inurba_marseille","lat":43.28656,"lon":5.36363,"is_reserved":false,"is_disabled":false,"rental_uris":{"android":"levelo://app?vid=4e0894e0-6fe1-48af-8a91-4a96273b6b3b","ios":"levelo://app?vid=4e0894e0-6fe1-48af-8a91-4a96273b6b3b"},"vehicle_type_id":"4","last_reported":1729433284,"current_range_meters":9200,"station_id":"ce4bhah2rcd13ifvqej0","pricing_plan_id":"cebpf4jnsgd1na2vs0mg"},{"bike_id":"04e07c9f-e695-475f-91a9-9f8528c6ad40","system_id":"levelo_inurba_marseille","lat":43.286658,"lon":5.363484,"is_reserved":false,"is_disabled":false,"rental_uris":{"android":"levelo://app?vid=04e07c9f-e695-475f-91a9-9f8528c6ad40","ios":"levelo://app?vid=04e07c9f-e695-475f-91a9-9f8528c6ad40"},"vehicle_type_id":"4","last_reported":1729433284,"current_range_meters":30800,"station_id":"ce4bhah2rcd13ifvqej0","pricing_plan_id":"cebpf4jnsgd1na2vs0mg"},{"bike_id":"401d27b2-8f28-45bb-8c0a-e379ec341dd1","system_id":"levelo_inurba_marseille","lat":43.23961,"lon":5.36633,"is_reserved":false,"is_disabled":false,"rental_uris":{"android":"levelo://app?vid=401d27b2-8f28-45bb-8c0a-e379ec341dd1","ios":"levelo://app?vid=401d27b2-8f28-45bb-8c0a-e379ec341dd1"},"vehicle_type_id":"4","last_reported":1729433284,"current_range_meters":32400,"station_id":"ce4bhi12rcd13ifvqfp0","pricing_plan_id":"cebpf4jnsgd1na2vs0mg"},{"bike_id":"beca9e2b-9312-4b82-8821-51b3c34e1bbc","system_id":"levelo_inurba_marseille","lat":43.293629,"lon":5.409688,"is_reserved":false,"is_disabled":false,"rental_uris":{"android":"levelo://app?vid=beca9e2b-9312-4b82-8821-51b3c34e1bbc","ios":"levelo://app?vid=beca9e2b-9312-4b82-8821-51b3c34e1bbc"},"vehicle_type_id":"4","last_reported":1729433284,"current_range_meters":38000,"station_id":"ce4bh192rcd13ifvqdc0","pricing_plan_id":"cebpf4jnsgd1na2vs0mg"},{"bike_id":"4371b94a-1d01-4533-af2e-6f0207d79614","system_id":"levelo_inurba_marseille","lat":43.25089,"lon":5.39511,"is_reserved":false,"is_disabled":false,"rental_uris":{"android":"levelo://app?vid=4371b94a-1d01-4533-af2e-6f0207d79614","ios":"levelo://app?vid=4371b94a-1d01-4533-af2e-6f0207d79614"},"vehicle_type_id":"4","last_reported":1729433284,"current_range_meters":38800,"station_id":"ce4bhm12rcd13ifvqgkg","pricing_plan_id":"cebpf4jnsgd1na2vs0mg"},{"bike_id":"bcb80b17-b6f4-4300-a509-fc684f5adc3c","system_id":"levelo_inurba_marseille","lat":43.24646,"lon":5.38889,"is_reserved":false,"is_disabled":false,"rental_uris":{"android":"levelo://app?vid=bcb80b17-b6f4-4300-a509-fc684f5adc3c","ios":"levelo://app?vid=bcb80b17-b6f4-4300-a509-fc684f5adc3c"},"vehicle_type_id":"4","last_reported":1729433284,"current_range_meters":12400,"station_id":"ce4bhg12rcd13ifvqf60","pricing_plan_id":"cebpf4jnsgd1na2vs0mg"},{"bike_id":"e763b073-5a94-4589-9601-273378e53e4c","system_id":"levelo_inurba_marseille","lat":43.28426,"lon":5.34984,"is_reserved":false,"is_disabled":false,"rental_uris":{"android":"levelo://app?vid=e763b073-5a94-4589-9601-273378e53e4c","ios":"levelo://app?vid=e763b073-5a94-4589-9601-273378e53e4c"},"vehicle_type_id":"4","last_reported":1729433284,"current_range_meters":36000,"station_id":"ce4bhbh2rcd13ifvqepg","pricing_plan_id":"cebpf4jnsgd1na2vs0mg"},{"bike_id":"f739c5a5-6cc1-4a10-9151-8d8447774477","system_id":"levelo_inurba_marseille","lat":43.28423,"lon":5.34983,"is_reserved":false,"is_disabled":false,"rental_uris":{"android":"levelo://app?vid=f739c5a5-6cc1-4a10-9151-8d8447774477","ios":"levelo://app?vid=f739c5a5-6cc1-4a10-9151-8d8447774477"},"vehicle_type_id":"4","last_reported":1729433284,"current_range_meters":40000,"station_id":"ce4bhbh2rcd13ifvqepg","pricing_plan_id":"cebpf4jnsgd1na2vs0mg"},{"bike_id":"76f295ea-d360-476d-a25f-70a5eae17f4c","system_id":"levelo_inurba_marseille","lat":43.26554,"lon":5.37285,"is_reserved":false,"is_disabled":false,"rental_uris":{"android":"levelo://app?vid=76f295ea-d360-476d-a25f-70a5eae17f4c","ios":"levelo://app?vid=76f295ea-d360-476d-a25f-70a5eae17f4c"},"vehicle_type_id":"4","last_reported":1729433284,"current_range_meters":38400,"station_id":"ce4bhg12rcd13ifvqf70","pricing_plan_id":"cebpf4jnsgd1na2vs0mg"},{"bike_id":"aae3968a-5ae5-48ad-b364-2bd801957906","system_id":"levelo_inurba_marseille","lat":43.26555,"lon":5.37284,"is_reserved":false,"is_disabled":false,"rental_uris":{"android":"levelo://app?vid=aae3968a-5ae5-48ad-b364-2bd801957906","ios":"levelo://app?vid=aae3968a-5ae5-48ad-b364-2bd801957906"},"vehicle_type_id":"4","last_reported":1729433284,"current_range_meters":11600,"station_id":"ce4bhg12rcd13ifvqf70","pricing_plan_id":"cebpf4jnsgd1na2vs0mg"},{"bike_id":"934f41bb-e9a6-4b5a-9e87-8b8cfc5f3ca4","system_id":"levelo_inurba_marseille","lat":43.26216,"lon":5.37442,"is_reserved":false,"is_disabled":false,"rental_uris":{"android":"levelo://app?vid=934f41bb-e9a6-4b5a-9e87-8b8cfc5f3ca4","ios":"levelo://app?vid=934f41bb-e9a6-4b5a-9e87-8b8cfc5f3ca4"},"vehicle_type_id":"4","last_reported":1729433284,"current_range_meters":35200,"station_id":"ce4bhgp2rcd13ifvqfc0","pricing_plan_id":"cebpf4jnsgd1na2vs0mg"},{"bike_id":"a24e8816-717f-4263-9eaf-6627ea0c63bb","system_id":"levelo_inurba_marseille","lat":43.29967,"lon":5.38488,"is_reserved":false,"is_disabled":false,"rental_uris":{"android":"levelo://app?vid=a24e8816-717f-4263-9eaf-6627ea0c63bb","ios":"levelo://app?vid=a24e8816-717f-4263-9eaf-6627ea0c63bb"},"vehicle_type_id":"4","last_reported":1729433284,"current_range_meters":33600,"station_id":"ce4bgj92rcd13ifvqbd0","pricing_plan_id":"cebpf4jnsgd1na2vs0mg"},{"bike_id":"1c530c3b-9193-4777-ad8c-d59eb4acf097","system_id":"levelo_inurba_marseille","lat":43.32111,"lon":5.36767,"is_reserved":false,"is_disabled":false,"rental_uris":{"android":"levelo://app?vid=1c530c3b-9193-4777-ad8c-d59eb4acf097","ios":"levelo://app?vid=1c530c3b-9193-4777-ad8c-d59eb4acf097"},"vehicle_type_id":"4","last_reported":1729433284,"current_range_meters":26000,"station_id":"ce4bhrh2rcd13ifvqhug","pricing_plan_id":"cebpf4jnsgd1na2vs0mg"},{"bike_id":"fbfcbd69-1ba6-4c5b-980c-7ec2f0d40109","system_id":"levelo_inurba_marseille","lat":43.301552,"lon":5.381188,"is_reserved":false,"is_disabled":false,"rental_uris":{"android":"levelo://app?vid=fbfcbd69-1ba6-4c5b-980c-7ec2f0d40109","ios":"levelo://app?vid=fbfcbd69-1ba6-4c5b-980c-7ec2f0d40109"},"vehicle_type_id":"4","last_reported":1729433284,"current_range_meters":16800,"station_id":"ce4bgjp2rcd13ifvqbh0","pricing_plan_id":"cebpf4jnsgd1na2vs0mg"},{"bike_id":"9f29687f-0f84-4411-9920-df12c19fb597","system_id":"levelo_inurba_marseille","lat":43.25204,"lon":5.37342,"is_reserved":false,"is_disabled":false,"rental_uris":{"android":"levelo://app?vid=9f29687f-0f84-4411-9920-df12c19fb597","ios":"levelo://app?vid=9f29687f-0f84-4411-9920-df12c19fb597"},"vehicle_type_id":"4","last_reported":1729433284,"current_range_meters":2800,"station_id":"","pricing_plan_id":"cebpf4jnsgd1na2vs0mg"},{"bike_id":"c3f0c283-b452-4e4f-a5af-890f36eb2134","system_id":"levelo_inurba_marseille","lat":43.2417,"lon":5.36402,"is_reserved":false,"is_disabled":false,"rental_uris":{"android":"levelo://app?vid=c3f0c283-b452-4e4f-a5af-890f36eb2134","ios":"levelo://app?vid=c3f0c283-b452-4e4f-a5af-890f36eb2134"},"vehicle_type_id":"4","last_reported":1729433284,"current_range_meters":26800,"station_id":"cpo36qri1sfpv3e86is0","pricing_plan_id":"cebpf4jnsgd1na2vs0mg"},{"bike_id":"996b68ea-a3b8-48c9-9cf2-f66df1d63882","system_id":"levelo_inurba_marseille","lat":43.23195,"lon":5.35548,"is_reserved":false,"is_disabled":false,"rental_uris":{"android":"levelo://app?vid=996b68ea-a3b8-48c9-9cf2-f66df1d63882","ios":"levelo://app?vid=996b68ea-a3b8-48c9-9cf2-f66df1d63882"},"vehicle_type_id":"4","last_reported":1729433284,"current_range_meters":10800,"station_id":"ce4bhu92rcd13ifvqi70","pricing_plan_id":"cebpf4jnsgd1na2vs0mg"},{"bike_id":"4b3496a2-d393-48e7-b24c-bc5f8d6f4d51","system_id":"levelo_inurba_marseille","lat":43.23955,"lon":5.36626,"is_reserved":false,"is_disabled":false,"rental_uris":{"android":"levelo://app?vid=4b3496a2-d393-48e7-b24c-bc5f8d6f4d51","ios":"levelo://app?vid=4b3496a2-d393-48e7-b24c-bc5f8d6f4d51"},"vehicle_type_id":"4","last_reported":1729433284,"current_range_meters":30800,"station_id":"ce4bhi12rcd13ifvqfp0","pricing_plan_id":"cebpf4jnsgd1na2vs0mg"},{"bike_id":"c16bec19-2b1a-41a3-951b-5d2f2ff99be0","system_id":"levelo_inurba_marseille","lat":43.27377,"lon":5.36257,"is_reserved":false,"is_disabled":false,"rental_uris":{"android":"levelo://app?vid=c16bec19-2b1a-41a3-951b-5d2f2ff99be0","ios":"levelo://app?vid=c16bec19-2b1a-41a3-951b-5d2f2ff99be0"},"vehicle_type_id":"4","last_reported":1729433284,"current_range_meters":8400,"station_id":"ce4bhbh2rcd13ifvqeo0","pricing_plan_id":"cebpf4jnsgd1na2vs0mg"},{"bike_id":"e14d615c-73ea-431a-9ff6-0ed950a9fac7","system_id":"levelo_inurba_marseille","lat":43.24391,"lon":5.37061,"is_reserved":false,"is_disabled":false,"rental_uris":{"android":"levelo://app?vid=e14d615c-73ea-431a-9ff6-0ed950a9fac7","ios":"levelo://app?vid=e14d615c-73ea-431a-9ff6-0ed950a9fac7"},"vehicle_type_id":"4","last_reported":1729433284,"current_range_meters":32800,"station_id":"ce4bhhh2rcd13ifvqfk0","pricing_plan_id":"cebpf4jnsgd1na2vs0mg"},{"bike_id":"f5ce080e-0d27-4cd8-9d44-66dc7dd0793e","system_id":"levelo_inurba_marseille","lat":43.28417,"lon":5.3499,"is_reserved":false,"is_disabled":false,"rental_uris":{"android":"levelo://app?vid=f5ce080e-0d27-4cd8-9d44-66dc7dd0793e","ios":"levelo://app?vid=f5ce080e-0d27-4cd8-9d44-66dc7dd0793e"},"vehicle_type_id":"4","last_reported":1729433284,"current_range_meters":6400,"station_id":"ce4bhbh2rcd13ifvqepg","pricing_plan_id":"cebpf4jnsgd1na2vs0mg"},{"bike_id":"3c63acc5-e1f7-42b2-9526-3daa93ac094f","system_id":"levelo_inurba_marseille","lat":43.24386,"lon":5.37058,"is_reserved":false,"is_disabled":false,"rental_uris":{"android":"levelo://app?vid=3c63acc5-e1f7-42b2-9526-3daa93ac094f","ios":"levelo://app?vid=3c63acc5-e1f7-42b2-9526-3daa93ac094f"},"vehicle_type_id":"4","last_reported":1729433284,"current_range_meters":39200,"station_id":"ce4bhhh2rcd13ifvqfk0","pricing_plan_id":"cebpf4jnsgd1na2vs0mg"},{"bike_id":"f45bb6e6-c8a1-410c-987a-0cd0349197ae","system_id":"levelo_inurba_marseille","lat":43.29226,"lon":5.36049,"is_reserved":false,"is_disabled":false,"rental_uris":{"android":"levelo://app?vid=f45bb6e6-c8a1-410c-987a-0cd0349197ae","ios":"levelo://app?vid=f45bb6e6-c8a1-410c-987a-0cd0349197ae"},"vehicle_type_id":"4","last_reported":1729433284,"current_range_meters":3200,"station_id":"ce4bhbh2rcd13ifvqeqg","pricing_plan_id":"cebpf4jnsgd1na2vs0mg"},{"bike_id":"e9a6d85d-70e2-402b-90eb-502b3aedbdb3","system_id":"levelo_inurba_marseille","lat":43.29165,"lon":5.37914,"is_reserved":false,"is_disabled":false,"rental_uris":{"android":"levelo://app?vid=e9a6d85d-70e2-402b-90eb-502b3aedbdb3","ios":"levelo://app?vid=e9a6d85d-70e2-402b-90eb-502b3aedbdb3"},"vehicle_type_id":"4","last_reported":1729433284,"current_range_meters":9200,"station_id":"","pricing_plan_id":"cebpf4jnsgd1na2vs0mg"},{"bike_id":"59c616fb-ad54-4f24-bbca-d26836e35d95","system_id":"levelo_inurba_marseille","lat":43.29901,"lon":5.436642,"is_reserved":false,"is_disabled":false,"rental_uris":{"android":"levelo://app?vid=59c616fb-ad54-4f24-bbca-d26836e35d95","ios":"levelo://app?vid=59c616fb-ad54-4f24-bbca-d26836e35d95"},"vehicle_type_id":"4","last_reported":1729433284,"current_range_meters":9200,"station_id":"ce4bhpp2rcd13ifvqhfg","pricing_plan_id":"cebpf4jnsgd1na2vs0mg"},{"bike_id":"551e4cae-27ad-43f8-bfc5-8e0a93c14612","system_id":"levelo_inurba_marseille","lat":43.32106,"lon":5.36776,"is_reserved":false,"is_disabled":false,"rental_uris":{"android":"levelo://app?vid=551e4cae-27ad-43f8-bfc5-8e0a93c14612","ios":"levelo://app?vid=551e4cae-27ad-43f8-bfc5-8e0a93c14612"},"vehicle_type_id":"4","last_reported":1729433284,"current_range_meters":37600,"station_id":"ce4bhrh2rcd13ifvqhug","pricing_plan_id":"cebpf4jnsgd1na2vs0mg"},{"bike_id":"d6b6d9c6-c04c-44c6-9708-54056b46823b","system_id":"levelo_inurba_marseille","lat":43.24178,"lon":5.38819,"is_reserved":false,"is_disabled":false,"rental_uris":{"android":"levelo://app?vid=d6b6d9c6-c04c-44c6-9708-54056b46823b","ios":"levelo://app?vid=d6b6d9c6-c04c-44c6-9708-54056b46823b"},"vehicle_type_id":"4","last_reported":1729433284,"current_range_meters":13600,"station_id":"","pricing_plan_id":"cebpf4jnsgd1na2vs0mg"},{"bike_id":"8e76b1d2-291c-4ab4-b66f-76dab755a51c","system_id":"levelo_inurba_marseille","lat":43.2655,"lon":5.37283,"is_reserved":false,"is_disabled":false,"rental_uris":{"android":"levelo://app?vid=8e76b1d2-291c-4ab4-b66f-76dab755a51c","ios":"levelo://app?vid=8e76b1d2-291c-4ab4-b66f-76dab755a51c"},"vehicle_type_id":"4","last_reported":1729433284,"current_range_meters":31200,"station_id":"ce4bhg12rcd13ifvqf70","pricing_plan_id":"cebpf4jnsgd1na2vs0mg"},{"bike_id":"1935cdcd-2aea-43c4-a1d5-d52d7ca4a70b","system_id":"levelo_inurba_marseille","lat":43.23191,"lon":5.35551,"is_reserved":false,"is_disabled":false,"rental_uris":{"android":"levelo://app?vid=1935cdcd-2aea-43c4-a1d5-d52d7ca4a70b","ios":"levelo://app?vid=1935cdcd-2aea-43c4-a1d5-d52d7ca4a70b"},"vehicle_type_id":"4","last_reported":1729433284,"current_range_meters":4400,"station_id":"ce4bhu92rcd13ifvqi70","pricing_plan_id":"cebpf4jnsgd1na2vs0mg"},{"bike_id":"1215aa2a-c16f-4790-b8d4-334a350f58f7","system_id":"levelo_inurba_marseille","lat":43.27694,"lon":5.41925,"is_reserved":false,"is_disabled":false,"rental_uris":{"android":"levelo://app?vid=1215aa2a-c16f-4790-b8d4-334a350f58f7","ios":"levelo://app?vid=1215aa2a-c16f-4790-b8d4-334a350f58f7"},"vehicle_type_id":"4","last_reported":1729433284,"current_range_meters":27600,"station_id":"","pricing_plan_id":"cebpf4jnsgd1na2vs0mg"},{"bike_id":"73325757-bcec-4896-9227-2317d4faf9c9","system_id":"levelo_inurba_marseille","lat":43.23193,"lon":5.35557,"is_reserved":false,"is_disabled":false,"rental_uris":{"android":"levelo://app?vid=73325757-bcec-4896-9227-2317d4faf9c9","ios":"levelo://app?vid=73325757-bcec-4896-9227-2317d4faf9c9"},"vehicle_type_id":"4","last_reported":1729433284,"current_range_meters":14800,"station_id":"ce4bhu92rcd13ifvqi70","pricing_plan_id":"cebpf4jnsgd1na2vs0mg"},{"bike_id":"b1c2ef30-3523-4332-bce0-ba6e39ba2e0a","system_id":"levelo_inurba_marseille","lat":43.23957,"lon":5.36621,"is_reserved":false,"is_disabled":false,"rental_uris":{"android":"levelo://app?vid=b1c2ef30-3523-4332-bce0-ba6e39ba2e0a","ios":"levelo://app?vid=b1c2ef30-3523-4332-bce0-ba6e39ba2e0a"},"vehicle_type_id":"4","last_reported":1729433284,"current_range_meters":10000,"station_id":"ce4bhi12rcd13ifvqfp0","pricing_plan_id":"cebpf4jnsgd1na2vs0mg"},{"bike_id":"2dfc9ca1-072f-43ec-8728-f283e2dab856","system_id":"levelo_inurba_marseille","lat":43.27205,"lon":5.39192,"is_reserved":false,"is_disabled":false,"rental_uris":{"android":"levelo://app?vid=2dfc9ca1-072f-43ec-8728-f283e2dab856","ios":"levelo://app?vid=2dfc9ca1-072f-43ec-8728-f283e2dab856"},"vehicle_type_id":"4","last_reported":1729433284,"current_range_meters":28800,"station_id":"ce4bhhp2rcd13ifvqfm0","pricing_plan_id":"cebpf4jnsgd1na2vs0mg"},{"bike_id":"239b6e4d-0545-467e-8037-5e69f0143c10","system_id":"levelo_inurba_marseille","lat":43.23967,"lon":5.3663,"is_reserved":false,"is_disabled":false,"rental_uris":{"android":"levelo://app?vid=239b6e4d-0545-467e-8037-5e69f0143c10","ios":"levelo://app?vid=239b6e4d-0545-467e-8037-5e69f0143c10"},"vehicle_type_id":"4","last_reported":1729433284,"current_range_meters":17200,"station_id":"ce4bhi12rcd13ifvqfp0","pricing_plan_id":"cebpf4jnsgd1na2vs0mg"},{"bike_id":"3efba5df-c492-459f-b740-dbbf8b24debd","system_id":"levelo_inurba_marseille","lat":43.23181,"lon":5.39982,"is_reserved":false,"is_disabled":false,"rental_uris":{"android":"levelo://app?vid=3efba5df-c492-459f-b740-dbbf8b24debd","ios":"levelo://app?vid=3efba5df-c492-459f-b740-dbbf8b24debd"},"vehicle_type_id":"4","last_reported":1729433284,"current_range_meters":16400,"station_id":"ce4bhn12rcd13ifvqgqg","pricing_plan_id":"cebpf4jnsgd1na2vs0mg"},{"bike_id":"c98f4c26-c549-47b0-af33-180a8b33055f","system_id":"levelo_inurba_marseille","lat":43.27965,"lon":5.38747,"is_reserved":false,"is_disabled":false,"rental_uris":{"android":"levelo://app?vid=c98f4c26-c549-47b0-af33-180a8b33055f","ios":"levelo://app?vid=c98f4c26-c549-47b0-af33-180a8b33055f"},"vehicle_type_id":"4","last_reported":1729433284,"current_range_meters":35200,"station_id":"ce4bhg12rcd13ifvqf80","pricing_plan_id":"cebpf4jnsgd1na2vs0mg"},{"bike_id":"69663e99-fe51-4c5b-876a-882008f8d5d8","system_id":"levelo_inurba_marseille","lat":43.30186,"lon":5.39786,"is_reserved":false,"is_disabled":false,"rental_uris":{"android":"levelo://app?vid=69663e99-fe51-4c5b-876a-882008f8d5d8","ios":"levelo://app?vid=69663e99-fe51-4c5b-876a-882008f8d5d8"},"vehicle_type_id":"4","last_reported":1729433284,"current_range_meters":6000,"station_id":"","pricing_plan_id":"cebpf4jnsgd1na2vs0mg"},{"bike_id":"a29d8bd2-aafb-49d8-8500-52184463119c","system_id":"levelo_inurba_marseille","lat":43.28155,"lon":5.42636,"is_reserved":false,"is_disabled":false,"rental_uris":{"android":"levelo://app?vid=a29d8bd2-aafb-49d8-8500-52184463119c","ios":"levelo://app?vid=a29d8bd2-aafb-49d8-8500-52184463119c"},"vehicle_type_id":"4","last_reported":1729433284,"current_range_meters":3200,"station_id":"ce4bhnh2rcd13ifvqgug","pricing_plan_id":"cebpf4jnsgd1na2vs0mg"},{"bike_id":"cf01de79-57a2-425e-ae8d-8406b9125cd7","system_id":"levelo_inurba_marseille","lat":43.30309,"lon":5.39206,"is_reserved":false,"is_disabled":false,"rental_uris":{"android":"levelo://app?vid=cf01de79-57a2-425e-ae8d-8406b9125cd7","ios":"levelo://app?vid=cf01de79-57a2-425e-ae8d-8406b9125cd7"},"vehicle_type_id":"4","last_reported":1729433284,"current_range_meters":4400,"station_id":"ce4bgkh2rcd13ifvqbk0","pricing_plan_id":"cebpf4jnsgd1na2vs0mg"},{"bike_id":"537e8a22-c298-4ede-ace5-bf526297b84f","system_id":"levelo_inurba_marseille","lat":43.2481,"lon":5.37459,"is_reserved":false,"is_disabled":false,"rental_uris":{"android":"levelo://app?vid=537e8a22-c298-4ede-ace5-bf526297b84f","ios":"levelo://app?vid=537e8a22-c298-4ede-ace5-bf526297b84f"},"vehicle_type_id":"4","last_reported":1729433284,"current_range_meters":36400,"station_id":"ce4bhgh2rcd13ifvqfb0","pricing_plan_id":"cebpf4jnsgd1na2vs0mg"},{"bike_id":"001d1961-8aed-4924-aea5-81dbe1d6d449","system_id":"levelo_inurba_marseille","lat":43.30416,"lon":5.41292,"is_reserved":false,"is_disabled":false,"rental_uris":{"android":"levelo://app?vid=001d1961-8aed-4924-aea5-81dbe1d6d449","ios":"levelo://app?vid=001d1961-8aed-4924-aea5-81dbe1d6d449"},"vehicle_type_id":"4","last_reported":1729433284,"current_range_meters":38800,"station_id":"ce4bhop2rcd13ifvqh8g","pricing_plan_id":"cebpf4jnsgd1na2vs0mg"},{"bike_id":"e1005a16-8bf1-41a2-89f3-2bdce1b74800","system_id":"levelo_inurba_marseille","lat":43.23198,"lon":5.35552,"is_reserved":false,"is_disabled":false,"rental_uris":{"android":"levelo://app?vid=e1005a16-8bf1-41a2-89f3-2bdce1b74800","ios":"levelo://app?vid=e1005a16-8bf1-41a2-89f3-2bdce1b74800"},"vehicle_type_id":"4","last_reported":1729433284,"current_range_meters":28400,"station_id":"ce4bhu92rcd13ifvqi70","pricing_plan_id":"cebpf4jnsgd1na2vs0mg"},{"bike_id":"39ed1b73-4fbe-4b7d-a0d3-85416eb4618e","system_id":"levelo_inurba_marseille","lat":43.23061,"lon":5.35491,"is_reserved":false,"is_disabled":false,"rental_uris":{"android":"levelo://app?vid=39ed1b73-4fbe-4b7d-a0d3-85416eb4618e","ios":"levelo://app?vid=39ed1b73-4fbe-4b7d-a0d3-85416eb4618e"},"vehicle_type_id":"4","last_reported":1729433284,"current_range_meters":11200,"station_id":"cpo3342slgdg3j2ifvpg","pricing_plan_id":"cebpf4jnsgd1na2vs0mg"},{"bike_id":"f357d317-303f-4db6-a6b2-a7c7395ce5d8","system_id":"levelo_inurba_marseille","lat":43.28098,"lon":5.37842,"is_reserved":false,"is_disabled":false,"rental_uris":{"android":"levelo://app?vid=f357d317-303f-4db6-a6b2-a7c7395ce5d8","ios":"levelo://app?vid=f357d317-303f-4db6-a6b2-a7c7395ce5d8"},"vehicle_type_id":"4","last_reported":1729433284,"current_range_meters":34000,"station_id":"ce4bha12rcd13ifvqee0","pricing_plan_id":"cebpf4jnsgd1na2vs0mg"},{"bike_id":"4d066589-d7f7-444d-87bf-eb705d2285d0","system_id":"levelo_inurba_marseille","lat":43.23191,"lon":5.35541,"is_reserved":false,"is_disabled":false,"rental_uris":{"android":"levelo://app?vid=4d066589-d7f7-444d-87bf-eb705d2285d0","ios":"levelo://app?vid=4d066589-d7f7-444d-87bf-eb705d2285d0"},"vehicle_type_id":"4","last_reported":1729433284,"current_range_meters":20000,"station_id":"ce4bhu92rcd13ifvqi70","pricing_plan_id":"cebpf4jnsgd1na2vs0mg"},{"bike_id":"6adccd19-a5e1-449f-ba8b-6252d1ee71dd","system_id":"levelo_inurba_marseille","lat":43.27723,"lon":5.41395,"is_reserved":false,"is_disabled":false,"rental_uris":{"android":"levelo://app?vid=6adccd19-a5e1-449f-ba8b-6252d1ee71dd","ios":"levelo://app?vid=6adccd19-a5e1-449f-ba8b-6252d1ee71dd"},"vehicle_type_id":"4","last_reported":1729433284,"current_range_meters":24800,"station_id":"","pricing_plan_id":"cebpf4jnsgd1na2vs0mg"},{"bike_id":"b6beceaa-efb8-4a53-a17c-11e59bf738a9","system_id":"levelo_inurba_marseille","lat":43.32111,"lon":5.36768,"is_reserved":false,"is_disabled":false,"rental_uris":{"android":"levelo://app?vid=b6beceaa-efb8-4a53-a17c-11e59bf738a9","ios":"levelo://app?vid=b6beceaa-efb8-4a53-a17c-11e59bf738a9"},"vehicle_type_id":"4","last_reported":1729433284,"current_range_meters":29600,"station_id":"ce4bhrh2rcd13ifvqhug","pricing_plan_id":"cebpf4jnsgd1na2vs0mg"},{"bike_id":"54da3871-50a1-4646-bd0d-d2746730df7b","system_id":"levelo_inurba_marseille","lat":43.29439,"lon":5.39749,"is_reserved":false,"is_disabled":false,"rental_uris":{"android":"levelo://app?vid=54da3871-50a1-4646-bd0d-d2746730df7b","ios":"levelo://app?vid=54da3871-50a1-4646-bd0d-d2746730df7b"},"vehicle_type_id":"4","last_reported":1729433284,"current_range_meters":4400,"station_id":"ce4bh3h2rcd13ifvqdo0","pricing_plan_id":"cebpf4jnsgd1na2vs0mg"},{"bike_id":"ca2bcdce-b499-4244-85d5-e1165783f713","system_id":"levelo_inurba_marseille","lat":43.23195,"lon":5.35548,"is_reserved":false,"is_disabled":false,"rental_uris":{"android":"levelo://app?vid=ca2bcdce-b499-4244-85d5-e1165783f713","ios":"levelo://app?vid=ca2bcdce-b499-4244-85d5-e1165783f713"},"vehicle_type_id":"4","last_reported":1729433284,"current_range_meters":36800,"station_id":"ce4bhu92rcd13ifvqi70","pricing_plan_id":"cebpf4jnsgd1na2vs0mg"},{"bike_id":"a1596875-e208-43e5-a90d-2a6e5c9aeefb","system_id":"levelo_inurba_marseille","lat":43.2396,"lon":5.36615,"is_reserved":false,"is_disabled":false,"rental_uris":{"android":"levelo://app?vid=a1596875-e208-43e5-a90d-2a6e5c9aeefb","ios":"levelo://app?vid=a1596875-e208-43e5-a90d-2a6e5c9aeefb"},"vehicle_type_id":"4","last_reported":1729433284,"current_range_meters":36800,"station_id":"ce4bhi12rcd13ifvqfp0","pricing_plan_id":"cebpf4jnsgd1na2vs0mg"},{"bike_id":"53e8191a-00b5-44c2-a5b0-64a7c0fe1eda","system_id":"levelo_inurba_marseille","lat":43.28274,"lon":5.35077,"is_reserved":false,"is_disabled":false,"rental_uris":{"android":"levelo://app?vid=53e8191a-00b5-44c2-a5b0-64a7c0fe1eda","ios":"levelo://app?vid=53e8191a-00b5-44c2-a5b0-64a7c0fe1eda"},"vehicle_type_id":"4","last_reported":1729433284,"current_range_meters":38800,"station_id":"ce4bhbp2rcd13ifvqerg","pricing_plan_id":"cebpf4jnsgd1na2vs0mg"},{"bike_id":"7aade1c6-2941-4ae2-84cb-ff7bd25a1422","system_id":"levelo_inurba_marseille","lat":43.30184,"lon":5.36626,"is_reserved":false,"is_disabled":false,"rental_uris":{"android":"levelo://app?vid=7aade1c6-2941-4ae2-84cb-ff7bd25a1422","ios":"levelo://app?vid=7aade1c6-2941-4ae2-84cb-ff7bd25a1422"},"vehicle_type_id":"4","last_reported":1729433284,"current_range_meters":26000,"station_id":"ce4bgrh2rcd13ifvqc8g","pricing_plan_id":"cebpf4jnsgd1na2vs0mg"},{"bike_id":"2a9f13c8-c789-4cbb-b231-288baea1add8","system_id":"levelo_inurba_marseille","lat":43.31083,"lon":5.42427,"is_reserved":false,"is_disabled":false,"rental_uris":{"android":"levelo://app?vid=2a9f13c8-c789-4cbb-b231-288baea1add8","ios":"levelo://app?vid=2a9f13c8-c789-4cbb-b231-288baea1add8"},"vehicle_type_id":"4","last_reported":1729433284,"current_range_meters":16800,"station_id":"ce4bhp92rcd13ifvqhag","pricing_plan_id":"cebpf4jnsgd1na2vs0mg"},{"bike_id":"c227adb1-824d-49e3-a9d5-37878a591666","system_id":"levelo_inurba_marseille","lat":43.24651,"lon":5.38896,"is_reserved":false,"is_disabled":false,"rental_uris":{"android":"levelo://app?vid=c227adb1-824d-49e3-a9d5-37878a591666","ios":"levelo://app?vid=c227adb1-824d-49e3-a9d5-37878a591666"},"vehicle_type_id":"4","last_reported":1729433284,"current_range_meters":19200,"station_id":"ce4bhg12rcd13ifvqf60","pricing_plan_id":"cebpf4jnsgd1na2vs0mg"},{"bike_id":"3bf115c6-8efa-475f-af9e-5ee9038c1b80","system_id":"levelo_inurba_marseille","lat":43.31065,"lon":5.40095,"is_reserved":false,"is_disabled":false,"rental_uris":{"android":"levelo://app?vid=3bf115c6-8efa-475f-af9e-5ee9038c1b80","ios":"levelo://app?vid=3bf115c6-8efa-475f-af9e-5ee9038c1b80"},"vehicle_type_id":"4","last_reported":1729433284,"current_range_meters":34800,"station_id":"","pricing_plan_id":"cebpf4jnsgd1na2vs0mg"},{"bike_id":"bba97e61-46a1-4cbb-a99a-6e0e6965770c","system_id":"levelo_inurba_marseille","lat":43.28266,"lon":5.35059,"is_reserved":false,"is_disabled":false,"rental_uris":{"android":"levelo://app?vid=bba97e61-46a1-4cbb-a99a-6e0e6965770c","ios":"levelo://app?vid=bba97e61-46a1-4cbb-a99a-6e0e6965770c"},"vehicle_type_id":"4","last_reported":1729433284,"current_range_meters":22000,"station_id":"ce4bhbp2rcd13ifvqerg","pricing_plan_id":"cebpf4jnsgd1na2vs0mg"},{"bike_id":"4547ae41-7dac-4452-8e4d-ba6444326df7","system_id":"levelo_inurba_marseille","lat":43.29439,"lon":5.39755,"is_reserved":false,"is_disabled":false,"rental_uris":{"android":"levelo://app?vid=4547ae41-7dac-4452-8e4d-ba6444326df7","ios":"levelo://app?vid=4547ae41-7dac-4452-8e4d-ba6444326df7"},"vehicle_type_id":"4","last_reported":1729433284,"current_range_meters":8000,"station_id":"ce4bh3h2rcd13ifvqdo0","pricing_plan_id":"cebpf4jnsgd1na2vs0mg"},{"bike_id":"dec3be6c-368f-4477-9708-ba88c16eacec","system_id":"levelo_inurba_marseille","lat":43.30459,"lon":5.37904,"is_reserved":false,"is_disabled":false,"rental_uris":{"android":"levelo://app?vid=dec3be6c-368f-4477-9708-ba88c16eacec","ios":"levelo://app?vid=dec3be6c-368f-4477-9708-ba88c16eacec"},"vehicle_type_id":"4","last_reported":1729433284,"current_range_meters":33200,"station_id":"ce4bgup2rcd13ifvqcn0","pricing_plan_id":"cebpf4jnsgd1na2vs0mg"},{"bike_id":"7bbbb106-d8fd-4e4e-92f4-dd57d7912abf","system_id":"levelo_inurba_marseille","lat":43.26552,"lon":5.37281,"is_reserved":false,"is_disabled":false,"rental_uris":{"android":"levelo://app?vid=7bbbb106-d8fd-4e4e-92f4-dd57d7912abf","ios":"levelo://app?vid=7bbbb106-d8fd-4e4e-92f4-dd57d7912abf"},"vehicle_type_id":"4","last_reported":1729433284,"current_range_meters":20000,"station_id":"ce4bhg12rcd13ifvqf70","pricing_plan_id":"cebpf4jnsgd1na2vs0mg"},{"bike_id":"619a2642-75fe-40e1-b1da-f30521d63a65","system_id":"levelo_inurba_marseille","lat":43.27971,"lon":5.38742,"is_reserved":false,"is_disabled":false,"rental_uris":{"android":"levelo://app?vid=619a2642-75fe-40e1-b1da-f30521d63a65","ios":"levelo://app?vid=619a2642-75fe-40e1-b1da-f30521d63a65"},"vehicle_type_id":"4","last_reported":1729433284,"current_range_meters":19600,"station_id":"ce4bhg12rcd13ifvqf80","pricing_plan_id":"cebpf4jnsgd1na2vs0mg"},{"bike_id":"4fb0552f-8e0f-411f-9306-730e74ccb5f9","system_id":"levelo_inurba_marseille","lat":43.23155,"lon":5.43698,"is_reserved":false,"is_disabled":false,"rental_uris":{"android":"levelo://app?vid=4fb0552f-8e0f-411f-9306-730e74ccb5f9","ios":"levelo://app?vid=4fb0552f-8e0f-411f-9306-730e74ccb5f9"},"vehicle_type_id":"4","last_reported":1729433284,"current_range_meters":3600,"station_id":"ce4bhmp2rcd13ifvqgog","pricing_plan_id":"cebpf4jnsgd1na2vs0mg"},{"bike_id":"21df8416-80d1-495c-9fbb-dc8ee33656ac","system_id":"levelo_inurba_marseille","lat":43.29536,"lon":5.39397,"is_reserved":false,"is_disabled":false,"rental_uris":{"android":"levelo://app?vid=21df8416-80d1-495c-9fbb-dc8ee33656ac","ios":"levelo://app?vid=21df8416-80d1-495c-9fbb-dc8ee33656ac"},"vehicle_type_id":"4","last_reported":1729433284,"current_range_meters":20800,"station_id":"ce4bh292rcd13ifvqdf0","pricing_plan_id":"cebpf4jnsgd1na2vs0mg"},{"bike_id":"9783cf0d-b472-41cd-90ff-74b501fdd642","system_id":"levelo_inurba_marseille","lat":43.29964,"lon":5.38493,"is_reserved":false,"is_disabled":false,"rental_uris":{"android":"levelo://app?vid=9783cf0d-b472-41cd-90ff-74b501fdd642","ios":"levelo://app?vid=9783cf0d-b472-41cd-90ff-74b501fdd642"},"vehicle_type_id":"4","last_reported":1729433284,"current_range_meters":0,"station_id":"ce4bgj92rcd13ifvqbd0","pricing_plan_id":"cebpf4jnsgd1na2vs0mg"},{"bike_id":"16539cea-5cac-4435-aa95-68f42652e64a","system_id":"levelo_inurba_marseille","lat":43.30887,"lon":5.3718,"is_reserved":false,"is_disabled":false,"rental_uris":{"android":"levelo://app?vid=16539cea-5cac-4435-aa95-68f42652e64a","ios":"levelo://app?vid=16539cea-5cac-4435-aa95-68f42652e64a"},"vehicle_type_id":"4","last_reported":1729433284,"current_range_meters":38800,"station_id":"ce4bguh2rcd13ifvqckg","pricing_plan_id":"cebpf4jnsgd1na2vs0mg"},{"bike_id":"11306656-148d-4f6e-9190-63f10fa518ea","system_id":"levelo_inurba_marseille","lat":43.22925,"lon":5.35374,"is_reserved":false,"is_disabled":false,"rental_uris":{"android":"levelo://app?vid=11306656-148d-4f6e-9190-63f10fa518ea","ios":"levelo://app?vid=11306656-148d-4f6e-9190-63f10fa518ea"},"vehicle_type_id":"4","last_reported":1729433284,"current_range_meters":14400,"station_id":"cpo3532slgdg3j2ikp40","pricing_plan_id":"cebpf4jnsgd1na2vs0mg"},{"bike_id":"2ac09ecd-d7f3-4a0d-876f-2bb653f1a5d1","system_id":"levelo_inurba_marseille","lat":43.23962,"lon":5.36618,"is_reserved":false,"is_disabled":false,"rental_uris":{"android":"levelo://app?vid=2ac09ecd-d7f3-4a0d-876f-2bb653f1a5d1","ios":"levelo://app?vid=2ac09ecd-d7f3-4a0d-876f-2bb653f1a5d1"},"vehicle_type_id":"4","last_reported":1729433284,"current_range_meters":10800,"station_id":"ce4bhi12rcd13ifvqfp0","pricing_plan_id":"cebpf4jnsgd1na2vs0mg"},{"bike_id":"efe3cf88-77ce-427a-83e3-ddeb1b5f32cf","system_id":"levelo_inurba_marseille","lat":43.31039,"lon":5.40094,"is_reserved":false,"is_disabled":false,"rental_uris":{"android":"levelo://app?vid=efe3cf88-77ce-427a-83e3-ddeb1b5f32cf","ios":"levelo://app?vid=efe3cf88-77ce-427a-83e3-ddeb1b5f32cf"},"vehicle_type_id":"4","last_reported":1729433284,"current_range_meters":34800,"station_id":"","pricing_plan_id":"cebpf4jnsgd1na2vs0mg"},{"bike_id":"209027aa-8ef6-4cd0-ae80-fa2b7dd383b5","system_id":"levelo_inurba_marseille","lat":43.29633,"lon":5.40598,"is_reserved":false,"is_disabled":false,"rental_uris":{"android":"levelo://app?vid=209027aa-8ef6-4cd0-ae80-fa2b7dd383b5","ios":"levelo://app?vid=209027aa-8ef6-4cd0-ae80-fa2b7dd383b5"},"vehicle_type_id":"4","last_reported":1729433284,"current_range_meters":6400,"station_id":"ce4bh0h2rcd13ifvqd60","pricing_plan_id":"cebpf4jnsgd1na2vs0mg"},{"bike_id":"230c8973-276e-4c4d-976f-5e8a2fc69ac5","system_id":"levelo_inurba_marseille","lat":43.31763,"lon":5.39016,"is_reserved":false,"is_disabled":false,"rental_uris":{"android":"levelo://app?vid=230c8973-276e-4c4d-976f-5e8a2fc69ac5","ios":"levelo://app?vid=230c8973-276e-4c4d-976f-5e8a2fc69ac5"},"vehicle_type_id":"4","last_reported":1729433284,"current_range_meters":26800,"station_id":"ce4bhqp2rcd13ifvqhng","pricing_plan_id":"cebpf4jnsgd1na2vs0mg"},{"bike_id":"c261be21-8632-42d2-8152-266a16341d30","system_id":"levelo_inurba_marseille","lat":43.23192,"lon":5.35543,"is_reserved":false,"is_disabled":false,"rental_uris":{"android":"levelo://app?vid=c261be21-8632-42d2-8152-266a16341d30","ios":"levelo://app?vid=c261be21-8632-42d2-8152-266a16341d30"},"vehicle_type_id":"4","last_reported":1729433284,"current_range_meters":18000,"station_id":"ce4bhu92rcd13ifvqi70","pricing_plan_id":"cebpf4jnsgd1na2vs0mg"},{"bike_id":"dbea4963-e86d-48cb-b2dd-f594327c8f8f","system_id":"levelo_inurba_marseille","lat":43.28422,"lon":5.34988,"is_reserved":false,"is_disabled":false,"rental_uris":{"android":"levelo://app?vid=dbea4963-e86d-48cb-b2dd-f594327c8f8f","ios":"levelo://app?vid=dbea4963-e86d-48cb-b2dd-f594327c8f8f"},"vehicle_type_id":"4","last_reported":1729433284,"current_range_meters":16800,"station_id":"ce4bhbh2rcd13ifvqepg","pricing_plan_id":"cebpf4jnsgd1na2vs0mg"},{"bike_id":"08747ef7-b2be-4610-bce6-612deffffa1a","system_id":"levelo_inurba_marseille","lat":43.23195,"lon":5.35551,"is_reserved":false,"is_disabled":false,"rental_uris":{"android":"levelo://app?vid=08747ef7-b2be-4610-bce6-612deffffa1a","ios":"levelo://app?vid=08747ef7-b2be-4610-bce6-612deffffa1a"},"vehicle_type_id":"4","last_reported":1729433284,"current_range_meters":11200,"station_id":"ce4bhu92rcd13ifvqi70","pricing_plan_id":"cebpf4jnsgd1na2vs0mg"},{"bike_id":"15831b26-61d0-4f28-9ede-5861b976fbbf","system_id":"levelo_inurba_marseille","lat":43.3032,"lon":5.3691,"is_reserved":false,"is_disabled":false,"rental_uris":{"android":"levelo://app?vid=15831b26-61d0-4f28-9ede-5861b976fbbf","ios":"levelo://app?vid=15831b26-61d0-4f28-9ede-5861b976fbbf"},"vehicle_type_id":"4","last_reported":1729433284,"current_range_meters":35200,"station_id":"ce4bgqh2rcd13ifvqc5g","pricing_plan_id":"cebpf4jnsgd1na2vs0mg"},{"bike_id":"a5314e9d-ed19-4d63-b153-ecb6e79009eb","system_id":"levelo_inurba_marseille","lat":43.304274,"lon":5.388957,"is_reserved":false,"is_disabled":false,"rental_uris":{"android":"levelo://app?vid=a5314e9d-ed19-4d63-b153-ecb6e79009eb","ios":"levelo://app?vid=a5314e9d-ed19-4d63-b153-ecb6e79009eb"},"vehicle_type_id":"4","last_reported":1729433284,"current_range_meters":16000,"station_id":"ce4bguh2rcd13ifvqckg","pricing_plan_id":"cebpf4jnsgd1na2vs0mg"},{"bike_id":"5855cff8-263e-48f9-b80d-4b3c474d7dd9","system_id":"levelo_inurba_marseille","lat":43.26934,"lon":5.40251,"is_reserved":false,"is_disabled":false,"rental_uris":{"android":"levelo://app?vid=5855cff8-263e-48f9-b80d-4b3c474d7dd9","ios":"levelo://app?vid=5855cff8-263e-48f9-b80d-4b3c474d7dd9"},"vehicle_type_id":"4","last_reported":1729433284,"current_range_meters":2800,"station_id":"cjm6bp8fraef2m0cb0m0","pricing_plan_id":"cebpf4jnsgd1na2vs0mg"},{"bike_id":"f9d6c620-8e37-415a-bf36-fdb55b021f56","system_id":"levelo_inurba_marseille","lat":43.2315,"lon":5.43711,"is_reserved":false,"is_disabled":false,"rental_uris":{"android":"levelo://app?vid=f9d6c620-8e37-415a-bf36-fdb55b021f56","ios":"levelo://app?vid=f9d6c620-8e37-415a-bf36-fdb55b021f56"},"vehicle_type_id":"4","last_reported":1729433284,"current_range_meters":8400,"station_id":"ce4bhmp2rcd13ifvqgog","pricing_plan_id":"cebpf4jnsgd1na2vs0mg"},{"bike_id":"69241368-8678-42d8-b0cf-407776091c9a","system_id":"levelo_inurba_marseille","lat":43.29006,"lon":5.3561,"is_reserved":false,"is_disabled":false,"rental_uris":{"android":"levelo://app?vid=69241368-8678-42d8-b0cf-407776091c9a","ios":"levelo://app?vid=69241368-8678-42d8-b0cf-407776091c9a"},"vehicle_type_id":"4","last_reported":1729433284,"current_range_meters":38800,"station_id":"ce4bhb92rcd13ifvqen0","pricing_plan_id":"cebpf4jnsgd1na2vs0mg"},{"bike_id":"cd01b208-4cd7-440d-8b4a-35014956aea0","system_id":"levelo_inurba_marseille","lat":43.24806,"lon":5.37454,"is_reserved":false,"is_disabled":false,"rental_uris":{"android":"levelo://app?vid=cd01b208-4cd7-440d-8b4a-35014956aea0","ios":"levelo://app?vid=cd01b208-4cd7-440d-8b4a-35014956aea0"},"vehicle_type_id":"4","last_reported":1729433284,"current_range_meters":18800,"station_id":"ce4bhgh2rcd13ifvqfb0","pricing_plan_id":"cebpf4jnsgd1na2vs0mg"},{"bike_id":"19dbe35b-e03e-4808-af20-59f494114d66","system_id":"levelo_inurba_marseille","lat":43.2827,"lon":5.3506,"is_reserved":false,"is_disabled":false,"rental_uris":{"android":"levelo://app?vid=19dbe35b-e03e-4808-af20-59f494114d66","ios":"levelo://app?vid=19dbe35b-e03e-4808-af20-59f494114d66"},"vehicle_type_id":"4","last_reported":1729433284,"current_range_meters":21600,"station_id":"ce4bhbp2rcd13ifvqerg","pricing_plan_id":"cebpf4jnsgd1na2vs0mg"},{"bike_id":"44e63b2d-55ea-4542-8071-077ec9a66c9a","system_id":"levelo_inurba_marseille","lat":43.24387,"lon":5.37059,"is_reserved":false,"is_disabled":false,"rental_uris":{"android":"levelo://app?vid=44e63b2d-55ea-4542-8071-077ec9a66c9a","ios":"levelo://app?vid=44e63b2d-55ea-4542-8071-077ec9a66c9a"},"vehicle_type_id":"4","last_reported":1729433284,"current_range_meters":15200,"station_id":"ce4bhhh2rcd13ifvqfk0","pricing_plan_id":"cebpf4jnsgd1na2vs0mg"},{"bike_id":"77c72953-31a1-4f0d-a979-132f935b5673","system_id":"levelo_inurba_marseille","lat":43.23196,"lon":5.35548,"is_reserved":false,"is_disabled":false,"rental_uris":{"android":"levelo://app?vid=77c72953-31a1-4f0d-a979-132f935b5673","ios":"levelo://app?vid=77c72953-31a1-4f0d-a979-132f935b5673"},"vehicle_type_id":"4","last_reported":1729433284,"current_range_meters":36400,"station_id":"ce4bhu92rcd13ifvqi70","pricing_plan_id":"cebpf4jnsgd1na2vs0mg"},{"bike_id":"9899845d-8b18-4d8b-8d7c-b52ef1e7a1dd","system_id":"levelo_inurba_marseille","lat":43.23958,"lon":5.36648,"is_reserved":false,"is_disabled":false,"rental_uris":{"android":"levelo://app?vid=9899845d-8b18-4d8b-8d7c-b52ef1e7a1dd","ios":"levelo://app?vid=9899845d-8b18-4d8b-8d7c-b52ef1e7a1dd"},"vehicle_type_id":"4","last_reported":1729433284,"current_range_meters":37600,"station_id":"ce4bhi12rcd13ifvqfp0","pricing_plan_id":"cebpf4jnsgd1na2vs0mg"},{"bike_id":"a794588d-0283-4bd1-83ac-8f64d3b13aa2","system_id":"levelo_inurba_marseille","lat":43.30308,"lon":5.39211,"is_reserved":false,"is_disabled":false,"rental_uris":{"android":"levelo://app?vid=a794588d-0283-4bd1-83ac-8f64d3b13aa2","ios":"levelo://app?vid=a794588d-0283-4bd1-83ac-8f64d3b13aa2"},"vehicle_type_id":"4","last_reported":1729433284,"current_range_meters":8800,"station_id":"ce4bgkh2rcd13ifvqbk0","pricing_plan_id":"cebpf4jnsgd1na2vs0mg"},{"bike_id":"d96ec20b-dc54-477e-aa46-6ea9351c0eed","system_id":"levelo_inurba_marseille","lat":43.32483,"lon":5.36569,"is_reserved":false,"is_disabled":false,"rental_uris":{"android":"levelo://app?vid=d96ec20b-dc54-477e-aa46-6ea9351c0eed","ios":"levelo://app?vid=d96ec20b-dc54-477e-aa46-6ea9351c0eed"},"vehicle_type_id":"4","last_reported":1729433284,"current_range_meters":22800,"station_id":"ce4bhs12rcd13ifvqhvg","pricing_plan_id":"cebpf4jnsgd1na2vs0mg"},{"bike_id":"48e6f969-7bc1-4335-8ee9-8b82577f5ce2","system_id":"levelo_inurba_marseille","lat":43.27372,"lon":5.36263,"is_reserved":false,"is_disabled":false,"rental_uris":{"android":"levelo://app?vid=48e6f969-7bc1-4335-8ee9-8b82577f5ce2","ios":"levelo://app?vid=48e6f969-7bc1-4335-8ee9-8b82577f5ce2"},"vehicle_type_id":"4","last_reported":1729433284,"current_range_meters":28400,"station_id":"ce4bhbh2rcd13ifvqeo0","pricing_plan_id":"cebpf4jnsgd1na2vs0mg"},{"bike_id":"fb20d873-2d51-4687-a4e1-9f8ac8c3cb34","system_id":"levelo_inurba_marseille","lat":43.24807,"lon":5.37453,"is_reserved":false,"is_disabled":false,"rental_uris":{"android":"levelo://app?vid=fb20d873-2d51-4687-a4e1-9f8ac8c3cb34","ios":"levelo://app?vid=fb20d873-2d51-4687-a4e1-9f8ac8c3cb34"},"vehicle_type_id":"4","last_reported":1729433284,"current_range_meters":6000,"station_id":"ce4bhgh2rcd13ifvqfb0","pricing_plan_id":"cebpf4jnsgd1na2vs0mg"},{"bike_id":"40301282-b79c-47b3-b92f-5def66fe207f","system_id":"levelo_inurba_marseille","lat":43.30415,"lon":5.41266,"is_reserved":false,"is_disabled":false,"rental_uris":{"android":"levelo://app?vid=40301282-b79c-47b3-b92f-5def66fe207f","ios":"levelo://app?vid=40301282-b79c-47b3-b92f-5def66fe207f"},"vehicle_type_id":"4","last_reported":1729433284,"current_range_meters":22800,"station_id":"ce4bhop2rcd13ifvqh8g","pricing_plan_id":"cebpf4jnsgd1na2vs0mg"},{"bike_id":"cbd24e4f-ae94-4dc6-a329-bc5a34d1ba88","system_id":"levelo_inurba_marseille","lat":43.28429,"lon":5.34995,"is_reserved":false,"is_disabled":false,"rental_uris":{"android":"levelo://app?vid=cbd24e4f-ae94-4dc6-a329-bc5a34d1ba88","ios":"levelo://app?vid=cbd24e4f-ae94-4dc6-a329-bc5a34d1ba88"},"vehicle_type_id":"4","last_reported":1729433284,"current_range_meters":36800,"station_id":"ce4bhbh2rcd13ifvqepg","pricing_plan_id":"cebpf4jnsgd1na2vs0mg"},{"bike_id":"e0afbd5b-5fd7-4b48-9938-cf137bb5e598","system_id":"levelo_inurba_marseille","lat":43.27492,"lon":5.4246,"is_reserved":false,"is_disabled":false,"rental_uris":{"android":"levelo://app?vid=e0afbd5b-5fd7-4b48-9938-cf137bb5e598","ios":"levelo://app?vid=e0afbd5b-5fd7-4b48-9938-cf137bb5e598"},"vehicle_type_id":"4","last_reported":1729433284,"current_range_meters":4800,"station_id":"ce4bhn92rcd13ifvqgrg","pricing_plan_id":"cebpf4jnsgd1na2vs0mg"},{"bike_id":"a4bd18f7-a926-4a82-b5c9-068fab6ce59c","system_id":"levelo_inurba_marseille","lat":43.231588,"lon":5.437023,"is_reserved":false,"is_disabled":false,"rental_uris":{"android":"levelo://app?vid=a4bd18f7-a926-4a82-b5c9-068fab6ce59c","ios":"levelo://app?vid=a4bd18f7-a926-4a82-b5c9-068fab6ce59c"},