{"last_updated":1703074272,"ttl":30,"version":"2.2","data":{"bikes":[{"bike_id":"82e35af4-c944-4279-b6c1-893491be7416","system_id":"levelo_inurba_marseille","lat":43.31341,"lon":5.367098,"is_reserved":false,"is_disabled":false,"rental_uris":{"android":"levelo://app?vid=82e35af4-c944-4279-b6c1-893491be7416","ios":"levelo://app?vid=82e35af4-c944-4279-b6c1-893491be7416"},"vehicle_type_id":"4","last_reported":1703074272,"current_range_meters":24400,"station_id":"ce4bgr92rcd13ifvqc6g","pricing_plan_id":"free"},{"bike_id":"ca916074-1d6b-47ac-9f55-ac6ef6ec310d","system_id":"levelo_inurba_marseille","lat":43.31341,"lon":5.367098,"is_reserved":false,"is_disabled":false,"rental_uris":{"android":"levelo://app?vid=ca916074-1d6b-47ac-9f55-ac6ef6ec310d","ios":"levelo://app?vid=ca916074-1d6b-47ac-9f55-ac6ef6ec310d"},"vehicle_type_id":"4","last_reported":1703074272,"current_range_meters":21200,"station_id":"ce4bgr92rcd13ifvqc6g","pricing_plan_id":"free"},{"bike_id":"06200de9-b54a-4d19-839e-e15513ea2dc5","system_id":"levelo_inurba_marseille","lat":43.31341,"lon":5.367098,"is_reserved":false,"is_disabled":false,"rental_uris":{"android":"levelo://app?vid=06200de9-b54a-4d19-839e-e15513ea2dc5","ios":"levelo://app?vid=06200de9-b54a-4d19-839e-e15513ea2dc5"},"vehicle_type_id":"4","last_reported":1703074272,"current_range_meters":31600,"station_id":"ce4bgr92rcd13ifvqc6g","pricing_plan_id":"free"},{"bike_id":"041e6275-034f-4721-9f43-fb99d5c08c3c","system_id":"levelo_inurba_marseille","lat":43.313391,"lon":5.36706,"is_reserved":false,"is_disabled":false,"rental_uris":{"android":"levelo://app?vid=041e6275-034f-4721-9f43-fb99d5c08c3c","ios":"levelo://app?vid=041e6275-034f-4721-9f43-fb99d5c08c3c"},"vehicle_type_id":"4","last_reported":1703074272,"current_range_meters":21600,"station_id":"ce4bgr92rcd13ifvqc6g","pricing_plan_id":"free"},{"bike_id":"962fbd30-7ff6-4284-bec5-6270eb564a1c","system_id":"levelo_inurba_marseille","lat":43.313391,"lon":5.36706,"is_reserved":false,"is_disabled":false,"rental_uris":{"android":"levelo://app?vid=962fbd30-7ff6-4284-bec5-6270eb564a1c","ios":"levelo://app?vid=962fbd30-7ff6-4284-bec5-6270eb564a1c"},"vehicle_type_id":"4","last_reported":1703074272,"current_range_meters":12800,"station_id":"ce4bgr92rcd13ifvqc6g","pricing_plan_id":"free"},{"bike_id":"385c4116-b7eb-4dc1-8ab8-4cd9cad30c5b","system_id":"levelo_inurba_marseille","lat":43.31341,"lon":5.367098,"is_reserved":false,"is_disabled":false,"rental_uris":{"android":"levelo://app?vid=385c4116-b7eb-4dc1-8ab8-4cd9cad30c5b","ios":"levelo://app?vid=385c4116-b7eb-4dc1-8ab8-4cd9cad30c5b"},"vehicle_type_id":"4","last_reported":1703074272,"current_range_meters":31600,"station_id":"ce4bgr92rcd13ifvqc6g","pricing_plan_id":"free"},{"bike_id":"15c7edea-86ab-4b62-9286-30eaeca9bae0","system_id":"levelo_inurba_marseille","lat":43.31341,"lon":5.367098,"is_reserved":false,"is_disabled":false,"rental_uris":{"android":"levelo://app?vid=15c7edea-86ab-4b62-9286-30eaeca9bae0","ios":"levelo://app?vid=15c7edea-86ab-4b62-9286-30eaeca9bae0"},"vehicle_type_id":"4","last_reported":1703074272,"current_range_meters":31600,"station_id":"ce4bgr92rcd13ifvqc6g","pricing_plan_id":"free"},{"bike_id":"97b782f1-5690-4499-bd82-79dac7f90f45","system_id":"levelo_inurba_marseille","lat":43.313391,"lon":5.36706,"is_reserved":false,"is_disabled":false,"rental_uris":{"android":"levelo://app?vid=97b782f1-5690-4499-bd82-79dac7f90f45","ios":"levelo://app?vid=97b782f1-5690-4499-bd82-79dac7f90f45"},"vehicle_type_id":"4","last_reported":1703074272,"current_range_meters":21200,"station_id":"ce4bgr92rcd13ifvqc6g","pricing_plan_id":"free"},{"bike_id":"9d52a925-323b-4a5e-9c24-9e0718f8c66b","system_id":"levelo_inurba_marseille","lat":43.313391,"lon":5.36706,"is_reserved":false,"is_disabled":false,"rental_uris":{"android":"levelo://app?vid=9d52a925-323b-4a5e-9c24-9e0718f8c66b","ios":"levelo://app?vid=9d52a925-323b-4a5e-9c24-9e0718f8c66b"},"vehicle_type_id":"4","last_reported":1703074272,"current_range_meters":31600,"station_id":"ce4bgr92rcd13ifvqc6g","pricing_plan_id":"free"},{"bike_id":"c85993cf-56a9-4974-93ef-b2f2282f54b8","system_id":"levelo_inurba_marseille","lat":43.313391,"lon":5.36706,"is_reserved":false,"is_disabled":false,"rental_uris":{"android":"levelo://app?vid=c85993cf-56a9-4974-93ef-b2f2282f54b8","ios":"levelo://app?vid=c85993cf-56a9-4974-93ef-b2f2282f54b8"},"vehicle_type_id":"4","last_reported":1703074272,"current_range_meters":19200,"station_id":"ce4bgr92rcd13ifvqc6g","pricing_plan_id":"free"},{"bike_id":"5bf53713-9015-41ac-a733-030d364b249e","system_id":"levelo_inurba_marseille","lat":43.313391,"lon":5.36706,"is_reserved":false,"is_disabled":false,"rental_uris":{"android":"levelo://app?vid=5bf53713-9015-41ac-a733-030d364b249e","ios":"levelo://app?vid=5bf53713-9015-41ac-a733-030d364b249e"},"vehicle_type_id":"4","last_reported":1703074272,"current_range_meters":8800,"station_id":"ce4bgr92rcd13ifvqc6g","pricing_plan_id":"free"},{"bike_id":"5581df76-9eaa-4cb1-9e64-a029de783903","system_id":"levelo_inurba_marseille","lat":43.31341,"lon":5.367098,"is_reserved":false,"is_disabled":false,"rental_uris":{"android":"levelo://app?vid=5581df76-9eaa-4cb1-9e64-a029de783903","ios":"levelo://app?vid=5581df76-9eaa-4cb1-9e64-a029de783903"},"vehicle_type_id":"4","last_reported":1703074272,"current_range_meters":26400,"station_id":"ce4bgr92rcd13ifvqc6g","pricing_plan_id":"free"},{"bike_id":"dc02301a-e25b-4088-96c9-2c95bbdc42aa","system_id":"levelo_inurba_marseille","lat":43.31341,"lon":5.367098,"is_reserved":false,"is_disabled":false,"rental_uris":{"android":"levelo://app?vid=dc02301a-e25b-4088-96c9-2c95bbdc42aa","ios":"levelo://app?vid=dc02301a-e25b-4088-96c9-2c95bbdc42aa"},"vehicle_type_id":"4","last_reported":1703074272,"current_range_meters":31600,"station_id":"ce4bgr92rcd13ifvqc6g","pricing_plan_id":"free"},{"bike_id":"c5e2906e-a12b-49a2-9196-ab926cf8a9a4","system_id":"levelo_inurba_marseille","lat":43.31341,"lon":5.367098,"is_reserved":false,"is_disabled":false,"rental_uris":{"android":"levelo://app?vid=c5e2906e-a12b-49a2-9196-ab926cf8a9a4","ios":"levelo://app?vid=c5e2906e-a12b-49a2-9196-ab926cf8a9a4"},"vehicle_type_id":"4","last_reported":1703074272,"current_range_meters":31600,"station_id":"ce4bgr92rcd13ifvqc6g","pricing_plan_id":"free"},{"bike_id":"b02f8698-ab43-4514-915c-7ac2039754d7","system_id":"levelo_inurba_marseille","lat":43.313391,"lon":5.36706,"is_reserved":false,"is_disabled":false,"rental_uris":{"android":"levelo://app?vid=b02f8698-ab43-4514-915c-7ac2039754d7","ios":"levelo://app?vid=b02f8698-ab43-4514-915c-7ac2039754d7"},"vehicle_type_id":"4","last_reported":1703074272,"current_range_meters":0,"station_id":"ce4bgr92rcd13ifvqc6g","pricing_plan_id":"free"},{"bike_id":"86521b66-fd6f-4efd-8e38-0fbeb1b6ed02","system_id":"levelo_inurba_marseille","lat":43.313391,"lon":5.36706,"is_reserved":false,"is_disabled":false,"rental_uris":{"android":"levelo://app?vid=86521b66-fd6f-4efd-8e38-0fbeb1b6ed02","ios":"levelo://app?vid=86521b66-fd6f-4efd-8e38-0fbeb1b6ed02"},"vehicle_type_id":"4","last_reported":1703074272,"current_range_meters":23600,"station_id":"ce4bgr92rcd13ifvqc6g","pricing_plan_id":"free"},{"bike_id":"4633ea53-e71a-451e-aa3a-bd0eb49de51a","system_id":"levelo_inurba_marseille","lat":43.312239,"lon":5.368562,"is_reserved":false,"is_disabled":false,"rental_uris":{"android":"levelo://app?vid=4633ea53-e71a-451e-aa3a-bd0eb49de51a","ios":"levelo://app?vid=4633ea53-e71a-451e-aa3a-bd0eb49de51a"},"vehicle_type_id":"4","last_reported":1703074272,"current_range_meters":27200,"station_id":"ce4bgl92rcd13ifvqbq0","pricing_plan_id":"free"},{"bike_id":"a8d5ba16-71a6-42eb-bd87-f3fc28468325","system_id":"levelo_inurba_marseille","lat":43.312239,"lon":5.368562,"is_reserved":false,"is_disabled":false,"rental_uris":{"android":"levelo://app?vid=a8d5ba16-71a6-42eb-bd87-f3fc28468325","ios":"levelo://app?vid=a8d5ba16-71a6-42eb-bd87-f3fc28468325"},"vehicle_type_id":"4","last_reported":1703074272,"current_range_meters":31200,"station_id":"ce4bgl92rcd13ifvqbq0","pricing_plan_id":"free"},{"bike_id":"cdc1f6b5-253b-459c-867e-da6142322fdc","system_id":"levelo_inurba_marseille","lat":43.312239,"lon":5.368562,"is_reserved":false,"is_disabled":false,"rental_uris":{"android":"levelo://app?vid=cdc1f6b5-253b-459c-867e-da6142322fdc","ios":"levelo://app?vid=cdc1f6b5-253b-459c-867e-da6142322fdc"},"vehicle_type_id":"4","last_reported":1703074272,"current_range_meters":24400,"station_id":"ce4bgl92rcd13ifvqbq0","pricing_plan_id":"free"},{"bike_id":"71695d16-2724-44d4-aaec-bf4108e95c6c","system_id":"levelo_inurba_marseille","lat":43.309076,"lon":5.368465,"is_reserved":false,"is_disabled":false,"rental_uris":{"android":"levelo://app?vid=71695d16-2724-44d4-aaec-bf4108e95c6c","ios":"levelo://app?vid=71695d16-2724-44d4-aaec-bf4108e95c6c"},"vehicle_type_id":"4","last_reported":1703074272,"current_range_meters":27600,"station_id":"ce4bgn92rcd13ifvqbvg","pricing_plan_id":"free"},{"bike_id":"af2242c6-3cfa-458c-8de6-984c2026785d","system_id":"levelo_inurba_marseille","lat":43.309076,"lon":5.368465,"is_reserved":false,"is_disabled":false,"rental_uris":{"android":"levelo://app?vid=af2242c6-3cfa-458c-8de6-984c2026785d","ios":"levelo://app?vid=af2242c6-3cfa-458c-8de6-984c2026785d"},"vehicle_type_id":"4","last_reported":1703074272,"current_range_meters":18000,"station_id":"ce4bgn92rcd13ifvqbvg","pricing_plan_id":"free"},{"bike_id":"86a11bf0-cb85-4e66-820f-6dc45e8d354e","system_id":"levelo_inurba_marseille","lat":43.309076,"lon":5.368465,"is_reserved":false,"is_disabled":false,"rental_uris":{"android":"levelo://app?vid=86a11bf0-cb85-4e66-820f-6dc45e8d354e","ios":"levelo://app?vid=86a11bf0-cb85-4e66-820f-6dc45e8d354e"},"vehicle_type_id":"4","last_reported":1703074272,"current_range_meters":28000,"station_id":"ce4bgn92rcd13ifvqbvg","pricing_plan_id":"free"},{"bike_id":"19d7187c-8b68-43b4-a011-e2111c86d3f4","system_id":"levelo_inurba_marseille","lat":43.309076,"lon":5.368465,"is_reserved":false,"is_disabled":false,"rental_uris":{"android":"levelo://app?vid=19d7187c-8b68-43b4-a011-e2111c86d3f4","ios":"levelo://app?vid=19d7187c-8b68-43b4-a011-e2111c86d3f4"},"vehicle_type_id":"4","last_reported":1703074272,"current_range_meters":27200,"station_id":"ce4bgn92rcd13ifvqbvg","pricing_plan_id":"free"},{"bike_id":"4aff95af-45e2-49b1-83fe-ad7f5fa6667c","system_id":"levelo_inurba_marseille","lat":43.309076,"lon":5.368465,"is_reserved":false,"is_disabled":false,"rental_uris":{"android":"levelo://app?vid=4aff95af-45e2-49b1-83fe-ad7f5fa6667c","ios":"levelo://app?vid=4aff95af-45e2-49b1-83fe-ad7f5fa6667c"},"vehicle_type_id":"4","last_reported":1703074272,"current_range_meters":31200,"station_id":"ce4bgn92rcd13ifvqbvg","pricing_plan_id":"free"},{"bike_id":"a5d97441-69da-47a7-befc-8b0468dc5882","system_id":"levelo_inurba_marseille","lat":43.309076,"lon":5.368465,"is_reserved":false,"is_disabled":false,"rental_uris":{"android":"levelo://app?vid=a5d97441-69da-47a7-befc-8b0468dc5882","ios":"levelo://app?vid=a5d97441-69da-47a7-befc-8b0468dc5882"},"vehicle_type_id":"4","last_reported":1703074272,"current_range_meters":23200,"station_id":"ce4bgn92rcd13ifvqbvg","pricing_plan_id":"free"},{"bike_id":"bf7bf10f-53c3-468c-92ad-fab9731bc205","system_id":"levelo_inurba_marseille","lat":43.309076,"lon":5.368465,"is_reserved":false,"is_disabled":false,"rental_uris":{"android":"levelo://app?vid=bf7bf10f-53c3-468c-92ad-fab9731bc205","ios":"levelo://app?vid=bf7bf10f-53c3-468c-92ad-fab9731bc205"},"vehicle_type_id":"4","last_reported":1703074272,"current_range_meters":26800,"station_id":"ce4bgn92rcd13ifvqbvg","pricing_plan_id":"free"},{"bike_id":"f102ec20-f63e-4f17-a402-2996ed87870c","system_id":"levelo_inurba_marseille","lat":43.309076,"lon":5.368465,"is_reserved":false,"is_disabled":false,"rental_uris":{"android":"levelo://app?vid=f102ec20-f63e-4f17-a402-2996ed87870c","ios":"levelo://app?vid=f102ec20-f63e-4f17-a402-2996ed87870c"},"vehicle_type_id":"4","last_reported":1703074272,"current_range_meters":18000,"station_id":"ce4bgn92rcd13ifvqbvg","pricing_plan_id":"free"},{"bike_id":"4657fffc-ee94-4a82-ac10-6b95d387b3a3","system_id":"levelo_inurba_marseille","lat":43.309076,"lon":5.368465,"is_reserved":false,"is_disabled":false,"rental_uris":{"android":"levelo://app?vid=4657fffc-ee94-4a82-ac10-6b95d387b3a3","ios":"levelo://app?vid=4657fffc-ee94-4a82-ac10-6b95d387b3a3"},"vehicle_type_id":"4","last_reported":1703074272,"current_range_meters":31200,"station_id":"ce4bgn92rcd13ifvqbvg","pricing_plan_id":"free"},{"bike_id":"1c9c2674-9e54-4819-b17d-e04022c180db","system_id":"levelo_inurba_marseille","lat":43.309076,"lon":5.368465,"is_reserved":false,"is_disabled":false,"rental_uris":{"android":"levelo://app?vid=1c9c2674-9e54-4819-b17d-e04022c180db","ios":"levelo://app?vid=1c9c2674-9e54-4819-b17d-e04022c180db"},"vehicle_type_id":"4","last_reported":1703074272,"current_range_meters":30400,"station_id":"ce4bgn92rcd13ifvqbvg","pricing_plan_id":"free"},{"bike_id":"52015b86-f3ac-4181-a38b-3a35ee515e64","system_id":"levelo_inurba_marseille","lat":43.314811,"lon":5.373103,"is_reserved":false,"is_disabled":false,"rental_uris":{"android":"levelo://app?vid=52015b86-f3ac-4181-a38b-3a35ee515e64","ios":"levelo://app?vid=52015b86-f3ac-4181-a38b-3a35ee515e64"},"vehicle_type_id":"4","last_reported":1703074272,"current_range_meters":20000,"station_id":"ce4bgt12rcd13ifvqcd0","pricing_plan_id":"free"},{"bike_id":"525b3a04-fc6a-42f1-b8bd-dcb186fceac6","system_id":"levelo_inurba_marseille","lat":43.309039,"lon":5.371797,"is_reserved":false,"is_disabled":false,"rental_uris":{"android":"levelo://app?vid=525b3a04-fc6a-42f1-b8bd-dcb186fceac6","ios":"levelo://app?vid=525b3a04-fc6a-42f1-b8bd-dcb186fceac6"},"vehicle_type_id":"4","last_reported":1703074272,"current_range_meters":29600,"station_id":"ce4bguh2rcd13ifvqckg","pricing_plan_id":"free"},{"bike_id":"1bed87af-7d3a-437a-9b52-33d2b6b46e35","system_id":"levelo_inurba_marseille","lat":43.30877,"lon":5.37192,"is_reserved":false,"is_disabled":false,"rental_uris":{"android":"levelo://app?vid=1bed87af-7d3a-437a-9b52-33d2b6b46e35","ios":"levelo://app?vid=1bed87af-7d3a-437a-9b52-33d2b6b46e35"},"vehicle_type_id":"4","last_reported":1703074272,"current_range_meters":23600,"station_id":"ce4bguh2rcd13ifvqckg","pricing_plan_id":"free"},{"bike_id":"93757b9d-daf7-46db-acb0-483674818b1a","system_id":"levelo_inurba_marseille","lat":43.305712,"lon":5.365641,"is_reserved":false,"is_disabled":false,"rental_uris":{"android":"levelo://app?vid=93757b9d-daf7-46db-acb0-483674818b1a","ios":"levelo://app?vid=93757b9d-daf7-46db-acb0-483674818b1a"},"vehicle_type_id":"4","last_reported":1703074272,"current_range_meters":12800,"station_id":"ce4bgs12rcd13ifvqcag","pricing_plan_id":"free"},{"bike_id":"aff2b6b9-42b5-4cb9-9669-71a9b61bae8d","system_id":"levelo_inurba_marseille","lat":43.305712,"lon":5.365641,"is_reserved":false,"is_disabled":false,"rental_uris":{"android":"levelo://app?vid=aff2b6b9-42b5-4cb9-9669-71a9b61bae8d","ios":"levelo://app?vid=aff2b6b9-42b5-4cb9-9669-71a9b61bae8d"},"vehicle_type_id":"4","last_reported":1703074272,"current_range_meters":0,"station_id":"ce4bgs12rcd13ifvqcag","pricing_plan_id":"free"},{"bike_id":"bf0bfcb5-f739-463a-8171-bfc64574555a","system_id":"levelo_inurba_marseille","lat":43.305712,"lon":5.365641,"is_reserved":false,"is_disabled":false,"rental_uris":{"android":"levelo://app?vid=bf0bfcb5-f739-463a-8171-bfc64574555a","ios":"levelo://app?vid=bf0bfcb5-f739-463a-8171-bfc64574555a"},"vehicle_type_id":"4","last_reported":1703074272,"current_range_meters":30800,"station_id":"ce4bgs12rcd13ifvqcag","pricing_plan_id":"free"},{"bike_id":"41c8cb57-5290-4eb6-94e0-6b14d989b2e4","system_id":"levelo_inurba_marseille","lat":43.305368,"lon":5.367343,"is_reserved":false,"is_disabled":false,"rental_uris":{"android":"levelo://app?vid=41c8cb57-5290-4eb6-94e0-6b14d989b2e4","ios":"levelo://app?vid=41c8cb57-5290-4eb6-94e0-6b14d989b2e4"},"vehicle_type_id":"4","last_reported":1703074272,"current_range_meters":24000,"station_id":"ce4bgrp2rcd13ifvqc9g","pricing_plan_id":"free"},{"bike_id":"4b95994c-e128-418d-b3fe-1502b60fd2a1","system_id":"levelo_inurba_marseille","lat":43.305467,"lon":5.365353,"is_reserved":false,"is_disabled":false,"rental_uris":{"android":"levelo://app?vid=4b95994c-e128-418d-b3fe-1502b60fd2a1","ios":"levelo://app?vid=4b95994c-e128-418d-b3fe-1502b60fd2a1"},"vehicle_type_id":"4","last_reported":1703074272,"current_range_meters":1200,"station_id":"ce4bgs12rcd13ifvqcag","pricing_plan_id":"free"},{"bike_id":"af934bb9-4450-4abc-a2fc-577eba17fcaf","system_id":"levelo_inurba_marseille","lat":43.305714,"lon":5.365633,"is_reserved":false,"is_disabled":false,"rental_uris":{"android":"levelo://app?vid=af934bb9-4450-4abc-a2fc-577eba17fcaf","ios":"levelo://app?vid=af934bb9-4450-4abc-a2fc-577eba17fcaf"},"vehicle_type_id":"4","last_reported":1703074272,"current_range_meters":26400,"station_id":"ce4bgs12rcd13ifvqcag","pricing_plan_id":"free"},{"bike_id":"b04255b9-a9e3-412d-adc5-3107a87e52ae","system_id":"levelo_inurba_marseille","lat":43.30533,"lon":5.36702,"is_reserved":false,"is_disabled":false,"rental_uris":{"android":"levelo://app?vid=b04255b9-a9e3-412d-adc5-3107a87e52ae","ios":"levelo://app?vid=b04255b9-a9e3-412d-adc5-3107a87e52ae"},"vehicle_type_id":"4","last_reported":1703074272,"current_range_meters":0,"station_id":"ce4bgrp2rcd13ifvqc9g","pricing_plan_id":"free"},{"bike_id":"13b28650-b328-4f05-b45b-c31d78685b38","system_id":"levelo_inurba_marseille","lat":43.30539,"lon":5.3656,"is_reserved":false,"is_disabled":false,"rental_uris":{"android":"levelo://app?vid=13b28650-b328-4f05-b45b-c31d78685b38","ios":"levelo://app?vid=13b28650-b328-4f05-b45b-c31d78685b38"},"vehicle_type_id":"4","last_reported":1703074272,"current_range_meters":29600,"station_id":"ce4bgs12rcd13ifvqcag","pricing_plan_id":"free"},{"bike_id":"5488b5b3-3828-4ff2-b18e-f598e77c1ca3","system_id":"levelo_inurba_marseille","lat":43.305368,"lon":5.367343,"is_reserved":false,"is_disabled":false,"rental_uris":{"android":"levelo://app?vid=5488b5b3-3828-4ff2-b18e-f598e77c1ca3","ios":"levelo://app?vid=5488b5b3-3828-4ff2-b18e-f598e77c1ca3"},"vehicle_type_id":"4","last_reported":1703074272,"current_range_meters":29600,"station_id":"ce4bgrp2rcd13ifvqc9g","pricing_plan_id":"free"},{"bike_id":"3ac478f3-faea-4750-8ba5-fb7df802dcd7","system_id":"levelo_inurba_marseille","lat":43.305401,"lon":5.365324,"is_reserved":false,"is_disabled":false,"rental_uris":{"android":"levelo://app?vid=3ac478f3-faea-4750-8ba5-fb7df802dcd7","ios":"levelo://app?vid=3ac478f3-faea-4750-8ba5-fb7df802dcd7"},"vehicle_type_id":"4","last_reported":1703074272,"current_range_meters":18400,"station_id":"ce4bgs12rcd13ifvqcag","pricing_plan_id":"free"},{"bike_id":"8867c2d7-f6b4-4050-8448-6bae24a286c8","system_id":"levelo_inurba_marseille","lat":43.305368,"lon":5.367343,"is_reserved":false,"is_disabled":false,"rental_uris":{"android":"levelo://app?vid=8867c2d7-f6b4-4050-8448-6bae24a286c8","ios":"levelo://app?vid=8867c2d7-f6b4-4050-8448-6bae24a286c8"},"vehicle_type_id":"4","last_reported":1703074272,"current_range_meters":25200,"station_id":"ce4bgrp2rcd13ifvqc9g","pricing_plan_id":"free"},{"bike_id":"afc8e02f-afd4-492d-a222-998b515fd8ee","system_id":"levelo_inurba_marseille","lat":43.305706,"lon":5.365654,"is_reserved":false,"is_disabled":false,"rental_uris":{"android":"levelo://app?vid=afc8e02f-afd4-492d-a222-998b515fd8ee","ios":"levelo://app?vid=afc8e02f-afd4-492d-a222-998b515fd8ee"},"vehicle_type_id":"4","last_reported":1703074272,"current_range_meters":3200,"station_id":"ce4bgs12rcd13ifvqcag","pricing_plan_id":"free"},{"bike_id":"21a87b11-b34e-4ac9-b840-399e42220625","system_id":"levelo_inurba_marseille","lat":43.305706,"lon":5.365654,"is_reserved":false,"is_disabled":false,"rental_uris":{"android":"levelo://app?vid=21a87b11-b34e-4ac9-b840-399e42220625","ios":"levelo://app?vid=21a87b11-b34e-4ac9-b840-399e42220625"},"vehicle_type_id":"4","last_reported":1703074272,"current_range_meters":31200,"station_id":"ce4bgs12rcd13ifvqcag","pricing_plan_id":"free"},{"bike_id":"bbea508e-3616-441b-98d3-06c47cb809ce","system_id":"levelo_inurba_marseille","lat":43.30535,"lon":5.36545,"is_reserved":false,"is_disabled":false,"rental_uris":{"android":"levelo://app?vid=bbea508e-3616-441b-98d3-06c47cb809ce","ios":"levelo://app?vid=bbea508e-3616-441b-98d3-06c47cb809ce"},"vehicle_type_id":"4","last_reported":1703074272,"current_range_meters":19600,"station_id":"ce4bgs12rcd13ifvqcag","pricing_plan_id":"free"},{"bike_id":"db88c010-f958-487b-a005-f8c3a49b23aa","system_id":"levelo_inurba_marseille","lat":43.305706,"lon":5.365654,"is_reserved":false,"is_disabled":false,"rental_uris":{"android":"levelo://app?vid=db88c010-f958-487b-a005-f8c3a49b23aa","ios":"levelo://app?vid=db88c010-f958-487b-a005-f8c3a49b23aa"},"vehicle_type_id":"4","last_reported":1703074272,"current_range_meters":16800,"station_id":"ce4bgs12rcd13ifvqcag","pricing_plan_id":"free"},{"bike_id":"fcf54c51-05e3-4f0e-b866-95757e00cd2b","system_id":"levelo_inurba_marseille","lat":43.305706,"lon":5.365654,"is_reserved":false,"is_disabled":false,"rental_uris":{"android":"levelo://app?vid=fcf54c51-05e3-4f0e-b866-95757e00cd2b","ios":"levelo://app?vid=fcf54c51-05e3-4f0e-b866-95757e00cd2b"},"vehicle_type_id":"4","last_reported":1703074272,"current_range_meters":22400,"station_id":"ce4bgs12rcd13ifvqcag","pricing_plan_id":"free"},{"bike_id":"227b19b3-a278-4dea-99dc-5c91f230706c","system_id":"levelo_inurba_marseille","lat":43.305706,"lon":5.365654,"is_reserved":false,"is_disabled":false,"rental_uris":{"android":"levelo://app?vid=227b19b3-a278-4dea-99dc-5c91f230706c","ios":"levelo://app?vid=227b19b3-a278-4dea-99dc-5c91f230706c"},"vehicle_type_id":"4","last_reported":1703074272,"current_range_meters":16000,"station_id":"ce4bgs12rcd13ifvqcag","pricing_plan_id":"free"},{"bike_id":"f2f66771-a9ed-4764-94b1-e85642bec9ec","system_id":"levelo_inurba_marseille","lat":43.305706,"lon":5.365654,"is_reserved":false,"is_disabled":false,"rental_uris":{"android":"levelo://app?vid=f2f66771-a9ed-4764-94b1-e85642bec9ec","ios":"levelo://app?vid=f2f66771-a9ed-4764-94b1-e85642bec9ec"},"vehicle_type_id":"4","last_reported":1703074272,"current_range_meters":24400,"station_id":"ce4bgs12rcd13ifvqcag","pricing_plan_id":"free"},{"bike_id":"d2b9a3a8-85c2-48d3-9521-8977b6132821","system_id":"levelo_inurba_marseille","lat":43.311131,"lon":5.377651,"is_reserved":false,"is_disabled":false,"rental_uris":{"android":"levelo://app?vid=d2b9a3a8-85c2-48d3-9521-8977b6132821","ios":"levelo://app?vid=d2b9a3a8-85c2-48d3-9521-8977b6132821"},"vehicle_type_id":"4","last_reported":1703074272,"current_range_meters":0,"station_id":"ce4bgt92rcd13ifvqcg0","pricing_plan_id":"free"},{"bike_id":"d0c2a4e8-f479-48ea-a48b-186620232029","system_id":"levelo_inurba_marseille","lat":43.303046,"lon":5.368981,"is_reserved":false,"is_disabled":false,"rental_uris":{"android":"levelo://app?vid=d0c2a4e8-f479-48ea-a48b-186620232029","ios":"levelo://app?vid=d0c2a4e8-f479-48ea-a48b-186620232029"},"vehicle_type_id":"4","last_reported":1703074272,"current_range_meters":17200,"station_id":"ce4bgqh2rcd13ifvqc5g","pricing_plan_id":"free"},{"bike_id":"ccd6d0ec-d21d-42b6-b226-8fca55b9fb61","system_id":"levelo_inurba_marseille","lat":43.30304,"lon":5.368987,"is_reserved":false,"is_disabled":false,"rental_uris":{"android":"levelo://app?vid=ccd6d0ec-d21d-42b6-b226-8fca55b9fb61","ios":"levelo://app?vid=ccd6d0ec-d21d-42b6-b226-8fca55b9fb61"},"vehicle_type_id":"4","last_reported":1703074272,"current_range_meters":7600,"station_id":"ce4bgqh2rcd13ifvqc5g","pricing_plan_id":"free"},{"bike_id":"d66c1ecb-70e6-474c-9e39-635044890ed2","system_id":"levelo_inurba_marseille","lat":43.303046,"lon":5.368981,"is_reserved":false,"is_disabled":false,"rental_uris":{"android":"levelo://app?vid=d66c1ecb-70e6-474c-9e39-635044890ed2","ios":"levelo://app?vid=d66c1ecb-70e6-474c-9e39-635044890ed2"},"vehicle_type_id":"4","last_reported":1703074272,"current_range_meters":28400,"station_id":"ce4bgqh2rcd13ifvqc5g","pricing_plan_id":"free"},{"bike_id":"a64f0ec9-1310-4315-b6b7-70c1dea3a0b1","system_id":"levelo_inurba_marseille","lat":43.303046,"lon":5.368981,"is_reserved":false,"is_disabled":false,"rental_uris":{"android":"levelo://app?vid=a64f0ec9-1310-4315-b6b7-70c1dea3a0b1","ios":"levelo://app?vid=a64f0ec9-1310-4315-b6b7-70c1dea3a0b1"},"vehicle_type_id":"4","last_reported":1703074272,"current_range_meters":25600,"station_id":"ce4bgqh2rcd13ifvqc5g","pricing_plan_id":"free"},{"bike_id":"34c6a68a-92d9-45c2-b821-e0f946dee425","system_id":"levelo_inurba_marseille","lat":43.301939,"lon":5.366286,"is_reserved":false,"is_disabled":false,"rental_uris":{"android":"levelo://app?vid=34c6a68a-92d9-45c2-b821-e0f946dee425","ios":"levelo://app?vid=34c6a68a-92d9-45c2-b821-e0f946dee425"},"vehicle_type_id":"4","last_reported":1703074272,"current_range_meters":20400,"station_id":"ce4bgrh2rcd13ifvqc8g","pricing_plan_id":"free"},{"bike_id":"4a83032c-8d65-4f7e-8760-68a8633a4391","system_id":"levelo_inurba_marseille","lat":43.301939,"lon":5.366286,"is_reserved":false,"is_disabled":false,"rental_uris":{"android":"levelo://app?vid=4a83032c-8d65-4f7e-8760-68a8633a4391","ios":"levelo://app?vid=4a83032c-8d65-4f7e-8760-68a8633a4391"},"vehicle_type_id":"4","last_reported":1703074272,"current_range_meters":22000,"station_id":"ce4bgrh2rcd13ifvqc8g","pricing_plan_id":"free"},{"bike_id":"e87e6e4b-3c1d-4815-aa39-751e45452f4d","system_id":"levelo_inurba_marseille","lat":43.301939,"lon":5.366286,"is_reserved":false,"is_disabled":false,"rental_uris":{"android":"levelo://app?vid=e87e6e4b-3c1d-4815-aa39-751e45452f4d","ios":"levelo://app?vid=e87e6e4b-3c1d-4815-aa39-751e45452f4d"},"vehicle_type_id":"4","last_reported":1703074272,"current_range_meters":24400,"station_id":"ce4bgrh2rcd13ifvqc8g","pricing_plan_id":"free"},{"bike_id":"b9073c8e-1955-41b7-8358-9169d26ca109","system_id":"levelo_inurba_marseille","lat":43.308012,"lon":5.381511,"is_reserved":false,"is_disabled":false,"rental_uris":{"android":"levelo://app?vid=b9073c8e-1955-41b7-8358-9169d26ca109","ios":"levelo://app?vid=b9073c8e-1955-41b7-8358-9169d26ca109"},"vehicle_type_id":"4","last_reported":1703074272,"current_range_meters":400,"station_id":"ce4bgt12rcd13ifvqce0","pricing_plan_id":"free"},{"bike_id":"b50d2bc0-f1ac-4e3b-a2d9-87965b9f2e4a","system_id":"levelo_inurba_marseille","lat":43.304606,"lon":5.379026,"is_reserved":false,"is_disabled":false,"rental_uris":{"android":"levelo://app?vid=b50d2bc0-f1ac-4e3b-a2d9-87965b9f2e4a","ios":"levelo://app?vid=b50d2bc0-f1ac-4e3b-a2d9-87965b9f2e4a"},"vehicle_type_id":"4","last_reported":1703074272,"current_range_meters":23600,"station_id":"ce4bgup2rcd13ifvqcn0","pricing_plan_id":"free"},{"bike_id":"c8b46010-fbb6-4df5-8a95-bcea8683587d","system_id":"levelo_inurba_marseille","lat":43.304606,"lon":5.379026,"is_reserved":false,"is_disabled":false,"rental_uris":{"android":"levelo://app?vid=c8b46010-fbb6-4df5-8a95-bcea8683587d","ios":"levelo://app?vid=c8b46010-fbb6-4df5-8a95-bcea8683587d"},"vehicle_type_id":"4","last_reported":1703074272,"current_range_meters":12400,"station_id":"ce4bgup2rcd13ifvqcn0","pricing_plan_id":"free"},{"bike_id":"da33be88-e974-44b5-9990-4e66885cc6f1","system_id":"levelo_inurba_marseille","lat":43.304606,"lon":5.379026,"is_reserved":false,"is_disabled":false,"rental_uris":{"android":"levelo://app?vid=da33be88-e974-44b5-9990-4e66885cc6f1","ios":"levelo://app?vid=da33be88-e974-44b5-9990-4e66885cc6f1"},"vehicle_type_id":"4","last_reported":1703074272,"current_range_meters":25200,"station_id":"ce4bgup2rcd13ifvqcn0","pricing_plan_id":"free"},{"bike_id":"948a77c1-7eb4-4bbb-aee2-23c136bca4ed","system_id":"levelo_inurba_marseille","lat":43.301453,"lon":5.37418,"is_reserved":false,"is_disabled":false,"rental_uris":{"android":"levelo://app?vid=948a77c1-7eb4-4bbb-aee2-23c136bca4ed","ios":"levelo://app?vid=948a77c1-7eb4-4bbb-aee2-23c136bca4ed"},"vehicle_type_id":"4","last_reported":1703074272,"current_range_meters":16000,"station_id":"ce4bgs92rcd13ifvqcc0","pricing_plan_id":"free"},{"bike_id":"1afd39e5-0a83-4392-991a-7aad1ed19507","system_id":"levelo_inurba_marseille","lat":43.302784,"lon":5.377158,"is_reserved":false,"is_disabled":false,"rental_uris":{"android":"levelo://app?vid=1afd39e5-0a83-4392-991a-7aad1ed19507","ios":"levelo://app?vid=1afd39e5-0a83-4392-991a-7aad1ed19507"},"vehicle_type_id":"4","last_reported":1703074272,"current_range_meters":22000,"station_id":"ce4bguh2rcd13ifvqcj0","pricing_plan_id":"free"},{"bike_id":"6bd330e5-be91-4c6a-bd12-6b4c0748505e","system_id":"levelo_inurba_marseille","lat":43.319935,"lon":5.381699,"is_reserved":false,"is_disabled":false,"rental_uris":{"android":"levelo://app?vid=6bd330e5-be91-4c6a-bd12-6b4c0748505e","ios":"levelo://app?vid=6bd330e5-be91-4c6a-bd12-6b4c0748505e"},"vehicle_type_id":"4","last_reported":1703074272,"current_range_meters":10800,"station_id":"ce4bhr12rcd13ifvqhpg","pricing_plan_id":"free"},{"bike_id":"d3a3c088-3d55-404e-8a08-8960f046eff1","system_id":"levelo_inurba_marseille","lat":43.313571,"lon":5.384829,"is_reserved":false,"is_disabled":false,"rental_uris":{"android":"levelo://app?vid=d3a3c088-3d55-404e-8a08-8960f046eff1","ios":"levelo://app?vid=d3a3c088-3d55-404e-8a08-8960f046eff1"},"vehicle_type_id":"4","last_reported":1703074272,"current_range_meters":12400,"station_id":"ce4bgt92rcd13ifvqcf0","pricing_plan_id":"free"},{"bike_id":"95565b50-3a73-4110-9388-94fe52924064","system_id":"levelo_inurba_marseille","lat":43.299222,"lon":5.365554,"is_reserved":false,"is_disabled":false,"rental_uris":{"android":"levelo://app?vid=95565b50-3a73-4110-9388-94fe52924064","ios":"levelo://app?vid=95565b50-3a73-4110-9388-94fe52924064"},"vehicle_type_id":"4","last_reported":1703074272,"current_range_meters":4400,"station_id":"ce4bgm92rcd13ifvqbr0","pricing_plan_id":"free"},{"bike_id":"2fb55c13-ce51-4ed2-af2a-f23356d2ff7e","system_id":"levelo_inurba_marseille","lat":43.299222,"lon":5.365554,"is_reserved":false,"is_disabled":false,"rental_uris":{"android":"levelo://app?vid=2fb55c13-ce51-4ed2-af2a-f23356d2ff7e","ios":"levelo://app?vid=2fb55c13-ce51-4ed2-af2a-f23356d2ff7e"},"vehicle_type_id":"4","last_reported":1703074272,"current_range_meters":24000,"station_id":"ce4bgm92rcd13ifvqbr0","pricing_plan_id":"free"},{"bike_id":"f96e4042-fdeb-48be-b5ab-f347a2be2f40","system_id":"levelo_inurba_marseille","lat":43.305364,"lon":5.384119,"is_reserved":false,"is_disabled":false,"rental_uris":{"android":"levelo://app?vid=f96e4042-fdeb-48be-b5ab-f347a2be2f40","ios":"levelo://app?vid=f96e4042-fdeb-48be-b5ab-f347a2be2f40"},"vehicle_type_id":"4","last_reported":1703074272,"current_range_meters":4800,"station_id":"ce4bgg92rcd13ifvqb30","pricing_plan_id":"free"},{"bike_id":"615a0575-1bb6-44ae-bc5b-27e2d25d72d9","system_id":"levelo_inurba_marseille","lat":43.30537,"lon":5.384319,"is_reserved":false,"is_disabled":false,"rental_uris":{"android":"levelo://app?vid=615a0575-1bb6-44ae-bc5b-27e2d25d72d9","ios":"levelo://app?vid=615a0575-1bb6-44ae-bc5b-27e2d25d72d9"},"vehicle_type_id":"4","last_reported":1703074272,"current_range_meters":19200,"station_id":"ce4bgg92rcd13ifvqb30","pricing_plan_id":"free"},{"bike_id":"087bc658-9f88-4b2a-98c6-90157f44baee","system_id":"levelo_inurba_marseille","lat":43.299243,"lon":5.37481,"is_reserved":false,"is_disabled":false,"rental_uris":{"android":"levelo://app?vid=087bc658-9f88-4b2a-98c6-90157f44baee","ios":"levelo://app?vid=087bc658-9f88-4b2a-98c6-90157f44baee"},"vehicle_type_id":"4","last_reported":1703074272,"current_range_meters":18800,"station_id":"ce4bgjh2rcd13ifvqbg0","pricing_plan_id":"free"},{"bike_id":"04742fce-b899-4dfe-ab52-a05d5116e83a","system_id":"levelo_inurba_marseille","lat":43.322872,"lon":5.382756,"is_reserved":false,"is_disabled":false,"rental_uris":{"android":"levelo://app?vid=04742fce-b899-4dfe-ab52-a05d5116e83a","ios":"levelo://app?vid=04742fce-b899-4dfe-ab52-a05d5116e83a"},"vehicle_type_id":"4","last_reported":1703074272,"current_range_meters":29600,"station_id":"ce4bhr12rcd13ifvqhqg","pricing_plan_id":"free"},{"bike_id":"48ebe570-3797-4c11-9550-8036b565ccb1","system_id":"levelo_inurba_marseille","lat":43.328276,"lon":5.366704,"is_reserved":false,"is_disabled":false,"rental_uris":{"android":"levelo://app?vid=48ebe570-3797-4c11-9550-8036b565ccb1","ios":"levelo://app?vid=48ebe570-3797-4c11-9550-8036b565ccb1"},"vehicle_type_id":"4","last_reported":1703074272,"current_range_meters":28000,"station_id":"ce4bhs92rcd13ifvqi0g","pricing_plan_id":"free"},{"bike_id":"c22e4b9f-ba20-4a7c-a7c8-fd0a73d903e0","system_id":"levelo_inurba_marseille","lat":43.32828,"lon":5.366778,"is_reserved":false,"is_disabled":false,"rental_uris":{"android":"levelo://app?vid=c22e4b9f-ba20-4a7c-a7c8-fd0a73d903e0","ios":"levelo://app?vid=c22e4b9f-ba20-4a7c-a7c8-fd0a73d903e0"},"vehicle_type_id":"4","last_reported":1703074272,"current_range_meters":23200,"station_id":"ce4bhs92rcd13ifvqi0g","pricing_plan_id":"free"},{"bike_id":"eb8ebe7d-6983-4780-997c-9447c3c0c6e2","system_id":"levelo_inurba_marseille","lat":43.32829,"lon":5.36685,"is_reserved":false,"is_disabled":false,"rental_uris":{"android":"levelo://app?vid=eb8ebe7d-6983-4780-997c-9447c3c0c6e2","ios":"levelo://app?vid=eb8ebe7d-6983-4780-997c-9447c3c0c6e2"},"vehicle_type_id":"4","last_reported":1703074272,"current_range_meters":28800,"station_id":"ce4bhs92rcd13ifvqi0g","pricing_plan_id":"free"},{"bike_id":"c12df297-168e-4ca3-95d9-a300ff1ffbd9","system_id":"levelo_inurba_marseille","lat":43.328371,"lon":5.366909,"is_reserved":false,"is_disabled":false,"rental_uris":{"android":"levelo://app?vid=c12df297-168e-4ca3-95d9-a300ff1ffbd9","ios":"levelo://app?vid=c12df297-168e-4ca3-95d9-a300ff1ffbd9"},"vehicle_type_id":"4","last_reported":1703074272,"current_range_meters":30400,"station_id":"ce4bhs92rcd13ifvqi0g","pricing_plan_id":"free"},{"bike_id":"cb97846c-9508-4ec4-82fd-1a637ef7dd90","system_id":"levelo_inurba_marseille","lat":43.32831,"lon":5.36673,"is_reserved":false,"is_disabled":false,"rental_uris":{"android":"levelo://app?vid=cb97846c-9508-4ec4-82fd-1a637ef7dd90","ios":"levelo://app?vid=cb97846c-9508-4ec4-82fd-1a637ef7dd90"},"vehicle_type_id":"4","last_reported":1703074272,"current_range_meters":1600,"station_id":"ce4bhs92rcd13ifvqi0g","pricing_plan_id":"free"},{"bike_id":"3f4a7c0a-9bb3-46c1-bd5c-d0138c78b4a3","system_id":"levelo_inurba_marseille","lat":43.32832,"lon":5.36684,"is_reserved":false,"is_disabled":false,"rental_uris":{"android":"levelo://app?vid=3f4a7c0a-9bb3-46c1-bd5c-d0138c78b4a3","ios":"levelo://app?vid=3f4a7c0a-9bb3-46c1-bd5c-d0138c78b4a3"},"vehicle_type_id":"4","last_reported":1703074272,"current_range_meters":5200,"station_id":"ce4bhs92rcd13ifvqi0g","pricing_plan_id":"free"},{"bike_id":"2a8a59a2-86cc-48a9-8714-ae0edcb4d489","system_id":"levelo_inurba_marseille","lat":43.328324,"lon":5.366849,"is_reserved":false,"is_disabled":false,"rental_uris":{"android":"levelo://app?vid=2a8a59a2-86cc-48a9-8714-ae0edcb4d489","ios":"levelo://app?vid=2a8a59a2-86cc-48a9-8714-ae0edcb4d489"},"vehicle_type_id":"4","last_reported":1703074272,"current_range_meters":3200,"station_id":"ce4bhs92rcd13ifvqi0g","pricing_plan_id":"free"},{"bike_id":"e2f463aa-a8c9-4001-b05d-aa44da84df0b","system_id":"levelo_inurba_marseille","lat":43.297163,"lon":5.365866,"is_reserved":false,"is_disabled":false,"rental_uris":{"android":"levelo://app?vid=e2f463aa-a8c9-4001-b05d-aa44da84df0b","ios":"levelo://app?vid=e2f463aa-a8c9-4001-b05d-aa44da84df0b"},"vehicle_type_id":"4","last_reported":1703074272,"current_range_meters":19200,"station_id":"ce4bgn12rcd13ifvqbt0","pricing_plan_id":"free"},{"bike_id":"af776354-252d-486e-bfb5-ee0f662725c3","system_id":"levelo_inurba_marseille","lat":43.297163,"lon":5.365866,"is_reserved":false,"is_disabled":false,"rental_uris":{"android":"levelo://app?vid=af776354-252d-486e-bfb5-ee0f662725c3","ios":"levelo://app?vid=af776354-252d-486e-bfb5-ee0f662725c3"},"vehicle_type_id":"4","last_reported":1703074272,"current_range_meters":29600,"station_id":"ce4bgn12rcd13ifvqbt0","pricing_plan_id":"free"},{"bike_id":"cc51d32e-c960-4da1-92c6-b4cd39df0a99","system_id":"levelo_inurba_marseille","lat":43.29676,"lon":5.37213,"is_reserved":false,"is_disabled":false,"rental_uris":{"android":"levelo://app?vid=cc51d32e-c960-4da1-92c6-b4cd39df0a99","ios":"levelo://app?vid=cc51d32e-c960-4da1-92c6-b4cd39df0a99"},"vehicle_type_id":"4","last_reported":1703074272,"current_range_meters":31200,"station_id":"","pricing_plan_id":"free"},{"bike_id":"d4f6701c-e3f2-46f1-9d79-a244618bd2b1","system_id":"levelo_inurba_marseille","lat":43.29573,"lon":5.367355,"is_reserved":false,"is_disabled":false,"rental_uris":{"android":"levelo://app?vid=d4f6701c-e3f2-46f1-9d79-a244618bd2b1","ios":"levelo://app?vid=d4f6701c-e3f2-46f1-9d79-a244618bd2b1"},"vehicle_type_id":"4","last_reported":1703074272,"current_range_meters":2000,"station_id":"ce4bgph2rcd13ifvqc2g","pricing_plan_id":"free"},{"bike_id":"ff623d91-35d5-4ef5-a183-a417a18cb427","system_id":"levelo_inurba_marseille","lat":43.296921,"lon":5.376579,"is_reserved":false,"is_disabled":false,"rental_uris":{"android":"levelo://app?vid=ff623d91-35d5-4ef5-a183-a417a18cb427","ios":"levelo://app?vid=ff623d91-35d5-4ef5-a183-a417a18cb427"},"vehicle_type_id":"4","last_reported":1703074272,"current_range_meters":31200,"station_id":"ce4bgkh2rcd13ifvqbl0","pricing_plan_id":"free"},{"bike_id":"8dc20474-4df3-40fe-a4f5-414c8553bf61","system_id":"levelo_inurba_marseille","lat":43.299028,"lon":5.381509,"is_reserved":false,"is_disabled":false,"rental_uris":{"android":"levelo://app?vid=8dc20474-4df3-40fe-a4f5-414c8553bf61","ios":"levelo://app?vid=8dc20474-4df3-40fe-a4f5-414c8553bf61"},"vehicle_type_id":"4","last_reported":1703074272,"current_range_meters":30000,"station_id":"ce4bgj12rcd13ifvqbc0","pricing_plan_id":"free"},{"bike_id":"f099c31a-0691-4461-9f40-2980d6193672","system_id":"levelo_inurba_marseille","lat":43.309589,"lon":5.390258,"is_reserved":false,"is_disabled":false,"rental_uris":{"android":"levelo://app?vid=f099c31a-0691-4461-9f40-2980d6193672","ios":"levelo://app?vid=f099c31a-0691-4461-9f40-2980d6193672"},"vehicle_type_id":"4","last_reported":1703074272,"current_range_meters":3600,"station_id":"ce4bgup2rcd13ifvqco0","pricing_plan_id":"free"},{"bike_id":"98b47788-ccdb-4f07-b2bd-5fec96e5707d","system_id":"levelo_inurba_marseille","lat":43.317557,"lon":5.390173,"is_reserved":false,"is_disabled":false,"rental_uris":{"android":"levelo://app?vid=98b47788-ccdb-4f07-b2bd-5fec96e5707d","ios":"levelo://app?vid=98b47788-ccdb-4f07-b2bd-5fec96e5707d"},"vehicle_type_id":"4","last_reported":1703074272,"current_range_meters":400,"station_id":"ce4bhqp2rcd13ifvqhng","pricing_plan_id":"free"},{"bike_id":"b041e015-21f2-44ae-a5b0-923fa3a9243f","system_id":"levelo_inurba_marseille","lat":43.317557,"lon":5.390173,"is_reserved":false,"is_disabled":false,"rental_uris":{"android":"levelo://app?vid=b041e015-21f2-44ae-a5b0-923fa3a9243f","ios":"levelo://app?vid=b041e015-21f2-44ae-a5b0-923fa3a9243f"},"vehicle_type_id":"4","last_reported":1703074272,"current_range_meters":29200,"station_id":"ce4bhqp2rcd13ifvqhng","pricing_plan_id":"free"},{"bike_id":"95f5bff7-373e-424c-a668-0e9d0632182b","system_id":"levelo_inurba_marseille","lat":43.298037,"lon":5.381066,"is_reserved":false,"is_disabled":false,"rental_uris":{"android":"levelo://app?vid=95f5bff7-373e-424c-a668-0e9d0632182b","ios":"levelo://app?vid=95f5bff7-373e-424c-a668-0e9d0632182b"},"vehicle_type_id":"4","last_reported":1703074272,"current_range_meters":22800,"station_id":"ce4bgip2rcd13ifvqbb0","pricing_plan_id":"free"},{"bike_id":"cf50f9f8-1c72-41f1-b426-ff1da7d852a1","system_id":"levelo_inurba_marseille","lat":43.296263,"lon":5.377094,"is_reserved":false,"is_disabled":false,"rental_uris":{"android":"levelo://app?vid=cf50f9f8-1c72-41f1-b426-ff1da7d852a1","ios":"levelo://app?vid=cf50f9f8-1c72-41f1-b426-ff1da7d852a1"},"vehicle_type_id":"4","last_reported":1703074272,"current_range_meters":5200,"station_id":"ce4bgi92rcd13ifvqb90","pricing_plan_id":"free"},{"bike_id":"09ddcf43-94de-47d0-8fe2-e1acdc9dd1ea","system_id":"levelo_inurba_marseille","lat":43.29622,"lon":5.37733,"is_reserved":false,"is_disabled":false,"rental_uris":{"android":"levelo://app?vid=09ddcf43-94de-47d0-8fe2-e1acdc9dd1ea","ios":"levelo://app?vid=09ddcf43-94de-47d0-8fe2-e1acdc9dd1ea"},"vehicle_type_id":"4","last_reported":1703074272,"current_range_meters":16800,"station_id":"ce4bgi92rcd13ifvqb90","pricing_plan_id":"free"},{"bike_id":"83a34a0d-c6ce-4449-bf81-9501a11a7575","system_id":"levelo_inurba_marseille","lat":43.296263,"lon":5.377094,"is_reserved":false,"is_disabled":false,"rental_uris":{"android":"levelo://app?vid=83a34a0d-c6ce-4449-bf81-9501a11a7575","ios":"levelo://app?vid=83a34a0d-c6ce-4449-bf81-9501a11a7575"},"vehicle_type_id":"4","last_reported":1703074272,"current_range_meters":24800,"station_id":"ce4bgi92rcd13ifvqb90","pricing_plan_id":"free"},{"bike_id":"1cad4c47-38b8-470e-8d87-419bf078f32e","system_id":"levelo_inurba_marseille","lat":43.299724,"lon":5.384848,"is_reserved":false,"is_disabled":false,"rental_uris":{"android":"levelo://app?vid=1cad4c47-38b8-470e-8d87-419bf078f32e","ios":"levelo://app?vid=1cad4c47-38b8-470e-8d87-419bf078f32e"},"vehicle_type_id":"4","last_reported":1703074272,"current_range_meters":16800,"station_id":"ce4bgj92rcd13ifvqbd0","pricing_plan_id":"free"},{"bike_id":"39a5a7f1-613e-4ce9-85dc-bf406e7675c4","system_id":"levelo_inurba_marseille","lat":43.32367,"lon":5.388836,"is_reserved":false,"is_disabled":false,"rental_uris":{"android":"levelo://app?vid=39a5a7f1-613e-4ce9-85dc-bf406e7675c4","ios":"levelo://app?vid=39a5a7f1-613e-4ce9-85dc-bf406e7675c4"},"vehicle_type_id":"4","last_reported":1703074272,"current_range_meters":4400,"station_id":"ce4bhqp2rcd13ifvqhog","pricing_plan_id":"free"},{"bike_id":"a317d27c-4cc7-4ee1-b3e4-9393e1afd76a","system_id":"levelo_inurba_marseille","lat":43.29601,"lon":5.381084,"is_reserved":false,"is_disabled":false,"rental_uris":{"android":"levelo://app?vid=a317d27c-4cc7-4ee1-b3e4-9393e1afd76a","ios":"levelo://app?vid=a317d27c-4cc7-4ee1-b3e4-9393e1afd76a"},"vehicle_type_id":"4","last_reported":1703074272,"current_range_meters":17200,"station_id":"ce4bgl12rcd13ifvqbo0","pricing_plan_id":"free"},{"bike_id":"8fdcb2b0-201d-4db9-ae58-3122032e9a09","system_id":"levelo_inurba_marseille","lat":43.29601,"lon":5.381084,"is_reserved":false,"is_disabled":false,"rental_uris":{"android":"levelo://app?vid=8fdcb2b0-201d-4db9-ae58-3122032e9a09","ios":"levelo://app?vid=8fdcb2b0-201d-4db9-ae58-3122032e9a09"},"vehicle_type_id":"4","last_reported":1703074272,"current_range_meters":23600,"station_id":"ce4bgl12rcd13ifvqbo0","pricing_plan_id":"free"},{"bike_id":"d2eff08b-8596-4522-bdc1-3945e6f1eb82","system_id":"levelo_inurba_marseille","lat":43.292749,"lon":5.368402,"is_reserved":false,"is_disabled":false,"rental_uris":{"android":"levelo://app?vid=d2eff08b-8596-4522-bdc1-3945e6f1eb82","ios":"levelo://app?vid=d2eff08b-8596-4522-bdc1-3945e6f1eb82"},"vehicle_type_id":"4","last_reported":1703074272,"current_range_meters":31200,"station_id":"ce4bhbp2rcd13ifvqesg","pricing_plan_id":"free"},{"bike_id":"1e07e5f2-1f19-40a3-957d-32d61c839ff2","system_id":"levelo_inurba_marseille","lat":43.293009,"lon":5.374584,"is_reserved":false,"is_disabled":false,"rental_uris":{"android":"levelo://app?vid=1e07e5f2-1f19-40a3-957d-32d61c839ff2","ios":"levelo://app?vid=1e07e5f2-1f19-40a3-957d-32d61c839ff2"},"vehicle_type_id":"4","last_reported":1703074272,"current_range_meters":17200,"station_id":"ce4bgi12rcd13ifvqb70","pricing_plan_id":"free"},{"bike_id":"7d9f37f7-2b2e-43e0-a4ea-f4d04b8c0cff","system_id":"levelo_inurba_marseille","lat":43.2936,"lon":5.37835,"is_reserved":false,"is_disabled":false,"rental_uris":{"android":"levelo://app?vid=7d9f37f7-2b2e-43e0-a4ea-f4d04b8c0cff","ios":"levelo://app?vid=7d9f37f7-2b2e-43e0-a4ea-f4d04b8c0cff"},"vehicle_type_id":"4","last_reported":1703074272,"current_range_meters":28800,"station_id":"ce4bgjh2rcd13ifvqbf0","pricing_plan_id":"free"},{"bike_id":"e68f7d6f-b720-44a3-bd12-f095cd89aa3a","system_id":"levelo_inurba_marseille","lat":43.302992,"lon":5.392136,"is_reserved":false,"is_disabled":false,"rental_uris":{"android":"levelo://app?vid=e68f7d6f-b720-44a3-bd12-f095cd89aa3a","ios":"levelo://app?vid=e68f7d6f-b720-44a3-bd12-f095cd89aa3a"},"vehicle_type_id":"4","last_reported":1703074272,"current_range_meters":0,"station_id":"ce4bgkh2rcd13ifvqbk0","pricing_plan_id":"free"},{"bike_id":"d3806fa8-4a56-41b4-a57f-733c67fc7328","system_id":"levelo_inurba_marseille","lat":43.2936,"lon":5.37835,"is_reserved":false,"is_disabled":false,"rental_uris":{"android":"levelo://app?vid=d3806fa8-4a56-41b4-a57f-733c67fc7328","ios":"levelo://app?vid=d3806fa8-4a56-41b4-a57f-733c67fc7328"},"vehicle_type_id":"4","last_reported":1703074272,"current_range_meters":13200,"station_id":"ce4bgjh2rcd13ifvqbf0","pricing_plan_id":"free"},{"bike_id":"c624917b-98ab-4991-ba57-153146f36992","system_id":"levelo_inurba_marseille","lat":43.300961,"lon":5.390836,"is_reserved":false,"is_disabled":false,"rental_uris":{"android":"levelo://app?vid=c624917b-98ab-4991-ba57-153146f36992","ios":"levelo://app?vid=c624917b-98ab-4991-ba57-153146f36992"},"vehicle_type_id":"4","last_reported":1703074272,"current_range_meters":25200,"station_id":"","pricing_plan_id":"free"},{"bike_id":"67dbc710-e248-4701-92da-b94e6f063a32","system_id":"levelo_inurba_marseille","lat":43.32297,"lon":5.39239,"is_reserved":false,"is_disabled":false,"rental_uris":{"android":"levelo://app?vid=67dbc710-e248-4701-92da-b94e6f063a32","ios":"levelo://app?vid=67dbc710-e248-4701-92da-b94e6f063a32"},"vehicle_type_id":"4","last_reported":1703074272,"current_range_meters":4400,"station_id":"","pricing_plan_id":"free"},{"bike_id":"d334c886-b6e8-48a8-b49b-94a4bc9d2b2e","system_id":"levelo_inurba_marseille","lat":43.29266,"lon":5.37624,"is_reserved":false,"is_disabled":false,"rental_uris":{"android":"levelo://app?vid=d334c886-b6e8-48a8-b49b-94a4bc9d2b2e","ios":"levelo://app?vid=d334c886-b6e8-48a8-b49b-94a4bc9d2b2e"},"vehicle_type_id":"4","last_reported":1703074272,"current_range_meters":29600,"station_id":"","pricing_plan_id":"free"},{"bike_id":"9e2b5bcd-8906-4683-bc62-46e6559b46e8","system_id":"levelo_inurba_marseille","lat":43.292667,"lon":5.37632,"is_reserved":false,"is_disabled":false,"rental_uris":{"android":"levelo://app?vid=9e2b5bcd-8906-4683-bc62-46e6559b46e8","ios":"levelo://app?vid=9e2b5bcd-8906-4683-bc62-46e6559b46e8"},"vehicle_type_id":"4","last_reported":1703074272,"current_range_meters":27600,"station_id":"","pricing_plan_id":"free"},{"bike_id":"3f93e709-53c4-4945-867d-319bae2df98c","system_id":"levelo_inurba_marseille","lat":43.2926,"lon":5.3762,"is_reserved":false,"is_disabled":false,"rental_uris":{"android":"levelo://app?vid=3f93e709-53c4-4945-867d-319bae2df98c","ios":"levelo://app?vid=3f93e709-53c4-4945-867d-319bae2df98c"},"vehicle_type_id":"4","last_reported":1703074272,"current_range_meters":26400,"station_id":"","pricing_plan_id":"free"},{"bike_id":"70cb59c4-90fe-4b39-9dcf-3362456afd06","system_id":"levelo_inurba_marseille","lat":43.291675,"lon":5.371583,"is_reserved":false,"is_disabled":false,"rental_uris":{"android":"levelo://app?vid=70cb59c4-90fe-4b39-9dcf-3362456afd06","ios":"levelo://app?vid=70cb59c4-90fe-4b39-9dcf-3362456afd06"},"vehicle_type_id":"4","last_reported":1703074272,"current_range_meters":13200,"station_id":"ce4bha92rcd13ifvqeh0","pricing_plan_id":"free"},{"bike_id":"75ce0cf4-fd64-419f-8786-f7a794ab9814","system_id":"levelo_inurba_marseille","lat":43.291994,"lon":5.357886,"is_reserved":false,"is_disabled":false,"rental_uris":{"android":"levelo://app?vid=75ce0cf4-fd64-419f-8786-f7a794ab9814","ios":"levelo://app?vid=75ce0cf4-fd64-419f-8786-f7a794ab9814"},"vehicle_type_id":"4","last_reported":1703074272,"current_range_meters":0,"station_id":"ce4bhb12rcd13ifvqel0","pricing_plan_id":"free"},{"bike_id":"42103afa-f1ed-4846-9952-9a3b13e67455","system_id":"levelo_inurba_marseille","lat":43.313291,"lon":5.396838,"is_reserved":false,"is_disabled":false,"rental_uris":{"android":"levelo://app?vid=42103afa-f1ed-4846-9952-9a3b13e67455","ios":"levelo://app?vid=42103afa-f1ed-4846-9952-9a3b13e67455"},"vehicle_type_id":"4","last_reported":1703074272,"current_range_meters":22400,"station_id":"ce4bgvp2rcd13ifvqcu0","pricing_plan_id":"free"},{"bike_id":"1ef3b026-9bd4-4b4e-8a96-b9e1540d5df0","system_id":"levelo_inurba_marseille","lat":43.313291,"lon":5.396838,"is_reserved":false,"is_disabled":false,"rental_uris":{"android":"levelo://app?vid=1ef3b026-9bd4-4b4e-8a96-b9e1540d5df0","ios":"levelo://app?vid=1ef3b026-9bd4-4b4e-8a96-b9e1540d5df0"},"vehicle_type_id":"4","last_reported":1703074272,"current_range_meters":16400,"station_id":"ce4bgvp2rcd13ifvqcu0","pricing_plan_id":"free"},{"bike_id":"2f4c5bce-10a0-440a-9ffd-173b34ae7e82","system_id":"levelo_inurba_marseille","lat":43.3133,"lon":5.39696,"is_reserved":false,"is_disabled":false,"rental_uris":{"android":"levelo://app?vid=2f4c5bce-10a0-440a-9ffd-173b34ae7e82","ios":"levelo://app?vid=2f4c5bce-10a0-440a-9ffd-173b34ae7e82"},"vehicle_type_id":"4","last_reported":1703074272,"current_range_meters":19200,"station_id":"ce4bgvp2rcd13ifvqcu0","pricing_plan_id":"free"},{"bike_id":"08a74a23-896e-4437-a55f-71914f77b81d","system_id":"levelo_inurba_marseille","lat":43.309047,"lon":5.396551,"is_reserved":false,"is_disabled":false,"rental_uris":{"android":"levelo://app?vid=08a74a23-896e-4437-a55f-71914f77b81d","ios":"levelo://app?vid=08a74a23-896e-4437-a55f-71914f77b81d"},"vehicle_type_id":"4","last_reported":1703074272,"current_range_meters":12800,"station_id":"ce4bh012rcd13ifvqcv0","pricing_plan_id":"free"},{"bike_id":"77fb410a-83cb-415e-ac8a-227cf8df1dea","system_id":"levelo_inurba_marseille","lat":43.29529,"lon":5.385581,"is_reserved":false,"is_disabled":false,"rental_uris":{"android":"levelo://app?vid=77fb410a-83cb-415e-ac8a-227cf8df1dea","ios":"levelo://app?vid=77fb410a-83cb-415e-ac8a-227cf8df1dea"},"vehicle_type_id":"4","last_reported":1703074272,"current_range_meters":16000,"station_id":"ce4bgih2rcd13ifvqba0","pricing_plan_id":"free"},{"bike_id":"a31be046-8b17-429d-9d98-bf99265e4e81","system_id":"levelo_inurba_marseille","lat":43.309038,"lon":5.396546,"is_reserved":false,"is_disabled":false,"rental_uris":{"android":"levelo://app?vid=a31be046-8b17-429d-9d98-bf99265e4e81","ios":"levelo://app?vid=a31be046-8b17-429d-9d98-bf99265e4e81"},"vehicle_type_id":"4","last_reported":1703074272,"current_range_meters":27600,"station_id":"ce4bh012rcd13ifvqcv0","pricing_plan_id":"free"},{"bike_id":"d60d025b-1731-4b6e-9660-7a1d167bbc9b","system_id":"levelo_inurba_marseille","lat":43.29529,"lon":5.385581,"is_reserved":false,"is_disabled":false,"rental_uris":{"android":"levelo://app?vid=d60d025b-1731-4b6e-9660-7a1d167bbc9b","ios":"levelo://app?vid=d60d025b-1731-4b6e-9660-7a1d167bbc9b"},"vehicle_type_id":"4","last_reported":1703074272,"current_range_meters":22400,"station_id":"ce4bgih2rcd13ifvqba0","pricing_plan_id":"free"},{"bike_id":"5a818e05-d440-4eb1-a06e-68a412e95793","system_id":"levelo_inurba_marseille","lat":43.290779,"lon":5.371482,"is_reserved":false,"is_disabled":false,"rental_uris":{"android":"levelo://app?vid=5a818e05-d440-4eb1-a06e-68a412e95793","ios":"levelo://app?vid=5a818e05-d440-4eb1-a06e-68a412e95793"},"vehicle_type_id":"4","last_reported":1703074272,"current_range_meters":30400,"station_id":"ce4bh5p2rcd13ifvqe4g","pricing_plan_id":"free"},{"bike_id":"fdc23866-8ac4-4625-8541-4905a5ae623d","system_id":"levelo_inurba_marseille","lat":43.299028,"lon":5.381509,"is_reserved":false,"is_disabled":false,"rental_uris":{"android":"levelo://app?vid=fdc23866-8ac4-4625-8541-4905a5ae623d","ios":"levelo://app?vid=fdc23866-8ac4-4625-8541-4905a5ae623d"},"vehicle_type_id":"4","last_reported":1703074272,"current_range_meters":27600,"station_id":"ce4bgj12rcd13ifvqbc0","pricing_plan_id":"free"},{"bike_id":"b210fcd9-0bff-4d00-a833-271bf05af87b","system_id":"levelo_inurba_marseille","lat":43.30311,"lon":5.39534,"is_reserved":false,"is_disabled":false,"rental_uris":{"android":"levelo://app?vid=b210fcd9-0bff-4d00-a833-271bf05af87b","ios":"levelo://app?vid=b210fcd9-0bff-4d00-a833-271bf05af87b"},"vehicle_type_id":"4","last_reported":1703074272,"current_range_meters":0,"station_id":"","pricing_plan_id":"free"},{"bike_id":"41290aff-6ac3-4b71-8037-bca259e6ddec","system_id":"levelo_inurba_marseille","lat":43.290631,"lon":5.359244,"is_reserved":false,"is_disabled":false,"rental_uris":{"android":"levelo://app?vid=41290aff-6ac3-4b71-8037-bca259e6ddec","ios":"levelo://app?vid=41290aff-6ac3-4b71-8037-bca259e6ddec"},"vehicle_type_id":"4","last_reported":1703074272,"current_range_meters":28000,"station_id":"ce4bha92rcd13ifvqeg0","pricing_plan_id":"free"},{"bike_id":"af18d565-73bf-49c0-9ce0-8b01c56a70c0","system_id":"levelo_inurba_marseille","lat":43.302008,"lon":5.394694,"is_reserved":false,"is_disabled":false,"rental_uris":{"android":"levelo://app?vid=af18d565-73bf-49c0-9ce0-8b01c56a70c0","ios":"levelo://app?vid=af18d565-73bf-49c0-9ce0-8b01c56a70c0"},"vehicle_type_id":"4","last_reported":1703074272,"current_range_meters":30000,"station_id":"ce4bh0p2rcd13ifvqd70","pricing_plan_id":"free"},{"bike_id":"a7f5f287-5085-4c09-a969-b2a7f2eb108a","system_id":"levelo_inurba_marseille","lat":43.290631,"lon":5.359244,"is_reserved":false,"is_disabled":false,"rental_uris":{"android":"levelo://app?vid=a7f5f287-5085-4c09-a969-b2a7f2eb108a","ios":"levelo://app?vid=a7f5f287-5085-4c09-a969-b2a7f2eb108a"},"vehicle_type_id":"4","last_reported":1703074272,"current_range_meters":14800,"station_id":"ce4bha92rcd13ifvqeg0","pricing_plan_id":"free"},{"bike_id":"58565508-ef21-4b76-aee6-8455c86cb123","system_id":"levelo_inurba_marseille","lat":43.294162,"lon":5.386292,"is_reserved":false,"is_disabled":false,"rental_uris":{"android":"levelo://app?vid=58565508-ef21-4b76-aee6-8455c86cb123","ios":"levelo://app?vid=58565508-ef21-4b76-aee6-8455c86cb123"},"vehicle_type_id":"4","last_reported":1703074272,"current_range_meters":11600,"station_id":"ce4bh2h2rcd13ifvqdh0","pricing_plan_id":"free"},{"bike_id":"ffd72ef0-25b2-47a5-9319-308799476aaf","system_id":"levelo_inurba_marseille","lat":43.289468,"lon":5.363719,"is_reserved":false,"is_disabled":false,"rental_uris":{"android":"levelo://app?vid=ffd72ef0-25b2-47a5-9319-308799476aaf","ios":"levelo://app?vid=ffd72ef0-25b2-47a5-9319-308799476aaf"},"vehicle_type_id":"4","last_reported":1703074272,"current_range_meters":4800,"station_id":"ce4bhc92rcd13ifvqetg","pricing_plan_id":"free"},{"bike_id":"2e3cefca-946e-4a7e-a850-b763e63e00f9","system_id":"levelo_inurba_marseille","lat":43.289184,"lon":5.366408,"is_reserved":false,"is_disabled":false,"rental_uris":{"android":"levelo://app?vid=2e3cefca-946e-4a7e-a850-b763e63e00f9","ios":"levelo://app?vid=2e3cefca-946e-4a7e-a850-b763e63e00f9"},"vehicle_type_id":"4","last_reported":1703074272,"current_range_meters":31200,"station_id":"ce4bhap2rcd13ifvqek0","pricing_plan_id":"free"},{"bike_id":"30a65fd2-d467-4b91-81d9-fe4e7a745023","system_id":"levelo_inurba_marseille","lat":43.289468,"lon":5.363719,"is_reserved":false,"is_disabled":false,"rental_uris":{"android":"levelo://app?vid=30a65fd2-d467-4b91-81d9-fe4e7a745023","ios":"levelo://app?vid=30a65fd2-d467-4b91-81d9-fe4e7a745023"},"vehicle_type_id":"4","last_reported":1703074272,"current_range_meters":6800,"station_id":"ce4bhc92rcd13ifvqetg","pricing_plan_id":"free"},{"bike_id":"cff88251-4435-41d5-a421-5d0e4bdea493","system_id":"levelo_inurba_marseille","lat":43.289468,"lon":5.363719,"is_reserved":false,"is_disabled":false,"rental_uris":{"android":"levelo://app?vid=cff88251-4435-41d5-a421-5d0e4bdea493","ios":"levelo://app?vid=cff88251-4435-41d5-a421-5d0e4bdea493"},"vehicle_type_id":"4","last_reported":1703074272,"current_range_meters":16000,"station_id":"ce4bhc92rcd13ifvqetg","pricing_plan_id":"free"},{"bike_id":"dadd9bc8-efbe-425c-b233-a170cf5d4ffa","system_id":"levelo_inurba_marseille","lat":43.289468,"lon":5.363719,"is_reserved":false,"is_disabled":false,"rental_uris":{"android":"levelo://app?vid=dadd9bc8-efbe-425c-b233-a170cf5d4ffa","ios":"levelo://app?vid=dadd9bc8-efbe-425c-b233-a170cf5d4ffa"},"vehicle_type_id":"4","last_reported":1703074272,"current_range_meters":26400,"station_id":"ce4bhc92rcd13ifvqetg","pricing_plan_id":"free"},{"bike_id":"d5536a34-b385-4ddc-818a-aeedd8842362","system_id":"levelo_inurba_marseille","lat":43.292642,"lon":5.384254,"is_reserved":false,"is_disabled":false,"rental_uris":{"android":"levelo://app?vid=d5536a34-b385-4ddc-818a-aeedd8842362","ios":"levelo://app?vid=d5536a34-b385-4ddc-818a-aeedd8842362"},"vehicle_type_id":"4","last_reported":1703074272,"current_range_meters":26800,"station_id":"ce4bh692rcd13ifvqea0","pricing_plan_id":"free"},{"bike_id":"112c1205-0196-432d-9a7c-e45d1cbe7702","system_id":"levelo_inurba_marseille","lat":43.292642,"lon":5.384254,"is_reserved":false,"is_disabled":false,"rental_uris":{"android":"levelo://app?vid=112c1205-0196-432d-9a7c-e45d1cbe7702","ios":"levelo://app?vid=112c1205-0196-432d-9a7c-e45d1cbe7702"},"vehicle_type_id":"4","last_reported":1703074272,"current_range_meters":0,"station_id":"ce4bh692rcd13ifvqea0","pricing_plan_id":"free"},{"bike_id":"840b022c-3cb9-4881-8d57-664ead751a24","system_id":"levelo_inurba_marseille","lat":43.290104,"lon":5.356111,"is_reserved":false,"is_disabled":false,"rental_uris":{"android":"levelo://app?vid=840b022c-3cb9-4881-8d57-664ead751a24","ios":"levelo://app?vid=840b022c-3cb9-4881-8d57-664ead751a24"},"vehicle_type_id":"4","last_reported":1703074272,"current_range_meters":10400,"station_id":"ce4bhb92rcd13ifvqen0","pricing_plan_id":"free"},{"bike_id":"b7be8db5-4c10-4d2d-be03-ad28ae6679a5","system_id":"levelo_inurba_marseille","lat":43.330442,"lon":5.389148,"is_reserved":false,"is_disabled":false,"rental_uris":{"android":"levelo://app?vid=b7be8db5-4c10-4d2d-be03-ad28ae6679a5","ios":"levelo://app?vid=b7be8db5-4c10-4d2d-be03-ad28ae6679a5"},"vehicle_type_id":"4","last_reported":1703074272,"current_range_meters":0,"station_id":"ce4bhr92rcd13ifvqhrg","pricing_plan_id":"free"},{"bike_id":"39e98c13-8bf5-4359-b4b2-7b9441a1d969","system_id":"levelo_inurba_marseille","lat":43.330442,"lon":5.389148,"is_reserved":false,"is_disabled":false,"rental_uris":{"android":"levelo://app?vid=39e98c13-8bf5-4359-b4b2-7b9441a1d969","ios":"levelo://app?vid=39e98c13-8bf5-4359-b4b2-7b9441a1d969"},"vehicle_type_id":"4","last_reported":1703074272,"current_range_meters":26000,"station_id":"ce4bhr92rcd13ifvqhrg","pricing_plan_id":"free"},{"bike_id":"03792874-86d9-468e-be10-3c6851108053","system_id":"levelo_inurba_marseille","lat":43.330442,"lon":5.389148,"is_reserved":false,"is_disabled":false,"rental_uris":{"android":"levelo://app?vid=03792874-86d9-468e-be10-3c6851108053","ios":"levelo://app?vid=03792874-86d9-468e-be10-3c6851108053"},"vehicle_type_id":"4","last_reported":1703074272,"current_range_meters":18800,"station_id":"ce4bhr92rcd13ifvqhrg","pricing_plan_id":"free"},{"bike_id":"50b51f5b-99a6-4ae8-8306-c63c3dc99e4a","system_id":"levelo_inurba_marseille","lat":43.290104,"lon":5.356111,"is_reserved":false,"is_disabled":false,"rental_uris":{"android":"levelo://app?vid=50b51f5b-99a6-4ae8-8306-c63c3dc99e4a","ios":"levelo://app?vid=50b51f5b-99a6-4ae8-8306-c63c3dc99e4a"},"vehicle_type_id":"4","last_reported":1703074272,"current_range_meters":6800,"station_id":"ce4bhb92rcd13ifvqen0","pricing_plan_id":"free"},{"bike_id":"fe8661d4-70fd-4909-b7d0-f764a7c833ef","system_id":"levelo_inurba_marseille","lat":43.290104,"lon":5.356111,"is_reserved":false,"is_disabled":false,"rental_uris":{"android":"levelo://app?vid=fe8661d4-70fd-4909-b7d0-f764a7c833ef","ios":"levelo://app?vid=fe8661d4-70fd-4909-b7d0-f764a7c833ef"},"vehicle_type_id":"4","last_reported":1703074272,"current_range_meters":18400,"station_id":"ce4bhb92rcd13ifvqen0","pricing_plan_id":"free"},{"bike_id":"f38e0571-091f-4b74-8627-fa3025482a3e","system_id":"levelo_inurba_marseille","lat":43.290104,"lon":5.356111,"is_reserved":false,"is_disabled":false,"rental_uris":{"android":"levelo://app?vid=f38e0571-091f-4b74-8627-fa3025482a3e","ios":"levelo://app?vid=f38e0571-091f-4b74-8627-fa3025482a3e"},"vehicle_type_id":"4","last_reported":1703074272,"current_range_meters":19600,"station_id":"ce4bhb92rcd13ifvqen0","pricing_plan_id":"free"},{"bike_id":"d2eb30a9-e7d4-42db-9142-f12612981146","system_id":"levelo_inurba_marseille","lat":43.290104,"lon":5.356111,"is_reserved":false,"is_disabled":false,"rental_uris":{"android":"levelo://app?vid=d2eb30a9-e7d4-42db-9142-f12612981146","ios":"levelo://app?vid=d2eb30a9-e7d4-42db-9142-f12612981146"},"vehicle_type_id":"4","last_reported":1703074272,"current_range_meters":8000,"station_id":"ce4bhb92rcd13ifvqen0","pricing_plan_id":"free"},{"bike_id":"a95b0d90-e0f3-423d-824d-520a5e4e8a38","system_id":"levelo_inurba_marseille","lat":43.2978,"lon":5.39338,"is_reserved":false,"is_disabled":false,"rental_uris":{"android":"levelo://app?vid=a95b0d90-e0f3-423d-824d-520a5e4e8a38","ios":"levelo://app?vid=a95b0d90-e0f3-423d-824d-520a5e4e8a38"},"vehicle_type_id":"4","last_reported":1703074272,"current_range_meters":14800,"station_id":"chh1huq6cuj3fo74tm60","pricing_plan_id":"free"},{"bike_id":"5cc14afd-7c47-4d73-afcc-6b7687f6ea9e","system_id":"levelo_inurba_marseille","lat":43.289743,"lon":5.378304,"is_reserved":false,"is_disabled":false,"rental_uris":{"android":"levelo://app?vid=5cc14afd-7c47-4d73-afcc-6b7687f6ea9e","ios":"levelo://app?vid=5cc14afd-7c47-4d73-afcc-6b7687f6ea9e"},"vehicle_type_id":"4","last_reported":1703074272,"current_range_meters":26800,"station_id":"ce4bh9p2rcd13ifvqed0","pricing_plan_id":"free"},{"bike_id":"f8b85b21-9763-4e9d-b38a-95ec43bbfe47","system_id":"levelo_inurba_marseille","lat":43.295169,"lon":5.390426,"is_reserved":false,"is_disabled":false,"rental_uris":{"android":"levelo://app?vid=f8b85b21-9763-4e9d-b38a-95ec43bbfe47","ios":"levelo://app?vid=f8b85b21-9763-4e9d-b38a-95ec43bbfe47"},"vehicle_type_id":"4","last_reported":1703074272,"current_range_meters":5600,"station_id":"ce4bh3p2rcd13ifvqdp0","pricing_plan_id":"free"},{"bike_id":"bf834ee8-d832-4b53-8908-55079b496119","system_id":"levelo_inurba_marseille","lat":43.28856,"lon":5.358371,"is_reserved":false,"is_disabled":false,"rental_uris":{"android":"levelo://app?vid=bf834ee8-d832-4b53-8908-55079b496119","ios":"levelo://app?vid=bf834ee8-d832-4b53-8908-55079b496119"},"vehicle_type_id":"4","last_reported":1703074272,"current_range_meters":17200,"station_id":"ce4bhb12rcd13ifvqem0","pricing_plan_id":"free"},{"bike_id":"615645b8-6804-45c2-862c-13e059918103","system_id":"levelo_inurba_marseille","lat":43.28849,"lon":5.35851,"is_reserved":false,"is_disabled":false,"rental_uris":{"android":"levelo://app?vid=615645b8-6804-45c2-862c-13e059918103","ios":"levelo://app?vid=615645b8-6804-45c2-862c-13e059918103"},"vehicle_type_id":"4","last_reported":1703074272,"current_range_meters":0,"station_id":"ce4bhb12rcd13ifvqem0","pricing_plan_id":"free"},{"bike_id":"c1db520e-a4f3-418a-8e67-320ee62683d5","system_id":"levelo_inurba_marseille","lat":43.28856,"lon":5.358371,"is_reserved":false,"is_disabled":false,"rental_uris":{"android":"levelo://app?vid=c1db520e-a4f3-418a-8e67-320ee62683d5","ios":"levelo://app?vid=c1db520e-a4f3-418a-8e67-320ee62683d5"},"vehicle_type_id":"4","last_reported":1703074272,"current_range_meters":12000,"station_id":"ce4bhb12rcd13ifvqem0","pricing_plan_id":"free"},{"bike_id":"efc8b483-666b-48da-afa0-0447382868fd","system_id":"levelo_inurba_marseille","lat":43.337448,"lon":5.374743,"is_reserved":false,"is_disabled":false,"rental_uris":{"android":"levelo://app?vid=efc8b483-666b-48da-afa0-0447382868fd","ios":"levelo://app?vid=efc8b483-666b-48da-afa0-0447382868fd"},"vehicle_type_id":"4","last_reported":1703074272,"current_range_meters":27200,"station_id":"","pricing_plan_id":"free"},{"bike_id":"3088ca6f-d587-44bc-8e20-ae1a468e094b","system_id":"levelo_inurba_marseille","lat":43.309371,"lon":5.401449,"is_reserved":false,"is_disabled":false,"rental_uris":{"android":"levelo://app?vid=3088ca6f-d587-44bc-8e20-ae1a468e094b","ios":"levelo://app?vid=3088ca6f-d587-44bc-8e20-ae1a468e094b"},"vehicle_type_id":"4","last_reported":1703074272,"current_range_meters":19600,"station_id":"ce4bgvp2rcd13ifvqct0","pricing_plan_id":"free"},{"bike_id":"8253abcd-b52e-4650-a2af-38e920e76174","system_id":"levelo_inurba_marseille","lat":43.33756,"lon":5.37457,"is_reserved":false,"is_disabled":false,"rental_uris":{"android":"levelo://app?vid=8253abcd-b52e-4650-a2af-38e920e76174","ios":"levelo://app?vid=8253abcd-b52e-4650-a2af-38e920e76174"},"vehicle_type_id":"4","last_reported":1703074272,"current_range_meters":28400,"station_id":"","pricing_plan_id":"free"},{"bike_id":"a4515738-5734-4dfb-b5e5-dbe21a6c935d","system_id":"levelo_inurba_marseille","lat":43.30642,"lon":5.401031,"is_reserved":false,"is_disabled":false,"rental_uris":{"android":"levelo://app?vid=a4515738-5734-4dfb-b5e5-dbe21a6c935d","ios":"levelo://app?vid=a4515738-5734-4dfb-b5e5-dbe21a6c935d"},"vehicle_type_id":"4","last_reported":1703074272,"current_range_meters":21200,"station_id":"ce4bh112rcd13ifvqda0","pricing_plan_id":"free"},{"bike_id":"62222dbf-89ec-4ee8-85e7-b7356be86272","system_id":"levelo_inurba_marseille","lat":43.306412,"lon":5.401035,"is_reserved":false,"is_disabled":false,"rental_uris":{"android":"levelo://app?vid=62222dbf-89ec-4ee8-85e7-b7356be86272","ios":"levelo://app?vid=62222dbf-89ec-4ee8-85e7-b7356be86272"},"vehicle_type_id":"4","last_reported":1703074272,"current_range_meters":17200,"station_id":"ce4bh112rcd13ifvqda0","pricing_plan_id":"free"},{"bike_id":"243e1df6-d0c9-44a3-86c5-548abcd287e7","system_id":"levelo_inurba_marseille","lat":43.30642,"lon":5.401031,"is_reserved":false,"is_disabled":false,"rental_uris":{"android":"levelo://app?vid=243e1df6-d0c9-44a3-86c5-548abcd287e7","ios":"levelo://app?vid=243e1df6-d0c9-44a3-86c5-548abcd287e7"},"vehicle_type_id":"4","last_reported":1703074272,"current_range_meters":16800,"station_id":"ce4bh112rcd13ifvqda0","pricing_plan_id":"free"},{"bike_id":"d4af162a-4adc-4730-90d1-932f2ae92f42","system_id":"levelo_inurba_marseille","lat":43.306412,"lon":5.401035,"is_reserved":false,"is_disabled":false,"rental_uris":{"android":"levelo://app?vid=d4af162a-4adc-4730-90d1-932f2ae92f42","ios":"levelo://app?vid=d4af162a-4adc-4730-90d1-932f2ae92f42"},"vehicle_type_id":"4","last_reported":1703074272,"current_range_meters":27600,"station_id":"ce4bh112rcd13ifvqda0","pricing_plan_id":"free"},{"bike_id":"b53488af-545a-4b56-83a1-52ea01379139","system_id":"levelo_inurba_marseille","lat":43.306412,"lon":5.401035,"is_reserved":false,"is_disabled":false,"rental_uris":{"android":"levelo://app?vid=b53488af-545a-4b56-83a1-52ea01379139","ios":"levelo://app?vid=b53488af-545a-4b56-83a1-52ea01379139"},"vehicle_type_id":"4","last_reported":1703074272,"current_range_meters":26000,"station_id":"ce4bh112rcd13ifvqda0","pricing_plan_id":"free"},{"bike_id":"f7d7041d-0261-4726-bb7a-f524491daa45","system_id":"levelo_inurba_marseille","lat":43.30643,"lon":5.40114,"is_reserved":false,"is_disabled":false,"rental_uris":{"android":"levelo://app?vid=f7d7041d-0261-4726-bb7a-f524491daa45","ios":"levelo://app?vid=f7d7041d-0261-4726-bb7a-f524491daa45"},"vehicle_type_id":"4","last_reported":1703074272,"current_range_meters":28800,"station_id":"ce4bh112rcd13ifvqda0","pricing_plan_id":"free"},{"bike_id":"3609f89c-3889-45c6-9aaa-45f614634c53","system_id":"levelo_inurba_marseille","lat":43.28727,"lon":5.36078,"is_reserved":false,"is_disabled":false,"rental_uris":{"android":"levelo://app?vid=3609f89c-3889-45c6-9aaa-45f614634c53","ios":"levelo://app?vid=3609f89c-3889-45c6-9aaa-45f614634c53"},"vehicle_type_id":"4","last_reported":1703074272,"current_range_meters":0,"station_id":"cki0cbj6b192h4jlfktg","pricing_plan_id":"free"},{"bike_id":"2565a6b0-f930-4d78-abdf-6975827e6560","system_id":"levelo_inurba_marseille","lat":43.286961,"lon":5.373785,"is_reserved":false,"is_disabled":false,"rental_uris":{"android":"levelo://app?vid=2565a6b0-f930-4d78-abdf-6975827e6560","ios":"levelo://app?vid=2565a6b0-f930-4d78-abdf-6975827e6560"},"vehicle_type_id":"4","last_reported":1703074272,"current_range_meters":25200,"station_id":"ce4bh3p2rcd13ifvqdq0","pricing_plan_id":"free"},{"bike_id":"66d72816-3c0b-4eb6-822a-d2448c0f4949","system_id":"levelo_inurba_marseille","lat":43.298681,"lon":5.397225,"is_reserved":false,"is_disabled":false,"rental_uris":{"android":"levelo://app?vid=66d72816-3c0b-4eb6-822a-d2448c0f4949","ios":"levelo://app?vid=66d72816-3c0b-4eb6-822a-d2448c0f4949"},"vehicle_type_id":"4","last_reported":1703074272,"current_range_meters":18800,"station_id":"ce4bh0h2rcd13ifvqd50","pricing_plan_id":"free"},{"bike_id":"2961d0f9-b004-4287-9ce8-669ec8578301","system_id":"levelo_inurba_marseille","lat":43.295196,"lon":5.39397,"is_reserved":false,"is_disabled":false,"rental_uris":{"android":"levelo://app?vid=2961d0f9-b004-4287-9ce8-669ec8578301","ios":"levelo://app?vid=2961d0f9-b004-4287-9ce8-669ec8578301"},"vehicle_type_id":"4","last_reported":1703074272,"current_range_meters":25200,"station_id":"ce4bh292rcd13ifvqdf0","pricing_plan_id":"free"},{"bike_id":"4bcc6350-19d9-447e-94cc-f3ab8172a75e","system_id":"levelo_inurba_marseille","lat":43.290345,"lon":5.38646,"is_reserved":false,"is_disabled":false,"rental_uris":{"android":"levelo://app?vid=4bcc6350-19d9-447e-94cc-f3ab8172a75e","ios":"levelo://app?vid=4bcc6350-19d9-447e-94cc-f3ab8172a75e"},"vehicle_type_id":"4","last_reported":1703074272,"current_range_meters":20800,"station_id":"ce4bh4p2rcd13ifvqe0g","pricing_plan_id":"free"},{"bike_id":"d19d9b95-cf07-4881-b10d-0bd17abb3857","system_id":"levelo_inurba_marseille","lat":43.302759,"lon":5.400793,"is_reserved":false,"is_disabled":false,"rental_uris":{"android":"levelo://app?vid=d19d9b95-cf07-4881-b10d-0bd17abb3857","ios":"levelo://app?vid=d19d9b95-cf07-4881-b10d-0bd17abb3857"},"vehicle_type_id":"4","last_reported":1703074272,"current_range_meters":27200,"station_id":"ce4bgvh2rcd13ifvqcs0","pricing_plan_id":"free"},{"bike_id":"ec7ecf5a-3c5f-47b8-b664-60a8853972bd","system_id":"levelo_inurba_marseille","lat":43.290345,"lon":5.38646,"is_reserved":false,"is_disabled":false,"rental_uris":{"android":"levelo://app?vid=ec7ecf5a-3c5f-47b8-b664-60a8853972bd","ios":"levelo://app?vid=ec7ecf5a-3c5f-47b8-b664-60a8853972bd"},"vehicle_type_id":"4","last_reported":1703074272,"current_range_meters":18800,"station_id":"ce4bh4p2rcd13ifvqe0g","pricing_plan_id":"free"},{"bike_id":"9105c869-eb4c-418e-b216-58dadbdc92e7","system_id":"levelo_inurba_marseille","lat":43.302759,"lon":5.400793,"is_reserved":false,"is_disabled":false,"rental_uris":{"android":"levelo://app?vid=9105c869-eb4c-418e-b216-58dadbdc92e7","ios":"levelo://app?vid=9105c869-eb4c-418e-b216-58dadbdc92e7"},"vehicle_type_id":"4","last_reported":1703074272,"current_range_meters":25600,"station_id":"ce4bgvh2rcd13ifvqcs0","pricing_plan_id":"free"},{"bike_id":"ab6fab50-e225-42de-ab07-39128b149a3f","system_id":"levelo_inurba_marseille","lat":43.302759,"lon":5.400793,"is_reserved":false,"is_disabled":false,"rental_uris":{"android":"levelo://app?vid=ab6fab50-e225-42de-ab07-39128b149a3f","ios":"levelo://app?vid=ab6fab50-e225-42de-ab07-39128b149a3f"},"vehicle_type_id":"4","last_reported":1703074272,"current_range_meters":26800,"station_id":"ce4bgvh2rcd13ifvqcs0","pricing_plan_id":"free"},{"bike_id":"657577b9-aac4-4653-8b6b-22f49e62594d","system_id":"levelo_inurba_marseille","lat":43.286039,"lon":5.370679,"is_reserved":false,"is_disabled":false,"rental_uris":{"android":"levelo://app?vid=657577b9-aac4-4653-8b6b-22f49e62594d","ios":"levelo://app?vid=657577b9-aac4-4653-8b6b-22f49e62594d"},"vehicle_type_id":"4","last_reported":1703074272,"current_range_meters":26400,"station_id":"ce4bht12rcd13ifvqi60","pricing_plan_id":"free"},{"bike_id":"f5063e0d-1dee-443d-acf3-07eab09b2ec7","system_id":"levelo_inurba_marseille","lat":43.286039,"lon":5.370679,"is_reserved":false,"is_disabled":false,"rental_uris":{"android":"levelo://app?vid=f5063e0d-1dee-443d-acf3-07eab09b2ec7","ios":"levelo://app?vid=f5063e0d-1dee-443d-acf3-07eab09b2ec7"},"vehicle_type_id":"4","last_reported":1703074272,"current_range_meters":27600,"station_id":"ce4bht12rcd13ifvqi60","pricing_plan_id":"free"},{"bike_id":"f4788d0d-8f46-4243-bf7a-9fa1b5fa7389","system_id":"levelo_inurba_marseille","lat":43.286039,"lon":5.370679,"is_reserved":false,"is_disabled":false,"rental_uris":{"android":"levelo://app?vid=f4788d0d-8f46-4243-bf7a-9fa1b5fa7389","ios":"levelo://app?vid=f4788d0d-8f46-4243-bf7a-9fa1b5fa7389"},"vehicle_type_id":"4","last_reported":1703074272,"current_range_meters":17600,"station_id":"ce4bht12rcd13ifvqi60","pricing_plan_id":"free"},{"bike_id":"8aa6c0db-d605-44e1-9f81-2f91e2dd0ddf","system_id":"levelo_inurba_marseille","lat":43.291994,"lon":5.392907,"is_reserved":false,"is_disabled":false,"rental_uris":{"android":"levelo://app?vid=8aa6c0db-d605-44e1-9f81-2f91e2dd0ddf","ios":"levelo://app?vid=8aa6c0db-d605-44e1-9f81-2f91e2dd0ddf"},"vehicle_type_id":"4","last_reported":1703074272,"current_range_meters":15200,"station_id":"ce4bh192rcd13ifvqdd0","pricing_plan_id":"free"},{"bike_id":"30d391be-4403-48f5-bc60-5e02d1e9f0b9","system_id":"levelo_inurba_marseille","lat":43.284534,"lon":5.358662,"is_reserved":false,"is_disabled":false,"rental_uris":{"android":"levelo://app?vid=30d391be-4403-48f5-bc60-5e02d1e9f0b9","ios":"levelo://app?vid=30d391be-4403-48f5-bc60-5e02d1e9f0b9"},"vehicle_type_id":"4","last_reported":1703074272,"current_range_meters":8000,"station_id":"ce4bhah2rcd13ifvqei0","pricing_plan_id":"free"},{"bike_id":"65768b10-c292-4304-a342-5cb49ccaa43c","system_id":"levelo_inurba_marseille","lat":43.284538,"lon":5.358657,"is_reserved":false,"is_disabled":false,"rental_uris":{"android":"levelo://app?vid=65768b10-c292-4304-a342-5cb49ccaa43c","ios":"levelo://app?vid=65768b10-c292-4304-a342-5cb49ccaa43c"},"vehicle_type_id":"4","last_reported":1703074272,"current_range_meters":20800,"station_id":"ce4bhah2rcd13ifvqei0","pricing_plan_id":"free"},{"bike_id":"ee10cbef-ac62-4e5f-b960-5b939dfe3f6f","system_id":"levelo_inurba_marseille","lat":43.284538,"lon":5.358657,"is_reserved":false,"is_disabled":false,"rental_uris":{"android":"levelo://app?vid=ee10cbef-ac62-4e5f-b960-5b939dfe3f6f","ios":"levelo://app?vid=ee10cbef-ac62-4e5f-b960-5b939dfe3f6f"},"vehicle_type_id":"4","last_reported":1703074272,"current_range_meters":400,"station_id":"ce4bhah2rcd13ifvqei0","pricing_plan_id":"free"},{"bike_id":"3edae4f4-731d-4864-a34a-2a282b43cd79","system_id":"levelo_inurba_marseille","lat":43.284538,"lon":5.358657,"is_reserved":false,"is_disabled":false,"rental_uris":{"android":"levelo://app?vid=3edae4f4-731d-4864-a34a-2a282b43cd79","ios":"levelo://app?vid=3edae4f4-731d-4864-a34a-2a282b43cd79"},"vehicle_type_id":"4","last_reported":1703074272,"current_range_meters":24400,"station_id":"ce4bhah2rcd13ifvqei0","pricing_plan_id":"free"},{"bike_id":"ae0b4a85-c5f0-4903-9fed-9305b03aea36","system_id":"levelo_inurba_marseille","lat":43.294314,"lon":5.397498,"is_reserved":false,"is_disabled":false,"rental_uris":{"android":"levelo://app?vid=ae0b4a85-c5f0-4903-9fed-9305b03aea36","ios":"levelo://app?vid=ae0b4a85-c5f0-4903-9fed-9305b03aea36"},"vehicle_type_id":"4","last_reported":1703074272,"current_range_meters":25600,"station_id":"ce4bh3h2rcd13ifvqdo0","pricing_plan_id":"free"},{"bike_id":"5f0e7b91-fd31-48f9-882c-75e0788e850b","system_id":"levelo_inurba_marseille","lat":43.285848,"lon":5.350787,"is_reserved":false,"is_disabled":false,"rental_uris":{"android":"levelo://app?vid=5f0e7b91-fd31-48f9-882c-75e0788e850b","ios":"levelo://app?vid=5f0e7b91-fd31-48f9-882c-75e0788e850b"},"vehicle_type_id":"4","last_reported":1703074272,"current_range_meters":28800,"station_id":"ce4bhch2rcd13ifvqeug","pricing_plan_id":"free"},{"bike_id":"d01fcdac-7d59-46ae-9572-c69e6fb89425","system_id":"levelo_inurba_marseille","lat":43.285856,"lon":5.350771,"is_reserved":false,"is_disabled":false,"rental_uris":{"android":"levelo://app?vid=d01fcdac-7d59-46ae-9572-c69e6fb89425","ios":"levelo://app?vid=d01fcdac-7d59-46ae-9572-c69e6fb89425"},"vehicle_type_id":"4","last_reported":1703074272,"current_range_meters":21200,"station_id":"ce4bhch2rcd13ifvqeug","pricing_plan_id":"free"},{"bike_id":"8538e6dd-dbef-4a5a-a119-9a857fd021ad","system_id":"levelo_inurba_marseille","lat":43.33218,"lon":5.397067,"is_reserved":false,"is_disabled":false,"rental_uris":{"android":"levelo://app?vid=8538e6dd-dbef-4a5a-a119-9a857fd021ad","ios":"levelo://app?vid=8538e6dd-dbef-4a5a-a119-9a857fd021ad"},"vehicle_type_id":"4","last_reported":1703074272,"current_range_meters":0,"station_id":"","pricing_plan_id":"free"},{"bike_id":"0e6bbc92-cec6-497f-ad89-d75d7e889db3","system_id":"levelo_inurba_marseille","lat":43.33717,"lon":5.391857,"is_reserved":false,"is_disabled":false,"rental_uris":{"android":"levelo://app?vid=0e6bbc92-cec6-497f-ad89-d75d7e889db3","ios":"levelo://app?vid=0e6bbc92-cec6-497f-ad89-d75d7e889db3"},"vehicle_type_id":"4","last_reported":1703074272,"current_range_meters":29200,"station_id":"ce4bhr92rcd13ifvqhsg","pricing_plan_id":"free"},{"bike_id":"e89015c1-fbee-41fb-af73-8abdda38dd38","system_id":"levelo_inurba_marseille","lat":43.33717,"lon":5.391857,"is_reserved":false,"is_disabled":false,"rental_uris":{"android":"levelo://app?vid=e89015c1-fbee-41fb-af73-8abdda38dd38","ios":"levelo://app?vid=e89015c1-fbee-41fb-af73-8abdda38dd38"},"vehicle_type_id":"4","last_reported":1703074272,"current_range_meters":13200,"station_id":"ce4bhr92rcd13ifvqhsg","pricing_plan_id":"free"},{"bike_id":"4cba7cb2-3bc8-4904-b0c2-b39726912645","system_id":"levelo_inurba_marseille","lat":43.319179,"lon":5.407725,"is_reserved":false,"is_disabled":false,"rental_uris":{"android":"levelo://app?vid=4cba7cb2-3bc8-4904-b0c2-b39726912645","ios":"levelo://app?vid=4cba7cb2-3bc8-4904-b0c2-b39726912645"},"vehicle_type_id":"4","last_reported":1703074272,"current_range_meters":11600,"station_id":"ce4bhq12rcd13ifvqhig","pricing_plan_id":"free"},{"bike_id":"d3b8a933-bb32-4027-8cd2-ea28e07b8fa8","system_id":"levelo_inurba_marseille","lat":43.337168,"lon":5.391825,"is_reserved":false,"is_disabled":false,"rental_uris":{"android":"levelo://app?vid=d3b8a933-bb32-4027-8cd2-ea28e07b8fa8","ios":"levelo://app?vid=d3b8a933-bb32-4027-8cd2-ea28e07b8fa8"},"vehicle_type_id":"4","last_reported":1703074272,"current_range_meters":25200,"station_id":"ce4bhr92rcd13ifvqhsg","pricing_plan_id":"free"},{"bike_id":"c3d37a83-4535-4b89-9eb5-8b37095ba839","system_id":"levelo_inurba_marseille","lat":43.337168,"lon":5.391825,"is_reserved":false,"is_disabled":false,"rental_uris":{"android":"levelo://app?vid=c3d37a83-4535-4b89-9eb5-8b37095ba839","ios":"levelo://app?vid=c3d37a83-4535-4b89-9eb5-8b37095ba839"},"vehicle_type_id":"4","last_reported":1703074272,"current_range_meters":30000,"station_id":"ce4bhr92rcd13ifvqhsg","pricing_plan_id":"free"},{"bike_id":"86e6e759-73d8-46b4-9373-5c5ca595ca14","system_id":"levelo_inurba_marseille","lat":43.283494,"lon":5.380945,"is_reserved":false,"is_disabled":false,"rental_uris":{"android":"levelo://app?vid=86e6e759-73d8-46b4-9373-5c5ca595ca14","ios":"levelo://app?vid=86e6e759-73d8-46b4-9373-5c5ca595ca14"},"vehicle_type_id":"4","last_reported":1703074272,"current_range_meters":11200,"station_id":"ce4bh412rcd13ifvqdr0","pricing_plan_id":"free"},{"bike_id":"b3612eca-d74c-47b8-9a34-dca88f158e39","system_id":"levelo_inurba_marseille","lat":43.284217,"lon":5.349697,"is_reserved":false,"is_disabled":false,"rental_uris":{"android":"levelo://app?vid=b3612eca-d74c-47b8-9a34-dca88f158e39","ios":"levelo://app?vid=b3612eca-d74c-47b8-9a34-dca88f158e39"},"vehicle_type_id":"4","last_reported":1703074272,"current_range_meters":23600,"station_id":"ce4bhbh2rcd13ifvqepg","pricing_plan_id":"free"},{"bike_id":"36cd4841-3ad7-4f71-9097-ec217fe34e0a","system_id":"levelo_inurba_marseille","lat":43.283494,"lon":5.380945,"is_reserved":false,"is_disabled":false,"rental_uris":{"android":"levelo://app?vid=36cd4841-3ad7-4f71-9097-ec217fe34e0a","ios":"levelo://app?vid=36cd4841-3ad7-4f71-9097-ec217fe34e0a"},"vehicle_type_id":"4","last_reported":1703074272,"current_range_meters":10000,"station_id":"ce4bh412rcd13ifvqdr0","pricing_plan_id":"free"},{"bike_id":"f74a5aad-a9d7-4925-a298-2c2c08c44a5d","system_id":"levelo_inurba_marseille","lat":43.284217,"lon":5.349697,"is_reserved":false,"is_disabled":false,"rental_uris":{"android":"levelo://app?vid=f74a5aad-a9d7-4925-a298-2c2c08c44a5d","ios":"levelo://app?vid=f74a5aad-a9d7-4925-a298-2c2c08c44a5d"},"vehicle_type_id":"4","last_reported":1703074272,"current_range_meters":26800,"station_id":"ce4bhbh2rcd13ifvqepg","pricing_plan_id":"free"},{"bike_id":"a1745661-722f-41b0-8dbc-7c6d297e9d7d","system_id":"levelo_inurba_marseille","lat":43.284217,"lon":5.349697,"is_reserved":false,"is_disabled":false,"rental_uris":{"android":"levelo://app?vid=a1745661-722f-41b0-8dbc-7c6d297e9d7d","ios":"levelo://app?vid=a1745661-722f-41b0-8dbc-7c6d297e9d7d"},"vehicle_type_id":"4","last_reported":1703074272,"current_range_meters":29200,"station_id":"ce4bhbh2rcd13ifvqepg","pricing_plan_id":"free"},{"bike_id":"438b017b-c7d3-46c4-9f6c-ca828929870e","system_id":"levelo_inurba_marseille","lat":43.284219,"lon":5.3497,"is_reserved":false,"is_disabled":false,"rental_uris":{"android":"levelo://app?vid=438b017b-c7d3-46c4-9f6c-ca828929870e","ios":"levelo://app?vid=438b017b-c7d3-46c4-9f6c-ca828929870e"},"vehicle_type_id":"4","last_reported":1703074272,"current_range_meters":25600,"station_id":"ce4bhbh2rcd13ifvqepg","pricing_plan_id":"free"},{"bike_id":"2c7907b3-c901-4f29-becb-6395e1a50b59","system_id":"levelo_inurba_marseille","lat":43.284217,"lon":5.349697,"is_reserved":false,"is_disabled":false,"rental_uris":{"android":"levelo://app?vid=2c7907b3-c901-4f29-becb-6395e1a50b59","ios":"levelo://app?vid=2c7907b3-c901-4f29-becb-6395e1a50b59"},"vehicle_type_id":"4","last_reported":1703074272,"current_range_meters":31600,"station_id":"ce4bhbh2rcd13ifvqepg","pricing_plan_id":"free"},{"bike_id":"726979c8-c13b-4929-9cb5-2dffd4a3f969","system_id":"levelo_inurba_marseille","lat":43.284217,"lon":5.349697,"is_reserved":false,"is_disabled":false,"rental_uris":{"android":"levelo://app?vid=726979c8-c13b-4929-9cb5-2dffd4a3f969","ios":"levelo://app?vid=726979c8-c13b-4929-9cb5-2dffd4a3f969"},"vehicle_type_id":"4","last_reported":1703074272,"current_range_meters":13600,"station_id":"ce4bhbh2rcd13ifvqepg","pricing_plan_id":"free"},{"bike_id":"93149546-b8fe-4f4c-8569-13fc229684a1","system_id":"levelo_inurba_marseille","lat":43.284125,"lon":5.38545,"is_reserved":false,"is_disabled":false,"rental_uris":{"android":"levelo://app?vid=93149546-b8fe-4f4c-8569-13fc229684a1","ios":"levelo://app?vid=93149546-b8fe-4f4c-8569-13fc229684a1"},"vehicle_type_id":"4","last_reported":1703074272,"current_range_meters":0,"station_id":"","pricing_plan_id":"free"},{"bike_id":"0fdc615a-8d70-4ff1-bc30-89e2659dc394","system_id":"levelo_inurba_marseille","lat":43.292724,"lon":5.401131,"is_reserved":false,"is_disabled":false,"rental_uris":{"android":"levelo://app?vid=0fdc615a-8d70-4ff1-bc30-89e2659dc394","ios":"levelo://app?vid=0fdc615a-8d70-4ff1-bc30-89e2659dc394"},"vehicle_type_id":"4","last_reported":1703074272,"current_range_meters":15200,"station_id":"ce4bh312rcd13ifvqdk0","pricing_plan_id":"free"},{"bike_id":"92fbbd05-cf06-4b57-b8bc-49241ae111e5","system_id":"levelo_inurba_marseille","lat":43.282744,"lon":5.350533,"is_reserved":false,"is_disabled":false,"rental_uris":{"android":"levelo://app?vid=92fbbd05-cf06-4b57-b8bc-49241ae111e5","ios":"levelo://app?vid=92fbbd05-cf06-4b57-b8bc-49241ae111e5"},"vehicle_type_id":"4","last_reported":1703074272,"current_range_meters":26400,"station_id":"ce4bhbp2rcd13ifvqerg","pricing_plan_id":"free"},{"bike_id":"705e0e5e-cffe-4498-adda-e5de0c6b11e7","system_id":"levelo_inurba_marseille","lat":43.28039,"lon":5.369297,"is_reserved":false,"is_disabled":false,"rental_uris":{"android":"levelo://app?vid=705e0e5e-cffe-4498-adda-e5de0c6b11e7","ios":"levelo://app?vid=705e0e5e-cffe-4498-adda-e5de0c6b11e7"},"vehicle_type_id":"4","last_reported":1703074272,"current_range_meters":18400,"station_id":"ce4bha12rcd13ifvqef0","pricing_plan_id":"free"},{"bike_id":"eb430f85-762b-4c28-8a7a-2452aeb0785e","system_id":"levelo_inurba_marseille","lat":43.283502,"lon":5.386471,"is_reserved":false,"is_disabled":false,"rental_uris":{"android":"levelo://app?vid=eb430f85-762b-4c28-8a7a-2452aeb0785e","ios":"levelo://app?vid=eb430f85-762b-4c28-8a7a-2452aeb0785e"},"vehicle_type_id":"4","last_reported":1703074272,"current_range_meters":20400,"station_id":"ce4bh492rcd13ifvqdvg","pricing_plan_id":"free"},{"bike_id":"c6d8bf2a-b3c0-4994-9b2b-a3a6e497f6dc","system_id":"levelo_inurba_marseille","lat":43.280382,"lon":5.369291,"is_reserved":false,"is_disabled":false,"rental_uris":{"android":"levelo://app?vid=c6d8bf2a-b3c0-4994-9b2b-a3a6e497f6dc","ios":"levelo://app?vid=c6d8bf2a-b3c0-4994-9b2b-a3a6e497f6dc"},"vehicle_type_id":"4","last_reported":1703074272,"current_range_meters":16800,"station_id":"ce4bha12rcd13ifvqef0","pricing_plan_id":"free"},{"bike_id":"c3ee0cc6-d4c6-4078-a063-23c5810a9fb2","system_id":"levelo_inurba_marseille","lat":43.28039,"lon":5.369297,"is_reserved":false,"is_disabled":false,"rental_uris":{"android":"levelo://app?vid=c3ee0cc6-d4c6-4078-a063-23c5810a9fb2","ios":"levelo://app?vid=c3ee0cc6-d4c6-4078-a063-23c5810a9fb2"},"vehicle_type_id":"4","last_reported":1703074272,"current_range_meters":22400,"station_id":"ce4bha12rcd13ifvqef0","pricing_plan_id":"free"},{"bike_id":"76d0bbbd-97b0-420c-be00-e21ac75bc6f7","system_id":"levelo_inurba_marseille","lat":43.296097,"lon":5.405633,"is_reserved":false,"is_disabled":false,"rental_uris":{"android":"levelo://app?vid=76d0bbbd-97b0-420c-be00-e21ac75bc6f7","ios":"levelo://app?vid=76d0bbbd-97b0-420c-be00-e21ac75bc6f7"},"vehicle_type_id":"4","last_reported":1703074272,"current_range_meters":30400,"station_id":"","pricing_plan_id":"free"},{"bike_id":"961f1235-eecd-4de2-bccc-e4e46976d782","system_id":"levelo_inurba_marseille","lat":43.281044,"lon":5.378308,"is_reserved":false,"is_disabled":false,"rental_uris":{"android":"levelo://app?vid=961f1235-eecd-4de2-bccc-e4e46976d782","ios":"levelo://app?vid=961f1235-eecd-4de2-bccc-e4e46976d782"},"vehicle_type_id":"4","last_reported":1703074272,"current_range_meters":800,"station_id":"ce4bha12rcd13ifvqee0","pricing_plan_id":"free"},{"bike_id":"ec2d2e70-e3d1-40af-b8b6-ebee58820950","system_id":"levelo_inurba_marseille","lat":43.281044,"lon":5.378308,"is_reserved":false,"is_disabled":false,"rental_uris":{"android":"levelo://app?vid=ec2d2e70-e3d1-40af-b8b6-ebee58820950","ios":"levelo://app?vid=ec2d2e70-e3d1-40af-b8b6-ebee58820950"},"vehicle_type_id":"4","last_reported":1703074272,"current_range_meters":16400,"station_id":"ce4bha12rcd13ifvqee0","pricing_plan_id":"free"},{"bike_id":"805cb140-0807-482b-a491-bfe40b14d2b0","system_id":"levelo_inurba_marseille","lat":43.281044,"lon":5.378308,"is_reserved":false,"is_disabled":false,"rental_uris":{"android":"levelo://app?vid=805cb140-0807-482b-a491-bfe40b14d2b0","ios":"levelo://app?vid=805cb140-0807-482b-a491-bfe40b14d2b0"},"vehicle_type_id":"4","last_reported":1703074272,"current_range_meters":0,"station_id":"ce4bha12rcd13ifvqee0","pricing_plan_id":"free"},{"bike_id":"f5751da8-d319-4d98-9be7-763329cb9f98","system_id":"levelo_inurba_marseille","lat":43.284462,"lon":5.392121,"is_reserved":false,"is_disabled":false,"rental_uris":{"android":"levelo://app?vid=f5751da8-d319-4d98-9be7-763329cb9f98","ios":"levelo://app?vid=f5751da8-d319-4d98-9be7-763329cb9f98"},"vehicle_type_id":"4","last_reported":1703074272,"current_range_meters":23200,"station_id":"ce4bhoh2rcd13ifvqh5g","pricing_plan_id":"free"},{"bike_id":"2e8fb24e-9511-4b3e-93cc-c51763db4f1f","system_id":"levelo_inurba_marseille","lat":43.284462,"lon":5.392121,"is_reserved":false,"is_disabled":false,"rental_uris":{"android":"levelo://app?vid=2e8fb24e-9511-4b3e-93cc-c51763db4f1f","ios":"levelo://app?vid=2e8fb24e-9511-4b3e-93cc-c51763db4f1f"},"vehicle_type_id":"4","last_reported":1703074272,"current_range_meters":7200,"station_id":"ce4bhoh2rcd13ifvqh5g","pricing_plan_id":"free"},{"bike_id":"5346d188-4883-4281-906b-d41e657db82f","system_id":"levelo_inurba_marseille","lat":43.28573,"lon":5.394992,"is_reserved":false,"is_disabled":false,"rental_uris":{"android":"levelo://app?vid=5346d188-4883-4281-906b-d41e657db82f","ios":"levelo://app?vid=5346d188-4883-4281-906b-d41e657db82f"},"vehicle_type_id":"4","last_reported":1703074272,"current_range_meters":0,"station_id":"ce4bh292rcd13ifvqdg0","pricing_plan_id":"free"},{"bike_id":"16ba9a0c-8ff9-46bd-8f25-9a6e03b85497","system_id":"levelo_inurba_marseille","lat":43.279087,"lon":5.380114,"is_reserved":false,"is_disabled":false,"rental_uris":{"android":"levelo://app?vid=16ba9a0c-8ff9-46bd-8f25-9a6e03b85497","ios":"levelo://app?vid=16ba9a0c-8ff9-46bd-8f25-9a6e03b85497"},"vehicle_type_id":"4","last_reported":1703074272,"current_range_meters":13600,"station_id":"ce4bhf92rcd13ifvqf50","pricing_plan_id":"free"},{"bike_id":"01dcf88a-d88b-4fdd-9d78-b4c7d4ba5da2","system_id":"levelo_inurba_marseille","lat":43.279087,"lon":5.380114,"is_reserved":false,"is_disabled":false,"rental_uris":{"android":"levelo://app?vid=01dcf88a-d88b-4fdd-9d78-b4c7d4ba5da2","ios":"levelo://app?vid=01dcf88a-d88b-4fdd-9d78-b4c7d4ba5da2"},"vehicle_type_id":"4","last_reported":1703074272,"current_range_meters":2000,"station_id":"ce4bhf92rcd13ifvqf50","pricing_plan_id":"free"},{"bike_id":"e04fe282-c0af-40b1-b462-cbcb00f91e59","system_id":"levelo_inurba_marseille","lat":43.287154,"lon":5.399979,"is_reserved":false,"is_disabled":false,"rental_uris":{"android":"levelo://app?vid=e04fe282-c0af-40b1-b462-cbcb00f91e59","ios":"levelo://app?vid=e04fe282-c0af-40b1-b462-cbcb00f91e59"},"vehicle_type_id":"4","last_reported":1703074272,"current_range_meters":1200,"station_id":"ce4bho92rcd13ifvqh3g","pricing_plan_id":"free"},{"bike_id":"cb0668d4-d46c-4efe-a7e0-185ebe495ab4","system_id":"levelo_inurba_marseille","lat":43.280548,"lon":5.389281,"is_reserved":false,"is_disabled":false,"rental_uris":{"android":"levelo://app?vid=cb0668d4-d46c-4efe-a7e0-185ebe495ab4","ios":"levelo://app?vid=cb0668d4-d46c-4efe-a7e0-185ebe495ab4"},"vehicle_type_id":"4","last_reported":1703074272,"current_range_meters":7600,"station_id":"","pricing_plan_id":"free"},{"bike_id":"0cba6ad0-b9f1-4ce5-85bb-f50d938789cc","system_id":"levelo_inurba_marseille","lat":43.299577,"lon":5.413277,"is_reserved":false,"is_disabled":false,"rental_uris":{"android":"levelo://app?vid=0cba6ad0-b9f1-4ce5-85bb-f50d938789cc","ios":"levelo://app?vid=0cba6ad0-b9f1-4ce5-85bb-f50d938789cc"},"vehicle_type_id":"4","last_reported":1703074272,"current_range_meters":31200,"station_id":"ce4bhp12rcd13ifvqh9g","pricing_plan_id":"free"},{"bike_id":"450fea87-4bef-4678-b60c-fb597363807c","system_id":"levelo_inurba_marseille","lat":43.279742,"lon":5.38744,"is_reserved":false,"is_disabled":false,"rental_uris":{"android":"levelo://app?vid=450fea87-4bef-4678-b60c-fb597363807c","ios":"levelo://app?vid=450fea87-4bef-4678-b60c-fb597363807c"},"vehicle_type_id":"4","last_reported":1703074272,"current_range_meters":24400,"station_id":"ce4bhg12rcd13ifvqf80","pricing_plan_id":"free"},{"bike_id":"1aaa765a-bd37-4b2f-865b-2f1937c38722","system_id":"levelo_inurba_marseille","lat":43.320045,"lon":5.415046,"is_reserved":false,"is_disabled":false,"rental_uris":{"android":"levelo://app?vid=1aaa765a-bd37-4b2f-865b-2f1937c38722","ios":"levelo://app?vid=1aaa765a-bd37-4b2f-865b-2f1937c38722"},"vehicle_type_id":"4","last_reported":1703074272,"current_range_meters":26800,"station_id":"ce4bhq92rcd13ifvqhkg","pricing_plan_id":"free"},{"bike_id":"5161b995-3f81-44ee-a011-2628a5bc8456","system_id":"levelo_inurba_marseille","lat":43.320045,"lon":5.415046,"is_reserved":false,"is_disabled":false,"rental_uris":{"android":"levelo://app?vid=5161b995-3f81-44ee-a011-2628a5bc8456","ios":"levelo://app?vid=5161b995-3f81-44ee-a011-2628a5bc8456"},"vehicle_type_id":"4","last_reported":1703074272,"current_range_meters":22800,"station_id":"ce4bhq92rcd13ifvqhkg","pricing_plan_id":"free"},{"bike_id":"13b327ae-aaa5-4adc-9d5a-fc0e355785d2","system_id":"levelo_inurba_marseille","lat":43.279742,"lon":5.38744,"is_reserved":false,"is_disabled":false,"rental_uris":{"android":"levelo://app?vid=13b327ae-aaa5-4adc-9d5a-fc0e355785d2","ios":"levelo://app?vid=13b327ae-aaa5-4adc-9d5a-fc0e355785d2"},"vehicle_type_id":"4","last_reported":1703074272,"current_range_meters":1200,"station_id":"ce4bhg12rcd13ifvqf80","pricing_plan_id":"free"},{"bike_id":"1a0bc111-85db-4d0c-a797-51110032f0b6","system_id":"levelo_inurba_marseille","lat":43.320045,"lon":5.415046,"is_reserved":false,"is_disabled":false,"rental_uris":{"android":"levelo://app?vid=1a0bc111-85db-4d0c-a797-51110032f0b6","ios":"levelo://app?vid=1a0bc111-85db-4d0c-a797-51110032f0b6"},"vehicle_type_id":"4","last_reported":1703074272,"current_range_meters":26400,"station_id":"ce4bhq92rcd13ifvqhkg","pricing_plan_id":"free"},{"bike_id":"761ddb83-5c81-48b4-aa77-ad1952687cca","system_id":"levelo_inurba_marseille","lat":43.27618,"lon":5.361009,"is_reserved":false,"is_disabled":false,"rental_uris":{"android":"levelo://app?vid=761ddb83-5c81-48b4-aa77-ad1952687cca","ios":"levelo://app?vid=761ddb83-5c81-48b4-aa77-ad1952687cca"},"vehicle_type_id":"4","last_reported":1703074272,"current_range_meters":8000,"station_id":"ce4bgj92rcd13ifvqbe0","pricing_plan_id":"free"},{"bike_id":"ae97ba37-8759-486d-94a5-f27bc8d713dd","system_id":"levelo_inurba_marseille","lat":43.27618,"lon":5.361009,"is_reserved":false,"is_disabled":false,"rental_uris":{"android":"levelo://app?vid=ae97ba37-8759-486d-94a5-f27bc8d713dd","ios":"levelo://app?vid=ae97ba37-8759-486d-94a5-f27bc8d713dd"},"vehicle_type_id":"4","last_reported":1703074272,"current_range_meters":26000,"station_id":"ce4bgj92rcd13ifvqbe0","pricing_plan_id":"free"},{"bike_id":"1b411c6b-201d-4488-8b0a-082671a3e74b","system_id":"levelo_inurba_marseille","lat":43.280784,"lon":5.396622,"is_reserved":false,"is_disabled":false,"rental_uris":{"android":"levelo://app?vid=1b411c6b-201d-4488-8b0a-082671a3e74b","ios":"levelo://app?vid=1b411c6b-201d-4488-8b0a-082671a3e74b"},"vehicle_type_id":"4","last_reported":1703074272,"current_range_meters":6800,"station_id":"ce4bho12rcd13ifvqh2g","pricing_plan_id":"free"},{"bike_id":"83489523-53cc-428e-8af2-548f20585f1b","system_id":"levelo_inurba_marseille","lat":43.303837,"lon":5.418724,"is_reserved":false,"is_disabled":false,"rental_uris":{"android":"levelo://app?vid=83489523-53cc-428e-8af2-548f20585f1b","ios":"levelo://app?vid=83489523-53cc-428e-8af2-548f20585f1b"},"vehicle_type_id":"4","last_reported":1703074272,"current_range_meters":26400,"station_id":"ce4bhop2rcd13ifvqh7g","pricing_plan_id":"free"},{"bike_id":"5564e528-0970-4634-acc7-84ed01bca987","system_id":"levelo_inurba_marseille","lat":43.278399,"lon":5.392139,"is_reserved":false,"is_disabled":false,"rental_uris":{"android":"levelo://app?vid=5564e528-0970-4634-acc7-84ed01bca987","ios":"levelo://app?vid=5564e528-0970-4634-acc7-84ed01bca987"},"vehicle_type_id":"4","last_reported":1703074272,"current_range_meters":21200,"station_id":"ce4bhjp2rcd13ifvqga0","pricing_plan_id":"free"},{"bike_id":"c21d8b79-8f7f-448f-bff8-d2d54c0cde2d","system_id":"levelo_inurba_marseille","lat":43.273613,"lon":5.362705,"is_reserved":false,"is_disabled":false,"rental_uris":{"android":"levelo://app?vid=c21d8b79-8f7f-448f-bff8-d2d54c0cde2d","ios":"levelo://app?vid=c21d8b79-8f7f-448f-bff8-d2d54c0cde2d"},"vehicle_type_id":"4","last_reported":1703074272,"current_range_meters":28800,"station_id":"ce4bhbh2rcd13ifvqeo0","pricing_plan_id":"free"},{"bike_id":"3a1f04a1-5a84-41fe-984d-a837d7ea2cab","system_id":"levelo_inurba_marseille","lat":43.336134,"lon":5.410341,"is_reserved":false,"is_disabled":false,"rental_uris":{"android":"levelo://app?vid=3a1f04a1-5a84-41fe-984d-a837d7ea2cab","ios":"levelo://app?vid=3a1f04a1-5a84-41fe-984d-a837d7ea2cab"},"vehicle_type_id":"4","last_reported":1703074272,"current_range_meters":12800,"station_id":"ce4bhqh2rcd13ifvqhmg","pricing_plan_id":"free"},{"bike_id":"014b1604-034b-43dc-b201-3b7a51aae168","system_id":"levelo_inurba_marseille","lat":43.275625,"lon":5.384392,"is_reserved":false,"is_disabled":false,"rental_uris":{"android":"levelo://app?vid=014b1604-034b-43dc-b201-3b7a51aae168","ios":"levelo://app?vid=014b1604-034b-43dc-b201-3b7a51aae168"},"vehicle_type_id":"4","last_reported":1703074272,"current_range_meters":24400,"station_id":"ce4bhh92rcd13ifvqfi0","pricing_plan_id":"free"},{"bike_id":"39111e99-0a3f-4991-80b2-ae6d3d137c2e","system_id":"levelo_inurba_marseille","lat":43.275625,"lon":5.384392,"is_reserved":false,"is_disabled":false,"rental_uris":{"android":"levelo://app?vid=39111e99-0a3f-4991-80b2-ae6d3d137c2e","ios":"levelo://app?vid=39111e99-0a3f-4991-80b2-ae6d3d137c2e"},"vehicle_type_id":"4","last_reported":1703074272,"current_range_meters":26400,"station_id":"ce4bhh92rcd13ifvqfi0","pricing_plan_id":"free"},{"bike_id":"0b7aaedc-7640-4713-9316-eac23e9f8595","system_id":"levelo_inurba_marseille","lat":43.275625,"lon":5.384392,"is_reserved":false,"is_disabled":false,"rental_uris":{"android":"levelo://app?vid=0b7aaedc-7640-4713-9316-eac23e9f8595","ios":"levelo://app?vid=0b7aaedc-7640-4713-9316-eac23e9f8595"},"vehicle_type_id":"4","last_reported":1703074272,"current_range_meters":25200,"station_id":"ce4bhh92rcd13ifvqfi0","pricing_plan_id":"free"},{"bike_id":"d22d1203-0f21-4007-9972-05249b0e3c2d","system_id":"levelo_inurba_marseille","lat":43.317121,"lon":5.423936,"is_reserved":false,"is_disabled":false,"rental_uris":{"android":"levelo://app?vid=d22d1203-0f21-4007-9972-05249b0e3c2d","ios":"levelo://app?vid=d22d1203-0f21-4007-9972-05249b0e3c2d"},"vehicle_type_id":"4","last_reported":1703074272,"current_range_meters":19200,"station_id":"ce4bhp92rcd13ifvqhbg","pricing_plan_id":"free"},{"bike_id":"a186b623-a02e-4b49-b9f8-d08ed118be67","system_id":"levelo_inurba_marseille","lat":43.310785,"lon":5.424305,"is_reserved":false,"is_disabled":false,"rental_uris":{"android":"levelo://app?vid=a186b623-a02e-4b49-b9f8-d08ed118be67","ios":"levelo://app?vid=a186b623-a02e-4b49-b9f8-d08ed118be67"},"vehicle_type_id":"4","last_reported":1703074272,"current_range_meters":31200,"station_id":"ce4bhp92rcd13ifvqhag","pricing_plan_id":"free"},{"bike_id":"6aeb72c6-7795-421e-8c99-8e89a08bfac6","system_id":"levelo_inurba_marseille","lat":43.317121,"lon":5.423936,"is_reserved":false,"is_disabled":false,"rental_uris":{"android":"levelo://app?vid=6aeb72c6-7795-421e-8c99-8e89a08bfac6","ios":"levelo://app?vid=6aeb72c6-7795-421e-8c99-8e89a08bfac6"},"vehicle_type_id":"4","last_reported":1703074272,"current_range_meters":30400,"station_id":"ce4bhp92rcd13ifvqhbg","pricing_plan_id":"free"},{"bike_id":"3c3c58d3-be51-4d08-b7d0-aa82b5c92010","system_id":"levelo_inurba_marseille","lat":43.310785,"lon":5.424305,"is_reserved":false,"is_disabled":false,"rental_uris":{"android":"levelo://app?vid=3c3c58d3-be51-4d08-b7d0-aa82b5c92010","ios":"levelo://app?vid=3c3c58d3-be51-4d08-b7d0-aa82b5c92010"},"vehicle_type_id":"4","last_reported":1703074272,"current_range_meters":20000,"station_id":"ce4bhp92rcd13ifvqhag","pricing_plan_id":"free"},{"bike_id":"a5be1e0a-9870-48c1-b934-a7e079d58b9c","system_id":"levelo_inurba_marseille","lat":43.310785,"lon":5.424305,"is_reserved":false,"is_disabled":false,"rental_uris":{"android":"levelo://app?vid=a5be1e0a-9870-48c1-b934-a7e079d58b9c","ios":"levelo://app?vid=a5be1e0a-9870-48c1-b934-a7e079d58b9c"},"vehicle_type_id":"4","last_reported":1703074272,"current_range_meters":28400,"station_id":"ce4bhp92rcd13ifvqhag","pricing_plan_id":"free"},{"bike_id":"974dc7db-ff3c-4554-8964-132f9db52d9b","system_id":"levelo_inurba_marseille","lat":43.276092,"lon":5.395289,"is_reserved":false,"is_disabled":false,"rental_uris":{"android":"levelo://app?vid=974dc7db-ff3c-4554-8964-132f9db52d9b","ios":"levelo://app?vid=974dc7db-ff3c-4554-8964-132f9db52d9b"},"vehicle_type_id":"4","last_reported":1703074272,"current_range_meters":4000,"station_id":"","pricing_plan_id":"free"},