{"last_updated":1701940042,"ttl":30,"version":"2.2","data":{"bikes":[{"bike_id":"b2e1f01b-8698-4dc4-b376-e89a19298667","system_id":"levelo_inurba_marseille","lat":43.31332,"lon":5.36719,"is_reserved":false,"is_disabled":false,"rental_uris":{"android":"levelo://app?vid=b2e1f01b-8698-4dc4-b376-e89a19298667","ios":"levelo://app?vid=b2e1f01b-8698-4dc4-b376-e89a19298667"},"vehicle_type_id":"4","last_reported":1701940043,"current_range_meters":25200,"station_id":"ce4bgr92rcd13ifvqc6g","pricing_plan_id":"free"},{"bike_id":"89593d1d-a711-4736-afcc-29432430d887","system_id":"levelo_inurba_marseille","lat":43.31341,"lon":5.367098,"is_reserved":false,"is_disabled":false,"rental_uris":{"android":"levelo://app?vid=89593d1d-a711-4736-afcc-29432430d887","ios":"levelo://app?vid=89593d1d-a711-4736-afcc-29432430d887"},"vehicle_type_id":"4","last_reported":1701940043,"current_range_meters":20400,"station_id":"ce4bgr92rcd13ifvqc6g","pricing_plan_id":"free"},{"bike_id":"658ab66c-19a3-48a3-8d86-86c897339b6f","system_id":"levelo_inurba_marseille","lat":43.31333,"lon":5.36731,"is_reserved":false,"is_disabled":false,"rental_uris":{"android":"levelo://app?vid=658ab66c-19a3-48a3-8d86-86c897339b6f","ios":"levelo://app?vid=658ab66c-19a3-48a3-8d86-86c897339b6f"},"vehicle_type_id":"4","last_reported":1701940043,"current_range_meters":9200,"station_id":"ce4bgr92rcd13ifvqc6g","pricing_plan_id":"free"},{"bike_id":"ef2d35ff-b354-44e0-9b74-a21269b29bbf","system_id":"levelo_inurba_marseille","lat":43.31341,"lon":5.367098,"is_reserved":false,"is_disabled":false,"rental_uris":{"android":"levelo://app?vid=ef2d35ff-b354-44e0-9b74-a21269b29bbf","ios":"levelo://app?vid=ef2d35ff-b354-44e0-9b74-a21269b29bbf"},"vehicle_type_id":"4","last_reported":1701940043,"current_range_meters":20400,"station_id":"ce4bgr92rcd13ifvqc6g","pricing_plan_id":"free"},{"bike_id":"6f08718a-8324-40bd-9496-89e7238df4ef","system_id":"levelo_inurba_marseille","lat":43.313391,"lon":5.36706,"is_reserved":false,"is_disabled":false,"rental_uris":{"android":"levelo://app?vid=6f08718a-8324-40bd-9496-89e7238df4ef","ios":"levelo://app?vid=6f08718a-8324-40bd-9496-89e7238df4ef"},"vehicle_type_id":"4","last_reported":1701940043,"current_range_meters":27600,"station_id":"ce4bgr92rcd13ifvqc6g","pricing_plan_id":"free"},{"bike_id":"6d63928c-e42d-4622-9a66-dd9b0a6791bf","system_id":"levelo_inurba_marseille","lat":43.31349,"lon":5.36711,"is_reserved":false,"is_disabled":false,"rental_uris":{"android":"levelo://app?vid=6d63928c-e42d-4622-9a66-dd9b0a6791bf","ios":"levelo://app?vid=6d63928c-e42d-4622-9a66-dd9b0a6791bf"},"vehicle_type_id":"4","last_reported":1701940043,"current_range_meters":30400,"station_id":"ce4bgr92rcd13ifvqc6g","pricing_plan_id":"free"},{"bike_id":"7c70633e-c74d-4a61-b7d1-1ae69f04fc9a","system_id":"levelo_inurba_marseille","lat":43.31375,"lon":5.36759,"is_reserved":false,"is_disabled":false,"rental_uris":{"android":"levelo://app?vid=7c70633e-c74d-4a61-b7d1-1ae69f04fc9a","ios":"levelo://app?vid=7c70633e-c74d-4a61-b7d1-1ae69f04fc9a"},"vehicle_type_id":"4","last_reported":1701940043,"current_range_meters":0,"station_id":"","pricing_plan_id":"free"},{"bike_id":"3d137284-0d6d-47c2-b10e-cea341f5d196","system_id":"levelo_inurba_marseille","lat":43.312239,"lon":5.368562,"is_reserved":false,"is_disabled":false,"rental_uris":{"android":"levelo://app?vid=3d137284-0d6d-47c2-b10e-cea341f5d196","ios":"levelo://app?vid=3d137284-0d6d-47c2-b10e-cea341f5d196"},"vehicle_type_id":"4","last_reported":1701940043,"current_range_meters":22000,"station_id":"ce4bgl92rcd13ifvqbq0","pricing_plan_id":"free"},{"bike_id":"bdb7193e-8661-479b-ba1c-e732448ee4c3","system_id":"levelo_inurba_marseille","lat":43.312239,"lon":5.368562,"is_reserved":false,"is_disabled":false,"rental_uris":{"android":"levelo://app?vid=bdb7193e-8661-479b-ba1c-e732448ee4c3","ios":"levelo://app?vid=bdb7193e-8661-479b-ba1c-e732448ee4c3"},"vehicle_type_id":"4","last_reported":1701940043,"current_range_meters":1200,"station_id":"ce4bgl92rcd13ifvqbq0","pricing_plan_id":"free"},{"bike_id":"2a1d46bb-6bfb-4822-877e-ef9a34b2fc51","system_id":"levelo_inurba_marseille","lat":43.312239,"lon":5.368562,"is_reserved":false,"is_disabled":false,"rental_uris":{"android":"levelo://app?vid=2a1d46bb-6bfb-4822-877e-ef9a34b2fc51","ios":"levelo://app?vid=2a1d46bb-6bfb-4822-877e-ef9a34b2fc51"},"vehicle_type_id":"4","last_reported":1701940043,"current_range_meters":14800,"station_id":"ce4bgl92rcd13ifvqbq0","pricing_plan_id":"free"},{"bike_id":"661caae0-e23b-4296-9a24-b76d819b7b5c","system_id":"levelo_inurba_marseille","lat":43.312239,"lon":5.368562,"is_reserved":false,"is_disabled":false,"rental_uris":{"android":"levelo://app?vid=661caae0-e23b-4296-9a24-b76d819b7b5c","ios":"levelo://app?vid=661caae0-e23b-4296-9a24-b76d819b7b5c"},"vehicle_type_id":"4","last_reported":1701940043,"current_range_meters":30000,"station_id":"ce4bgl92rcd13ifvqbq0","pricing_plan_id":"free"},{"bike_id":"5c49b4d1-b8e6-4763-8fb1-b3f8819fa983","system_id":"levelo_inurba_marseille","lat":43.309076,"lon":5.368465,"is_reserved":false,"is_disabled":false,"rental_uris":{"android":"levelo://app?vid=5c49b4d1-b8e6-4763-8fb1-b3f8819fa983","ios":"levelo://app?vid=5c49b4d1-b8e6-4763-8fb1-b3f8819fa983"},"vehicle_type_id":"4","last_reported":1701940043,"current_range_meters":25200,"station_id":"ce4bgn92rcd13ifvqbvg","pricing_plan_id":"free"},{"bike_id":"e94c3050-0364-4bb9-8d86-cc49c5e2ab27","system_id":"levelo_inurba_marseille","lat":43.309076,"lon":5.368465,"is_reserved":false,"is_disabled":false,"rental_uris":{"android":"levelo://app?vid=e94c3050-0364-4bb9-8d86-cc49c5e2ab27","ios":"levelo://app?vid=e94c3050-0364-4bb9-8d86-cc49c5e2ab27"},"vehicle_type_id":"4","last_reported":1701940043,"current_range_meters":31200,"station_id":"ce4bgn92rcd13ifvqbvg","pricing_plan_id":"free"},{"bike_id":"593e9455-c518-45d7-a13b-67882c5bdda2","system_id":"levelo_inurba_marseille","lat":43.309076,"lon":5.368465,"is_reserved":false,"is_disabled":false,"rental_uris":{"android":"levelo://app?vid=593e9455-c518-45d7-a13b-67882c5bdda2","ios":"levelo://app?vid=593e9455-c518-45d7-a13b-67882c5bdda2"},"vehicle_type_id":"4","last_reported":1701940043,"current_range_meters":9200,"station_id":"ce4bgn92rcd13ifvqbvg","pricing_plan_id":"free"},{"bike_id":"a5e74075-f518-4d0d-b662-356c7cdece66","system_id":"levelo_inurba_marseille","lat":43.309076,"lon":5.368465,"is_reserved":false,"is_disabled":false,"rental_uris":{"android":"levelo://app?vid=a5e74075-f518-4d0d-b662-356c7cdece66","ios":"levelo://app?vid=a5e74075-f518-4d0d-b662-356c7cdece66"},"vehicle_type_id":"4","last_reported":1701940043,"current_range_meters":31200,"station_id":"ce4bgn92rcd13ifvqbvg","pricing_plan_id":"free"},{"bike_id":"a50ea77e-6623-4c6f-87f6-a0c366886c29","system_id":"levelo_inurba_marseille","lat":43.309076,"lon":5.368465,"is_reserved":false,"is_disabled":false,"rental_uris":{"android":"levelo://app?vid=a50ea77e-6623-4c6f-87f6-a0c366886c29","ios":"levelo://app?vid=a50ea77e-6623-4c6f-87f6-a0c366886c29"},"vehicle_type_id":"4","last_reported":1701940043,"current_range_meters":30000,"station_id":"ce4bgn92rcd13ifvqbvg","pricing_plan_id":"free"},{"bike_id":"9635cede-26cd-4f4e-8cd2-13220ef3820c","system_id":"levelo_inurba_marseille","lat":43.309076,"lon":5.368465,"is_reserved":false,"is_disabled":false,"rental_uris":{"android":"levelo://app?vid=9635cede-26cd-4f4e-8cd2-13220ef3820c","ios":"levelo://app?vid=9635cede-26cd-4f4e-8cd2-13220ef3820c"},"vehicle_type_id":"4","last_reported":1701940043,"current_range_meters":24400,"station_id":"ce4bgn92rcd13ifvqbvg","pricing_plan_id":"free"},{"bike_id":"8bb1cf9a-2a7d-44ad-96d1-4abef2cefa22","system_id":"levelo_inurba_marseille","lat":43.309076,"lon":5.368465,"is_reserved":false,"is_disabled":false,"rental_uris":{"android":"levelo://app?vid=8bb1cf9a-2a7d-44ad-96d1-4abef2cefa22","ios":"levelo://app?vid=8bb1cf9a-2a7d-44ad-96d1-4abef2cefa22"},"vehicle_type_id":"4","last_reported":1701940043,"current_range_meters":31200,"station_id":"ce4bgn92rcd13ifvqbvg","pricing_plan_id":"free"},{"bike_id":"a7925edc-ad9a-488b-b971-1364fb7a2ffd","system_id":"levelo_inurba_marseille","lat":43.309076,"lon":5.368465,"is_reserved":false,"is_disabled":false,"rental_uris":{"android":"levelo://app?vid=a7925edc-ad9a-488b-b971-1364fb7a2ffd","ios":"levelo://app?vid=a7925edc-ad9a-488b-b971-1364fb7a2ffd"},"vehicle_type_id":"4","last_reported":1701940043,"current_range_meters":31200,"station_id":"ce4bgn92rcd13ifvqbvg","pricing_plan_id":"free"},{"bike_id":"99846a07-740c-4c3e-a25c-e18bebc331e9","system_id":"levelo_inurba_marseille","lat":43.309076,"lon":5.368465,"is_reserved":false,"is_disabled":false,"rental_uris":{"android":"levelo://app?vid=99846a07-740c-4c3e-a25c-e18bebc331e9","ios":"levelo://app?vid=99846a07-740c-4c3e-a25c-e18bebc331e9"},"vehicle_type_id":"4","last_reported":1701940043,"current_range_meters":22400,"station_id":"ce4bgn92rcd13ifvqbvg","pricing_plan_id":"free"},{"bike_id":"9fa2933e-f1d9-4864-89c7-89eac782580f","system_id":"levelo_inurba_marseille","lat":43.309076,"lon":5.368465,"is_reserved":false,"is_disabled":false,"rental_uris":{"android":"levelo://app?vid=9fa2933e-f1d9-4864-89c7-89eac782580f","ios":"levelo://app?vid=9fa2933e-f1d9-4864-89c7-89eac782580f"},"vehicle_type_id":"4","last_reported":1701940043,"current_range_meters":21600,"station_id":"ce4bgn92rcd13ifvqbvg","pricing_plan_id":"free"},{"bike_id":"fe8c67d6-10dc-4a6b-8f57-fc90f858d2c9","system_id":"levelo_inurba_marseille","lat":43.309076,"lon":5.368465,"is_reserved":false,"is_disabled":false,"rental_uris":{"android":"levelo://app?vid=fe8c67d6-10dc-4a6b-8f57-fc90f858d2c9","ios":"levelo://app?vid=fe8c67d6-10dc-4a6b-8f57-fc90f858d2c9"},"vehicle_type_id":"4","last_reported":1701940043,"current_range_meters":25200,"station_id":"ce4bgn92rcd13ifvqbvg","pricing_plan_id":"free"},{"bike_id":"a4ff908c-f768-44ca-b03b-0ed7a738f283","system_id":"levelo_inurba_marseille","lat":43.3167,"lon":5.36912,"is_reserved":false,"is_disabled":false,"rental_uris":{"android":"levelo://app?vid=a4ff908c-f768-44ca-b03b-0ed7a738f283","ios":"levelo://app?vid=a4ff908c-f768-44ca-b03b-0ed7a738f283"},"vehicle_type_id":"4","last_reported":1701940043,"current_range_meters":22400,"station_id":"ce4bhs92rcd13ifvqi0g","pricing_plan_id":"free"},{"bike_id":"11f7d420-e94b-482c-9b28-b7a6ff124115","system_id":"levelo_inurba_marseille","lat":43.309039,"lon":5.371797,"is_reserved":false,"is_disabled":false,"rental_uris":{"android":"levelo://app?vid=11f7d420-e94b-482c-9b28-b7a6ff124115","ios":"levelo://app?vid=11f7d420-e94b-482c-9b28-b7a6ff124115"},"vehicle_type_id":"4","last_reported":1701940043,"current_range_meters":12400,"station_id":"ce4bguh2rcd13ifvqckg","pricing_plan_id":"free"},{"bike_id":"fd36f5a6-9f98-44cb-b477-28ba29dc398c","system_id":"levelo_inurba_marseille","lat":43.305714,"lon":5.365633,"is_reserved":false,"is_disabled":false,"rental_uris":{"android":"levelo://app?vid=fd36f5a6-9f98-44cb-b477-28ba29dc398c","ios":"levelo://app?vid=fd36f5a6-9f98-44cb-b477-28ba29dc398c"},"vehicle_type_id":"4","last_reported":1701940043,"current_range_meters":8800,"station_id":"ce4bgs12rcd13ifvqcag","pricing_plan_id":"free"},{"bike_id":"7b89ef24-c20d-4e48-8950-ba842fa36b34","system_id":"levelo_inurba_marseille","lat":43.305712,"lon":5.365641,"is_reserved":false,"is_disabled":false,"rental_uris":{"android":"levelo://app?vid=7b89ef24-c20d-4e48-8950-ba842fa36b34","ios":"levelo://app?vid=7b89ef24-c20d-4e48-8950-ba842fa36b34"},"vehicle_type_id":"4","last_reported":1701940043,"current_range_meters":26800,"station_id":"ce4bgs12rcd13ifvqcag","pricing_plan_id":"free"},{"bike_id":"84b638e6-9e5a-4a36-8880-df1e0ddf08a3","system_id":"levelo_inurba_marseille","lat":43.31095,"lon":5.37756,"is_reserved":false,"is_disabled":false,"rental_uris":{"android":"levelo://app?vid=84b638e6-9e5a-4a36-8880-df1e0ddf08a3","ios":"levelo://app?vid=84b638e6-9e5a-4a36-8880-df1e0ddf08a3"},"vehicle_type_id":"4","last_reported":1701940043,"current_range_meters":23200,"station_id":"ce4bgt92rcd13ifvqcg0","pricing_plan_id":"free"},{"bike_id":"0b8a6032-fe6c-433e-8512-f7d576a4263b","system_id":"levelo_inurba_marseille","lat":43.311131,"lon":5.377651,"is_reserved":false,"is_disabled":false,"rental_uris":{"android":"levelo://app?vid=0b8a6032-fe6c-433e-8512-f7d576a4263b","ios":"levelo://app?vid=0b8a6032-fe6c-433e-8512-f7d576a4263b"},"vehicle_type_id":"4","last_reported":1701940043,"current_range_meters":26000,"station_id":"ce4bgt92rcd13ifvqcg0","pricing_plan_id":"free"},{"bike_id":"14cd0391-dcc8-443a-a923-178e412f0b41","system_id":"levelo_inurba_marseille","lat":43.317075,"lon":5.377367,"is_reserved":false,"is_disabled":false,"rental_uris":{"android":"levelo://app?vid=14cd0391-dcc8-443a-a923-178e412f0b41","ios":"levelo://app?vid=14cd0391-dcc8-443a-a923-178e412f0b41"},"vehicle_type_id":"4","last_reported":1701940043,"current_range_meters":28000,"station_id":"ce4bgth2rcd13ifvqch0","pricing_plan_id":"free"},{"bike_id":"adf146c5-e4e1-4668-9a33-042940925130","system_id":"levelo_inurba_marseille","lat":43.31351,"lon":5.37909,"is_reserved":false,"is_disabled":false,"rental_uris":{"android":"levelo://app?vid=adf146c5-e4e1-4668-9a33-042940925130","ios":"levelo://app?vid=adf146c5-e4e1-4668-9a33-042940925130"},"vehicle_type_id":"4","last_reported":1701940043,"current_range_meters":3200,"station_id":"","pricing_plan_id":"free"},{"bike_id":"4aceef89-63ad-43bb-9f4f-250ae3863c14","system_id":"levelo_inurba_marseille","lat":43.303046,"lon":5.368981,"is_reserved":false,"is_disabled":false,"rental_uris":{"android":"levelo://app?vid=4aceef89-63ad-43bb-9f4f-250ae3863c14","ios":"levelo://app?vid=4aceef89-63ad-43bb-9f4f-250ae3863c14"},"vehicle_type_id":"4","last_reported":1701940043,"current_range_meters":2000,"station_id":"ce4bgqh2rcd13ifvqc5g","pricing_plan_id":"free"},{"bike_id":"ea2a1b16-6f5f-4cd0-b15b-e94e84a09794","system_id":"levelo_inurba_marseille","lat":43.301939,"lon":5.366286,"is_reserved":false,"is_disabled":false,"rental_uris":{"android":"levelo://app?vid=ea2a1b16-6f5f-4cd0-b15b-e94e84a09794","ios":"levelo://app?vid=ea2a1b16-6f5f-4cd0-b15b-e94e84a09794"},"vehicle_type_id":"4","last_reported":1701940043,"current_range_meters":10800,"station_id":"ce4bgrh2rcd13ifvqc8g","pricing_plan_id":"free"},{"bike_id":"1ea60f58-75f7-4484-b705-1156df4b02ad","system_id":"levelo_inurba_marseille","lat":43.302652,"lon":5.37337,"is_reserved":false,"is_disabled":false,"rental_uris":{"android":"levelo://app?vid=1ea60f58-75f7-4484-b705-1156df4b02ad","ios":"levelo://app?vid=1ea60f58-75f7-4484-b705-1156df4b02ad"},"vehicle_type_id":"4","last_reported":1701940043,"current_range_meters":5600,"station_id":"","pricing_plan_id":"free"},{"bike_id":"1c3409b6-3ef7-4201-9477-ace56ebe0ee1","system_id":"levelo_inurba_marseille","lat":43.30463,"lon":5.37896,"is_reserved":false,"is_disabled":false,"rental_uris":{"android":"levelo://app?vid=1c3409b6-3ef7-4201-9477-ace56ebe0ee1","ios":"levelo://app?vid=1c3409b6-3ef7-4201-9477-ace56ebe0ee1"},"vehicle_type_id":"4","last_reported":1701940043,"current_range_meters":0,"station_id":"ce4bgup2rcd13ifvqcn0","pricing_plan_id":"free"},{"bike_id":"678d493c-fa83-440b-99ef-2090bffaf5cb","system_id":"levelo_inurba_marseille","lat":43.304606,"lon":5.379026,"is_reserved":false,"is_disabled":false,"rental_uris":{"android":"levelo://app?vid=678d493c-fa83-440b-99ef-2090bffaf5cb","ios":"levelo://app?vid=678d493c-fa83-440b-99ef-2090bffaf5cb"},"vehicle_type_id":"4","last_reported":1701940043,"current_range_meters":9200,"station_id":"ce4bgup2rcd13ifvqcn0","pricing_plan_id":"free"},{"bike_id":"cd06b660-0281-4516-8ac5-9ed1179d8d67","system_id":"levelo_inurba_marseille","lat":43.304606,"lon":5.379026,"is_reserved":false,"is_disabled":false,"rental_uris":{"android":"levelo://app?vid=cd06b660-0281-4516-8ac5-9ed1179d8d67","ios":"levelo://app?vid=cd06b660-0281-4516-8ac5-9ed1179d8d67"},"vehicle_type_id":"4","last_reported":1701940043,"current_range_meters":0,"station_id":"ce4bgup2rcd13ifvqcn0","pricing_plan_id":"free"},{"bike_id":"e6a7946c-a7d5-4369-b254-577b631c8d1a","system_id":"levelo_inurba_marseille","lat":43.31717,"lon":5.38237,"is_reserved":false,"is_disabled":false,"rental_uris":{"android":"levelo://app?vid=e6a7946c-a7d5-4369-b254-577b631c8d1a","ios":"levelo://app?vid=e6a7946c-a7d5-4369-b254-577b631c8d1a"},"vehicle_type_id":"4","last_reported":1701940043,"current_range_meters":26000,"station_id":"","pricing_plan_id":"free"},{"bike_id":"44b639d4-c394-49b2-9e18-6098ae373bd6","system_id":"levelo_inurba_marseille","lat":43.31923,"lon":5.38128,"is_reserved":false,"is_disabled":false,"rental_uris":{"android":"levelo://app?vid=44b639d4-c394-49b2-9e18-6098ae373bd6","ios":"levelo://app?vid=44b639d4-c394-49b2-9e18-6098ae373bd6"},"vehicle_type_id":"4","last_reported":1701940043,"current_range_meters":30400,"station_id":"","pricing_plan_id":"free"},{"bike_id":"51a4bbbc-853c-4da7-9a20-ff16b7230b33","system_id":"levelo_inurba_marseille","lat":43.30143,"lon":5.37413,"is_reserved":false,"is_disabled":false,"rental_uris":{"android":"levelo://app?vid=51a4bbbc-853c-4da7-9a20-ff16b7230b33","ios":"levelo://app?vid=51a4bbbc-853c-4da7-9a20-ff16b7230b33"},"vehicle_type_id":"4","last_reported":1701940043,"current_range_meters":22000,"station_id":"ce4bgs92rcd13ifvqcc0","pricing_plan_id":"free"},{"bike_id":"854b006d-a27f-4ede-a0f5-4334e9233698","system_id":"levelo_inurba_marseille","lat":43.30136,"lon":5.37409,"is_reserved":false,"is_disabled":false,"rental_uris":{"android":"levelo://app?vid=854b006d-a27f-4ede-a0f5-4334e9233698","ios":"levelo://app?vid=854b006d-a27f-4ede-a0f5-4334e9233698"},"vehicle_type_id":"4","last_reported":1701940043,"current_range_meters":0,"station_id":"ce4bgs92rcd13ifvqcc0","pricing_plan_id":"free"},{"bike_id":"ce6ad093-c654-42a7-9b99-c13c35b408ed","system_id":"levelo_inurba_marseille","lat":43.30143,"lon":5.37413,"is_reserved":false,"is_disabled":false,"rental_uris":{"android":"levelo://app?vid=ce6ad093-c654-42a7-9b99-c13c35b408ed","ios":"levelo://app?vid=ce6ad093-c654-42a7-9b99-c13c35b408ed"},"vehicle_type_id":"4","last_reported":1701940043,"current_range_meters":0,"station_id":"ce4bgs92rcd13ifvqcc0","pricing_plan_id":"free"},{"bike_id":"9ee0ef7a-8d9c-4d78-8ae5-64e12b708d26","system_id":"levelo_inurba_marseille","lat":43.319997,"lon":5.381594,"is_reserved":false,"is_disabled":false,"rental_uris":{"android":"levelo://app?vid=9ee0ef7a-8d9c-4d78-8ae5-64e12b708d26","ios":"levelo://app?vid=9ee0ef7a-8d9c-4d78-8ae5-64e12b708d26"},"vehicle_type_id":"4","last_reported":1701940043,"current_range_meters":0,"station_id":"ce4bhr12rcd13ifvqhpg","pricing_plan_id":"free"},{"bike_id":"48be7f5d-29f2-446f-b85f-c53412ae31e6","system_id":"levelo_inurba_marseille","lat":43.32,"lon":5.38176,"is_reserved":false,"is_disabled":false,"rental_uris":{"android":"levelo://app?vid=48be7f5d-29f2-446f-b85f-c53412ae31e6","ios":"levelo://app?vid=48be7f5d-29f2-446f-b85f-c53412ae31e6"},"vehicle_type_id":"4","last_reported":1701940043,"current_range_meters":24400,"station_id":"ce4bhr12rcd13ifvqhpg","pricing_plan_id":"free"},{"bike_id":"c85dce5b-6c72-4c8c-933a-2b3752943a17","system_id":"levelo_inurba_marseille","lat":43.299222,"lon":5.365554,"is_reserved":false,"is_disabled":false,"rental_uris":{"android":"levelo://app?vid=c85dce5b-6c72-4c8c-933a-2b3752943a17","ios":"levelo://app?vid=c85dce5b-6c72-4c8c-933a-2b3752943a17"},"vehicle_type_id":"4","last_reported":1701940043,"current_range_meters":25200,"station_id":"ce4bgm92rcd13ifvqbr0","pricing_plan_id":"free"},{"bike_id":"51aa240f-1cbc-4e71-8d9c-2fb2c4472c2f","system_id":"levelo_inurba_marseille","lat":43.298433,"lon":5.362774,"is_reserved":false,"is_disabled":false,"rental_uris":{"android":"levelo://app?vid=51aa240f-1cbc-4e71-8d9c-2fb2c4472c2f","ios":"levelo://app?vid=51aa240f-1cbc-4e71-8d9c-2fb2c4472c2f"},"vehicle_type_id":"4","last_reported":1701940043,"current_range_meters":24800,"station_id":"ce4bgpp2rcd13ifvqc3g","pricing_plan_id":"free"},{"bike_id":"7d1cff4c-ccf2-4c50-90cb-2c31208e7da7","system_id":"levelo_inurba_marseille","lat":43.298433,"lon":5.362774,"is_reserved":false,"is_disabled":false,"rental_uris":{"android":"levelo://app?vid=7d1cff4c-ccf2-4c50-90cb-2c31208e7da7","ios":"levelo://app?vid=7d1cff4c-ccf2-4c50-90cb-2c31208e7da7"},"vehicle_type_id":"4","last_reported":1701940043,"current_range_meters":30800,"station_id":"ce4bgpp2rcd13ifvqc3g","pricing_plan_id":"free"},{"bike_id":"6a41068a-300a-41e2-aa00-c23646a1b436","system_id":"levelo_inurba_marseille","lat":43.298433,"lon":5.362774,"is_reserved":false,"is_disabled":false,"rental_uris":{"android":"levelo://app?vid=6a41068a-300a-41e2-aa00-c23646a1b436","ios":"levelo://app?vid=6a41068a-300a-41e2-aa00-c23646a1b436"},"vehicle_type_id":"4","last_reported":1701940043,"current_range_meters":26800,"station_id":"ce4bgpp2rcd13ifvqc3g","pricing_plan_id":"free"},{"bike_id":"3fa1e145-12bd-4b72-b842-be7aafc9e95a","system_id":"levelo_inurba_marseille","lat":43.298433,"lon":5.362774,"is_reserved":false,"is_disabled":false,"rental_uris":{"android":"levelo://app?vid=3fa1e145-12bd-4b72-b842-be7aafc9e95a","ios":"levelo://app?vid=3fa1e145-12bd-4b72-b842-be7aafc9e95a"},"vehicle_type_id":"4","last_reported":1701940043,"current_range_meters":26400,"station_id":"ce4bgpp2rcd13ifvqc3g","pricing_plan_id":"free"},{"bike_id":"05b47694-b3d4-42b7-a673-82404bdcc48d","system_id":"levelo_inurba_marseille","lat":43.311722,"lon":5.387247,"is_reserved":false,"is_disabled":false,"rental_uris":{"android":"levelo://app?vid=05b47694-b3d4-42b7-a673-82404bdcc48d","ios":"levelo://app?vid=05b47694-b3d4-42b7-a673-82404bdcc48d"},"vehicle_type_id":"4","last_reported":1701940043,"current_range_meters":18800,"station_id":"ce4bgv12rcd13ifvqcp0","pricing_plan_id":"free"},{"bike_id":"e0576973-b0eb-4c63-88d6-03e17b255028","system_id":"levelo_inurba_marseille","lat":43.299243,"lon":5.37481,"is_reserved":false,"is_disabled":false,"rental_uris":{"android":"levelo://app?vid=e0576973-b0eb-4c63-88d6-03e17b255028","ios":"levelo://app?vid=e0576973-b0eb-4c63-88d6-03e17b255028"},"vehicle_type_id":"4","last_reported":1701940043,"current_range_meters":27600,"station_id":"ce4bgjh2rcd13ifvqbg0","pricing_plan_id":"free"},{"bike_id":"029dca2f-419c-4743-8757-a57328df9cf8","system_id":"levelo_inurba_marseille","lat":43.328371,"lon":5.366909,"is_reserved":false,"is_disabled":false,"rental_uris":{"android":"levelo://app?vid=029dca2f-419c-4743-8757-a57328df9cf8","ios":"levelo://app?vid=029dca2f-419c-4743-8757-a57328df9cf8"},"vehicle_type_id":"4","last_reported":1701940043,"current_range_meters":14800,"station_id":"ce4bhs92rcd13ifvqi0g","pricing_plan_id":"free"},{"bike_id":"55ccc96c-fa12-43da-ace3-cf5d15fb5429","system_id":"levelo_inurba_marseille","lat":43.298218,"lon":5.374416,"is_reserved":false,"is_disabled":false,"rental_uris":{"android":"levelo://app?vid=55ccc96c-fa12-43da-ace3-cf5d15fb5429","ios":"levelo://app?vid=55ccc96c-fa12-43da-ace3-cf5d15fb5429"},"vehicle_type_id":"4","last_reported":1701940043,"current_range_meters":10400,"station_id":"","pricing_plan_id":"free"},{"bike_id":"1c789430-0600-40ed-9f50-fa6248b6f1d1","system_id":"levelo_inurba_marseille","lat":43.328371,"lon":5.366909,"is_reserved":false,"is_disabled":false,"rental_uris":{"android":"levelo://app?vid=1c789430-0600-40ed-9f50-fa6248b6f1d1","ios":"levelo://app?vid=1c789430-0600-40ed-9f50-fa6248b6f1d1"},"vehicle_type_id":"4","last_reported":1701940043,"current_range_meters":26400,"station_id":"ce4bhs92rcd13ifvqi0g","pricing_plan_id":"free"},{"bike_id":"7f9f4f8c-fd2c-484c-b27c-addd9b4c6ca3","system_id":"levelo_inurba_marseille","lat":43.328371,"lon":5.366909,"is_reserved":false,"is_disabled":false,"rental_uris":{"android":"levelo://app?vid=7f9f4f8c-fd2c-484c-b27c-addd9b4c6ca3","ios":"levelo://app?vid=7f9f4f8c-fd2c-484c-b27c-addd9b4c6ca3"},"vehicle_type_id":"4","last_reported":1701940043,"current_range_meters":4000,"station_id":"ce4bhs92rcd13ifvqi0g","pricing_plan_id":"free"},{"bike_id":"55311dec-ec61-4646-8d1a-4ddd89532043","system_id":"levelo_inurba_marseille","lat":43.328371,"lon":5.366909,"is_reserved":false,"is_disabled":false,"rental_uris":{"android":"levelo://app?vid=55311dec-ec61-4646-8d1a-4ddd89532043","ios":"levelo://app?vid=55311dec-ec61-4646-8d1a-4ddd89532043"},"vehicle_type_id":"4","last_reported":1701940043,"current_range_meters":24400,"station_id":"ce4bhs92rcd13ifvqi0g","pricing_plan_id":"free"},{"bike_id":"9190eb99-d6ca-4501-a2a4-7ed7fc8df97e","system_id":"levelo_inurba_marseille","lat":43.32832,"lon":5.36682,"is_reserved":false,"is_disabled":false,"rental_uris":{"android":"levelo://app?vid=9190eb99-d6ca-4501-a2a4-7ed7fc8df97e","ios":"levelo://app?vid=9190eb99-d6ca-4501-a2a4-7ed7fc8df97e"},"vehicle_type_id":"4","last_reported":1701940043,"current_range_meters":19600,"station_id":"ce4bhs92rcd13ifvqi0g","pricing_plan_id":"free"},{"bike_id":"2424b203-2bfa-46d0-8b7b-b616d11edac6","system_id":"levelo_inurba_marseille","lat":43.328264,"lon":5.362456,"is_reserved":false,"is_disabled":false,"rental_uris":{"android":"levelo://app?vid=2424b203-2bfa-46d0-8b7b-b616d11edac6","ios":"levelo://app?vid=2424b203-2bfa-46d0-8b7b-b616d11edac6"},"vehicle_type_id":"4","last_reported":1701940043,"current_range_meters":7600,"station_id":"","pricing_plan_id":"free"},{"bike_id":"92dc65d6-6823-4de3-93d4-056f738f090c","system_id":"levelo_inurba_marseille","lat":43.316538,"lon":5.38954,"is_reserved":false,"is_disabled":false,"rental_uris":{"android":"levelo://app?vid=92dc65d6-6823-4de3-93d4-056f738f090c","ios":"levelo://app?vid=92dc65d6-6823-4de3-93d4-056f738f090c"},"vehicle_type_id":"4","last_reported":1701940043,"current_range_meters":6000,"station_id":"","pricing_plan_id":"free"},{"bike_id":"d45f5ebb-1657-4aff-8e48-e135164e7fcf","system_id":"levelo_inurba_marseille","lat":43.296921,"lon":5.376579,"is_reserved":false,"is_disabled":false,"rental_uris":{"android":"levelo://app?vid=d45f5ebb-1657-4aff-8e48-e135164e7fcf","ios":"levelo://app?vid=d45f5ebb-1657-4aff-8e48-e135164e7fcf"},"vehicle_type_id":"4","last_reported":1701940043,"current_range_meters":3600,"station_id":"ce4bgkh2rcd13ifvqbl0","pricing_plan_id":"free"},{"bike_id":"3cf582fe-4f04-4b45-9bec-cc8675214d93","system_id":"levelo_inurba_marseille","lat":43.309589,"lon":5.390258,"is_reserved":false,"is_disabled":false,"rental_uris":{"android":"levelo://app?vid=3cf582fe-4f04-4b45-9bec-cc8675214d93","ios":"levelo://app?vid=3cf582fe-4f04-4b45-9bec-cc8675214d93"},"vehicle_type_id":"4","last_reported":1701940043,"current_range_meters":13600,"station_id":"ce4bgup2rcd13ifvqco0","pricing_plan_id":"free"},{"bike_id":"b64a7d2b-d010-4247-98ed-8efa6369fe62","system_id":"levelo_inurba_marseille","lat":43.309589,"lon":5.390258,"is_reserved":false,"is_disabled":false,"rental_uris":{"android":"levelo://app?vid=b64a7d2b-d010-4247-98ed-8efa6369fe62","ios":"levelo://app?vid=b64a7d2b-d010-4247-98ed-8efa6369fe62"},"vehicle_type_id":"4","last_reported":1701940043,"current_range_meters":18000,"station_id":"ce4bgup2rcd13ifvqco0","pricing_plan_id":"free"},{"bike_id":"365c0f80-7b20-4b7b-b202-d965a0c43401","system_id":"levelo_inurba_marseille","lat":43.317557,"lon":5.390173,"is_reserved":false,"is_disabled":false,"rental_uris":{"android":"levelo://app?vid=365c0f80-7b20-4b7b-b202-d965a0c43401","ios":"levelo://app?vid=365c0f80-7b20-4b7b-b202-d965a0c43401"},"vehicle_type_id":"4","last_reported":1701940043,"current_range_meters":30000,"station_id":"ce4bhqp2rcd13ifvqhng","pricing_plan_id":"free"},{"bike_id":"cef4f376-a6c6-4b7c-bd81-c25b89dd65be","system_id":"levelo_inurba_marseille","lat":43.296263,"lon":5.377094,"is_reserved":false,"is_disabled":false,"rental_uris":{"android":"levelo://app?vid=cef4f376-a6c6-4b7c-bd81-c25b89dd65be","ios":"levelo://app?vid=cef4f376-a6c6-4b7c-bd81-c25b89dd65be"},"vehicle_type_id":"4","last_reported":1701940043,"current_range_meters":800,"station_id":"ce4bgi92rcd13ifvqb90","pricing_plan_id":"free"},{"bike_id":"536377c5-e28f-4978-b3f4-6768370b5cc8","system_id":"levelo_inurba_marseille","lat":43.299724,"lon":5.384848,"is_reserved":false,"is_disabled":false,"rental_uris":{"android":"levelo://app?vid=536377c5-e28f-4978-b3f4-6768370b5cc8","ios":"levelo://app?vid=536377c5-e28f-4978-b3f4-6768370b5cc8"},"vehicle_type_id":"4","last_reported":1701940043,"current_range_meters":29600,"station_id":"ce4bgj92rcd13ifvqbd0","pricing_plan_id":"free"},{"bike_id":"27ac7043-ad35-48b8-a77e-9b7eb469b73a","system_id":"levelo_inurba_marseille","lat":43.295279,"lon":5.375048,"is_reserved":false,"is_disabled":false,"rental_uris":{"android":"levelo://app?vid=27ac7043-ad35-48b8-a77e-9b7eb469b73a","ios":"levelo://app?vid=27ac7043-ad35-48b8-a77e-9b7eb469b73a"},"vehicle_type_id":"4","last_reported":1701940043,"current_range_meters":23600,"station_id":"ce4bgkp2rcd13ifvqbmg","pricing_plan_id":"free"},{"bike_id":"3d3b2b58-9cf7-455d-97fd-61a82606327e","system_id":"levelo_inurba_marseille","lat":43.32361,"lon":5.388877,"is_reserved":false,"is_disabled":false,"rental_uris":{"android":"levelo://app?vid=3d3b2b58-9cf7-455d-97fd-61a82606327e","ios":"levelo://app?vid=3d3b2b58-9cf7-455d-97fd-61a82606327e"},"vehicle_type_id":"4","last_reported":1701940043,"current_range_meters":29600,"station_id":"ce4bhqp2rcd13ifvqhog","pricing_plan_id":"free"},{"bike_id":"dbdbf049-d363-48f4-962a-35e0839dda16","system_id":"levelo_inurba_marseille","lat":43.29601,"lon":5.381084,"is_reserved":false,"is_disabled":false,"rental_uris":{"android":"levelo://app?vid=dbdbf049-d363-48f4-962a-35e0839dda16","ios":"levelo://app?vid=dbdbf049-d363-48f4-962a-35e0839dda16"},"vehicle_type_id":"4","last_reported":1701940043,"current_range_meters":0,"station_id":"ce4bgl12rcd13ifvqbo0","pricing_plan_id":"free"},{"bike_id":"72714644-a730-462a-b220-6837667c5de6","system_id":"levelo_inurba_marseille","lat":43.31812,"lon":5.394078,"is_reserved":false,"is_disabled":false,"rental_uris":{"android":"levelo://app?vid=72714644-a730-462a-b220-6837667c5de6","ios":"levelo://app?vid=72714644-a730-462a-b220-6837667c5de6"},"vehicle_type_id":"4","last_reported":1701940043,"current_range_meters":14800,"station_id":"","pricing_plan_id":"free"},{"bike_id":"db97c610-fd1f-4c51-a575-9ab6b63a7812","system_id":"levelo_inurba_marseille","lat":43.2936,"lon":5.37835,"is_reserved":false,"is_disabled":false,"rental_uris":{"android":"levelo://app?vid=db97c610-fd1f-4c51-a575-9ab6b63a7812","ios":"levelo://app?vid=db97c610-fd1f-4c51-a575-9ab6b63a7812"},"vehicle_type_id":"4","last_reported":1701940043,"current_range_meters":6000,"station_id":"ce4bgjh2rcd13ifvqbf0","pricing_plan_id":"free"},{"bike_id":"2adbb050-f596-4a9a-8aeb-a54a60d9da84","system_id":"levelo_inurba_marseille","lat":43.2936,"lon":5.37835,"is_reserved":false,"is_disabled":false,"rental_uris":{"android":"levelo://app?vid=2adbb050-f596-4a9a-8aeb-a54a60d9da84","ios":"levelo://app?vid=2adbb050-f596-4a9a-8aeb-a54a60d9da84"},"vehicle_type_id":"4","last_reported":1701940043,"current_range_meters":16400,"station_id":"ce4bgjh2rcd13ifvqbf0","pricing_plan_id":"free"},{"bike_id":"dd86354b-808d-4399-91d4-da114c39c996","system_id":"levelo_inurba_marseille","lat":43.29223,"lon":5.36076,"is_reserved":false,"is_disabled":false,"rental_uris":{"android":"levelo://app?vid=dd86354b-808d-4399-91d4-da114c39c996","ios":"levelo://app?vid=dd86354b-808d-4399-91d4-da114c39c996"},"vehicle_type_id":"4","last_reported":1701940043,"current_range_meters":0,"station_id":"ce4bhbh2rcd13ifvqeqg","pricing_plan_id":"free"},{"bike_id":"2c1986b2-b7c2-4af7-b67a-7bd61b44dc85","system_id":"levelo_inurba_marseille","lat":43.29256,"lon":5.3772,"is_reserved":false,"is_disabled":false,"rental_uris":{"android":"levelo://app?vid=2c1986b2-b7c2-4af7-b67a-7bd61b44dc85","ios":"levelo://app?vid=2c1986b2-b7c2-4af7-b67a-7bd61b44dc85"},"vehicle_type_id":"4","last_reported":1701940043,"current_range_meters":0,"station_id":"","pricing_plan_id":"free"},{"bike_id":"c4e2b7e3-ae76-4cea-a799-4739fe726302","system_id":"levelo_inurba_marseille","lat":43.28939,"lon":5.36393,"is_reserved":false,"is_disabled":false,"rental_uris":{"android":"levelo://app?vid=c4e2b7e3-ae76-4cea-a799-4739fe726302","ios":"levelo://app?vid=c4e2b7e3-ae76-4cea-a799-4739fe726302"},"vehicle_type_id":"4","last_reported":1701940043,"current_range_meters":22800,"station_id":"ce4bhc92rcd13ifvqetg","pricing_plan_id":"free"},{"bike_id":"a02a1b20-1fb1-4951-988a-77389649024d","system_id":"levelo_inurba_marseille","lat":43.289259,"lon":5.366364,"is_reserved":false,"is_disabled":false,"rental_uris":{"android":"levelo://app?vid=a02a1b20-1fb1-4951-988a-77389649024d","ios":"levelo://app?vid=a02a1b20-1fb1-4951-988a-77389649024d"},"vehicle_type_id":"4","last_reported":1701940043,"current_range_meters":20400,"station_id":"","pricing_plan_id":"free"},{"bike_id":"2c4b0d6d-3a35-40a3-ab61-81518a052f7b","system_id":"levelo_inurba_marseille","lat":43.290104,"lon":5.356111,"is_reserved":false,"is_disabled":false,"rental_uris":{"android":"levelo://app?vid=2c4b0d6d-3a35-40a3-ab61-81518a052f7b","ios":"levelo://app?vid=2c4b0d6d-3a35-40a3-ab61-81518a052f7b"},"vehicle_type_id":"4","last_reported":1701940043,"current_range_meters":18800,"station_id":"ce4bhb92rcd13ifvqen0","pricing_plan_id":"free"},{"bike_id":"415c2ec4-9d26-4138-9919-661ad6d3ae85","system_id":"levelo_inurba_marseille","lat":43.290995,"lon":5.381361,"is_reserved":false,"is_disabled":false,"rental_uris":{"android":"levelo://app?vid=415c2ec4-9d26-4138-9919-661ad6d3ae85","ios":"levelo://app?vid=415c2ec4-9d26-4138-9919-661ad6d3ae85"},"vehicle_type_id":"4","last_reported":1701940043,"current_range_meters":26800,"station_id":"ce4bh512rcd13ifvqe2g","pricing_plan_id":"free"},{"bike_id":"02c06742-d2cf-49e0-8730-c20e4d3b464e","system_id":"levelo_inurba_marseille","lat":43.28847,"lon":5.358681,"is_reserved":false,"is_disabled":false,"rental_uris":{"android":"levelo://app?vid=02c06742-d2cf-49e0-8730-c20e4d3b464e","ios":"levelo://app?vid=02c06742-d2cf-49e0-8730-c20e4d3b464e"},"vehicle_type_id":"4","last_reported":1701940043,"current_range_meters":28800,"station_id":"ce4bhb12rcd13ifvqem0","pricing_plan_id":"free"},{"bike_id":"649a4ca7-567e-4122-b910-fd41ff0338fc","system_id":"levelo_inurba_marseille","lat":43.302759,"lon":5.400793,"is_reserved":false,"is_disabled":false,"rental_uris":{"android":"levelo://app?vid=649a4ca7-567e-4122-b910-fd41ff0338fc","ios":"levelo://app?vid=649a4ca7-567e-4122-b910-fd41ff0338fc"},"vehicle_type_id":"4","last_reported":1701940043,"current_range_meters":1600,"station_id":"ce4bgvh2rcd13ifvqcs0","pricing_plan_id":"free"},{"bike_id":"f5dacb92-a194-4440-abb1-62fe78f0f7ea","system_id":"levelo_inurba_marseille","lat":43.289945,"lon":5.386588,"is_reserved":false,"is_disabled":false,"rental_uris":{"android":"levelo://app?vid=f5dacb92-a194-4440-abb1-62fe78f0f7ea","ios":"levelo://app?vid=f5dacb92-a194-4440-abb1-62fe78f0f7ea"},"vehicle_type_id":"4","last_reported":1701940043,"current_range_meters":24400,"station_id":"ce4bh4p2rcd13ifvqe0g","pricing_plan_id":"free"},{"bike_id":"ede1ea4d-f648-40b2-9e1b-28b5a8ddcfc0","system_id":"levelo_inurba_marseille","lat":43.287184,"lon":5.37937,"is_reserved":false,"is_disabled":false,"rental_uris":{"android":"levelo://app?vid=ede1ea4d-f648-40b2-9e1b-28b5a8ddcfc0","ios":"levelo://app?vid=ede1ea4d-f648-40b2-9e1b-28b5a8ddcfc0"},"vehicle_type_id":"4","last_reported":1701940043,"current_range_meters":400,"station_id":"ce4bh9p2rcd13ifvqec0","pricing_plan_id":"free"},{"bike_id":"ebbc63f1-296c-4b29-a3a1-79b1a45cd725","system_id":"levelo_inurba_marseille","lat":43.316427,"lon":5.404343,"is_reserved":false,"is_disabled":false,"rental_uris":{"android":"levelo://app?vid=ebbc63f1-296c-4b29-a3a1-79b1a45cd725","ios":"levelo://app?vid=ebbc63f1-296c-4b29-a3a1-79b1a45cd725"},"vehicle_type_id":"4","last_reported":1701940043,"current_range_meters":12400,"station_id":"ce4bh012rcd13ifvqd00","pricing_plan_id":"free"},{"bike_id":"6db55031-df47-4fb6-8b80-a9e9fa62b66a","system_id":"levelo_inurba_marseille","lat":43.337168,"lon":5.391825,"is_reserved":false,"is_disabled":false,"rental_uris":{"android":"levelo://app?vid=6db55031-df47-4fb6-8b80-a9e9fa62b66a","ios":"levelo://app?vid=6db55031-df47-4fb6-8b80-a9e9fa62b66a"},"vehicle_type_id":"4","last_reported":1701940043,"current_range_meters":27600,"station_id":"ce4bhr92rcd13ifvqhsg","pricing_plan_id":"free"},{"bike_id":"caad947b-171d-4367-9652-0bec735b5d7a","system_id":"levelo_inurba_marseille","lat":43.33717,"lon":5.391857,"is_reserved":false,"is_disabled":false,"rental_uris":{"android":"levelo://app?vid=caad947b-171d-4367-9652-0bec735b5d7a","ios":"levelo://app?vid=caad947b-171d-4367-9652-0bec735b5d7a"},"vehicle_type_id":"4","last_reported":1701940043,"current_range_meters":24000,"station_id":"ce4bhr92rcd13ifvqhsg","pricing_plan_id":"free"},{"bike_id":"ba26cb30-10b8-42c9-8cef-92dce0319926","system_id":"levelo_inurba_marseille","lat":43.283502,"lon":5.386471,"is_reserved":false,"is_disabled":false,"rental_uris":{"android":"levelo://app?vid=ba26cb30-10b8-42c9-8cef-92dce0319926","ios":"levelo://app?vid=ba26cb30-10b8-42c9-8cef-92dce0319926"},"vehicle_type_id":"4","last_reported":1701940043,"current_range_meters":26800,"station_id":"ce4bh492rcd13ifvqdvg","pricing_plan_id":"free"},{"bike_id":"f2d499b8-6e62-451e-820f-5edacdec98ee","system_id":"levelo_inurba_marseille","lat":43.316803,"lon":5.41228,"is_reserved":false,"is_disabled":false,"rental_uris":{"android":"levelo://app?vid=f2d499b8-6e62-451e-820f-5edacdec98ee","ios":"levelo://app?vid=f2d499b8-6e62-451e-820f-5edacdec98ee"},"vehicle_type_id":"4","last_reported":1701940043,"current_range_meters":14400,"station_id":"","pricing_plan_id":"free"},{"bike_id":"b29c713a-aa44-4675-8739-cc12f99b0baa","system_id":"levelo_inurba_marseille","lat":43.304188,"lon":5.412904,"is_reserved":false,"is_disabled":false,"rental_uris":{"android":"levelo://app?vid=b29c713a-aa44-4675-8739-cc12f99b0baa","ios":"levelo://app?vid=b29c713a-aa44-4675-8739-cc12f99b0baa"},"vehicle_type_id":"4","last_reported":1701940043,"current_range_meters":14400,"station_id":"ce4bhop2rcd13ifvqh8g","pricing_plan_id":"free"},{"bike_id":"0f59b743-6177-4b8c-9671-f95625f7349f","system_id":"levelo_inurba_marseille","lat":43.287154,"lon":5.399979,"is_reserved":false,"is_disabled":false,"rental_uris":{"android":"levelo://app?vid=0f59b743-6177-4b8c-9671-f95625f7349f","ios":"levelo://app?vid=0f59b743-6177-4b8c-9671-f95625f7349f"},"vehicle_type_id":"4","last_reported":1701940043,"current_range_meters":6800,"station_id":"ce4bho92rcd13ifvqh3g","pricing_plan_id":"free"},{"bike_id":"a927bae8-eb28-42ac-9726-0d4c98e3f84d","system_id":"levelo_inurba_marseille","lat":43.325243,"lon":5.414326,"is_reserved":false,"is_disabled":false,"rental_uris":{"android":"levelo://app?vid=a927bae8-eb28-42ac-9726-0d4c98e3f84d","ios":"levelo://app?vid=a927bae8-eb28-42ac-9726-0d4c98e3f84d"},"vehicle_type_id":"4","last_reported":1701940043,"current_range_meters":28000,"station_id":"ce4bhq12rcd13ifvqhhg","pricing_plan_id":"free"},{"bike_id":"3613dfcf-2a04-4cdb-aa23-4365366fbd3c","system_id":"levelo_inurba_marseille","lat":43.32533,"lon":5.41431,"is_reserved":false,"is_disabled":false,"rental_uris":{"android":"levelo://app?vid=3613dfcf-2a04-4cdb-aa23-4365366fbd3c","ios":"levelo://app?vid=3613dfcf-2a04-4cdb-aa23-4365366fbd3c"},"vehicle_type_id":"4","last_reported":1701940043,"current_range_meters":27600,"station_id":"ce4bhq12rcd13ifvqhhg","pricing_plan_id":"free"},{"bike_id":"a9e0f8c4-26e2-48e7-8913-b8cfe508619f","system_id":"levelo_inurba_marseille","lat":43.325243,"lon":5.414326,"is_reserved":false,"is_disabled":false,"rental_uris":{"android":"levelo://app?vid=a9e0f8c4-26e2-48e7-8913-b8cfe508619f","ios":"levelo://app?vid=a9e0f8c4-26e2-48e7-8913-b8cfe508619f"},"vehicle_type_id":"4","last_reported":1701940043,"current_range_meters":4400,"station_id":"ce4bhq12rcd13ifvqhhg","pricing_plan_id":"free"},{"bike_id":"23cd26df-13fc-4d94-9451-99a3162ba02e","system_id":"levelo_inurba_marseille","lat":43.292569,"lon":5.409107,"is_reserved":false,"is_disabled":false,"rental_uris":{"android":"levelo://app?vid=23cd26df-13fc-4d94-9451-99a3162ba02e","ios":"levelo://app?vid=23cd26df-13fc-4d94-9451-99a3162ba02e"},"vehicle_type_id":"4","last_reported":1701940043,"current_range_meters":22800,"station_id":"ce4bh192rcd13ifvqdc0","pricing_plan_id":"free"},{"bike_id":"45b71588-e5ca-4f32-b26d-73da4fb9347b","system_id":"levelo_inurba_marseille","lat":43.3254,"lon":5.414423,"is_reserved":false,"is_disabled":false,"rental_uris":{"android":"levelo://app?vid=45b71588-e5ca-4f32-b26d-73da4fb9347b","ios":"levelo://app?vid=45b71588-e5ca-4f32-b26d-73da4fb9347b"},"vehicle_type_id":"4","last_reported":1701940043,"current_range_meters":26800,"station_id":"ce4bhq12rcd13ifvqhhg","pricing_plan_id":"free"},{"bike_id":"f32150cc-8575-4fe8-97c1-11e164d807ed","system_id":"levelo_inurba_marseille","lat":43.325431,"lon":5.414431,"is_reserved":false,"is_disabled":false,"rental_uris":{"android":"levelo://app?vid=f32150cc-8575-4fe8-97c1-11e164d807ed","ios":"levelo://app?vid=f32150cc-8575-4fe8-97c1-11e164d807ed"},"vehicle_type_id":"4","last_reported":1701940043,"current_range_meters":28000,"station_id":"ce4bhq12rcd13ifvqhhg","pricing_plan_id":"free"},{"bike_id":"296cda07-0f7e-4f71-8a4c-b203a1e9cd6a","system_id":"levelo_inurba_marseille","lat":43.336134,"lon":5.410341,"is_reserved":false,"is_disabled":false,"rental_uris":{"android":"levelo://app?vid=296cda07-0f7e-4f71-8a4c-b203a1e9cd6a","ios":"levelo://app?vid=296cda07-0f7e-4f71-8a4c-b203a1e9cd6a"},"vehicle_type_id":"4","last_reported":1701940043,"current_range_meters":15600,"station_id":"ce4bhqh2rcd13ifvqhmg","pricing_plan_id":"free"},{"bike_id":"1003d285-29b1-4f71-96cf-e3cbe9a64aaa","system_id":"levelo_inurba_marseille","lat":43.276771,"lon":5.388799,"is_reserved":false,"is_disabled":false,"rental_uris":{"android":"levelo://app?vid=1003d285-29b1-4f71-96cf-e3cbe9a64aaa","ios":"levelo://app?vid=1003d285-29b1-4f71-96cf-e3cbe9a64aaa"},"vehicle_type_id":"4","last_reported":1701940043,"current_range_meters":25600,"station_id":"ce4bhi12rcd13ifvqfo0","pricing_plan_id":"free"},{"bike_id":"283b1518-47c4-4c7a-aece-e76435d9d17e","system_id":"levelo_inurba_marseille","lat":43.27622,"lon":5.39483,"is_reserved":false,"is_disabled":false,"rental_uris":{"android":"levelo://app?vid=283b1518-47c4-4c7a-aece-e76435d9d17e","ios":"levelo://app?vid=283b1518-47c4-4c7a-aece-e76435d9d17e"},"vehicle_type_id":"4","last_reported":1701940043,"current_range_meters":5600,"station_id":"","pricing_plan_id":"free"},{"bike_id":"39030b3b-8a1b-4cc4-9243-e03b3b3b38fe","system_id":"levelo_inurba_marseille","lat":43.310785,"lon":5.424305,"is_reserved":false,"is_disabled":false,"rental_uris":{"android":"levelo://app?vid=39030b3b-8a1b-4cc4-9243-e03b3b3b38fe","ios":"levelo://app?vid=39030b3b-8a1b-4cc4-9243-e03b3b3b38fe"},"vehicle_type_id":"4","last_reported":1701940043,"current_range_meters":21600,"station_id":"ce4bhp92rcd13ifvqhag","pricing_plan_id":"free"},{"bike_id":"4d0b9aa7-364c-44bf-9acf-cfe2974e4eef","system_id":"levelo_inurba_marseille","lat":43.340804,"lon":5.410219,"is_reserved":false,"is_disabled":false,"rental_uris":{"android":"levelo://app?vid=4d0b9aa7-364c-44bf-9acf-cfe2974e4eef","ios":"levelo://app?vid=4d0b9aa7-364c-44bf-9acf-cfe2974e4eef"},"vehicle_type_id":"4","last_reported":1701940043,"current_range_meters":26400,"station_id":"ce4bhqh2rcd13ifvqhlg","pricing_plan_id":"free"},{"bike_id":"cd8412f3-dfd9-46f4-bdc7-8ea525f14339","system_id":"levelo_inurba_marseille","lat":43.340804,"lon":5.410219,"is_reserved":false,"is_disabled":false,"rental_uris":{"android":"levelo://app?vid=cd8412f3-dfd9-46f4-bdc7-8ea525f14339","ios":"levelo://app?vid=cd8412f3-dfd9-46f4-bdc7-8ea525f14339"},"vehicle_type_id":"4","last_reported":1701940043,"current_range_meters":31600,"station_id":"ce4bhqh2rcd13ifvqhlg","pricing_plan_id":"free"},{"bike_id":"3e0432a5-c7e1-4b04-9752-a38feef39b38","system_id":"levelo_inurba_marseille","lat":43.340804,"lon":5.410219,"is_reserved":false,"is_disabled":false,"rental_uris":{"android":"levelo://app?vid=3e0432a5-c7e1-4b04-9752-a38feef39b38","ios":"levelo://app?vid=3e0432a5-c7e1-4b04-9752-a38feef39b38"},"vehicle_type_id":"4","last_reported":1701940043,"current_range_meters":28800,"station_id":"ce4bhqh2rcd13ifvqhlg","pricing_plan_id":"free"},{"bike_id":"30356625-443d-4050-b183-09849e33c23c","system_id":"levelo_inurba_marseille","lat":43.34143,"lon":5.40909,"is_reserved":false,"is_disabled":false,"rental_uris":{"android":"levelo://app?vid=30356625-443d-4050-b183-09849e33c23c","ios":"levelo://app?vid=30356625-443d-4050-b183-09849e33c23c"},"vehicle_type_id":"4","last_reported":1701940043,"current_range_meters":22800,"station_id":"ce4bhqh2rcd13ifvqhlg","pricing_plan_id":"free"},{"bike_id":"fc452a7a-a221-40ab-bc47-a38b73e93524","system_id":"levelo_inurba_marseille","lat":43.304096,"lon":5.425385,"is_reserved":false,"is_disabled":false,"rental_uris":{"android":"levelo://app?vid=fc452a7a-a221-40ab-bc47-a38b73e93524","ios":"levelo://app?vid=fc452a7a-a221-40ab-bc47-a38b73e93524"},"vehicle_type_id":"4","last_reported":1701940043,"current_range_meters":0,"station_id":"ce4bhoh2rcd13ifvqh6g","pricing_plan_id":"free"},{"bike_id":"0ee70089-be85-4bb4-afa4-961c9a76a5ef","system_id":"levelo_inurba_marseille","lat":43.3041,"lon":5.42541,"is_reserved":false,"is_disabled":false,"rental_uris":{"android":"levelo://app?vid=0ee70089-be85-4bb4-afa4-961c9a76a5ef","ios":"levelo://app?vid=0ee70089-be85-4bb4-afa4-961c9a76a5ef"},"vehicle_type_id":"4","last_reported":1701940043,"current_range_meters":14000,"station_id":"ce4bhoh2rcd13ifvqh6g","pricing_plan_id":"free"},{"bike_id":"7c498e42-98b3-4dd4-98dd-8e57123eaff5","system_id":"levelo_inurba_marseille","lat":43.30407,"lon":5.42545,"is_reserved":false,"is_disabled":false,"rental_uris":{"android":"levelo://app?vid=7c498e42-98b3-4dd4-98dd-8e57123eaff5","ios":"levelo://app?vid=7c498e42-98b3-4dd4-98dd-8e57123eaff5"},"vehicle_type_id":"4","last_reported":1701940043,"current_range_meters":2000,"station_id":"ce4bhoh2rcd13ifvqh6g","pricing_plan_id":"free"},{"bike_id":"3d817b9d-cf7e-4ff6-8e25-346e6913ee9f","system_id":"levelo_inurba_marseille","lat":43.304088,"lon":5.425388,"is_reserved":false,"is_disabled":false,"rental_uris":{"android":"levelo://app?vid=3d817b9d-cf7e-4ff6-8e25-346e6913ee9f","ios":"levelo://app?vid=3d817b9d-cf7e-4ff6-8e25-346e6913ee9f"},"vehicle_type_id":"4","last_reported":1701940043,"current_range_meters":6800,"station_id":"ce4bhoh2rcd13ifvqh6g","pricing_plan_id":"free"},{"bike_id":"e0756567-7870-49b5-9af8-73e51703da33","system_id":"levelo_inurba_marseille","lat":43.295523,"lon":5.422926,"is_reserved":false,"is_disabled":false,"rental_uris":{"android":"levelo://app?vid=e0756567-7870-49b5-9af8-73e51703da33","ios":"levelo://app?vid=e0756567-7870-49b5-9af8-73e51703da33"},"vehicle_type_id":"4","last_reported":1701940043,"current_range_meters":28800,"station_id":"ce4bhph2rcd13ifvqhdg","pricing_plan_id":"free"},{"bike_id":"77e2df1b-d75a-48fe-a6ad-744dfbe91f1d","system_id":"levelo_inurba_marseille","lat":43.27214,"lon":5.3925,"is_reserved":false,"is_disabled":false,"rental_uris":{"android":"levelo://app?vid=77e2df1b-d75a-48fe-a6ad-744dfbe91f1d","ios":"levelo://app?vid=77e2df1b-d75a-48fe-a6ad-744dfbe91f1d"},"vehicle_type_id":"4","last_reported":1701940043,"current_range_meters":10000,"station_id":"","pricing_plan_id":"free"},{"bike_id":"d98afbce-5cdf-4651-8aef-2c67f01c481f","system_id":"levelo_inurba_marseille","lat":43.269582,"lon":5.386258,"is_reserved":false,"is_disabled":false,"rental_uris":{"android":"levelo://app?vid=d98afbce-5cdf-4651-8aef-2c67f01c481f","ios":"levelo://app?vid=d98afbce-5cdf-4651-8aef-2c67f01c481f"},"vehicle_type_id":"4","last_reported":1701940043,"current_range_meters":19600,"station_id":"ce4bhh92rcd13ifvqfh0","pricing_plan_id":"free"},{"bike_id":"5e7ee706-ab9d-4c16-ae5e-aa977e30f096","system_id":"levelo_inurba_marseille","lat":43.269529,"lon":5.386301,"is_reserved":false,"is_disabled":false,"rental_uris":{"android":"levelo://app?vid=5e7ee706-ab9d-4c16-ae5e-aa977e30f096","ios":"levelo://app?vid=5e7ee706-ab9d-4c16-ae5e-aa977e30f096"},"vehicle_type_id":"4","last_reported":1701940043,"current_range_meters":21200,"station_id":"ce4bhh92rcd13ifvqfh0","pricing_plan_id":"free"},{"bike_id":"28a5655f-011f-4ca8-ae8c-a09cfd9daed4","system_id":"levelo_inurba_marseille","lat":43.269483,"lon":5.386253,"is_reserved":false,"is_disabled":false,"rental_uris":{"android":"levelo://app?vid=28a5655f-011f-4ca8-ae8c-a09cfd9daed4","ios":"levelo://app?vid=28a5655f-011f-4ca8-ae8c-a09cfd9daed4"},"vehicle_type_id":"4","last_reported":1701940043,"current_range_meters":29200,"station_id":"ce4bhh92rcd13ifvqfh0","pricing_plan_id":"free"},{"bike_id":"84a71ff4-4e32-4333-8576-169ee20a7adc","system_id":"levelo_inurba_marseille","lat":43.26681,"lon":5.382694,"is_reserved":false,"is_disabled":false,"rental_uris":{"android":"levelo://app?vid=84a71ff4-4e32-4333-8576-169ee20a7adc","ios":"levelo://app?vid=84a71ff4-4e32-4333-8576-169ee20a7adc"},"vehicle_type_id":"4","last_reported":1701940043,"current_range_meters":22000,"station_id":"ce4bhg92rcd13ifvqf90","pricing_plan_id":"free"},{"bike_id":"211f1897-da44-4f23-b5d0-6ea9c59cf95a","system_id":"levelo_inurba_marseille","lat":43.26681,"lon":5.382694,"is_reserved":false,"is_disabled":false,"rental_uris":{"android":"levelo://app?vid=211f1897-da44-4f23-b5d0-6ea9c59cf95a","ios":"levelo://app?vid=211f1897-da44-4f23-b5d0-6ea9c59cf95a"},"vehicle_type_id":"4","last_reported":1701940043,"current_range_meters":0,"station_id":"ce4bhg92rcd13ifvqf90","pricing_plan_id":"free"},{"bike_id":"7ce2c329-3a90-4347-b81f-8a4339205c1b","system_id":"levelo_inurba_marseille","lat":43.26681,"lon":5.382694,"is_reserved":false,"is_disabled":false,"rental_uris":{"android":"levelo://app?vid=7ce2c329-3a90-4347-b81f-8a4339205c1b","ios":"levelo://app?vid=7ce2c329-3a90-4347-b81f-8a4339205c1b"},"vehicle_type_id":"4","last_reported":1701940043,"current_range_meters":26800,"station_id":"ce4bhg92rcd13ifvqf90","pricing_plan_id":"free"},{"bike_id":"5d8731f6-2340-4d1e-bc3a-076bdb85bcec","system_id":"levelo_inurba_marseille","lat":43.26681,"lon":5.382694,"is_reserved":false,"is_disabled":false,"rental_uris":{"android":"levelo://app?vid=5d8731f6-2340-4d1e-bc3a-076bdb85bcec","ios":"levelo://app?vid=5d8731f6-2340-4d1e-bc3a-076bdb85bcec"},"vehicle_type_id":"4","last_reported":1701940043,"current_range_meters":16400,"station_id":"ce4bhg92rcd13ifvqf90","pricing_plan_id":"free"},{"bike_id":"e4276767-5c4b-4685-b172-cfdf1e0a0844","system_id":"levelo_inurba_marseille","lat":43.26681,"lon":5.382694,"is_reserved":false,"is_disabled":false,"rental_uris":{"android":"levelo://app?vid=e4276767-5c4b-4685-b172-cfdf1e0a0844","ios":"levelo://app?vid=e4276767-5c4b-4685-b172-cfdf1e0a0844"},"vehicle_type_id":"4","last_reported":1701940043,"current_range_meters":27200,"station_id":"ce4bhg92rcd13ifvqf90","pricing_plan_id":"free"},{"bike_id":"97826dc5-af07-42b2-bae5-2f84d5c6b692","system_id":"levelo_inurba_marseille","lat":43.26681,"lon":5.382694,"is_reserved":false,"is_disabled":false,"rental_uris":{"android":"levelo://app?vid=97826dc5-af07-42b2-bae5-2f84d5c6b692","ios":"levelo://app?vid=97826dc5-af07-42b2-bae5-2f84d5c6b692"},"vehicle_type_id":"4","last_reported":1701940043,"current_range_meters":19600,"station_id":"ce4bhg92rcd13ifvqf90","pricing_plan_id":"free"},{"bike_id":"5c62f0fe-2a68-4f0e-8c5e-1c3be35b64ff","system_id":"levelo_inurba_marseille","lat":43.292864,"lon":5.428496,"is_reserved":false,"is_disabled":false,"rental_uris":{"android":"levelo://app?vid=5c62f0fe-2a68-4f0e-8c5e-1c3be35b64ff","ios":"levelo://app?vid=5c62f0fe-2a68-4f0e-8c5e-1c3be35b64ff"},"vehicle_type_id":"4","last_reported":1701940043,"current_range_meters":16800,"station_id":"","pricing_plan_id":"free"},{"bike_id":"c24f39e8-6f66-4dc7-ba89-be7cd22d519b","system_id":"levelo_inurba_marseille","lat":43.267966,"lon":5.393976,"is_reserved":false,"is_disabled":false,"rental_uris":{"android":"levelo://app?vid=c24f39e8-6f66-4dc7-ba89-be7cd22d519b","ios":"levelo://app?vid=c24f39e8-6f66-4dc7-ba89-be7cd22d519b"},"vehicle_type_id":"4","last_reported":1701940043,"current_range_meters":29600,"station_id":"ce4bhh12rcd13ifvqfg0","pricing_plan_id":"free"},{"bike_id":"65b3cf68-eca2-4d7b-b18d-87daafe89a02","system_id":"levelo_inurba_marseille","lat":43.26188,"lon":5.37448,"is_reserved":false,"is_disabled":false,"rental_uris":{"android":"levelo://app?vid=65b3cf68-eca2-4d7b-b18d-87daafe89a02","ios":"levelo://app?vid=65b3cf68-eca2-4d7b-b18d-87daafe89a02"},"vehicle_type_id":"4","last_reported":1701940043,"current_range_meters":0,"station_id":"ce4bhgp2rcd13ifvqfc0","pricing_plan_id":"free"},{"bike_id":"f06f2dfa-c30b-44cc-b60e-97c87bab3c78","system_id":"levelo_inurba_marseille","lat":43.31709,"lon":5.43701,"is_reserved":false,"is_disabled":false,"rental_uris":{"android":"levelo://app?vid=f06f2dfa-c30b-44cc-b60e-97c87bab3c78","ios":"levelo://app?vid=f06f2dfa-c30b-44cc-b60e-97c87bab3c78"},"vehicle_type_id":"4","last_reported":1701940043,"current_range_meters":3600,"station_id":"ce4bhp92rcd13ifvqhcg","pricing_plan_id":"free"},{"bike_id":"4f68f183-a711-4386-a731-e8ea8e2f115e","system_id":"levelo_inurba_marseille","lat":43.298768,"lon":5.43643,"is_reserved":false,"is_disabled":false,"rental_uris":{"android":"levelo://app?vid=4f68f183-a711-4386-a731-e8ea8e2f115e","ios":"levelo://app?vid=4f68f183-a711-4386-a731-e8ea8e2f115e"},"vehicle_type_id":"4","last_reported":1701940043,"current_range_meters":27200,"station_id":"ce4bhpp2rcd13ifvqhfg","pricing_plan_id":"free"},{"bike_id":"15516f19-6688-4602-81b1-7032ebea46f1","system_id":"levelo_inurba_marseille","lat":43.298768,"lon":5.43643,"is_reserved":false,"is_disabled":false,"rental_uris":{"android":"levelo://app?vid=15516f19-6688-4602-81b1-7032ebea46f1","ios":"levelo://app?vid=15516f19-6688-4602-81b1-7032ebea46f1"},"vehicle_type_id":"4","last_reported":1701940043,"current_range_meters":2800,"station_id":"ce4bhpp2rcd13ifvqhfg","pricing_plan_id":"free"},{"bike_id":"8c066ef0-8e33-4692-81e9-53a96288cf19","system_id":"levelo_inurba_marseille","lat":43.298768,"lon":5.43643,"is_reserved":false,"is_disabled":false,"rental_uris":{"android":"levelo://app?vid=8c066ef0-8e33-4692-81e9-53a96288cf19","ios":"levelo://app?vid=8c066ef0-8e33-4692-81e9-53a96288cf19"},"vehicle_type_id":"4","last_reported":1701940043,"current_range_meters":31600,"station_id":"ce4bhpp2rcd13ifvqhfg","pricing_plan_id":"free"},{"bike_id":"83e2018e-7127-4415-8bbf-2e347a9c6750","system_id":"levelo_inurba_marseille","lat":43.298768,"lon":5.43643,"is_reserved":false,"is_disabled":false,"rental_uris":{"android":"levelo://app?vid=83e2018e-7127-4415-8bbf-2e347a9c6750","ios":"levelo://app?vid=83e2018e-7127-4415-8bbf-2e347a9c6750"},"vehicle_type_id":"4","last_reported":1701940043,"current_range_meters":8800,"station_id":"ce4bhpp2rcd13ifvqhfg","pricing_plan_id":"free"},{"bike_id":"a3214d6e-db70-4a57-b808-874f5b0e8055","system_id":"levelo_inurba_marseille","lat":43.275028,"lon":5.424534,"is_reserved":false,"is_disabled":false,"rental_uris":{"android":"levelo://app?vid=a3214d6e-db70-4a57-b808-874f5b0e8055","ios":"levelo://app?vid=a3214d6e-db70-4a57-b808-874f5b0e8055"},"vehicle_type_id":"4","last_reported":1701940043,"current_range_meters":10800,"station_id":"ce4bhn92rcd13ifvqgrg","pricing_plan_id":"free"},{"bike_id":"cb46dad0-c689-44f7-a202-ca3a3c8c871c","system_id":"levelo_inurba_marseille","lat":43.275028,"lon":5.424534,"is_reserved":false,"is_disabled":false,"rental_uris":{"android":"levelo://app?vid=cb46dad0-c689-44f7-a202-ca3a3c8c871c","ios":"levelo://app?vid=cb46dad0-c689-44f7-a202-ca3a3c8c871c"},"vehicle_type_id":"4","last_reported":1701940043,"current_range_meters":18000,"station_id":"ce4bhn92rcd13ifvqgrg","pricing_plan_id":"free"},{"bike_id":"7cc4a383-05d7-4b11-8052-9807b6a5efbb","system_id":"levelo_inurba_marseille","lat":43.275028,"lon":5.424534,"is_reserved":false,"is_disabled":false,"rental_uris":{"android":"levelo://app?vid=7cc4a383-05d7-4b11-8052-9807b6a5efbb","ios":"levelo://app?vid=7cc4a383-05d7-4b11-8052-9807b6a5efbb"},"vehicle_type_id":"4","last_reported":1701940043,"current_range_meters":7200,"station_id":"ce4bhn92rcd13ifvqgrg","pricing_plan_id":"free"},{"bike_id":"9060f8b8-b002-4cb7-a4a4-4075d73f5a02","system_id":"levelo_inurba_marseille","lat":43.275028,"lon":5.424534,"is_reserved":false,"is_disabled":false,"rental_uris":{"android":"levelo://app?vid=9060f8b8-b002-4cb7-a4a4-4075d73f5a02","ios":"levelo://app?vid=9060f8b8-b002-4cb7-a4a4-4075d73f5a02"},"vehicle_type_id":"4","last_reported":1701940043,"current_range_meters":20800,"station_id":"ce4bhn92rcd13ifvqgrg","pricing_plan_id":"free"},{"bike_id":"6e20df36-92d9-444e-b60f-21790aa68ee7","system_id":"levelo_inurba_marseille","lat":43.275028,"lon":5.424534,"is_reserved":false,"is_disabled":false,"rental_uris":{"android":"levelo://app?vid=6e20df36-92d9-444e-b60f-21790aa68ee7","ios":"levelo://app?vid=6e20df36-92d9-444e-b60f-21790aa68ee7"},"vehicle_type_id":"4","last_reported":1701940043,"current_range_meters":8400,"station_id":"ce4bhn92rcd13ifvqgrg","pricing_plan_id":"free"},{"bike_id":"50643256-e924-4ec6-8786-668374357167","system_id":"levelo_inurba_marseille","lat":43.25579,"lon":5.38235,"is_reserved":false,"is_disabled":false,"rental_uris":{"android":"levelo://app?vid=50643256-e924-4ec6-8786-668374357167","ios":"levelo://app?vid=50643256-e924-4ec6-8786-668374357167"},"vehicle_type_id":"4","last_reported":1701940043,"current_range_meters":28800,"station_id":"ce4bhih2rcd13ifvqfs0","pricing_plan_id":"free"},{"bike_id":"08b58358-5784-40b7-a6e2-0a596f83141e","system_id":"levelo_inurba_marseille","lat":43.25576,"lon":5.38234,"is_reserved":false,"is_disabled":false,"rental_uris":{"android":"levelo://app?vid=08b58358-5784-40b7-a6e2-0a596f83141e","ios":"levelo://app?vid=08b58358-5784-40b7-a6e2-0a596f83141e"},"vehicle_type_id":"4","last_reported":1701940043,"current_range_meters":29200,"station_id":"ce4bhih2rcd13ifvqfs0","pricing_plan_id":"free"},{"bike_id":"6a617ee0-f165-4ab2-b660-f81a73b68f85","system_id":"levelo_inurba_marseille","lat":43.25575,"lon":5.38236,"is_reserved":false,"is_disabled":false,"rental_uris":{"android":"levelo://app?vid=6a617ee0-f165-4ab2-b660-f81a73b68f85","ios":"levelo://app?vid=6a617ee0-f165-4ab2-b660-f81a73b68f85"},"vehicle_type_id":"4","last_reported":1701940043,"current_range_meters":30800,"station_id":"ce4bhih2rcd13ifvqfs0","pricing_plan_id":"free"},{"bike_id":"9f3ed22e-8826-46f5-8235-85475aabdf43","system_id":"levelo_inurba_marseille","lat":43.255756,"lon":5.382303,"is_reserved":false,"is_disabled":false,"rental_uris":{"android":"levelo://app?vid=9f3ed22e-8826-46f5-8235-85475aabdf43","ios":"levelo://app?vid=9f3ed22e-8826-46f5-8235-85475aabdf43"},"vehicle_type_id":"4","last_reported":1701940043,"current_range_meters":30800,"station_id":"ce4bhih2rcd13ifvqfs0","pricing_plan_id":"free"},{"bike_id":"97780bcc-95d7-4cf4-90ef-fad0eff9d783","system_id":"levelo_inurba_marseille","lat":43.254947,"lon":5.376454,"is_reserved":false,"is_disabled":false,"rental_uris":{"android":"levelo://app?vid=97780bcc-95d7-4cf4-90ef-fad0eff9d783","ios":"levelo://app?vid=97780bcc-95d7-4cf4-90ef-fad0eff9d783"},"vehicle_type_id":"4","last_reported":1701940043,"current_range_meters":14400,"station_id":"ce4bhh12rcd13ifvqff0","pricing_plan_id":"free"},{"bike_id":"6c43caf8-828b-414a-80a3-7771ae826ae9","system_id":"levelo_inurba_marseille","lat":43.254947,"lon":5.376454,"is_reserved":false,"is_disabled":false,"rental_uris":{"android":"levelo://app?vid=6c43caf8-828b-414a-80a3-7771ae826ae9","ios":"levelo://app?vid=6c43caf8-828b-414a-80a3-7771ae826ae9"},"vehicle_type_id":"4","last_reported":1701940043,"current_range_meters":27600,"station_id":"ce4bhh12rcd13ifvqff0","pricing_plan_id":"free"},{"bike_id":"d7c2e738-a6f0-4b41-a8b2-efe4c7597b55","system_id":"levelo_inurba_marseille","lat":43.2707,"lon":5.42282,"is_reserved":false,"is_disabled":false,"rental_uris":{"android":"levelo://app?vid=d7c2e738-a6f0-4b41-a8b2-efe4c7597b55","ios":"levelo://app?vid=d7c2e738-a6f0-4b41-a8b2-efe4c7597b55"},"vehicle_type_id":"4","last_reported":1701940043,"current_range_meters":400,"station_id":"ce4bhk92rcd13ifvqgb0","pricing_plan_id":"free"},{"bike_id":"00f774c7-ceba-44c2-9e79-be6ff89c7822","system_id":"levelo_inurba_marseille","lat":43.258658,"lon":5.398935,"is_reserved":false,"is_disabled":false,"rental_uris":{"android":"levelo://app?vid=00f774c7-ceba-44c2-9e79-be6ff89c7822","ios":"levelo://app?vid=00f774c7-ceba-44c2-9e79-be6ff89c7822"},"vehicle_type_id":"4","last_reported":1701940043,"current_range_meters":20800,"station_id":"ce4bhl92rcd13ifvqghg","pricing_plan_id":"free"},{"bike_id":"86fd8ef1-6291-4798-a817-649d90b2a1e3","system_id":"levelo_inurba_marseille","lat":43.285742,"lon":5.395004,"is_reserved":false,"is_disabled":false,"rental_uris":{"android":"levelo://app?vid=86fd8ef1-6291-4798-a817-649d90b2a1e3","ios":"levelo://app?vid=86fd8ef1-6291-4798-a817-649d90b2a1e3"},"vehicle_type_id":"4","last_reported":1701940043,"current_range_meters":6400,"station_id":"ce4bh292rcd13ifvqdg0","pricing_plan_id":"free"},{"bike_id":"79a7b157-31de-46c9-a2f5-d13f11dc9419","system_id":"levelo_inurba_marseille","lat":43.25854,"lon":5.39907,"is_reserved":false,"is_disabled":false,"rental_uris":{"android":"levelo://app?vid=79a7b157-31de-46c9-a2f5-d13f11dc9419","ios":"levelo://app?vid=79a7b157-31de-46c9-a2f5-d13f11dc9419"},"vehicle_type_id":"4","last_reported":1701940043,"current_range_meters":16000,"station_id":"ce4bhl92rcd13ifvqghg","pricing_plan_id":"free"},{"bike_id":"6c19e235-4f38-402a-9339-e74d8c0831e1","system_id":"levelo_inurba_marseille","lat":43.25936,"lon":5.40906,"is_reserved":false,"is_disabled":false,"rental_uris":{"android":"levelo://app?vid=6c19e235-4f38-402a-9339-e74d8c0831e1","ios":"levelo://app?vid=6c19e235-4f38-402a-9339-e74d8c0831e1"},"vehicle_type_id":"4","last_reported":1701940043,"current_range_meters":25200,"station_id":"ce4bhm92rcd13ifvqglg","pricing_plan_id":"free"},{"bike_id":"701604ae-0478-466c-98a4-c14fbc4e27c6","system_id":"levelo_inurba_marseille","lat":43.259013,"lon":5.409301,"is_reserved":false,"is_disabled":false,"rental_uris":{"android":"levelo://app?vid=701604ae-0478-466c-98a4-c14fbc4e27c6","ios":"levelo://app?vid=701604ae-0478-466c-98a4-c14fbc4e27c6"},"vehicle_type_id":"4","last_reported":1701940043,"current_range_meters":12800,"station_id":"ce4bhm92rcd13ifvqglg","pricing_plan_id":"free"},{"bike_id":"0528e9d9-fd60-4cd0-a29a-8e7b1de708c3","system_id":"levelo_inurba_marseille","lat":43.25926,"lon":5.40916,"is_reserved":false,"is_disabled":false,"rental_uris":{"android":"levelo://app?vid=0528e9d9-fd60-4cd0-a29a-8e7b1de708c3","ios":"levelo://app?vid=0528e9d9-fd60-4cd0-a29a-8e7b1de708c3"},"vehicle_type_id":"4","last_reported":1701940043,"current_range_meters":15600,"station_id":"ce4bhm92rcd13ifvqglg","pricing_plan_id":"free"},{"bike_id":"1092a469-c999-4f1f-876c-ee8638727ace","system_id":"levelo_inurba_marseille","lat":43.259013,"lon":5.409301,"is_reserved":false,"is_disabled":false,"rental_uris":{"android":"levelo://app?vid=1092a469-c999-4f1f-876c-ee8638727ace","ios":"levelo://app?vid=1092a469-c999-4f1f-876c-ee8638727ace"},"vehicle_type_id":"4","last_reported":1701940043,"current_range_meters":22000,"station_id":"ce4bhm92rcd13ifvqglg","pricing_plan_id":"free"},{"bike_id":"ce2eacb6-82e7-4ea3-b00b-20b3ae705235","system_id":"levelo_inurba_marseille","lat":43.250009,"lon":5.389195,"is_reserved":false,"is_disabled":false,"rental_uris":{"android":"levelo://app?vid=ce2eacb6-82e7-4ea3-b00b-20b3ae705235","ios":"levelo://app?vid=ce2eacb6-82e7-4ea3-b00b-20b3ae705235"},"vehicle_type_id":"4","last_reported":1701940043,"current_range_meters":18000,"station_id":"ce4bhgp2rcd13ifvqfd0","pricing_plan_id":"free"},{"bike_id":"a32fd8a7-2a6c-404e-a474-99014d3413eb","system_id":"levelo_inurba_marseille","lat":43.250023,"lon":5.38919,"is_reserved":false,"is_disabled":false,"rental_uris":{"android":"levelo://app?vid=a32fd8a7-2a6c-404e-a474-99014d3413eb","ios":"levelo://app?vid=a32fd8a7-2a6c-404e-a474-99014d3413eb"},"vehicle_type_id":"4","last_reported":1701940043,"current_range_meters":16000,"station_id":"ce4bhgp2rcd13ifvqfd0","pricing_plan_id":"free"},{"bike_id":"8c9f2c3d-a36b-4092-9750-92686c09d301","system_id":"levelo_inurba_marseille","lat":43.2479,"lon":5.374457,"is_reserved":false,"is_disabled":false,"rental_uris":{"android":"levelo://app?vid=8c9f2c3d-a36b-4092-9750-92686c09d301","ios":"levelo://app?vid=8c9f2c3d-a36b-4092-9750-92686c09d301"},"vehicle_type_id":"4","last_reported":1701940043,"current_range_meters":10400,"station_id":"ce4bhgh2rcd13ifvqfb0","pricing_plan_id":"free"},{"bike_id":"fe1ca94a-1929-413a-9d83-594f2a6bd147","system_id":"levelo_inurba_marseille","lat":43.25102,"lon":5.403214,"is_reserved":false,"is_disabled":false,"rental_uris":{"android":"levelo://app?vid=fe1ca94a-1929-413a-9d83-594f2a6bd147","ios":"levelo://app?vid=fe1ca94a-1929-413a-9d83-594f2a6bd147"},"vehicle_type_id":"4","last_reported":1701940043,"current_range_meters":14400,"station_id":"ce4bhlh2rcd13ifvqgig","pricing_plan_id":"free"},{"bike_id":"1d68b985-bf06-47e9-a08d-910b69a9e0df","system_id":"levelo_inurba_marseille","lat":43.240623,"lon":5.377642,"is_reserved":false,"is_disabled":false,"rental_uris":{"android":"levelo://app?vid=1d68b985-bf06-47e9-a08d-910b69a9e0df","ios":"levelo://app?vid=1d68b985-bf06-47e9-a08d-910b69a9e0df"},"vehicle_type_id":"4","last_reported":1701940043,"current_range_meters":29600,"station_id":"ce4bhnp2rcd13ifvqgvg","pricing_plan_id":"free"},{"bike_id":"dcf0f005-e27a-4689-9aaf-aa0357c93657","system_id":"levelo_inurba_marseille","lat":43.240623,"lon":5.377642,"is_reserved":false,"is_disabled":false,"rental_uris":{"android":"levelo://app?vid=dcf0f005-e27a-4689-9aaf-aa0357c93657","ios":"levelo://app?vid=dcf0f005-e27a-4689-9aaf-aa0357c93657"},"vehicle_type_id":"4","last_reported":1701940043,"current_range_meters":30400,"station_id":"ce4bhnp2rcd13ifvqgvg","pricing_plan_id":"free"},{"bike_id":"21d64070-be5a-4b98-8cd2-4956101ead67","system_id":"levelo_inurba_marseille","lat":43.240623,"lon":5.377642,"is_reserved":false,"is_disabled":false,"rental_uris":{"android":"levelo://app?vid=21d64070-be5a-4b98-8cd2-4956101ead67","ios":"levelo://app?vid=21d64070-be5a-4b98-8cd2-4956101ead67"},"vehicle_type_id":"4","last_reported":1701940043,"current_range_meters":0,"station_id":"ce4bhnp2rcd13ifvqgvg","pricing_plan_id":"free"},{"bike_id":"b042f72e-bf2f-4302-8250-7c2e5d773fab","system_id":"levelo_inurba_marseille","lat":43.240623,"lon":5.377642,"is_reserved":false,"is_disabled":false,"rental_uris":{"android":"levelo://app?vid=b042f72e-bf2f-4302-8250-7c2e5d773fab","ios":"levelo://app?vid=b042f72e-bf2f-4302-8250-7c2e5d773fab"},"vehicle_type_id":"4","last_reported":1701940043,"current_range_meters":18800,"station_id":"ce4bhnp2rcd13ifvqgvg","pricing_plan_id":"free"},{"bike_id":"10f49457-c684-4b49-bfd3-d0605e032b73","system_id":"levelo_inurba_marseille","lat":43.240623,"lon":5.377642,"is_reserved":false,"is_disabled":false,"rental_uris":{"android":"levelo://app?vid=10f49457-c684-4b49-bfd3-d0605e032b73","ios":"levelo://app?vid=10f49457-c684-4b49-bfd3-d0605e032b73"},"vehicle_type_id":"4","last_reported":1701940043,"current_range_meters":0,"station_id":"ce4bhnp2rcd13ifvqgvg","pricing_plan_id":"free"},{"bike_id":"4734406e-36c7-4010-a057-b509bd85d38a","system_id":"levelo_inurba_marseille","lat":43.241787,"lon":5.397314,"is_reserved":false,"is_disabled":false,"rental_uris":{"android":"levelo://app?vid=4734406e-36c7-4010-a057-b509bd85d38a","ios":"levelo://app?vid=4734406e-36c7-4010-a057-b509bd85d38a"},"vehicle_type_id":"4","last_reported":1701940043,"current_range_meters":31200,"station_id":"ce4bhn12rcd13ifvqgpg","pricing_plan_id":"free"},{"bike_id":"c99468b3-baaf-477f-bcb4-f90fd0d09884","system_id":"levelo_inurba_marseille","lat":43.241782,"lon":5.397261,"is_reserved":false,"is_disabled":false,"rental_uris":{"android":"levelo://app?vid=c99468b3-baaf-477f-bcb4-f90fd0d09884","ios":"levelo://app?vid=c99468b3-baaf-477f-bcb4-f90fd0d09884"},"vehicle_type_id":"4","last_reported":1701940043,"current_range_meters":0,"station_id":"ce4bhn12rcd13ifvqgpg","pricing_plan_id":"free"},{"bike_id":"dafb76d3-48a3-4e10-8abe-6207ac6827bf","system_id":"levelo_inurba_marseille","lat":43.231562,"lon":5.436933,"is_reserved":false,"is_disabled":false,"rental_uris":{"android":"levelo://app?vid=dafb76d3-48a3-4e10-8abe-6207ac6827bf","ios":"levelo://app?vid=dafb76d3-48a3-4e10-8abe-6207ac6827bf"},"vehicle_type_id":"4","last_reported":1701940043,"current_range_meters":12800,"station_id":"ce4bhmp2rcd13ifvqgog","pricing_plan_id":"free"},{"bike_id":"c585371d-774a-418b-8733-b9524d911113","system_id":"levelo_inurba_marseille","lat":43.231562,"lon":5.436933,"is_reserved":false,"is_disabled":false,"rental_uris":{"android":"levelo://app?vid=c585371d-774a-418b-8733-b9524d911113","ios":"levelo://app?vid=c585371d-774a-418b-8733-b9524d911113"},"vehicle_type_id":"4","last_reported":1701940043,"current_range_meters":15600,"station_id":"ce4bhmp2rcd13ifvqgog","pricing_plan_id":"free"},{"bike_id":"94a2bdd4-c12a-47bc-bcad-bfc47c5a8c98","system_id":"levelo_inurba_marseille","lat":43.231562,"lon":5.436933,"is_reserved":false,"is_disabled":false,"rental_uris":{"android":"levelo://app?vid=94a2bdd4-c12a-47bc-bcad-bfc47c5a8c98","ios":"levelo://app?vid=94a2bdd4-c12a-47bc-bcad-bfc47c5a8c98"},"vehicle_type_id":"4","last_reported":1701940043,"current_range_meters":15600,"station_id":"ce4bhmp2rcd13ifvqgog","pricing_plan_id":"free"},{"bike_id":"32b30606-14b9-41e6-a49f-da3543c8206c","system_id":"levelo_inurba_marseille","lat":43.231562,"lon":5.436933,"is_reserved":false,"is_disabled":false,"rental_uris":{"android":"levelo://app?vid=32b30606-14b9-41e6-a49f-da3543c8206c","ios":"levelo://app?vid=32b30606-14b9-41e6-a49f-da3543c8206c"},"vehicle_type_id":"4","last_reported":1701940043,"current_range_meters":25200,"station_id":"ce4bhmp2rcd13ifvqgog","pricing_plan_id":"free"},{"bike_id":"26aa31e9-78f8-402e-9844-92fcde0d8e9e","system_id":"levelo_inurba_marseille","lat":43.231562,"lon":5.436933,"is_reserved":false,"is_disabled":false,"rental_uris":{"android":"levelo://app?vid=26aa31e9-78f8-402e-9844-92fcde0d8e9e","ios":"levelo://app?vid=26aa31e9-78f8-402e-9844-92fcde0d8e9e"},"vehicle_type_id":"4","last_reported":1701940043,"current_range_meters":6000,"station_id":"ce4bhmp2rcd13ifvqgog","pricing_plan_id":"free"},{"bike_id":"c4d763e0-a870-4439-9182-df46647c88f5","system_id":"levelo_inurba_marseille","lat":43.23151,"lon":5.43719,"is_reserved":false,"is_disabled":false,"rental_uris":{"android":"levelo://app?vid=c4d763e0-a870-4439-9182-df46647c88f5","ios":"levelo://app?vid=c4d763e0-a870-4439-9182-df46647c88f5"},"vehicle_type_id":"4","last_reported":1701940043,"current_range_meters":10400,"station_id":"ce4bhmp2rcd13ifvqgog","pricing_plan_id":"free"},{"bike_id":"167bdd97-62db-414a-9aaa-885881545e21","system_id":"levelo_inurba_marseille","lat":43.231562,"lon":5.436933,"is_reserved":false,"is_disabled":false,"rental_uris":{"android":"levelo://app?vid=167bdd97-62db-414a-9aaa-885881545e21","ios":"levelo://app?vid=167bdd97-62db-414a-9aaa-885881545e21"},"vehicle_type_id":"4","last_reported":1701940043,"current_range_meters":11600,"station_id":"ce4bhmp2rcd13ifvqgog","pricing_plan_id":"free"},{"bike_id":"7a322856-79ba-4174-90e9-188e9c210a06","system_id":"levelo_inurba_marseille","lat":43.231562,"lon":5.436933,"is_reserved":false,"is_disabled":false,"rental_uris":{"android":"levelo://app?vid=7a322856-79ba-4174-90e9-188e9c210a06","ios":"levelo://app?vid=7a322856-79ba-4174-90e9-188e9c210a06"},"vehicle_type_id":"4","last_reported":1701940043,"current_range_meters":5200,"station_id":"ce4bhmp2rcd13ifvqgog","pricing_plan_id":"free"},{"bike_id":"ebb8e937-193f-4764-86cc-14f6a3f49c69","system_id":"levelo_inurba_marseille","lat":43.231562,"lon":5.436933,"is_reserved":false,"is_disabled":false,"rental_uris":{"android":"levelo://app?vid=ebb8e937-193f-4764-86cc-14f6a3f49c69","ios":"levelo://app?vid=ebb8e937-193f-4764-86cc-14f6a3f49c69"},"vehicle_type_id":"4","last_reported":1701940043,"current_range_meters":12400,"station_id":"ce4bhmp2rcd13ifvqgog","pricing_plan_id":"free"},{"bike_id":"149734cf-0231-46c5-b4e5-ccd25f43cea6","system_id":"levelo_inurba_marseille","lat":43.231562,"lon":5.436933,"is_reserved":false,"is_disabled":false,"rental_uris":{"android":"levelo://app?vid=149734cf-0231-46c5-b4e5-ccd25f43cea6","ios":"levelo://app?vid=149734cf-0231-46c5-b4e5-ccd25f43cea6"},"vehicle_type_id":"4","last_reported":1701940043,"current_range_meters":4400,"station_id":"ce4bhmp2rcd13ifvqgog","pricing_plan_id":"free"},{"bike_id":"0388cfcc-aee4-4b56-aaf5-4a4cb85d6319","system_id":"levelo_inurba_marseille","lat":43.231562,"lon":5.436933,"is_reserved":false,"is_disabled":false,"rental_uris":{"android":"levelo://app?vid=0388cfcc-aee4-4b56-aaf5-4a4cb85d6319","ios":"levelo://app?vid=0388cfcc-aee4-4b56-aaf5-4a4cb85d6319"},"vehicle_type_id":"4","last_reported":1701940043,"current_range_meters":20400,"station_id":"ce4bhmp2rcd13ifvqgog","pricing_plan_id":"free"},{"bike_id":"6044dcff-6eb4-461c-91be-600815014433","system_id":"levelo_inurba_marseille","lat":43.231562,"lon":5.436933,"is_reserved":false,"is_disabled":false,"rental_uris":{"android":"levelo://app?vid=6044dcff-6eb4-461c-91be-600815014433","ios":"levelo://app?vid=6044dcff-6eb4-461c-91be-600815014433"},"vehicle_type_id":"4","last_reported":1701940043,"current_range_meters":18800,"station_id":"ce4bhmp2rcd13ifvqgog","pricing_plan_id":"free"},{"bike_id":"f2a13acd-23e0-4753-890d-e38186f79475","system_id":"levelo_inurba_marseille","lat":43.231562,"lon":5.436933,"is_reserved":false,"is_disabled":false,"rental_uris":{"android":"levelo://app?vid=f2a13acd-23e0-4753-890d-e38186f79475","ios":"levelo://app?vid=f2a13acd-23e0-4753-890d-e38186f79475"},"vehicle_type_id":"4","last_reported":1701940043,"current_range_meters":20000,"station_id":"ce4bhmp2rcd13ifvqgog","pricing_plan_id":"free"}]}}