{"last_updated":1769694675,"ttl":60,"version":"2.2","data":{"bikes":[{"bike_id":"266b0834-654b-47d2-95f5-e9ad274f17f8","system_id":"levelo_inurba_marseille","lat":43.23778,"lon":5.36632,"is_reserved":false,"is_disabled":false,"rental_uris":{"android":"levelo://app?vid=266b0834-654b-47d2-95f5-e9ad274f17f8","ios":"levelo://app?vid=266b0834-654b-47d2-95f5-e9ad274f17f8"},"vehicle_type_id":"4","last_reported":1769694675,"current_range_meters":2800,"station_id":"st_d3nk18o9ro0c73en2l3g","pricing_plan_id":"cebpf4jnsgd1na2vs0mg"},{"bike_id":"fe5a2a5c-09cf-4396-8711-ea6bf7ad7dca","system_id":"levelo_inurba_marseille","lat":43.26567,"lon":5.39,"is_reserved":false,"is_disabled":false,"rental_uris":{"android":"levelo://app?vid=fe5a2a5c-09cf-4396-8711-ea6bf7ad7dca","ios":"levelo://app?vid=fe5a2a5c-09cf-4396-8711-ea6bf7ad7dca"},"vehicle_type_id":"4","last_reported":1769694675,"current_range_meters":2800,"station_id":"ce4bhe12rcd13ifvqf30","pricing_plan_id":"cebpf4jnsgd1na2vs0mg"},{"bike_id":"c00d1abe-f6f3-4677-9b5b-65f2d4348ca7","system_id":"levelo_inurba_marseille","lat":43.23201,"lon":5.35565,"is_reserved":false,"is_disabled":false,"rental_uris":{"android":"levelo://app?vid=c00d1abe-f6f3-4677-9b5b-65f2d4348ca7","ios":"levelo://app?vid=c00d1abe-f6f3-4677-9b5b-65f2d4348ca7"},"vehicle_type_id":"4","last_reported":1769694675,"current_range_meters":2800,"station_id":"ce4bhu92rcd13ifvqi70","pricing_plan_id":"cebpf4jnsgd1na2vs0mg"},{"bike_id":"9cf332f9-41e8-44ae-aa15-1d9d379a94a2","system_id":"levelo_inurba_marseille","lat":43.286084,"lon":5.351076,"is_reserved":false,"is_disabled":false,"rental_uris":{"android":"levelo://app?vid=9cf332f9-41e8-44ae-aa15-1d9d379a94a2","ios":"levelo://app?vid=9cf332f9-41e8-44ae-aa15-1d9d379a94a2"},"vehicle_type_id":"4","last_reported":1769694675,"current_range_meters":2800,"station_id":"ce4bhch2rcd13ifvqeug","pricing_plan_id":"cebpf4jnsgd1na2vs0mg"},{"bike_id":"039e619d-eddb-4fc9-84e0-1d927527a644","system_id":"levelo_inurba_marseille","lat":43.31118,"lon":5.37755,"is_reserved":false,"is_disabled":false,"rental_uris":{"android":"levelo://app?vid=039e619d-eddb-4fc9-84e0-1d927527a644","ios":"levelo://app?vid=039e619d-eddb-4fc9-84e0-1d927527a644"},"vehicle_type_id":"4","last_reported":1769694675,"current_range_meters":2800,"station_id":"ce4bgt92rcd13ifvqcg0","pricing_plan_id":"cebpf4jnsgd1na2vs0mg"},{"bike_id":"d6187100-07f2-42a4-aa15-052848bee0b2","system_id":"levelo_inurba_marseille","lat":43.30142,"lon":5.37424,"is_reserved":false,"is_disabled":false,"rental_uris":{"android":"levelo://app?vid=d6187100-07f2-42a4-aa15-052848bee0b2","ios":"levelo://app?vid=d6187100-07f2-42a4-aa15-052848bee0b2"},"vehicle_type_id":"4","last_reported":1769694675,"current_range_meters":2800,"station_id":"ce4bgs92rcd13ifvqcc0","pricing_plan_id":"cebpf4jnsgd1na2vs0mg"},{"bike_id":"c9f3a220-219b-4c2b-8c1e-c880db7831c0","system_id":"levelo_inurba_marseille","lat":43.23153,"lon":5.43727,"is_reserved":false,"is_disabled":false,"rental_uris":{"android":"levelo://app?vid=c9f3a220-219b-4c2b-8c1e-c880db7831c0","ios":"levelo://app?vid=c9f3a220-219b-4c2b-8c1e-c880db7831c0"},"vehicle_type_id":"4","last_reported":1769694675,"current_range_meters":2800,"station_id":"ce4bhmp2rcd13ifvqgog","pricing_plan_id":"cebpf4jnsgd1na2vs0mg"},{"bike_id":"d9a809a5-42b5-40c7-8e99-107db13994f0","system_id":"levelo_inurba_marseille","lat":43.26952,"lon":5.38615,"is_reserved":false,"is_disabled":false,"rental_uris":{"android":"levelo://app?vid=d9a809a5-42b5-40c7-8e99-107db13994f0","ios":"levelo://app?vid=d9a809a5-42b5-40c7-8e99-107db13994f0"},"vehicle_type_id":"4","last_reported":1769694675,"current_range_meters":2800,"station_id":"ce4bhh92rcd13ifvqfh0","pricing_plan_id":"cebpf4jnsgd1na2vs0mg"},{"bike_id":"69a8705c-622c-4687-befc-0e95f406c55e","system_id":"levelo_inurba_marseille","lat":43.2256,"lon":5.41617,"is_reserved":false,"is_disabled":false,"rental_uris":{"android":"levelo://app?vid=69a8705c-622c-4687-befc-0e95f406c55e","ios":"levelo://app?vid=69a8705c-622c-4687-befc-0e95f406c55e"},"vehicle_type_id":"4","last_reported":1769694675,"current_range_meters":3200,"station_id":"st_d2o4gvlbi1j2169b742g","pricing_plan_id":"cebpf4jnsgd1na2vs0mg"},{"bike_id":"68c577a0-4834-449d-bc66-301ada495773","system_id":"levelo_inurba_marseille","lat":43.25931,"lon":5.40905,"is_reserved":false,"is_disabled":false,"rental_uris":{"android":"levelo://app?vid=68c577a0-4834-449d-bc66-301ada495773","ios":"levelo://app?vid=68c577a0-4834-449d-bc66-301ada495773"},"vehicle_type_id":"4","last_reported":1769694675,"current_range_meters":3200,"station_id":"ce4bhm92rcd13ifvqglg","pricing_plan_id":"cebpf4jnsgd1na2vs0mg"},{"bike_id":"7685a49c-8aa3-4105-b6c4-9b0fdec5d0f8","system_id":"levelo_inurba_marseille","lat":43.31499,"lon":5.37223,"is_reserved":false,"is_disabled":false,"rental_uris":{"android":"levelo://app?vid=7685a49c-8aa3-4105-b6c4-9b0fdec5d0f8","ios":"levelo://app?vid=7685a49c-8aa3-4105-b6c4-9b0fdec5d0f8"},"vehicle_type_id":"4","last_reported":1769694675,"current_range_meters":3200,"station_id":"","pricing_plan_id":"cebpf4jnsgd1na2vs0mg"},{"bike_id":"cf7fadb1-e0cb-4e6d-996e-c26a9266edb7","system_id":"levelo_inurba_marseille","lat":43.24539,"lon":5.3951,"is_reserved":false,"is_disabled":false,"rental_uris":{"android":"levelo://app?vid=cf7fadb1-e0cb-4e6d-996e-c26a9266edb7","ios":"levelo://app?vid=cf7fadb1-e0cb-4e6d-996e-c26a9266edb7"},"vehicle_type_id":"4","last_reported":1769694675,"current_range_meters":3200,"station_id":"ce4bhlp2rcd13ifvqgjg","pricing_plan_id":"cebpf4jnsgd1na2vs0mg"},{"bike_id":"4bc51199-a3ee-4ecb-9580-99a8f9dac78b","system_id":"levelo_inurba_marseille","lat":43.31316,"lon":5.36737,"is_reserved":false,"is_disabled":false,"rental_uris":{"android":"levelo://app?vid=4bc51199-a3ee-4ecb-9580-99a8f9dac78b","ios":"levelo://app?vid=4bc51199-a3ee-4ecb-9580-99a8f9dac78b"},"vehicle_type_id":"4","last_reported":1769694675,"current_range_meters":3600,"station_id":"ce4bgr92rcd13ifvqc6g","pricing_plan_id":"cebpf4jnsgd1na2vs0mg"},{"bike_id":"7ec35aaa-ff74-467e-b16b-593a4424d999","system_id":"levelo_inurba_marseille","lat":43.28074,"lon":5.39652,"is_reserved":false,"is_disabled":false,"rental_uris":{"android":"levelo://app?vid=7ec35aaa-ff74-467e-b16b-593a4424d999","ios":"levelo://app?vid=7ec35aaa-ff74-467e-b16b-593a4424d999"},"vehicle_type_id":"4","last_reported":1769694675,"current_range_meters":3600,"station_id":"ce4bho12rcd13ifvqh2g","pricing_plan_id":"cebpf4jnsgd1na2vs0mg"},{"bike_id":"fb91bee4-643f-45fa-91bc-304bee495397","system_id":"levelo_inurba_marseille","lat":43.29843,"lon":5.36275,"is_reserved":false,"is_disabled":false,"rental_uris":{"android":"levelo://app?vid=fb91bee4-643f-45fa-91bc-304bee495397","ios":"levelo://app?vid=fb91bee4-643f-45fa-91bc-304bee495397"},"vehicle_type_id":"4","last_reported":1769694675,"current_range_meters":3600,"station_id":"ce4bgpp2rcd13ifvqc3g","pricing_plan_id":"cebpf4jnsgd1na2vs0mg"},{"bike_id":"9618079e-2ff2-4c22-ba09-0e64f5a7d76f","system_id":"levelo_inurba_marseille","lat":43.31189,"lon":5.36989,"is_reserved":false,"is_disabled":false,"rental_uris":{"android":"levelo://app?vid=9618079e-2ff2-4c22-ba09-0e64f5a7d76f","ios":"levelo://app?vid=9618079e-2ff2-4c22-ba09-0e64f5a7d76f"},"vehicle_type_id":"4","last_reported":1769694675,"current_range_meters":3600,"station_id":"ce4bgl92rcd13ifvqbq0","pricing_plan_id":"cebpf4jnsgd1na2vs0mg"},{"bike_id":"41c91ad2-73b9-4699-b23d-1b5a65edd284","system_id":"levelo_inurba_marseille","lat":43.33531,"lon":5.3745,"is_reserved":false,"is_disabled":false,"rental_uris":{"android":"levelo://app?vid=41c91ad2-73b9-4699-b23d-1b5a65edd284","ios":"levelo://app?vid=41c91ad2-73b9-4699-b23d-1b5a65edd284"},"vehicle_type_id":"4","last_reported":1769694675,"current_range_meters":3600,"station_id":"st_d46tts09ee8s73dlu43g","pricing_plan_id":"cebpf4jnsgd1na2vs0mg"},{"bike_id":"5db037fe-3537-4881-a26d-8c290cdead0b","system_id":"levelo_inurba_marseille","lat":43.295568,"lon":5.422925,"is_reserved":false,"is_disabled":false,"rental_uris":{"android":"levelo://app?vid=5db037fe-3537-4881-a26d-8c290cdead0b","ios":"levelo://app?vid=5db037fe-3537-4881-a26d-8c290cdead0b"},"vehicle_type_id":"4","last_reported":1769694675,"current_range_meters":3600,"station_id":"ce4bhph2rcd13ifvqhdg","pricing_plan_id":"cebpf4jnsgd1na2vs0mg"},{"bike_id":"a8f638c1-c685-4e3a-adf7-3d7a1bc3acf7","system_id":"levelo_inurba_marseille","lat":43.23161,"lon":5.43733,"is_reserved":false,"is_disabled":false,"rental_uris":{"android":"levelo://app?vid=a8f638c1-c685-4e3a-adf7-3d7a1bc3acf7","ios":"levelo://app?vid=a8f638c1-c685-4e3a-adf7-3d7a1bc3acf7"},"vehicle_type_id":"4","last_reported":1769694675,"current_range_meters":3600,"station_id":"ce4bhmp2rcd13ifvqgog","pricing_plan_id":"cebpf4jnsgd1na2vs0mg"},{"bike_id":"39a3b4b2-9107-416a-964a-e7c027c297e6","system_id":"levelo_inurba_marseille","lat":43.27613,"lon":5.3611,"is_reserved":false,"is_disabled":false,"rental_uris":{"android":"levelo://app?vid=39a3b4b2-9107-416a-964a-e7c027c297e6","ios":"levelo://app?vid=39a3b4b2-9107-416a-964a-e7c027c297e6"},"vehicle_type_id":"4","last_reported":1769694675,"current_range_meters":4000,"station_id":"ce4bgj92rcd13ifvqbe0","pricing_plan_id":"cebpf4jnsgd1na2vs0mg"},{"bike_id":"c7e4813a-c248-4d27-817f-f64ef50a11f2","system_id":"levelo_inurba_marseille","lat":43.25924,"lon":5.40908,"is_reserved":false,"is_disabled":false,"rental_uris":{"android":"levelo://app?vid=c7e4813a-c248-4d27-817f-f64ef50a11f2","ios":"levelo://app?vid=c7e4813a-c248-4d27-817f-f64ef50a11f2"},"vehicle_type_id":"4","last_reported":1769694675,"current_range_meters":4000,"station_id":"ce4bhm92rcd13ifvqglg","pricing_plan_id":"cebpf4jnsgd1na2vs0mg"},{"bike_id":"b45c8d2c-8d88-4cef-8b61-a19c2da1c61e","system_id":"levelo_inurba_marseille","lat":43.33542,"lon":5.37431,"is_reserved":false,"is_disabled":false,"rental_uris":{"android":"levelo://app?vid=b45c8d2c-8d88-4cef-8b61-a19c2da1c61e","ios":"levelo://app?vid=b45c8d2c-8d88-4cef-8b61-a19c2da1c61e"},"vehicle_type_id":"4","last_reported":1769694675,"current_range_meters":4000,"station_id":"st_d46tts09ee8s73dlu43g","pricing_plan_id":"cebpf4jnsgd1na2vs0mg"},{"bike_id":"fdd53ce9-53e9-453d-be89-5a26b1d248f0","system_id":"levelo_inurba_marseille","lat":43.31742,"lon":5.39014,"is_reserved":false,"is_disabled":false,"rental_uris":{"android":"levelo://app?vid=fdd53ce9-53e9-453d-be89-5a26b1d248f0","ios":"levelo://app?vid=fdd53ce9-53e9-453d-be89-5a26b1d248f0"},"vehicle_type_id":"4","last_reported":1769694675,"current_range_meters":4000,"station_id":"ce4bhqp2rcd13ifvqhng","pricing_plan_id":"cebpf4jnsgd1na2vs0mg"},{"bike_id":"3f659a9e-22cf-4d2c-b5b4-44e15d4415d9","system_id":"levelo_inurba_marseille","lat":43.31868,"lon":5.39986,"is_reserved":false,"is_disabled":false,"rental_uris":{"android":"levelo://app?vid=3f659a9e-22cf-4d2c-b5b4-44e15d4415d9","ios":"levelo://app?vid=3f659a9e-22cf-4d2c-b5b4-44e15d4415d9"},"vehicle_type_id":"4","last_reported":1769694675,"current_range_meters":4000,"station_id":"","pricing_plan_id":"cebpf4jnsgd1na2vs0mg"},{"bike_id":"562d9b01-fd11-4fe6-b340-f3ad3f460522","system_id":"levelo_inurba_marseille","lat":43.29301,"lon":5.37152,"is_reserved":false,"is_disabled":false,"rental_uris":{"android":"levelo://app?vid=562d9b01-fd11-4fe6-b340-f3ad3f460522","ios":"levelo://app?vid=562d9b01-fd11-4fe6-b340-f3ad3f460522"},"vehicle_type_id":"4","last_reported":1769694675,"current_range_meters":4000,"station_id":"ce4bgh92rcd13ifvqb40","pricing_plan_id":"cebpf4jnsgd1na2vs0mg"},{"bike_id":"3e6599b3-80f5-4cb4-a947-9865a5671465","system_id":"levelo_inurba_marseille","lat":43.27617,"lon":5.36115,"is_reserved":false,"is_disabled":false,"rental_uris":{"android":"levelo://app?vid=3e6599b3-80f5-4cb4-a947-9865a5671465","ios":"levelo://app?vid=3e6599b3-80f5-4cb4-a947-9865a5671465"},"vehicle_type_id":"4","last_reported":1769694675,"current_range_meters":4000,"station_id":"ce4bgj92rcd13ifvqbe0","pricing_plan_id":"cebpf4jnsgd1na2vs0mg"},{"bike_id":"0393f1bf-344f-45c8-9042-27b39d04c542","system_id":"levelo_inurba_marseille","lat":43.29032,"lon":5.37809,"is_reserved":false,"is_disabled":false,"rental_uris":{"android":"levelo://app?vid=0393f1bf-344f-45c8-9042-27b39d04c542","ios":"levelo://app?vid=0393f1bf-344f-45c8-9042-27b39d04c542"},"vehicle_type_id":"4","last_reported":1769694675,"current_range_meters":4000,"station_id":"","pricing_plan_id":"cebpf4jnsgd1na2vs0mg"},{"bike_id":"db53255f-8972-47d0-b519-f5e6bd233c69","system_id":"levelo_inurba_marseille","lat":43.28154,"lon":5.42629,"is_reserved":false,"is_disabled":false,"rental_uris":{"android":"levelo://app?vid=db53255f-8972-47d0-b519-f5e6bd233c69","ios":"levelo://app?vid=db53255f-8972-47d0-b519-f5e6bd233c69"},"vehicle_type_id":"4","last_reported":1769694675,"current_range_meters":4000,"station_id":"ce4bhnh2rcd13ifvqgug","pricing_plan_id":"cebpf4jnsgd1na2vs0mg"},{"bike_id":"84605b65-63a7-4d9c-a595-8329d63f174c","system_id":"levelo_inurba_marseille","lat":43.30775,"lon":5.37644,"is_reserved":false,"is_disabled":false,"rental_uris":{"android":"levelo://app?vid=84605b65-63a7-4d9c-a595-8329d63f174c","ios":"levelo://app?vid=84605b65-63a7-4d9c-a595-8329d63f174c"},"vehicle_type_id":"4","last_reported":1769694675,"current_range_meters":4000,"station_id":"ce4bgv92rcd13ifvqcq0","pricing_plan_id":"cebpf4jnsgd1na2vs0mg"},{"bike_id":"0a26c8e9-2f99-4e0d-ba04-988af31af134","system_id":"levelo_inurba_marseille","lat":43.29058,"lon":5.37153,"is_reserved":false,"is_disabled":false,"rental_uris":{"android":"levelo://app?vid=0a26c8e9-2f99-4e0d-ba04-988af31af134","ios":"levelo://app?vid=0a26c8e9-2f99-4e0d-ba04-988af31af134"},"vehicle_type_id":"4","last_reported":1769694675,"current_range_meters":4000,"station_id":"ce4bh5p2rcd13ifvqe4g","pricing_plan_id":"cebpf4jnsgd1na2vs0mg"},{"bike_id":"9328d8d0-a319-4fb2-9d4a-db2606a87040","system_id":"levelo_inurba_marseille","lat":43.24176,"lon":5.36452,"is_reserved":false,"is_disabled":false,"rental_uris":{"android":"levelo://app?vid=9328d8d0-a319-4fb2-9d4a-db2606a87040","ios":"levelo://app?vid=9328d8d0-a319-4fb2-9d4a-db2606a87040"},"vehicle_type_id":"4","last_reported":1769694675,"current_range_meters":4000,"station_id":"cpo36qri1sfpv3e86is0","pricing_plan_id":"cebpf4jnsgd1na2vs0mg"},{"bike_id":"7ccdc7ac-d32c-4a46-94c3-0ea21547aa92","system_id":"levelo_inurba_marseille","lat":43.32048,"lon":5.41537,"is_reserved":false,"is_disabled":false,"rental_uris":{"android":"levelo://app?vid=7ccdc7ac-d32c-4a46-94c3-0ea21547aa92","ios":"levelo://app?vid=7ccdc7ac-d32c-4a46-94c3-0ea21547aa92"},"vehicle_type_id":"4","last_reported":1769694675,"current_range_meters":4000,"station_id":"ce4bhq92rcd13ifvqhkg","pricing_plan_id":"cebpf4jnsgd1na2vs0mg"},{"bike_id":"c8a3924b-961d-462f-beaa-3323a63d317a","system_id":"levelo_inurba_marseille","lat":43.28025,"lon":5.40053,"is_reserved":false,"is_disabled":false,"rental_uris":{"android":"levelo://app?vid=c8a3924b-961d-462f-beaa-3323a63d317a","ios":"levelo://app?vid=c8a3924b-961d-462f-beaa-3323a63d317a"},"vehicle_type_id":"4","last_reported":1769694675,"current_range_meters":4000,"station_id":"ce4bho92rcd13ifvqh4g","pricing_plan_id":"cebpf4jnsgd1na2vs0mg"},{"bike_id":"ad760db1-c08e-4218-880f-506e66682432","system_id":"levelo_inurba_marseille","lat":43.29251,"lon":5.37931,"is_reserved":false,"is_disabled":false,"rental_uris":{"android":"levelo://app?vid=ad760db1-c08e-4218-880f-506e66682432","ios":"levelo://app?vid=ad760db1-c08e-4218-880f-506e66682432"},"vehicle_type_id":"4","last_reported":1769694675,"current_range_meters":4400,"station_id":"","pricing_plan_id":"cebpf4jnsgd1na2vs0mg"},{"bike_id":"e935b684-2252-4591-bcad-194e6919b365","system_id":"levelo_inurba_marseille","lat":43.29524,"lon":5.38536,"is_reserved":false,"is_disabled":false,"rental_uris":{"android":"levelo://app?vid=e935b684-2252-4591-bcad-194e6919b365","ios":"levelo://app?vid=e935b684-2252-4591-bcad-194e6919b365"},"vehicle_type_id":"4","last_reported":1769694675,"current_range_meters":4400,"station_id":"ce4bgih2rcd13ifvqba0","pricing_plan_id":"cebpf4jnsgd1na2vs0mg"},{"bike_id":"8b6f74d6-6a04-44c0-ad91-33076c2c042d","system_id":"levelo_inurba_marseille","lat":43.30778,"lon":5.37658,"is_reserved":false,"is_disabled":false,"rental_uris":{"android":"levelo://app?vid=8b6f74d6-6a04-44c0-ad91-33076c2c042d","ios":"levelo://app?vid=8b6f74d6-6a04-44c0-ad91-33076c2c042d"},"vehicle_type_id":"4","last_reported":1769694675,"current_range_meters":4400,"station_id":"ce4bgv92rcd13ifvqcq0","pricing_plan_id":"cebpf4jnsgd1na2vs0mg"},{"bike_id":"c6d2fb33-3bc6-4a3f-b189-d6c0761b64cb","system_id":"levelo_inurba_marseille","lat":43.274246,"lon":5.394151,"is_reserved":false,"is_disabled":false,"rental_uris":{"android":"levelo://app?vid=c6d2fb33-3bc6-4a3f-b189-d6c0761b64cb","ios":"levelo://app?vid=c6d2fb33-3bc6-4a3f-b189-d6c0761b64cb"},"vehicle_type_id":"4","last_reported":1769694675,"current_range_meters":4400,"station_id":"ce4bhdp2rcd13ifvqf20","pricing_plan_id":"cebpf4jnsgd1na2vs0mg"},{"bike_id":"30522236-77be-4f1b-b6a3-a0e07ab76366","system_id":"levelo_inurba_marseille","lat":43.26204,"lon":5.3792,"is_reserved":false,"is_disabled":false,"rental_uris":{"android":"levelo://app?vid=30522236-77be-4f1b-b6a3-a0e07ab76366","ios":"levelo://app?vid=30522236-77be-4f1b-b6a3-a0e07ab76366"},"vehicle_type_id":"4","last_reported":1769694675,"current_range_meters":4400,"station_id":"ce4bhjp2rcd13ifvqg90","pricing_plan_id":"cebpf4jnsgd1na2vs0mg"},{"bike_id":"dbee1d0b-020d-490d-a8ff-ba1073610b88","system_id":"levelo_inurba_marseille","lat":43.29943,"lon":5.43622,"is_reserved":false,"is_disabled":false,"rental_uris":{"android":"levelo://app?vid=dbee1d0b-020d-490d-a8ff-ba1073610b88","ios":"levelo://app?vid=dbee1d0b-020d-490d-a8ff-ba1073610b88"},"vehicle_type_id":"4","last_reported":1769694675,"current_range_meters":4400,"station_id":"","pricing_plan_id":"cebpf4jnsgd1na2vs0mg"},{"bike_id":"1c720da7-644c-47f3-8c82-72240e805398","system_id":"levelo_inurba_marseille","lat":43.30649,"lon":5.40102,"is_reserved":false,"is_disabled":false,"rental_uris":{"android":"levelo://app?vid=1c720da7-644c-47f3-8c82-72240e805398","ios":"levelo://app?vid=1c720da7-644c-47f3-8c82-72240e805398"},"vehicle_type_id":"4","last_reported":1769694675,"current_range_meters":4400,"station_id":"ce4bh112rcd13ifvqda0","pricing_plan_id":"cebpf4jnsgd1na2vs0mg"},{"bike_id":"94e563ee-2d52-4485-9749-42362e494182","system_id":"levelo_inurba_marseille","lat":43.22924,"lon":5.35379,"is_reserved":false,"is_disabled":false,"rental_uris":{"android":"levelo://app?vid=94e563ee-2d52-4485-9749-42362e494182","ios":"levelo://app?vid=94e563ee-2d52-4485-9749-42362e494182"},"vehicle_type_id":"4","last_reported":1769694675,"current_range_meters":4400,"station_id":"cpo3532slgdg3j2ikp40","pricing_plan_id":"cebpf4jnsgd1na2vs0mg"},{"bike_id":"3eec611c-d8cb-4b54-9748-ae62ab9ddb70","system_id":"levelo_inurba_marseille","lat":43.22932,"lon":5.35376,"is_reserved":false,"is_disabled":false,"rental_uris":{"android":"levelo://app?vid=3eec611c-d8cb-4b54-9748-ae62ab9ddb70","ios":"levelo://app?vid=3eec611c-d8cb-4b54-9748-ae62ab9ddb70"},"vehicle_type_id":"4","last_reported":1769694675,"current_range_meters":4400,"station_id":"cpo3532slgdg3j2ikp40","pricing_plan_id":"cebpf4jnsgd1na2vs0mg"},{"bike_id":"79009d73-0523-4c6d-91de-5993a965a866","system_id":"levelo_inurba_marseille","lat":43.25932,"lon":5.40897,"is_reserved":false,"is_disabled":false,"rental_uris":{"android":"levelo://app?vid=79009d73-0523-4c6d-91de-5993a965a866","ios":"levelo://app?vid=79009d73-0523-4c6d-91de-5993a965a866"},"vehicle_type_id":"4","last_reported":1769694675,"current_range_meters":4400,"station_id":"ce4bhm92rcd13ifvqglg","pricing_plan_id":"cebpf4jnsgd1na2vs0mg"},{"bike_id":"173ab4de-d4ca-4cdb-a11e-273ba50d301a","system_id":"levelo_inurba_marseille","lat":43.27065,"lon":5.40262,"is_reserved":false,"is_disabled":false,"rental_uris":{"android":"levelo://app?vid=173ab4de-d4ca-4cdb-a11e-273ba50d301a","ios":"levelo://app?vid=173ab4de-d4ca-4cdb-a11e-273ba50d301a"},"vehicle_type_id":"4","last_reported":1769694675,"current_range_meters":4800,"station_id":"ce4bhk92rcd13ifvqgc0","pricing_plan_id":"cebpf4jnsgd1na2vs0mg"},{"bike_id":"d1bb4cba-cd88-4d47-97f0-3f4bc8c8c8b2","system_id":"levelo_inurba_marseille","lat":43.3117,"lon":5.38716,"is_reserved":false,"is_disabled":false,"rental_uris":{"android":"levelo://app?vid=d1bb4cba-cd88-4d47-97f0-3f4bc8c8c8b2","ios":"levelo://app?vid=d1bb4cba-cd88-4d47-97f0-3f4bc8c8c8b2"},"vehicle_type_id":"4","last_reported":1769694675,"current_range_meters":4800,"station_id":"ce4bgv12rcd13ifvqcp0","pricing_plan_id":"cebpf4jnsgd1na2vs0mg"},{"bike_id":"a0b868ec-2b45-4930-a5d4-8831d547ffe0","system_id":"levelo_inurba_marseille","lat":43.26376,"lon":5.4015,"is_reserved":false,"is_disabled":false,"rental_uris":{"android":"levelo://app?vid=a0b868ec-2b45-4930-a5d4-8831d547ffe0","ios":"levelo://app?vid=a0b868ec-2b45-4930-a5d4-8831d547ffe0"},"vehicle_type_id":"4","last_reported":1769694675,"current_range_meters":4800,"station_id":"ce4bhqp2rcd13ifvqhng","pricing_plan_id":"cebpf4jnsgd1na2vs0mg"},{"bike_id":"01eff4d6-445e-467a-ad8e-fbe9c1187724","system_id":"levelo_inurba_marseille","lat":43.26956,"lon":5.38627,"is_reserved":false,"is_disabled":false,"rental_uris":{"android":"levelo://app?vid=01eff4d6-445e-467a-ad8e-fbe9c1187724","ios":"levelo://app?vid=01eff4d6-445e-467a-ad8e-fbe9c1187724"},"vehicle_type_id":"4","last_reported":1769694675,"current_range_meters":4800,"station_id":"ce4bhh92rcd13ifvqfh0","pricing_plan_id":"cebpf4jnsgd1na2vs0mg"},{"bike_id":"cec66a05-26cf-4271-b39f-d60a468d3a29","system_id":"levelo_inurba_marseille","lat":43.26185,"lon":5.37434,"is_reserved":false,"is_disabled":false,"rental_uris":{"android":"levelo://app?vid=cec66a05-26cf-4271-b39f-d60a468d3a29","ios":"levelo://app?vid=cec66a05-26cf-4271-b39f-d60a468d3a29"},"vehicle_type_id":"4","last_reported":1769694675,"current_range_meters":4800,"station_id":"ce4bhgp2rcd13ifvqfc0","pricing_plan_id":"cebpf4jnsgd1na2vs0mg"},{"bike_id":"ec92a3d7-0aaf-40cf-9513-2fb7d35cc0c4","system_id":"levelo_inurba_marseille","lat":43.23057,"lon":5.35489,"is_reserved":false,"is_disabled":false,"rental_uris":{"android":"levelo://app?vid=ec92a3d7-0aaf-40cf-9513-2fb7d35cc0c4","ios":"levelo://app?vid=ec92a3d7-0aaf-40cf-9513-2fb7d35cc0c4"},"vehicle_type_id":"4","last_reported":1769694675,"current_range_meters":4800,"station_id":"cpo3342slgdg3j2ifvpg","pricing_plan_id":"cebpf4jnsgd1na2vs0mg"},{"bike_id":"029c80a3-52af-443b-bb36-06defcaa362c","system_id":"levelo_inurba_marseille","lat":43.295615,"lon":5.375127,"is_reserved":false,"is_disabled":false,"rental_uris":{"android":"levelo://app?vid=029c80a3-52af-443b-bb36-06defcaa362c","ios":"levelo://app?vid=029c80a3-52af-443b-bb36-06defcaa362c"},"vehicle_type_id":"4","last_reported":1769694675,"current_range_meters":4800,"station_id":"ce4bgh92rcd13ifvqb50","pricing_plan_id":"cebpf4jnsgd1na2vs0mg"},{"bike_id":"adcf69d8-1927-438e-b914-5f915ba575b2","system_id":"levelo_inurba_marseille","lat":43.255805,"lon":5.382389,"is_reserved":false,"is_disabled":false,"rental_uris":{"android":"levelo://app?vid=adcf69d8-1927-438e-b914-5f915ba575b2","ios":"levelo://app?vid=adcf69d8-1927-438e-b914-5f915ba575b2"},"vehicle_type_id":"4","last_reported":1769694675,"current_range_meters":4800,"station_id":"ce4bhih2rcd13ifvqfs0","pricing_plan_id":"cebpf4jnsgd1na2vs0mg"},{"bike_id":"7e67e2c4-9054-45a1-97d6-f49a569dabd6","system_id":"levelo_inurba_marseille","lat":43.27329,"lon":5.39068,"is_reserved":false,"is_disabled":false,"rental_uris":{"android":"levelo://app?vid=7e67e2c4-9054-45a1-97d6-f49a569dabd6","ios":"levelo://app?vid=7e67e2c4-9054-45a1-97d6-f49a569dabd6"},"vehicle_type_id":"4","last_reported":1769694675,"current_range_meters":4800,"station_id":"ce4bhgp2rcd13ifvqfe0","pricing_plan_id":"cebpf4jnsgd1na2vs0mg"},{"bike_id":"16c201b7-ecb6-485b-9eae-e5630d7cca59","system_id":"levelo_inurba_marseille","lat":43.2606,"lon":5.39397,"is_reserved":false,"is_disabled":false,"rental_uris":{"android":"levelo://app?vid=16c201b7-ecb6-485b-9eae-e5630d7cca59","ios":"levelo://app?vid=16c201b7-ecb6-485b-9eae-e5630d7cca59"},"vehicle_type_id":"4","last_reported":1769694675,"current_range_meters":4800,"station_id":"ce4bhh92rcd13ifvqfj0","pricing_plan_id":"cebpf4jnsgd1na2vs0mg"},{"bike_id":"b595c27a-68a5-4a01-8281-37a9e80f1be4","system_id":"levelo_inurba_marseille","lat":43.23777,"lon":5.36644,"is_reserved":false,"is_disabled":false,"rental_uris":{"android":"levelo://app?vid=b595c27a-68a5-4a01-8281-37a9e80f1be4","ios":"levelo://app?vid=b595c27a-68a5-4a01-8281-37a9e80f1be4"},"vehicle_type_id":"4","last_reported":1769694675,"current_range_meters":5600,"station_id":"st_d3nk18o9ro0c73en2l3g","pricing_plan_id":"cebpf4jnsgd1na2vs0mg"},{"bike_id":"0c5850f8-016d-4e0b-8ca9-3ae4e72c7220","system_id":"levelo_inurba_marseille","lat":43.31748,"lon":5.38998,"is_reserved":false,"is_disabled":false,"rental_uris":{"android":"levelo://app?vid=0c5850f8-016d-4e0b-8ca9-3ae4e72c7220","ios":"levelo://app?vid=0c5850f8-016d-4e0b-8ca9-3ae4e72c7220"},"vehicle_type_id":"4","last_reported":1769694675,"current_range_meters":5600,"station_id":"ce4bhqp2rcd13ifvqhng","pricing_plan_id":"cebpf4jnsgd1na2vs0mg"},{"bike_id":"96ddcdc4-3d11-47dc-91b3-e1897ae67898","system_id":"levelo_inurba_marseille","lat":43.29551,"lon":5.42291,"is_reserved":false,"is_disabled":false,"rental_uris":{"android":"levelo://app?vid=96ddcdc4-3d11-47dc-91b3-e1897ae67898","ios":"levelo://app?vid=96ddcdc4-3d11-47dc-91b3-e1897ae67898"},"vehicle_type_id":"4","last_reported":1769694675,"current_range_meters":5600,"station_id":"ce4bhph2rcd13ifvqhdg","pricing_plan_id":"cebpf4jnsgd1na2vs0mg"},{"bike_id":"f2e56fcd-53d1-4906-836f-9a276c836675","system_id":"levelo_inurba_marseille","lat":43.26056,"lon":5.39386,"is_reserved":false,"is_disabled":false,"rental_uris":{"android":"levelo://app?vid=f2e56fcd-53d1-4906-836f-9a276c836675","ios":"levelo://app?vid=f2e56fcd-53d1-4906-836f-9a276c836675"},"vehicle_type_id":"4","last_reported":1769694675,"current_range_meters":5600,"station_id":"ce4bhh92rcd13ifvqfj0","pricing_plan_id":"cebpf4jnsgd1na2vs0mg"},{"bike_id":"fe999284-8f16-4d23-9dd2-cc860bec009a","system_id":"levelo_inurba_marseille","lat":43.24082,"lon":5.37756,"is_reserved":false,"is_disabled":false,"rental_uris":{"android":"levelo://app?vid=fe999284-8f16-4d23-9dd2-cc860bec009a","ios":"levelo://app?vid=fe999284-8f16-4d23-9dd2-cc860bec009a"},"vehicle_type_id":"4","last_reported":1769694675,"current_range_meters":5600,"station_id":"ce4bhnp2rcd13ifvqgvg","pricing_plan_id":"cebpf4jnsgd1na2vs0mg"},{"bike_id":"465c0a07-9b2c-463d-a28f-fb29e821c731","system_id":"levelo_inurba_marseille","lat":43.3028,"lon":5.38677,"is_reserved":false,"is_disabled":false,"rental_uris":{"android":"levelo://app?vid=465c0a07-9b2c-463d-a28f-fb29e821c731","ios":"levelo://app?vid=465c0a07-9b2c-463d-a28f-fb29e821c731"},"vehicle_type_id":"4","last_reported":1769694675,"current_range_meters":5600,"station_id":"","pricing_plan_id":"cebpf4jnsgd1na2vs0mg"},{"bike_id":"db91af1c-8610-46d2-8811-cba210a8ff4f","system_id":"levelo_inurba_marseille","lat":43.33282,"lon":5.37961,"is_reserved":false,"is_disabled":false,"rental_uris":{"android":"levelo://app?vid=db91af1c-8610-46d2-8811-cba210a8ff4f","ios":"levelo://app?vid=db91af1c-8610-46d2-8811-cba210a8ff4f"},"vehicle_type_id":"4","last_reported":1769694675,"current_range_meters":5600,"station_id":"","pricing_plan_id":"cebpf4jnsgd1na2vs0mg"},{"bike_id":"6e881c2c-57a7-4b62-a7e2-f4ef9dcc6bcb","system_id":"levelo_inurba_marseille","lat":43.28526,"lon":5.44089,"is_reserved":false,"is_disabled":false,"rental_uris":{"android":"levelo://app?vid=6e881c2c-57a7-4b62-a7e2-f4ef9dcc6bcb","ios":"levelo://app?vid=6e881c2c-57a7-4b62-a7e2-f4ef9dcc6bcb"},"vehicle_type_id":"4","last_reported":1769694675,"current_range_meters":5600,"station_id":"","pricing_plan_id":"cebpf4jnsgd1na2vs0mg"},{"bike_id":"ca1808b3-a68f-4c93-a71f-366fb10defb5","system_id":"levelo_inurba_marseille","lat":43.31345,"lon":5.36716,"is_reserved":false,"is_disabled":false,"rental_uris":{"android":"levelo://app?vid=ca1808b3-a68f-4c93-a71f-366fb10defb5","ios":"levelo://app?vid=ca1808b3-a68f-4c93-a71f-366fb10defb5"},"vehicle_type_id":"4","last_reported":1769694675,"current_range_meters":5600,"station_id":"ce4bgr92rcd13ifvqc6g","pricing_plan_id":"cebpf4jnsgd1na2vs0mg"},{"bike_id":"a958a596-6dc7-4192-931a-06b666b3c615","system_id":"levelo_inurba_marseille","lat":43.25943,"lon":5.40915,"is_reserved":false,"is_disabled":false,"rental_uris":{"android":"levelo://app?vid=a958a596-6dc7-4192-931a-06b666b3c615","ios":"levelo://app?vid=a958a596-6dc7-4192-931a-06b666b3c615"},"vehicle_type_id":"4","last_reported":1769694675,"current_range_meters":6000,"station_id":"ce4bhm92rcd13ifvqglg","pricing_plan_id":"cebpf4jnsgd1na2vs0mg"},{"bike_id":"60ebce89-9b49-41d8-b1d5-1fdb022bac99","system_id":"levelo_inurba_marseille","lat":43.33717,"lon":5.37481,"is_reserved":false,"is_disabled":false,"rental_uris":{"android":"levelo://app?vid=60ebce89-9b49-41d8-b1d5-1fdb022bac99","ios":"levelo://app?vid=60ebce89-9b49-41d8-b1d5-1fdb022bac99"},"vehicle_type_id":"4","last_reported":1769694675,"current_range_meters":6000,"station_id":"","pricing_plan_id":"cebpf4jnsgd1na2vs0mg"},{"bike_id":"c78dcfbf-910d-47ce-833b-7105b81ab7d5","system_id":"levelo_inurba_marseille","lat":43.31368,"lon":5.38492,"is_reserved":false,"is_disabled":false,"rental_uris":{"android":"levelo://app?vid=c78dcfbf-910d-47ce-833b-7105b81ab7d5","ios":"levelo://app?vid=c78dcfbf-910d-47ce-833b-7105b81ab7d5"},"vehicle_type_id":"4","last_reported":1769694675,"current_range_meters":6000,"station_id":"ce4bgt92rcd13ifvqcf0","pricing_plan_id":"cebpf4jnsgd1na2vs0mg"},{"bike_id":"09586d55-d979-48a3-a25c-b7661056bca6","system_id":"levelo_inurba_marseille","lat":43.26685,"lon":5.38272,"is_reserved":false,"is_disabled":false,"rental_uris":{"android":"levelo://app?vid=09586d55-d979-48a3-a25c-b7661056bca6","ios":"levelo://app?vid=09586d55-d979-48a3-a25c-b7661056bca6"},"vehicle_type_id":"4","last_reported":1769694675,"current_range_meters":6000,"station_id":"ce4bhg92rcd13ifvqf90","pricing_plan_id":"cebpf4jnsgd1na2vs0mg"},{"bike_id":"2091fd8b-82ef-4338-9ed3-42b40b6b35f0","system_id":"levelo_inurba_marseille","lat":43.30374,"lon":5.3806,"is_reserved":false,"is_disabled":false,"rental_uris":{"android":"levelo://app?vid=2091fd8b-82ef-4338-9ed3-42b40b6b35f0","ios":"levelo://app?vid=2091fd8b-82ef-4338-9ed3-42b40b6b35f0"},"vehicle_type_id":"4","last_reported":1769694675,"current_range_meters":6000,"station_id":"","pricing_plan_id":"cebpf4jnsgd1na2vs0mg"},{"bike_id":"b96775b7-8954-4f94-990f-968813344c58","system_id":"levelo_inurba_marseille","lat":43.31286,"lon":5.37782,"is_reserved":false,"is_disabled":false,"rental_uris":{"android":"levelo://app?vid=b96775b7-8954-4f94-990f-968813344c58","ios":"levelo://app?vid=b96775b7-8954-4f94-990f-968813344c58"},"vehicle_type_id":"4","last_reported":1769694675,"current_range_meters":6000,"station_id":"","pricing_plan_id":"cebpf4jnsgd1na2vs0mg"},{"bike_id":"83d96df5-081e-43ee-952b-92a2b06f6540","system_id":"levelo_inurba_marseille","lat":43.24441,"lon":5.37975,"is_reserved":false,"is_disabled":false,"rental_uris":{"android":"levelo://app?vid=83d96df5-081e-43ee-952b-92a2b06f6540","ios":"levelo://app?vid=83d96df5-081e-43ee-952b-92a2b06f6540"},"vehicle_type_id":"4","last_reported":1769694675,"current_range_meters":6000,"station_id":"","pricing_plan_id":"cebpf4jnsgd1na2vs0mg"},{"bike_id":"f199aad2-9208-428d-9b2c-9b705d3e60f3","system_id":"levelo_inurba_marseille","lat":43.31379,"lon":5.38518,"is_reserved":false,"is_disabled":false,"rental_uris":{"android":"levelo://app?vid=f199aad2-9208-428d-9b2c-9b705d3e60f3","ios":"levelo://app?vid=f199aad2-9208-428d-9b2c-9b705d3e60f3"},"vehicle_type_id":"4","last_reported":1769694675,"current_range_meters":6000,"station_id":"ce4bgt92rcd13ifvqcf0","pricing_plan_id":"cebpf4jnsgd1na2vs0mg"},{"bike_id":"27087403-bf37-4e5d-979b-be5b9725cc89","system_id":"levelo_inurba_marseille","lat":43.24176,"lon":5.39716,"is_reserved":false,"is_disabled":false,"rental_uris":{"android":"levelo://app?vid=27087403-bf37-4e5d-979b-be5b9725cc89","ios":"levelo://app?vid=27087403-bf37-4e5d-979b-be5b9725cc89"},"vehicle_type_id":"4","last_reported":1769694675,"current_range_meters":6400,"station_id":"ce4bhn12rcd13ifvqgpg","pricing_plan_id":"cebpf4jnsgd1na2vs0mg"},{"bike_id":"58022e6b-e8b4-4df0-a9d5-624e66fc92ee","system_id":"levelo_inurba_marseille","lat":43.28198,"lon":5.39039,"is_reserved":false,"is_disabled":false,"rental_uris":{"android":"levelo://app?vid=58022e6b-e8b4-4df0-a9d5-624e66fc92ee","ios":"levelo://app?vid=58022e6b-e8b4-4df0-a9d5-624e66fc92ee"},"vehicle_type_id":"4","last_reported":1769694675,"current_range_meters":6400,"station_id":"ce4bhn92rcd13ifvqgsg","pricing_plan_id":"cebpf4jnsgd1na2vs0mg"},{"bike_id":"be7a4d7e-1984-4b23-8b92-0f9bbe591f55","system_id":"levelo_inurba_marseille","lat":43.28867,"lon":5.42506,"is_reserved":false,"is_disabled":false,"rental_uris":{"android":"levelo://app?vid=be7a4d7e-1984-4b23-8b92-0f9bbe591f55","ios":"levelo://app?vid=be7a4d7e-1984-4b23-8b92-0f9bbe591f55"},"vehicle_type_id":"4","last_reported":1769694675,"current_range_meters":6400,"station_id":"st_d3b462108ojc7389ooeg","pricing_plan_id":"cebpf4jnsgd1na2vs0mg"},{"bike_id":"85b1b1e1-c458-4711-86a6-2ddb2584b733","system_id":"levelo_inurba_marseille","lat":43.3353,"lon":5.37458,"is_reserved":false,"is_disabled":false,"rental_uris":{"android":"levelo://app?vid=85b1b1e1-c458-4711-86a6-2ddb2584b733","ios":"levelo://app?vid=85b1b1e1-c458-4711-86a6-2ddb2584b733"},"vehicle_type_id":"4","last_reported":1769694675,"current_range_meters":6400,"station_id":"st_d46tts09ee8s73dlu43g","pricing_plan_id":"cebpf4jnsgd1na2vs0mg"},{"bike_id":"40bc4716-cb6f-4ad1-8f92-ec521cff2039","system_id":"levelo_inurba_marseille","lat":43.28073,"lon":5.39644,"is_reserved":false,"is_disabled":false,"rental_uris":{"android":"levelo://app?vid=40bc4716-cb6f-4ad1-8f92-ec521cff2039","ios":"levelo://app?vid=40bc4716-cb6f-4ad1-8f92-ec521cff2039"},"vehicle_type_id":"4","last_reported":1769694675,"current_range_meters":6400,"station_id":"ce4bho12rcd13ifvqh2g","pricing_plan_id":"cebpf4jnsgd1na2vs0mg"},{"bike_id":"3ccee4a4-a5bc-4ac1-9bdc-3455c28961e8","system_id":"levelo_inurba_marseille","lat":43.24819,"lon":5.37443,"is_reserved":false,"is_disabled":false,"rental_uris":{"android":"levelo://app?vid=3ccee4a4-a5bc-4ac1-9bdc-3455c28961e8","ios":"levelo://app?vid=3ccee4a4-a5bc-4ac1-9bdc-3455c28961e8"},"vehicle_type_id":"4","last_reported":1769694675,"current_range_meters":6400,"station_id":"ce4bhgh2rcd13ifvqfb0","pricing_plan_id":"cebpf4jnsgd1na2vs0mg"},{"bike_id":"802f6e05-7249-407a-aac4-32d2041628b8","system_id":"levelo_inurba_marseille","lat":43.23055,"lon":5.3549,"is_reserved":false,"is_disabled":false,"rental_uris":{"android":"levelo://app?vid=802f6e05-7249-407a-aac4-32d2041628b8","ios":"levelo://app?vid=802f6e05-7249-407a-aac4-32d2041628b8"},"vehicle_type_id":"4","last_reported":1769694675,"current_range_meters":6400,"station_id":"cpo3342slgdg3j2ifvpg","pricing_plan_id":"cebpf4jnsgd1na2vs0mg"},{"bike_id":"b0eb0437-5aec-4ed8-ba2a-b2fc816a75a6","system_id":"levelo_inurba_marseille","lat":43.30413,"lon":5.39759,"is_reserved":false,"is_disabled":false,"rental_uris":{"android":"levelo://app?vid=b0eb0437-5aec-4ed8-ba2a-b2fc816a75a6","ios":"levelo://app?vid=b0eb0437-5aec-4ed8-ba2a-b2fc816a75a6"},"vehicle_type_id":"4","last_reported":1769694675,"current_range_meters":6400,"station_id":"ce4bh092rcd13ifvqd20","pricing_plan_id":"cebpf4jnsgd1na2vs0mg"},{"bike_id":"ac605ac9-20fd-41ab-b16b-356ba124b9b7","system_id":"levelo_inurba_marseille","lat":43.27221,"lon":5.42808,"is_reserved":false,"is_disabled":false,"rental_uris":{"android":"levelo://app?vid=ac605ac9-20fd-41ab-b16b-356ba124b9b7","ios":"levelo://app?vid=ac605ac9-20fd-41ab-b16b-356ba124b9b7"},"vehicle_type_id":"4","last_reported":1769694675,"current_range_meters":6400,"station_id":"","pricing_plan_id":"cebpf4jnsgd1na2vs0mg"},{"bike_id":"cbe32f4f-b06e-4afa-937c-c006699af828","system_id":"levelo_inurba_marseille","lat":43.25931,"lon":5.40924,"is_reserved":false,"is_disabled":false,"rental_uris":{"android":"levelo://app?vid=cbe32f4f-b06e-4afa-937c-c006699af828","ios":"levelo://app?vid=cbe32f4f-b06e-4afa-937c-c006699af828"},"vehicle_type_id":"4","last_reported":1769694675,"current_range_meters":6400,"station_id":"ce4bhm92rcd13ifvqglg","pricing_plan_id":"cebpf4jnsgd1na2vs0mg"},{"bike_id":"cef89498-fbf9-4ad5-afa6-46a5eea10249","system_id":"levelo_inurba_marseille","lat":43.27321,"lon":5.40962,"is_reserved":false,"is_disabled":false,"rental_uris":{"android":"levelo://app?vid=cef89498-fbf9-4ad5-afa6-46a5eea10249","ios":"levelo://app?vid=cef89498-fbf9-4ad5-afa6-46a5eea10249"},"vehicle_type_id":"4","last_reported":1769694675,"current_range_meters":6400,"station_id":"","pricing_plan_id":"cebpf4jnsgd1na2vs0mg"},{"bike_id":"b832276f-e88a-4ccb-9e43-277713f202f2","system_id":"levelo_inurba_marseille","lat":43.3234,"lon":5.38912,"is_reserved":false,"is_disabled":false,"rental_uris":{"android":"levelo://app?vid=b832276f-e88a-4ccb-9e43-277713f202f2","ios":"levelo://app?vid=b832276f-e88a-4ccb-9e43-277713f202f2"},"vehicle_type_id":"4","last_reported":1769694675,"current_range_meters":6400,"station_id":"ce4bhqp2rcd13ifvqhog","pricing_plan_id":"cebpf4jnsgd1na2vs0mg"},{"bike_id":"214eee7e-1a26-439f-87b0-44a9924854a5","system_id":"levelo_inurba_marseille","lat":43.30142,"lon":5.38085,"is_reserved":false,"is_disabled":false,"rental_uris":{"android":"levelo://app?vid=214eee7e-1a26-439f-87b0-44a9924854a5","ios":"levelo://app?vid=214eee7e-1a26-439f-87b0-44a9924854a5"},"vehicle_type_id":"4","last_reported":1769694675,"current_range_meters":6400,"station_id":"ce4bgjp2rcd13ifvqbh0","pricing_plan_id":"cebpf4jnsgd1na2vs0mg"},{"bike_id":"e44d6c0d-4cdc-487c-87b1-e5cf7cd1bdd8","system_id":"levelo_inurba_marseille","lat":43.27693,"lon":5.38868,"is_reserved":false,"is_disabled":false,"rental_uris":{"android":"levelo://app?vid=e44d6c0d-4cdc-487c-87b1-e5cf7cd1bdd8","ios":"levelo://app?vid=e44d6c0d-4cdc-487c-87b1-e5cf7cd1bdd8"},"vehicle_type_id":"4","last_reported":1769694675,"current_range_meters":6800,"station_id":"ce4bhi12rcd13ifvqfo0","pricing_plan_id":"cebpf4jnsgd1na2vs0mg"},{"bike_id":"ec911151-785b-471f-816f-85abb26c2bab","system_id":"levelo_inurba_marseille","lat":43.32356,"lon":5.36747,"is_reserved":false,"is_disabled":false,"rental_uris":{"android":"levelo://app?vid=ec911151-785b-471f-816f-85abb26c2bab","ios":"levelo://app?vid=ec911151-785b-471f-816f-85abb26c2bab"},"vehicle_type_id":"4","last_reported":1769694675,"current_range_meters":6800,"station_id":"ce4bhsh2rcd13ifvqi2g","pricing_plan_id":"cebpf4jnsgd1na2vs0mg"},{"bike_id":"ca8aa705-78fb-4dba-a3eb-862afc625597","system_id":"levelo_inurba_marseille","lat":43.288684,"lon":5.425269,"is_reserved":false,"is_disabled":false,"rental_uris":{"android":"levelo://app?vid=ca8aa705-78fb-4dba-a3eb-862afc625597","ios":"levelo://app?vid=ca8aa705-78fb-4dba-a3eb-862afc625597"},"vehicle_type_id":"4","last_reported":1769694675,"current_range_meters":6800,"station_id":"st_d3b462108ojc7389ooeg","pricing_plan_id":"cebpf4jnsgd1na2vs0mg"},{"bike_id":"8252e483-8cd2-4e1f-8159-245c555c915e","system_id":"levelo_inurba_marseille","lat":43.22933,"lon":5.35379,"is_reserved":false,"is_disabled":false,"rental_uris":{"android":"levelo://app?vid=8252e483-8cd2-4e1f-8159-245c555c915e","ios":"levelo://app?vid=8252e483-8cd2-4e1f-8159-245c555c915e"},"vehicle_type_id":"4","last_reported":1769694675,"current_range_meters":6800,"station_id":"cpo3532slgdg3j2ikp40","pricing_plan_id":"cebpf4jnsgd1na2vs0mg"},{"bike_id":"1c8c849d-1cb3-4d0a-ac51-77f8c235afb9","system_id":"levelo_inurba_marseille","lat":43.25941,"lon":5.40908,"is_reserved":false,"is_disabled":false,"rental_uris":{"android":"levelo://app?vid=1c8c849d-1cb3-4d0a-ac51-77f8c235afb9","ios":"levelo://app?vid=1c8c849d-1cb3-4d0a-ac51-77f8c235afb9"},"vehicle_type_id":"4","last_reported":1769694675,"current_range_meters":6800,"station_id":"ce4bhm92rcd13ifvqglg","pricing_plan_id":"cebpf4jnsgd1na2vs0mg"},{"bike_id":"1c0f6b9a-0d71-4e24-88b9-78f5309e65b8","system_id":"levelo_inurba_marseille","lat":43.33534,"lon":5.37467,"is_reserved":false,"is_disabled":false,"rental_uris":{"android":"levelo://app?vid=1c0f6b9a-0d71-4e24-88b9-78f5309e65b8","ios":"levelo://app?vid=1c0f6b9a-0d71-4e24-88b9-78f5309e65b8"},"vehicle_type_id":"4","last_reported":1769694675,"current_range_meters":6800,"station_id":"st_d46tts09ee8s73dlu43g","pricing_plan_id":"cebpf4jnsgd1na2vs0mg"},{"bike_id":"eda9c3ae-7ccd-46bc-ad2e-bc5c85d71baa","system_id":"levelo_inurba_marseille","lat":43.27499,"lon":5.42454,"is_reserved":false,"is_disabled":false,"rental_uris":{"android":"levelo://app?vid=eda9c3ae-7ccd-46bc-ad2e-bc5c85d71baa","ios":"levelo://app?vid=eda9c3ae-7ccd-46bc-ad2e-bc5c85d71baa"},"vehicle_type_id":"4","last_reported":1769694675,"current_range_meters":6800,"station_id":"ce4bhn92rcd13ifvqgrg","pricing_plan_id":"cebpf4jnsgd1na2vs0mg"},{"bike_id":"3d405854-a3e9-4cc4-bcac-5ce2eff49e57","system_id":"levelo_inurba_marseille","lat":43.2321,"lon":5.39995,"is_reserved":false,"is_disabled":false,"rental_uris":{"android":"levelo://app?vid=3d405854-a3e9-4cc4-bcac-5ce2eff49e57","ios":"levelo://app?vid=3d405854-a3e9-4cc4-bcac-5ce2eff49e57"},"vehicle_type_id":"4","last_reported":1769694675,"current_range_meters":6800,"station_id":"ce4bhn12rcd13ifvqgqg","pricing_plan_id":"cebpf4jnsgd1na2vs0mg"},{"bike_id":"5f330433-3ea8-40f5-9ff5-5eaee2b02c44","system_id":"levelo_inurba_marseille","lat":43.29515,"lon":5.375,"is_reserved":false,"is_disabled":false,"rental_uris":{"android":"levelo://app?vid=5f330433-3ea8-40f5-9ff5-5eaee2b02c44","ios":"levelo://app?vid=5f330433-3ea8-40f5-9ff5-5eaee2b02c44"},"vehicle_type_id":"4","last_reported":1769694675,"current_range_meters":6800,"station_id":"ce4bgkp2rcd13ifvqbmg","pricing_plan_id":"cebpf4jnsgd1na2vs0mg"},{"bike_id":"a1adbbcc-56be-41a6-a560-f4a5e4282b51","system_id":"levelo_inurba_marseille","lat":43.28412,"lon":5.34985,"is_reserved":false,"is_disabled":false,"rental_uris":{"android":"levelo://app?vid=a1adbbcc-56be-41a6-a560-f4a5e4282b51","ios":"levelo://app?vid=a1adbbcc-56be-41a6-a560-f4a5e4282b51"},"vehicle_type_id":"4","last_reported":1769694675,"current_range_meters":6800,"station_id":"ce4bhbh2rcd13ifvqepg","pricing_plan_id":"cebpf4jnsgd1na2vs0mg"},{"bike_id":"39ce936d-a259-48fc-ad2d-5b0d2f2834c1","system_id":"levelo_inurba_marseille","lat":43.337444,"lon":5.374475,"is_reserved":false,"is_disabled":false,"rental_uris":{"android":"levelo://app?vid=39ce936d-a259-48fc-ad2d-5b0d2f2834c1","ios":"levelo://app?vid=39ce936d-a259-48fc-ad2d-5b0d2f2834c1"},"vehicle_type_id":"4","last_reported":1769694675,"current_range_meters":6800,"station_id":"ce4bhhh2rcd13ifvqfk0","pricing_plan_id":"cebpf4jnsgd1na2vs0mg"},{"bike_id":"9c8f9e9c-f541-493a-b4f1-3079122a469e","system_id":"levelo_inurba_marseille","lat":43.31278,"lon":5.40171,"is_reserved":false,"is_disabled":false,"rental_uris":{"android":"levelo://app?vid=9c8f9e9c-f541-493a-b4f1-3079122a469e","ios":"levelo://app?vid=9c8f9e9c-f541-493a-b4f1-3079122a469e"},"vehicle_type_id":"4","last_reported":1769694675,"current_range_meters":6800,"station_id":"ce4bh092rcd13ifvqd30","pricing_plan_id":"cebpf4jnsgd1na2vs0mg"},{"bike_id":"8c50cc1b-6957-4db2-9b96-76d9d37bac03","system_id":"levelo_inurba_marseille","lat":43.22561,"lon":5.41624,"is_reserved":false,"is_disabled":false,"rental_uris":{"android":"levelo://app?vid=8c50cc1b-6957-4db2-9b96-76d9d37bac03","ios":"levelo://app?vid=8c50cc1b-6957-4db2-9b96-76d9d37bac03"},"vehicle_type_id":"4","last_reported":1769694675,"current_range_meters":6800,"station_id":"st_d2o4gvlbi1j2169b742g","pricing_plan_id":"cebpf4jnsgd1na2vs0mg"},{"bike_id":"2fe53a9e-0031-42b5-9c30-304e490c277d","system_id":"levelo_inurba_marseille","lat":43.29306,"lon":5.37155,"is_reserved":false,"is_disabled":false,"rental_uris":{"android":"levelo://app?vid=2fe53a9e-0031-42b5-9c30-304e490c277d","ios":"levelo://app?vid=2fe53a9e-0031-42b5-9c30-304e490c277d"},"vehicle_type_id":"4","last_reported":1769694675,"current_range_meters":6800,"station_id":"ce4bgh92rcd13ifvqb40","pricing_plan_id":"cebpf4jnsgd1na2vs0mg"},{"bike_id":"51e33b43-0b63-43c6-8dbf-365699605da8","system_id":"levelo_inurba_marseille","lat":43.26998,"lon":5.39843,"is_reserved":false,"is_disabled":false,"rental_uris":{"android":"levelo://app?vid=51e33b43-0b63-43c6-8dbf-365699605da8","ios":"levelo://app?vid=51e33b43-0b63-43c6-8dbf-365699605da8"},"vehicle_type_id":"4","last_reported":1769694675,"current_range_meters":6800,"station_id":"","pricing_plan_id":"cebpf4jnsgd1na2vs0mg"},{"bike_id":"5e741e3e-d0c3-4900-bc99-2b675ee74056","system_id":"levelo_inurba_marseille","lat":43.32494,"lon":5.38298,"is_reserved":false,"is_disabled":false,"rental_uris":{"android":"levelo://app?vid=5e741e3e-d0c3-4900-bc99-2b675ee74056","ios":"levelo://app?vid=5e741e3e-d0c3-4900-bc99-2b675ee74056"},"vehicle_type_id":"4","last_reported":1769694675,"current_range_meters":6800,"station_id":"st_d4asgbiv49dc73anf9m0","pricing_plan_id":"cebpf4jnsgd1na2vs0mg"},{"bike_id":"e322fbc1-ba7d-4452-9d08-bc1a4a79174e","system_id":"levelo_inurba_marseille","lat":43.23159,"lon":5.43727,"is_reserved":false,"is_disabled":false,"rental_uris":{"android":"levelo://app?vid=e322fbc1-ba7d-4452-9d08-bc1a4a79174e","ios":"levelo://app?vid=e322fbc1-ba7d-4452-9d08-bc1a4a79174e"},"vehicle_type_id":"4","last_reported":1769694675,"current_range_meters":6800,"station_id":"ce4bhmp2rcd13ifvqgog","pricing_plan_id":"cebpf4jnsgd1na2vs0mg"},{"bike_id":"68499007-ff5a-40d6-ab79-d9e51af5110b","system_id":"levelo_inurba_marseille","lat":43.24375,"lon":5.3704,"is_reserved":false,"is_disabled":false,"rental_uris":{"android":"levelo://app?vid=68499007-ff5a-40d6-ab79-d9e51af5110b","ios":"levelo://app?vid=68499007-ff5a-40d6-ab79-d9e51af5110b"},"vehicle_type_id":"4","last_reported":1769694675,"current_range_meters":6800,"station_id":"ce4bhhh2rcd13ifvqfk0","pricing_plan_id":"cebpf4jnsgd1na2vs0mg"},{"bike_id":"2652d77c-a95c-4be5-863e-1313801b0b3e","system_id":"levelo_inurba_marseille","lat":43.28264,"lon":5.35063,"is_reserved":false,"is_disabled":false,"rental_uris":{"android":"levelo://app?vid=2652d77c-a95c-4be5-863e-1313801b0b3e","ios":"levelo://app?vid=2652d77c-a95c-4be5-863e-1313801b0b3e"},"vehicle_type_id":"4","last_reported":1769694675,"current_range_meters":6800,"station_id":"ce4bhbp2rcd13ifvqerg","pricing_plan_id":"cebpf4jnsgd1na2vs0mg"},{"bike_id":"acc27e73-9964-4823-99e4-84d349c9aaf7","system_id":"levelo_inurba_marseille","lat":43.30547,"lon":5.36528,"is_reserved":false,"is_disabled":false,"rental_uris":{"android":"levelo://app?vid=acc27e73-9964-4823-99e4-84d349c9aaf7","ios":"levelo://app?vid=acc27e73-9964-4823-99e4-84d349c9aaf7"},"vehicle_type_id":"4","last_reported":1769694675,"current_range_meters":7200,"station_id":"ce4bgs12rcd13ifvqcag","pricing_plan_id":"cebpf4jnsgd1na2vs0mg"},{"bike_id":"41b6ea61-4e32-4971-9060-10fe0d4c5af6","system_id":"levelo_inurba_marseille","lat":43.285953,"lon":5.370532,"is_reserved":false,"is_disabled":false,"rental_uris":{"android":"levelo://app?vid=41b6ea61-4e32-4971-9060-10fe0d4c5af6","ios":"levelo://app?vid=41b6ea61-4e32-4971-9060-10fe0d4c5af6"},"vehicle_type_id":"4","last_reported":1769694675,"current_range_meters":7200,"station_id":"ce4bht12rcd13ifvqi60","pricing_plan_id":"cebpf4jnsgd1na2vs0mg"},{"bike_id":"bb6db0b0-a7e3-42a8-992e-e2e55dc89d52","system_id":"levelo_inurba_marseille","lat":43.3316,"lon":5.37696,"is_reserved":false,"is_disabled":false,"rental_uris":{"android":"levelo://app?vid=bb6db0b0-a7e3-42a8-992e-e2e55dc89d52","ios":"levelo://app?vid=bb6db0b0-a7e3-42a8-992e-e2e55dc89d52"},"vehicle_type_id":"4","last_reported":1769694675,"current_range_meters":7200,"station_id":"st_d46cu089ee8s73dldbu0","pricing_plan_id":"cebpf4jnsgd1na2vs0mg"},{"bike_id":"59d7c568-6724-480d-b1e6-ba1e4cc63559","system_id":"levelo_inurba_marseille","lat":43.29276,"lon":5.37161,"is_reserved":false,"is_disabled":false,"rental_uris":{"android":"levelo://app?vid=59d7c568-6724-480d-b1e6-ba1e4cc63559","ios":"levelo://app?vid=59d7c568-6724-480d-b1e6-ba1e4cc63559"},"vehicle_type_id":"4","last_reported":1769694675,"current_range_meters":7200,"station_id":"ce4bgh92rcd13ifvqb40","pricing_plan_id":"cebpf4jnsgd1na2vs0mg"},{"bike_id":"975330ee-1b2e-491e-9cd5-f27caf4ed7ea","system_id":"levelo_inurba_marseille","lat":43.259402,"lon":5.409134,"is_reserved":false,"is_disabled":false,"rental_uris":{"android":"levelo://app?vid=975330ee-1b2e-491e-9cd5-f27caf4ed7ea","ios":"levelo://app?vid=975330ee-1b2e-491e-9cd5-f27caf4ed7ea"},"vehicle_type_id":"4","last_reported":1769694675,"current_range_meters":7200,"station_id":"ce4bhm92rcd13ifvqglg","pricing_plan_id":"cebpf4jnsgd1na2vs0mg"},{"bike_id":"65eb5cb0-a6f7-4de3-a9be-a5e0a4386045","system_id":"levelo_inurba_marseille","lat":43.33144,"lon":5.37701,"is_reserved":false,"is_disabled":false,"rental_uris":{"android":"levelo://app?vid=65eb5cb0-a6f7-4de3-a9be-a5e0a4386045","ios":"levelo://app?vid=65eb5cb0-a6f7-4de3-a9be-a5e0a4386045"},"vehicle_type_id":"4","last_reported":1769694675,"current_range_meters":7200,"station_id":"st_d46cu089ee8s73dldbu0","pricing_plan_id":"cebpf4jnsgd1na2vs0mg"},{"bike_id":"e236f0a6-2e87-48ed-94ce-e49f696f4842","system_id":"levelo_inurba_marseille","lat":43.26607,"lon":5.37513,"is_reserved":false,"is_disabled":false,"rental_uris":{"android":"levelo://app?vid=e236f0a6-2e87-48ed-94ce-e49f696f4842","ios":"levelo://app?vid=e236f0a6-2e87-48ed-94ce-e49f696f4842"},"vehicle_type_id":"4","last_reported":1769694675,"current_range_meters":7200,"station_id":"","pricing_plan_id":"cebpf4jnsgd1na2vs0mg"},{"bike_id":"3d61244e-0dde-42a1-8efa-05e556593c38","system_id":"levelo_inurba_marseille","lat":43.2256,"lon":5.4161,"is_reserved":false,"is_disabled":false,"rental_uris":{"android":"levelo://app?vid=3d61244e-0dde-42a1-8efa-05e556593c38","ios":"levelo://app?vid=3d61244e-0dde-42a1-8efa-05e556593c38"},"vehicle_type_id":"4","last_reported":1769694675,"current_range_meters":7200,"station_id":"st_d2o4gvlbi1j2169b742g","pricing_plan_id":"cebpf4jnsgd1na2vs0mg"},{"bike_id":"32e71fc4-e929-4075-822f-a95a396e66d2","system_id":"levelo_inurba_marseille","lat":43.313532,"lon":5.36714,"is_reserved":false,"is_disabled":false,"rental_uris":{"android":"levelo://app?vid=32e71fc4-e929-4075-822f-a95a396e66d2","ios":"levelo://app?vid=32e71fc4-e929-4075-822f-a95a396e66d2"},"vehicle_type_id":"4","last_reported":1769694675,"current_range_meters":7200,"station_id":"ce4bgr92rcd13ifvqc6g","pricing_plan_id":"cebpf4jnsgd1na2vs0mg"},{"bike_id":"31c14499-86de-46e6-a67f-a12efc2510dc","system_id":"levelo_inurba_marseille","lat":43.23116,"lon":5.43646,"is_reserved":false,"is_disabled":false,"rental_uris":{"android":"levelo://app?vid=31c14499-86de-46e6-a67f-a12efc2510dc","ios":"levelo://app?vid=31c14499-86de-46e6-a67f-a12efc2510dc"},"vehicle_type_id":"4","last_reported":1769694675,"current_range_meters":7200,"station_id":"ce4bhmp2rcd13ifvqgog","pricing_plan_id":"cebpf4jnsgd1na2vs0mg"},{"bike_id":"ae2bd00b-86f2-42b9-8e4e-3fa74e019d82","system_id":"levelo_inurba_marseille","lat":43.23181,"lon":5.39992,"is_reserved":false,"is_disabled":false,"rental_uris":{"android":"levelo://app?vid=ae2bd00b-86f2-42b9-8e4e-3fa74e019d82","ios":"levelo://app?vid=ae2bd00b-86f2-42b9-8e4e-3fa74e019d82"},"vehicle_type_id":"4","last_reported":1769694675,"current_range_meters":7200,"station_id":"ce4bhn12rcd13ifvqgqg","pricing_plan_id":"cebpf4jnsgd1na2vs0mg"},{"bike_id":"9e3577ff-a33c-4ee9-9fc4-fcb53217c03a","system_id":"levelo_inurba_marseille","lat":43.29912,"lon":5.37468,"is_reserved":false,"is_disabled":false,"rental_uris":{"android":"levelo://app?vid=9e3577ff-a33c-4ee9-9fc4-fcb53217c03a","ios":"levelo://app?vid=9e3577ff-a33c-4ee9-9fc4-fcb53217c03a"},"vehicle_type_id":"4","last_reported":1769694675,"current_range_meters":7200,"station_id":"ce4bgjh2rcd13ifvqbg0","pricing_plan_id":"cebpf4jnsgd1na2vs0mg"},{"bike_id":"626f2e49-da66-4aca-b419-36ccc5e515c3","system_id":"levelo_inurba_marseille","lat":43.24626,"lon":5.43156,"is_reserved":false,"is_disabled":false,"rental_uris":{"android":"levelo://app?vid=626f2e49-da66-4aca-b419-36ccc5e515c3","ios":"levelo://app?vid=626f2e49-da66-4aca-b419-36ccc5e515c3"},"vehicle_type_id":"4","last_reported":1769694675,"current_range_meters":7200,"station_id":"st_d2m6c4gdas8pm72e190g","pricing_plan_id":"cebpf4jnsgd1na2vs0mg"},{"bike_id":"764851d5-2cce-4759-9d0b-4fa276ea15ed","system_id":"levelo_inurba_marseille","lat":43.28268,"lon":5.35075,"is_reserved":false,"is_disabled":false,"rental_uris":{"android":"levelo://app?vid=764851d5-2cce-4759-9d0b-4fa276ea15ed","ios":"levelo://app?vid=764851d5-2cce-4759-9d0b-4fa276ea15ed"},"vehicle_type_id":"4","last_reported":1769694675,"current_range_meters":7200,"station_id":"ce4bhbp2rcd13ifvqerg","pricing_plan_id":"cebpf4jnsgd1na2vs0mg"},{"bike_id":"39753960-3c7e-4e4a-acb2-25c74c17dd07","system_id":"levelo_inurba_marseille","lat":43.229331,"lon":5.353799,"is_reserved":false,"is_disabled":false,"rental_uris":{"android":"levelo://app?vid=39753960-3c7e-4e4a-acb2-25c74c17dd07","ios":"levelo://app?vid=39753960-3c7e-4e4a-acb2-25c74c17dd07"},"vehicle_type_id":"4","last_reported":1769694675,"current_range_meters":7200,"station_id":"cpo3532slgdg3j2ikp40","pricing_plan_id":"cebpf4jnsgd1na2vs0mg"},{"bike_id":"a46ef45b-9a02-4556-883b-7bedf5a3e8e7","system_id":"levelo_inurba_marseille","lat":43.25574,"lon":5.3823,"is_reserved":false,"is_disabled":false,"rental_uris":{"android":"levelo://app?vid=a46ef45b-9a02-4556-883b-7bedf5a3e8e7","ios":"levelo://app?vid=a46ef45b-9a02-4556-883b-7bedf5a3e8e7"},"vehicle_type_id":"4","last_reported":1769694675,"current_range_meters":7200,"station_id":"ce4bhih2rcd13ifvqfs0","pricing_plan_id":"cebpf4jnsgd1na2vs0mg"},{"bike_id":"a89bdadf-8855-40f2-afbd-3e7c167e2483","system_id":"levelo_inurba_marseille","lat":43.30146,"lon":5.38092,"is_reserved":false,"is_disabled":false,"rental_uris":{"android":"levelo://app?vid=a89bdadf-8855-40f2-afbd-3e7c167e2483","ios":"levelo://app?vid=a89bdadf-8855-40f2-afbd-3e7c167e2483"},"vehicle_type_id":"4","last_reported":1769694675,"current_range_meters":7200,"station_id":"ce4bgjp2rcd13ifvqbh0","pricing_plan_id":"cebpf4jnsgd1na2vs0mg"},{"bike_id":"1bc6bed1-d3bb-40b8-bbf9-84eb3b38952a","system_id":"levelo_inurba_marseille","lat":43.29044,"lon":5.399438,"is_reserved":false,"is_disabled":false,"rental_uris":{"android":"levelo://app?vid=1bc6bed1-d3bb-40b8-bbf9-84eb3b38952a","ios":"levelo://app?vid=1bc6bed1-d3bb-40b8-bbf9-84eb3b38952a"},"vehicle_type_id":"4","last_reported":1769694675,"current_range_meters":7200,"station_id":"ce4bh392rcd13ifvqdm0","pricing_plan_id":"cebpf4jnsgd1na2vs0mg"},{"bike_id":"932bb106-3c96-4dbf-947d-0b48571ad9e2","system_id":"levelo_inurba_marseille","lat":43.27382,"lon":5.36262,"is_reserved":false,"is_disabled":false,"rental_uris":{"android":"levelo://app?vid=932bb106-3c96-4dbf-947d-0b48571ad9e2","ios":"levelo://app?vid=932bb106-3c96-4dbf-947d-0b48571ad9e2"},"vehicle_type_id":"4","last_reported":1769694675,"current_range_meters":8000,"station_id":"ce4bhbh2rcd13ifvqeo0","pricing_plan_id":"cebpf4jnsgd1na2vs0mg"},{"bike_id":"15698324-3145-4547-849e-2fd8a77ba3ab","system_id":"levelo_inurba_marseille","lat":43.27374,"lon":5.36251,"is_reserved":false,"is_disabled":false,"rental_uris":{"android":"levelo://app?vid=15698324-3145-4547-849e-2fd8a77ba3ab","ios":"levelo://app?vid=15698324-3145-4547-849e-2fd8a77ba3ab"},"vehicle_type_id":"4","last_reported":1769694675,"current_range_meters":8000,"station_id":"ce4bhbh2rcd13ifvqeo0","pricing_plan_id":"cebpf4jnsgd1na2vs0mg"},{"bike_id":"83574236-eb2a-42bd-ab70-405f88783bc7","system_id":"levelo_inurba_marseille","lat":43.30561,"lon":5.3654,"is_reserved":false,"is_disabled":false,"rental_uris":{"android":"levelo://app?vid=83574236-eb2a-42bd-ab70-405f88783bc7","ios":"levelo://app?vid=83574236-eb2a-42bd-ab70-405f88783bc7"},"vehicle_type_id":"4","last_reported":1769694675,"current_range_meters":8000,"station_id":"ce4bgs12rcd13ifvqcag","pricing_plan_id":"cebpf4jnsgd1na2vs0mg"},{"bike_id":"b3739ae3-b277-4d99-8f04-0c02824e7530","system_id":"levelo_inurba_marseille","lat":43.33222,"lon":5.38994,"is_reserved":false,"is_disabled":false,"rental_uris":{"android":"levelo://app?vid=b3739ae3-b277-4d99-8f04-0c02824e7530","ios":"levelo://app?vid=b3739ae3-b277-4d99-8f04-0c02824e7530"},"vehicle_type_id":"4","last_reported":1769694675,"current_range_meters":8000,"station_id":"","pricing_plan_id":"cebpf4jnsgd1na2vs0mg"},{"bike_id":"33dca264-fb0a-4eb7-95bb-9ae61ebc0bd2","system_id":"levelo_inurba_marseille","lat":43.284,"lon":5.35028,"is_reserved":false,"is_disabled":false,"rental_uris":{"android":"levelo://app?vid=33dca264-fb0a-4eb7-95bb-9ae61ebc0bd2","ios":"levelo://app?vid=33dca264-fb0a-4eb7-95bb-9ae61ebc0bd2"},"vehicle_type_id":"4","last_reported":1769694675,"current_range_meters":8000,"station_id":"ce4bhbh2rcd13ifvqepg","pricing_plan_id":"cebpf4jnsgd1na2vs0mg"},{"bike_id":"59c1aaff-f796-4b2e-9d17-a0149e8ecf86","system_id":"levelo_inurba_marseille","lat":43.263866,"lon":5.41063,"is_reserved":false,"is_disabled":false,"rental_uris":{"android":"levelo://app?vid=59c1aaff-f796-4b2e-9d17-a0149e8ecf86","ios":"levelo://app?vid=59c1aaff-f796-4b2e-9d17-a0149e8ecf86"},"vehicle_type_id":"4","last_reported":1769694675,"current_range_meters":8000,"station_id":"st_d4e5ca6na9uc73bfl5fg","pricing_plan_id":"cebpf4jnsgd1na2vs0mg"},{"bike_id":"5f7181ae-656c-4488-90fb-0ce1331b2ddd","system_id":"levelo_inurba_marseille","lat":43.27976,"lon":5.3876,"is_reserved":false,"is_disabled":false,"rental_uris":{"android":"levelo://app?vid=5f7181ae-656c-4488-90fb-0ce1331b2ddd","ios":"levelo://app?vid=5f7181ae-656c-4488-90fb-0ce1331b2ddd"},"vehicle_type_id":"4","last_reported":1769694675,"current_range_meters":8000,"station_id":"ce4bhg12rcd13ifvqf80","pricing_plan_id":"cebpf4jnsgd1na2vs0mg"},{"bike_id":"e9ab1c78-d16f-4493-b9ac-cfe803b5f484","system_id":"levelo_inurba_marseille","lat":43.3249,"lon":5.38287,"is_reserved":false,"is_disabled":false,"rental_uris":{"android":"levelo://app?vid=e9ab1c78-d16f-4493-b9ac-cfe803b5f484","ios":"levelo://app?vid=e9ab1c78-d16f-4493-b9ac-cfe803b5f484"},"vehicle_type_id":"4","last_reported":1769694675,"current_range_meters":8000,"station_id":"st_d4asgbiv49dc73anf9m0","pricing_plan_id":"cebpf4jnsgd1na2vs0mg"},{"bike_id":"15928e4e-4573-4968-8dbf-9306067a5743","system_id":"levelo_inurba_marseille","lat":43.24645,"lon":5.43141,"is_reserved":false,"is_disabled":false,"rental_uris":{"android":"levelo://app?vid=15928e4e-4573-4968-8dbf-9306067a5743","ios":"levelo://app?vid=15928e4e-4573-4968-8dbf-9306067a5743"},"vehicle_type_id":"4","last_reported":1769694675,"current_range_meters":8000,"station_id":"st_d2m6c4gdas8pm72e190g","pricing_plan_id":"cebpf4jnsgd1na2vs0mg"},{"bike_id":"cfe3a6dd-a211-4abb-80dc-8311ecf0e5e7","system_id":"levelo_inurba_marseille","lat":43.23184,"lon":5.4371,"is_reserved":false,"is_disabled":false,"rental_uris":{"android":"levelo://app?vid=cfe3a6dd-a211-4abb-80dc-8311ecf0e5e7","ios":"levelo://app?vid=cfe3a6dd-a211-4abb-80dc-8311ecf0e5e7"},"vehicle_type_id":"4","last_reported":1769694675,"current_range_meters":8000,"station_id":"ce4bhmp2rcd13ifvqgog","pricing_plan_id":"cebpf4jnsgd1na2vs0mg"},{"bike_id":"14d042fc-e4e6-446c-9976-9a8ebf64e361","system_id":"levelo_inurba_marseille","lat":43.29621,"lon":5.37723,"is_reserved":false,"is_disabled":false,"rental_uris":{"android":"levelo://app?vid=14d042fc-e4e6-446c-9976-9a8ebf64e361","ios":"levelo://app?vid=14d042fc-e4e6-446c-9976-9a8ebf64e361"},"vehicle_type_id":"4","last_reported":1769694675,"current_range_meters":8000,"station_id":"ce4bgi92rcd13ifvqb90","pricing_plan_id":"cebpf4jnsgd1na2vs0mg"},{"bike_id":"9c143376-0522-4d00-a116-66d871cdb46d","system_id":"levelo_inurba_marseille","lat":43.25586,"lon":5.38234,"is_reserved":false,"is_disabled":false,"rental_uris":{"android":"levelo://app?vid=9c143376-0522-4d00-a116-66d871cdb46d","ios":"levelo://app?vid=9c143376-0522-4d00-a116-66d871cdb46d"},"vehicle_type_id":"4","last_reported":1769694675,"current_range_meters":8000,"station_id":"ce4bhih2rcd13ifvqfs0","pricing_plan_id":"cebpf4jnsgd1na2vs0mg"},{"bike_id":"947b3f41-400e-4a7b-9150-c4b106fc2b3b","system_id":"levelo_inurba_marseille","lat":43.25585,"lon":5.38229,"is_reserved":false,"is_disabled":false,"rental_uris":{"android":"levelo://app?vid=947b3f41-400e-4a7b-9150-c4b106fc2b3b","ios":"levelo://app?vid=947b3f41-400e-4a7b-9150-c4b106fc2b3b"},"vehicle_type_id":"4","last_reported":1769694675,"current_range_meters":8000,"station_id":"ce4bhih2rcd13ifvqfs0","pricing_plan_id":"cebpf4jnsgd1na2vs0mg"},{"bike_id":"dbb8a80a-b5de-4a29-a444-76ca25e12f30","system_id":"levelo_inurba_marseille","lat":43.2885,"lon":5.35847,"is_reserved":false,"is_disabled":false,"rental_uris":{"android":"levelo://app?vid=dbb8a80a-b5de-4a29-a444-76ca25e12f30","ios":"levelo://app?vid=dbb8a80a-b5de-4a29-a444-76ca25e12f30"},"vehicle_type_id":"4","last_reported":1769694675,"current_range_meters":8000,"station_id":"ce4bhb12rcd13ifvqem0","pricing_plan_id":"cebpf4jnsgd1na2vs0mg"},{"bike_id":"0dd61424-bf1e-401d-9632-d1489fb3cc66","system_id":"levelo_inurba_marseille","lat":43.32103,"lon":5.36748,"is_reserved":false,"is_disabled":false,"rental_uris":{"android":"levelo://app?vid=0dd61424-bf1e-401d-9632-d1489fb3cc66","ios":"levelo://app?vid=0dd61424-bf1e-401d-9632-d1489fb3cc66"},"vehicle_type_id":"4","last_reported":1769694675,"current_range_meters":8000,"station_id":"ce4bhrh2rcd13ifvqhug","pricing_plan_id":"cebpf4jnsgd1na2vs0mg"},{"bike_id":"2f4543d2-e450-4359-90ef-2351f9674a4d","system_id":"levelo_inurba_marseille","lat":43.27631,"lon":5.36121,"is_reserved":false,"is_disabled":false,"rental_uris":{"android":"levelo://app?vid=2f4543d2-e450-4359-90ef-2351f9674a4d","ios":"levelo://app?vid=2f4543d2-e450-4359-90ef-2351f9674a4d"},"vehicle_type_id":"4","last_reported":1769694675,"current_range_meters":8000,"station_id":"ce4bgj92rcd13ifvqbe0","pricing_plan_id":"cebpf4jnsgd1na2vs0mg"},{"bike_id":"5a5070bd-16de-4246-b119-9edc6b7db571","system_id":"levelo_inurba_marseille","lat":43.31165,"lon":5.38722,"is_reserved":false,"is_disabled":false,"rental_uris":{"android":"levelo://app?vid=5a5070bd-16de-4246-b119-9edc6b7db571","ios":"levelo://app?vid=5a5070bd-16de-4246-b119-9edc6b7db571"},"vehicle_type_id":"4","last_reported":1769694675,"current_range_meters":8000,"station_id":"ce4bgv12rcd13ifvqcp0","pricing_plan_id":"cebpf4jnsgd1na2vs0mg"},{"bike_id":"3f157e5c-07c6-40ac-a2d5-ee23e2af1ad6","system_id":"levelo_inurba_marseille","lat":43.28948,"lon":5.36372,"is_reserved":false,"is_disabled":false,"rental_uris":{"android":"levelo://app?vid=3f157e5c-07c6-40ac-a2d5-ee23e2af1ad6","ios":"levelo://app?vid=3f157e5c-07c6-40ac-a2d5-ee23e2af1ad6"},"vehicle_type_id":"4","last_reported":1769694675,"current_range_meters":8000,"station_id":"ce4bhc92rcd13ifvqetg","pricing_plan_id":"cebpf4jnsgd1na2vs0mg"},{"bike_id":"2d655a97-bd06-49e9-b2b4-efa072ca5fda","system_id":"levelo_inurba_marseille","lat":43.32128,"lon":5.3677,"is_reserved":false,"is_disabled":false,"rental_uris":{"android":"levelo://app?vid=2d655a97-bd06-49e9-b2b4-efa072ca5fda","ios":"levelo://app?vid=2d655a97-bd06-49e9-b2b4-efa072ca5fda"},"vehicle_type_id":"4","last_reported":1769694675,"current_range_meters":8000,"station_id":"ce4bhrh2rcd13ifvqhug","pricing_plan_id":"cebpf4jnsgd1na2vs0mg"},{"bike_id":"0c61e989-c5e7-4812-8938-48a9f3228979","system_id":"levelo_inurba_marseille","lat":43.28932,"lon":5.38395,"is_reserved":false,"is_disabled":false,"rental_uris":{"android":"levelo://app?vid=0c61e989-c5e7-4812-8938-48a9f3228979","ios":"levelo://app?vid=0c61e989-c5e7-4812-8938-48a9f3228979"},"vehicle_type_id":"4","last_reported":1769694675,"current_range_meters":8000,"station_id":"ce4bh612rcd13ifvqe6g","pricing_plan_id":"cebpf4jnsgd1na2vs0mg"},{"bike_id":"dc9ee814-7f33-4fbb-a1ce-2d30e8c57914","system_id":"levelo_inurba_marseille","lat":43.2256,"lon":5.41634,"is_reserved":false,"is_disabled":false,"rental_uris":{"android":"levelo://app?vid=dc9ee814-7f33-4fbb-a1ce-2d30e8c57914","ios":"levelo://app?vid=dc9ee814-7f33-4fbb-a1ce-2d30e8c57914"},"vehicle_type_id":"4","last_reported":1769694675,"current_range_meters":8000,"station_id":"st_d2o4gvlbi1j2169b742g","pricing_plan_id":"cebpf4jnsgd1na2vs0mg"},{"bike_id":"76656029-63ad-4a62-a7cb-555cda44c48d","system_id":"levelo_inurba_marseille","lat":43.26058,"lon":5.39394,"is_reserved":false,"is_disabled":false,"rental_uris":{"android":"levelo://app?vid=76656029-63ad-4a62-a7cb-555cda44c48d","ios":"levelo://app?vid=76656029-63ad-4a62-a7cb-555cda44c48d"},"vehicle_type_id":"4","last_reported":1769694675,"current_range_meters":8000,"station_id":"ce4bhh92rcd13ifvqfj0","pricing_plan_id":"cebpf4jnsgd1na2vs0mg"},{"bike_id":"081fa14c-ca4a-442f-8de3-b221dffe51d8","system_id":"levelo_inurba_marseille","lat":43.28001,"lon":5.4165,"is_reserved":false,"is_disabled":false,"rental_uris":{"android":"levelo://app?vid=081fa14c-ca4a-442f-8de3-b221dffe51d8","ios":"levelo://app?vid=081fa14c-ca4a-442f-8de3-b221dffe51d8"},"vehicle_type_id":"4","last_reported":1769694675,"current_range_meters":8000,"station_id":"ce4bho12rcd13ifvqh1g","pricing_plan_id":"cebpf4jnsgd1na2vs0mg"},{"bike_id":"4bd6cb39-f26e-431f-9c48-bc9838a79167","system_id":"levelo_inurba_marseille","lat":43.29803,"lon":5.44071,"is_reserved":false,"is_disabled":false,"rental_uris":{"android":"levelo://app?vid=4bd6cb39-f26e-431f-9c48-bc9838a79167","ios":"levelo://app?vid=4bd6cb39-f26e-431f-9c48-bc9838a79167"},"vehicle_type_id":"4","last_reported":1769694675,"current_range_meters":8000,"station_id":"st_d3jp68qikq2c7381ktn0","pricing_plan_id":"cebpf4jnsgd1na2vs0mg"},{"bike_id":"8124257b-86e4-4773-9928-40b9e517b1e7","system_id":"levelo_inurba_marseille","lat":43.24475,"lon":5.42536,"is_reserved":false,"is_disabled":false,"rental_uris":{"android":"levelo://app?vid=8124257b-86e4-4773-9928-40b9e517b1e7","ios":"levelo://app?vid=8124257b-86e4-4773-9928-40b9e517b1e7"},"vehicle_type_id":"4","last_reported":1769694675,"current_range_meters":8400,"station_id":"st_d4a3vfp97mjs738cd8kg","pricing_plan_id":"cebpf4jnsgd1na2vs0mg"},{"bike_id":"bed67da3-1394-44af-b13a-c147bb3b489c","system_id":"levelo_inurba_marseille","lat":43.25577,"lon":5.38238,"is_reserved":false,"is_disabled":false,"rental_uris":{"android":"levelo://app?vid=bed67da3-1394-44af-b13a-c147bb3b489c","ios":"levelo://app?vid=bed67da3-1394-44af-b13a-c147bb3b489c"},"vehicle_type_id":"4","last_reported":1769694675,"current_range_meters":8400,"station_id":"ce4bhih2rcd13ifvqfs0","pricing_plan_id":"cebpf4jnsgd1na2vs0mg"},{"bike_id":"7b6d8a8b-d351-4282-bf84-c6e7865bd8af","system_id":"levelo_inurba_marseille","lat":43.24633,"lon":5.38879,"is_reserved":false,"is_disabled":false,"rental_uris":{"android":"levelo://app?vid=7b6d8a8b-d351-4282-bf84-c6e7865bd8af","ios":"levelo://app?vid=7b6d8a8b-d351-4282-bf84-c6e7865bd8af"},"vehicle_type_id":"4","last_reported":1769694675,"current_range_meters":8400,"station_id":"ce4bhg12rcd13ifvqf60","pricing_plan_id":"cebpf4jnsgd1na2vs0mg"},{"bike_id":"aa753bb7-bd6b-47c5-ab34-4be181563e55","system_id":"levelo_inurba_marseille","lat":43.310433,"lon":5.371718,"is_reserved":false,"is_disabled":false,"rental_uris":{"android":"levelo://app?vid=aa753bb7-bd6b-47c5-ab34-4be181563e55","ios":"levelo://app?vid=aa753bb7-bd6b-47c5-ab34-4be181563e55"},"vehicle_type_id":"4","last_reported":1769694675,"current_range_meters":8400,"station_id":"st_d4kl2rp97mjs73e7tdfg","pricing_plan_id":"cebpf4jnsgd1na2vs0mg"},{"bike_id":"c1e56def-2d7c-4e93-b918-3096a8beff38","system_id":"levelo_inurba_marseille","lat":43.31276,"lon":5.36891,"is_reserved":false,"is_disabled":false,"rental_uris":{"android":"levelo://app?vid=c1e56def-2d7c-4e93-b918-3096a8beff38","ios":"levelo://app?vid=c1e56def-2d7c-4e93-b918-3096a8beff38"},"vehicle_type_id":"4","last_reported":1769694675,"current_range_meters":8400,"station_id":"ce4bgl92rcd13ifvqbq0","pricing_plan_id":"cebpf4jnsgd1na2vs0mg"},{"bike_id":"83a4e1d2-5f71-4b5a-bd57-96f3c4c0826c","system_id":"levelo_inurba_marseille","lat":43.23144,"lon":5.43706,"is_reserved":false,"is_disabled":false,"rental_uris":{"android":"levelo://app?vid=83a4e1d2-5f71-4b5a-bd57-96f3c4c0826c","ios":"levelo://app?vid=83a4e1d2-5f71-4b5a-bd57-96f3c4c0826c"},"vehicle_type_id":"4","last_reported":1769694675,"current_range_meters":8400,"station_id":"ce4bhmp2rcd13ifvqgog","pricing_plan_id":"cebpf4jnsgd1na2vs0mg"},{"bike_id":"0edb73c2-0d71-41ef-92a0-39c6197600e4","system_id":"levelo_inurba_marseille","lat":43.27058,"lon":5.38313,"is_reserved":false,"is_disabled":false,"rental_uris":{"android":"levelo://app?vid=0edb73c2-0d71-41ef-92a0-39c6197600e4","ios":"levelo://app?vid=0edb73c2-0d71-41ef-92a0-39c6197600e4"},"vehicle_type_id":"4","last_reported":1769694675,"current_range_meters":8400,"station_id":"st_d3n2fo6cfp8s73cte1j0","pricing_plan_id":"cebpf4jnsgd1na2vs0mg"},{"bike_id":"77a70992-81f1-432a-8e46-4dcb8154bde5","system_id":"levelo_inurba_marseille","lat":43.30208,"lon":5.39473,"is_reserved":false,"is_disabled":false,"rental_uris":{"android":"levelo://app?vid=77a70992-81f1-432a-8e46-4dcb8154bde5","ios":"levelo://app?vid=77a70992-81f1-432a-8e46-4dcb8154bde5"},"vehicle_type_id":"4","last_reported":1769694675,"current_range_meters":8400,"station_id":"ce4bh0p2rcd13ifvqd70","pricing_plan_id":"cebpf4jnsgd1na2vs0mg"},{"bike_id":"6d463587-3df4-4665-b124-967bacab8bbe","system_id":"levelo_inurba_marseille","lat":43.28607,"lon":5.351,"is_reserved":false,"is_disabled":false,"rental_uris":{"android":"levelo://app?vid=6d463587-3df4-4665-b124-967bacab8bbe","ios":"levelo://app?vid=6d463587-3df4-4665-b124-967bacab8bbe"},"vehicle_type_id":"4","last_reported":1769694675,"current_range_meters":8400,"station_id":"ce4bhch2rcd13ifvqeug","pricing_plan_id":"cebpf4jnsgd1na2vs0mg"},{"bike_id":"bd551aec-24c2-4aba-b573-e89c13f76575","system_id":"levelo_inurba_marseille","lat":43.25577,"lon":5.38227,"is_reserved":false,"is_disabled":false,"rental_uris":{"android":"levelo://app?vid=bd551aec-24c2-4aba-b573-e89c13f76575","ios":"levelo://app?vid=bd551aec-24c2-4aba-b573-e89c13f76575"},"vehicle_type_id":"4","last_reported":1769694675,"current_range_meters":8400,"station_id":"ce4bhih2rcd13ifvqfs0","pricing_plan_id":"cebpf4jnsgd1na2vs0mg"},{"bike_id":"28bcb9d8-af7e-4e97-808c-cc7b21fe1431","system_id":"levelo_inurba_marseille","lat":43.22577,"lon":5.41627,"is_reserved":false,"is_disabled":false,"rental_uris":{"android":"levelo://app?vid=28bcb9d8-af7e-4e97-808c-cc7b21fe1431","ios":"levelo://app?vid=28bcb9d8-af7e-4e97-808c-cc7b21fe1431"},"vehicle_type_id":"4","last_reported":1769694675,"current_range_meters":8400,"station_id":"st_d2o4gvlbi1j2169b742g","pricing_plan_id":"cebpf4jnsgd1na2vs0mg"},{"bike_id":"71ea06b7-46c1-4fc9-a594-153d92364656","system_id":"levelo_inurba_marseille","lat":43.30738,"lon":5.40997,"is_reserved":false,"is_disabled":false,"rental_uris":{"android":"levelo://app?vid=71ea06b7-46c1-4fc9-a594-153d92364656","ios":"levelo://app?vid=71ea06b7-46c1-4fc9-a594-153d92364656"},"vehicle_type_id":"4","last_reported":1769694675,"current_range_meters":8400,"station_id":"","pricing_plan_id":"cebpf4jnsgd1na2vs0mg"},{"bike_id":"546d524a-128a-4e22-a3a9-72f5ef24036b","system_id":"levelo_inurba_marseille","lat":43.26928,"lon":5.38933,"is_reserved":false,"is_disabled":false,"rental_uris":{"android":"levelo://app?vid=546d524a-128a-4e22-a3a9-72f5ef24036b","ios":"levelo://app?vid=546d524a-128a-4e22-a3a9-72f5ef24036b"},"vehicle_type_id":"4","last_reported":1769694675,"current_range_meters":8400,"station_id":"ce4bhhh2rcd13ifvqfl0","pricing_plan_id":"cebpf4jnsgd1na2vs0mg"},{"bike_id":"77088545-8749-433b-94f8-db8b6c7f692d","system_id":"levelo_inurba_marseille","lat":43.31066,"lon":5.38351,"is_reserved":false,"is_disabled":false,"rental_uris":{"android":"levelo://app?vid=77088545-8749-433b-94f8-db8b6c7f692d","ios":"levelo://app?vid=77088545-8749-433b-94f8-db8b6c7f692d"},"vehicle_type_id":"4","last_reported":1769694675,"current_range_meters":8400,"station_id":"ce4bgv92rcd13ifvqcr0","pricing_plan_id":"cebpf4jnsgd1na2vs0mg"},{"bike_id":"ca4984f8-91bb-4047-b43a-79f81f44b152","system_id":"levelo_inurba_marseille","lat":43.24075,"lon":5.37759,"is_reserved":false,"is_disabled":false,"rental_uris":{"android":"levelo://app?vid=ca4984f8-91bb-4047-b43a-79f81f44b152","ios":"levelo://app?vid=ca4984f8-91bb-4047-b43a-79f81f44b152"},"vehicle_type_id":"4","last_reported":1769694675,"current_range_meters":8400,"station_id":"ce4bhnp2rcd13ifvqgvg","pricing_plan_id":"cebpf4jnsgd1na2vs0mg"},{"bike_id":"f4b1aa15-0619-416f-92d9-e23dfb876864","system_id":"levelo_inurba_marseille","lat":43.30168,"lon":5.38093,"is_reserved":false,"is_disabled":false,"rental_uris":{"android":"levelo://app?vid=f4b1aa15-0619-416f-92d9-e23dfb876864","ios":"levelo://app?vid=f4b1aa15-0619-416f-92d9-e23dfb876864"},"vehicle_type_id":"4","last_reported":1769694675,"current_range_meters":8400,"station_id":"ce4bgjp2rcd13ifvqbh0","pricing_plan_id":"cebpf4jnsgd1na2vs0mg"},{"bike_id":"98f1cc2b-8923-4cb8-900c-7891540a52d1","system_id":"levelo_inurba_marseille","lat":43.25508,"lon":5.37655,"is_reserved":false,"is_disabled":false,"rental_uris":{"android":"levelo://app?vid=98f1cc2b-8923-4cb8-900c-7891540a52d1","ios":"levelo://app?vid=98f1cc2b-8923-4cb8-900c-7891540a52d1"},"vehicle_type_id":"4","last_reported":1769694675,"current_range_meters":8400,"station_id":"ce4bhh12rcd13ifvqff0","pricing_plan_id":"cebpf4jnsgd1na2vs0mg"},{"bike_id":"e3a2ff30-3a00-465e-9038-3fe61f13ebf0","system_id":"levelo_inurba_marseille","lat":43.28718,"lon":5.37939,"is_reserved":false,"is_disabled":false,"rental_uris":{"android":"levelo://app?vid=e3a2ff30-3a00-465e-9038-3fe61f13ebf0","ios":"levelo://app?vid=e3a2ff30-3a00-465e-9038-3fe61f13ebf0"},"vehicle_type_id":"4","last_reported":1769694675,"current_range_meters":8400,"station_id":"ce4bh9p2rcd13ifvqec0","pricing_plan_id":"cebpf4jnsgd1na2vs0mg"},{"bike_id":"33f3d384-abd0-4303-afce-4077564c5ec0","system_id":"levelo_inurba_marseille","lat":43.29762,"lon":5.42771,"is_reserved":false,"is_disabled":false,"rental_uris":{"android":"levelo://app?vid=33f3d384-abd0-4303-afce-4077564c5ec0","ios":"levelo://app?vid=33f3d384-abd0-4303-afce-4077564c5ec0"},"vehicle_type_id":"4","last_reported":1769694675,"current_range_meters":8400,"station_id":"st_d3md5207bmas73dh9klg","pricing_plan_id":"cebpf4jnsgd1na2vs0mg"},{"bike_id":"ef68bdf9-fa71-483b-bc99-7f9581830aca","system_id":"levelo_inurba_marseille","lat":43.30582,"lon":5.36719,"is_reserved":false,"is_disabled":false,"rental_uris":{"android":"levelo://app?vid=ef68bdf9-fa71-483b-bc99-7f9581830aca","ios":"levelo://app?vid=ef68bdf9-fa71-483b-bc99-7f9581830aca"},"vehicle_type_id":"4","last_reported":1769694675,"current_range_meters":8800,"station_id":"","pricing_plan_id":"cebpf4jnsgd1na2vs0mg"},{"bike_id":"ba4f6c0d-c0a8-4c21-9308-a4e81ac5d5b4","system_id":"levelo_inurba_marseille","lat":43.31009,"lon":5.36959,"is_reserved":false,"is_disabled":false,"rental_uris":{"android":"levelo://app?vid=ba4f6c0d-c0a8-4c21-9308-a4e81ac5d5b4","ios":"levelo://app?vid=ba4f6c0d-c0a8-4c21-9308-a4e81ac5d5b4"},"vehicle_type_id":"4","last_reported":1769694675,"current_range_meters":8800,"station_id":"","pricing_plan_id":"cebpf4jnsgd1na2vs0mg"},{"bike_id":"bd889336-68ff-4f09-8c88-588306cf9fc6","system_id":"levelo_inurba_marseille","lat":43.27058,"lon":5.40345,"is_reserved":false,"is_disabled":false,"rental_uris":{"android":"levelo://app?vid=bd889336-68ff-4f09-8c88-588306cf9fc6","ios":"levelo://app?vid=bd889336-68ff-4f09-8c88-588306cf9fc6"},"vehicle_type_id":"4","last_reported":1769694675,"current_range_meters":8800,"station_id":"","pricing_plan_id":"cebpf4jnsgd1na2vs0mg"},{"bike_id":"19d683cf-05e9-434a-b587-af5793fe2201","system_id":"levelo_inurba_marseille","lat":43.30912,"lon":5.3687,"is_reserved":false,"is_disabled":false,"rental_uris":{"android":"levelo://app?vid=19d683cf-05e9-434a-b587-af5793fe2201","ios":"levelo://app?vid=19d683cf-05e9-434a-b587-af5793fe2201"},"vehicle_type_id":"4","last_reported":1769694675,"current_range_meters":8800,"station_id":"ce4bgn92rcd13ifvqbvg","pricing_plan_id":"cebpf4jnsgd1na2vs0mg"},{"bike_id":"82693396-ff61-48ee-9772-fee51d6503d4","system_id":"levelo_inurba_marseille","lat":43.29553,"lon":5.42292,"is_reserved":false,"is_disabled":false,"rental_uris":{"android":"levelo://app?vid=82693396-ff61-48ee-9772-fee51d6503d4","ios":"levelo://app?vid=82693396-ff61-48ee-9772-fee51d6503d4"},"vehicle_type_id":"4","last_reported":1769694675,"current_range_meters":8800,"station_id":"ce4bhph2rcd13ifvqhdg","pricing_plan_id":"cebpf4jnsgd1na2vs0mg"},{"bike_id":"6a0e40e4-3258-4516-885d-71d0968e64ad","system_id":"levelo_inurba_marseille","lat":43.23059,"lon":5.35492,"is_reserved":false,"is_disabled":false,"rental_uris":{"android":"levelo://app?vid=6a0e40e4-3258-4516-885d-71d0968e64ad","ios":"levelo://app?vid=6a0e40e4-3258-4516-885d-71d0968e64ad"},"vehicle_type_id":"4","last_reported":1769694675,"current_range_meters":8800,"station_id":"cpo3342slgdg3j2ifvpg","pricing_plan_id":"cebpf4jnsgd1na2vs0mg"},{"bike_id":"74f15e47-3367-473d-b70d-51b716edacba","system_id":"levelo_inurba_marseille","lat":43.3055,"lon":5.36537,"is_reserved":false,"is_disabled":false,"rental_uris":{"android":"levelo://app?vid=74f15e47-3367-473d-b70d-51b716edacba","ios":"levelo://app?vid=74f15e47-3367-473d-b70d-51b716edacba"},"vehicle_type_id":"4","last_reported":1769694675,"current_range_meters":8800,"station_id":"ce4bgs12rcd13ifvqcag","pricing_plan_id":"cebpf4jnsgd1na2vs0mg"},{"bike_id":"43108044-4682-404d-830f-a43f6f0d82ce","system_id":"levelo_inurba_marseille","lat":43.23159,"lon":5.43724,"is_reserved":false,"is_disabled":false,"rental_uris":{"android":"levelo://app?vid=43108044-4682-404d-830f-a43f6f0d82ce","ios":"levelo://app?vid=43108044-4682-404d-830f-a43f6f0d82ce"},"vehicle_type_id":"4","last_reported":1769694675,"current_range_meters":8800,"station_id":"ce4bhmp2rcd13ifvqgog","pricing_plan_id":"cebpf4jnsgd1na2vs0mg"},{"bike_id":"b48ce7fe-ef66-46a4-86fa-4d0d740bb1b0","system_id":"levelo_inurba_marseille","lat":43.27626,"lon":5.36128,"is_reserved":false,"is_disabled":false,"rental_uris":{"android":"levelo://app?vid=b48ce7fe-ef66-46a4-86fa-4d0d740bb1b0","ios":"levelo://app?vid=b48ce7fe-ef66-46a4-86fa-4d0d740bb1b0"},"vehicle_type_id":"4","last_reported":1769694675,"current_range_meters":8800,"station_id":"ce4bgj92rcd13ifvqbe0","pricing_plan_id":"cebpf4jnsgd1na2vs0mg"},{"bike_id":"00153f95-778d-418a-84c7-7f32da51fa5b","system_id":"levelo_inurba_marseille","lat":43.27973,"lon":5.38734,"is_reserved":false,"is_disabled":false,"rental_uris":{"android":"levelo://app?vid=00153f95-778d-418a-84c7-7f32da51fa5b","ios":"levelo://app?vid=00153f95-778d-418a-84c7-7f32da51fa5b"},"vehicle_type_id":"4","last_reported":1769694675,"current_range_meters":8800,"station_id":"ce4bhg12rcd13ifvqf80","pricing_plan_id":"cebpf4jnsgd1na2vs0mg"},{"bike_id":"e6253678-846f-4727-94ff-291485141698","system_id":"levelo_inurba_marseille","lat":43.23776,"lon":5.36621,"is_reserved":false,"is_disabled":false,"rental_uris":{"android":"levelo://app?vid=e6253678-846f-4727-94ff-291485141698","ios":"levelo://app?vid=e6253678-846f-4727-94ff-291485141698"},"vehicle_type_id":"4","last_reported":1769694675,"current_range_meters":8800,"station_id":"st_d3nk18o9ro0c73en2l3g","pricing_plan_id":"cebpf4jnsgd1na2vs0mg"},{"bike_id":"8146226d-7abd-4b43-b8c7-f1a88e074fee","system_id":"levelo_inurba_marseille","lat":43.24387,"lon":5.37042,"is_reserved":false,"is_disabled":false,"rental_uris":{"android":"levelo://app?vid=8146226d-7abd-4b43-b8c7-f1a88e074fee","ios":"levelo://app?vid=8146226d-7abd-4b43-b8c7-f1a88e074fee"},"vehicle_type_id":"4","last_reported":1769694675,"current_range_meters":8800,"station_id":"ce4bhhh2rcd13ifvqfk0","pricing_plan_id":"cebpf4jnsgd1na2vs0mg"},{"bike_id":"f28dd8e4-5b4a-477d-abe2-fd84bb7f04d4","system_id":"levelo_inurba_marseille","lat":43.24067,"lon":5.37776,"is_reserved":false,"is_disabled":false,"rental_uris":{"android":"levelo://app?vid=f28dd8e4-5b4a-477d-abe2-fd84bb7f04d4","ios":"levelo://app?vid=f28dd8e4-5b4a-477d-abe2-fd84bb7f04d4"},"vehicle_type_id":"4","last_reported":1769694675,"current_range_meters":8800,"station_id":"ce4bhnp2rcd13ifvqgvg","pricing_plan_id":"cebpf4jnsgd1na2vs0mg"},{"bike_id":"742f539f-e33e-41d7-ab1d-fa3535f68457","system_id":"levelo_inurba_marseille","lat":43.26372,"lon":5.41066,"is_reserved":false,"is_disabled":false,"rental_uris":{"android":"levelo://app?vid=742f539f-e33e-41d7-ab1d-fa3535f68457","ios":"levelo://app?vid=742f539f-e33e-41d7-ab1d-fa3535f68457"},"vehicle_type_id":"4","last_reported":1769694675,"current_range_meters":8800,"station_id":"st_d4e5ca6na9uc73bfl5fg","pricing_plan_id":"cebpf4jnsgd1na2vs0mg"},{"bike_id":"af654c71-a67d-46af-bf40-a020e2f3bf53","system_id":"levelo_inurba_marseille","lat":43.25004,"lon":5.38918,"is_reserved":false,"is_disabled":false,"rental_uris":{"android":"levelo://app?vid=af654c71-a67d-46af-bf40-a020e2f3bf53","ios":"levelo://app?vid=af654c71-a67d-46af-bf40-a020e2f3bf53"},"vehicle_type_id":"4","last_reported":1769694675,"current_range_meters":8800,"station_id":"ce4bhgp2rcd13ifvqfd0","pricing_plan_id":"cebpf4jnsgd1na2vs0mg"},{"bike_id":"a08d99c3-7c3b-454a-985d-58cd2c6fd1f4","system_id":"levelo_inurba_marseille","lat":43.27383,"lon":5.36267,"is_reserved":false,"is_disabled":false,"rental_uris":{"android":"levelo://app?vid=a08d99c3-7c3b-454a-985d-58cd2c6fd1f4","ios":"levelo://app?vid=a08d99c3-7c3b-454a-985d-58cd2c6fd1f4"},"vehicle_type_id":"4","last_reported":1769694675,"current_range_meters":8800,"station_id":"ce4bhbh2rcd13ifvqeo0","pricing_plan_id":"cebpf4jnsgd1na2vs0mg"},{"bike_id":"2db3e4ff-a0f9-45a2-8cc0-02e9b0439c10","system_id":"levelo_inurba_marseille","lat":43.31209,"lon":5.36859,"is_reserved":false,"is_disabled":false,"rental_uris":{"android":"levelo://app?vid=2db3e4ff-a0f9-45a2-8cc0-02e9b0439c10","ios":"levelo://app?vid=2db3e4ff-a0f9-45a2-8cc0-02e9b0439c10"},"vehicle_type_id":"4","last_reported":1769694675,"current_range_meters":8800,"station_id":"ce4bgl92rcd13ifvqbq0","pricing_plan_id":"cebpf4jnsgd1na2vs0mg"},{"bike_id":"3dc504de-340a-4960-9295-e93227b46b5e","system_id":"levelo_inurba_marseille","lat":43.32112,"lon":5.36775,"is_reserved":false,"is_disabled":false,"rental_uris":{"android":"levelo://app?vid=3dc504de-340a-4960-9295-e93227b46b5e","ios":"levelo://app?vid=3dc504de-340a-4960-9295-e93227b46b5e"},"vehicle_type_id":"4","last_reported":1769694675,"current_range_meters":8800,"station_id":"ce4bhrh2rcd13ifvqhug","pricing_plan_id":"cebpf4jnsgd1na2vs0mg"},{"bike_id":"1df32dff-5611-415d-8fae-817c467a81ff","system_id":"levelo_inurba_marseille","lat":43.23055,"lon":5.35493,"is_reserved":false,"is_disabled":false,"rental_uris":{"android":"levelo://app?vid=1df32dff-5611-415d-8fae-817c467a81ff","ios":"levelo://app?vid=1df32dff-5611-415d-8fae-817c467a81ff"},"vehicle_type_id":"4","last_reported":1769694675,"current_range_meters":8800,"station_id":"cpo3342slgdg3j2ifvpg","pricing_plan_id":"cebpf4jnsgd1na2vs0mg"},{"bike_id":"83fc5387-9bd8-4dec-804d-abfa877a86a6","system_id":"levelo_inurba_marseille","lat":43.29835,"lon":5.44077,"is_reserved":false,"is_disabled":false,"rental_uris":{"android":"levelo://app?vid=83fc5387-9bd8-4dec-804d-abfa877a86a6","ios":"levelo://app?vid=83fc5387-9bd8-4dec-804d-abfa877a86a6"},"vehicle_type_id":"4","last_reported":1769694675,"current_range_meters":9200,"station_id":"","pricing_plan_id":"cebpf4jnsgd1na2vs0mg"},{"bike_id":"f77f11ea-c57f-4a1e-b998-1859acb2e91b","system_id":"levelo_inurba_marseille","lat":43.28617,"lon":5.35108,"is_reserved":false,"is_disabled":false,"rental_uris":{"android":"levelo://app?vid=f77f11ea-c57f-4a1e-b998-1859acb2e91b","ios":"levelo://app?vid=f77f11ea-c57f-4a1e-b998-1859acb2e91b"},"vehicle_type_id":"4","last_reported":1769694675,"current_range_meters":9200,"station_id":"","pricing_plan_id":"cebpf4jnsgd1na2vs0mg"},{"bike_id":"3c759e23-afa1-4f16-bc3d-a4434ab8841d","system_id":"levelo_inurba_marseille","lat":43.30474,"lon":5.37909,"is_reserved":false,"is_disabled":false,"rental_uris":{"android":"levelo://app?vid=3c759e23-afa1-4f16-bc3d-a4434ab8841d","ios":"levelo://app?vid=3c759e23-afa1-4f16-bc3d-a4434ab8841d"},"vehicle_type_id":"4","last_reported":1769694675,"current_range_meters":9200,"station_id":"ce4bgup2rcd13ifvqcn0","pricing_plan_id":"cebpf4jnsgd1na2vs0mg"},{"bike_id":"5417ecf1-5c28-449a-a086-27acd88e9f4e","system_id":"levelo_inurba_marseille","lat":43.21188,"lon":5.35076,"is_reserved":false,"is_disabled":false,"rental_uris":{"android":"levelo://app?vid=5417ecf1-5c28-449a-a086-27acd88e9f4e","ios":"levelo://app?vid=5417ecf1-5c28-449a-a086-27acd88e9f4e"},"vehicle_type_id":"4","last_reported":1769694675,"current_range_meters":9200,"station_id":"","pricing_plan_id":"cebpf4jnsgd1na2vs0mg"},{"bike_id":"b93f36af-6012-4250-a69f-3de373ca3510","system_id":"levelo_inurba_marseille","lat":43.28274,"lon":5.35063,"is_reserved":false,"is_disabled":false,"rental_uris":{"android":"levelo://app?vid=b93f36af-6012-4250-a69f-3de373ca3510","ios":"levelo://app?vid=b93f36af-6012-4250-a69f-3de373ca3510"},"vehicle_type_id":"4","last_reported":1769694675,"current_range_meters":9200,"station_id":"ce4bhbp2rcd13ifvqerg","pricing_plan_id":"cebpf4jnsgd1na2vs0mg"},{"bike_id":"08d71fa8-cb03-4009-880c-76afc325a467","system_id":"levelo_inurba_marseille","lat":43.30374,"lon":5.42485,"is_reserved":false,"is_disabled":false,"rental_uris":{"android":"levelo://app?vid=08d71fa8-cb03-4009-880c-76afc325a467","ios":"levelo://app?vid=08d71fa8-cb03-4009-880c-76afc325a467"},"vehicle_type_id":"4","last_reported":1769694675,"current_range_meters":9200,"station_id":"ce4bhoh2rcd13ifvqh6g","pricing_plan_id":"cebpf4jnsgd1na2vs0mg"},{"bike_id":"9a236fca-75ff-411c-bb2a-afc86c1efe94","system_id":"levelo_inurba_marseille","lat":43.29916,"lon":5.36546,"is_reserved":false,"is_disabled":false,"rental_uris":{"android":"levelo://app?vid=9a236fca-75ff-411c-bb2a-afc86c1efe94","ios":"levelo://app?vid=9a236fca-75ff-411c-bb2a-afc86c1efe94"},"vehicle_type_id":"4","last_reported":1769694675,"current_range_meters":9200,"station_id":"ce4bgm92rcd13ifvqbr0","pricing_plan_id":"cebpf4jnsgd1na2vs0mg"},{"bike_id":"e04521ca-ce5b-4911-93eb-efa07b2cc503","system_id":"levelo_inurba_marseille","lat":43.29489,"lon":5.433,"is_reserved":false,"is_disabled":false,"rental_uris":{"android":"levelo://app?vid=e04521ca-ce5b-4911-93eb-efa07b2cc503","ios":"levelo://app?vid=e04521ca-ce5b-4911-93eb-efa07b2cc503"},"vehicle_type_id":"4","last_reported":1769694675,"current_range_meters":9200,"station_id":"st_d3j5ugp08ojc73fj9d10","pricing_plan_id":"cebpf4jnsgd1na2vs0mg"},{"bike_id":"b3808154-86af-47d0-966c-f1cc0984587d","system_id":"levelo_inurba_marseille","lat":43.33756,"lon":5.37497,"is_reserved":false,"is_disabled":false,"rental_uris":{"android":"levelo://app?vid=b3808154-86af-47d0-966c-f1cc0984587d","ios":"levelo://app?vid=b3808154-86af-47d0-966c-f1cc0984587d"},"vehicle_type_id":"4","last_reported":1769694675,"current_range_meters":9200,"station_id":"","pricing_plan_id":"cebpf4jnsgd1na2vs0mg"},{"bike_id":"805015d0-c12d-4724-9c74-0106ed455fd9","system_id":"levelo_inurba_marseille","lat":43.24946,"lon":5.40491,"is_reserved":false,"is_disabled":false,"rental_uris":{"android":"levelo://app?vid=805015d0-c12d-4724-9c74-0106ed455fd9","ios":"levelo://app?vid=805015d0-c12d-4724-9c74-0106ed455fd9"},"vehicle_type_id":"4","last_reported":1769694675,"current_range_meters":9600,"station_id":"st_d2ngiaodas8pm72gd1h0","pricing_plan_id":"cebpf4jnsgd1na2vs0mg"},{"bike_id":"e858244c-580e-4a5e-a86b-9fc7e954317c","system_id":"levelo_inurba_marseille","lat":43.3127,"lon":5.38017,"is_reserved":false,"is_disabled":true,"rental_uris":{"android":"levelo://app?vid=e858244c-580e-4a5e-a86b-9fc7e954317c","ios":"levelo://app?vid=e858244c-580e-4a5e-a86b-9fc7e954317c"},"vehicle_type_id":"4","last_reported":1769694675,"current_range_meters":9600,"station_id":"","pricing_plan_id":"cebpf4jnsgd1na2vs0mg"},{"bike_id":"0d7817ad-bd96-4cb3-85df-b39836368c75","system_id":"levelo_inurba_marseille","lat":43.28675,"lon":5.36333,"is_reserved":false,"is_disabled":false,"rental_uris":{"android":"levelo://app?vid=0d7817ad-bd96-4cb3-85df-b39836368c75","ios":"levelo://app?vid=0d7817ad-bd96-4cb3-85df-b39836368c75"},"vehicle_type_id":"4","last_reported":1769694675,"current_range_meters":9600,"station_id":"ce4bhah2rcd13ifvqej0","pricing_plan_id":"cebpf4jnsgd1na2vs0mg"},{"bike_id":"2626a307-09e6-4806-8747-64c64cf9b162","system_id":"levelo_inurba_marseille","lat":43.24462,"lon":5.42527,"is_reserved":false,"is_disabled":false,"rental_uris":{"android":"levelo://app?vid=2626a307-09e6-4806-8747-64c64cf9b162","ios":"levelo://app?vid=2626a307-09e6-4806-8747-64c64cf9b162"},"vehicle_type_id":"4","last_reported":1769694675,"current_range_meters":9600,"station_id":"st_d4a3vfp97mjs738cd8kg","pricing_plan_id":"cebpf4jnsgd1na2vs0mg"},{"bike_id":"10b424c6-99ba-423a-9370-8bef633fb2cb","system_id":"levelo_inurba_marseille","lat":43.252009,"lon":5.380609,"is_reserved":false,"is_disabled":false,"rental_uris":{"android":"levelo://app?vid=10b424c6-99ba-423a-9370-8bef633fb2cb","ios":"levelo://app?vid=10b424c6-99ba-423a-9370-8bef633fb2cb"},"vehicle_type_id":"4","last_reported":1769694675,"current_range_meters":9600,"station_id":"","pricing_plan_id":"cebpf4jnsgd1na2vs0mg"},{"bike_id":"6f25f4db-c511-441c-8eee-e037debba35a","system_id":"levelo_inurba_marseille","lat":43.29085,"lon":5.38126,"is_reserved":false,"is_disabled":false,"rental_uris":{"android":"levelo://app?vid=6f25f4db-c511-441c-8eee-e037debba35a","ios":"levelo://app?vid=6f25f4db-c511-441c-8eee-e037debba35a"},"vehicle_type_id":"4","last_reported":1769694675,"current_range_meters":9600,"station_id":"ce4bh512rcd13ifvqe2g","pricing_plan_id":"cebpf4jnsgd1na2vs0mg"},{"bike_id":"60601e53-e690-41e3-9640-0b5d8353d610","system_id":"levelo_inurba_marseille","lat":43.22941,"lon":5.35367,"is_reserved":false,"is_disabled":false,"rental_uris":{"android":"levelo://app?vid=60601e53-e690-41e3-9640-0b5d8353d610","ios":"levelo://app?vid=60601e53-e690-41e3-9640-0b5d8353d610"},"vehicle_type_id":"4","last_reported":1769694675,"current_range_meters":9600,"station_id":"cpo3532slgdg3j2ikp40","pricing_plan_id":"cebpf4jnsgd1na2vs0mg"},{"bike_id":"0f7a0478-f488-41ec-ba60-c6d95f2d536e","system_id":"levelo_inurba_marseille","lat":43.29508,"lon":5.37474,"is_reserved":false,"is_disabled":false,"rental_uris":{"android":"levelo://app?vid=0f7a0478-f488-41ec-ba60-c6d95f2d536e","ios":"levelo://app?vid=0f7a0478-f488-41ec-ba60-c6d95f2d536e"},"vehicle_type_id":"4","last_reported":1769694675,"current_range_meters":9600,"station_id":"ce4bgkp2rcd13ifvqbmg","pricing_plan_id":"cebpf4jnsgd1na2vs0mg"},{"bike_id":"373cb557-ba27-44b4-ae77-5627bb7dd352","system_id":"levelo_inurba_marseille","lat":43.21196,"lon":5.35074,"is_reserved":false,"is_disabled":true,"rental_uris":{"android":"levelo://app?vid=373cb557-ba27-44b4-ae77-5627bb7dd352","ios":"levelo://app?vid=373cb557-ba27-44b4-ae77-5627bb7dd352"},"vehicle_type_id":"4","last_reported":1769694675,"current_range_meters":9600,"station_id":"","pricing_plan_id":"cebpf4jnsgd1na2vs0mg"},{"bike_id":"509406a3-6237-4b52-82b7-df007473730d","system_id":"levelo_inurba_marseille","lat":43.27892,"lon":5.38285,"is_reserved":false,"is_disabled":false,"rental_uris":{"android":"levelo://app?vid=509406a3-6237-4b52-82b7-df007473730d","ios":"levelo://app?vid=509406a3-6237-4b52-82b7-df007473730d"},"vehicle_type_id":"4","last_reported":1769694675,"current_range_meters":9600,"station_id":"","pricing_plan_id":"cebpf4jnsgd1na2vs0mg"},{"bike_id":"3e0eed8b-3250-4521-84b8-0e408e6b4207","system_id":"levelo_inurba_marseille","lat":43.26809,"lon":5.40271,"is_reserved":false,"is_disabled":false,"rental_uris":{"android":"levelo://app?vid=3e0eed8b-3250-4521-84b8-0e408e6b4207","ios":"levelo://app?vid=3e0eed8b-3250-4521-84b8-0e408e6b4207"},"vehicle_type_id":"4","last_reported":1769694675,"current_range_meters":9600,"station_id":"ce501612rcd8frsf0b60","pricing_plan_id":"cebpf4jnsgd1na2vs0mg"},{"bike_id":"7731fa32-2c34-47d5-a187-8b5fb85f1ff7","system_id":"levelo_inurba_marseille","lat":43.27062,"lon":5.40256,"is_reserved":false,"is_disabled":false,"rental_uris":{"android":"levelo://app?vid=7731fa32-2c34-47d5-a187-8b5fb85f1ff7","ios":"levelo://app?vid=7731fa32-2c34-47d5-a187-8b5fb85f1ff7"},"vehicle_type_id":"4","last_reported":1769694675,"current_range_meters":9600,"station_id":"ce4bhk92rcd13ifvqgc0","pricing_plan_id":"cebpf4jnsgd1na2vs0mg"},{"bike_id":"b62bc338-8583-4efd-bdb8-920b9bd4e4dc","system_id":"levelo_inurba_marseille","lat":43.25568,"lon":5.38235,"is_reserved":false,"is_disabled":false,"rental_uris":{"android":"levelo://app?vid=b62bc338-8583-4efd-bdb8-920b9bd4e4dc","ios":"levelo://app?vid=b62bc338-8583-4efd-bdb8-920b9bd4e4dc"},"vehicle_type_id":"4","last_reported":1769694675,"current_range_meters":9600,"station_id":"ce4bhih2rcd13ifvqfs0","pricing_plan_id":"cebpf4jnsgd1na2vs0mg"},{"bike_id":"fba1f41c-70e6-4b42-b87d-9218ad8c70d6","system_id":"levelo_inurba_marseille","lat":43.295685,"lon":5.399766,"is_reserved":false,"is_disabled":false,"rental_uris":{"android":"levelo://app?vid=fba1f41c-70e6-4b42-b87d-9218ad8c70d6","ios":"levelo://app?vid=fba1f41c-70e6-4b42-b87d-9218ad8c70d6"},"vehicle_type_id":"4","last_reported":1769694675,"current_range_meters":9600,"station_id":"ce4bh312rcd13ifvqdj0","pricing_plan_id":"cebpf4jnsgd1na2vs0mg"},{"bike_id":"7a21098f-2835-4631-baa1-457ee91fdc08","system_id":"levelo_inurba_marseille","lat":43.24075,"lon":5.37769,"is_reserved":false,"is_disabled":false,"rental_uris":{"android":"levelo://app?vid=7a21098f-2835-4631-baa1-457ee91fdc08","ios":"levelo://app?vid=7a21098f-2835-4631-baa1-457ee91fdc08"},"vehicle_type_id":"4","last_reported":1769694675,"current_range_meters":9600,"station_id":"ce4bhnp2rcd13ifvqgvg","pricing_plan_id":"cebpf4jnsgd1na2vs0mg"},{"bike_id":"1bdcfa06-b603-4cf3-91e0-6d0ecfa97571","system_id":"levelo_inurba_marseille","lat":43.29049,"lon":5.39968,"is_reserved":false,"is_disabled":false,"rental_uris":{"android":"levelo://app?vid=1bdcfa06-b603-4cf3-91e0-6d0ecfa97571","ios":"levelo://app?vid=1bdcfa06-b603-4cf3-91e0-6d0ecfa97571"},"vehicle_type_id":"4","last_reported":1769694675,"current_range_meters":9600,"station_id":"ce4bh392rcd13ifvqdm0","pricing_plan_id":"cebpf4jnsgd1na2vs0mg"},{"bike_id":"69cd541c-db0a-4eeb-8903-4f3d28282f04","system_id":"levelo_inurba_marseille","lat":43.24806,"lon":5.37455,"is_reserved":false,"is_disabled":false,"rental_uris":{"android":"levelo://app?vid=69cd541c-db0a-4eeb-8903-4f3d28282f04","ios":"levelo://app?vid=69cd541c-db0a-4eeb-8903-4f3d28282f04"},"vehicle_type_id":"4","last_reported":1769694675,"current_range_meters":9600,"station_id":"ce4bhgh2rcd13ifvqfb0","pricing_plan_id":"cebpf4jnsgd1na2vs0mg"},{"bike_id":"95a27769-56f6-4657-86d0-cfc4dc41941e","system_id":"levelo_inurba_marseille","lat":43.29973,"lon":5.38499,"is_reserved":false,"is_disabled":false,"rental_uris":{"android":"levelo://app?vid=95a27769-56f6-4657-86d0-cfc4dc41941e","ios":"levelo://app?vid=95a27769-56f6-4657-86d0-cfc4dc41941e"},"vehicle_type_id":"4","last_reported":1769694675,"current_range_meters":10000,"station_id":"ce4bgj92rcd13ifvqbd0","pricing_plan_id":"cebpf4jnsgd1na2vs0mg"},{"bike_id":"456727bd-baa8-41bf-ae9f-158a99ff9411","system_id":"levelo_inurba_marseille","lat":43.22575,"lon":5.4163,"is_reserved":false,"is_disabled":false,"rental_uris":{"android":"levelo://app?vid=456727bd-baa8-41bf-ae9f-158a99ff9411","ios":"levelo://app?vid=456727bd-baa8-41bf-ae9f-158a99ff9411"},"vehicle_type_id":"4","last_reported":1769694675,"current_range_meters":10000,"station_id":"st_d2o4gvlbi1j2169b742g","pricing_plan_id":"cebpf4jnsgd1na2vs0mg"},{"bike_id":"a9d5a55c-e6f8-4cac-aa21-2065b21c8b47","system_id":"levelo_inurba_marseille","lat":43.24957,"lon":5.40484,"is_reserved":false,"is_disabled":false,"rental_uris":{"android":"levelo://app?vid=a9d5a55c-e6f8-4cac-aa21-2065b21c8b47","ios":"levelo://app?vid=a9d5a55c-e6f8-4cac-aa21-2065b21c8b47"},"vehicle_type_id":"4","last_reported":1769694675,"current_range_meters":10000,"station_id":"st_d2ngiaodas8pm72gd1h0","pricing_plan_id":"cebpf4jnsgd1na2vs0mg"},{"bike_id":"6f2111dd-6b6a-402c-9729-62f7313dcc5e","system_id":"levelo_inurba_marseille","lat":43.323524,"lon":5.367517,"is_reserved":false,"is_disabled":false,"rental_uris":{"android":"levelo://app?vid=6f2111dd-6b6a-402c-9729-62f7313dcc5e","ios":"levelo://app?vid=6f2111dd-6b6a-402c-9729-62f7313dcc5e"},"vehicle_type_id":"4","last_reported":1769694675,"current_range_meters":10000,"station_id":"ce4bhsh2rcd13ifvqi2g","pricing_plan_id":"cebpf4jnsgd1na2vs0mg"},{"bike_id":"0ce6c207-272f-49a0-b4d8-e361fa071270","system_id":"levelo_inurba_marseille","lat":43.29627,"lon":5.37717,"is_reserved":false,"is_disabled":false,"rental_uris":{"android":"levelo://app?vid=0ce6c207-272f-49a0-b4d8-e361fa071270","ios":"levelo://app?vid=0ce6c207-272f-49a0-b4d8-e361fa071270"},"vehicle_type_id":"4","last_reported":1769694675,"current_range_meters":10000,"station_id":"ce4bgi92rcd13ifvqb90","pricing_plan_id":"cebpf4jnsgd1na2vs0mg"},{"bike_id":"82a6b099-0577-4798-9a60-21fb38c2bbb7","system_id":"levelo_inurba_marseille","lat":43.298,"lon":5.44076,"is_reserved":false,"is_disabled":false,"rental_uris":{"android":"levelo://app?vid=82a6b099-0577-4798-9a60-21fb38c2bbb7","ios":"levelo://app?vid=82a6b099-0577-4798-9a60-21fb38c2bbb7"},"vehicle_type_id":"4","last_reported":1769694675,"current_range_meters":10000,"station_id":"st_d3jp68qikq2c7381ktn0","pricing_plan_id":"cebpf4jnsgd1na2vs0mg"},{"bike_id":"260ae90f-ffa5-444a-a75a-d2f939feaae7","system_id":"levelo_inurba_marseille","lat":43.29918,"lon":5.37463,"is_reserved":false,"is_disabled":false,"rental_uris":{"android":"levelo://app?vid=260ae90f-ffa5-444a-a75a-d2f939feaae7","ios":"levelo://app?vid=260ae90f-ffa5-444a-a75a-d2f939feaae7"},"vehicle_type_id":"4","last_reported":1769694675,"current_range_meters":10000,"station_id":"ce4bgjh2rcd13ifvqbg0","pricing_plan_id":"cebpf4jnsgd1na2vs0mg"},{"bike_id":"56df53c0-31f3-4842-81aa-260f03643809","system_id":"levelo_inurba_marseille","lat":43.29017,"lon":5.38138,"is_reserved":false,"is_disabled":false,"rental_uris":{"android":"levelo://app?vid=56df53c0-31f3-4842-81aa-260f03643809","ios":"levelo://app?vid=56df53c0-31f3-4842-81aa-260f03643809"},"vehicle_type_id":"4","last_reported":1769694675,"current_range_meters":10000,"station_id":"ce4bh4p2rcd13ifvqe1g","pricing_plan_id":"cebpf4jnsgd1na2vs0mg"},{"bike_id":"7008570a-4030-4a5c-bce0-6e90ab09f5fd","system_id":"levelo_inurba_marseille","lat":43.246936,"lon":5.381839,"is_reserved":false,"is_disabled":false,"rental_uris":{"android":"levelo://app?vid=7008570a-4030-4a5c-bce0-6e90ab09f5fd","ios":"levelo://app?vid=7008570a-4030-4a5c-bce0-6e90ab09f5fd"},"vehicle_type_id":"4","last_reported":1769694675,"current_range_meters":10000,"station_id":"ce4bhih2rcd13ifvqfr0","pricing_plan_id":"cebpf4jnsgd1na2vs0mg"},{"bike_id":"7714d863-1c60-4efa-a925-44984599d482","system_id":"levelo_inurba_marseille","lat":43.29758,"lon":5.4278,"is_reserved":false,"is_disabled":false,"rental_uris":{"android":"levelo://app?vid=7714d863-1c60-4efa-a925-44984599d482","ios":"levelo://app?vid=7714d863-1c60-4efa-a925-44984599d482"},"vehicle_type_id":"4","last_reported":1769694675,"current_range_meters":10000,"station_id":"st_d3md5207bmas73dh9klg","pricing_plan_id":"cebpf4jnsgd1na2vs0mg"},{"bike_id":"0cf8c421-ea47-4883-b58a-7e56be319f59","system_id":"levelo_inurba_marseille","lat":43.24071,"lon":5.3775,"is_reserved":false,"is_disabled":false,"rental_uris":{"android":"levelo://app?vid=0cf8c421-ea47-4883-b58a-7e56be319f59","ios":"levelo://app?vid=0cf8c421-ea47-4883-b58a-7e56be319f59"},"vehicle_type_id":"4","last_reported":1769694675,"current_range_meters":10000,"station_id":"ce4bhnp2rcd13ifvqgvg","pricing_plan_id":"cebpf4jnsgd1na2vs0mg"},{"bike_id":"0e79c48d-cdc7-44eb-ad7d-d24757dd50e7","system_id":"levelo_inurba_marseille","lat":43.323726,"lon":5.367283,"is_reserved":false,"is_disabled":false,"rental_uris":{"android":"levelo://app?vid=0e79c48d-cdc7-44eb-ad7d-d24757dd50e7","ios":"levelo://app?vid=0e79c48d-cdc7-44eb-ad7d-d24757dd50e7"},"vehicle_type_id":"4","last_reported":1769694675,"current_range_meters":10000,"station_id":"ce4bhsh2rcd13ifvqi2g","pricing_plan_id":"cebpf4jnsgd1na2vs0mg"},