{"last_updated":1710583636,"ttl":30,"version":"2.2","data":{"bikes":[{"bike_id":"975e4afa-f6d0-46c8-bd34-058e07841fe1","system_id":"levelo_inurba_marseille","lat":43.31341,"lon":5.367098,"is_reserved":false,"is_disabled":false,"rental_uris":{"android":"levelo://app?vid=975e4afa-f6d0-46c8-bd34-058e07841fe1","ios":"levelo://app?vid=975e4afa-f6d0-46c8-bd34-058e07841fe1"},"vehicle_type_id":"4","last_reported":1710583636,"current_range_meters":22400,"station_id":"ce4bgr92rcd13ifvqc6g","pricing_plan_id":"cebpf4jnsgd1na2vs0mg"},{"bike_id":"b3e3f334-70d1-4de9-9a97-a623efd62d94","system_id":"levelo_inurba_marseille","lat":43.31341,"lon":5.367098,"is_reserved":false,"is_disabled":false,"rental_uris":{"android":"levelo://app?vid=b3e3f334-70d1-4de9-9a97-a623efd62d94","ios":"levelo://app?vid=b3e3f334-70d1-4de9-9a97-a623efd62d94"},"vehicle_type_id":"4","last_reported":1710583636,"current_range_meters":24800,"station_id":"ce4bgr92rcd13ifvqc6g","pricing_plan_id":"cebpf4jnsgd1na2vs0mg"},{"bike_id":"543873c3-0ed8-4864-9052-0a0d540220f5","system_id":"levelo_inurba_marseille","lat":43.313391,"lon":5.36706,"is_reserved":false,"is_disabled":false,"rental_uris":{"android":"levelo://app?vid=543873c3-0ed8-4864-9052-0a0d540220f5","ios":"levelo://app?vid=543873c3-0ed8-4864-9052-0a0d540220f5"},"vehicle_type_id":"4","last_reported":1710583636,"current_range_meters":21200,"station_id":"ce4bgr92rcd13ifvqc6g","pricing_plan_id":"cebpf4jnsgd1na2vs0mg"},{"bike_id":"9abf7bd3-4822-4c1e-918f-fe9e88dee659","system_id":"levelo_inurba_marseille","lat":43.312239,"lon":5.368562,"is_reserved":false,"is_disabled":false,"rental_uris":{"android":"levelo://app?vid=9abf7bd3-4822-4c1e-918f-fe9e88dee659","ios":"levelo://app?vid=9abf7bd3-4822-4c1e-918f-fe9e88dee659"},"vehicle_type_id":"4","last_reported":1710583636,"current_range_meters":27200,"station_id":"ce4bgl92rcd13ifvqbq0","pricing_plan_id":"cebpf4jnsgd1na2vs0mg"},{"bike_id":"4635b3f1-fdf9-4924-bb9a-ee249f212c19","system_id":"levelo_inurba_marseille","lat":43.312239,"lon":5.368562,"is_reserved":false,"is_disabled":false,"rental_uris":{"android":"levelo://app?vid=4635b3f1-fdf9-4924-bb9a-ee249f212c19","ios":"levelo://app?vid=4635b3f1-fdf9-4924-bb9a-ee249f212c19"},"vehicle_type_id":"4","last_reported":1710583636,"current_range_meters":21600,"station_id":"ce4bgl92rcd13ifvqbq0","pricing_plan_id":"cebpf4jnsgd1na2vs0mg"},{"bike_id":"09dd8f56-0386-411c-ab82-33f2d3b7e814","system_id":"levelo_inurba_marseille","lat":43.312204,"lon":5.368533,"is_reserved":false,"is_disabled":false,"rental_uris":{"android":"levelo://app?vid=09dd8f56-0386-411c-ab82-33f2d3b7e814","ios":"levelo://app?vid=09dd8f56-0386-411c-ab82-33f2d3b7e814"},"vehicle_type_id":"4","last_reported":1710583636,"current_range_meters":21600,"station_id":"ce4bgl92rcd13ifvqbq0","pricing_plan_id":"cebpf4jnsgd1na2vs0mg"},{"bike_id":"d08f97ca-e3e9-4f09-8f57-31fed8685d25","system_id":"levelo_inurba_marseille","lat":43.312298,"lon":5.368595,"is_reserved":false,"is_disabled":false,"rental_uris":{"android":"levelo://app?vid=d08f97ca-e3e9-4f09-8f57-31fed8685d25","ios":"levelo://app?vid=d08f97ca-e3e9-4f09-8f57-31fed8685d25"},"vehicle_type_id":"4","last_reported":1710583636,"current_range_meters":28000,"station_id":"ce4bgl92rcd13ifvqbq0","pricing_plan_id":"cebpf4jnsgd1na2vs0mg"},{"bike_id":"c9b07454-7990-4978-a36d-0afd68c3baa8","system_id":"levelo_inurba_marseille","lat":43.312366,"lon":5.368656,"is_reserved":false,"is_disabled":false,"rental_uris":{"android":"levelo://app?vid=c9b07454-7990-4978-a36d-0afd68c3baa8","ios":"levelo://app?vid=c9b07454-7990-4978-a36d-0afd68c3baa8"},"vehicle_type_id":"4","last_reported":1710583636,"current_range_meters":28400,"station_id":"ce4bgl92rcd13ifvqbq0","pricing_plan_id":"cebpf4jnsgd1na2vs0mg"},{"bike_id":"c2536046-78da-4de8-8b6c-d0a20c86960a","system_id":"levelo_inurba_marseille","lat":43.312239,"lon":5.368562,"is_reserved":false,"is_disabled":false,"rental_uris":{"android":"levelo://app?vid=c2536046-78da-4de8-8b6c-d0a20c86960a","ios":"levelo://app?vid=c2536046-78da-4de8-8b6c-d0a20c86960a"},"vehicle_type_id":"4","last_reported":1710583636,"current_range_meters":28800,"station_id":"ce4bgl92rcd13ifvqbq0","pricing_plan_id":"cebpf4jnsgd1na2vs0mg"},{"bike_id":"65f1f0a7-8239-48b9-b443-6e13c6c1d5b2","system_id":"levelo_inurba_marseille","lat":43.309076,"lon":5.368465,"is_reserved":false,"is_disabled":false,"rental_uris":{"android":"levelo://app?vid=65f1f0a7-8239-48b9-b443-6e13c6c1d5b2","ios":"levelo://app?vid=65f1f0a7-8239-48b9-b443-6e13c6c1d5b2"},"vehicle_type_id":"4","last_reported":1710583636,"current_range_meters":20800,"station_id":"ce4bgn92rcd13ifvqbvg","pricing_plan_id":"cebpf4jnsgd1na2vs0mg"},{"bike_id":"912846e0-75ff-4331-8595-fbdb1b2b2f3d","system_id":"levelo_inurba_marseille","lat":43.309076,"lon":5.368465,"is_reserved":false,"is_disabled":false,"rental_uris":{"android":"levelo://app?vid=912846e0-75ff-4331-8595-fbdb1b2b2f3d","ios":"levelo://app?vid=912846e0-75ff-4331-8595-fbdb1b2b2f3d"},"vehicle_type_id":"4","last_reported":1710583636,"current_range_meters":28000,"station_id":"ce4bgn92rcd13ifvqbvg","pricing_plan_id":"cebpf4jnsgd1na2vs0mg"},{"bike_id":"911d4cbb-930f-4ee1-90e3-d218fa4def6c","system_id":"levelo_inurba_marseille","lat":43.309076,"lon":5.368465,"is_reserved":false,"is_disabled":false,"rental_uris":{"android":"levelo://app?vid=911d4cbb-930f-4ee1-90e3-d218fa4def6c","ios":"levelo://app?vid=911d4cbb-930f-4ee1-90e3-d218fa4def6c"},"vehicle_type_id":"4","last_reported":1710583636,"current_range_meters":12400,"station_id":"ce4bgn92rcd13ifvqbvg","pricing_plan_id":"cebpf4jnsgd1na2vs0mg"},{"bike_id":"8d805d4c-ecf6-422e-9c29-fa6e9a347718","system_id":"levelo_inurba_marseille","lat":43.30901,"lon":5.3685,"is_reserved":false,"is_disabled":false,"rental_uris":{"android":"levelo://app?vid=8d805d4c-ecf6-422e-9c29-fa6e9a347718","ios":"levelo://app?vid=8d805d4c-ecf6-422e-9c29-fa6e9a347718"},"vehicle_type_id":"4","last_reported":1710583636,"current_range_meters":3600,"station_id":"ce4bgn92rcd13ifvqbvg","pricing_plan_id":"cebpf4jnsgd1na2vs0mg"},{"bike_id":"d492d00b-220d-4a87-87e8-6dd0d5aa40d9","system_id":"levelo_inurba_marseille","lat":43.309076,"lon":5.368465,"is_reserved":false,"is_disabled":false,"rental_uris":{"android":"levelo://app?vid=d492d00b-220d-4a87-87e8-6dd0d5aa40d9","ios":"levelo://app?vid=d492d00b-220d-4a87-87e8-6dd0d5aa40d9"},"vehicle_type_id":"4","last_reported":1710583636,"current_range_meters":27600,"station_id":"ce4bgn92rcd13ifvqbvg","pricing_plan_id":"cebpf4jnsgd1na2vs0mg"},{"bike_id":"a8d08d16-06d2-459b-b555-3a98d2614fd3","system_id":"levelo_inurba_marseille","lat":43.309076,"lon":5.368465,"is_reserved":false,"is_disabled":false,"rental_uris":{"android":"levelo://app?vid=a8d08d16-06d2-459b-b555-3a98d2614fd3","ios":"levelo://app?vid=a8d08d16-06d2-459b-b555-3a98d2614fd3"},"vehicle_type_id":"4","last_reported":1710583636,"current_range_meters":26400,"station_id":"ce4bgn92rcd13ifvqbvg","pricing_plan_id":"cebpf4jnsgd1na2vs0mg"},{"bike_id":"f4bfcc8e-ea18-4848-ac39-9c789c5f99f3","system_id":"levelo_inurba_marseille","lat":43.314811,"lon":5.373103,"is_reserved":false,"is_disabled":false,"rental_uris":{"android":"levelo://app?vid=f4bfcc8e-ea18-4848-ac39-9c789c5f99f3","ios":"levelo://app?vid=f4bfcc8e-ea18-4848-ac39-9c789c5f99f3"},"vehicle_type_id":"4","last_reported":1710583636,"current_range_meters":18800,"station_id":"ce4bgt12rcd13ifvqcd0","pricing_plan_id":"cebpf4jnsgd1na2vs0mg"},{"bike_id":"9f111b70-f0f7-4990-a1ae-e3c3ec30e657","system_id":"levelo_inurba_marseille","lat":43.314811,"lon":5.373103,"is_reserved":false,"is_disabled":false,"rental_uris":{"android":"levelo://app?vid=9f111b70-f0f7-4990-a1ae-e3c3ec30e657","ios":"levelo://app?vid=9f111b70-f0f7-4990-a1ae-e3c3ec30e657"},"vehicle_type_id":"4","last_reported":1710583636,"current_range_meters":27200,"station_id":"ce4bgt12rcd13ifvqcd0","pricing_plan_id":"cebpf4jnsgd1na2vs0mg"},{"bike_id":"daae0b88-be70-4bb4-b60b-001cf97b9afb","system_id":"levelo_inurba_marseille","lat":43.314811,"lon":5.373104,"is_reserved":false,"is_disabled":false,"rental_uris":{"android":"levelo://app?vid=daae0b88-be70-4bb4-b60b-001cf97b9afb","ios":"levelo://app?vid=daae0b88-be70-4bb4-b60b-001cf97b9afb"},"vehicle_type_id":"4","last_reported":1710583636,"current_range_meters":30800,"station_id":"ce4bgt12rcd13ifvqcd0","pricing_plan_id":"cebpf4jnsgd1na2vs0mg"},{"bike_id":"252fe404-9315-4e92-bc6e-82a90e2c6ff6","system_id":"levelo_inurba_marseille","lat":43.314811,"lon":5.373104,"is_reserved":false,"is_disabled":false,"rental_uris":{"android":"levelo://app?vid=252fe404-9315-4e92-bc6e-82a90e2c6ff6","ios":"levelo://app?vid=252fe404-9315-4e92-bc6e-82a90e2c6ff6"},"vehicle_type_id":"4","last_reported":1710583636,"current_range_meters":31200,"station_id":"ce4bgt12rcd13ifvqcd0","pricing_plan_id":"cebpf4jnsgd1na2vs0mg"},{"bike_id":"a56fd66d-a757-4c8c-9536-9615daa7d284","system_id":"levelo_inurba_marseille","lat":43.309034,"lon":5.371783,"is_reserved":false,"is_disabled":false,"rental_uris":{"android":"levelo://app?vid=a56fd66d-a757-4c8c-9536-9615daa7d284","ios":"levelo://app?vid=a56fd66d-a757-4c8c-9536-9615daa7d284"},"vehicle_type_id":"4","last_reported":1710583636,"current_range_meters":19200,"station_id":"ce4bguh2rcd13ifvqckg","pricing_plan_id":"cebpf4jnsgd1na2vs0mg"},{"bike_id":"e32be161-50b9-46db-9599-347c8b8c751c","system_id":"levelo_inurba_marseille","lat":43.305712,"lon":5.365641,"is_reserved":false,"is_disabled":false,"rental_uris":{"android":"levelo://app?vid=e32be161-50b9-46db-9599-347c8b8c751c","ios":"levelo://app?vid=e32be161-50b9-46db-9599-347c8b8c751c"},"vehicle_type_id":"4","last_reported":1710583636,"current_range_meters":19200,"station_id":"ce4bgs12rcd13ifvqcag","pricing_plan_id":"cebpf4jnsgd1na2vs0mg"},{"bike_id":"57a9a273-37d6-426c-ae9a-ce6e5859cd40","system_id":"levelo_inurba_marseille","lat":43.306809,"lon":5.366226,"is_reserved":false,"is_disabled":false,"rental_uris":{"android":"levelo://app?vid=57a9a273-37d6-426c-ae9a-ce6e5859cd40","ios":"levelo://app?vid=57a9a273-37d6-426c-ae9a-ce6e5859cd40"},"vehicle_type_id":"4","last_reported":1710583636,"current_range_meters":13200,"station_id":"","pricing_plan_id":"cebpf4jnsgd1na2vs0mg"},{"bike_id":"743477e8-fcfd-4bf7-ad81-8386101d0285","system_id":"levelo_inurba_marseille","lat":43.305714,"lon":5.365633,"is_reserved":false,"is_disabled":false,"rental_uris":{"android":"levelo://app?vid=743477e8-fcfd-4bf7-ad81-8386101d0285","ios":"levelo://app?vid=743477e8-fcfd-4bf7-ad81-8386101d0285"},"vehicle_type_id":"4","last_reported":1710583636,"current_range_meters":19200,"station_id":"ce4bgs12rcd13ifvqcag","pricing_plan_id":"cebpf4jnsgd1na2vs0mg"},{"bike_id":"385bcc1c-6f45-44b5-b017-b8c88184f1fb","system_id":"levelo_inurba_marseille","lat":43.305712,"lon":5.365641,"is_reserved":false,"is_disabled":false,"rental_uris":{"android":"levelo://app?vid=385bcc1c-6f45-44b5-b017-b8c88184f1fb","ios":"levelo://app?vid=385bcc1c-6f45-44b5-b017-b8c88184f1fb"},"vehicle_type_id":"4","last_reported":1710583636,"current_range_meters":30000,"station_id":"ce4bgs12rcd13ifvqcag","pricing_plan_id":"cebpf4jnsgd1na2vs0mg"},{"bike_id":"f679146a-0ba5-403d-90a6-6db7f7b5a610","system_id":"levelo_inurba_marseille","lat":43.305712,"lon":5.365641,"is_reserved":false,"is_disabled":false,"rental_uris":{"android":"levelo://app?vid=f679146a-0ba5-403d-90a6-6db7f7b5a610","ios":"levelo://app?vid=f679146a-0ba5-403d-90a6-6db7f7b5a610"},"vehicle_type_id":"4","last_reported":1710583636,"current_range_meters":24400,"station_id":"ce4bgs12rcd13ifvqcag","pricing_plan_id":"cebpf4jnsgd1na2vs0mg"},{"bike_id":"9b4cda45-c16e-46ee-8694-c8c9313612d5","system_id":"levelo_inurba_marseille","lat":43.305368,"lon":5.367343,"is_reserved":false,"is_disabled":false,"rental_uris":{"android":"levelo://app?vid=9b4cda45-c16e-46ee-8694-c8c9313612d5","ios":"levelo://app?vid=9b4cda45-c16e-46ee-8694-c8c9313612d5"},"vehicle_type_id":"4","last_reported":1710583636,"current_range_meters":24000,"station_id":"ce4bgrp2rcd13ifvqc9g","pricing_plan_id":"cebpf4jnsgd1na2vs0mg"},{"bike_id":"795de56e-2fcd-46fa-ac6a-1929a5cb3826","system_id":"levelo_inurba_marseille","lat":43.305714,"lon":5.365633,"is_reserved":false,"is_disabled":false,"rental_uris":{"android":"levelo://app?vid=795de56e-2fcd-46fa-ac6a-1929a5cb3826","ios":"levelo://app?vid=795de56e-2fcd-46fa-ac6a-1929a5cb3826"},"vehicle_type_id":"4","last_reported":1710583636,"current_range_meters":14800,"station_id":"ce4bgs12rcd13ifvqcag","pricing_plan_id":"cebpf4jnsgd1na2vs0mg"},{"bike_id":"6ebc9bee-0432-4a3f-a054-a46568815666","system_id":"levelo_inurba_marseille","lat":43.305714,"lon":5.365633,"is_reserved":false,"is_disabled":false,"rental_uris":{"android":"levelo://app?vid=6ebc9bee-0432-4a3f-a054-a46568815666","ios":"levelo://app?vid=6ebc9bee-0432-4a3f-a054-a46568815666"},"vehicle_type_id":"4","last_reported":1710583636,"current_range_meters":14400,"station_id":"ce4bgs12rcd13ifvqcag","pricing_plan_id":"cebpf4jnsgd1na2vs0mg"},{"bike_id":"b0531880-a99e-4b5f-8e3f-d2119c5e5cc1","system_id":"levelo_inurba_marseille","lat":43.305714,"lon":5.365633,"is_reserved":false,"is_disabled":false,"rental_uris":{"android":"levelo://app?vid=b0531880-a99e-4b5f-8e3f-d2119c5e5cc1","ios":"levelo://app?vid=b0531880-a99e-4b5f-8e3f-d2119c5e5cc1"},"vehicle_type_id":"4","last_reported":1710583636,"current_range_meters":29200,"station_id":"ce4bgs12rcd13ifvqcag","pricing_plan_id":"cebpf4jnsgd1na2vs0mg"},{"bike_id":"ec43c3fa-276b-4ca1-a9f1-3abd331f5aff","system_id":"levelo_inurba_marseille","lat":43.305368,"lon":5.367343,"is_reserved":false,"is_disabled":false,"rental_uris":{"android":"levelo://app?vid=ec43c3fa-276b-4ca1-a9f1-3abd331f5aff","ios":"levelo://app?vid=ec43c3fa-276b-4ca1-a9f1-3abd331f5aff"},"vehicle_type_id":"4","last_reported":1710583636,"current_range_meters":29600,"station_id":"ce4bgrp2rcd13ifvqc9g","pricing_plan_id":"cebpf4jnsgd1na2vs0mg"},{"bike_id":"7dee9a27-98e2-459a-9c52-d0752de7b0d7","system_id":"levelo_inurba_marseille","lat":43.305368,"lon":5.367343,"is_reserved":false,"is_disabled":false,"rental_uris":{"android":"levelo://app?vid=7dee9a27-98e2-459a-9c52-d0752de7b0d7","ios":"levelo://app?vid=7dee9a27-98e2-459a-9c52-d0752de7b0d7"},"vehicle_type_id":"4","last_reported":1710583636,"current_range_meters":20400,"station_id":"ce4bgrp2rcd13ifvqc9g","pricing_plan_id":"cebpf4jnsgd1na2vs0mg"},{"bike_id":"04d3e9f7-89b8-45b2-a11c-7f2c3c09c41e","system_id":"levelo_inurba_marseille","lat":43.305714,"lon":5.365633,"is_reserved":false,"is_disabled":false,"rental_uris":{"android":"levelo://app?vid=04d3e9f7-89b8-45b2-a11c-7f2c3c09c41e","ios":"levelo://app?vid=04d3e9f7-89b8-45b2-a11c-7f2c3c09c41e"},"vehicle_type_id":"4","last_reported":1710583636,"current_range_meters":19600,"station_id":"ce4bgs12rcd13ifvqcag","pricing_plan_id":"cebpf4jnsgd1na2vs0mg"},{"bike_id":"28f2c8b5-b60a-463a-98b0-5a38c565eb17","system_id":"levelo_inurba_marseille","lat":43.305706,"lon":5.365654,"is_reserved":false,"is_disabled":false,"rental_uris":{"android":"levelo://app?vid=28f2c8b5-b60a-463a-98b0-5a38c565eb17","ios":"levelo://app?vid=28f2c8b5-b60a-463a-98b0-5a38c565eb17"},"vehicle_type_id":"4","last_reported":1710583636,"current_range_meters":20400,"station_id":"ce4bgs12rcd13ifvqcag","pricing_plan_id":"cebpf4jnsgd1na2vs0mg"},{"bike_id":"6146afb3-bd05-40c1-a122-1e7bf7cde812","system_id":"levelo_inurba_marseille","lat":43.305706,"lon":5.365654,"is_reserved":false,"is_disabled":false,"rental_uris":{"android":"levelo://app?vid=6146afb3-bd05-40c1-a122-1e7bf7cde812","ios":"levelo://app?vid=6146afb3-bd05-40c1-a122-1e7bf7cde812"},"vehicle_type_id":"4","last_reported":1710583636,"current_range_meters":9200,"station_id":"ce4bgs12rcd13ifvqcag","pricing_plan_id":"cebpf4jnsgd1na2vs0mg"},{"bike_id":"039d723a-5e08-4774-8a1d-8b5819b232af","system_id":"levelo_inurba_marseille","lat":43.305368,"lon":5.367343,"is_reserved":false,"is_disabled":false,"rental_uris":{"android":"levelo://app?vid=039d723a-5e08-4774-8a1d-8b5819b232af","ios":"levelo://app?vid=039d723a-5e08-4774-8a1d-8b5819b232af"},"vehicle_type_id":"4","last_reported":1710583636,"current_range_meters":8800,"station_id":"ce4bgrp2rcd13ifvqc9g","pricing_plan_id":"cebpf4jnsgd1na2vs0mg"},{"bike_id":"d8be8a1c-8569-4787-a8da-767c0adfe995","system_id":"levelo_inurba_marseille","lat":43.305706,"lon":5.365654,"is_reserved":false,"is_disabled":false,"rental_uris":{"android":"levelo://app?vid=d8be8a1c-8569-4787-a8da-767c0adfe995","ios":"levelo://app?vid=d8be8a1c-8569-4787-a8da-767c0adfe995"},"vehicle_type_id":"4","last_reported":1710583636,"current_range_meters":25600,"station_id":"ce4bgs12rcd13ifvqcag","pricing_plan_id":"cebpf4jnsgd1na2vs0mg"},{"bike_id":"306b1fc8-c6ed-4dec-b3ed-8879a3816e51","system_id":"levelo_inurba_marseille","lat":43.305368,"lon":5.367343,"is_reserved":false,"is_disabled":false,"rental_uris":{"android":"levelo://app?vid=306b1fc8-c6ed-4dec-b3ed-8879a3816e51","ios":"levelo://app?vid=306b1fc8-c6ed-4dec-b3ed-8879a3816e51"},"vehicle_type_id":"4","last_reported":1710583636,"current_range_meters":22000,"station_id":"ce4bgrp2rcd13ifvqc9g","pricing_plan_id":"cebpf4jnsgd1na2vs0mg"},{"bike_id":"0274290b-0efb-40d0-8370-cf7a0190b4bb","system_id":"levelo_inurba_marseille","lat":43.305989,"lon":5.37225,"is_reserved":false,"is_disabled":false,"rental_uris":{"android":"levelo://app?vid=0274290b-0efb-40d0-8370-cf7a0190b4bb","ios":"levelo://app?vid=0274290b-0efb-40d0-8370-cf7a0190b4bb"},"vehicle_type_id":"4","last_reported":1710583636,"current_range_meters":19200,"station_id":"ce4bgqh2rcd13ifvqc4g","pricing_plan_id":"cebpf4jnsgd1na2vs0mg"},{"bike_id":"f1f12d1f-a15a-47ca-8342-87b863f2c055","system_id":"levelo_inurba_marseille","lat":43.305989,"lon":5.37225,"is_reserved":false,"is_disabled":false,"rental_uris":{"android":"levelo://app?vid=f1f12d1f-a15a-47ca-8342-87b863f2c055","ios":"levelo://app?vid=f1f12d1f-a15a-47ca-8342-87b863f2c055"},"vehicle_type_id":"4","last_reported":1710583636,"current_range_meters":23600,"station_id":"ce4bgqh2rcd13ifvqc4g","pricing_plan_id":"cebpf4jnsgd1na2vs0mg"},{"bike_id":"25b4c706-18d6-434d-8e8e-ff73ea12e72f","system_id":"levelo_inurba_marseille","lat":43.305989,"lon":5.37225,"is_reserved":false,"is_disabled":false,"rental_uris":{"android":"levelo://app?vid=25b4c706-18d6-434d-8e8e-ff73ea12e72f","ios":"levelo://app?vid=25b4c706-18d6-434d-8e8e-ff73ea12e72f"},"vehicle_type_id":"4","last_reported":1710583636,"current_range_meters":12400,"station_id":"ce4bgqh2rcd13ifvqc4g","pricing_plan_id":"cebpf4jnsgd1na2vs0mg"},{"bike_id":"5060f644-0216-4bda-bfa0-6ab9d7b9a971","system_id":"levelo_inurba_marseille","lat":43.305989,"lon":5.37225,"is_reserved":false,"is_disabled":false,"rental_uris":{"android":"levelo://app?vid=5060f644-0216-4bda-bfa0-6ab9d7b9a971","ios":"levelo://app?vid=5060f644-0216-4bda-bfa0-6ab9d7b9a971"},"vehicle_type_id":"4","last_reported":1710583636,"current_range_meters":22800,"station_id":"ce4bgqh2rcd13ifvqc4g","pricing_plan_id":"cebpf4jnsgd1na2vs0mg"},{"bike_id":"2a0f0ace-2f36-4bc7-b0e3-07c2c378e70b","system_id":"levelo_inurba_marseille","lat":43.305989,"lon":5.37225,"is_reserved":false,"is_disabled":false,"rental_uris":{"android":"levelo://app?vid=2a0f0ace-2f36-4bc7-b0e3-07c2c378e70b","ios":"levelo://app?vid=2a0f0ace-2f36-4bc7-b0e3-07c2c378e70b"},"vehicle_type_id":"4","last_reported":1710583636,"current_range_meters":9600,"station_id":"ce4bgqh2rcd13ifvqc4g","pricing_plan_id":"cebpf4jnsgd1na2vs0mg"},{"bike_id":"492aa455-b8d7-4240-b96d-b859fdf514b4","system_id":"levelo_inurba_marseille","lat":43.305989,"lon":5.37225,"is_reserved":false,"is_disabled":false,"rental_uris":{"android":"levelo://app?vid=492aa455-b8d7-4240-b96d-b859fdf514b4","ios":"levelo://app?vid=492aa455-b8d7-4240-b96d-b859fdf514b4"},"vehicle_type_id":"4","last_reported":1710583636,"current_range_meters":25600,"station_id":"ce4bgqh2rcd13ifvqc4g","pricing_plan_id":"cebpf4jnsgd1na2vs0mg"},{"bike_id":"d9bd1b26-5c36-491a-b8da-677607202d21","system_id":"levelo_inurba_marseille","lat":43.305989,"lon":5.37225,"is_reserved":false,"is_disabled":false,"rental_uris":{"android":"levelo://app?vid=d9bd1b26-5c36-491a-b8da-677607202d21","ios":"levelo://app?vid=d9bd1b26-5c36-491a-b8da-677607202d21"},"vehicle_type_id":"4","last_reported":1710583636,"current_range_meters":31200,"station_id":"ce4bgqh2rcd13ifvqc4g","pricing_plan_id":"cebpf4jnsgd1na2vs0mg"},{"bike_id":"d88096e9-9b89-4a44-8681-1a3a1fe35a96","system_id":"levelo_inurba_marseille","lat":43.305989,"lon":5.37225,"is_reserved":false,"is_disabled":false,"rental_uris":{"android":"levelo://app?vid=d88096e9-9b89-4a44-8681-1a3a1fe35a96","ios":"levelo://app?vid=d88096e9-9b89-4a44-8681-1a3a1fe35a96"},"vehicle_type_id":"4","last_reported":1710583636,"current_range_meters":2800,"station_id":"ce4bgqh2rcd13ifvqc4g","pricing_plan_id":"cebpf4jnsgd1na2vs0mg"},{"bike_id":"3b328f20-ad98-4c20-8539-d2b727ae8ea6","system_id":"levelo_inurba_marseille","lat":43.311131,"lon":5.377651,"is_reserved":false,"is_disabled":false,"rental_uris":{"android":"levelo://app?vid=3b328f20-ad98-4c20-8539-d2b727ae8ea6","ios":"levelo://app?vid=3b328f20-ad98-4c20-8539-d2b727ae8ea6"},"vehicle_type_id":"4","last_reported":1710583636,"current_range_meters":17600,"station_id":"ce4bgt92rcd13ifvqcg0","pricing_plan_id":"cebpf4jnsgd1na2vs0mg"},{"bike_id":"3f998517-2493-4ffc-afbb-e6d8f0c12a60","system_id":"levelo_inurba_marseille","lat":43.311246,"lon":5.377674,"is_reserved":false,"is_disabled":false,"rental_uris":{"android":"levelo://app?vid=3f998517-2493-4ffc-afbb-e6d8f0c12a60","ios":"levelo://app?vid=3f998517-2493-4ffc-afbb-e6d8f0c12a60"},"vehicle_type_id":"4","last_reported":1710583636,"current_range_meters":20800,"station_id":"ce4bgt92rcd13ifvqcg0","pricing_plan_id":"cebpf4jnsgd1na2vs0mg"},{"bike_id":"c03bb4bc-ae79-48cf-af44-2f3aee3a07a0","system_id":"levelo_inurba_marseille","lat":43.31114,"lon":5.377663,"is_reserved":false,"is_disabled":false,"rental_uris":{"android":"levelo://app?vid=c03bb4bc-ae79-48cf-af44-2f3aee3a07a0","ios":"levelo://app?vid=c03bb4bc-ae79-48cf-af44-2f3aee3a07a0"},"vehicle_type_id":"4","last_reported":1710583636,"current_range_meters":0,"station_id":"ce4bgt92rcd13ifvqcg0","pricing_plan_id":"cebpf4jnsgd1na2vs0mg"},{"bike_id":"72bfa971-307a-4450-83a7-0bffd590cd7a","system_id":"levelo_inurba_marseille","lat":43.31117,"lon":5.37773,"is_reserved":false,"is_disabled":false,"rental_uris":{"android":"levelo://app?vid=72bfa971-307a-4450-83a7-0bffd590cd7a","ios":"levelo://app?vid=72bfa971-307a-4450-83a7-0bffd590cd7a"},"vehicle_type_id":"4","last_reported":1710583636,"current_range_meters":30000,"station_id":"ce4bgt92rcd13ifvqcg0","pricing_plan_id":"cebpf4jnsgd1na2vs0mg"},{"bike_id":"fca2a79f-b015-460a-89dd-f894b4b21d2e","system_id":"levelo_inurba_marseille","lat":43.307945,"lon":5.376487,"is_reserved":false,"is_disabled":false,"rental_uris":{"android":"levelo://app?vid=fca2a79f-b015-460a-89dd-f894b4b21d2e","ios":"levelo://app?vid=fca2a79f-b015-460a-89dd-f894b4b21d2e"},"vehicle_type_id":"4","last_reported":1710583636,"current_range_meters":4800,"station_id":"ce4bgv92rcd13ifvqcq0","pricing_plan_id":"cebpf4jnsgd1na2vs0mg"},{"bike_id":"107dbcab-2efb-4998-a326-59015cae38fc","system_id":"levelo_inurba_marseille","lat":43.307945,"lon":5.376487,"is_reserved":false,"is_disabled":false,"rental_uris":{"android":"levelo://app?vid=107dbcab-2efb-4998-a326-59015cae38fc","ios":"levelo://app?vid=107dbcab-2efb-4998-a326-59015cae38fc"},"vehicle_type_id":"4","last_reported":1710583636,"current_range_meters":9600,"station_id":"ce4bgv92rcd13ifvqcq0","pricing_plan_id":"cebpf4jnsgd1na2vs0mg"},{"bike_id":"10b14a32-94f0-4019-8a7a-346602622851","system_id":"levelo_inurba_marseille","lat":43.307945,"lon":5.376487,"is_reserved":false,"is_disabled":false,"rental_uris":{"android":"levelo://app?vid=10b14a32-94f0-4019-8a7a-346602622851","ios":"levelo://app?vid=10b14a32-94f0-4019-8a7a-346602622851"},"vehicle_type_id":"4","last_reported":1710583636,"current_range_meters":4400,"station_id":"ce4bgv92rcd13ifvqcq0","pricing_plan_id":"cebpf4jnsgd1na2vs0mg"},{"bike_id":"200a3e8f-4927-4f6e-9231-f7e799e7658f","system_id":"levelo_inurba_marseille","lat":43.307945,"lon":5.376487,"is_reserved":false,"is_disabled":false,"rental_uris":{"android":"levelo://app?vid=200a3e8f-4927-4f6e-9231-f7e799e7658f","ios":"levelo://app?vid=200a3e8f-4927-4f6e-9231-f7e799e7658f"},"vehicle_type_id":"4","last_reported":1710583636,"current_range_meters":13200,"station_id":"ce4bgv92rcd13ifvqcq0","pricing_plan_id":"cebpf4jnsgd1na2vs0mg"},{"bike_id":"bfa2d3c2-b120-4d84-82e2-12f4fa17f00a","system_id":"levelo_inurba_marseille","lat":43.307945,"lon":5.376487,"is_reserved":false,"is_disabled":false,"rental_uris":{"android":"levelo://app?vid=bfa2d3c2-b120-4d84-82e2-12f4fa17f00a","ios":"levelo://app?vid=bfa2d3c2-b120-4d84-82e2-12f4fa17f00a"},"vehicle_type_id":"4","last_reported":1710583636,"current_range_meters":31200,"station_id":"ce4bgv92rcd13ifvqcq0","pricing_plan_id":"cebpf4jnsgd1na2vs0mg"},{"bike_id":"8cc855a4-98c8-42b4-9984-8d87ca1d13b2","system_id":"levelo_inurba_marseille","lat":43.307945,"lon":5.376487,"is_reserved":false,"is_disabled":false,"rental_uris":{"android":"levelo://app?vid=8cc855a4-98c8-42b4-9984-8d87ca1d13b2","ios":"levelo://app?vid=8cc855a4-98c8-42b4-9984-8d87ca1d13b2"},"vehicle_type_id":"4","last_reported":1710583636,"current_range_meters":31200,"station_id":"ce4bgv92rcd13ifvqcq0","pricing_plan_id":"cebpf4jnsgd1na2vs0mg"},{"bike_id":"e2a43845-1e14-4b9d-99a0-48bbf9ce5ed6","system_id":"levelo_inurba_marseille","lat":43.307945,"lon":5.376487,"is_reserved":false,"is_disabled":false,"rental_uris":{"android":"levelo://app?vid=e2a43845-1e14-4b9d-99a0-48bbf9ce5ed6","ios":"levelo://app?vid=e2a43845-1e14-4b9d-99a0-48bbf9ce5ed6"},"vehicle_type_id":"4","last_reported":1710583636,"current_range_meters":24800,"station_id":"ce4bgv92rcd13ifvqcq0","pricing_plan_id":"cebpf4jnsgd1na2vs0mg"},{"bike_id":"b8b07761-9c45-435a-8001-9890ecfbc5c4","system_id":"levelo_inurba_marseille","lat":43.307945,"lon":5.376487,"is_reserved":false,"is_disabled":false,"rental_uris":{"android":"levelo://app?vid=b8b07761-9c45-435a-8001-9890ecfbc5c4","ios":"levelo://app?vid=b8b07761-9c45-435a-8001-9890ecfbc5c4"},"vehicle_type_id":"4","last_reported":1710583636,"current_range_meters":12000,"station_id":"ce4bgv92rcd13ifvqcq0","pricing_plan_id":"cebpf4jnsgd1na2vs0mg"},{"bike_id":"9bea9bdf-433b-41b5-b5d4-e813dd8388da","system_id":"levelo_inurba_marseille","lat":43.307945,"lon":5.376487,"is_reserved":false,"is_disabled":false,"rental_uris":{"android":"levelo://app?vid=9bea9bdf-433b-41b5-b5d4-e813dd8388da","ios":"levelo://app?vid=9bea9bdf-433b-41b5-b5d4-e813dd8388da"},"vehicle_type_id":"4","last_reported":1710583636,"current_range_meters":29200,"station_id":"ce4bgv92rcd13ifvqcq0","pricing_plan_id":"cebpf4jnsgd1na2vs0mg"},{"bike_id":"b6d420de-685f-42c7-b059-6702576b2453","system_id":"levelo_inurba_marseille","lat":43.307945,"lon":5.376487,"is_reserved":false,"is_disabled":false,"rental_uris":{"android":"levelo://app?vid=b6d420de-685f-42c7-b059-6702576b2453","ios":"levelo://app?vid=b6d420de-685f-42c7-b059-6702576b2453"},"vehicle_type_id":"4","last_reported":1710583636,"current_range_meters":24000,"station_id":"ce4bgv92rcd13ifvqcq0","pricing_plan_id":"cebpf4jnsgd1na2vs0mg"},{"bike_id":"ac4a0407-02e6-49ac-b004-c9870de25c40","system_id":"levelo_inurba_marseille","lat":43.317075,"lon":5.377367,"is_reserved":false,"is_disabled":false,"rental_uris":{"android":"levelo://app?vid=ac4a0407-02e6-49ac-b004-c9870de25c40","ios":"levelo://app?vid=ac4a0407-02e6-49ac-b004-c9870de25c40"},"vehicle_type_id":"4","last_reported":1710583636,"current_range_meters":22000,"station_id":"ce4bgth2rcd13ifvqch0","pricing_plan_id":"cebpf4jnsgd1na2vs0mg"},{"bike_id":"abb32d38-9a83-42c5-b817-44207ed101e1","system_id":"levelo_inurba_marseille","lat":43.317075,"lon":5.377367,"is_reserved":false,"is_disabled":false,"rental_uris":{"android":"levelo://app?vid=abb32d38-9a83-42c5-b817-44207ed101e1","ios":"levelo://app?vid=abb32d38-9a83-42c5-b817-44207ed101e1"},"vehicle_type_id":"4","last_reported":1710583636,"current_range_meters":20400,"station_id":"ce4bgth2rcd13ifvqch0","pricing_plan_id":"cebpf4jnsgd1na2vs0mg"},{"bike_id":"e8573756-89a8-4d97-a50a-cf58b9f2923c","system_id":"levelo_inurba_marseille","lat":43.317075,"lon":5.377367,"is_reserved":false,"is_disabled":false,"rental_uris":{"android":"levelo://app?vid=e8573756-89a8-4d97-a50a-cf58b9f2923c","ios":"levelo://app?vid=e8573756-89a8-4d97-a50a-cf58b9f2923c"},"vehicle_type_id":"4","last_reported":1710583636,"current_range_meters":23600,"station_id":"ce4bgth2rcd13ifvqch0","pricing_plan_id":"cebpf4jnsgd1na2vs0mg"},{"bike_id":"7c03cb85-9fb8-4e93-b1ef-90fa42e389de","system_id":"levelo_inurba_marseille","lat":43.317075,"lon":5.377367,"is_reserved":false,"is_disabled":false,"rental_uris":{"android":"levelo://app?vid=7c03cb85-9fb8-4e93-b1ef-90fa42e389de","ios":"levelo://app?vid=7c03cb85-9fb8-4e93-b1ef-90fa42e389de"},"vehicle_type_id":"4","last_reported":1710583636,"current_range_meters":21200,"station_id":"ce4bgth2rcd13ifvqch0","pricing_plan_id":"cebpf4jnsgd1na2vs0mg"},{"bike_id":"d0365cdb-ac18-4b51-af08-e78a881a8201","system_id":"levelo_inurba_marseille","lat":43.317075,"lon":5.377367,"is_reserved":false,"is_disabled":false,"rental_uris":{"android":"levelo://app?vid=d0365cdb-ac18-4b51-af08-e78a881a8201","ios":"levelo://app?vid=d0365cdb-ac18-4b51-af08-e78a881a8201"},"vehicle_type_id":"4","last_reported":1710583636,"current_range_meters":31200,"station_id":"ce4bgth2rcd13ifvqch0","pricing_plan_id":"cebpf4jnsgd1na2vs0mg"},{"bike_id":"d0d485fc-3c25-4763-ad86-65c86de180cb","system_id":"levelo_inurba_marseille","lat":43.317075,"lon":5.377367,"is_reserved":false,"is_disabled":false,"rental_uris":{"android":"levelo://app?vid=d0d485fc-3c25-4763-ad86-65c86de180cb","ios":"levelo://app?vid=d0d485fc-3c25-4763-ad86-65c86de180cb"},"vehicle_type_id":"4","last_reported":1710583636,"current_range_meters":9200,"station_id":"ce4bgth2rcd13ifvqch0","pricing_plan_id":"cebpf4jnsgd1na2vs0mg"},{"bike_id":"53f1669c-29ff-41ab-91ca-4f91d8b1a36f","system_id":"levelo_inurba_marseille","lat":43.317075,"lon":5.377367,"is_reserved":false,"is_disabled":false,"rental_uris":{"android":"levelo://app?vid=53f1669c-29ff-41ab-91ca-4f91d8b1a36f","ios":"levelo://app?vid=53f1669c-29ff-41ab-91ca-4f91d8b1a36f"},"vehicle_type_id":"4","last_reported":1710583636,"current_range_meters":31200,"station_id":"ce4bgth2rcd13ifvqch0","pricing_plan_id":"cebpf4jnsgd1na2vs0mg"},{"bike_id":"6df8a519-a704-46e9-b3eb-42b1fb917e85","system_id":"levelo_inurba_marseille","lat":43.31772,"lon":5.37781,"is_reserved":false,"is_disabled":false,"rental_uris":{"android":"levelo://app?vid=6df8a519-a704-46e9-b3eb-42b1fb917e85","ios":"levelo://app?vid=6df8a519-a704-46e9-b3eb-42b1fb917e85"},"vehicle_type_id":"4","last_reported":1710583636,"current_range_meters":11600,"station_id":"","pricing_plan_id":"cebpf4jnsgd1na2vs0mg"},{"bike_id":"43c1927d-3186-46f9-a8ab-fbc02a312e08","system_id":"levelo_inurba_marseille","lat":43.30304,"lon":5.368987,"is_reserved":false,"is_disabled":false,"rental_uris":{"android":"levelo://app?vid=43c1927d-3186-46f9-a8ab-fbc02a312e08","ios":"levelo://app?vid=43c1927d-3186-46f9-a8ab-fbc02a312e08"},"vehicle_type_id":"4","last_reported":1710583636,"current_range_meters":22000,"station_id":"ce4bgqh2rcd13ifvqc5g","pricing_plan_id":"cebpf4jnsgd1na2vs0mg"},{"bike_id":"ae491df2-3d1a-433b-833c-b4adc2d18804","system_id":"levelo_inurba_marseille","lat":43.303046,"lon":5.368981,"is_reserved":false,"is_disabled":false,"rental_uris":{"android":"levelo://app?vid=ae491df2-3d1a-433b-833c-b4adc2d18804","ios":"levelo://app?vid=ae491df2-3d1a-433b-833c-b4adc2d18804"},"vehicle_type_id":"4","last_reported":1710583636,"current_range_meters":30000,"station_id":"ce4bgqh2rcd13ifvqc5g","pricing_plan_id":"cebpf4jnsgd1na2vs0mg"},{"bike_id":"47a9ca4c-c775-484e-a592-ef44adbf3952","system_id":"levelo_inurba_marseille","lat":43.320335,"lon":5.379526,"is_reserved":false,"is_disabled":false,"rental_uris":{"android":"levelo://app?vid=47a9ca4c-c775-484e-a592-ef44adbf3952","ios":"levelo://app?vid=47a9ca4c-c775-484e-a592-ef44adbf3952"},"vehicle_type_id":"4","last_reported":1710583636,"current_range_meters":400,"station_id":"","pricing_plan_id":"cebpf4jnsgd1na2vs0mg"},{"bike_id":"2db34319-f609-4bc0-b67a-4db3b64f9647","system_id":"levelo_inurba_marseille","lat":43.30469,"lon":5.37899,"is_reserved":false,"is_disabled":false,"rental_uris":{"android":"levelo://app?vid=2db34319-f609-4bc0-b67a-4db3b64f9647","ios":"levelo://app?vid=2db34319-f609-4bc0-b67a-4db3b64f9647"},"vehicle_type_id":"4","last_reported":1710583636,"current_range_meters":24400,"station_id":"ce4bgup2rcd13ifvqcn0","pricing_plan_id":"cebpf4jnsgd1na2vs0mg"},{"bike_id":"fbc0e331-124f-41dc-a7ac-fa7292304596","system_id":"levelo_inurba_marseille","lat":43.3047,"lon":5.37902,"is_reserved":false,"is_disabled":false,"rental_uris":{"android":"levelo://app?vid=fbc0e331-124f-41dc-a7ac-fa7292304596","ios":"levelo://app?vid=fbc0e331-124f-41dc-a7ac-fa7292304596"},"vehicle_type_id":"4","last_reported":1710583636,"current_range_meters":26000,"station_id":"ce4bgup2rcd13ifvqcn0","pricing_plan_id":"cebpf4jnsgd1na2vs0mg"},{"bike_id":"a861d62e-48b4-4208-99d8-731b6f4001b5","system_id":"levelo_inurba_marseille","lat":43.30471,"lon":5.37904,"is_reserved":false,"is_disabled":false,"rental_uris":{"android":"levelo://app?vid=a861d62e-48b4-4208-99d8-731b6f4001b5","ios":"levelo://app?vid=a861d62e-48b4-4208-99d8-731b6f4001b5"},"vehicle_type_id":"4","last_reported":1710583636,"current_range_meters":27600,"station_id":"ce4bgup2rcd13ifvqcn0","pricing_plan_id":"cebpf4jnsgd1na2vs0mg"},{"bike_id":"cbd641ee-38b0-4225-8052-31032b0bf30d","system_id":"levelo_inurba_marseille","lat":43.30467,"lon":5.379,"is_reserved":false,"is_disabled":false,"rental_uris":{"android":"levelo://app?vid=cbd641ee-38b0-4225-8052-31032b0bf30d","ios":"levelo://app?vid=cbd641ee-38b0-4225-8052-31032b0bf30d"},"vehicle_type_id":"4","last_reported":1710583636,"current_range_meters":23200,"station_id":"ce4bgup2rcd13ifvqcn0","pricing_plan_id":"cebpf4jnsgd1na2vs0mg"},{"bike_id":"39592264-8806-4a31-a6a2-556b8abe3cbd","system_id":"levelo_inurba_marseille","lat":43.324771,"lon":5.36557,"is_reserved":false,"is_disabled":false,"rental_uris":{"android":"levelo://app?vid=39592264-8806-4a31-a6a2-556b8abe3cbd","ios":"levelo://app?vid=39592264-8806-4a31-a6a2-556b8abe3cbd"},"vehicle_type_id":"4","last_reported":1710583636,"current_range_meters":7600,"station_id":"ce4bhs12rcd13ifvqhvg","pricing_plan_id":"cebpf4jnsgd1na2vs0mg"},{"bike_id":"b38bf3dd-1d01-4dda-80f7-c2e6b5071522","system_id":"levelo_inurba_marseille","lat":43.304606,"lon":5.379026,"is_reserved":false,"is_disabled":false,"rental_uris":{"android":"levelo://app?vid=b38bf3dd-1d01-4dda-80f7-c2e6b5071522","ios":"levelo://app?vid=b38bf3dd-1d01-4dda-80f7-c2e6b5071522"},"vehicle_type_id":"4","last_reported":1710583636,"current_range_meters":6800,"station_id":"ce4bgup2rcd13ifvqcn0","pricing_plan_id":"cebpf4jnsgd1na2vs0mg"},{"bike_id":"2ac2c2d1-1d76-4e44-a6ef-4cdc2ec5c432","system_id":"levelo_inurba_marseille","lat":43.304606,"lon":5.379026,"is_reserved":false,"is_disabled":false,"rental_uris":{"android":"levelo://app?vid=2ac2c2d1-1d76-4e44-a6ef-4cdc2ec5c432","ios":"levelo://app?vid=2ac2c2d1-1d76-4e44-a6ef-4cdc2ec5c432"},"vehicle_type_id":"4","last_reported":1710583636,"current_range_meters":8000,"station_id":"ce4bgup2rcd13ifvqcn0","pricing_plan_id":"cebpf4jnsgd1na2vs0mg"},{"bike_id":"ae265a13-991d-46ee-bf38-88b2be09cdbb","system_id":"levelo_inurba_marseille","lat":43.304666,"lon":5.379067,"is_reserved":false,"is_disabled":false,"rental_uris":{"android":"levelo://app?vid=ae265a13-991d-46ee-bf38-88b2be09cdbb","ios":"levelo://app?vid=ae265a13-991d-46ee-bf38-88b2be09cdbb"},"vehicle_type_id":"4","last_reported":1710583636,"current_range_meters":13200,"station_id":"ce4bgup2rcd13ifvqcn0","pricing_plan_id":"cebpf4jnsgd1na2vs0mg"},{"bike_id":"4f017bba-65b4-4e28-8c60-7e0f79c27209","system_id":"levelo_inurba_marseille","lat":43.3046,"lon":5.378985,"is_reserved":false,"is_disabled":false,"rental_uris":{"android":"levelo://app?vid=4f017bba-65b4-4e28-8c60-7e0f79c27209","ios":"levelo://app?vid=4f017bba-65b4-4e28-8c60-7e0f79c27209"},"vehicle_type_id":"4","last_reported":1710583636,"current_range_meters":26400,"station_id":"","pricing_plan_id":"cebpf4jnsgd1na2vs0mg"},{"bike_id":"191e15c4-1467-439a-a416-c3a565d6e85c","system_id":"levelo_inurba_marseille","lat":43.304606,"lon":5.379026,"is_reserved":false,"is_disabled":false,"rental_uris":{"android":"levelo://app?vid=191e15c4-1467-439a-a416-c3a565d6e85c","ios":"levelo://app?vid=191e15c4-1467-439a-a416-c3a565d6e85c"},"vehicle_type_id":"4","last_reported":1710583636,"current_range_meters":26000,"station_id":"ce4bgup2rcd13ifvqcn0","pricing_plan_id":"cebpf4jnsgd1na2vs0mg"},{"bike_id":"61cb9805-d8ce-4a90-a8a9-3e53f2538cf9","system_id":"levelo_inurba_marseille","lat":43.304633,"lon":5.37904,"is_reserved":false,"is_disabled":false,"rental_uris":{"android":"levelo://app?vid=61cb9805-d8ce-4a90-a8a9-3e53f2538cf9","ios":"levelo://app?vid=61cb9805-d8ce-4a90-a8a9-3e53f2538cf9"},"vehicle_type_id":"4","last_reported":1710583636,"current_range_meters":15200,"station_id":"ce4bgup2rcd13ifvqcn0","pricing_plan_id":"cebpf4jnsgd1na2vs0mg"},{"bike_id":"a9db585b-bc8a-4871-ae04-40adb127b814","system_id":"levelo_inurba_marseille","lat":43.304606,"lon":5.379026,"is_reserved":false,"is_disabled":false,"rental_uris":{"android":"levelo://app?vid=a9db585b-bc8a-4871-ae04-40adb127b814","ios":"levelo://app?vid=a9db585b-bc8a-4871-ae04-40adb127b814"},"vehicle_type_id":"4","last_reported":1710583636,"current_range_meters":20800,"station_id":"ce4bgup2rcd13ifvqcn0","pricing_plan_id":"cebpf4jnsgd1na2vs0mg"},{"bike_id":"f0d6eb60-bd4b-4c23-9394-424925573ad2","system_id":"levelo_inurba_marseille","lat":43.30462,"lon":5.37903,"is_reserved":false,"is_disabled":false,"rental_uris":{"android":"levelo://app?vid=f0d6eb60-bd4b-4c23-9394-424925573ad2","ios":"levelo://app?vid=f0d6eb60-bd4b-4c23-9394-424925573ad2"},"vehicle_type_id":"4","last_reported":1710583636,"current_range_meters":26400,"station_id":"ce4bgup2rcd13ifvqcn0","pricing_plan_id":"cebpf4jnsgd1na2vs0mg"},{"bike_id":"4d49449b-d586-45f4-9149-88c6f41c3e85","system_id":"levelo_inurba_marseille","lat":43.304653,"lon":5.379075,"is_reserved":false,"is_disabled":false,"rental_uris":{"android":"levelo://app?vid=4d49449b-d586-45f4-9149-88c6f41c3e85","ios":"levelo://app?vid=4d49449b-d586-45f4-9149-88c6f41c3e85"},"vehicle_type_id":"4","last_reported":1710583636,"current_range_meters":18000,"station_id":"ce4bgup2rcd13ifvqcn0","pricing_plan_id":"cebpf4jnsgd1na2vs0mg"},{"bike_id":"980b5777-9fce-4d2a-b85f-18e034390e1f","system_id":"levelo_inurba_marseille","lat":43.304632,"lon":5.379051,"is_reserved":false,"is_disabled":false,"rental_uris":{"android":"levelo://app?vid=980b5777-9fce-4d2a-b85f-18e034390e1f","ios":"levelo://app?vid=980b5777-9fce-4d2a-b85f-18e034390e1f"},"vehicle_type_id":"4","last_reported":1710583636,"current_range_meters":31200,"station_id":"ce4bgup2rcd13ifvqcn0","pricing_plan_id":"cebpf4jnsgd1na2vs0mg"},{"bike_id":"2c2de541-40f4-44aa-95bd-8648a87732c8","system_id":"levelo_inurba_marseille","lat":43.30458,"lon":5.379,"is_reserved":false,"is_disabled":false,"rental_uris":{"android":"levelo://app?vid=2c2de541-40f4-44aa-95bd-8648a87732c8","ios":"levelo://app?vid=2c2de541-40f4-44aa-95bd-8648a87732c8"},"vehicle_type_id":"4","last_reported":1710583636,"current_range_meters":22400,"station_id":"ce4bgup2rcd13ifvqcn0","pricing_plan_id":"cebpf4jnsgd1na2vs0mg"},{"bike_id":"b6417c31-6801-4605-b630-8cbd4e8c21b2","system_id":"levelo_inurba_marseille","lat":43.304606,"lon":5.379026,"is_reserved":false,"is_disabled":false,"rental_uris":{"android":"levelo://app?vid=b6417c31-6801-4605-b630-8cbd4e8c21b2","ios":"levelo://app?vid=b6417c31-6801-4605-b630-8cbd4e8c21b2"},"vehicle_type_id":"4","last_reported":1710583636,"current_range_meters":18800,"station_id":"ce4bgup2rcd13ifvqcn0","pricing_plan_id":"cebpf4jnsgd1na2vs0mg"},{"bike_id":"29d30630-2839-41b0-a7b9-65540facfbd0","system_id":"levelo_inurba_marseille","lat":43.30462,"lon":5.379061,"is_reserved":false,"is_disabled":false,"rental_uris":{"android":"levelo://app?vid=29d30630-2839-41b0-a7b9-65540facfbd0","ios":"levelo://app?vid=29d30630-2839-41b0-a7b9-65540facfbd0"},"vehicle_type_id":"4","last_reported":1710583636,"current_range_meters":3600,"station_id":"ce4bgup2rcd13ifvqcn0","pricing_plan_id":"cebpf4jnsgd1na2vs0mg"},{"bike_id":"e1898174-96d8-4f73-807c-a4b59561217f","system_id":"levelo_inurba_marseille","lat":43.304606,"lon":5.379026,"is_reserved":false,"is_disabled":false,"rental_uris":{"android":"levelo://app?vid=e1898174-96d8-4f73-807c-a4b59561217f","ios":"levelo://app?vid=e1898174-96d8-4f73-807c-a4b59561217f"},"vehicle_type_id":"4","last_reported":1710583636,"current_range_meters":28000,"station_id":"ce4bgup2rcd13ifvqcn0","pricing_plan_id":"cebpf4jnsgd1na2vs0mg"},{"bike_id":"4ffb9ee5-a1f8-4476-b0d8-42138da27647","system_id":"levelo_inurba_marseille","lat":43.304606,"lon":5.379026,"is_reserved":false,"is_disabled":false,"rental_uris":{"android":"levelo://app?vid=4ffb9ee5-a1f8-4476-b0d8-42138da27647","ios":"levelo://app?vid=4ffb9ee5-a1f8-4476-b0d8-42138da27647"},"vehicle_type_id":"4","last_reported":1710583636,"current_range_meters":22400,"station_id":"ce4bgup2rcd13ifvqcn0","pricing_plan_id":"cebpf4jnsgd1na2vs0mg"},{"bike_id":"9ffcbd6d-7e23-4e51-ba06-b0498dd56ab6","system_id":"levelo_inurba_marseille","lat":43.304606,"lon":5.379026,"is_reserved":false,"is_disabled":false,"rental_uris":{"android":"levelo://app?vid=9ffcbd6d-7e23-4e51-ba06-b0498dd56ab6","ios":"levelo://app?vid=9ffcbd6d-7e23-4e51-ba06-b0498dd56ab6"},"vehicle_type_id":"4","last_reported":1710583636,"current_range_meters":11200,"station_id":"ce4bgup2rcd13ifvqcn0","pricing_plan_id":"cebpf4jnsgd1na2vs0mg"},{"bike_id":"76d45102-6a3b-4edb-a565-015ad57e9787","system_id":"levelo_inurba_marseille","lat":43.3046,"lon":5.379042,"is_reserved":false,"is_disabled":false,"rental_uris":{"android":"levelo://app?vid=76d45102-6a3b-4edb-a565-015ad57e9787","ios":"levelo://app?vid=76d45102-6a3b-4edb-a565-015ad57e9787"},"vehicle_type_id":"4","last_reported":1710583636,"current_range_meters":21200,"station_id":"ce4bgup2rcd13ifvqcn0","pricing_plan_id":"cebpf4jnsgd1na2vs0mg"},{"bike_id":"625ec303-3166-4847-b052-c9416eddbeb7","system_id":"levelo_inurba_marseille","lat":43.304606,"lon":5.379026,"is_reserved":false,"is_disabled":false,"rental_uris":{"android":"levelo://app?vid=625ec303-3166-4847-b052-c9416eddbeb7","ios":"levelo://app?vid=625ec303-3166-4847-b052-c9416eddbeb7"},"vehicle_type_id":"4","last_reported":1710583636,"current_range_meters":27200,"station_id":"ce4bgup2rcd13ifvqcn0","pricing_plan_id":"cebpf4jnsgd1na2vs0mg"},{"bike_id":"f8284a95-f9cf-4d13-b609-697cdf3df66e","system_id":"levelo_inurba_marseille","lat":43.304627,"lon":5.379085,"is_reserved":false,"is_disabled":false,"rental_uris":{"android":"levelo://app?vid=f8284a95-f9cf-4d13-b609-697cdf3df66e","ios":"levelo://app?vid=f8284a95-f9cf-4d13-b609-697cdf3df66e"},"vehicle_type_id":"4","last_reported":1710583636,"current_range_meters":24000,"station_id":"ce4bgup2rcd13ifvqcn0","pricing_plan_id":"cebpf4jnsgd1na2vs0mg"},{"bike_id":"959c2140-00df-4754-b9e8-d4db0ec2bd03","system_id":"levelo_inurba_marseille","lat":43.304606,"lon":5.379026,"is_reserved":false,"is_disabled":false,"rental_uris":{"android":"levelo://app?vid=959c2140-00df-4754-b9e8-d4db0ec2bd03","ios":"levelo://app?vid=959c2140-00df-4754-b9e8-d4db0ec2bd03"},"vehicle_type_id":"4","last_reported":1710583636,"current_range_meters":20000,"station_id":"ce4bgup2rcd13ifvqcn0","pricing_plan_id":"cebpf4jnsgd1na2vs0mg"},{"bike_id":"0b95151d-dec1-4e99-92a4-64f4ced47d85","system_id":"levelo_inurba_marseille","lat":43.304606,"lon":5.379026,"is_reserved":false,"is_disabled":false,"rental_uris":{"android":"levelo://app?vid=0b95151d-dec1-4e99-92a4-64f4ced47d85","ios":"levelo://app?vid=0b95151d-dec1-4e99-92a4-64f4ced47d85"},"vehicle_type_id":"4","last_reported":1710583636,"current_range_meters":24000,"station_id":"ce4bgup2rcd13ifvqcn0","pricing_plan_id":"cebpf4jnsgd1na2vs0mg"},{"bike_id":"df879de8-194f-4616-aa8c-138be02b8601","system_id":"levelo_inurba_marseille","lat":43.304606,"lon":5.379026,"is_reserved":false,"is_disabled":false,"rental_uris":{"android":"levelo://app?vid=df879de8-194f-4616-aa8c-138be02b8601","ios":"levelo://app?vid=df879de8-194f-4616-aa8c-138be02b8601"},"vehicle_type_id":"4","last_reported":1710583636,"current_range_meters":25200,"station_id":"ce4bgup2rcd13ifvqcn0","pricing_plan_id":"cebpf4jnsgd1na2vs0mg"},{"bike_id":"f3537d0c-fd0e-4d0a-9392-6695f1b99e54","system_id":"levelo_inurba_marseille","lat":43.304606,"lon":5.379026,"is_reserved":false,"is_disabled":false,"rental_uris":{"android":"levelo://app?vid=f3537d0c-fd0e-4d0a-9392-6695f1b99e54","ios":"levelo://app?vid=f3537d0c-fd0e-4d0a-9392-6695f1b99e54"},"vehicle_type_id":"4","last_reported":1710583636,"current_range_meters":14800,"station_id":"ce4bgup2rcd13ifvqcn0","pricing_plan_id":"cebpf4jnsgd1na2vs0mg"},{"bike_id":"36bab2ad-05ae-43c7-a1a5-6bcc06be092e","system_id":"levelo_inurba_marseille","lat":43.304606,"lon":5.379026,"is_reserved":false,"is_disabled":false,"rental_uris":{"android":"levelo://app?vid=36bab2ad-05ae-43c7-a1a5-6bcc06be092e","ios":"levelo://app?vid=36bab2ad-05ae-43c7-a1a5-6bcc06be092e"},"vehicle_type_id":"4","last_reported":1710583636,"current_range_meters":7200,"station_id":"ce4bgup2rcd13ifvqcn0","pricing_plan_id":"cebpf4jnsgd1na2vs0mg"},{"bike_id":"89b1d9f0-e524-4d58-bcae-35745f273fc1","system_id":"levelo_inurba_marseille","lat":43.304606,"lon":5.379026,"is_reserved":false,"is_disabled":false,"rental_uris":{"android":"levelo://app?vid=89b1d9f0-e524-4d58-bcae-35745f273fc1","ios":"levelo://app?vid=89b1d9f0-e524-4d58-bcae-35745f273fc1"},"vehicle_type_id":"4","last_reported":1710583636,"current_range_meters":26000,"station_id":"ce4bgup2rcd13ifvqcn0","pricing_plan_id":"cebpf4jnsgd1na2vs0mg"},{"bike_id":"1eccf35e-ec33-4ced-ac8b-0d59178fcdad","system_id":"levelo_inurba_marseille","lat":43.304624,"lon":5.379151,"is_reserved":false,"is_disabled":false,"rental_uris":{"android":"levelo://app?vid=1eccf35e-ec33-4ced-ac8b-0d59178fcdad","ios":"levelo://app?vid=1eccf35e-ec33-4ced-ac8b-0d59178fcdad"},"vehicle_type_id":"4","last_reported":1710583636,"current_range_meters":28000,"station_id":"ce4bgup2rcd13ifvqcn0","pricing_plan_id":"cebpf4jnsgd1na2vs0mg"},{"bike_id":"5408e4c7-2fa4-4dab-a5a0-a5ab8acdc782","system_id":"levelo_inurba_marseille","lat":43.324771,"lon":5.36557,"is_reserved":false,"is_disabled":false,"rental_uris":{"android":"levelo://app?vid=5408e4c7-2fa4-4dab-a5a0-a5ab8acdc782","ios":"levelo://app?vid=5408e4c7-2fa4-4dab-a5a0-a5ab8acdc782"},"vehicle_type_id":"4","last_reported":1710583636,"current_range_meters":4400,"station_id":"ce4bhs12rcd13ifvqhvg","pricing_plan_id":"cebpf4jnsgd1na2vs0mg"},{"bike_id":"1c45c843-cc03-4a68-b764-2774d7e478da","system_id":"levelo_inurba_marseille","lat":43.304606,"lon":5.379026,"is_reserved":false,"is_disabled":false,"rental_uris":{"android":"levelo://app?vid=1c45c843-cc03-4a68-b764-2774d7e478da","ios":"levelo://app?vid=1c45c843-cc03-4a68-b764-2774d7e478da"},"vehicle_type_id":"4","last_reported":1710583636,"current_range_meters":18000,"station_id":"ce4bgup2rcd13ifvqcn0","pricing_plan_id":"cebpf4jnsgd1na2vs0mg"},{"bike_id":"96ade1c6-b8f4-4248-a16c-9ca6451e8605","system_id":"levelo_inurba_marseille","lat":43.324771,"lon":5.36557,"is_reserved":false,"is_disabled":false,"rental_uris":{"android":"levelo://app?vid=96ade1c6-b8f4-4248-a16c-9ca6451e8605","ios":"levelo://app?vid=96ade1c6-b8f4-4248-a16c-9ca6451e8605"},"vehicle_type_id":"4","last_reported":1710583636,"current_range_meters":19600,"station_id":"ce4bhs12rcd13ifvqhvg","pricing_plan_id":"cebpf4jnsgd1na2vs0mg"},{"bike_id":"ca5418d4-3e15-49c1-aef0-01231a72266c","system_id":"levelo_inurba_marseille","lat":43.304606,"lon":5.379026,"is_reserved":false,"is_disabled":false,"rental_uris":{"android":"levelo://app?vid=ca5418d4-3e15-49c1-aef0-01231a72266c","ios":"levelo://app?vid=ca5418d4-3e15-49c1-aef0-01231a72266c"},"vehicle_type_id":"4","last_reported":1710583636,"current_range_meters":28400,"station_id":"ce4bgup2rcd13ifvqcn0","pricing_plan_id":"cebpf4jnsgd1na2vs0mg"},{"bike_id":"dbcac4e1-7582-46cd-b4a2-f4a44c934049","system_id":"levelo_inurba_marseille","lat":43.304606,"lon":5.379026,"is_reserved":false,"is_disabled":false,"rental_uris":{"android":"levelo://app?vid=dbcac4e1-7582-46cd-b4a2-f4a44c934049","ios":"levelo://app?vid=dbcac4e1-7582-46cd-b4a2-f4a44c934049"},"vehicle_type_id":"4","last_reported":1710583636,"current_range_meters":23600,"station_id":"ce4bgup2rcd13ifvqcn0","pricing_plan_id":"cebpf4jnsgd1na2vs0mg"},{"bike_id":"1fad90b3-ff8e-4e6e-8c30-8e54eeb051a1","system_id":"levelo_inurba_marseille","lat":43.324771,"lon":5.36557,"is_reserved":false,"is_disabled":false,"rental_uris":{"android":"levelo://app?vid=1fad90b3-ff8e-4e6e-8c30-8e54eeb051a1","ios":"levelo://app?vid=1fad90b3-ff8e-4e6e-8c30-8e54eeb051a1"},"vehicle_type_id":"4","last_reported":1710583636,"current_range_meters":3600,"station_id":"ce4bhs12rcd13ifvqhvg","pricing_plan_id":"cebpf4jnsgd1na2vs0mg"},{"bike_id":"9c45aeba-4e06-4d9c-8030-c14e4fc31c0e","system_id":"levelo_inurba_marseille","lat":43.304625,"lon":5.379189,"is_reserved":false,"is_disabled":false,"rental_uris":{"android":"levelo://app?vid=9c45aeba-4e06-4d9c-8030-c14e4fc31c0e","ios":"levelo://app?vid=9c45aeba-4e06-4d9c-8030-c14e4fc31c0e"},"vehicle_type_id":"4","last_reported":1710583636,"current_range_meters":21600,"station_id":"ce4bgup2rcd13ifvqcn0","pricing_plan_id":"cebpf4jnsgd1na2vs0mg"},{"bike_id":"446a27f9-cf9a-4f24-9086-74012ecd1a28","system_id":"levelo_inurba_marseille","lat":43.324771,"lon":5.36557,"is_reserved":false,"is_disabled":false,"rental_uris":{"android":"levelo://app?vid=446a27f9-cf9a-4f24-9086-74012ecd1a28","ios":"levelo://app?vid=446a27f9-cf9a-4f24-9086-74012ecd1a28"},"vehicle_type_id":"4","last_reported":1710583636,"current_range_meters":22800,"station_id":"ce4bhs12rcd13ifvqhvg","pricing_plan_id":"cebpf4jnsgd1na2vs0mg"},{"bike_id":"12c419ff-5d5f-445b-9471-a4225b24c594","system_id":"levelo_inurba_marseille","lat":43.324771,"lon":5.36557,"is_reserved":false,"is_disabled":false,"rental_uris":{"android":"levelo://app?vid=12c419ff-5d5f-445b-9471-a4225b24c594","ios":"levelo://app?vid=12c419ff-5d5f-445b-9471-a4225b24c594"},"vehicle_type_id":"4","last_reported":1710583636,"current_range_meters":4000,"station_id":"ce4bhs12rcd13ifvqhvg","pricing_plan_id":"cebpf4jnsgd1na2vs0mg"},{"bike_id":"01b2064c-5a97-4c1d-bd1c-e666c211010b","system_id":"levelo_inurba_marseille","lat":43.304606,"lon":5.379026,"is_reserved":false,"is_disabled":false,"rental_uris":{"android":"levelo://app?vid=01b2064c-5a97-4c1d-bd1c-e666c211010b","ios":"levelo://app?vid=01b2064c-5a97-4c1d-bd1c-e666c211010b"},"vehicle_type_id":"4","last_reported":1710583636,"current_range_meters":7200,"station_id":"ce4bgup2rcd13ifvqcn0","pricing_plan_id":"cebpf4jnsgd1na2vs0mg"},{"bike_id":"c0cc4b46-b357-4a80-98cc-afe13efe41f1","system_id":"levelo_inurba_marseille","lat":43.324771,"lon":5.36557,"is_reserved":false,"is_disabled":false,"rental_uris":{"android":"levelo://app?vid=c0cc4b46-b357-4a80-98cc-afe13efe41f1","ios":"levelo://app?vid=c0cc4b46-b357-4a80-98cc-afe13efe41f1"},"vehicle_type_id":"4","last_reported":1710583636,"current_range_meters":2000,"station_id":"ce4bhs12rcd13ifvqhvg","pricing_plan_id":"cebpf4jnsgd1na2vs0mg"},{"bike_id":"18fc47d4-f43a-4eed-abb4-9d13f9e04f59","system_id":"levelo_inurba_marseille","lat":43.324771,"lon":5.36557,"is_reserved":false,"is_disabled":false,"rental_uris":{"android":"levelo://app?vid=18fc47d4-f43a-4eed-abb4-9d13f9e04f59","ios":"levelo://app?vid=18fc47d4-f43a-4eed-abb4-9d13f9e04f59"},"vehicle_type_id":"4","last_reported":1710583636,"current_range_meters":18000,"station_id":"ce4bhs12rcd13ifvqhvg","pricing_plan_id":"cebpf4jnsgd1na2vs0mg"},{"bike_id":"0beae27c-8e15-427f-98a8-4f6c1fff4039","system_id":"levelo_inurba_marseille","lat":43.324771,"lon":5.36557,"is_reserved":false,"is_disabled":false,"rental_uris":{"android":"levelo://app?vid=0beae27c-8e15-427f-98a8-4f6c1fff4039","ios":"levelo://app?vid=0beae27c-8e15-427f-98a8-4f6c1fff4039"},"vehicle_type_id":"4","last_reported":1710583636,"current_range_meters":5600,"station_id":"ce4bhs12rcd13ifvqhvg","pricing_plan_id":"cebpf4jnsgd1na2vs0mg"},{"bike_id":"3636e797-ae37-4ed8-ae31-11958c8b0dde","system_id":"levelo_inurba_marseille","lat":43.324771,"lon":5.36557,"is_reserved":false,"is_disabled":false,"rental_uris":{"android":"levelo://app?vid=3636e797-ae37-4ed8-ae31-11958c8b0dde","ios":"levelo://app?vid=3636e797-ae37-4ed8-ae31-11958c8b0dde"},"vehicle_type_id":"4","last_reported":1710583636,"current_range_meters":12800,"station_id":"ce4bhs12rcd13ifvqhvg","pricing_plan_id":"cebpf4jnsgd1na2vs0mg"},{"bike_id":"45c182d4-c42c-4114-9e74-abc1eba34bef","system_id":"levelo_inurba_marseille","lat":43.32484,"lon":5.36574,"is_reserved":false,"is_disabled":false,"rental_uris":{"android":"levelo://app?vid=45c182d4-c42c-4114-9e74-abc1eba34bef","ios":"levelo://app?vid=45c182d4-c42c-4114-9e74-abc1eba34bef"},"vehicle_type_id":"4","last_reported":1710583636,"current_range_meters":22000,"station_id":"ce4bhs12rcd13ifvqhvg","pricing_plan_id":"cebpf4jnsgd1na2vs0mg"},{"bike_id":"3b9c054b-f7e9-4542-ae08-45b49d3882d4","system_id":"levelo_inurba_marseille","lat":43.30282,"lon":5.37689,"is_reserved":false,"is_disabled":false,"rental_uris":{"android":"levelo://app?vid=3b9c054b-f7e9-4542-ae08-45b49d3882d4","ios":"levelo://app?vid=3b9c054b-f7e9-4542-ae08-45b49d3882d4"},"vehicle_type_id":"4","last_reported":1710583636,"current_range_meters":26400,"station_id":"ce4bguh2rcd13ifvqcj0","pricing_plan_id":"cebpf4jnsgd1na2vs0mg"},{"bike_id":"26f8ae32-857c-49d4-9477-7288971ce8c8","system_id":"levelo_inurba_marseille","lat":43.302784,"lon":5.377158,"is_reserved":false,"is_disabled":false,"rental_uris":{"android":"levelo://app?vid=26f8ae32-857c-49d4-9477-7288971ce8c8","ios":"levelo://app?vid=26f8ae32-857c-49d4-9477-7288971ce8c8"},"vehicle_type_id":"4","last_reported":1710583636,"current_range_meters":28800,"station_id":"ce4bguh2rcd13ifvqcj0","pricing_plan_id":"cebpf4jnsgd1na2vs0mg"},{"bike_id":"4c9647ce-86ab-4702-aa2e-c8032ea10e05","system_id":"levelo_inurba_marseille","lat":43.302792,"lon":5.377002,"is_reserved":false,"is_disabled":false,"rental_uris":{"android":"levelo://app?vid=4c9647ce-86ab-4702-aa2e-c8032ea10e05","ios":"levelo://app?vid=4c9647ce-86ab-4702-aa2e-c8032ea10e05"},"vehicle_type_id":"4","last_reported":1710583636,"current_range_meters":24000,"station_id":"ce4bguh2rcd13ifvqcj0","pricing_plan_id":"cebpf4jnsgd1na2vs0mg"},{"bike_id":"0a5b0c2b-d9bd-47b4-8ac0-51d09ccf11d5","system_id":"levelo_inurba_marseille","lat":43.302784,"lon":5.377158,"is_reserved":false,"is_disabled":false,"rental_uris":{"android":"levelo://app?vid=0a5b0c2b-d9bd-47b4-8ac0-51d09ccf11d5","ios":"levelo://app?vid=0a5b0c2b-d9bd-47b4-8ac0-51d09ccf11d5"},"vehicle_type_id":"4","last_reported":1710583636,"current_range_meters":28800,"station_id":"ce4bguh2rcd13ifvqcj0","pricing_plan_id":"cebpf4jnsgd1na2vs0mg"},{"bike_id":"5402bcea-1fda-434b-a873-f65ddf501579","system_id":"levelo_inurba_marseille","lat":43.30151,"lon":5.37414,"is_reserved":false,"is_disabled":false,"rental_uris":{"android":"levelo://app?vid=5402bcea-1fda-434b-a873-f65ddf501579","ios":"levelo://app?vid=5402bcea-1fda-434b-a873-f65ddf501579"},"vehicle_type_id":"4","last_reported":1710583636,"current_range_meters":22400,"station_id":"ce4bgs92rcd13ifvqcc0","pricing_plan_id":"cebpf4jnsgd1na2vs0mg"},{"bike_id":"162951de-1276-4fd1-a1c2-8233ad518af4","system_id":"levelo_inurba_marseille","lat":43.30269,"lon":5.37698,"is_reserved":false,"is_disabled":false,"rental_uris":{"android":"levelo://app?vid=162951de-1276-4fd1-a1c2-8233ad518af4","ios":"levelo://app?vid=162951de-1276-4fd1-a1c2-8233ad518af4"},"vehicle_type_id":"4","last_reported":1710583636,"current_range_meters":21600,"station_id":"ce4bguh2rcd13ifvqcj0","pricing_plan_id":"cebpf4jnsgd1na2vs0mg"},{"bike_id":"1f2091dd-912a-41f1-9553-9b5403299062","system_id":"levelo_inurba_marseille","lat":43.30143,"lon":5.37413,"is_reserved":false,"is_disabled":false,"rental_uris":{"android":"levelo://app?vid=1f2091dd-912a-41f1-9553-9b5403299062","ios":"levelo://app?vid=1f2091dd-912a-41f1-9553-9b5403299062"},"vehicle_type_id":"4","last_reported":1710583636,"current_range_meters":21200,"station_id":"ce4bgs92rcd13ifvqcc0","pricing_plan_id":"cebpf4jnsgd1na2vs0mg"},{"bike_id":"2b863be0-eecb-4436-9251-b84350e20abe","system_id":"levelo_inurba_marseille","lat":43.302784,"lon":5.377158,"is_reserved":false,"is_disabled":false,"rental_uris":{"android":"levelo://app?vid=2b863be0-eecb-4436-9251-b84350e20abe","ios":"levelo://app?vid=2b863be0-eecb-4436-9251-b84350e20abe"},"vehicle_type_id":"4","last_reported":1710583636,"current_range_meters":8400,"station_id":"ce4bguh2rcd13ifvqcj0","pricing_plan_id":"cebpf4jnsgd1na2vs0mg"},{"bike_id":"7b1b3367-32e3-4a05-84b0-cd48607ea7cb","system_id":"levelo_inurba_marseille","lat":43.302784,"lon":5.377158,"is_reserved":false,"is_disabled":false,"rental_uris":{"android":"levelo://app?vid=7b1b3367-32e3-4a05-84b0-cd48607ea7cb","ios":"levelo://app?vid=7b1b3367-32e3-4a05-84b0-cd48607ea7cb"},"vehicle_type_id":"4","last_reported":1710583636,"current_range_meters":6000,"station_id":"ce4bguh2rcd13ifvqcj0","pricing_plan_id":"cebpf4jnsgd1na2vs0mg"},{"bike_id":"43833f16-ee04-4384-a9c2-ce7d0e967099","system_id":"levelo_inurba_marseille","lat":43.30145,"lon":5.3742,"is_reserved":false,"is_disabled":false,"rental_uris":{"android":"levelo://app?vid=43833f16-ee04-4384-a9c2-ce7d0e967099","ios":"levelo://app?vid=43833f16-ee04-4384-a9c2-ce7d0e967099"},"vehicle_type_id":"4","last_reported":1710583636,"current_range_meters":22800,"station_id":"ce4bgs92rcd13ifvqcc0","pricing_plan_id":"cebpf4jnsgd1na2vs0mg"},{"bike_id":"8a36de7a-0359-46aa-98cd-ee8a783691bc","system_id":"levelo_inurba_marseille","lat":43.302784,"lon":5.377158,"is_reserved":false,"is_disabled":false,"rental_uris":{"android":"levelo://app?vid=8a36de7a-0359-46aa-98cd-ee8a783691bc","ios":"levelo://app?vid=8a36de7a-0359-46aa-98cd-ee8a783691bc"},"vehicle_type_id":"4","last_reported":1710583636,"current_range_meters":5600,"station_id":"ce4bguh2rcd13ifvqcj0","pricing_plan_id":"cebpf4jnsgd1na2vs0mg"},{"bike_id":"96984f5a-af1a-434b-aba1-92476e3519b1","system_id":"levelo_inurba_marseille","lat":43.302784,"lon":5.377158,"is_reserved":false,"is_disabled":false,"rental_uris":{"android":"levelo://app?vid=96984f5a-af1a-434b-aba1-92476e3519b1","ios":"levelo://app?vid=96984f5a-af1a-434b-aba1-92476e3519b1"},"vehicle_type_id":"4","last_reported":1710583636,"current_range_meters":26800,"station_id":"ce4bguh2rcd13ifvqcj0","pricing_plan_id":"cebpf4jnsgd1na2vs0mg"},{"bike_id":"90af3177-c09f-4629-9533-275ff9bd2f7f","system_id":"levelo_inurba_marseille","lat":43.30143,"lon":5.37413,"is_reserved":false,"is_disabled":false,"rental_uris":{"android":"levelo://app?vid=90af3177-c09f-4629-9533-275ff9bd2f7f","ios":"levelo://app?vid=90af3177-c09f-4629-9533-275ff9bd2f7f"},"vehicle_type_id":"4","last_reported":1710583636,"current_range_meters":20800,"station_id":"ce4bgs92rcd13ifvqcc0","pricing_plan_id":"cebpf4jnsgd1na2vs0mg"},{"bike_id":"7d427a15-bdbc-4234-934d-36f8b1299145","system_id":"levelo_inurba_marseille","lat":43.301395,"lon":5.374256,"is_reserved":false,"is_disabled":false,"rental_uris":{"android":"levelo://app?vid=7d427a15-bdbc-4234-934d-36f8b1299145","ios":"levelo://app?vid=7d427a15-bdbc-4234-934d-36f8b1299145"},"vehicle_type_id":"4","last_reported":1710583636,"current_range_meters":16800,"station_id":"ce4bgs92rcd13ifvqcc0","pricing_plan_id":"cebpf4jnsgd1na2vs0mg"},{"bike_id":"537460a3-2014-4edd-8114-b529c0bee8ea","system_id":"levelo_inurba_marseille","lat":43.30136,"lon":5.3742,"is_reserved":false,"is_disabled":false,"rental_uris":{"android":"levelo://app?vid=537460a3-2014-4edd-8114-b529c0bee8ea","ios":"levelo://app?vid=537460a3-2014-4edd-8114-b529c0bee8ea"},"vehicle_type_id":"4","last_reported":1710583636,"current_range_meters":20800,"station_id":"ce4bgs92rcd13ifvqcc0","pricing_plan_id":"cebpf4jnsgd1na2vs0mg"},{"bike_id":"747ec0e5-a700-4ed0-859f-8b01d77434a9","system_id":"levelo_inurba_marseille","lat":43.319935,"lon":5.381699,"is_reserved":false,"is_disabled":false,"rental_uris":{"android":"levelo://app?vid=747ec0e5-a700-4ed0-859f-8b01d77434a9","ios":"levelo://app?vid=747ec0e5-a700-4ed0-859f-8b01d77434a9"},"vehicle_type_id":"4","last_reported":1710583636,"current_range_meters":27200,"station_id":"ce4bhr12rcd13ifvqhpg","pricing_plan_id":"cebpf4jnsgd1na2vs0mg"},{"bike_id":"be83824f-cd7e-44ed-bda3-89905b40ab1f","system_id":"levelo_inurba_marseille","lat":43.31994,"lon":5.38147,"is_reserved":false,"is_disabled":false,"rental_uris":{"android":"levelo://app?vid=be83824f-cd7e-44ed-bda3-89905b40ab1f","ios":"levelo://app?vid=be83824f-cd7e-44ed-bda3-89905b40ab1f"},"vehicle_type_id":"4","last_reported":1710583636,"current_range_meters":22400,"station_id":"ce4bhr12rcd13ifvqhpg","pricing_plan_id":"cebpf4jnsgd1na2vs0mg"},{"bike_id":"a46f3b86-7dc1-46bc-b469-645f5d47ddad","system_id":"levelo_inurba_marseille","lat":43.319935,"lon":5.381699,"is_reserved":false,"is_disabled":false,"rental_uris":{"android":"levelo://app?vid=a46f3b86-7dc1-46bc-b469-645f5d47ddad","ios":"levelo://app?vid=a46f3b86-7dc1-46bc-b469-645f5d47ddad"},"vehicle_type_id":"4","last_reported":1710583636,"current_range_meters":16800,"station_id":"ce4bhr12rcd13ifvqhpg","pricing_plan_id":"cebpf4jnsgd1na2vs0mg"},{"bike_id":"4bc451a1-3314-4300-994e-f9fd16ea23b7","system_id":"levelo_inurba_marseille","lat":43.31997,"lon":5.38147,"is_reserved":false,"is_disabled":false,"rental_uris":{"android":"levelo://app?vid=4bc451a1-3314-4300-994e-f9fd16ea23b7","ios":"levelo://app?vid=4bc451a1-3314-4300-994e-f9fd16ea23b7"},"vehicle_type_id":"4","last_reported":1710583636,"current_range_meters":26000,"station_id":"ce4bhr12rcd13ifvqhpg","pricing_plan_id":"cebpf4jnsgd1na2vs0mg"},{"bike_id":"5e3113e3-29f6-4f14-a9c5-2af5d9ac0333","system_id":"levelo_inurba_marseille","lat":43.319958,"lon":5.381488,"is_reserved":false,"is_disabled":false,"rental_uris":{"android":"levelo://app?vid=5e3113e3-29f6-4f14-a9c5-2af5d9ac0333","ios":"levelo://app?vid=5e3113e3-29f6-4f14-a9c5-2af5d9ac0333"},"vehicle_type_id":"4","last_reported":1710583636,"current_range_meters":6800,"station_id":"ce4bhr12rcd13ifvqhpg","pricing_plan_id":"cebpf4jnsgd1na2vs0mg"},{"bike_id":"99b6d252-0b8b-4d81-bda6-bfc67dc33b41","system_id":"levelo_inurba_marseille","lat":43.319954,"lon":5.381492,"is_reserved":false,"is_disabled":false,"rental_uris":{"android":"levelo://app?vid=99b6d252-0b8b-4d81-bda6-bfc67dc33b41","ios":"levelo://app?vid=99b6d252-0b8b-4d81-bda6-bfc67dc33b41"},"vehicle_type_id":"4","last_reported":1710583636,"current_range_meters":24800,"station_id":"ce4bhr12rcd13ifvqhpg","pricing_plan_id":"cebpf4jnsgd1na2vs0mg"},{"bike_id":"32f5d04a-4a49-412d-8179-8f69e2f51ddc","system_id":"levelo_inurba_marseille","lat":43.319937,"lon":5.381551,"is_reserved":false,"is_disabled":false,"rental_uris":{"android":"levelo://app?vid=32f5d04a-4a49-412d-8179-8f69e2f51ddc","ios":"levelo://app?vid=32f5d04a-4a49-412d-8179-8f69e2f51ddc"},"vehicle_type_id":"4","last_reported":1710583636,"current_range_meters":4000,"station_id":"ce4bhr12rcd13ifvqhpg","pricing_plan_id":"cebpf4jnsgd1na2vs0mg"},{"bike_id":"b3015aab-550e-45d6-9e44-61aef91bf99b","system_id":"levelo_inurba_marseille","lat":43.31993,"lon":5.38156,"is_reserved":false,"is_disabled":false,"rental_uris":{"android":"levelo://app?vid=b3015aab-550e-45d6-9e44-61aef91bf99b","ios":"levelo://app?vid=b3015aab-550e-45d6-9e44-61aef91bf99b"},"vehicle_type_id":"4","last_reported":1710583636,"current_range_meters":26800,"station_id":"ce4bhr12rcd13ifvqhpg","pricing_plan_id":"cebpf4jnsgd1na2vs0mg"},{"bike_id":"b2273e34-f3b1-45d8-a7c1-e0a5296f08a5","system_id":"levelo_inurba_marseille","lat":43.319935,"lon":5.381699,"is_reserved":false,"is_disabled":false,"rental_uris":{"android":"levelo://app?vid=b2273e34-f3b1-45d8-a7c1-e0a5296f08a5","ios":"levelo://app?vid=b2273e34-f3b1-45d8-a7c1-e0a5296f08a5"},"vehicle_type_id":"4","last_reported":1710583636,"current_range_meters":17600,"station_id":"ce4bhr12rcd13ifvqhpg","pricing_plan_id":"cebpf4jnsgd1na2vs0mg"},{"bike_id":"047bfaaa-aa6b-49b2-8002-e870a4645c6c","system_id":"levelo_inurba_marseille","lat":43.319935,"lon":5.381699,"is_reserved":false,"is_disabled":false,"rental_uris":{"android":"levelo://app?vid=047bfaaa-aa6b-49b2-8002-e870a4645c6c","ios":"levelo://app?vid=047bfaaa-aa6b-49b2-8002-e870a4645c6c"},"vehicle_type_id":"4","last_reported":1710583636,"current_range_meters":15200,"station_id":"ce4bhr12rcd13ifvqhpg","pricing_plan_id":"cebpf4jnsgd1na2vs0mg"},{"bike_id":"69f8b15c-9601-4b8c-bff4-a1e890e15c28","system_id":"levelo_inurba_marseille","lat":43.31351,"lon":5.38496,"is_reserved":false,"is_disabled":false,"rental_uris":{"android":"levelo://app?vid=69f8b15c-9601-4b8c-bff4-a1e890e15c28","ios":"levelo://app?vid=69f8b15c-9601-4b8c-bff4-a1e890e15c28"},"vehicle_type_id":"4","last_reported":1710583636,"current_range_meters":29200,"station_id":"ce4bgt92rcd13ifvqcf0","pricing_plan_id":"cebpf4jnsgd1na2vs0mg"},{"bike_id":"ab89510c-c23e-43e0-97ff-ec5e4245d28a","system_id":"levelo_inurba_marseille","lat":43.313571,"lon":5.384829,"is_reserved":false,"is_disabled":false,"rental_uris":{"android":"levelo://app?vid=ab89510c-c23e-43e0-97ff-ec5e4245d28a","ios":"levelo://app?vid=ab89510c-c23e-43e0-97ff-ec5e4245d28a"},"vehicle_type_id":"4","last_reported":1710583636,"current_range_meters":10800,"station_id":"ce4bgt92rcd13ifvqcf0","pricing_plan_id":"cebpf4jnsgd1na2vs0mg"},{"bike_id":"83a79c9f-df2c-4f7c-91df-7874e74f6cae","system_id":"levelo_inurba_marseille","lat":43.31357,"lon":5.38502,"is_reserved":false,"is_disabled":false,"rental_uris":{"android":"levelo://app?vid=83a79c9f-df2c-4f7c-91df-7874e74f6cae","ios":"levelo://app?vid=83a79c9f-df2c-4f7c-91df-7874e74f6cae"},"vehicle_type_id":"4","last_reported":1710583636,"current_range_meters":13200,"station_id":"ce4bgt92rcd13ifvqcf0","pricing_plan_id":"cebpf4jnsgd1na2vs0mg"},{"bike_id":"7a000f2e-937b-45be-9afd-e114a4052f42","system_id":"levelo_inurba_marseille","lat":43.305364,"lon":5.384119,"is_reserved":false,"is_disabled":false,"rental_uris":{"android":"levelo://app?vid=7a000f2e-937b-45be-9afd-e114a4052f42","ios":"levelo://app?vid=7a000f2e-937b-45be-9afd-e114a4052f42"},"vehicle_type_id":"4","last_reported":1710583636,"current_range_meters":19200,"station_id":"ce4bgg92rcd13ifvqb30","pricing_plan_id":"cebpf4jnsgd1na2vs0mg"},{"bike_id":"c563d01e-fd76-4e05-a3d2-333ae6195e2d","system_id":"levelo_inurba_marseille","lat":43.299724,"lon":5.371829,"is_reserved":false,"is_disabled":false,"rental_uris":{"android":"levelo://app?vid=c563d01e-fd76-4e05-a3d2-333ae6195e2d","ios":"levelo://app?vid=c563d01e-fd76-4e05-a3d2-333ae6195e2d"},"vehicle_type_id":"4","last_reported":1710583636,"current_range_meters":4800,"station_id":"ce4bgr92rcd13ifvqc7g","pricing_plan_id":"cebpf4jnsgd1na2vs0mg"},{"bike_id":"cd1a11d9-01f8-46b3-bba3-8329fc63cfdd","system_id":"levelo_inurba_marseille","lat":43.31244,"lon":5.38673,"is_reserved":false,"is_disabled":false,"rental_uris":{"android":"levelo://app?vid=cd1a11d9-01f8-46b3-bba3-8329fc63cfdd","ios":"levelo://app?vid=cd1a11d9-01f8-46b3-bba3-8329fc63cfdd"},"vehicle_type_id":"4","last_reported":1710583636,"current_range_meters":10800,"station_id":"","pricing_plan_id":"cebpf4jnsgd1na2vs0mg"},{"bike_id":"3ebf2830-9bf4-4f3f-b349-f3bf5bbad497","system_id":"levelo_inurba_marseille","lat":43.305364,"lon":5.384119,"is_reserved":false,"is_disabled":false,"rental_uris":{"android":"levelo://app?vid=3ebf2830-9bf4-4f3f-b349-f3bf5bbad497","ios":"levelo://app?vid=3ebf2830-9bf4-4f3f-b349-f3bf5bbad497"},"vehicle_type_id":"4","last_reported":1710583636,"current_range_meters":22400,"station_id":"ce4bgg92rcd13ifvqb30","pricing_plan_id":"cebpf4jnsgd1na2vs0mg"},{"bike_id":"e0de2d25-9fe1-4404-9be7-304672b5da33","system_id":"levelo_inurba_marseille","lat":43.298433,"lon":5.362774,"is_reserved":false,"is_disabled":false,"rental_uris":{"android":"levelo://app?vid=e0de2d25-9fe1-4404-9be7-304672b5da33","ios":"levelo://app?vid=e0de2d25-9fe1-4404-9be7-304672b5da33"},"vehicle_type_id":"4","last_reported":1710583636,"current_range_meters":30800,"station_id":"ce4bgpp2rcd13ifvqc3g","pricing_plan_id":"cebpf4jnsgd1na2vs0mg"},{"bike_id":"0943e1f2-f9ba-4fa2-b2ee-6caaea3acd8d","system_id":"levelo_inurba_marseille","lat":43.298433,"lon":5.362774,"is_reserved":false,"is_disabled":false,"rental_uris":{"android":"levelo://app?vid=0943e1f2-f9ba-4fa2-b2ee-6caaea3acd8d","ios":"levelo://app?vid=0943e1f2-f9ba-4fa2-b2ee-6caaea3acd8d"},"vehicle_type_id":"4","last_reported":1710583636,"current_range_meters":30400,"station_id":"ce4bgpp2rcd13ifvqc3g","pricing_plan_id":"cebpf4jnsgd1na2vs0mg"},{"bike_id":"3845ddac-5263-4a4f-a865-4c08e0d998df","system_id":"levelo_inurba_marseille","lat":43.305364,"lon":5.384119,"is_reserved":false,"is_disabled":false,"rental_uris":{"android":"levelo://app?vid=3845ddac-5263-4a4f-a865-4c08e0d998df","ios":"levelo://app?vid=3845ddac-5263-4a4f-a865-4c08e0d998df"},"vehicle_type_id":"4","last_reported":1710583636,"current_range_meters":22400,"station_id":"ce4bgg92rcd13ifvqb30","pricing_plan_id":"cebpf4jnsgd1na2vs0mg"},{"bike_id":"b70edced-f168-4931-a50c-3e0cd7eb8981","system_id":"levelo_inurba_marseille","lat":43.298433,"lon":5.362774,"is_reserved":false,"is_disabled":false,"rental_uris":{"android":"levelo://app?vid=b70edced-f168-4931-a50c-3e0cd7eb8981","ios":"levelo://app?vid=b70edced-f168-4931-a50c-3e0cd7eb8981"},"vehicle_type_id":"4","last_reported":1710583636,"current_range_meters":5600,"station_id":"ce4bgpp2rcd13ifvqc3g","pricing_plan_id":"cebpf4jnsgd1na2vs0mg"},{"bike_id":"6e85ddf1-c9ac-4be8-a5f0-bdbb41bcedc4","system_id":"levelo_inurba_marseille","lat":43.29851,"lon":5.36288,"is_reserved":false,"is_disabled":false,"rental_uris":{"android":"levelo://app?vid=6e85ddf1-c9ac-4be8-a5f0-bdbb41bcedc4","ios":"levelo://app?vid=6e85ddf1-c9ac-4be8-a5f0-bdbb41bcedc4"},"vehicle_type_id":"4","last_reported":1710583636,"current_range_meters":18000,"station_id":"ce4bgpp2rcd13ifvqc3g","pricing_plan_id":"cebpf4jnsgd1na2vs0mg"},{"bike_id":"9b915ac9-b105-49e3-a08d-4a203ee281ad","system_id":"levelo_inurba_marseille","lat":43.305364,"lon":5.384119,"is_reserved":false,"is_disabled":false,"rental_uris":{"android":"levelo://app?vid=9b915ac9-b105-49e3-a08d-4a203ee281ad","ios":"levelo://app?vid=9b915ac9-b105-49e3-a08d-4a203ee281ad"},"vehicle_type_id":"4","last_reported":1710583636,"current_range_meters":20000,"station_id":"ce4bgg92rcd13ifvqb30","pricing_plan_id":"cebpf4jnsgd1na2vs0mg"},{"bike_id":"65391080-29c6-4a9a-add8-013d292a12ce","system_id":"levelo_inurba_marseille","lat":43.298433,"lon":5.362774,"is_reserved":false,"is_disabled":false,"rental_uris":{"android":"levelo://app?vid=65391080-29c6-4a9a-add8-013d292a12ce","ios":"levelo://app?vid=65391080-29c6-4a9a-add8-013d292a12ce"},"vehicle_type_id":"4","last_reported":1710583636,"current_range_meters":20800,"station_id":"ce4bgpp2rcd13ifvqc3g","pricing_plan_id":"cebpf4jnsgd1na2vs0mg"},{"bike_id":"6e61e80e-d5bb-4dfc-a6ab-d3973bd8fc15","system_id":"levelo_inurba_marseille","lat":43.298433,"lon":5.362774,"is_reserved":false,"is_disabled":false,"rental_uris":{"android":"levelo://app?vid=6e61e80e-d5bb-4dfc-a6ab-d3973bd8fc15","ios":"levelo://app?vid=6e61e80e-d5bb-4dfc-a6ab-d3973bd8fc15"},"vehicle_type_id":"4","last_reported":1710583636,"current_range_meters":31200,"station_id":"ce4bgpp2rcd13ifvqc3g","pricing_plan_id":"cebpf4jnsgd1na2vs0mg"},{"bike_id":"fd7d95b7-5a86-4ada-aca2-d502dd67ae3a","system_id":"levelo_inurba_marseille","lat":43.305364,"lon":5.384119,"is_reserved":false,"is_disabled":false,"rental_uris":{"android":"levelo://app?vid=fd7d95b7-5a86-4ada-aca2-d502dd67ae3a","ios":"levelo://app?vid=fd7d95b7-5a86-4ada-aca2-d502dd67ae3a"},"vehicle_type_id":"4","last_reported":1710583636,"current_range_meters":6400,"station_id":"ce4bgg92rcd13ifvqb30","pricing_plan_id":"cebpf4jnsgd1na2vs0mg"},{"bike_id":"f75046b0-5840-4a74-b9bd-5675791eab6d","system_id":"levelo_inurba_marseille","lat":43.298433,"lon":5.362774,"is_reserved":false,"is_disabled":false,"rental_uris":{"android":"levelo://app?vid=f75046b0-5840-4a74-b9bd-5675791eab6d","ios":"levelo://app?vid=f75046b0-5840-4a74-b9bd-5675791eab6d"},"vehicle_type_id":"4","last_reported":1710583636,"current_range_meters":31200,"station_id":"ce4bgpp2rcd13ifvqc3g","pricing_plan_id":"cebpf4jnsgd1na2vs0mg"},{"bike_id":"48cf51db-ff7d-4776-abc9-4c05cb3deb78","system_id":"levelo_inurba_marseille","lat":43.298433,"lon":5.362774,"is_reserved":false,"is_disabled":false,"rental_uris":{"android":"levelo://app?vid=48cf51db-ff7d-4776-abc9-4c05cb3deb78","ios":"levelo://app?vid=48cf51db-ff7d-4776-abc9-4c05cb3deb78"},"vehicle_type_id":"4","last_reported":1710583636,"current_range_meters":29600,"station_id":"ce4bgpp2rcd13ifvqc3g","pricing_plan_id":"cebpf4jnsgd1na2vs0mg"},{"bike_id":"bba310e9-6071-4e70-8864-580db65391f1","system_id":"levelo_inurba_marseille","lat":43.298433,"lon":5.362774,"is_reserved":false,"is_disabled":false,"rental_uris":{"android":"levelo://app?vid=bba310e9-6071-4e70-8864-580db65391f1","ios":"levelo://app?vid=bba310e9-6071-4e70-8864-580db65391f1"},"vehicle_type_id":"4","last_reported":1710583636,"current_range_meters":16000,"station_id":"ce4bgpp2rcd13ifvqc3g","pricing_plan_id":"cebpf4jnsgd1na2vs0mg"},{"bike_id":"9b5b9100-35d8-46b6-a1f7-767dc348d219","system_id":"levelo_inurba_marseille","lat":43.305364,"lon":5.384119,"is_reserved":false,"is_disabled":false,"rental_uris":{"android":"levelo://app?vid=9b5b9100-35d8-46b6-a1f7-767dc348d219","ios":"levelo://app?vid=9b5b9100-35d8-46b6-a1f7-767dc348d219"},"vehicle_type_id":"4","last_reported":1710583636,"current_range_meters":31200,"station_id":"ce4bgg92rcd13ifvqb30","pricing_plan_id":"cebpf4jnsgd1na2vs0mg"},{"bike_id":"810110b3-359d-4ded-8015-87652172e161","system_id":"levelo_inurba_marseille","lat":43.298433,"lon":5.362774,"is_reserved":false,"is_disabled":false,"rental_uris":{"android":"levelo://app?vid=810110b3-359d-4ded-8015-87652172e161","ios":"levelo://app?vid=810110b3-359d-4ded-8015-87652172e161"},"vehicle_type_id":"4","last_reported":1710583636,"current_range_meters":16800,"station_id":"ce4bgpp2rcd13ifvqc3g","pricing_plan_id":"cebpf4jnsgd1na2vs0mg"},{"bike_id":"3d49ccf2-a358-4030-9d88-1af3990c3331","system_id":"levelo_inurba_marseille","lat":43.298433,"lon":5.362774,"is_reserved":false,"is_disabled":false,"rental_uris":{"android":"levelo://app?vid=3d49ccf2-a358-4030-9d88-1af3990c3331","ios":"levelo://app?vid=3d49ccf2-a358-4030-9d88-1af3990c3331"},"vehicle_type_id":"4","last_reported":1710583636,"current_range_meters":28800,"station_id":"ce4bgpp2rcd13ifvqc3g","pricing_plan_id":"cebpf4jnsgd1na2vs0mg"},{"bike_id":"24496dc4-121a-47cc-8540-41754ba88112","system_id":"levelo_inurba_marseille","lat":43.298433,"lon":5.362774,"is_reserved":false,"is_disabled":false,"rental_uris":{"android":"levelo://app?vid=24496dc4-121a-47cc-8540-41754ba88112","ios":"levelo://app?vid=24496dc4-121a-47cc-8540-41754ba88112"},"vehicle_type_id":"4","last_reported":1710583636,"current_range_meters":29600,"station_id":"ce4bgpp2rcd13ifvqc3g","pricing_plan_id":"cebpf4jnsgd1na2vs0mg"},{"bike_id":"43003689-ebf5-476f-8f33-74515f41b244","system_id":"levelo_inurba_marseille","lat":43.298433,"lon":5.362774,"is_reserved":false,"is_disabled":false,"rental_uris":{"android":"levelo://app?vid=43003689-ebf5-476f-8f33-74515f41b244","ios":"levelo://app?vid=43003689-ebf5-476f-8f33-74515f41b244"},"vehicle_type_id":"4","last_reported":1710583636,"current_range_meters":25600,"station_id":"ce4bgpp2rcd13ifvqc3g","pricing_plan_id":"cebpf4jnsgd1na2vs0mg"},{"bike_id":"65058614-5f97-451c-b059-c6af5eef5ad5","system_id":"levelo_inurba_marseille","lat":43.298433,"lon":5.362774,"is_reserved":false,"is_disabled":false,"rental_uris":{"android":"levelo://app?vid=65058614-5f97-451c-b059-c6af5eef5ad5","ios":"levelo://app?vid=65058614-5f97-451c-b059-c6af5eef5ad5"},"vehicle_type_id":"4","last_reported":1710583636,"current_range_meters":8800,"station_id":"ce4bgpp2rcd13ifvqc3g","pricing_plan_id":"cebpf4jnsgd1na2vs0mg"},{"bike_id":"2a5e6a80-1a72-439f-96fc-c4a8a739ce7e","system_id":"levelo_inurba_marseille","lat":43.298433,"lon":5.362774,"is_reserved":false,"is_disabled":false,"rental_uris":{"android":"levelo://app?vid=2a5e6a80-1a72-439f-96fc-c4a8a739ce7e","ios":"levelo://app?vid=2a5e6a80-1a72-439f-96fc-c4a8a739ce7e"},"vehicle_type_id":"4","last_reported":1710583636,"current_range_meters":28400,"station_id":"ce4bgpp2rcd13ifvqc3g","pricing_plan_id":"cebpf4jnsgd1na2vs0mg"},{"bike_id":"9d3d6097-dea9-4ef3-953e-1c763fd0c8c1","system_id":"levelo_inurba_marseille","lat":43.299243,"lon":5.374807,"is_reserved":false,"is_disabled":false,"rental_uris":{"android":"levelo://app?vid=9d3d6097-dea9-4ef3-953e-1c763fd0c8c1","ios":"levelo://app?vid=9d3d6097-dea9-4ef3-953e-1c763fd0c8c1"},"vehicle_type_id":"4","last_reported":1710583636,"current_range_meters":30000,"station_id":"ce4bgjh2rcd13ifvqbg0","pricing_plan_id":"cebpf4jnsgd1na2vs0mg"},{"bike_id":"44d6f993-71fd-42a6-99ea-dc0719855f61","system_id":"levelo_inurba_marseille","lat":43.29911,"lon":5.37467,"is_reserved":false,"is_disabled":false,"rental_uris":{"android":"levelo://app?vid=44d6f993-71fd-42a6-99ea-dc0719855f61","ios":"levelo://app?vid=44d6f993-71fd-42a6-99ea-dc0719855f61"},"vehicle_type_id":"4","last_reported":1710583636,"current_range_meters":20400,"station_id":"ce4bgjh2rcd13ifvqbg0","pricing_plan_id":"cebpf4jnsgd1na2vs0mg"},{"bike_id":"3ff125a5-dff1-4591-b6cc-449dc2424878","system_id":"levelo_inurba_marseille","lat":43.322857,"lon":5.382632,"is_reserved":false,"is_disabled":false,"rental_uris":{"android":"levelo://app?vid=3ff125a5-dff1-4591-b6cc-449dc2424878","ios":"levelo://app?vid=3ff125a5-dff1-4591-b6cc-449dc2424878"},"vehicle_type_id":"4","last_reported":1710583636,"current_range_meters":21600,"station_id":"ce4bhr12rcd13ifvqhqg","pricing_plan_id":"cebpf4jnsgd1na2vs0mg"},{"bike_id":"a1ea46c0-4921-4767-a801-a177044432f3","system_id":"levelo_inurba_marseille","lat":43.322872,"lon":5.382756,"is_reserved":false,"is_disabled":false,"rental_uris":{"android":"levelo://app?vid=a1ea46c0-4921-4767-a801-a177044432f3","ios":"levelo://app?vid=a1ea46c0-4921-4767-a801-a177044432f3"},"vehicle_type_id":"4","last_reported":1710583636,"current_range_meters":31200,"station_id":"ce4bhr12rcd13ifvqhqg","pricing_plan_id":"cebpf4jnsgd1na2vs0mg"},{"bike_id":"2d6887a7-62ae-4d89-8c19-2ea133424140","system_id":"levelo_inurba_marseille","lat":43.322872,"lon":5.382756,"is_reserved":false,"is_disabled":false,"rental_uris":{"android":"levelo://app?vid=2d6887a7-62ae-4d89-8c19-2ea133424140","ios":"levelo://app?vid=2d6887a7-62ae-4d89-8c19-2ea133424140"},"vehicle_type_id":"4","last_reported":1710583636,"current_range_meters":5600,"station_id":"ce4bhr12rcd13ifvqhqg","pricing_plan_id":"cebpf4jnsgd1na2vs0mg"},{"bike_id":"26a6f107-4553-428a-b878-f3d63b74f859","system_id":"levelo_inurba_marseille","lat":43.322872,"lon":5.382756,"is_reserved":false,"is_disabled":false,"rental_uris":{"android":"levelo://app?vid=26a6f107-4553-428a-b878-f3d63b74f859","ios":"levelo://app?vid=26a6f107-4553-428a-b878-f3d63b74f859"},"vehicle_type_id":"4","last_reported":1710583636,"current_range_meters":11200,"station_id":"ce4bhr12rcd13ifvqhqg","pricing_plan_id":"cebpf4jnsgd1na2vs0mg"},{"bike_id":"36727d06-0af4-4c64-88de-4193d3d2494b","system_id":"levelo_inurba_marseille","lat":43.322872,"lon":5.382756,"is_reserved":false,"is_disabled":false,"rental_uris":{"android":"levelo://app?vid=36727d06-0af4-4c64-88de-4193d3d2494b","ios":"levelo://app?vid=36727d06-0af4-4c64-88de-4193d3d2494b"},"vehicle_type_id":"4","last_reported":1710583636,"current_range_meters":19600,"station_id":"ce4bhr12rcd13ifvqhqg","pricing_plan_id":"cebpf4jnsgd1na2vs0mg"},{"bike_id":"7de8a036-fee5-49f4-bee4-a38985be33cf","system_id":"levelo_inurba_marseille","lat":43.298433,"lon":5.362774,"is_reserved":false,"is_disabled":false,"rental_uris":{"android":"levelo://app?vid=7de8a036-fee5-49f4-bee4-a38985be33cf","ios":"levelo://app?vid=7de8a036-fee5-49f4-bee4-a38985be33cf"},"vehicle_type_id":"4","last_reported":1710583636,"current_range_meters":7200,"station_id":"ce4bgpp2rcd13ifvqc3g","pricing_plan_id":"cebpf4jnsgd1na2vs0mg"},{"bike_id":"9be1610f-c31d-4ce8-90f5-92648a7ce7bd","system_id":"levelo_inurba_marseille","lat":43.322872,"lon":5.382756,"is_reserved":false,"is_disabled":false,"rental_uris":{"android":"levelo://app?vid=9be1610f-c31d-4ce8-90f5-92648a7ce7bd","ios":"levelo://app?vid=9be1610f-c31d-4ce8-90f5-92648a7ce7bd"},"vehicle_type_id":"4","last_reported":1710583636,"current_range_meters":22000,"station_id":"ce4bhr12rcd13ifvqhqg","pricing_plan_id":"cebpf4jnsgd1na2vs0mg"},{"bike_id":"7d711117-8f24-4ca5-af35-2d207110a750","system_id":"levelo_inurba_marseille","lat":43.322872,"lon":5.382756,"is_reserved":false,"is_disabled":false,"rental_uris":{"android":"levelo://app?vid=7d711117-8f24-4ca5-af35-2d207110a750","ios":"levelo://app?vid=7d711117-8f24-4ca5-af35-2d207110a750"},"vehicle_type_id":"4","last_reported":1710583636,"current_range_meters":31200,"station_id":"ce4bhr12rcd13ifvqhqg","pricing_plan_id":"cebpf4jnsgd1na2vs0mg"},{"bike_id":"41a964d5-3943-4f24-b8cf-62a929f835d5","system_id":"levelo_inurba_marseille","lat":43.322872,"lon":5.382756,"is_reserved":false,"is_disabled":false,"rental_uris":{"android":"levelo://app?vid=41a964d5-3943-4f24-b8cf-62a929f835d5","ios":"levelo://app?vid=41a964d5-3943-4f24-b8cf-62a929f835d5"},"vehicle_type_id":"4","last_reported":1710583636,"current_range_meters":20400,"station_id":"ce4bhr12rcd13ifvqhqg","pricing_plan_id":"cebpf4jnsgd1na2vs0mg"},{"bike_id":"c7138234-dee1-496b-a4b5-ec50ce387339","system_id":"levelo_inurba_marseille","lat":43.322872,"lon":5.382756,"is_reserved":false,"is_disabled":false,"rental_uris":{"android":"levelo://app?vid=c7138234-dee1-496b-a4b5-ec50ce387339","ios":"levelo://app?vid=c7138234-dee1-496b-a4b5-ec50ce387339"},"vehicle_type_id":"4","last_reported":1710583636,"current_range_meters":16400,"station_id":"ce4bhr12rcd13ifvqhqg","pricing_plan_id":"cebpf4jnsgd1na2vs0mg"},{"bike_id":"8174eae5-526e-4bee-81a1-41cdff59d856","system_id":"levelo_inurba_marseille","lat":43.297794,"lon":5.370888,"is_reserved":false,"is_disabled":false,"rental_uris":{"android":"levelo://app?vid=8174eae5-526e-4bee-81a1-41cdff59d856","ios":"levelo://app?vid=8174eae5-526e-4bee-81a1-41cdff59d856"},"vehicle_type_id":"4","last_reported":1710583636,"current_range_meters":22800,"station_id":"ce4bgop2rcd13ifvqc1g","pricing_plan_id":"cebpf4jnsgd1na2vs0mg"},{"bike_id":"58195cff-a69f-4dae-bbbb-f35eb228727f","system_id":"levelo_inurba_marseille","lat":43.2968,"lon":5.37291,"is_reserved":false,"is_disabled":false,"rental_uris":{"android":"levelo://app?vid=58195cff-a69f-4dae-bbbb-f35eb228727f","ios":"levelo://app?vid=58195cff-a69f-4dae-bbbb-f35eb228727f"},"vehicle_type_id":"4","last_reported":1710583636,"current_range_meters":24800,"station_id":"ce4bgk12rcd13ifvqbj0","pricing_plan_id":"cebpf4jnsgd1na2vs0mg"},{"bike_id":"0b5fabaf-8e36-4a80-8794-f6633b40b73a","system_id":"levelo_inurba_marseille","lat":43.2968,"lon":5.37291,"is_reserved":false,"is_disabled":false,"rental_uris":{"android":"levelo://app?vid=0b5fabaf-8e36-4a80-8794-f6633b40b73a","ios":"levelo://app?vid=0b5fabaf-8e36-4a80-8794-f6633b40b73a"},"vehicle_type_id":"4","last_reported":1710583636,"current_range_meters":24800,"station_id":"ce4bgk12rcd13ifvqbj0","pricing_plan_id":"cebpf4jnsgd1na2vs0mg"},{"bike_id":"3eb0c8f4-1c10-4870-82d5-fdf086f5cc1a","system_id":"levelo_inurba_marseille","lat":43.2968,"lon":5.37291,"is_reserved":false,"is_disabled":false,"rental_uris":{"android":"levelo://app?vid=3eb0c8f4-1c10-4870-82d5-fdf086f5cc1a","ios":"levelo://app?vid=3eb0c8f4-1c10-4870-82d5-fdf086f5cc1a"},"vehicle_type_id":"4","last_reported":1710583636,"current_range_meters":24000,"station_id":"ce4bgk12rcd13ifvqbj0","pricing_plan_id":"cebpf4jnsgd1na2vs0mg"},{"bike_id":"f107513e-d14d-43d4-bc7f-2eef035a239d","system_id":"levelo_inurba_marseille","lat":43.296131,"lon":5.370791,"is_reserved":false,"is_disabled":false,"rental_uris":{"android":"levelo://app?vid=f107513e-d14d-43d4-bc7f-2eef035a239d","ios":"levelo://app?vid=f107513e-d14d-43d4-bc7f-2eef035a239d"},"vehicle_type_id":"4","last_reported":1710583636,"current_range_meters":28000,"station_id":"ce4bgnh2rcd13ifvqc0g","pricing_plan_id":"cebpf4jnsgd1na2vs0mg"},{"bike_id":"36244278-446b-4c99-808f-620627e0632a","system_id":"levelo_inurba_marseille","lat":43.296131,"lon":5.370791,"is_reserved":false,"is_disabled":false,"rental_uris":{"android":"levelo://app?vid=36244278-446b-4c99-808f-620627e0632a","ios":"levelo://app?vid=36244278-446b-4c99-808f-620627e0632a"},"vehicle_type_id":"4","last_reported":1710583636,"current_range_meters":30400,"station_id":"ce4bgnh2rcd13ifvqc0g","pricing_plan_id":"cebpf4jnsgd1na2vs0mg"},{"bike_id":"26f68c5d-2988-4af7-9118-be28f40b7cb6","system_id":"levelo_inurba_marseille","lat":43.296131,"lon":5.370773,"is_reserved":false,"is_disabled":false,"rental_uris":{"android":"levelo://app?vid=26f68c5d-2988-4af7-9118-be28f40b7cb6","ios":"levelo://app?vid=26f68c5d-2988-4af7-9118-be28f40b7cb6"},"vehicle_type_id":"4","last_reported":1710583636,"current_range_meters":31200,"station_id":"ce4bgnh2rcd13ifvqc0g","pricing_plan_id":"cebpf4jnsgd1na2vs0mg"},{"bike_id":"eaa8128d-c1af-492d-934f-9698c51288e2","system_id":"levelo_inurba_marseille","lat":43.296129,"lon":5.370777,"is_reserved":false,"is_disabled":false,"rental_uris":{"android":"levelo://app?vid=eaa8128d-c1af-492d-934f-9698c51288e2","ios":"levelo://app?vid=eaa8128d-c1af-492d-934f-9698c51288e2"},"vehicle_type_id":"4","last_reported":1710583636,"current_range_meters":8000,"station_id":"ce4bgnh2rcd13ifvqc0g","pricing_plan_id":"cebpf4jnsgd1na2vs0mg"},{"bike_id":"2703caf9-433e-48c4-85a4-b472ffc5d7c7","system_id":"levelo_inurba_marseille","lat":43.296131,"lon":5.370773,"is_reserved":false,"is_disabled":false,"rental_uris":{"android":"levelo://app?vid=2703caf9-433e-48c4-85a4-b472ffc5d7c7","ios":"levelo://app?vid=2703caf9-433e-48c4-85a4-b472ffc5d7c7"},"vehicle_type_id":"4","last_reported":1710583636,"current_range_meters":18400,"station_id":"ce4bgnh2rcd13ifvqc0g","pricing_plan_id":"cebpf4jnsgd1na2vs0mg"},{"bike_id":"0ad52f25-c360-4af5-abfe-65c2771c87ca","system_id":"levelo_inurba_marseille","lat":43.296129,"lon":5.370777,"is_reserved":false,"is_disabled":false,"rental_uris":{"android":"levelo://app?vid=0ad52f25-c360-4af5-abfe-65c2771c87ca","ios":"levelo://app?vid=0ad52f25-c360-4af5-abfe-65c2771c87ca"},"vehicle_type_id":"4","last_reported":1710583636,"current_range_meters":2400,"station_id":"ce4bgnh2rcd13ifvqc0g","pricing_plan_id":"cebpf4jnsgd1na2vs0mg"},{"bike_id":"b0f16b1e-9ec7-4659-b42b-3ac54ec990a5","system_id":"levelo_inurba_marseille","lat":43.296129,"lon":5.370777,"is_reserved":false,"is_disabled":false,"rental_uris":{"android":"levelo://app?vid=b0f16b1e-9ec7-4659-b42b-3ac54ec990a5","ios":"levelo://app?vid=b0f16b1e-9ec7-4659-b42b-3ac54ec990a5"},"vehicle_type_id":"4","last_reported":1710583636,"current_range_meters":31600,"station_id":"ce4bgnh2rcd13ifvqc0g","pricing_plan_id":"cebpf4jnsgd1na2vs0mg"},{"bike_id":"63c630ed-42ae-4168-9ceb-fcd5724eb199","system_id":"levelo_inurba_marseille","lat":43.296131,"lon":5.370791,"is_reserved":false,"is_disabled":false,"rental_uris":{"android":"levelo://app?vid=63c630ed-42ae-4168-9ceb-fcd5724eb199","ios":"levelo://app?vid=63c630ed-42ae-4168-9ceb-fcd5724eb199"},"vehicle_type_id":"4","last_reported":1710583636,"current_range_meters":29600,"station_id":"ce4bgnh2rcd13ifvqc0g","pricing_plan_id":"cebpf4jnsgd1na2vs0mg"},{"bike_id":"e092400b-4cca-4e41-a4c8-c9b8eed98788","system_id":"levelo_inurba_marseille","lat":43.29573,"lon":5.367355,"is_reserved":false,"is_disabled":false,"rental_uris":{"android":"levelo://app?vid=e092400b-4cca-4e41-a4c8-c9b8eed98788","ios":"levelo://app?vid=e092400b-4cca-4e41-a4c8-c9b8eed98788"},"vehicle_type_id":"4","last_reported":1710583636,"current_range_meters":800,"station_id":"ce4bgph2rcd13ifvqc2g","pricing_plan_id":"cebpf4jnsgd1na2vs0mg"},{"bike_id":"864aca72-12ad-4a88-ba82-84ab4268c470","system_id":"levelo_inurba_marseille","lat":43.29573,"lon":5.367355,"is_reserved":false,"is_disabled":false,"rental_uris":{"android":"levelo://app?vid=864aca72-12ad-4a88-ba82-84ab4268c470","ios":"levelo://app?vid=864aca72-12ad-4a88-ba82-84ab4268c470"},"vehicle_type_id":"4","last_reported":1710583636,"current_range_meters":22400,"station_id":"ce4bgph2rcd13ifvqc2g","pricing_plan_id":"cebpf4jnsgd1na2vs0mg"},{"bike_id":"43c52f85-32af-49f8-a5e1-664ac97cf515","system_id":"levelo_inurba_marseille","lat":43.296935,"lon":5.376544,"is_reserved":false,"is_disabled":false,"rental_uris":{"android":"levelo://app?vid=43c52f85-32af-49f8-a5e1-664ac97cf515","ios":"levelo://app?vid=43c52f85-32af-49f8-a5e1-664ac97cf515"},"vehicle_type_id":"4","last_reported":1710583636,"current_range_meters":26800,"station_id":"ce4bgkh2rcd13ifvqbl0","pricing_plan_id":"cebpf4jnsgd1na2vs0mg"},{"bike_id":"41ea81d6-6772-4083-b9cf-f98618f05058","system_id":"levelo_inurba_marseille","lat":43.296921,"lon":5.376579,"is_reserved":false,"is_disabled":false,"rental_uris":{"android":"levelo://app?vid=41ea81d6-6772-4083-b9cf-f98618f05058","ios":"levelo://app?vid=41ea81d6-6772-4083-b9cf-f98618f05058"},"vehicle_type_id":"4","last_reported":1710583636,"current_range_meters":5600,"station_id":"ce4bgkh2rcd13ifvqbl0","pricing_plan_id":"cebpf4jnsgd1na2vs0mg"},{"bike_id":"8ce66afc-cba4-412c-8979-16d0fcca0ac1","system_id":"levelo_inurba_marseille","lat":43.296921,"lon":5.376579,"is_reserved":false,"is_disabled":false,"rental_uris":{"android":"levelo://app?vid=8ce66afc-cba4-412c-8979-16d0fcca0ac1","ios":"levelo://app?vid=8ce66afc-cba4-412c-8979-16d0fcca0ac1"},"vehicle_type_id":"4","last_reported":1710583636,"current_range_meters":29600,"station_id":"ce4bgkh2rcd13ifvqbl0","pricing_plan_id":"cebpf4jnsgd1na2vs0mg"},{"bike_id":"760a6938-597a-4ce6-9432-21736dc7f945","system_id":"levelo_inurba_marseille","lat":43.299028,"lon":5.381509,"is_reserved":false,"is_disabled":false,"rental_uris":{"android":"levelo://app?vid=760a6938-597a-4ce6-9432-21736dc7f945","ios":"levelo://app?vid=760a6938-597a-4ce6-9432-21736dc7f945"},"vehicle_type_id":"4","last_reported":1710583636,"current_range_meters":20400,"station_id":"ce4bgj12rcd13ifvqbc0","pricing_plan_id":"cebpf4jnsgd1na2vs0mg"},{"bike_id":"6a04c35a-7547-459d-83f1-960997a6d6c0","system_id":"levelo_inurba_marseille","lat":43.299028,"lon":5.381509,"is_reserved":false,"is_disabled":false,"rental_uris":{"android":"levelo://app?vid=6a04c35a-7547-459d-83f1-960997a6d6c0","ios":"levelo://app?vid=6a04c35a-7547-459d-83f1-960997a6d6c0"},"vehicle_type_id":"4","last_reported":1710583636,"current_range_meters":20400,"station_id":"ce4bgj12rcd13ifvqbc0","pricing_plan_id":"cebpf4jnsgd1na2vs0mg"},{"bike_id":"54289b33-1930-4833-9c4a-47df473ab21a","system_id":"levelo_inurba_marseille","lat":43.299028,"lon":5.381509,"is_reserved":false,"is_disabled":false,"rental_uris":{"android":"levelo://app?vid=54289b33-1930-4833-9c4a-47df473ab21a","ios":"levelo://app?vid=54289b33-1930-4833-9c4a-47df473ab21a"},"vehicle_type_id":"4","last_reported":1710583636,"current_range_meters":4800,"station_id":"ce4bgj12rcd13ifvqbc0","pricing_plan_id":"cebpf4jnsgd1na2vs0mg"},{"bike_id":"cf77ba16-4540-4363-a439-6d512356c71f","system_id":"levelo_inurba_marseille","lat":43.299028,"lon":5.381509,"is_reserved":false,"is_disabled":false,"rental_uris":{"android":"levelo://app?vid=cf77ba16-4540-4363-a439-6d512356c71f","ios":"levelo://app?vid=cf77ba16-4540-4363-a439-6d512356c71f"},"vehicle_type_id":"4","last_reported":1710583636,"current_range_meters":4000,"station_id":"ce4bgj12rcd13ifvqbc0","pricing_plan_id":"cebpf4jnsgd1na2vs0mg"},{"bike_id":"d12c252e-6c85-4018-b1cc-8094740f5240","system_id":"levelo_inurba_marseille","lat":43.299028,"lon":5.381509,"is_reserved":false,"is_disabled":false,"rental_uris":{"android":"levelo://app?vid=d12c252e-6c85-4018-b1cc-8094740f5240","ios":"levelo://app?vid=d12c252e-6c85-4018-b1cc-8094740f5240"},"vehicle_type_id":"4","last_reported":1710583636,"current_range_meters":28400,"station_id":"ce4bgj12rcd13ifvqbc0","pricing_plan_id":"cebpf4jnsgd1na2vs0mg"},{"bike_id":"ccfe0559-cd3d-45dd-a883-1cf550df4d05","system_id":"levelo_inurba_marseille","lat":43.309589,"lon":5.390258,"is_reserved":false,"is_disabled":false,"rental_uris":{"android":"levelo://app?vid=ccfe0559-cd3d-45dd-a883-1cf550df4d05","ios":"levelo://app?vid=ccfe0559-cd3d-45dd-a883-1cf550df4d05"},"vehicle_type_id":"4","last_reported":1710583636,"current_range_meters":17200,"station_id":"ce4bgup2rcd13ifvqco0","pricing_plan_id":"cebpf4jnsgd1na2vs0mg"},{"bike_id":"23fd1f37-104e-4f3d-bb50-c46dc8c70a43","system_id":"levelo_inurba_marseille","lat":43.299028,"lon":5.381509,"is_reserved":false,"is_disabled":false,"rental_uris":{"android":"levelo://app?vid=23fd1f37-104e-4f3d-bb50-c46dc8c70a43","ios":"levelo://app?vid=23fd1f37-104e-4f3d-bb50-c46dc8c70a43"},"vehicle_type_id":"4","last_reported":1710583636,"current_range_meters":28400,"station_id":"ce4bgj12rcd13ifvqbc0","pricing_plan_id":"cebpf4jnsgd1na2vs0mg"},{"bike_id":"8ee85d9c-f6e6-4577-9dad-a8b6bb09bce2","system_id":"levelo_inurba_marseille","lat":43.296921,"lon":5.376579,"is_reserved":false,"is_disabled":false,"rental_uris":{"android":"levelo://app?vid=8ee85d9c-f6e6-4577-9dad-a8b6bb09bce2","ios":"levelo://app?vid=8ee85d9c-f6e6-4577-9dad-a8b6bb09bce2"},"vehicle_type_id":"4","last_reported":1710583636,"current_range_meters":20000,"station_id":"ce4bgkh2rcd13ifvqbl0","pricing_plan_id":"cebpf4jnsgd1na2vs0mg"},{"bike_id":"40f5c38d-ae2d-4a80-97ea-4b647e7775c9","system_id":"levelo_inurba_marseille","lat":43.299028,"lon":5.381509,"is_reserved":false,"is_disabled":false,"rental_uris":{"android":"levelo://app?vid=40f5c38d-ae2d-4a80-97ea-4b647e7775c9","ios":"levelo://app?vid=40f5c38d-ae2d-4a80-97ea-4b647e7775c9"},"vehicle_type_id":"4","last_reported":1710583636,"current_range_meters":21600,"station_id":"ce4bgj12rcd13ifvqbc0","pricing_plan_id":"cebpf4jnsgd1na2vs0mg"},{"bike_id":"ff2d5162-c1b2-4a59-8721-bdd8f95d9a0b","system_id":"levelo_inurba_marseille","lat":43.299028,"lon":5.381509,"is_reserved":false,"is_disabled":false,"rental_uris":{"android":"levelo://app?vid=ff2d5162-c1b2-4a59-8721-bdd8f95d9a0b","ios":"levelo://app?vid=ff2d5162-c1b2-4a59-8721-bdd8f95d9a0b"},"vehicle_type_id":"4","last_reported":1710583636,"current_range_meters":28800,"station_id":"ce4bgj12rcd13ifvqbc0","pricing_plan_id":"cebpf4jnsgd1na2vs0mg"},{"bike_id":"ad31704e-2484-4ff0-af7a-b96ef8a4f1a1","system_id":"levelo_inurba_marseille","lat":43.309589,"lon":5.390258,"is_reserved":false,"is_disabled":false,"rental_uris":{"android":"levelo://app?vid=ad31704e-2484-4ff0-af7a-b96ef8a4f1a1","ios":"levelo://app?vid=ad31704e-2484-4ff0-af7a-b96ef8a4f1a1"},"vehicle_type_id":"4","last_reported":1710583636,"current_range_meters":31200,"station_id":"ce4bgup2rcd13ifvqco0","pricing_plan_id":"cebpf4jnsgd1na2vs0mg"},{"bike_id":"8fb8614b-e5bb-4ccb-b34f-5dc69dfb93bd","system_id":"levelo_inurba_marseille","lat":43.309589,"lon":5.390258,"is_reserved":false,"is_disabled":false,"rental_uris":{"android":"levelo://app?vid=8fb8614b-e5bb-4ccb-b34f-5dc69dfb93bd","ios":"levelo://app?vid=8fb8614b-e5bb-4ccb-b34f-5dc69dfb93bd"},"vehicle_type_id":"4","last_reported":1710583636,"current_range_meters":29200,"station_id":"ce4bgup2rcd13ifvqco0","pricing_plan_id":"cebpf4jnsgd1na2vs0mg"},{"bike_id":"0b3fd119-88bd-411d-a5f2-23805a795d76","system_id":"levelo_inurba_marseille","lat":43.309589,"lon":5.390258,"is_reserved":false,"is_disabled":false,"rental_uris":{"android":"levelo://app?vid=0b3fd119-88bd-411d-a5f2-23805a795d76","ios":"levelo://app?vid=0b3fd119-88bd-411d-a5f2-23805a795d76"},"vehicle_type_id":"4","last_reported":1710583636,"current_range_meters":23200,"station_id":"ce4bgup2rcd13ifvqco0","pricing_plan_id":"cebpf4jnsgd1na2vs0mg"},{"bike_id":"9e26d389-dc10-425d-81ec-2864d8aa84ca","system_id":"levelo_inurba_marseille","lat":43.309589,"lon":5.390258,"is_reserved":false,"is_disabled":false,"rental_uris":{"android":"levelo://app?vid=9e26d389-dc10-425d-81ec-2864d8aa84ca","ios":"levelo://app?vid=9e26d389-dc10-425d-81ec-2864d8aa84ca"},"vehicle_type_id":"4","last_reported":1710583636,"current_range_meters":24800,"station_id":"ce4bgup2rcd13ifvqco0","pricing_plan_id":"cebpf4jnsgd1na2vs0mg"},{"bike_id":"339ce1ba-5b90-475d-8e5c-3dfe52c72f60","system_id":"levelo_inurba_marseille","lat":43.317557,"lon":5.390173,"is_reserved":false,"is_disabled":false,"rental_uris":{"android":"levelo://app?vid=339ce1ba-5b90-475d-8e5c-3dfe52c72f60","ios":"levelo://app?vid=339ce1ba-5b90-475d-8e5c-3dfe52c72f60"},"vehicle_type_id":"4","last_reported":1710583636,"current_range_meters":28000,"station_id":"ce4bhqp2rcd13ifvqhng","pricing_plan_id":"cebpf4jnsgd1na2vs0mg"},{"bike_id":"45720ee7-2289-4eeb-9f5b-a2247b53f90a","system_id":"levelo_inurba_marseille","lat":43.298037,"lon":5.381066,"is_reserved":false,"is_disabled":false,"rental_uris":{"android":"levelo://app?vid=45720ee7-2289-4eeb-9f5b-a2247b53f90a","ios":"levelo://app?vid=45720ee7-2289-4eeb-9f5b-a2247b53f90a"},"vehicle_type_id":"4","last_reported":1710583636,"current_range_meters":18400,"station_id":"ce4bgip2rcd13ifvqbb0","pricing_plan_id":"cebpf4jnsgd1na2vs0mg"},{"bike_id":"89a50640-0440-407d-961b-792614079ca5","system_id":"levelo_inurba_marseille","lat":43.298037,"lon":5.381066,"is_reserved":false,"is_disabled":false,"rental_uris":{"android":"levelo://app?vid=89a50640-0440-407d-961b-792614079ca5","ios":"levelo://app?vid=89a50640-0440-407d-961b-792614079ca5"},"vehicle_type_id":"4","last_reported":1710583636,"current_range_meters":29600,"station_id":"ce4bgip2rcd13ifvqbb0","pricing_plan_id":"cebpf4jnsgd1na2vs0mg"},{"bike_id":"4b2cf3a4-f730-47ff-88d2-8946d8f09645","system_id":"levelo_inurba_marseille","lat":43.295748,"lon":5.37522,"is_reserved":false,"is_disabled":false,"rental_uris":{"android":"levelo://app?vid=4b2cf3a4-f730-47ff-88d2-8946d8f09645","ios":"levelo://app?vid=4b2cf3a4-f730-47ff-88d2-8946d8f09645"},"vehicle_type_id":"4","last_reported":1710583636,"current_range_meters":26800,"station_id":"ce4bgh92rcd13ifvqb50","pricing_plan_id":"cebpf4jnsgd1na2vs0mg"},{"bike_id":"ff3509c2-221c-4fb1-8fca-b4174fab3383","system_id":"levelo_inurba_marseille","lat":43.298037,"lon":5.381066,"is_reserved":false,"is_disabled":false,"rental_uris":{"android":"levelo://app?vid=ff3509c2-221c-4fb1-8fca-b4174fab3383","ios":"levelo://app?vid=ff3509c2-221c-4fb1-8fca-b4174fab3383"},"vehicle_type_id":"4","last_reported":1710583636,"current_range_meters":14400,"station_id":"ce4bgip2rcd13ifvqbb0","pricing_plan_id":"cebpf4jnsgd1na2vs0mg"},{"bike_id":"c016db4b-8bc5-40f9-9584-076e1572348b","system_id":"levelo_inurba_marseille","lat":43.298037,"lon":5.381066,"is_reserved":false,"is_disabled":false,"rental_uris":{"android":"levelo://app?vid=c016db4b-8bc5-40f9-9584-076e1572348b","ios":"levelo://app?vid=c016db4b-8bc5-40f9-9584-076e1572348b"},"vehicle_type_id":"4","last_reported":1710583636,"current_range_meters":4400,"station_id":"ce4bgip2rcd13ifvqbb0","pricing_plan_id":"cebpf4jnsgd1na2vs0mg"},{"bike_id":"6e236a57-4639-48c6-baac-138a306439af","system_id":"levelo_inurba_marseille","lat":43.298037,"lon":5.381066,"is_reserved":false,"is_disabled":false,"rental_uris":{"android":"levelo://app?vid=6e236a57-4639-48c6-baac-138a306439af","ios":"levelo://app?vid=6e236a57-4639-48c6-baac-138a306439af"},"vehicle_type_id":"4","last_reported":1710583636,"current_range_meters":8000,"station_id":"ce4bgip2rcd13ifvqbb0","pricing_plan_id":"cebpf4jnsgd1na2vs0mg"},{"bike_id":"17da0942-7d80-4880-bf0d-57a73020e3a0","system_id":"levelo_inurba_marseille","lat":43.297963,"lon":5.381063,"is_reserved":false,"is_disabled":false,"rental_uris":{"android":"levelo://app?vid=17da0942-7d80-4880-bf0d-57a73020e3a0","ios":"levelo://app?vid=17da0942-7d80-4880-bf0d-57a73020e3a0"},"vehicle_type_id":"4","last_reported":1710583636,"current_range_meters":11200,"station_id":"ce4bgip2rcd13ifvqbb0","pricing_plan_id":"cebpf4jnsgd1na2vs0mg"},