{"last_updated":1705619267,"ttl":30,"version":"2.2","data":{"bikes":[{"bike_id":"8d10b4d2-ffc4-4c9c-aefd-ffbd23cc5e98","system_id":"levelo_inurba_marseille","lat":43.312239,"lon":5.368562,"is_reserved":false,"is_disabled":false,"rental_uris":{"android":"levelo://app?vid=8d10b4d2-ffc4-4c9c-aefd-ffbd23cc5e98","ios":"levelo://app?vid=8d10b4d2-ffc4-4c9c-aefd-ffbd23cc5e98"},"vehicle_type_id":"4","last_reported":1705619267,"current_range_meters":8800,"station_id":"ce4bgl92rcd13ifvqbq0","pricing_plan_id":"free"},{"bike_id":"902ac2d4-aedc-4a7a-8594-a855028052ec","system_id":"levelo_inurba_marseille","lat":43.312239,"lon":5.368562,"is_reserved":false,"is_disabled":false,"rental_uris":{"android":"levelo://app?vid=902ac2d4-aedc-4a7a-8594-a855028052ec","ios":"levelo://app?vid=902ac2d4-aedc-4a7a-8594-a855028052ec"},"vehicle_type_id":"4","last_reported":1705619267,"current_range_meters":400,"station_id":"ce4bgl92rcd13ifvqbq0","pricing_plan_id":"free"},{"bike_id":"f2636a43-37c9-4af3-be9a-4f33493accea","system_id":"levelo_inurba_marseille","lat":43.309076,"lon":5.368465,"is_reserved":false,"is_disabled":false,"rental_uris":{"android":"levelo://app?vid=f2636a43-37c9-4af3-be9a-4f33493accea","ios":"levelo://app?vid=f2636a43-37c9-4af3-be9a-4f33493accea"},"vehicle_type_id":"4","last_reported":1705619267,"current_range_meters":26400,"station_id":"ce4bgn92rcd13ifvqbvg","pricing_plan_id":"free"},{"bike_id":"7f57cc82-d70c-4c1a-ba34-96ebd763daa3","system_id":"levelo_inurba_marseille","lat":43.310434,"lon":5.37127,"is_reserved":false,"is_disabled":false,"rental_uris":{"android":"levelo://app?vid=7f57cc82-d70c-4c1a-ba34-96ebd763daa3","ios":"levelo://app?vid=7f57cc82-d70c-4c1a-ba34-96ebd763daa3"},"vehicle_type_id":"4","last_reported":1705619267,"current_range_meters":4800,"station_id":"","pricing_plan_id":"free"},{"bike_id":"7f6fd0f9-e357-4cf5-8c98-f161d9b27fac","system_id":"levelo_inurba_marseille","lat":43.314811,"lon":5.373103,"is_reserved":false,"is_disabled":false,"rental_uris":{"android":"levelo://app?vid=7f6fd0f9-e357-4cf5-8c98-f161d9b27fac","ios":"levelo://app?vid=7f6fd0f9-e357-4cf5-8c98-f161d9b27fac"},"vehicle_type_id":"4","last_reported":1705619267,"current_range_meters":0,"station_id":"ce4bgt12rcd13ifvqcd0","pricing_plan_id":"free"},{"bike_id":"3272a0f1-0006-4301-90a7-eeba7c41c9c6","system_id":"levelo_inurba_marseille","lat":43.314811,"lon":5.373104,"is_reserved":false,"is_disabled":false,"rental_uris":{"android":"levelo://app?vid=3272a0f1-0006-4301-90a7-eeba7c41c9c6","ios":"levelo://app?vid=3272a0f1-0006-4301-90a7-eeba7c41c9c6"},"vehicle_type_id":"4","last_reported":1705619267,"current_range_meters":27200,"station_id":"ce4bgt12rcd13ifvqcd0","pricing_plan_id":"free"},{"bike_id":"56d82289-47b0-42e8-bbc4-d0b0016e35cf","system_id":"levelo_inurba_marseille","lat":43.309039,"lon":5.371797,"is_reserved":false,"is_disabled":false,"rental_uris":{"android":"levelo://app?vid=56d82289-47b0-42e8-bbc4-d0b0016e35cf","ios":"levelo://app?vid=56d82289-47b0-42e8-bbc4-d0b0016e35cf"},"vehicle_type_id":"4","last_reported":1705619267,"current_range_meters":12800,"station_id":"ce4bguh2rcd13ifvqckg","pricing_plan_id":"free"},{"bike_id":"357b62b6-9c8d-4ca8-b807-4e45847eea8b","system_id":"levelo_inurba_marseille","lat":43.309034,"lon":5.371783,"is_reserved":false,"is_disabled":false,"rental_uris":{"android":"levelo://app?vid=357b62b6-9c8d-4ca8-b807-4e45847eea8b","ios":"levelo://app?vid=357b62b6-9c8d-4ca8-b807-4e45847eea8b"},"vehicle_type_id":"4","last_reported":1705619267,"current_range_meters":18400,"station_id":"ce4bguh2rcd13ifvqckg","pricing_plan_id":"free"},{"bike_id":"bdeb0438-bfe3-4562-91e3-8d67a00a1d8d","system_id":"levelo_inurba_marseille","lat":43.309034,"lon":5.371783,"is_reserved":false,"is_disabled":false,"rental_uris":{"android":"levelo://app?vid=bdeb0438-bfe3-4562-91e3-8d67a00a1d8d","ios":"levelo://app?vid=bdeb0438-bfe3-4562-91e3-8d67a00a1d8d"},"vehicle_type_id":"4","last_reported":1705619267,"current_range_meters":5600,"station_id":"ce4bguh2rcd13ifvqckg","pricing_plan_id":"free"},{"bike_id":"5f838d90-cace-47c8-a8c2-671dc5a298a6","system_id":"levelo_inurba_marseille","lat":43.308908,"lon":5.37203,"is_reserved":false,"is_disabled":false,"rental_uris":{"android":"levelo://app?vid=5f838d90-cace-47c8-a8c2-671dc5a298a6","ios":"levelo://app?vid=5f838d90-cace-47c8-a8c2-671dc5a298a6"},"vehicle_type_id":"4","last_reported":1705619267,"current_range_meters":7600,"station_id":"ce4bguh2rcd13ifvqckg","pricing_plan_id":"free"},{"bike_id":"0b1d7f5f-4108-4052-8ad2-49741ccc1059","system_id":"levelo_inurba_marseille","lat":43.305368,"lon":5.367343,"is_reserved":false,"is_disabled":false,"rental_uris":{"android":"levelo://app?vid=0b1d7f5f-4108-4052-8ad2-49741ccc1059","ios":"levelo://app?vid=0b1d7f5f-4108-4052-8ad2-49741ccc1059"},"vehicle_type_id":"4","last_reported":1705619267,"current_range_meters":4000,"station_id":"ce4bgrp2rcd13ifvqc9g","pricing_plan_id":"free"},{"bike_id":"726f176d-a22b-418b-9e59-744bc120c57e","system_id":"levelo_inurba_marseille","lat":43.305368,"lon":5.367343,"is_reserved":false,"is_disabled":false,"rental_uris":{"android":"levelo://app?vid=726f176d-a22b-418b-9e59-744bc120c57e","ios":"levelo://app?vid=726f176d-a22b-418b-9e59-744bc120c57e"},"vehicle_type_id":"4","last_reported":1705619267,"current_range_meters":0,"station_id":"ce4bgrp2rcd13ifvqc9g","pricing_plan_id":"free"},{"bike_id":"a52fbb90-6c8a-43a4-a669-e401d31a5c1f","system_id":"levelo_inurba_marseille","lat":43.305706,"lon":5.365654,"is_reserved":false,"is_disabled":false,"rental_uris":{"android":"levelo://app?vid=a52fbb90-6c8a-43a4-a669-e401d31a5c1f","ios":"levelo://app?vid=a52fbb90-6c8a-43a4-a669-e401d31a5c1f"},"vehicle_type_id":"4","last_reported":1705619267,"current_range_meters":18000,"station_id":"ce4bgs12rcd13ifvqcag","pricing_plan_id":"free"},{"bike_id":"1f59e335-19bb-44c3-ba68-d44f4e4ea13c","system_id":"levelo_inurba_marseille","lat":43.305989,"lon":5.37225,"is_reserved":false,"is_disabled":false,"rental_uris":{"android":"levelo://app?vid=1f59e335-19bb-44c3-ba68-d44f4e4ea13c","ios":"levelo://app?vid=1f59e335-19bb-44c3-ba68-d44f4e4ea13c"},"vehicle_type_id":"4","last_reported":1705619267,"current_range_meters":13600,"station_id":"ce4bgqh2rcd13ifvqc4g","pricing_plan_id":"free"},{"bike_id":"897e5e85-c269-404a-829b-c4cf52eac447","system_id":"levelo_inurba_marseille","lat":43.305989,"lon":5.37225,"is_reserved":false,"is_disabled":false,"rental_uris":{"android":"levelo://app?vid=897e5e85-c269-404a-829b-c4cf52eac447","ios":"levelo://app?vid=897e5e85-c269-404a-829b-c4cf52eac447"},"vehicle_type_id":"4","last_reported":1705619267,"current_range_meters":14800,"station_id":"ce4bgqh2rcd13ifvqc4g","pricing_plan_id":"free"},{"bike_id":"afa3eab0-50ce-43ab-8f56-8a80b6d02a7d","system_id":"levelo_inurba_marseille","lat":43.305989,"lon":5.37225,"is_reserved":false,"is_disabled":false,"rental_uris":{"android":"levelo://app?vid=afa3eab0-50ce-43ab-8f56-8a80b6d02a7d","ios":"levelo://app?vid=afa3eab0-50ce-43ab-8f56-8a80b6d02a7d"},"vehicle_type_id":"4","last_reported":1705619267,"current_range_meters":22800,"station_id":"ce4bgqh2rcd13ifvqc4g","pricing_plan_id":"free"},{"bike_id":"daba4a14-1bfb-4e29-8468-b425b5c3796e","system_id":"levelo_inurba_marseille","lat":43.305989,"lon":5.37225,"is_reserved":false,"is_disabled":false,"rental_uris":{"android":"levelo://app?vid=daba4a14-1bfb-4e29-8468-b425b5c3796e","ios":"levelo://app?vid=daba4a14-1bfb-4e29-8468-b425b5c3796e"},"vehicle_type_id":"4","last_reported":1705619267,"current_range_meters":27200,"station_id":"ce4bgqh2rcd13ifvqc4g","pricing_plan_id":"free"},{"bike_id":"33871ad5-cf60-42ad-a04a-87e4a3369f2d","system_id":"levelo_inurba_marseille","lat":43.305989,"lon":5.37225,"is_reserved":false,"is_disabled":false,"rental_uris":{"android":"levelo://app?vid=33871ad5-cf60-42ad-a04a-87e4a3369f2d","ios":"levelo://app?vid=33871ad5-cf60-42ad-a04a-87e4a3369f2d"},"vehicle_type_id":"4","last_reported":1705619267,"current_range_meters":24000,"station_id":"ce4bgqh2rcd13ifvqc4g","pricing_plan_id":"free"},{"bike_id":"13326c87-4447-4a6c-a3e1-5d9565ab8b63","system_id":"levelo_inurba_marseille","lat":43.305989,"lon":5.37225,"is_reserved":false,"is_disabled":false,"rental_uris":{"android":"levelo://app?vid=13326c87-4447-4a6c-a3e1-5d9565ab8b63","ios":"levelo://app?vid=13326c87-4447-4a6c-a3e1-5d9565ab8b63"},"vehicle_type_id":"4","last_reported":1705619267,"current_range_meters":15200,"station_id":"ce4bgqh2rcd13ifvqc4g","pricing_plan_id":"free"},{"bike_id":"399f9994-a8f1-4c80-b116-b4df29aefc42","system_id":"levelo_inurba_marseille","lat":43.305989,"lon":5.37225,"is_reserved":false,"is_disabled":false,"rental_uris":{"android":"levelo://app?vid=399f9994-a8f1-4c80-b116-b4df29aefc42","ios":"levelo://app?vid=399f9994-a8f1-4c80-b116-b4df29aefc42"},"vehicle_type_id":"4","last_reported":1705619267,"current_range_meters":19200,"station_id":"ce4bgqh2rcd13ifvqc4g","pricing_plan_id":"free"},{"bike_id":"1750f357-c49a-4c67-85c2-b864c2ff99a0","system_id":"levelo_inurba_marseille","lat":43.305989,"lon":5.37225,"is_reserved":false,"is_disabled":false,"rental_uris":{"android":"levelo://app?vid=1750f357-c49a-4c67-85c2-b864c2ff99a0","ios":"levelo://app?vid=1750f357-c49a-4c67-85c2-b864c2ff99a0"},"vehicle_type_id":"4","last_reported":1705619267,"current_range_meters":10000,"station_id":"ce4bgqh2rcd13ifvqc4g","pricing_plan_id":"free"},{"bike_id":"163e81c3-9b74-4a3e-9a17-bc0d9eaab1fb","system_id":"levelo_inurba_marseille","lat":43.311314,"lon":5.37758,"is_reserved":false,"is_disabled":false,"rental_uris":{"android":"levelo://app?vid=163e81c3-9b74-4a3e-9a17-bc0d9eaab1fb","ios":"levelo://app?vid=163e81c3-9b74-4a3e-9a17-bc0d9eaab1fb"},"vehicle_type_id":"4","last_reported":1705619267,"current_range_meters":0,"station_id":"ce4bgt92rcd13ifvqcg0","pricing_plan_id":"free"},{"bike_id":"a0237fe9-2f53-4862-82dc-9c3b0af83bb6","system_id":"levelo_inurba_marseille","lat":43.311125,"lon":5.377624,"is_reserved":false,"is_disabled":false,"rental_uris":{"android":"levelo://app?vid=a0237fe9-2f53-4862-82dc-9c3b0af83bb6","ios":"levelo://app?vid=a0237fe9-2f53-4862-82dc-9c3b0af83bb6"},"vehicle_type_id":"4","last_reported":1705619267,"current_range_meters":21200,"station_id":"ce4bgt92rcd13ifvqcg0","pricing_plan_id":"free"},{"bike_id":"68f1b08a-b24a-47f2-be0c-147c8c8ac3db","system_id":"levelo_inurba_marseille","lat":43.311131,"lon":5.377651,"is_reserved":false,"is_disabled":false,"rental_uris":{"android":"levelo://app?vid=68f1b08a-b24a-47f2-be0c-147c8c8ac3db","ios":"levelo://app?vid=68f1b08a-b24a-47f2-be0c-147c8c8ac3db"},"vehicle_type_id":"4","last_reported":1705619267,"current_range_meters":12400,"station_id":"ce4bgt92rcd13ifvqcg0","pricing_plan_id":"free"},{"bike_id":"9e4a7e0c-29f1-43f2-86a6-9207027a9e95","system_id":"levelo_inurba_marseille","lat":43.311125,"lon":5.377624,"is_reserved":false,"is_disabled":false,"rental_uris":{"android":"levelo://app?vid=9e4a7e0c-29f1-43f2-86a6-9207027a9e95","ios":"levelo://app?vid=9e4a7e0c-29f1-43f2-86a6-9207027a9e95"},"vehicle_type_id":"4","last_reported":1705619267,"current_range_meters":24000,"station_id":"ce4bgt92rcd13ifvqcg0","pricing_plan_id":"free"},{"bike_id":"fcb1d93c-3c5c-4f6a-a10c-3253c0f853dc","system_id":"levelo_inurba_marseille","lat":43.311125,"lon":5.377624,"is_reserved":false,"is_disabled":false,"rental_uris":{"android":"levelo://app?vid=fcb1d93c-3c5c-4f6a-a10c-3253c0f853dc","ios":"levelo://app?vid=fcb1d93c-3c5c-4f6a-a10c-3253c0f853dc"},"vehicle_type_id":"4","last_reported":1705619267,"current_range_meters":23600,"station_id":"ce4bgt92rcd13ifvqcg0","pricing_plan_id":"free"},{"bike_id":"e17a15dc-bb6e-48d3-8803-72936cee17de","system_id":"levelo_inurba_marseille","lat":43.311125,"lon":5.377624,"is_reserved":false,"is_disabled":false,"rental_uris":{"android":"levelo://app?vid=e17a15dc-bb6e-48d3-8803-72936cee17de","ios":"levelo://app?vid=e17a15dc-bb6e-48d3-8803-72936cee17de"},"vehicle_type_id":"4","last_reported":1705619267,"current_range_meters":29200,"station_id":"ce4bgt92rcd13ifvqcg0","pricing_plan_id":"free"},{"bike_id":"abf892c7-535a-4cb7-9f6a-a8836755e27e","system_id":"levelo_inurba_marseille","lat":43.311125,"lon":5.377624,"is_reserved":false,"is_disabled":false,"rental_uris":{"android":"levelo://app?vid=abf892c7-535a-4cb7-9f6a-a8836755e27e","ios":"levelo://app?vid=abf892c7-535a-4cb7-9f6a-a8836755e27e"},"vehicle_type_id":"4","last_reported":1705619267,"current_range_meters":24800,"station_id":"ce4bgt92rcd13ifvqcg0","pricing_plan_id":"free"},{"bike_id":"b9f0e69d-4fd2-468a-8642-f8ecdd80f263","system_id":"levelo_inurba_marseille","lat":43.311125,"lon":5.377624,"is_reserved":false,"is_disabled":false,"rental_uris":{"android":"levelo://app?vid=b9f0e69d-4fd2-468a-8642-f8ecdd80f263","ios":"levelo://app?vid=b9f0e69d-4fd2-468a-8642-f8ecdd80f263"},"vehicle_type_id":"4","last_reported":1705619267,"current_range_meters":14000,"station_id":"ce4bgt92rcd13ifvqcg0","pricing_plan_id":"free"},{"bike_id":"b70f7ea5-9efe-43ff-8192-0833c30d087d","system_id":"levelo_inurba_marseille","lat":43.307945,"lon":5.376487,"is_reserved":false,"is_disabled":false,"rental_uris":{"android":"levelo://app?vid=b70f7ea5-9efe-43ff-8192-0833c30d087d","ios":"levelo://app?vid=b70f7ea5-9efe-43ff-8192-0833c30d087d"},"vehicle_type_id":"4","last_reported":1705619267,"current_range_meters":9200,"station_id":"ce4bgv92rcd13ifvqcq0","pricing_plan_id":"free"},{"bike_id":"44e61d0a-e6a1-4471-b31f-77954d94eee2","system_id":"levelo_inurba_marseille","lat":43.307945,"lon":5.376487,"is_reserved":false,"is_disabled":false,"rental_uris":{"android":"levelo://app?vid=44e61d0a-e6a1-4471-b31f-77954d94eee2","ios":"levelo://app?vid=44e61d0a-e6a1-4471-b31f-77954d94eee2"},"vehicle_type_id":"4","last_reported":1705619267,"current_range_meters":16000,"station_id":"ce4bgv92rcd13ifvqcq0","pricing_plan_id":"free"},{"bike_id":"7e7408a1-1eff-4c21-a801-efa956ba0f5f","system_id":"levelo_inurba_marseille","lat":43.307945,"lon":5.376487,"is_reserved":false,"is_disabled":false,"rental_uris":{"android":"levelo://app?vid=7e7408a1-1eff-4c21-a801-efa956ba0f5f","ios":"levelo://app?vid=7e7408a1-1eff-4c21-a801-efa956ba0f5f"},"vehicle_type_id":"4","last_reported":1705619267,"current_range_meters":5600,"station_id":"ce4bgv92rcd13ifvqcq0","pricing_plan_id":"free"},{"bike_id":"8edc9a6e-b36d-4fac-99e0-653d3e3bfb64","system_id":"levelo_inurba_marseille","lat":43.307945,"lon":5.376487,"is_reserved":false,"is_disabled":false,"rental_uris":{"android":"levelo://app?vid=8edc9a6e-b36d-4fac-99e0-653d3e3bfb64","ios":"levelo://app?vid=8edc9a6e-b36d-4fac-99e0-653d3e3bfb64"},"vehicle_type_id":"4","last_reported":1705619267,"current_range_meters":16000,"station_id":"ce4bgv92rcd13ifvqcq0","pricing_plan_id":"free"},{"bike_id":"6f01c36a-8433-4136-a3aa-ce47b4f4c119","system_id":"levelo_inurba_marseille","lat":43.307945,"lon":5.376487,"is_reserved":false,"is_disabled":false,"rental_uris":{"android":"levelo://app?vid=6f01c36a-8433-4136-a3aa-ce47b4f4c119","ios":"levelo://app?vid=6f01c36a-8433-4136-a3aa-ce47b4f4c119"},"vehicle_type_id":"4","last_reported":1705619267,"current_range_meters":15600,"station_id":"ce4bgv92rcd13ifvqcq0","pricing_plan_id":"free"},{"bike_id":"819b1a40-d6df-482f-82e8-64b53a316ad6","system_id":"levelo_inurba_marseille","lat":43.316994,"lon":5.377297,"is_reserved":false,"is_disabled":false,"rental_uris":{"android":"levelo://app?vid=819b1a40-d6df-482f-82e8-64b53a316ad6","ios":"levelo://app?vid=819b1a40-d6df-482f-82e8-64b53a316ad6"},"vehicle_type_id":"4","last_reported":1705619267,"current_range_meters":13200,"station_id":"ce4bgth2rcd13ifvqch0","pricing_plan_id":"free"},{"bike_id":"9df0e3d5-2446-48a3-b128-8f571044fffc","system_id":"levelo_inurba_marseille","lat":43.317075,"lon":5.377367,"is_reserved":false,"is_disabled":false,"rental_uris":{"android":"levelo://app?vid=9df0e3d5-2446-48a3-b128-8f571044fffc","ios":"levelo://app?vid=9df0e3d5-2446-48a3-b128-8f571044fffc"},"vehicle_type_id":"4","last_reported":1705619267,"current_range_meters":25600,"station_id":"ce4bgth2rcd13ifvqch0","pricing_plan_id":"free"},{"bike_id":"ad290e33-0ba5-476f-b7cb-ba0ba539f3fe","system_id":"levelo_inurba_marseille","lat":43.317075,"lon":5.377367,"is_reserved":false,"is_disabled":false,"rental_uris":{"android":"levelo://app?vid=ad290e33-0ba5-476f-b7cb-ba0ba539f3fe","ios":"levelo://app?vid=ad290e33-0ba5-476f-b7cb-ba0ba539f3fe"},"vehicle_type_id":"4","last_reported":1705619267,"current_range_meters":29200,"station_id":"ce4bgth2rcd13ifvqch0","pricing_plan_id":"free"},{"bike_id":"52addc16-8156-4309-bfb4-c3bd4375efcf","system_id":"levelo_inurba_marseille","lat":43.30304,"lon":5.368987,"is_reserved":false,"is_disabled":false,"rental_uris":{"android":"levelo://app?vid=52addc16-8156-4309-bfb4-c3bd4375efcf","ios":"levelo://app?vid=52addc16-8156-4309-bfb4-c3bd4375efcf"},"vehicle_type_id":"4","last_reported":1705619267,"current_range_meters":25600,"station_id":"ce4bgqh2rcd13ifvqc5g","pricing_plan_id":"free"},{"bike_id":"689d4ab7-52af-4ffa-a8cb-07093a81fec1","system_id":"levelo_inurba_marseille","lat":43.303046,"lon":5.368981,"is_reserved":false,"is_disabled":false,"rental_uris":{"android":"levelo://app?vid=689d4ab7-52af-4ffa-a8cb-07093a81fec1","ios":"levelo://app?vid=689d4ab7-52af-4ffa-a8cb-07093a81fec1"},"vehicle_type_id":"4","last_reported":1705619267,"current_range_meters":8000,"station_id":"ce4bgqh2rcd13ifvqc5g","pricing_plan_id":"free"},{"bike_id":"2dc4c5c9-7f5f-49a0-9366-9644d54090cb","system_id":"levelo_inurba_marseille","lat":43.303046,"lon":5.368981,"is_reserved":false,"is_disabled":false,"rental_uris":{"android":"levelo://app?vid=2dc4c5c9-7f5f-49a0-9366-9644d54090cb","ios":"levelo://app?vid=2dc4c5c9-7f5f-49a0-9366-9644d54090cb"},"vehicle_type_id":"4","last_reported":1705619267,"current_range_meters":17600,"station_id":"ce4bgqh2rcd13ifvqc5g","pricing_plan_id":"free"},{"bike_id":"fd15fcdd-3b01-402f-bc78-03a6de9eba30","system_id":"levelo_inurba_marseille","lat":43.31542,"lon":5.38011,"is_reserved":false,"is_disabled":false,"rental_uris":{"android":"levelo://app?vid=fd15fcdd-3b01-402f-bc78-03a6de9eba30","ios":"levelo://app?vid=fd15fcdd-3b01-402f-bc78-03a6de9eba30"},"vehicle_type_id":"4","last_reported":1705619267,"current_range_meters":9600,"station_id":"ce4bhsp2rcd13ifvqi50","pricing_plan_id":"free"},{"bike_id":"15c787c0-c09d-4fdb-9d13-006f6c96b22d","system_id":"levelo_inurba_marseille","lat":43.31539,"lon":5.38022,"is_reserved":false,"is_disabled":false,"rental_uris":{"android":"levelo://app?vid=15c787c0-c09d-4fdb-9d13-006f6c96b22d","ios":"levelo://app?vid=15c787c0-c09d-4fdb-9d13-006f6c96b22d"},"vehicle_type_id":"4","last_reported":1705619267,"current_range_meters":16400,"station_id":"ce4bhsp2rcd13ifvqi50","pricing_plan_id":"free"},{"bike_id":"c7a1ac09-0a1a-45b7-aaaf-3cad8b9cc5fa","system_id":"levelo_inurba_marseille","lat":43.301939,"lon":5.366286,"is_reserved":false,"is_disabled":false,"rental_uris":{"android":"levelo://app?vid=c7a1ac09-0a1a-45b7-aaaf-3cad8b9cc5fa","ios":"levelo://app?vid=c7a1ac09-0a1a-45b7-aaaf-3cad8b9cc5fa"},"vehicle_type_id":"4","last_reported":1705619267,"current_range_meters":29200,"station_id":"ce4bgrh2rcd13ifvqc8g","pricing_plan_id":"free"},{"bike_id":"7cfdef8e-b6dc-4f1d-8560-dfa66a0be6d6","system_id":"levelo_inurba_marseille","lat":43.301939,"lon":5.366286,"is_reserved":false,"is_disabled":false,"rental_uris":{"android":"levelo://app?vid=7cfdef8e-b6dc-4f1d-8560-dfa66a0be6d6","ios":"levelo://app?vid=7cfdef8e-b6dc-4f1d-8560-dfa66a0be6d6"},"vehicle_type_id":"4","last_reported":1705619267,"current_range_meters":24800,"station_id":"ce4bgrh2rcd13ifvqc8g","pricing_plan_id":"free"},{"bike_id":"80f015b1-3dda-47db-ae47-af15d87f5079","system_id":"levelo_inurba_marseille","lat":43.301939,"lon":5.366286,"is_reserved":false,"is_disabled":false,"rental_uris":{"android":"levelo://app?vid=80f015b1-3dda-47db-ae47-af15d87f5079","ios":"levelo://app?vid=80f015b1-3dda-47db-ae47-af15d87f5079"},"vehicle_type_id":"4","last_reported":1705619267,"current_range_meters":16400,"station_id":"ce4bgrh2rcd13ifvqc8g","pricing_plan_id":"free"},{"bike_id":"1ec0874a-7e57-4734-98ff-7a107ae5d874","system_id":"levelo_inurba_marseille","lat":43.301939,"lon":5.366286,"is_reserved":false,"is_disabled":false,"rental_uris":{"android":"levelo://app?vid=1ec0874a-7e57-4734-98ff-7a107ae5d874","ios":"levelo://app?vid=1ec0874a-7e57-4734-98ff-7a107ae5d874"},"vehicle_type_id":"4","last_reported":1705619267,"current_range_meters":31600,"station_id":"ce4bgrh2rcd13ifvqc8g","pricing_plan_id":"free"},{"bike_id":"c3a404a0-c69d-421d-937e-0411bf34d6a6","system_id":"levelo_inurba_marseille","lat":43.301939,"lon":5.366286,"is_reserved":false,"is_disabled":false,"rental_uris":{"android":"levelo://app?vid=c3a404a0-c69d-421d-937e-0411bf34d6a6","ios":"levelo://app?vid=c3a404a0-c69d-421d-937e-0411bf34d6a6"},"vehicle_type_id":"4","last_reported":1705619267,"current_range_meters":31200,"station_id":"ce4bgrh2rcd13ifvqc8g","pricing_plan_id":"free"},{"bike_id":"9646547d-6d5c-4061-a544-8cbe0169a84a","system_id":"levelo_inurba_marseille","lat":43.301939,"lon":5.366286,"is_reserved":false,"is_disabled":false,"rental_uris":{"android":"levelo://app?vid=9646547d-6d5c-4061-a544-8cbe0169a84a","ios":"levelo://app?vid=9646547d-6d5c-4061-a544-8cbe0169a84a"},"vehicle_type_id":"4","last_reported":1705619267,"current_range_meters":26000,"station_id":"ce4bgrh2rcd13ifvqc8g","pricing_plan_id":"free"},{"bike_id":"c7616f8a-31ab-4793-a6fd-faa94f2fda71","system_id":"levelo_inurba_marseille","lat":43.30807,"lon":5.3814,"is_reserved":false,"is_disabled":false,"rental_uris":{"android":"levelo://app?vid=c7616f8a-31ab-4793-a6fd-faa94f2fda71","ios":"levelo://app?vid=c7616f8a-31ab-4793-a6fd-faa94f2fda71"},"vehicle_type_id":"4","last_reported":1705619267,"current_range_meters":0,"station_id":"ce4bgt12rcd13ifvqce0","pricing_plan_id":"free"},{"bike_id":"edb9af48-04ac-4e8c-8ff7-71ce306aa126","system_id":"levelo_inurba_marseille","lat":43.308012,"lon":5.381511,"is_reserved":false,"is_disabled":false,"rental_uris":{"android":"levelo://app?vid=edb9af48-04ac-4e8c-8ff7-71ce306aa126","ios":"levelo://app?vid=edb9af48-04ac-4e8c-8ff7-71ce306aa126"},"vehicle_type_id":"4","last_reported":1705619267,"current_range_meters":1600,"station_id":"ce4bgt12rcd13ifvqce0","pricing_plan_id":"free"},{"bike_id":"bd45b358-1642-4b78-84fa-5b284fa21dce","system_id":"levelo_inurba_marseille","lat":43.308012,"lon":5.381511,"is_reserved":false,"is_disabled":false,"rental_uris":{"android":"levelo://app?vid=bd45b358-1642-4b78-84fa-5b284fa21dce","ios":"levelo://app?vid=bd45b358-1642-4b78-84fa-5b284fa21dce"},"vehicle_type_id":"4","last_reported":1705619267,"current_range_meters":13600,"station_id":"ce4bgt12rcd13ifvqce0","pricing_plan_id":"free"},{"bike_id":"538b82c6-0510-4faf-866b-228c4bf94a38","system_id":"levelo_inurba_marseille","lat":43.308012,"lon":5.381511,"is_reserved":false,"is_disabled":false,"rental_uris":{"android":"levelo://app?vid=538b82c6-0510-4faf-866b-228c4bf94a38","ios":"levelo://app?vid=538b82c6-0510-4faf-866b-228c4bf94a38"},"vehicle_type_id":"4","last_reported":1705619267,"current_range_meters":26400,"station_id":"ce4bgt12rcd13ifvqce0","pricing_plan_id":"free"},{"bike_id":"603b0be0-9e37-4b9f-9681-b1d990af7c13","system_id":"levelo_inurba_marseille","lat":43.308103,"lon":5.381487,"is_reserved":false,"is_disabled":false,"rental_uris":{"android":"levelo://app?vid=603b0be0-9e37-4b9f-9681-b1d990af7c13","ios":"levelo://app?vid=603b0be0-9e37-4b9f-9681-b1d990af7c13"},"vehicle_type_id":"4","last_reported":1705619267,"current_range_meters":0,"station_id":"ce4bgt12rcd13ifvqce0","pricing_plan_id":"free"},{"bike_id":"3c9d6026-25b3-4567-a9d0-7f6aa952d02d","system_id":"levelo_inurba_marseille","lat":43.308012,"lon":5.381511,"is_reserved":false,"is_disabled":false,"rental_uris":{"android":"levelo://app?vid=3c9d6026-25b3-4567-a9d0-7f6aa952d02d","ios":"levelo://app?vid=3c9d6026-25b3-4567-a9d0-7f6aa952d02d"},"vehicle_type_id":"4","last_reported":1705619267,"current_range_meters":15600,"station_id":"ce4bgt12rcd13ifvqce0","pricing_plan_id":"free"},{"bike_id":"cc506409-5890-48e7-a0dc-cc1f478f0673","system_id":"levelo_inurba_marseille","lat":43.308012,"lon":5.381511,"is_reserved":false,"is_disabled":false,"rental_uris":{"android":"levelo://app?vid=cc506409-5890-48e7-a0dc-cc1f478f0673","ios":"levelo://app?vid=cc506409-5890-48e7-a0dc-cc1f478f0673"},"vehicle_type_id":"4","last_reported":1705619267,"current_range_meters":25200,"station_id":"ce4bgt12rcd13ifvqce0","pricing_plan_id":"free"},{"bike_id":"89a91384-2d71-4341-855c-da67e2084936","system_id":"levelo_inurba_marseille","lat":43.308012,"lon":5.381511,"is_reserved":false,"is_disabled":false,"rental_uris":{"android":"levelo://app?vid=89a91384-2d71-4341-855c-da67e2084936","ios":"levelo://app?vid=89a91384-2d71-4341-855c-da67e2084936"},"vehicle_type_id":"4","last_reported":1705619267,"current_range_meters":10800,"station_id":"ce4bgt12rcd13ifvqce0","pricing_plan_id":"free"},{"bike_id":"51d3d74e-c459-4dfd-ba8b-cb4dd4701236","system_id":"levelo_inurba_marseille","lat":43.308012,"lon":5.381511,"is_reserved":false,"is_disabled":false,"rental_uris":{"android":"levelo://app?vid=51d3d74e-c459-4dfd-ba8b-cb4dd4701236","ios":"levelo://app?vid=51d3d74e-c459-4dfd-ba8b-cb4dd4701236"},"vehicle_type_id":"4","last_reported":1705619267,"current_range_meters":14400,"station_id":"ce4bgt12rcd13ifvqce0","pricing_plan_id":"free"},{"bike_id":"d00b74c2-3359-4d71-b409-cabe2be70921","system_id":"levelo_inurba_marseille","lat":43.304617,"lon":5.379146,"is_reserved":false,"is_disabled":false,"rental_uris":{"android":"levelo://app?vid=d00b74c2-3359-4d71-b409-cabe2be70921","ios":"levelo://app?vid=d00b74c2-3359-4d71-b409-cabe2be70921"},"vehicle_type_id":"4","last_reported":1705619267,"current_range_meters":13200,"station_id":"","pricing_plan_id":"free"},{"bike_id":"71a126c7-b719-426c-b069-4af1d4a5ba47","system_id":"levelo_inurba_marseille","lat":43.32476,"lon":5.365717,"is_reserved":false,"is_disabled":false,"rental_uris":{"android":"levelo://app?vid=71a126c7-b719-426c-b069-4af1d4a5ba47","ios":"levelo://app?vid=71a126c7-b719-426c-b069-4af1d4a5ba47"},"vehicle_type_id":"4","last_reported":1705619267,"current_range_meters":5200,"station_id":"ce4bhs12rcd13ifvqhvg","pricing_plan_id":"free"},{"bike_id":"3cb5ad2b-e743-4194-9d67-007686b421e8","system_id":"levelo_inurba_marseille","lat":43.324771,"lon":5.36557,"is_reserved":false,"is_disabled":false,"rental_uris":{"android":"levelo://app?vid=3cb5ad2b-e743-4194-9d67-007686b421e8","ios":"levelo://app?vid=3cb5ad2b-e743-4194-9d67-007686b421e8"},"vehicle_type_id":"4","last_reported":1705619267,"current_range_meters":14800,"station_id":"ce4bhs12rcd13ifvqhvg","pricing_plan_id":"free"},{"bike_id":"2179bf7d-2ef3-478f-ab07-0d1474ed1fd2","system_id":"levelo_inurba_marseille","lat":43.324837,"lon":5.365633,"is_reserved":false,"is_disabled":false,"rental_uris":{"android":"levelo://app?vid=2179bf7d-2ef3-478f-ab07-0d1474ed1fd2","ios":"levelo://app?vid=2179bf7d-2ef3-478f-ab07-0d1474ed1fd2"},"vehicle_type_id":"4","last_reported":1705619267,"current_range_meters":9200,"station_id":"ce4bhs12rcd13ifvqhvg","pricing_plan_id":"free"},{"bike_id":"d655f5bb-ed30-48d1-8fea-b10c22e797ad","system_id":"levelo_inurba_marseille","lat":43.324771,"lon":5.36557,"is_reserved":false,"is_disabled":false,"rental_uris":{"android":"levelo://app?vid=d655f5bb-ed30-48d1-8fea-b10c22e797ad","ios":"levelo://app?vid=d655f5bb-ed30-48d1-8fea-b10c22e797ad"},"vehicle_type_id":"4","last_reported":1705619267,"current_range_meters":23600,"station_id":"ce4bhs12rcd13ifvqhvg","pricing_plan_id":"free"},{"bike_id":"55c4df9c-2e38-4d9d-8a4f-91f0b93032bb","system_id":"levelo_inurba_marseille","lat":43.32489,"lon":5.36568,"is_reserved":false,"is_disabled":false,"rental_uris":{"android":"levelo://app?vid=55c4df9c-2e38-4d9d-8a4f-91f0b93032bb","ios":"levelo://app?vid=55c4df9c-2e38-4d9d-8a4f-91f0b93032bb"},"vehicle_type_id":"4","last_reported":1705619267,"current_range_meters":23200,"station_id":"ce4bhs12rcd13ifvqhvg","pricing_plan_id":"free"},{"bike_id":"b5a0c179-e1e5-4c23-8e9d-254d39f408fe","system_id":"levelo_inurba_marseille","lat":43.30143,"lon":5.37413,"is_reserved":false,"is_disabled":false,"rental_uris":{"android":"levelo://app?vid=b5a0c179-e1e5-4c23-8e9d-254d39f408fe","ios":"levelo://app?vid=b5a0c179-e1e5-4c23-8e9d-254d39f408fe"},"vehicle_type_id":"4","last_reported":1705619267,"current_range_meters":23600,"station_id":"ce4bgs92rcd13ifvqcc0","pricing_plan_id":"free"},{"bike_id":"f0e6f343-5d11-4ccd-b521-fba2ec1496b9","system_id":"levelo_inurba_marseille","lat":43.319935,"lon":5.381699,"is_reserved":false,"is_disabled":false,"rental_uris":{"android":"levelo://app?vid=f0e6f343-5d11-4ccd-b521-fba2ec1496b9","ios":"levelo://app?vid=f0e6f343-5d11-4ccd-b521-fba2ec1496b9"},"vehicle_type_id":"4","last_reported":1705619267,"current_range_meters":18800,"station_id":"ce4bhr12rcd13ifvqhpg","pricing_plan_id":"free"},{"bike_id":"2200c8c5-2419-4eb5-b913-cfff868d749d","system_id":"levelo_inurba_marseille","lat":43.319935,"lon":5.381699,"is_reserved":false,"is_disabled":false,"rental_uris":{"android":"levelo://app?vid=2200c8c5-2419-4eb5-b913-cfff868d749d","ios":"levelo://app?vid=2200c8c5-2419-4eb5-b913-cfff868d749d"},"vehicle_type_id":"4","last_reported":1705619267,"current_range_meters":3600,"station_id":"ce4bhr12rcd13ifvqhpg","pricing_plan_id":"free"},{"bike_id":"12161dba-46a1-4bd5-8d95-db5674c71606","system_id":"levelo_inurba_marseille","lat":43.313571,"lon":5.384829,"is_reserved":false,"is_disabled":false,"rental_uris":{"android":"levelo://app?vid=12161dba-46a1-4bd5-8d95-db5674c71606","ios":"levelo://app?vid=12161dba-46a1-4bd5-8d95-db5674c71606"},"vehicle_type_id":"4","last_reported":1705619267,"current_range_meters":27200,"station_id":"ce4bgt92rcd13ifvqcf0","pricing_plan_id":"free"},{"bike_id":"45fe2ca0-8a79-441d-9b37-7a3a4f1ead62","system_id":"levelo_inurba_marseille","lat":43.313571,"lon":5.384829,"is_reserved":false,"is_disabled":false,"rental_uris":{"android":"levelo://app?vid=45fe2ca0-8a79-441d-9b37-7a3a4f1ead62","ios":"levelo://app?vid=45fe2ca0-8a79-441d-9b37-7a3a4f1ead62"},"vehicle_type_id":"4","last_reported":1705619267,"current_range_meters":24400,"station_id":"ce4bgt92rcd13ifvqcf0","pricing_plan_id":"free"},{"bike_id":"3393378b-ff65-4107-b438-d720e8038d0e","system_id":"levelo_inurba_marseille","lat":43.299724,"lon":5.371829,"is_reserved":false,"is_disabled":false,"rental_uris":{"android":"levelo://app?vid=3393378b-ff65-4107-b438-d720e8038d0e","ios":"levelo://app?vid=3393378b-ff65-4107-b438-d720e8038d0e"},"vehicle_type_id":"4","last_reported":1705619267,"current_range_meters":10000,"station_id":"ce4bgr92rcd13ifvqc7g","pricing_plan_id":"free"},{"bike_id":"07f07333-9230-4ac3-8054-fbf1bcd195b8","system_id":"levelo_inurba_marseille","lat":43.299222,"lon":5.365554,"is_reserved":false,"is_disabled":false,"rental_uris":{"android":"levelo://app?vid=07f07333-9230-4ac3-8054-fbf1bcd195b8","ios":"levelo://app?vid=07f07333-9230-4ac3-8054-fbf1bcd195b8"},"vehicle_type_id":"4","last_reported":1705619267,"current_range_meters":6800,"station_id":"ce4bgm92rcd13ifvqbr0","pricing_plan_id":"free"},{"bike_id":"e94a5620-b9bf-4672-b13c-1f549988b10e","system_id":"levelo_inurba_marseille","lat":43.299222,"lon":5.365554,"is_reserved":false,"is_disabled":false,"rental_uris":{"android":"levelo://app?vid=e94a5620-b9bf-4672-b13c-1f549988b10e","ios":"levelo://app?vid=e94a5620-b9bf-4672-b13c-1f549988b10e"},"vehicle_type_id":"4","last_reported":1705619267,"current_range_meters":5200,"station_id":"ce4bgm92rcd13ifvqbr0","pricing_plan_id":"free"},{"bike_id":"0a89c409-902e-4a27-ba0c-fdbd0881161d","system_id":"levelo_inurba_marseille","lat":43.305989,"lon":5.37225,"is_reserved":false,"is_disabled":false,"rental_uris":{"android":"levelo://app?vid=0a89c409-902e-4a27-ba0c-fdbd0881161d","ios":"levelo://app?vid=0a89c409-902e-4a27-ba0c-fdbd0881161d"},"vehicle_type_id":"4","last_reported":1705619267,"current_range_meters":2400,"station_id":"ce4bgqh2rcd13ifvqc4g","pricing_plan_id":"free"},{"bike_id":"a7b8498d-9ecb-41bc-a090-69b62a8546a1","system_id":"levelo_inurba_marseille","lat":43.305364,"lon":5.384119,"is_reserved":false,"is_disabled":false,"rental_uris":{"android":"levelo://app?vid=a7b8498d-9ecb-41bc-a090-69b62a8546a1","ios":"levelo://app?vid=a7b8498d-9ecb-41bc-a090-69b62a8546a1"},"vehicle_type_id":"4","last_reported":1705619267,"current_range_meters":9600,"station_id":"ce4bgg92rcd13ifvqb30","pricing_plan_id":"free"},{"bike_id":"d734ecd7-5256-41de-b9da-c6ba57332841","system_id":"levelo_inurba_marseille","lat":43.305376,"lon":5.384198,"is_reserved":false,"is_disabled":false,"rental_uris":{"android":"levelo://app?vid=d734ecd7-5256-41de-b9da-c6ba57332841","ios":"levelo://app?vid=d734ecd7-5256-41de-b9da-c6ba57332841"},"vehicle_type_id":"4","last_reported":1705619267,"current_range_meters":0,"station_id":"ce4bgg92rcd13ifvqb30","pricing_plan_id":"free"},{"bike_id":"36ed4ad3-e6f6-4a2a-8974-d55f4c69703c","system_id":"levelo_inurba_marseille","lat":43.299243,"lon":5.37481,"is_reserved":false,"is_disabled":false,"rental_uris":{"android":"levelo://app?vid=36ed4ad3-e6f6-4a2a-8974-d55f4c69703c","ios":"levelo://app?vid=36ed4ad3-e6f6-4a2a-8974-d55f4c69703c"},"vehicle_type_id":"4","last_reported":1705619267,"current_range_meters":0,"station_id":"ce4bgjh2rcd13ifvqbg0","pricing_plan_id":"free"},{"bike_id":"09e91849-0782-4b28-8abd-3427653343c5","system_id":"levelo_inurba_marseille","lat":43.31183,"lon":5.38707,"is_reserved":false,"is_disabled":false,"rental_uris":{"android":"levelo://app?vid=09e91849-0782-4b28-8abd-3427653343c5","ios":"levelo://app?vid=09e91849-0782-4b28-8abd-3427653343c5"},"vehicle_type_id":"4","last_reported":1705619267,"current_range_meters":0,"station_id":"ce4bgv12rcd13ifvqcp0","pricing_plan_id":"free"},{"bike_id":"ae472bc2-36fe-4280-a08c-4495a98e2ec4","system_id":"levelo_inurba_marseille","lat":43.299243,"lon":5.37481,"is_reserved":false,"is_disabled":false,"rental_uris":{"android":"levelo://app?vid=ae472bc2-36fe-4280-a08c-4495a98e2ec4","ios":"levelo://app?vid=ae472bc2-36fe-4280-a08c-4495a98e2ec4"},"vehicle_type_id":"4","last_reported":1705619267,"current_range_meters":24400,"station_id":"ce4bgjh2rcd13ifvqbg0","pricing_plan_id":"free"},{"bike_id":"e677e074-353c-4ca5-a491-d3486dfa6c9f","system_id":"levelo_inurba_marseille","lat":43.299243,"lon":5.374807,"is_reserved":false,"is_disabled":false,"rental_uris":{"android":"levelo://app?vid=e677e074-353c-4ca5-a491-d3486dfa6c9f","ios":"levelo://app?vid=e677e074-353c-4ca5-a491-d3486dfa6c9f"},"vehicle_type_id":"4","last_reported":1705619267,"current_range_meters":6800,"station_id":"ce4bgjh2rcd13ifvqbg0","pricing_plan_id":"free"},{"bike_id":"40d62f5e-45ab-4f1e-9962-007d35d06c3b","system_id":"levelo_inurba_marseille","lat":43.297794,"lon":5.370888,"is_reserved":false,"is_disabled":false,"rental_uris":{"android":"levelo://app?vid=40d62f5e-45ab-4f1e-9962-007d35d06c3b","ios":"levelo://app?vid=40d62f5e-45ab-4f1e-9962-007d35d06c3b"},"vehicle_type_id":"4","last_reported":1705619267,"current_range_meters":14000,"station_id":"ce4bgop2rcd13ifvqc1g","pricing_plan_id":"free"},{"bike_id":"9082b16f-f4a7-4863-9898-1d3fd7ab62c0","system_id":"levelo_inurba_marseille","lat":43.297794,"lon":5.370888,"is_reserved":false,"is_disabled":false,"rental_uris":{"android":"levelo://app?vid=9082b16f-f4a7-4863-9898-1d3fd7ab62c0","ios":"levelo://app?vid=9082b16f-f4a7-4863-9898-1d3fd7ab62c0"},"vehicle_type_id":"4","last_reported":1705619267,"current_range_meters":25200,"station_id":"ce4bgop2rcd13ifvqc1g","pricing_plan_id":"free"},{"bike_id":"4845401d-8788-4800-be14-6d63122bfc72","system_id":"levelo_inurba_marseille","lat":43.32287,"lon":5.38265,"is_reserved":false,"is_disabled":false,"rental_uris":{"android":"levelo://app?vid=4845401d-8788-4800-be14-6d63122bfc72","ios":"levelo://app?vid=4845401d-8788-4800-be14-6d63122bfc72"},"vehicle_type_id":"4","last_reported":1705619267,"current_range_meters":6000,"station_id":"ce4bhr12rcd13ifvqhqg","pricing_plan_id":"free"},{"bike_id":"01c07e62-fecd-4d4e-969e-613f4f56109f","system_id":"levelo_inurba_marseille","lat":43.32293,"lon":5.38262,"is_reserved":false,"is_disabled":false,"rental_uris":{"android":"levelo://app?vid=01c07e62-fecd-4d4e-969e-613f4f56109f","ios":"levelo://app?vid=01c07e62-fecd-4d4e-969e-613f4f56109f"},"vehicle_type_id":"4","last_reported":1705619267,"current_range_meters":8400,"station_id":"ce4bhr12rcd13ifvqhqg","pricing_plan_id":"free"},{"bike_id":"aa1b3cf4-5953-466c-a16f-697ec5cccb4c","system_id":"levelo_inurba_marseille","lat":43.322918,"lon":5.382638,"is_reserved":false,"is_disabled":false,"rental_uris":{"android":"levelo://app?vid=aa1b3cf4-5953-466c-a16f-697ec5cccb4c","ios":"levelo://app?vid=aa1b3cf4-5953-466c-a16f-697ec5cccb4c"},"vehicle_type_id":"4","last_reported":1705619267,"current_range_meters":7600,"station_id":"ce4bhr12rcd13ifvqhqg","pricing_plan_id":"free"},{"bike_id":"34c8b400-5074-46e3-aa02-f5d274dfaa4f","system_id":"levelo_inurba_marseille","lat":43.32292,"lon":5.38264,"is_reserved":false,"is_disabled":false,"rental_uris":{"android":"levelo://app?vid=34c8b400-5074-46e3-aa02-f5d274dfaa4f","ios":"levelo://app?vid=34c8b400-5074-46e3-aa02-f5d274dfaa4f"},"vehicle_type_id":"4","last_reported":1705619267,"current_range_meters":8800,"station_id":"ce4bhr12rcd13ifvqhqg","pricing_plan_id":"free"},{"bike_id":"c59e915a-05cb-49b2-8b19-dcae4465ebcc","system_id":"levelo_inurba_marseille","lat":43.32292,"lon":5.382653,"is_reserved":false,"is_disabled":false,"rental_uris":{"android":"levelo://app?vid=c59e915a-05cb-49b2-8b19-dcae4465ebcc","ios":"levelo://app?vid=c59e915a-05cb-49b2-8b19-dcae4465ebcc"},"vehicle_type_id":"4","last_reported":1705619267,"current_range_meters":29200,"station_id":"ce4bhr12rcd13ifvqhqg","pricing_plan_id":"free"},{"bike_id":"510e4003-ad50-4182-a4bb-6da1b111fff5","system_id":"levelo_inurba_marseille","lat":43.322872,"lon":5.382756,"is_reserved":false,"is_disabled":false,"rental_uris":{"android":"levelo://app?vid=510e4003-ad50-4182-a4bb-6da1b111fff5","ios":"levelo://app?vid=510e4003-ad50-4182-a4bb-6da1b111fff5"},"vehicle_type_id":"4","last_reported":1705619267,"current_range_meters":18800,"station_id":"ce4bhr12rcd13ifvqhqg","pricing_plan_id":"free"},{"bike_id":"afe2d6ba-ebda-4981-9104-c77037901f05","system_id":"levelo_inurba_marseille","lat":43.322872,"lon":5.382756,"is_reserved":false,"is_disabled":false,"rental_uris":{"android":"levelo://app?vid=afe2d6ba-ebda-4981-9104-c77037901f05","ios":"levelo://app?vid=afe2d6ba-ebda-4981-9104-c77037901f05"},"vehicle_type_id":"4","last_reported":1705619267,"current_range_meters":9600,"station_id":"ce4bhr12rcd13ifvqhqg","pricing_plan_id":"free"},{"bike_id":"b3d1df88-d8ad-420f-822b-89111e75191e","system_id":"levelo_inurba_marseille","lat":43.328231,"lon":5.366779,"is_reserved":false,"is_disabled":false,"rental_uris":{"android":"levelo://app?vid=b3d1df88-d8ad-420f-822b-89111e75191e","ios":"levelo://app?vid=b3d1df88-d8ad-420f-822b-89111e75191e"},"vehicle_type_id":"4","last_reported":1705619267,"current_range_meters":2000,"station_id":"ce4bhs92rcd13ifvqi0g","pricing_plan_id":"free"},{"bike_id":"6b4ea496-3016-42db-af64-ba8beb6e73fc","system_id":"levelo_inurba_marseille","lat":43.328371,"lon":5.366909,"is_reserved":false,"is_disabled":false,"rental_uris":{"android":"levelo://app?vid=6b4ea496-3016-42db-af64-ba8beb6e73fc","ios":"levelo://app?vid=6b4ea496-3016-42db-af64-ba8beb6e73fc"},"vehicle_type_id":"4","last_reported":1705619267,"current_range_meters":18800,"station_id":"ce4bhs92rcd13ifvqi0g","pricing_plan_id":"free"},{"bike_id":"02f97db8-1e1e-4f38-89f3-11868234f7c3","system_id":"levelo_inurba_marseille","lat":43.328265,"lon":5.36675,"is_reserved":false,"is_disabled":false,"rental_uris":{"android":"levelo://app?vid=02f97db8-1e1e-4f38-89f3-11868234f7c3","ios":"levelo://app?vid=02f97db8-1e1e-4f38-89f3-11868234f7c3"},"vehicle_type_id":"4","last_reported":1705619267,"current_range_meters":12000,"station_id":"ce4bhs92rcd13ifvqi0g","pricing_plan_id":"free"},{"bike_id":"85cedcff-9e9a-415d-8415-195178ea3cb7","system_id":"levelo_inurba_marseille","lat":43.328275,"lon":5.366801,"is_reserved":false,"is_disabled":false,"rental_uris":{"android":"levelo://app?vid=85cedcff-9e9a-415d-8415-195178ea3cb7","ios":"levelo://app?vid=85cedcff-9e9a-415d-8415-195178ea3cb7"},"vehicle_type_id":"4","last_reported":1705619267,"current_range_meters":14400,"station_id":"ce4bhs92rcd13ifvqi0g","pricing_plan_id":"free"},{"bike_id":"a53b6dde-9c97-4a96-897c-ee7f9265222d","system_id":"levelo_inurba_marseille","lat":43.328371,"lon":5.366909,"is_reserved":false,"is_disabled":false,"rental_uris":{"android":"levelo://app?vid=a53b6dde-9c97-4a96-897c-ee7f9265222d","ios":"levelo://app?vid=a53b6dde-9c97-4a96-897c-ee7f9265222d"},"vehicle_type_id":"4","last_reported":1705619267,"current_range_meters":15600,"station_id":"ce4bhs92rcd13ifvqi0g","pricing_plan_id":"free"},{"bike_id":"1782ad4d-7cbc-4ac0-af82-b65688e9d34c","system_id":"levelo_inurba_marseille","lat":43.328371,"lon":5.366909,"is_reserved":false,"is_disabled":false,"rental_uris":{"android":"levelo://app?vid=1782ad4d-7cbc-4ac0-af82-b65688e9d34c","ios":"levelo://app?vid=1782ad4d-7cbc-4ac0-af82-b65688e9d34c"},"vehicle_type_id":"4","last_reported":1705619267,"current_range_meters":20800,"station_id":"ce4bhs92rcd13ifvqi0g","pricing_plan_id":"free"},{"bike_id":"6da9db5a-42ba-4fa8-afc9-4fdbb45498c1","system_id":"levelo_inurba_marseille","lat":43.328283,"lon":5.366813,"is_reserved":false,"is_disabled":false,"rental_uris":{"android":"levelo://app?vid=6da9db5a-42ba-4fa8-afc9-4fdbb45498c1","ios":"levelo://app?vid=6da9db5a-42ba-4fa8-afc9-4fdbb45498c1"},"vehicle_type_id":"4","last_reported":1705619267,"current_range_meters":7200,"station_id":"ce4bhs92rcd13ifvqi0g","pricing_plan_id":"free"},{"bike_id":"ea0178f3-2c6b-4af6-b062-91b0b8dde1df","system_id":"levelo_inurba_marseille","lat":43.328283,"lon":5.366791,"is_reserved":false,"is_disabled":false,"rental_uris":{"android":"levelo://app?vid=ea0178f3-2c6b-4af6-b062-91b0b8dde1df","ios":"levelo://app?vid=ea0178f3-2c6b-4af6-b062-91b0b8dde1df"},"vehicle_type_id":"4","last_reported":1705619267,"current_range_meters":30000,"station_id":"ce4bhs92rcd13ifvqi0g","pricing_plan_id":"free"},{"bike_id":"2849c95b-f1a6-402d-aac7-80ea81f2feb2","system_id":"levelo_inurba_marseille","lat":43.328297,"lon":5.366729,"is_reserved":false,"is_disabled":false,"rental_uris":{"android":"levelo://app?vid=2849c95b-f1a6-402d-aac7-80ea81f2feb2","ios":"levelo://app?vid=2849c95b-f1a6-402d-aac7-80ea81f2feb2"},"vehicle_type_id":"4","last_reported":1705619267,"current_range_meters":28400,"station_id":"ce4bhs92rcd13ifvqi0g","pricing_plan_id":"free"},{"bike_id":"641739e6-19de-47df-9491-35da26c3c9da","system_id":"levelo_inurba_marseille","lat":43.328371,"lon":5.366909,"is_reserved":false,"is_disabled":false,"rental_uris":{"android":"levelo://app?vid=641739e6-19de-47df-9491-35da26c3c9da","ios":"levelo://app?vid=641739e6-19de-47df-9491-35da26c3c9da"},"vehicle_type_id":"4","last_reported":1705619267,"current_range_meters":22800,"station_id":"ce4bhs92rcd13ifvqi0g","pricing_plan_id":"free"},{"bike_id":"bae0e6ef-8eeb-485a-a054-bea3431d2035","system_id":"levelo_inurba_marseille","lat":43.328371,"lon":5.366909,"is_reserved":false,"is_disabled":false,"rental_uris":{"android":"levelo://app?vid=bae0e6ef-8eeb-485a-a054-bea3431d2035","ios":"levelo://app?vid=bae0e6ef-8eeb-485a-a054-bea3431d2035"},"vehicle_type_id":"4","last_reported":1705619267,"current_range_meters":12800,"station_id":"ce4bhs92rcd13ifvqi0g","pricing_plan_id":"free"},{"bike_id":"33a5b9b9-aec4-4925-974d-72730cfc5f44","system_id":"levelo_inurba_marseille","lat":43.328302,"lon":5.3667,"is_reserved":false,"is_disabled":false,"rental_uris":{"android":"levelo://app?vid=33a5b9b9-aec4-4925-974d-72730cfc5f44","ios":"levelo://app?vid=33a5b9b9-aec4-4925-974d-72730cfc5f44"},"vehicle_type_id":"4","last_reported":1705619267,"current_range_meters":21200,"station_id":"ce4bhs92rcd13ifvqi0g","pricing_plan_id":"free"},{"bike_id":"88638e12-da12-4596-b7e2-600ab2f62219","system_id":"levelo_inurba_marseille","lat":43.328371,"lon":5.366909,"is_reserved":false,"is_disabled":false,"rental_uris":{"android":"levelo://app?vid=88638e12-da12-4596-b7e2-600ab2f62219","ios":"levelo://app?vid=88638e12-da12-4596-b7e2-600ab2f62219"},"vehicle_type_id":"4","last_reported":1705619267,"current_range_meters":4000,"station_id":"ce4bhs92rcd13ifvqi0g","pricing_plan_id":"free"},{"bike_id":"7a5cfd19-67b5-4404-837f-9d2597d5b4a4","system_id":"levelo_inurba_marseille","lat":43.32833,"lon":5.36669,"is_reserved":false,"is_disabled":false,"rental_uris":{"android":"levelo://app?vid=7a5cfd19-67b5-4404-837f-9d2597d5b4a4","ios":"levelo://app?vid=7a5cfd19-67b5-4404-837f-9d2597d5b4a4"},"vehicle_type_id":"4","last_reported":1705619267,"current_range_meters":8000,"station_id":"ce4bhs92rcd13ifvqi0g","pricing_plan_id":"free"},{"bike_id":"38082c03-fac1-44d3-a79f-5142b4a113a9","system_id":"levelo_inurba_marseille","lat":43.328373,"lon":5.366902,"is_reserved":false,"is_disabled":false,"rental_uris":{"android":"levelo://app?vid=38082c03-fac1-44d3-a79f-5142b4a113a9","ios":"levelo://app?vid=38082c03-fac1-44d3-a79f-5142b4a113a9"},"vehicle_type_id":"4","last_reported":1705619267,"current_range_meters":17200,"station_id":"ce4bhs92rcd13ifvqi0g","pricing_plan_id":"free"},{"bike_id":"7646b908-1010-4aca-887d-9fbed40ab023","system_id":"levelo_inurba_marseille","lat":43.295944,"lon":5.368018,"is_reserved":false,"is_disabled":false,"rental_uris":{"android":"levelo://app?vid=7646b908-1010-4aca-887d-9fbed40ab023","ios":"levelo://app?vid=7646b908-1010-4aca-887d-9fbed40ab023"},"vehicle_type_id":"4","last_reported":1705619267,"current_range_meters":20000,"station_id":"","pricing_plan_id":"free"},{"bike_id":"9c2fbf4c-6d5b-4051-80a9-033622576a28","system_id":"levelo_inurba_marseille","lat":43.29573,"lon":5.367355,"is_reserved":false,"is_disabled":false,"rental_uris":{"android":"levelo://app?vid=9c2fbf4c-6d5b-4051-80a9-033622576a28","ios":"levelo://app?vid=9c2fbf4c-6d5b-4051-80a9-033622576a28"},"vehicle_type_id":"4","last_reported":1705619267,"current_range_meters":14000,"station_id":"ce4bgph2rcd13ifvqc2g","pricing_plan_id":"free"},{"bike_id":"0daae5b6-583e-48a0-89bb-11c7ae4edb93","system_id":"levelo_inurba_marseille","lat":43.296921,"lon":5.376579,"is_reserved":false,"is_disabled":false,"rental_uris":{"android":"levelo://app?vid=0daae5b6-583e-48a0-89bb-11c7ae4edb93","ios":"levelo://app?vid=0daae5b6-583e-48a0-89bb-11c7ae4edb93"},"vehicle_type_id":"4","last_reported":1705619267,"current_range_meters":24000,"station_id":"ce4bgkh2rcd13ifvqbl0","pricing_plan_id":"free"},{"bike_id":"7d8ee653-4df0-4cbe-8624-9a044210a969","system_id":"levelo_inurba_marseille","lat":43.317557,"lon":5.390173,"is_reserved":false,"is_disabled":false,"rental_uris":{"android":"levelo://app?vid=7d8ee653-4df0-4cbe-8624-9a044210a969","ios":"levelo://app?vid=7d8ee653-4df0-4cbe-8624-9a044210a969"},"vehicle_type_id":"4","last_reported":1705619267,"current_range_meters":8400,"station_id":"ce4bhqp2rcd13ifvqhng","pricing_plan_id":"free"},{"bike_id":"986d08bb-3947-40d3-b2ab-e75d58963874","system_id":"levelo_inurba_marseille","lat":43.317557,"lon":5.390173,"is_reserved":false,"is_disabled":false,"rental_uris":{"android":"levelo://app?vid=986d08bb-3947-40d3-b2ab-e75d58963874","ios":"levelo://app?vid=986d08bb-3947-40d3-b2ab-e75d58963874"},"vehicle_type_id":"4","last_reported":1705619267,"current_range_meters":24400,"station_id":"ce4bhqp2rcd13ifvqhng","pricing_plan_id":"free"},{"bike_id":"d81fcc2d-ba65-4a7d-b1a6-7f5e8793578f","system_id":"levelo_inurba_marseille","lat":43.317542,"lon":5.390167,"is_reserved":false,"is_disabled":false,"rental_uris":{"android":"levelo://app?vid=d81fcc2d-ba65-4a7d-b1a6-7f5e8793578f","ios":"levelo://app?vid=d81fcc2d-ba65-4a7d-b1a6-7f5e8793578f"},"vehicle_type_id":"4","last_reported":1705619267,"current_range_meters":21200,"station_id":"ce4bhqp2rcd13ifvqhng","pricing_plan_id":"free"},{"bike_id":"a0758ead-1c6b-4eda-8725-6bf980bf382e","system_id":"levelo_inurba_marseille","lat":43.317599,"lon":5.390229,"is_reserved":false,"is_disabled":false,"rental_uris":{"android":"levelo://app?vid=a0758ead-1c6b-4eda-8725-6bf980bf382e","ios":"levelo://app?vid=a0758ead-1c6b-4eda-8725-6bf980bf382e"},"vehicle_type_id":"4","last_reported":1705619267,"current_range_meters":4400,"station_id":"ce4bhqp2rcd13ifvqhng","pricing_plan_id":"free"},{"bike_id":"73e79637-9782-4dfe-9207-392f4e2ea989","system_id":"levelo_inurba_marseille","lat":43.304278,"lon":5.388868,"is_reserved":false,"is_disabled":false,"rental_uris":{"android":"levelo://app?vid=73e79637-9782-4dfe-9207-392f4e2ea989","ios":"levelo://app?vid=73e79637-9782-4dfe-9207-392f4e2ea989"},"vehicle_type_id":"4","last_reported":1705619267,"current_range_meters":0,"station_id":"ce4bgk12rcd13ifvqbi0","pricing_plan_id":"free"},{"bike_id":"c7ec916d-4e4b-4fad-89d8-4d01588cb54b","system_id":"levelo_inurba_marseille","lat":43.304274,"lon":5.388873,"is_reserved":false,"is_disabled":false,"rental_uris":{"android":"levelo://app?vid=c7ec916d-4e4b-4fad-89d8-4d01588cb54b","ios":"levelo://app?vid=c7ec916d-4e4b-4fad-89d8-4d01588cb54b"},"vehicle_type_id":"4","last_reported":1705619267,"current_range_meters":0,"station_id":"ce4bgk12rcd13ifvqbi0","pricing_plan_id":"free"},{"bike_id":"735801c1-cecd-44b1-a094-efc82a07c517","system_id":"levelo_inurba_marseille","lat":43.304274,"lon":5.388873,"is_reserved":false,"is_disabled":false,"rental_uris":{"android":"levelo://app?vid=735801c1-cecd-44b1-a094-efc82a07c517","ios":"levelo://app?vid=735801c1-cecd-44b1-a094-efc82a07c517"},"vehicle_type_id":"4","last_reported":1705619267,"current_range_meters":29600,"station_id":"ce4bgk12rcd13ifvqbi0","pricing_plan_id":"free"},{"bike_id":"06da0cff-23fe-4cdb-9483-580813358d2f","system_id":"levelo_inurba_marseille","lat":43.295279,"lon":5.375048,"is_reserved":false,"is_disabled":false,"rental_uris":{"android":"levelo://app?vid=06da0cff-23fe-4cdb-9483-580813358d2f","ios":"levelo://app?vid=06da0cff-23fe-4cdb-9483-580813358d2f"},"vehicle_type_id":"4","last_reported":1705619267,"current_range_meters":19200,"station_id":"ce4bgkp2rcd13ifvqbmg","pricing_plan_id":"free"},{"bike_id":"2cea8d70-bc8d-465c-afb2-0d49394af801","system_id":"levelo_inurba_marseille","lat":43.29974,"lon":5.38491,"is_reserved":false,"is_disabled":false,"rental_uris":{"android":"levelo://app?vid=2cea8d70-bc8d-465c-afb2-0d49394af801","ios":"levelo://app?vid=2cea8d70-bc8d-465c-afb2-0d49394af801"},"vehicle_type_id":"4","last_reported":1705619267,"current_range_meters":5200,"station_id":"ce4bgj92rcd13ifvqbd0","pricing_plan_id":"free"},{"bike_id":"3f1ac6a1-e676-4499-a5d3-78914f1d8f7e","system_id":"levelo_inurba_marseille","lat":43.32364,"lon":5.38866,"is_reserved":false,"is_disabled":false,"rental_uris":{"android":"levelo://app?vid=3f1ac6a1-e676-4499-a5d3-78914f1d8f7e","ios":"levelo://app?vid=3f1ac6a1-e676-4499-a5d3-78914f1d8f7e"},"vehicle_type_id":"4","last_reported":1705619267,"current_range_meters":6800,"station_id":"ce4bhqp2rcd13ifvqhog","pricing_plan_id":"free"},{"bike_id":"e488bc27-b4bd-4ecb-9994-ebd8743b5676","system_id":"levelo_inurba_marseille","lat":43.32376,"lon":5.38867,"is_reserved":false,"is_disabled":false,"rental_uris":{"android":"levelo://app?vid=e488bc27-b4bd-4ecb-9994-ebd8743b5676","ios":"levelo://app?vid=e488bc27-b4bd-4ecb-9994-ebd8743b5676"},"vehicle_type_id":"4","last_reported":1705619267,"current_range_meters":11600,"station_id":"ce4bhqp2rcd13ifvqhog","pricing_plan_id":"free"},{"bike_id":"76d2d8d7-8638-4213-9d68-910604c565ee","system_id":"levelo_inurba_marseille","lat":43.32369,"lon":5.38875,"is_reserved":false,"is_disabled":false,"rental_uris":{"android":"levelo://app?vid=76d2d8d7-8638-4213-9d68-910604c565ee","ios":"levelo://app?vid=76d2d8d7-8638-4213-9d68-910604c565ee"},"vehicle_type_id":"4","last_reported":1705619267,"current_range_meters":400,"station_id":"ce4bhqp2rcd13ifvqhog","pricing_plan_id":"free"},{"bike_id":"ae329723-b6cd-4f52-99af-83cccf370dd2","system_id":"levelo_inurba_marseille","lat":43.323644,"lon":5.388799,"is_reserved":false,"is_disabled":false,"rental_uris":{"android":"levelo://app?vid=ae329723-b6cd-4f52-99af-83cccf370dd2","ios":"levelo://app?vid=ae329723-b6cd-4f52-99af-83cccf370dd2"},"vehicle_type_id":"4","last_reported":1705619267,"current_range_meters":4800,"station_id":"ce4bhqp2rcd13ifvqhog","pricing_plan_id":"free"},{"bike_id":"d589db7f-f7c3-4eba-9c81-55f7aee0fc32","system_id":"levelo_inurba_marseille","lat":43.32364,"lon":5.388806,"is_reserved":false,"is_disabled":false,"rental_uris":{"android":"levelo://app?vid=d589db7f-f7c3-4eba-9c81-55f7aee0fc32","ios":"levelo://app?vid=d589db7f-f7c3-4eba-9c81-55f7aee0fc32"},"vehicle_type_id":"4","last_reported":1705619267,"current_range_meters":21600,"station_id":"ce4bhqp2rcd13ifvqhog","pricing_plan_id":"free"},{"bike_id":"455dcc68-a660-415d-93de-0649d55b906b","system_id":"levelo_inurba_marseille","lat":43.323658,"lon":5.388793,"is_reserved":false,"is_disabled":false,"rental_uris":{"android":"levelo://app?vid=455dcc68-a660-415d-93de-0649d55b906b","ios":"levelo://app?vid=455dcc68-a660-415d-93de-0649d55b906b"},"vehicle_type_id":"4","last_reported":1705619267,"current_range_meters":26000,"station_id":"ce4bhqp2rcd13ifvqhog","pricing_plan_id":"free"},{"bike_id":"48d01839-1c06-4604-a1d2-ae1f8bd3df35","system_id":"levelo_inurba_marseille","lat":43.323713,"lon":5.388747,"is_reserved":false,"is_disabled":false,"rental_uris":{"android":"levelo://app?vid=48d01839-1c06-4604-a1d2-ae1f8bd3df35","ios":"levelo://app?vid=48d01839-1c06-4604-a1d2-ae1f8bd3df35"},"vehicle_type_id":"4","last_reported":1705619267,"current_range_meters":8400,"station_id":"ce4bhqp2rcd13ifvqhog","pricing_plan_id":"free"},{"bike_id":"1a6cb141-7f37-45bb-9e37-005cb4088435","system_id":"levelo_inurba_marseille","lat":43.32367,"lon":5.38881,"is_reserved":false,"is_disabled":false,"rental_uris":{"android":"levelo://app?vid=1a6cb141-7f37-45bb-9e37-005cb4088435","ios":"levelo://app?vid=1a6cb141-7f37-45bb-9e37-005cb4088435"},"vehicle_type_id":"4","last_reported":1705619267,"current_range_meters":18800,"station_id":"ce4bhqp2rcd13ifvqhog","pricing_plan_id":"free"},{"bike_id":"73c990ec-843c-4470-94da-4e5dcac1cddb","system_id":"levelo_inurba_marseille","lat":43.32366,"lon":5.38884,"is_reserved":false,"is_disabled":false,"rental_uris":{"android":"levelo://app?vid=73c990ec-843c-4470-94da-4e5dcac1cddb","ios":"levelo://app?vid=73c990ec-843c-4470-94da-4e5dcac1cddb"},"vehicle_type_id":"4","last_reported":1705619267,"current_range_meters":2800,"station_id":"ce4bhqp2rcd13ifvqhog","pricing_plan_id":"free"},{"bike_id":"0bfd4e67-2f41-4ad0-88ae-f2544a59b7c7","system_id":"levelo_inurba_marseille","lat":43.32369,"lon":5.38886,"is_reserved":false,"is_disabled":false,"rental_uris":{"android":"levelo://app?vid=0bfd4e67-2f41-4ad0-88ae-f2544a59b7c7","ios":"levelo://app?vid=0bfd4e67-2f41-4ad0-88ae-f2544a59b7c7"},"vehicle_type_id":"4","last_reported":1705619267,"current_range_meters":17600,"station_id":"ce4bhqp2rcd13ifvqhog","pricing_plan_id":"free"},{"bike_id":"b7beb6a5-b030-4fe2-a25b-ee6b5b88bebb","system_id":"levelo_inurba_marseille","lat":43.323681,"lon":5.388874,"is_reserved":false,"is_disabled":false,"rental_uris":{"android":"levelo://app?vid=b7beb6a5-b030-4fe2-a25b-ee6b5b88bebb","ios":"levelo://app?vid=b7beb6a5-b030-4fe2-a25b-ee6b5b88bebb"},"vehicle_type_id":"4","last_reported":1705619267,"current_range_meters":26000,"station_id":"ce4bhqp2rcd13ifvqhog","pricing_plan_id":"free"},{"bike_id":"2ec4001f-5cf2-4614-bbfc-ffc6c5b765c3","system_id":"levelo_inurba_marseille","lat":43.32369,"lon":5.38887,"is_reserved":false,"is_disabled":false,"rental_uris":{"android":"levelo://app?vid=2ec4001f-5cf2-4614-bbfc-ffc6c5b765c3","ios":"levelo://app?vid=2ec4001f-5cf2-4614-bbfc-ffc6c5b765c3"},"vehicle_type_id":"4","last_reported":1705619267,"current_range_meters":18800,"station_id":"ce4bhqp2rcd13ifvqhog","pricing_plan_id":"free"},{"bike_id":"cfc10172-33c1-4d74-a496-898c08692852","system_id":"levelo_inurba_marseille","lat":43.292749,"lon":5.368402,"is_reserved":false,"is_disabled":false,"rental_uris":{"android":"levelo://app?vid=cfc10172-33c1-4d74-a496-898c08692852","ios":"levelo://app?vid=cfc10172-33c1-4d74-a496-898c08692852"},"vehicle_type_id":"4","last_reported":1705619267,"current_range_meters":0,"station_id":"ce4bhbp2rcd13ifvqesg","pricing_plan_id":"free"},{"bike_id":"6d51b618-3927-43f2-9df7-88a37b584cc1","system_id":"levelo_inurba_marseille","lat":43.305994,"lon":5.393687,"is_reserved":false,"is_disabled":false,"rental_uris":{"android":"levelo://app?vid=6d51b618-3927-43f2-9df7-88a37b584cc1","ios":"levelo://app?vid=6d51b618-3927-43f2-9df7-88a37b584cc1"},"vehicle_type_id":"4","last_reported":1705619267,"current_range_meters":14000,"station_id":"ce4bh0p2rcd13ifvqd80","pricing_plan_id":"free"},{"bike_id":"aca34154-1185-4599-a21c-84af97b4b618","system_id":"levelo_inurba_marseille","lat":43.305994,"lon":5.393687,"is_reserved":false,"is_disabled":false,"rental_uris":{"android":"levelo://app?vid=aca34154-1185-4599-a21c-84af97b4b618","ios":"levelo://app?vid=aca34154-1185-4599-a21c-84af97b4b618"},"vehicle_type_id":"4","last_reported":1705619267,"current_range_meters":21200,"station_id":"ce4bh0p2rcd13ifvqd80","pricing_plan_id":"free"},{"bike_id":"cd1651e7-e1b2-4470-957b-e1cc360e0b69","system_id":"levelo_inurba_marseille","lat":43.302992,"lon":5.392136,"is_reserved":false,"is_disabled":false,"rental_uris":{"android":"levelo://app?vid=cd1651e7-e1b2-4470-957b-e1cc360e0b69","ios":"levelo://app?vid=cd1651e7-e1b2-4470-957b-e1cc360e0b69"},"vehicle_type_id":"4","last_reported":1705619267,"current_range_meters":10000,"station_id":"ce4bgkh2rcd13ifvqbk0","pricing_plan_id":"free"},{"bike_id":"f5b471c0-f122-45da-9e39-fb6dfb52b2fb","system_id":"levelo_inurba_marseille","lat":43.303002,"lon":5.392142,"is_reserved":false,"is_disabled":false,"rental_uris":{"android":"levelo://app?vid=f5b471c0-f122-45da-9e39-fb6dfb52b2fb","ios":"levelo://app?vid=f5b471c0-f122-45da-9e39-fb6dfb52b2fb"},"vehicle_type_id":"4","last_reported":1705619267,"current_range_meters":12400,"station_id":"ce4bgkh2rcd13ifvqbk0","pricing_plan_id":"free"},{"bike_id":"2396a047-e1b3-4a5d-a3bc-9aca6f3b649a","system_id":"levelo_inurba_marseille","lat":43.2936,"lon":5.37835,"is_reserved":false,"is_disabled":false,"rental_uris":{"android":"levelo://app?vid=2396a047-e1b3-4a5d-a3bc-9aca6f3b649a","ios":"levelo://app?vid=2396a047-e1b3-4a5d-a3bc-9aca6f3b649a"},"vehicle_type_id":"4","last_reported":1705619267,"current_range_meters":24000,"station_id":"ce4bgjh2rcd13ifvqbf0","pricing_plan_id":"free"},{"bike_id":"3a593303-ef5e-43cf-b861-85ff96cea566","system_id":"levelo_inurba_marseille","lat":43.2936,"lon":5.37835,"is_reserved":false,"is_disabled":false,"rental_uris":{"android":"levelo://app?vid=3a593303-ef5e-43cf-b861-85ff96cea566","ios":"levelo://app?vid=3a593303-ef5e-43cf-b861-85ff96cea566"},"vehicle_type_id":"4","last_reported":1705619267,"current_range_meters":6800,"station_id":"ce4bgjh2rcd13ifvqbf0","pricing_plan_id":"free"},{"bike_id":"ad6bd087-78e9-40a9-a853-3230781fa7c5","system_id":"levelo_inurba_marseille","lat":43.292311,"lon":5.360731,"is_reserved":false,"is_disabled":false,"rental_uris":{"android":"levelo://app?vid=ad6bd087-78e9-40a9-a853-3230781fa7c5","ios":"levelo://app?vid=ad6bd087-78e9-40a9-a853-3230781fa7c5"},"vehicle_type_id":"4","last_reported":1705619267,"current_range_meters":31200,"station_id":"ce4bhbh2rcd13ifvqeqg","pricing_plan_id":"free"},{"bike_id":"df258914-6bde-44c5-9a46-af9eee1777f9","system_id":"levelo_inurba_marseille","lat":43.300852,"lon":5.390859,"is_reserved":false,"is_disabled":false,"rental_uris":{"android":"levelo://app?vid=df258914-6bde-44c5-9a46-af9eee1777f9","ios":"levelo://app?vid=df258914-6bde-44c5-9a46-af9eee1777f9"},"vehicle_type_id":"4","last_reported":1705619267,"current_range_meters":17600,"station_id":"ce4bh192rcd13ifvqdb0","pricing_plan_id":"free"},{"bike_id":"46c064f2-92a6-421d-b7d8-08fbffb39c7b","system_id":"levelo_inurba_marseille","lat":43.291763,"lon":5.371401,"is_reserved":false,"is_disabled":false,"rental_uris":{"android":"levelo://app?vid=46c064f2-92a6-421d-b7d8-08fbffb39c7b","ios":"levelo://app?vid=46c064f2-92a6-421d-b7d8-08fbffb39c7b"},"vehicle_type_id":"4","last_reported":1705619267,"current_range_meters":0,"station_id":"ce4bha92rcd13ifvqeh0","pricing_plan_id":"free"},{"bike_id":"431b72f8-7985-42fb-9e9e-36f380d68210","system_id":"levelo_inurba_marseille","lat":43.291994,"lon":5.357886,"is_reserved":false,"is_disabled":false,"rental_uris":{"android":"levelo://app?vid=431b72f8-7985-42fb-9e9e-36f380d68210","ios":"levelo://app?vid=431b72f8-7985-42fb-9e9e-36f380d68210"},"vehicle_type_id":"4","last_reported":1705619267,"current_range_meters":8400,"station_id":"ce4bhb12rcd13ifvqel0","pricing_plan_id":"free"},{"bike_id":"8caf9efa-4997-41cb-9a41-37200b660234","system_id":"levelo_inurba_marseille","lat":43.291994,"lon":5.357886,"is_reserved":false,"is_disabled":false,"rental_uris":{"android":"levelo://app?vid=8caf9efa-4997-41cb-9a41-37200b660234","ios":"levelo://app?vid=8caf9efa-4997-41cb-9a41-37200b660234"},"vehicle_type_id":"4","last_reported":1705619267,"current_range_meters":18400,"station_id":"ce4bhb12rcd13ifvqel0","pricing_plan_id":"free"},{"bike_id":"89b466d5-747f-4217-8eac-7d14c5c08ba3","system_id":"levelo_inurba_marseille","lat":43.291994,"lon":5.357886,"is_reserved":false,"is_disabled":false,"rental_uris":{"android":"levelo://app?vid=89b466d5-747f-4217-8eac-7d14c5c08ba3","ios":"levelo://app?vid=89b466d5-747f-4217-8eac-7d14c5c08ba3"},"vehicle_type_id":"4","last_reported":1705619267,"current_range_meters":18000,"station_id":"ce4bhb12rcd13ifvqel0","pricing_plan_id":"free"},{"bike_id":"19d32903-25b4-4057-998a-5a90f5e0d044","system_id":"levelo_inurba_marseille","lat":43.291994,"lon":5.357886,"is_reserved":false,"is_disabled":false,"rental_uris":{"android":"levelo://app?vid=19d32903-25b4-4057-998a-5a90f5e0d044","ios":"levelo://app?vid=19d32903-25b4-4057-998a-5a90f5e0d044"},"vehicle_type_id":"4","last_reported":1705619267,"current_range_meters":400,"station_id":"ce4bhb12rcd13ifvqel0","pricing_plan_id":"free"},{"bike_id":"d77a5bb5-6454-4a6b-a351-466b0d80fb3b","system_id":"levelo_inurba_marseille","lat":43.309038,"lon":5.396546,"is_reserved":false,"is_disabled":false,"rental_uris":{"android":"levelo://app?vid=d77a5bb5-6454-4a6b-a351-466b0d80fb3b","ios":"levelo://app?vid=d77a5bb5-6454-4a6b-a351-466b0d80fb3b"},"vehicle_type_id":"4","last_reported":1705619267,"current_range_meters":27600,"station_id":"ce4bh012rcd13ifvqcv0","pricing_plan_id":"free"},{"bike_id":"ddd4d454-ea90-414c-97d8-42dcd032f391","system_id":"levelo_inurba_marseille","lat":43.291994,"lon":5.357886,"is_reserved":false,"is_disabled":false,"rental_uris":{"android":"levelo://app?vid=ddd4d454-ea90-414c-97d8-42dcd032f391","ios":"levelo://app?vid=ddd4d454-ea90-414c-97d8-42dcd032f391"},"vehicle_type_id":"4","last_reported":1705619267,"current_range_meters":11200,"station_id":"ce4bhb12rcd13ifvqel0","pricing_plan_id":"free"},{"bike_id":"65926f6f-eb36-43d0-924c-6d8c31fa55e2","system_id":"levelo_inurba_marseille","lat":43.309038,"lon":5.396546,"is_reserved":false,"is_disabled":false,"rental_uris":{"android":"levelo://app?vid=65926f6f-eb36-43d0-924c-6d8c31fa55e2","ios":"levelo://app?vid=65926f6f-eb36-43d0-924c-6d8c31fa55e2"},"vehicle_type_id":"4","last_reported":1705619267,"current_range_meters":0,"station_id":"ce4bh012rcd13ifvqcv0","pricing_plan_id":"free"},{"bike_id":"594ca8dd-9a23-4c08-a4ce-d3939694c9d4","system_id":"levelo_inurba_marseille","lat":43.313291,"lon":5.396838,"is_reserved":false,"is_disabled":false,"rental_uris":{"android":"levelo://app?vid=594ca8dd-9a23-4c08-a4ce-d3939694c9d4","ios":"levelo://app?vid=594ca8dd-9a23-4c08-a4ce-d3939694c9d4"},"vehicle_type_id":"4","last_reported":1705619267,"current_range_meters":27600,"station_id":"ce4bgvp2rcd13ifvqcu0","pricing_plan_id":"free"},{"bike_id":"06a949e2-b2b2-4d0c-b1b7-f5423b0248f7","system_id":"levelo_inurba_marseille","lat":43.309047,"lon":5.396551,"is_reserved":false,"is_disabled":false,"rental_uris":{"android":"levelo://app?vid=06a949e2-b2b2-4d0c-b1b7-f5423b0248f7","ios":"levelo://app?vid=06a949e2-b2b2-4d0c-b1b7-f5423b0248f7"},"vehicle_type_id":"4","last_reported":1705619267,"current_range_meters":25600,"station_id":"ce4bh012rcd13ifvqcv0","pricing_plan_id":"free"},{"bike_id":"086505e2-e395-4616-b47e-bb25e4d31dce","system_id":"levelo_inurba_marseille","lat":43.313291,"lon":5.396838,"is_reserved":false,"is_disabled":false,"rental_uris":{"android":"levelo://app?vid=086505e2-e395-4616-b47e-bb25e4d31dce","ios":"levelo://app?vid=086505e2-e395-4616-b47e-bb25e4d31dce"},"vehicle_type_id":"4","last_reported":1705619267,"current_range_meters":21600,"station_id":"ce4bgvp2rcd13ifvqcu0","pricing_plan_id":"free"},{"bike_id":"bc59182a-c0e7-40b7-8ada-0fd1fdbc5ebf","system_id":"levelo_inurba_marseille","lat":43.309038,"lon":5.396546,"is_reserved":false,"is_disabled":false,"rental_uris":{"android":"levelo://app?vid=bc59182a-c0e7-40b7-8ada-0fd1fdbc5ebf","ios":"levelo://app?vid=bc59182a-c0e7-40b7-8ada-0fd1fdbc5ebf"},"vehicle_type_id":"4","last_reported":1705619267,"current_range_meters":23600,"station_id":"ce4bh012rcd13ifvqcv0","pricing_plan_id":"free"},{"bike_id":"af9f5846-f319-4b44-a5ac-42250bc30dfe","system_id":"levelo_inurba_marseille","lat":43.313291,"lon":5.396838,"is_reserved":false,"is_disabled":false,"rental_uris":{"android":"levelo://app?vid=af9f5846-f319-4b44-a5ac-42250bc30dfe","ios":"levelo://app?vid=af9f5846-f319-4b44-a5ac-42250bc30dfe"},"vehicle_type_id":"4","last_reported":1705619267,"current_range_meters":6400,"station_id":"ce4bgvp2rcd13ifvqcu0","pricing_plan_id":"free"},{"bike_id":"d063e9bc-14c6-47bc-98cf-18408bc6d38c","system_id":"levelo_inurba_marseille","lat":43.309038,"lon":5.396546,"is_reserved":false,"is_disabled":false,"rental_uris":{"android":"levelo://app?vid=d063e9bc-14c6-47bc-98cf-18408bc6d38c","ios":"levelo://app?vid=d063e9bc-14c6-47bc-98cf-18408bc6d38c"},"vehicle_type_id":"4","last_reported":1705619267,"current_range_meters":7200,"station_id":"ce4bh012rcd13ifvqcv0","pricing_plan_id":"free"},{"bike_id":"239940da-f6ff-427b-b81a-e7132b4c8332","system_id":"levelo_inurba_marseille","lat":43.291994,"lon":5.357886,"is_reserved":false,"is_disabled":false,"rental_uris":{"android":"levelo://app?vid=239940da-f6ff-427b-b81a-e7132b4c8332","ios":"levelo://app?vid=239940da-f6ff-427b-b81a-e7132b4c8332"},"vehicle_type_id":"4","last_reported":1705619267,"current_range_meters":8800,"station_id":"ce4bhb12rcd13ifvqel0","pricing_plan_id":"free"},{"bike_id":"232d99d9-439e-4f2a-a964-a56400edb9e1","system_id":"levelo_inurba_marseille","lat":43.31338,"lon":5.39695,"is_reserved":false,"is_disabled":false,"rental_uris":{"android":"levelo://app?vid=232d99d9-439e-4f2a-a964-a56400edb9e1","ios":"levelo://app?vid=232d99d9-439e-4f2a-a964-a56400edb9e1"},"vehicle_type_id":"4","last_reported":1705619267,"current_range_meters":13200,"station_id":"ce4bgvp2rcd13ifvqcu0","pricing_plan_id":"free"},{"bike_id":"697dc976-b928-45d2-9fc8-4e0f0a8e454d","system_id":"levelo_inurba_marseille","lat":43.309038,"lon":5.396546,"is_reserved":false,"is_disabled":false,"rental_uris":{"android":"levelo://app?vid=697dc976-b928-45d2-9fc8-4e0f0a8e454d","ios":"levelo://app?vid=697dc976-b928-45d2-9fc8-4e0f0a8e454d"},"vehicle_type_id":"4","last_reported":1705619267,"current_range_meters":21200,"station_id":"ce4bh012rcd13ifvqcv0","pricing_plan_id":"free"},{"bike_id":"4a46300c-10cd-4637-9dbd-350cf5d42386","system_id":"levelo_inurba_marseille","lat":43.309038,"lon":5.396546,"is_reserved":false,"is_disabled":false,"rental_uris":{"android":"levelo://app?vid=4a46300c-10cd-4637-9dbd-350cf5d42386","ios":"levelo://app?vid=4a46300c-10cd-4637-9dbd-350cf5d42386"},"vehicle_type_id":"4","last_reported":1705619267,"current_range_meters":25600,"station_id":"ce4bh012rcd13ifvqcv0","pricing_plan_id":"free"},{"bike_id":"afe6269e-d6ee-4227-8b00-a9e48a97b694","system_id":"levelo_inurba_marseille","lat":43.29541,"lon":5.38536,"is_reserved":false,"is_disabled":false,"rental_uris":{"android":"levelo://app?vid=afe6269e-d6ee-4227-8b00-a9e48a97b694","ios":"levelo://app?vid=afe6269e-d6ee-4227-8b00-a9e48a97b694"},"vehicle_type_id":"4","last_reported":1705619267,"current_range_meters":0,"station_id":"ce4bgih2rcd13ifvqba0","pricing_plan_id":"free"},{"bike_id":"117052a3-4b5b-4e25-bd09-17efd74f4a29","system_id":"levelo_inurba_marseille","lat":43.29529,"lon":5.385581,"is_reserved":false,"is_disabled":false,"rental_uris":{"android":"levelo://app?vid=117052a3-4b5b-4e25-bd09-17efd74f4a29","ios":"levelo://app?vid=117052a3-4b5b-4e25-bd09-17efd74f4a29"},"vehicle_type_id":"4","last_reported":1705619267,"current_range_meters":4000,"station_id":"ce4bgih2rcd13ifvqba0","pricing_plan_id":"free"},{"bike_id":"0599bc9d-4078-4109-b807-20b2412ed5e0","system_id":"levelo_inurba_marseille","lat":43.290717,"lon":5.371522,"is_reserved":false,"is_disabled":false,"rental_uris":{"android":"levelo://app?vid=0599bc9d-4078-4109-b807-20b2412ed5e0","ios":"levelo://app?vid=0599bc9d-4078-4109-b807-20b2412ed5e0"},"vehicle_type_id":"4","last_reported":1705619267,"current_range_meters":0,"station_id":"ce4bh5p2rcd13ifvqe4g","pricing_plan_id":"free"},{"bike_id":"90900623-e345-4462-92df-ac266145cb51","system_id":"levelo_inurba_marseille","lat":43.302008,"lon":5.394694,"is_reserved":false,"is_disabled":false,"rental_uris":{"android":"levelo://app?vid=90900623-e345-4462-92df-ac266145cb51","ios":"levelo://app?vid=90900623-e345-4462-92df-ac266145cb51"},"vehicle_type_id":"4","last_reported":1705619267,"current_range_meters":21200,"station_id":"ce4bh0p2rcd13ifvqd70","pricing_plan_id":"free"},{"bike_id":"51d1a95d-d0f5-4050-8764-ff5f6f1cecd8","system_id":"levelo_inurba_marseille","lat":43.302008,"lon":5.394694,"is_reserved":false,"is_disabled":false,"rental_uris":{"android":"levelo://app?vid=51d1a95d-d0f5-4050-8764-ff5f6f1cecd8","ios":"levelo://app?vid=51d1a95d-d0f5-4050-8764-ff5f6f1cecd8"},"vehicle_type_id":"4","last_reported":1705619267,"current_range_meters":6000,"station_id":"ce4bh0p2rcd13ifvqd70","pricing_plan_id":"free"},{"bike_id":"dd3674e4-d7e8-49db-b983-1335e502b75d","system_id":"levelo_inurba_marseille","lat":43.290624,"lon":5.359245,"is_reserved":false,"is_disabled":false,"rental_uris":{"android":"levelo://app?vid=dd3674e4-d7e8-49db-b983-1335e502b75d","ios":"levelo://app?vid=dd3674e4-d7e8-49db-b983-1335e502b75d"},"vehicle_type_id":"4","last_reported":1705619267,"current_range_meters":4000,"station_id":"ce4bha92rcd13ifvqeg0","pricing_plan_id":"free"},{"bike_id":"a7ffb3e4-d7a0-4aa2-86ac-b185c12627be","system_id":"levelo_inurba_marseille","lat":43.302008,"lon":5.394694,"is_reserved":false,"is_disabled":false,"rental_uris":{"android":"levelo://app?vid=a7ffb3e4-d7a0-4aa2-86ac-b185c12627be","ios":"levelo://app?vid=a7ffb3e4-d7a0-4aa2-86ac-b185c12627be"},"vehicle_type_id":"4","last_reported":1705619267,"current_range_meters":17600,"station_id":"ce4bh0p2rcd13ifvqd70","pricing_plan_id":"free"},{"bike_id":"9de27978-a842-4c30-bda8-dbf748895729","system_id":"levelo_inurba_marseille","lat":43.290624,"lon":5.359245,"is_reserved":false,"is_disabled":false,"rental_uris":{"android":"levelo://app?vid=9de27978-a842-4c30-bda8-dbf748895729","ios":"levelo://app?vid=9de27978-a842-4c30-bda8-dbf748895729"},"vehicle_type_id":"4","last_reported":1705619267,"current_range_meters":24000,"station_id":"ce4bha92rcd13ifvqeg0","pricing_plan_id":"free"},{"bike_id":"9031fe27-1151-4f5d-8a85-1c6aad33c7cf","system_id":"levelo_inurba_marseille","lat":43.290631,"lon":5.359244,"is_reserved":false,"is_disabled":false,"rental_uris":{"android":"levelo://app?vid=9031fe27-1151-4f5d-8a85-1c6aad33c7cf","ios":"levelo://app?vid=9031fe27-1151-4f5d-8a85-1c6aad33c7cf"},"vehicle_type_id":"4","last_reported":1705619267,"current_range_meters":28400,"station_id":"ce4bha92rcd13ifvqeg0","pricing_plan_id":"free"},{"bike_id":"98bec463-93ef-44bc-b001-2bfb99a33a51","system_id":"levelo_inurba_marseille","lat":43.290631,"lon":5.359244,"is_reserved":false,"is_disabled":false,"rental_uris":{"android":"levelo://app?vid=98bec463-93ef-44bc-b001-2bfb99a33a51","ios":"levelo://app?vid=98bec463-93ef-44bc-b001-2bfb99a33a51"},"vehicle_type_id":"4","last_reported":1705619267,"current_range_meters":16400,"station_id":"ce4bha92rcd13ifvqeg0","pricing_plan_id":"free"},{"bike_id":"95c03b3e-fcc8-462a-8c9a-a339badefa89","system_id":"levelo_inurba_marseille","lat":43.290631,"lon":5.359244,"is_reserved":false,"is_disabled":false,"rental_uris":{"android":"levelo://app?vid=95c03b3e-fcc8-462a-8c9a-a339badefa89","ios":"levelo://app?vid=95c03b3e-fcc8-462a-8c9a-a339badefa89"},"vehicle_type_id":"4","last_reported":1705619267,"current_range_meters":29600,"station_id":"ce4bha92rcd13ifvqeg0","pricing_plan_id":"free"},{"bike_id":"30da7334-a021-48cf-a374-85b9d9aa10cd","system_id":"levelo_inurba_marseille","lat":43.290631,"lon":5.359244,"is_reserved":false,"is_disabled":false,"rental_uris":{"android":"levelo://app?vid=30da7334-a021-48cf-a374-85b9d9aa10cd","ios":"levelo://app?vid=30da7334-a021-48cf-a374-85b9d9aa10cd"},"vehicle_type_id":"4","last_reported":1705619267,"current_range_meters":22800,"station_id":"ce4bha92rcd13ifvqeg0","pricing_plan_id":"free"},{"bike_id":"ef2d937c-7555-4ccb-bfe1-4d03c609b58b","system_id":"levelo_inurba_marseille","lat":43.28945,"lon":5.36636,"is_reserved":false,"is_disabled":false,"rental_uris":{"android":"levelo://app?vid=ef2d937c-7555-4ccb-bfe1-4d03c609b58b","ios":"levelo://app?vid=ef2d937c-7555-4ccb-bfe1-4d03c609b58b"},"vehicle_type_id":"4","last_reported":1705619267,"current_range_meters":0,"station_id":"ce4bhap2rcd13ifvqek0","pricing_plan_id":"free"},{"bike_id":"0af590cf-0d7c-431e-a2a2-84a08294b2d9","system_id":"levelo_inurba_marseille","lat":43.2894,"lon":5.366313,"is_reserved":false,"is_disabled":false,"rental_uris":{"android":"levelo://app?vid=0af590cf-0d7c-431e-a2a2-84a08294b2d9","ios":"levelo://app?vid=0af590cf-0d7c-431e-a2a2-84a08294b2d9"},"vehicle_type_id":"4","last_reported":1705619267,"current_range_meters":0,"station_id":"ce4bhap2rcd13ifvqek0","pricing_plan_id":"free"},{"bike_id":"e8217364-9dc1-4b04-a0a2-988347c11ce6","system_id":"levelo_inurba_marseille","lat":43.289468,"lon":5.363719,"is_reserved":false,"is_disabled":false,"rental_uris":{"android":"levelo://app?vid=e8217364-9dc1-4b04-a0a2-988347c11ce6","ios":"levelo://app?vid=e8217364-9dc1-4b04-a0a2-988347c11ce6"},"vehicle_type_id":"4","last_reported":1705619267,"current_range_meters":0,"station_id":"ce4bhc92rcd13ifvqetg","pricing_plan_id":"free"},{"bike_id":"661f1c1b-2d52-4ddf-9298-2f84ec32139d","system_id":"levelo_inurba_marseille","lat":43.289468,"lon":5.363719,"is_reserved":false,"is_disabled":false,"rental_uris":{"android":"levelo://app?vid=661f1c1b-2d52-4ddf-9298-2f84ec32139d","ios":"levelo://app?vid=661f1c1b-2d52-4ddf-9298-2f84ec32139d"},"vehicle_type_id":"4","last_reported":1705619267,"current_range_meters":0,"station_id":"ce4bhc92rcd13ifvqetg","pricing_plan_id":"free"},{"bike_id":"f895a206-f187-4d54-bbef-e586182fa404","system_id":"levelo_inurba_marseille","lat":43.292644,"lon":5.384257,"is_reserved":false,"is_disabled":false,"rental_uris":{"android":"levelo://app?vid=f895a206-f187-4d54-bbef-e586182fa404","ios":"levelo://app?vid=f895a206-f187-4d54-bbef-e586182fa404"},"vehicle_type_id":"4","last_reported":1705619267,"current_range_meters":2800,"station_id":"ce4bh692rcd13ifvqea0","pricing_plan_id":"free"},{"bike_id":"62587169-e78a-4e0d-a241-9d2d27de3f6f","system_id":"levelo_inurba_marseille","lat":43.290104,"lon":5.356111,"is_reserved":false,"is_disabled":false,"rental_uris":{"android":"levelo://app?vid=62587169-e78a-4e0d-a241-9d2d27de3f6f","ios":"levelo://app?vid=62587169-e78a-4e0d-a241-9d2d27de3f6f"},"vehicle_type_id":"4","last_reported":1705619267,"current_range_meters":9600,"station_id":"ce4bhb92rcd13ifvqen0","pricing_plan_id":"free"},{"bike_id":"2a7c2472-d932-4fca-ba75-28849021c1d0","system_id":"levelo_inurba_marseille","lat":43.289743,"lon":5.378304,"is_reserved":false,"is_disabled":false,"rental_uris":{"android":"levelo://app?vid=2a7c2472-d932-4fca-ba75-28849021c1d0","ios":"levelo://app?vid=2a7c2472-d932-4fca-ba75-28849021c1d0"},"vehicle_type_id":"4","last_reported":1705619267,"current_range_meters":4400,"station_id":"ce4bh9p2rcd13ifvqed0","pricing_plan_id":"free"},{"bike_id":"032ab1f7-a406-4e66-b5c8-0c1d8f0b810c","system_id":"levelo_inurba_marseille","lat":43.330442,"lon":5.389148,"is_reserved":false,"is_disabled":false,"rental_uris":{"android":"levelo://app?vid=032ab1f7-a406-4e66-b5c8-0c1d8f0b810c","ios":"levelo://app?vid=032ab1f7-a406-4e66-b5c8-0c1d8f0b810c"},"vehicle_type_id":"4","last_reported":1705619267,"current_range_meters":400,"station_id":"ce4bhr92rcd13ifvqhrg","pricing_plan_id":"free"},{"bike_id":"c4c1a8fb-9c1f-44ab-afcd-5d539332ffb6","system_id":"levelo_inurba_marseille","lat":43.330442,"lon":5.389148,"is_reserved":false,"is_disabled":false,"rental_uris":{"android":"levelo://app?vid=c4c1a8fb-9c1f-44ab-afcd-5d539332ffb6","ios":"levelo://app?vid=c4c1a8fb-9c1f-44ab-afcd-5d539332ffb6"},"vehicle_type_id":"4","last_reported":1705619267,"current_range_meters":21600,"station_id":"ce4bhr92rcd13ifvqhrg","pricing_plan_id":"free"},{"bike_id":"e6f8c567-142c-4e0c-b27f-96103a7669be","system_id":"levelo_inurba_marseille","lat":43.33029,"lon":5.39038,"is_reserved":false,"is_disabled":false,"rental_uris":{"android":"levelo://app?vid=e6f8c567-142c-4e0c-b27f-96103a7669be","ios":"levelo://app?vid=e6f8c567-142c-4e0c-b27f-96103a7669be"},"vehicle_type_id":"4","last_reported":1705619267,"current_range_meters":21200,"station_id":"ce4bhr92rcd13ifvqhrg","pricing_plan_id":"free"},{"bike_id":"3c6cd8da-dbcd-4568-a57b-a4874ba428f8","system_id":"levelo_inurba_marseille","lat":43.330442,"lon":5.389148,"is_reserved":false,"is_disabled":false,"rental_uris":{"android":"levelo://app?vid=3c6cd8da-dbcd-4568-a57b-a4874ba428f8","ios":"levelo://app?vid=3c6cd8da-dbcd-4568-a57b-a4874ba428f8"},"vehicle_type_id":"4","last_reported":1705619267,"current_range_meters":18000,"station_id":"ce4bhr92rcd13ifvqhrg","pricing_plan_id":"free"},{"bike_id":"fd45db9b-84b1-4d25-885e-eba0ba08ba90","system_id":"levelo_inurba_marseille","lat":43.28856,"lon":5.358371,"is_reserved":false,"is_disabled":false,"rental_uris":{"android":"levelo://app?vid=fd45db9b-84b1-4d25-885e-eba0ba08ba90","ios":"levelo://app?vid=fd45db9b-84b1-4d25-885e-eba0ba08ba90"},"vehicle_type_id":"4","last_reported":1705619267,"current_range_meters":12000,"station_id":"ce4bhb12rcd13ifvqem0","pricing_plan_id":"free"},{"bike_id":"9afdc3ee-c964-4838-af91-749001c606fc","system_id":"levelo_inurba_marseille","lat":43.288587,"lon":5.358443,"is_reserved":false,"is_disabled":false,"rental_uris":{"android":"levelo://app?vid=9afdc3ee-c964-4838-af91-749001c606fc","ios":"levelo://app?vid=9afdc3ee-c964-4838-af91-749001c606fc"},"vehicle_type_id":"4","last_reported":1705619267,"current_range_meters":21200,"station_id":"ce4bhb12rcd13ifvqem0","pricing_plan_id":"free"},{"bike_id":"e8cc2af9-e2ca-433e-b26c-d985060f6258","system_id":"levelo_inurba_marseille","lat":43.28856,"lon":5.358371,"is_reserved":false,"is_disabled":false,"rental_uris":{"android":"levelo://app?vid=e8cc2af9-e2ca-433e-b26c-d985060f6258","ios":"levelo://app?vid=e8cc2af9-e2ca-433e-b26c-d985060f6258"},"vehicle_type_id":"4","last_reported":1705619267,"current_range_meters":28000,"station_id":"ce4bhb12rcd13ifvqem0","pricing_plan_id":"free"},{"bike_id":"63098865-f764-4a81-a2cc-f11b7da5dedb","system_id":"levelo_inurba_marseille","lat":43.3094,"lon":5.40133,"is_reserved":false,"is_disabled":false,"rental_uris":{"android":"levelo://app?vid=63098865-f764-4a81-a2cc-f11b7da5dedb","ios":"levelo://app?vid=63098865-f764-4a81-a2cc-f11b7da5dedb"},"vehicle_type_id":"4","last_reported":1705619267,"current_range_meters":2000,"station_id":"ce4bgvp2rcd13ifvqct0","pricing_plan_id":"free"},{"bike_id":"99166403-6eba-4591-82d0-5ea93819bd81","system_id":"levelo_inurba_marseille","lat":43.312609,"lon":5.401662,"is_reserved":false,"is_disabled":false,"rental_uris":{"android":"levelo://app?vid=99166403-6eba-4591-82d0-5ea93819bd81","ios":"levelo://app?vid=99166403-6eba-4591-82d0-5ea93819bd81"},"vehicle_type_id":"4","last_reported":1705619267,"current_range_meters":0,"station_id":"ce4bh092rcd13ifvqd30","pricing_plan_id":"free"},{"bike_id":"654386fb-ca14-4ef2-9803-4f8a27fd6008","system_id":"levelo_inurba_marseille","lat":43.309371,"lon":5.401449,"is_reserved":false,"is_disabled":false,"rental_uris":{"android":"levelo://app?vid=654386fb-ca14-4ef2-9803-4f8a27fd6008","ios":"levelo://app?vid=654386fb-ca14-4ef2-9803-4f8a27fd6008"},"vehicle_type_id":"4","last_reported":1705619267,"current_range_meters":20000,"station_id":"ce4bgvp2rcd13ifvqct0","pricing_plan_id":"free"},{"bike_id":"2ddbd7d6-274d-4fd2-b86e-7165c5b8cac3","system_id":"levelo_inurba_marseille","lat":43.30941,"lon":5.40139,"is_reserved":false,"is_disabled":false,"rental_uris":{"android":"levelo://app?vid=2ddbd7d6-274d-4fd2-b86e-7165c5b8cac3","ios":"levelo://app?vid=2ddbd7d6-274d-4fd2-b86e-7165c5b8cac3"},"vehicle_type_id":"4","last_reported":1705619267,"current_range_meters":0,"station_id":"ce4bgvp2rcd13ifvqct0","pricing_plan_id":"free"},{"bike_id":"e161d81f-198f-4b38-9ddc-d7554579c5e4","system_id":"levelo_inurba_marseille","lat":43.309371,"lon":5.401449,"is_reserved":false,"is_disabled":false,"rental_uris":{"android":"levelo://app?vid=e161d81f-198f-4b38-9ddc-d7554579c5e4","ios":"levelo://app?vid=e161d81f-198f-4b38-9ddc-d7554579c5e4"},"vehicle_type_id":"4","last_reported":1705619267,"current_range_meters":18800,"station_id":"ce4bgvp2rcd13ifvqct0","pricing_plan_id":"free"},{"bike_id":"763f9c17-b162-4360-b5f3-0cf865d83532","system_id":"levelo_inurba_marseille","lat":43.309371,"lon":5.401449,"is_reserved":false,"is_disabled":false,"rental_uris":{"android":"levelo://app?vid=763f9c17-b162-4360-b5f3-0cf865d83532","ios":"levelo://app?vid=763f9c17-b162-4360-b5f3-0cf865d83532"},"vehicle_type_id":"4","last_reported":1705619267,"current_range_meters":24400,"station_id":"ce4bgvp2rcd13ifvqct0","pricing_plan_id":"free"},{"bike_id":"e94c62f4-7b5e-49ea-b1f9-47ca7028a56f","system_id":"levelo_inurba_marseille","lat":43.306412,"lon":5.401035,"is_reserved":false,"is_disabled":false,"rental_uris":{"android":"levelo://app?vid=e94c62f4-7b5e-49ea-b1f9-47ca7028a56f","ios":"levelo://app?vid=e94c62f4-7b5e-49ea-b1f9-47ca7028a56f"},"vehicle_type_id":"4","last_reported":1705619267,"current_range_meters":22000,"station_id":"ce4bh112rcd13ifvqda0","pricing_plan_id":"free"},{"bike_id":"95b94328-b316-4d4e-9d50-27fce67cb70d","system_id":"levelo_inurba_marseille","lat":43.31272,"lon":5.40174,"is_reserved":false,"is_disabled":false,"rental_uris":{"android":"levelo://app?vid=95b94328-b316-4d4e-9d50-27fce67cb70d","ios":"levelo://app?vid=95b94328-b316-4d4e-9d50-27fce67cb70d"},"vehicle_type_id":"4","last_reported":1705619267,"current_range_meters":17200,"station_id":"ce4bh092rcd13ifvqd30","pricing_plan_id":"free"},{"bike_id":"c273cb8e-881d-4208-8604-e1ef6e5be63f","system_id":"levelo_inurba_marseille","lat":43.309371,"lon":5.401449,"is_reserved":false,"is_disabled":false,"rental_uris":{"android":"levelo://app?vid=c273cb8e-881d-4208-8604-e1ef6e5be63f","ios":"levelo://app?vid=c273cb8e-881d-4208-8604-e1ef6e5be63f"},"vehicle_type_id":"4","last_reported":1705619267,"current_range_meters":0,"station_id":"ce4bgvp2rcd13ifvqct0","pricing_plan_id":"free"},{"bike_id":"700db31d-b788-4e5d-9d40-1007425e2aa7","system_id":"levelo_inurba_marseille","lat":43.309371,"lon":5.401449,"is_reserved":false,"is_disabled":false,"rental_uris":{"android":"levelo://app?vid=700db31d-b788-4e5d-9d40-1007425e2aa7","ios":"levelo://app?vid=700db31d-b788-4e5d-9d40-1007425e2aa7"},"vehicle_type_id":"4","last_reported":1705619267,"current_range_meters":3600,"station_id":"ce4bgvp2rcd13ifvqct0","pricing_plan_id":"free"},{"bike_id":"6579e9ca-8858-4010-93d9-4dc75337ddec","system_id":"levelo_inurba_marseille","lat":43.309371,"lon":5.401449,"is_reserved":false,"is_disabled":false,"rental_uris":{"android":"levelo://app?vid=6579e9ca-8858-4010-93d9-4dc75337ddec","ios":"levelo://app?vid=6579e9ca-8858-4010-93d9-4dc75337ddec"},"vehicle_type_id":"4","last_reported":1705619267,"current_range_meters":25600,"station_id":"ce4bgvp2rcd13ifvqct0","pricing_plan_id":"free"},{"bike_id":"e224eaf1-2771-418f-8211-41fd1a459ec6","system_id":"levelo_inurba_marseille","lat":43.306428,"lon":5.400668,"is_reserved":false,"is_disabled":false,"rental_uris":{"android":"levelo://app?vid=e224eaf1-2771-418f-8211-41fd1a459ec6","ios":"levelo://app?vid=e224eaf1-2771-418f-8211-41fd1a459ec6"},"vehicle_type_id":"4","last_reported":1705619267,"current_range_meters":27200,"station_id":"ce4bh112rcd13ifvqda0","pricing_plan_id":"free"},{"bike_id":"bbbb54fe-2562-497c-874e-effe5d33d6de","system_id":"levelo_inurba_marseille","lat":43.309371,"lon":5.401449,"is_reserved":false,"is_disabled":false,"rental_uris":{"android":"levelo://app?vid=bbbb54fe-2562-497c-874e-effe5d33d6de","ios":"levelo://app?vid=bbbb54fe-2562-497c-874e-effe5d33d6de"},"vehicle_type_id":"4","last_reported":1705619267,"current_range_meters":31200,"station_id":"ce4bgvp2rcd13ifvqct0","pricing_plan_id":"free"},{"bike_id":"8a50b6fa-8a9b-4993-8f53-82d76c592bc2","system_id":"levelo_inurba_marseille","lat":43.306434,"lon":5.400724,"is_reserved":false,"is_disabled":false,"rental_uris":{"android":"levelo://app?vid=8a50b6fa-8a9b-4993-8f53-82d76c592bc2","ios":"levelo://app?vid=8a50b6fa-8a9b-4993-8f53-82d76c592bc2"},"vehicle_type_id":"4","last_reported":1705619267,"current_range_meters":24400,"station_id":"ce4bh112rcd13ifvqda0","pricing_plan_id":"free"},{"bike_id":"a99bfca6-1497-4f59-abc5-eabfee658404","system_id":"levelo_inurba_marseille","lat":43.306448,"lon":5.400731,"is_reserved":false,"is_disabled":false,"rental_uris":{"android":"levelo://app?vid=a99bfca6-1497-4f59-abc5-eabfee658404","ios":"levelo://app?vid=a99bfca6-1497-4f59-abc5-eabfee658404"},"vehicle_type_id":"4","last_reported":1705619267,"current_range_meters":29200,"station_id":"ce4bh112rcd13ifvqda0","pricing_plan_id":"free"},{"bike_id":"6a8f9508-be3e-4e5b-a984-ecf8bace107c","system_id":"levelo_inurba_marseille","lat":43.309371,"lon":5.401449,"is_reserved":false,"is_disabled":false,"rental_uris":{"android":"levelo://app?vid=6a8f9508-be3e-4e5b-a984-ecf8bace107c","ios":"levelo://app?vid=6a8f9508-be3e-4e5b-a984-ecf8bace107c"},"vehicle_type_id":"4","last_reported":1705619267,"current_range_meters":30000,"station_id":"ce4bgvp2rcd13ifvqct0","pricing_plan_id":"free"},{"bike_id":"fc0997e5-9e2f-4d6a-a00c-f4819d51bd06","system_id":"levelo_inurba_marseille","lat":43.309371,"lon":5.401449,"is_reserved":false,"is_disabled":false,"rental_uris":{"android":"levelo://app?vid=fc0997e5-9e2f-4d6a-a00c-f4819d51bd06","ios":"levelo://app?vid=fc0997e5-9e2f-4d6a-a00c-f4819d51bd06"},"vehicle_type_id":"4","last_reported":1705619267,"current_range_meters":6000,"station_id":"ce4bgvp2rcd13ifvqct0","pricing_plan_id":"free"},{"bike_id":"de4af424-07b7-4035-9a43-ba2cb2e8a83f","system_id":"levelo_inurba_marseille","lat":43.306412,"lon":5.401035,"is_reserved":false,"is_disabled":false,"rental_uris":{"android":"levelo://app?vid=de4af424-07b7-4035-9a43-ba2cb2e8a83f","ios":"levelo://app?vid=de4af424-07b7-4035-9a43-ba2cb2e8a83f"},"vehicle_type_id":"4","last_reported":1705619267,"current_range_meters":8000,"station_id":"ce4bh112rcd13ifvqda0","pricing_plan_id":"free"},{"bike_id":"490a5b8a-d286-458e-834e-5689f0c7631e","system_id":"levelo_inurba_marseille","lat":43.306412,"lon":5.401035,"is_reserved":false,"is_disabled":false,"rental_uris":{"android":"levelo://app?vid=490a5b8a-d286-458e-834e-5689f0c7631e","ios":"levelo://app?vid=490a5b8a-d286-458e-834e-5689f0c7631e"},"vehicle_type_id":"4","last_reported":1705619267,"current_range_meters":3200,"station_id":"ce4bh112rcd13ifvqda0","pricing_plan_id":"free"},{"bike_id":"03119f6e-fee5-4b59-8f59-5ee413bdb007","system_id":"levelo_inurba_marseille","lat":43.30641,"lon":5.40076,"is_reserved":false,"is_disabled":false,"rental_uris":{"android":"levelo://app?vid=03119f6e-fee5-4b59-8f59-5ee413bdb007","ios":"levelo://app?vid=03119f6e-fee5-4b59-8f59-5ee413bdb007"},"vehicle_type_id":"4","last_reported":1705619267,"current_range_meters":14400,"station_id":"ce4bh112rcd13ifvqda0","pricing_plan_id":"free"},{"bike_id":"6a8b0679-5eb6-434b-b9be-855b0b707eca","system_id":"levelo_inurba_marseille","lat":43.306412,"lon":5.401035,"is_reserved":false,"is_disabled":false,"rental_uris":{"android":"levelo://app?vid=6a8b0679-5eb6-434b-b9be-855b0b707eca","ios":"levelo://app?vid=6a8b0679-5eb6-434b-b9be-855b0b707eca"},"vehicle_type_id":"4","last_reported":1705619267,"current_range_meters":0,"station_id":"ce4bh112rcd13ifvqda0","pricing_plan_id":"free"},{"bike_id":"d14c0bf3-b911-4da9-812a-79510e2ba823","system_id":"levelo_inurba_marseille","lat":43.306412,"lon":5.401035,"is_reserved":false,"is_disabled":false,"rental_uris":{"android":"levelo://app?vid=d14c0bf3-b911-4da9-812a-79510e2ba823","ios":"levelo://app?vid=d14c0bf3-b911-4da9-812a-79510e2ba823"},"vehicle_type_id":"4","last_reported":1705619267,"current_range_meters":3600,"station_id":"ce4bh112rcd13ifvqda0","pricing_plan_id":"free"},{"bike_id":"1fda3a69-09de-4b75-8edf-acd04cde41c2","system_id":"levelo_inurba_marseille","lat":43.306348,"lon":5.400788,"is_reserved":false,"is_disabled":false,"rental_uris":{"android":"levelo://app?vid=1fda3a69-09de-4b75-8edf-acd04cde41c2","ios":"levelo://app?vid=1fda3a69-09de-4b75-8edf-acd04cde41c2"},"vehicle_type_id":"4","last_reported":1705619267,"current_range_meters":15200,"station_id":"ce4bh112rcd13ifvqda0","pricing_plan_id":"free"},{"bike_id":"d02e4b8e-29de-45d4-b7e9-d243cfd006d3","system_id":"levelo_inurba_marseille","lat":43.309371,"lon":5.401449,"is_reserved":false,"is_disabled":false,"rental_uris":{"android":"levelo://app?vid=d02e4b8e-29de-45d4-b7e9-d243cfd006d3","ios":"levelo://app?vid=d02e4b8e-29de-45d4-b7e9-d243cfd006d3"},"vehicle_type_id":"4","last_reported":1705619267,"current_range_meters":17200,"station_id":"ce4bgvp2rcd13ifvqct0","pricing_plan_id":"free"},{"bike_id":"2cd7dbdc-c1b4-43b7-a700-5c8ac1e09eb6","system_id":"levelo_inurba_marseille","lat":43.306464,"lon":5.40086,"is_reserved":false,"is_disabled":false,"rental_uris":{"android":"levelo://app?vid=2cd7dbdc-c1b4-43b7-a700-5c8ac1e09eb6","ios":"levelo://app?vid=2cd7dbdc-c1b4-43b7-a700-5c8ac1e09eb6"},"vehicle_type_id":"4","last_reported":1705619267,"current_range_meters":3600,"station_id":"ce4bh112rcd13ifvqda0","pricing_plan_id":"free"},{"bike_id":"3a2159f4-03e5-4ba5-9fe4-ace3635dee8b","system_id":"levelo_inurba_marseille","lat":43.306412,"lon":5.401035,"is_reserved":false,"is_disabled":false,"rental_uris":{"android":"levelo://app?vid=3a2159f4-03e5-4ba5-9fe4-ace3635dee8b","ios":"levelo://app?vid=3a2159f4-03e5-4ba5-9fe4-ace3635dee8b"},"vehicle_type_id":"4","last_reported":1705619267,"current_range_meters":0,"station_id":"ce4bh112rcd13ifvqda0","pricing_plan_id":"free"},{"bike_id":"cc1cb9a4-3b7d-47fa-aa99-d7243b6ed6f9","system_id":"levelo_inurba_marseille","lat":43.306412,"lon":5.401035,"is_reserved":false,"is_disabled":false,"rental_uris":{"android":"levelo://app?vid=cc1cb9a4-3b7d-47fa-aa99-d7243b6ed6f9","ios":"levelo://app?vid=cc1cb9a4-3b7d-47fa-aa99-d7243b6ed6f9"},"vehicle_type_id":"4","last_reported":1705619267,"current_range_meters":31600,"station_id":"ce4bh112rcd13ifvqda0","pricing_plan_id":"free"},{"bike_id":"daf58027-d83b-4c86-9b4d-03ac089d19a6","system_id":"levelo_inurba_marseille","lat":43.30659,"lon":5.40093,"is_reserved":false,"is_disabled":false,"rental_uris":{"android":"levelo://app?vid=daf58027-d83b-4c86-9b4d-03ac089d19a6","ios":"levelo://app?vid=daf58027-d83b-4c86-9b4d-03ac089d19a6"},"vehicle_type_id":"4","last_reported":1705619267,"current_range_meters":6000,"station_id":"ce4bh112rcd13ifvqda0","pricing_plan_id":"free"},{"bike_id":"51d551fc-c7c5-43fc-bbaa-f73d45db1bdf","system_id":"levelo_inurba_marseille","lat":43.306414,"lon":5.400946,"is_reserved":false,"is_disabled":false,"rental_uris":{"android":"levelo://app?vid=51d551fc-c7c5-43fc-bbaa-f73d45db1bdf","ios":"levelo://app?vid=51d551fc-c7c5-43fc-bbaa-f73d45db1bdf"},"vehicle_type_id":"4","last_reported":1705619267,"current_range_meters":7200,"station_id":"ce4bh112rcd13ifvqda0","pricing_plan_id":"free"},{"bike_id":"d5376cdf-e854-45a3-a332-21b06a88d66c","system_id":"levelo_inurba_marseille","lat":43.28727,"lon":5.36078,"is_reserved":false,"is_disabled":false,"rental_uris":{"android":"levelo://app?vid=d5376cdf-e854-45a3-a332-21b06a88d66c","ios":"levelo://app?vid=d5376cdf-e854-45a3-a332-21b06a88d66c"},"vehicle_type_id":"4","last_reported":1705619267,"current_range_meters":7200,"station_id":"cki0cbj6b192h4jlfktg","pricing_plan_id":"free"},{"bike_id":"cee58484-c828-471c-af04-27e2393a0f15","system_id":"levelo_inurba_marseille","lat":43.28727,"lon":5.36078,"is_reserved":false,"is_disabled":false,"rental_uris":{"android":"levelo://app?vid=cee58484-c828-471c-af04-27e2393a0f15","ios":"levelo://app?vid=cee58484-c828-471c-af04-27e2393a0f15"},"vehicle_type_id":"4","last_reported":1705619267,"current_range_meters":17600,"station_id":"cki0cbj6b192h4jlfktg","pricing_plan_id":"free"},{"bike_id":"6e6ec4b3-fc1f-445c-86bf-6b54f92ba170","system_id":"levelo_inurba_marseille","lat":43.30468,"lon":5.400827,"is_reserved":false,"is_disabled":false,"rental_uris":{"android":"levelo://app?vid=6e6ec4b3-fc1f-445c-86bf-6b54f92ba170","ios":"levelo://app?vid=6e6ec4b3-fc1f-445c-86bf-6b54f92ba170"},"vehicle_type_id":"4","last_reported":1705619267,"current_range_meters":4000,"station_id":"","pricing_plan_id":"free"},{"bike_id":"81883859-3ade-4152-ab6a-124e8fae0063","system_id":"levelo_inurba_marseille","lat":43.286591,"lon":5.363346,"is_reserved":false,"is_disabled":false,"rental_uris":{"android":"levelo://app?vid=81883859-3ade-4152-ab6a-124e8fae0063","ios":"levelo://app?vid=81883859-3ade-4152-ab6a-124e8fae0063"},"vehicle_type_id":"4","last_reported":1705619267,"current_range_meters":10800,"station_id":"ce4bhah2rcd13ifvqej0","pricing_plan_id":"free"},{"bike_id":"4271a0af-f23d-4b9f-8225-6717931cd3e2","system_id":"levelo_inurba_marseille","lat":43.286961,"lon":5.373785,"is_reserved":false,"is_disabled":false,"rental_uris":{"android":"levelo://app?vid=4271a0af-f23d-4b9f-8225-6717931cd3e2","ios":"levelo://app?vid=4271a0af-f23d-4b9f-8225-6717931cd3e2"},"vehicle_type_id":"4","last_reported":1705619267,"current_range_meters":32000,"station_id":"ce4bh3p2rcd13ifvqdq0","pricing_plan_id":"free"},{"bike_id":"d8e539a9-d257-4b6f-896d-2bf1d4f3deb3","system_id":"levelo_inurba_marseille","lat":43.286961,"lon":5.373785,"is_reserved":false,"is_disabled":false,"rental_uris":{"android":"levelo://app?vid=d8e539a9-d257-4b6f-896d-2bf1d4f3deb3","ios":"levelo://app?vid=d8e539a9-d257-4b6f-896d-2bf1d4f3deb3"},"vehicle_type_id":"4","last_reported":1705619267,"current_range_meters":24800,"station_id":"ce4bh3p2rcd13ifvqdq0","pricing_plan_id":"free"},{"bike_id":"47827328-115b-4687-993a-c6092b7cf0e2","system_id":"levelo_inurba_marseille","lat":43.286591,"lon":5.363346,"is_reserved":false,"is_disabled":false,"rental_uris":{"android":"levelo://app?vid=47827328-115b-4687-993a-c6092b7cf0e2","ios":"levelo://app?vid=47827328-115b-4687-993a-c6092b7cf0e2"},"vehicle_type_id":"4","last_reported":1705619267,"current_range_meters":22800,"station_id":"ce4bhah2rcd13ifvqej0","pricing_plan_id":"free"},{"bike_id":"c610c609-733e-47b9-963d-9f70bb23c331","system_id":"levelo_inurba_marseille","lat":43.298681,"lon":5.397225,"is_reserved":false,"is_disabled":false,"rental_uris":{"android":"levelo://app?vid=c610c609-733e-47b9-963d-9f70bb23c331","ios":"levelo://app?vid=c610c609-733e-47b9-963d-9f70bb23c331"},"vehicle_type_id":"4","last_reported":1705619267,"current_range_meters":2000,"station_id":"ce4bh0h2rcd13ifvqd50","pricing_plan_id":"free"},{"bike_id":"c536178f-35f4-4976-a074-944efcd9430c","system_id":"levelo_inurba_marseille","lat":43.298777,"lon":5.397331,"is_reserved":false,"is_disabled":false,"rental_uris":{"android":"levelo://app?vid=c536178f-35f4-4976-a074-944efcd9430c","ios":"levelo://app?vid=c536178f-35f4-4976-a074-944efcd9430c"},"vehicle_type_id":"4","last_reported":1705619267,"current_range_meters":26800,"station_id":"ce4bh0h2rcd13ifvqd50","pricing_plan_id":"free"},{"bike_id":"d2a6d340-0618-4013-98c4-20652ae452ca","system_id":"levelo_inurba_marseille","lat":43.29889,"lon":5.39743,"is_reserved":false,"is_disabled":false,"rental_uris":{"android":"levelo://app?vid=d2a6d340-0618-4013-98c4-20652ae452ca","ios":"levelo://app?vid=d2a6d340-0618-4013-98c4-20652ae452ca"},"vehicle_type_id":"4","last_reported":1705619267,"current_range_meters":16400,"station_id":"ce4bh0h2rcd13ifvqd50","pricing_plan_id":"free"},{"bike_id":"93b5c5d1-15fb-408d-9b7f-06c984e34232","system_id":"levelo_inurba_marseille","lat":43.29873,"lon":5.3973,"is_reserved":false,"is_disabled":false,"rental_uris":{"android":"levelo://app?vid=93b5c5d1-15fb-408d-9b7f-06c984e34232","ios":"levelo://app?vid=93b5c5d1-15fb-408d-9b7f-06c984e34232"},"vehicle_type_id":"4","last_reported":1705619267,"current_range_meters":18800,"station_id":"ce4bh0h2rcd13ifvqd50","pricing_plan_id":"free"},{"bike_id":"973a82de-c9f6-4b9c-86c1-dfa153bdf24b","system_id":"levelo_inurba_marseille","lat":43.286593,"lon":5.363346,"is_reserved":false,"is_disabled":false,"rental_uris":{"android":"levelo://app?vid=973a82de-c9f6-4b9c-86c1-dfa153bdf24b","ios":"levelo://app?vid=973a82de-c9f6-4b9c-86c1-dfa153bdf24b"},"vehicle_type_id":"4","last_reported":1705619267,"current_range_meters":25600,"station_id":"ce4bhah2rcd13ifvqej0","pricing_plan_id":"free"},{"bike_id":"791731ce-798f-454d-8096-202e09591dd1","system_id":"levelo_inurba_marseille","lat":43.286961,"lon":5.373785,"is_reserved":false,"is_disabled":false,"rental_uris":{"android":"levelo://app?vid=791731ce-798f-454d-8096-202e09591dd1","ios":"levelo://app?vid=791731ce-798f-454d-8096-202e09591dd1"},"vehicle_type_id":"4","last_reported":1705619267,"current_range_meters":20800,"station_id":"ce4bh3p2rcd13ifvqdq0","pricing_plan_id":"free"},{"bike_id":"196bc974-ad78-4631-a764-d419d05f625a","system_id":"levelo_inurba_marseille","lat":43.286961,"lon":5.373785,"is_reserved":false,"is_disabled":false,"rental_uris":{"android":"levelo://app?vid=196bc974-ad78-4631-a764-d419d05f625a","ios":"levelo://app?vid=196bc974-ad78-4631-a764-d419d05f625a"},"vehicle_type_id":"4","last_reported":1705619267,"current_range_meters":20000,"station_id":"ce4bh3p2rcd13ifvqdq0","pricing_plan_id":"free"},{"bike_id":"424d7fb8-74df-465e-afe9-d34f16cbb3c3","system_id":"levelo_inurba_marseille","lat":43.286593,"lon":5.363346,"is_reserved":false,"is_disabled":false,"rental_uris":{"android":"levelo://app?vid=424d7fb8-74df-465e-afe9-d34f16cbb3c3","ios":"levelo://app?vid=424d7fb8-74df-465e-afe9-d34f16cbb3c3"},"vehicle_type_id":"4","last_reported":1705619267,"current_range_meters":24000,"station_id":"ce4bhah2rcd13ifvqej0","pricing_plan_id":"free"},{"bike_id":"9e5c381e-f966-4fdb-9951-bf36534af1ea","system_id":"levelo_inurba_marseille","lat":43.289307,"lon":5.38406,"is_reserved":false,"is_disabled":false,"rental_uris":{"android":"levelo://app?vid=9e5c381e-f966-4fdb-9951-bf36534af1ea","ios":"levelo://app?vid=9e5c381e-f966-4fdb-9951-bf36534af1ea"},"vehicle_type_id":"4","last_reported":1705619267,"current_range_meters":30400,"station_id":"ce4bh612rcd13ifvqe6g","pricing_plan_id":"free"},{"bike_id":"b87e3040-ab55-41ba-9f87-36b39b263ee7","system_id":"levelo_inurba_marseille","lat":43.290345,"lon":5.38646,"is_reserved":false,"is_disabled":false,"rental_uris":{"android":"levelo://app?vid=b87e3040-ab55-41ba-9f87-36b39b263ee7","ios":"levelo://app?vid=b87e3040-ab55-41ba-9f87-36b39b263ee7"},"vehicle_type_id":"4","last_reported":1705619267,"current_range_meters":0,"station_id":"ce4bh4p2rcd13ifvqe0g","pricing_plan_id":"free"},{"bike_id":"3a9a7029-10c3-4ba7-ba86-3bce7a5c86e1","system_id":"levelo_inurba_marseille","lat":43.289307,"lon":5.38406,"is_reserved":false,"is_disabled":false,"rental_uris":{"android":"levelo://app?vid=3a9a7029-10c3-4ba7-ba86-3bce7a5c86e1","ios":"levelo://app?vid=3a9a7029-10c3-4ba7-ba86-3bce7a5c86e1"},"vehicle_type_id":"4","last_reported":1705619267,"current_range_meters":28800,"station_id":"ce4bh612rcd13ifvqe6g","pricing_plan_id":"free"},