{"last_updated":1750885786,"ttl":60,"version":"2.2","data":{"bikes":[{"bike_id":"3da29fb8-fc97-44c6-b9ac-31dd456b2fd4","system_id":"levelo_inurba_marseille","lat":43.33771,"lon":5.37424,"is_reserved":false,"is_disabled":true,"rental_uris":{"android":"levelo://app?vid=3da29fb8-fc97-44c6-b9ac-31dd456b2fd4","ios":"levelo://app?vid=3da29fb8-fc97-44c6-b9ac-31dd456b2fd4"},"vehicle_type_id":"4","last_reported":1750885786,"current_range_meters":0,"station_id":"","pricing_plan_id":"cebpf4jnsgd1na2vs0mg"},{"bike_id":"01861ad8-a8d7-4be6-816e-651927c87584","system_id":"levelo_inurba_marseille","lat":43.33751,"lon":5.37456,"is_reserved":false,"is_disabled":true,"rental_uris":{"android":"levelo://app?vid=01861ad8-a8d7-4be6-816e-651927c87584","ios":"levelo://app?vid=01861ad8-a8d7-4be6-816e-651927c87584"},"vehicle_type_id":"4","last_reported":1750885786,"current_range_meters":0,"station_id":"","pricing_plan_id":"cebpf4jnsgd1na2vs0mg"},{"bike_id":"8c6de0c1-9eaf-4c18-8155-d956789067ae","system_id":"levelo_inurba_marseille","lat":43.27953,"lon":5.44241,"is_reserved":false,"is_disabled":true,"rental_uris":{"android":"levelo://app?vid=8c6de0c1-9eaf-4c18-8155-d956789067ae","ios":"levelo://app?vid=8c6de0c1-9eaf-4c18-8155-d956789067ae"},"vehicle_type_id":"4","last_reported":1750885786,"current_range_meters":0,"station_id":"","pricing_plan_id":"cebpf4jnsgd1na2vs0mg"},{"bike_id":"01a7b5de-cbb0-45f6-b552-105157f7a511","system_id":"levelo_inurba_marseille","lat":43.23884,"lon":5.43052,"is_reserved":false,"is_disabled":true,"rental_uris":{"android":"levelo://app?vid=01a7b5de-cbb0-45f6-b552-105157f7a511","ios":"levelo://app?vid=01a7b5de-cbb0-45f6-b552-105157f7a511"},"vehicle_type_id":"4","last_reported":1750885786,"current_range_meters":0,"station_id":"","pricing_plan_id":"cebpf4jnsgd1na2vs0mg"},{"bike_id":"36ffba93-3b62-49cd-8e5b-3ec0f1940b5c","system_id":"levelo_inurba_marseille","lat":43.31934,"lon":5.36917,"is_reserved":false,"is_disabled":true,"rental_uris":{"android":"levelo://app?vid=36ffba93-3b62-49cd-8e5b-3ec0f1940b5c","ios":"levelo://app?vid=36ffba93-3b62-49cd-8e5b-3ec0f1940b5c"},"vehicle_type_id":"4","last_reported":1750885786,"current_range_meters":0,"station_id":"","pricing_plan_id":"cebpf4jnsgd1na2vs0mg"},{"bike_id":"62a493c7-4534-4419-ad43-0582de34a72a","system_id":"levelo_inurba_marseille","lat":43.21366,"lon":5.355183,"is_reserved":false,"is_disabled":true,"rental_uris":{"android":"levelo://app?vid=62a493c7-4534-4419-ad43-0582de34a72a","ios":"levelo://app?vid=62a493c7-4534-4419-ad43-0582de34a72a"},"vehicle_type_id":"4","last_reported":1750885786,"current_range_meters":0,"station_id":"","pricing_plan_id":"cebpf4jnsgd1na2vs0mg"},{"bike_id":"85c58f10-925d-4344-b389-09267487a6fc","system_id":"levelo_inurba_marseille","lat":43.21105,"lon":5.41907,"is_reserved":false,"is_disabled":true,"rental_uris":{"android":"levelo://app?vid=85c58f10-925d-4344-b389-09267487a6fc","ios":"levelo://app?vid=85c58f10-925d-4344-b389-09267487a6fc"},"vehicle_type_id":"4","last_reported":1750885786,"current_range_meters":0,"station_id":"","pricing_plan_id":"cebpf4jnsgd1na2vs0mg"},{"bike_id":"a9e5e555-fdaf-49c0-b286-f0f2659b17d0","system_id":"levelo_inurba_marseille","lat":43.282978,"lon":5.432424,"is_reserved":false,"is_disabled":true,"rental_uris":{"android":"levelo://app?vid=a9e5e555-fdaf-49c0-b286-f0f2659b17d0","ios":"levelo://app?vid=a9e5e555-fdaf-49c0-b286-f0f2659b17d0"},"vehicle_type_id":"4","last_reported":1750885786,"current_range_meters":0,"station_id":"","pricing_plan_id":"cebpf4jnsgd1na2vs0mg"},{"bike_id":"139d47bd-ff87-42d8-a4c6-89da4be6f80c","system_id":"levelo_inurba_marseille","lat":43.2795,"lon":5.44211,"is_reserved":false,"is_disabled":true,"rental_uris":{"android":"levelo://app?vid=139d47bd-ff87-42d8-a4c6-89da4be6f80c","ios":"levelo://app?vid=139d47bd-ff87-42d8-a4c6-89da4be6f80c"},"vehicle_type_id":"4","last_reported":1750885786,"current_range_meters":0,"station_id":"","pricing_plan_id":"cebpf4jnsgd1na2vs0mg"},{"bike_id":"5c4c21e3-0f2f-4bc6-8d31-f41d7813bc60","system_id":"levelo_inurba_marseille","lat":43.25319,"lon":5.38194,"is_reserved":false,"is_disabled":true,"rental_uris":{"android":"levelo://app?vid=5c4c21e3-0f2f-4bc6-8d31-f41d7813bc60","ios":"levelo://app?vid=5c4c21e3-0f2f-4bc6-8d31-f41d7813bc60"},"vehicle_type_id":"4","last_reported":1750885786,"current_range_meters":0,"station_id":"","pricing_plan_id":"cebpf4jnsgd1na2vs0mg"},{"bike_id":"a147e67d-e0b1-425e-bbda-ae9524df353e","system_id":"levelo_inurba_marseille","lat":43.337485,"lon":5.374613,"is_reserved":false,"is_disabled":true,"rental_uris":{"android":"levelo://app?vid=a147e67d-e0b1-425e-bbda-ae9524df353e","ios":"levelo://app?vid=a147e67d-e0b1-425e-bbda-ae9524df353e"},"vehicle_type_id":"4","last_reported":1750885786,"current_range_meters":0,"station_id":"","pricing_plan_id":"cebpf4jnsgd1na2vs0mg"},{"bike_id":"4d064f95-6dcb-4234-9e98-7c70fbb74351","system_id":"levelo_inurba_marseille","lat":43.337444,"lon":5.374475,"is_reserved":false,"is_disabled":true,"rental_uris":{"android":"levelo://app?vid=4d064f95-6dcb-4234-9e98-7c70fbb74351","ios":"levelo://app?vid=4d064f95-6dcb-4234-9e98-7c70fbb74351"},"vehicle_type_id":"4","last_reported":1750885786,"current_range_meters":0,"station_id":"","pricing_plan_id":"cebpf4jnsgd1na2vs0mg"},{"bike_id":"17240ff8-0f9b-494f-a7e6-fc10c35928de","system_id":"levelo_inurba_marseille","lat":43.30903,"lon":5.37287,"is_reserved":false,"is_disabled":true,"rental_uris":{"android":"levelo://app?vid=17240ff8-0f9b-494f-a7e6-fc10c35928de","ios":"levelo://app?vid=17240ff8-0f9b-494f-a7e6-fc10c35928de"},"vehicle_type_id":"4","last_reported":1750885786,"current_range_meters":0,"station_id":"","pricing_plan_id":"cebpf4jnsgd1na2vs0mg"},{"bike_id":"e32e4da4-015e-4a5b-bb25-7d5b9c207a58","system_id":"levelo_inurba_marseille","lat":43.28889,"lon":5.35394,"is_reserved":false,"is_disabled":true,"rental_uris":{"android":"levelo://app?vid=e32e4da4-015e-4a5b-bb25-7d5b9c207a58","ios":"levelo://app?vid=e32e4da4-015e-4a5b-bb25-7d5b9c207a58"},"vehicle_type_id":"4","last_reported":1750885786,"current_range_meters":0,"station_id":"","pricing_plan_id":"cebpf4jnsgd1na2vs0mg"},{"bike_id":"06b961c7-f3ce-4c1c-a618-db74d23ebaea","system_id":"levelo_inurba_marseille","lat":43.28893,"lon":5.37916,"is_reserved":false,"is_disabled":true,"rental_uris":{"android":"levelo://app?vid=06b961c7-f3ce-4c1c-a618-db74d23ebaea","ios":"levelo://app?vid=06b961c7-f3ce-4c1c-a618-db74d23ebaea"},"vehicle_type_id":"4","last_reported":1750885786,"current_range_meters":0,"station_id":"","pricing_plan_id":"cebpf4jnsgd1na2vs0mg"},{"bike_id":"d6609b4f-333b-43c1-9ebe-8726f5e76e88","system_id":"levelo_inurba_marseille","lat":43.337444,"lon":5.374475,"is_reserved":false,"is_disabled":true,"rental_uris":{"android":"levelo://app?vid=d6609b4f-333b-43c1-9ebe-8726f5e76e88","ios":"levelo://app?vid=d6609b4f-333b-43c1-9ebe-8726f5e76e88"},"vehicle_type_id":"4","last_reported":1750885786,"current_range_meters":0,"station_id":"","pricing_plan_id":"cebpf4jnsgd1na2vs0mg"},{"bike_id":"3583f331-6c0b-49be-9913-9dde300034d9","system_id":"levelo_inurba_marseille","lat":43.24618,"lon":5.40202,"is_reserved":false,"is_disabled":true,"rental_uris":{"android":"levelo://app?vid=3583f331-6c0b-49be-9913-9dde300034d9","ios":"levelo://app?vid=3583f331-6c0b-49be-9913-9dde300034d9"},"vehicle_type_id":"4","last_reported":1750885786,"current_range_meters":0,"station_id":"","pricing_plan_id":"cebpf4jnsgd1na2vs0mg"},{"bike_id":"c83adf78-14ca-4a80-b94a-16ed5ff617f2","system_id":"levelo_inurba_marseille","lat":43.22489,"lon":5.34786,"is_reserved":false,"is_disabled":true,"rental_uris":{"android":"levelo://app?vid=c83adf78-14ca-4a80-b94a-16ed5ff617f2","ios":"levelo://app?vid=c83adf78-14ca-4a80-b94a-16ed5ff617f2"},"vehicle_type_id":"4","last_reported":1750885786,"current_range_meters":0,"station_id":"","pricing_plan_id":"cebpf4jnsgd1na2vs0mg"},{"bike_id":"e1376448-e96e-4cb8-a3b3-7b68b32aaf01","system_id":"levelo_inurba_marseille","lat":43.255758,"lon":5.376479,"is_reserved":false,"is_disabled":true,"rental_uris":{"android":"levelo://app?vid=e1376448-e96e-4cb8-a3b3-7b68b32aaf01","ios":"levelo://app?vid=e1376448-e96e-4cb8-a3b3-7b68b32aaf01"},"vehicle_type_id":"4","last_reported":1750885786,"current_range_meters":0,"station_id":"","pricing_plan_id":"cebpf4jnsgd1na2vs0mg"},{"bike_id":"9cb193d0-906b-4ac2-85c5-eea810b1d20f","system_id":"levelo_inurba_marseille","lat":43.29372,"lon":5.42962,"is_reserved":false,"is_disabled":true,"rental_uris":{"android":"levelo://app?vid=9cb193d0-906b-4ac2-85c5-eea810b1d20f","ios":"levelo://app?vid=9cb193d0-906b-4ac2-85c5-eea810b1d20f"},"vehicle_type_id":"4","last_reported":1750885786,"current_range_meters":0,"station_id":"","pricing_plan_id":"cebpf4jnsgd1na2vs0mg"},{"bike_id":"b17b6606-336a-4606-9b65-af139c49de26","system_id":"levelo_inurba_marseille","lat":43.25678,"lon":5.4272,"is_reserved":false,"is_disabled":true,"rental_uris":{"android":"levelo://app?vid=b17b6606-336a-4606-9b65-af139c49de26","ios":"levelo://app?vid=b17b6606-336a-4606-9b65-af139c49de26"},"vehicle_type_id":"4","last_reported":1750885786,"current_range_meters":0,"station_id":"","pricing_plan_id":"cebpf4jnsgd1na2vs0mg"},{"bike_id":"bd17737b-22d2-4e4f-88e8-4eb661d864c4","system_id":"levelo_inurba_marseille","lat":43.291679,"lon":5.460644,"is_reserved":false,"is_disabled":true,"rental_uris":{"android":"levelo://app?vid=bd17737b-22d2-4e4f-88e8-4eb661d864c4","ios":"levelo://app?vid=bd17737b-22d2-4e4f-88e8-4eb661d864c4"},"vehicle_type_id":"4","last_reported":1750885786,"current_range_meters":0,"station_id":"","pricing_plan_id":"cebpf4jnsgd1na2vs0mg"},{"bike_id":"9d3724b1-0dc8-4689-9d6a-55005a9503cb","system_id":"levelo_inurba_marseille","lat":43.286191,"lon":5.428223,"is_reserved":false,"is_disabled":true,"rental_uris":{"android":"levelo://app?vid=9d3724b1-0dc8-4689-9d6a-55005a9503cb","ios":"levelo://app?vid=9d3724b1-0dc8-4689-9d6a-55005a9503cb"},"vehicle_type_id":"4","last_reported":1750885786,"current_range_meters":0,"station_id":"","pricing_plan_id":"cebpf4jnsgd1na2vs0mg"},{"bike_id":"17f2bf91-421e-46bd-a761-71a4f27295fd","system_id":"levelo_inurba_marseille","lat":43.238439,"lon":5.430672,"is_reserved":false,"is_disabled":true,"rental_uris":{"android":"levelo://app?vid=17f2bf91-421e-46bd-a761-71a4f27295fd","ios":"levelo://app?vid=17f2bf91-421e-46bd-a761-71a4f27295fd"},"vehicle_type_id":"4","last_reported":1750885786,"current_range_meters":0,"station_id":"","pricing_plan_id":"cebpf4jnsgd1na2vs0mg"},{"bike_id":"3d07ef76-af52-42e0-81f1-5f4963c9ee29","system_id":"levelo_inurba_marseille","lat":43.29466,"lon":5.4388,"is_reserved":false,"is_disabled":true,"rental_uris":{"android":"levelo://app?vid=3d07ef76-af52-42e0-81f1-5f4963c9ee29","ios":"levelo://app?vid=3d07ef76-af52-42e0-81f1-5f4963c9ee29"},"vehicle_type_id":"4","last_reported":1750885786,"current_range_meters":0,"station_id":"","pricing_plan_id":"cebpf4jnsgd1na2vs0mg"},{"bike_id":"9b8be277-ab0e-4923-93d8-769b11e4cdb7","system_id":"levelo_inurba_marseille","lat":43.2608,"lon":5.38703,"is_reserved":false,"is_disabled":true,"rental_uris":{"android":"levelo://app?vid=9b8be277-ab0e-4923-93d8-769b11e4cdb7","ios":"levelo://app?vid=9b8be277-ab0e-4923-93d8-769b11e4cdb7"},"vehicle_type_id":"4","last_reported":1750885786,"current_range_meters":0,"station_id":"","pricing_plan_id":"cebpf4jnsgd1na2vs0mg"},{"bike_id":"1eaf5272-c846-4696-bccc-53c4616a6d37","system_id":"levelo_inurba_marseille","lat":43.29622,"lon":5.37661,"is_reserved":false,"is_disabled":true,"rental_uris":{"android":"levelo://app?vid=1eaf5272-c846-4696-bccc-53c4616a6d37","ios":"levelo://app?vid=1eaf5272-c846-4696-bccc-53c4616a6d37"},"vehicle_type_id":"4","last_reported":1750885786,"current_range_meters":0,"station_id":"ce4bgi92rcd13ifvqb90","pricing_plan_id":"cebpf4jnsgd1na2vs0mg"},{"bike_id":"0a76cfc9-dedd-4653-84e1-aaf0e87b70e6","system_id":"levelo_inurba_marseille","lat":43.30304,"lon":5.3921,"is_reserved":false,"is_disabled":true,"rental_uris":{"android":"levelo://app?vid=0a76cfc9-dedd-4653-84e1-aaf0e87b70e6","ios":"levelo://app?vid=0a76cfc9-dedd-4653-84e1-aaf0e87b70e6"},"vehicle_type_id":"4","last_reported":1750885786,"current_range_meters":0,"station_id":"ce4bgkh2rcd13ifvqbk0","pricing_plan_id":"cebpf4jnsgd1na2vs0mg"},{"bike_id":"96ddba67-6d62-408d-9dfe-b8096676f444","system_id":"levelo_inurba_marseille","lat":43.31226,"lon":5.36842,"is_reserved":false,"is_disabled":true,"rental_uris":{"android":"levelo://app?vid=96ddba67-6d62-408d-9dfe-b8096676f444","ios":"levelo://app?vid=96ddba67-6d62-408d-9dfe-b8096676f444"},"vehicle_type_id":"4","last_reported":1750885786,"current_range_meters":0,"station_id":"ce4bgl92rcd13ifvqbq0","pricing_plan_id":"cebpf4jnsgd1na2vs0mg"},{"bike_id":"3bff3630-2255-47ed-8abe-dc9f7856c3ae","system_id":"levelo_inurba_marseille","lat":43.31493,"lon":5.3727,"is_reserved":false,"is_disabled":true,"rental_uris":{"android":"levelo://app?vid=3bff3630-2255-47ed-8abe-dc9f7856c3ae","ios":"levelo://app?vid=3bff3630-2255-47ed-8abe-dc9f7856c3ae"},"vehicle_type_id":"4","last_reported":1750885786,"current_range_meters":0,"station_id":"ce4bgt12rcd13ifvqcd0","pricing_plan_id":"cebpf4jnsgd1na2vs0mg"},{"bike_id":"ff5b4b0b-0344-4e17-9c46-68c3643abdd4","system_id":"levelo_inurba_marseille","lat":43.29421,"lon":5.38609,"is_reserved":false,"is_disabled":true,"rental_uris":{"android":"levelo://app?vid=ff5b4b0b-0344-4e17-9c46-68c3643abdd4","ios":"levelo://app?vid=ff5b4b0b-0344-4e17-9c46-68c3643abdd4"},"vehicle_type_id":"4","last_reported":1750885786,"current_range_meters":0,"station_id":"ce4bh2h2rcd13ifvqdh0","pricing_plan_id":"cebpf4jnsgd1na2vs0mg"},{"bike_id":"c2a1191b-69b3-453f-b39c-30aca8111eea","system_id":"levelo_inurba_marseille","lat":43.286652,"lon":5.351569,"is_reserved":false,"is_disabled":true,"rental_uris":{"android":"levelo://app?vid=c2a1191b-69b3-453f-b39c-30aca8111eea","ios":"levelo://app?vid=c2a1191b-69b3-453f-b39c-30aca8111eea"},"vehicle_type_id":"4","last_reported":1750885786,"current_range_meters":0,"station_id":"ce4bhb92rcd13ifvqen0","pricing_plan_id":"cebpf4jnsgd1na2vs0mg"},{"bike_id":"09fc0ec7-48d0-4092-bcce-b0d008cd92e5","system_id":"levelo_inurba_marseille","lat":43.28262,"lon":5.35059,"is_reserved":false,"is_disabled":true,"rental_uris":{"android":"levelo://app?vid=09fc0ec7-48d0-4092-bcce-b0d008cd92e5","ios":"levelo://app?vid=09fc0ec7-48d0-4092-bcce-b0d008cd92e5"},"vehicle_type_id":"4","last_reported":1750885786,"current_range_meters":0,"station_id":"ce4bhbp2rcd13ifvqerg","pricing_plan_id":"cebpf4jnsgd1na2vs0mg"},{"bike_id":"1168861b-afc6-4fd4-858d-b25046f391a9","system_id":"levelo_inurba_marseille","lat":43.26211,"lon":5.37427,"is_reserved":false,"is_disabled":false,"rental_uris":{"android":"levelo://app?vid=1168861b-afc6-4fd4-858d-b25046f391a9","ios":"levelo://app?vid=1168861b-afc6-4fd4-858d-b25046f391a9"},"vehicle_type_id":"4","last_reported":1750885786,"current_range_meters":0,"station_id":"ce4bhgp2rcd13ifvqfc0","pricing_plan_id":"cebpf4jnsgd1na2vs0mg"},{"bike_id":"e8f82074-ef37-41d9-901a-7a7fc81783e1","system_id":"levelo_inurba_marseille","lat":43.25496,"lon":5.37646,"is_reserved":false,"is_disabled":true,"rental_uris":{"android":"levelo://app?vid=e8f82074-ef37-41d9-901a-7a7fc81783e1","ios":"levelo://app?vid=e8f82074-ef37-41d9-901a-7a7fc81783e1"},"vehicle_type_id":"4","last_reported":1750885786,"current_range_meters":0,"station_id":"ce4bhh12rcd13ifvqff0","pricing_plan_id":"cebpf4jnsgd1na2vs0mg"},{"bike_id":"3e1657f4-1090-4f43-bd70-dcd6fffb154b","system_id":"levelo_inurba_marseille","lat":43.25574,"lon":5.38232,"is_reserved":false,"is_disabled":true,"rental_uris":{"android":"levelo://app?vid=3e1657f4-1090-4f43-bd70-dcd6fffb154b","ios":"levelo://app?vid=3e1657f4-1090-4f43-bd70-dcd6fffb154b"},"vehicle_type_id":"4","last_reported":1750885786,"current_range_meters":0,"station_id":"ce4bhih2rcd13ifvqfs0","pricing_plan_id":"cebpf4jnsgd1na2vs0mg"},{"bike_id":"ebcb3503-a19b-41ed-902e-d207cffdba45","system_id":"levelo_inurba_marseille","lat":43.23146,"lon":5.43715,"is_reserved":false,"is_disabled":true,"rental_uris":{"android":"levelo://app?vid=ebcb3503-a19b-41ed-902e-d207cffdba45","ios":"levelo://app?vid=ebcb3503-a19b-41ed-902e-d207cffdba45"},"vehicle_type_id":"4","last_reported":1750885786,"current_range_meters":0,"station_id":"ce4bhmp2rcd13ifvqgog","pricing_plan_id":"cebpf4jnsgd1na2vs0mg"},{"bike_id":"b9c69dd5-a0d1-4448-80eb-b9426f311082","system_id":"levelo_inurba_marseille","lat":43.30409,"lon":5.41294,"is_reserved":false,"is_disabled":true,"rental_uris":{"android":"levelo://app?vid=b9c69dd5-a0d1-4448-80eb-b9426f311082","ios":"levelo://app?vid=b9c69dd5-a0d1-4448-80eb-b9426f311082"},"vehicle_type_id":"4","last_reported":1750885786,"current_range_meters":0,"station_id":"ce4bhop2rcd13ifvqh8g","pricing_plan_id":"cebpf4jnsgd1na2vs0mg"},{"bike_id":"45f54f61-99b2-4a5e-a6aa-41e252486eeb","system_id":"levelo_inurba_marseille","lat":43.22807,"lon":5.34936,"is_reserved":false,"is_disabled":true,"rental_uris":{"android":"levelo://app?vid=45f54f61-99b2-4a5e-a6aa-41e252486eeb","ios":"levelo://app?vid=45f54f61-99b2-4a5e-a6aa-41e252486eeb"},"vehicle_type_id":"4","last_reported":1750885786,"current_range_meters":400,"station_id":"","pricing_plan_id":"cebpf4jnsgd1na2vs0mg"},{"bike_id":"03a4156a-8d1d-41c7-86ef-ec69154909c8","system_id":"levelo_inurba_marseille","lat":43.24381,"lon":5.37095,"is_reserved":false,"is_disabled":true,"rental_uris":{"android":"levelo://app?vid=03a4156a-8d1d-41c7-86ef-ec69154909c8","ios":"levelo://app?vid=03a4156a-8d1d-41c7-86ef-ec69154909c8"},"vehicle_type_id":"4","last_reported":1750885786,"current_range_meters":400,"station_id":"ce4bhhh2rcd13ifvqfk0","pricing_plan_id":"cebpf4jnsgd1na2vs0mg"},{"bike_id":"96630c5c-2ab1-477a-9226-20000b5f790c","system_id":"levelo_inurba_marseille","lat":43.23187,"lon":5.39997,"is_reserved":false,"is_disabled":true,"rental_uris":{"android":"levelo://app?vid=96630c5c-2ab1-477a-9226-20000b5f790c","ios":"levelo://app?vid=96630c5c-2ab1-477a-9226-20000b5f790c"},"vehicle_type_id":"4","last_reported":1750885786,"current_range_meters":400,"station_id":"ce4bhn12rcd13ifvqgqg","pricing_plan_id":"cebpf4jnsgd1na2vs0mg"},{"bike_id":"04c5447d-2fa4-4d22-b91b-9dc8474fa1c2","system_id":"levelo_inurba_marseille","lat":43.24171,"lon":5.36397,"is_reserved":false,"is_disabled":true,"rental_uris":{"android":"levelo://app?vid=04c5447d-2fa4-4d22-b91b-9dc8474fa1c2","ios":"levelo://app?vid=04c5447d-2fa4-4d22-b91b-9dc8474fa1c2"},"vehicle_type_id":"4","last_reported":1750885786,"current_range_meters":400,"station_id":"cpo36qri1sfpv3e86is0","pricing_plan_id":"cebpf4jnsgd1na2vs0mg"},{"bike_id":"813d7bb1-2621-40c4-bb0a-6d5e13d60884","system_id":"levelo_inurba_marseille","lat":43.28422,"lon":5.37494,"is_reserved":false,"is_disabled":true,"rental_uris":{"android":"levelo://app?vid=813d7bb1-2621-40c4-bb0a-6d5e13d60884","ios":"levelo://app?vid=813d7bb1-2621-40c4-bb0a-6d5e13d60884"},"vehicle_type_id":"4","last_reported":1750885786,"current_range_meters":800,"station_id":"ce4bh412rcd13ifvqds0","pricing_plan_id":"cebpf4jnsgd1na2vs0mg"},{"bike_id":"e6f09f53-b207-4d8c-a0ae-3bb5ccbf5797","system_id":"levelo_inurba_marseille","lat":43.25663,"lon":5.38289,"is_reserved":false,"is_disabled":true,"rental_uris":{"android":"levelo://app?vid=e6f09f53-b207-4d8c-a0ae-3bb5ccbf5797","ios":"levelo://app?vid=e6f09f53-b207-4d8c-a0ae-3bb5ccbf5797"},"vehicle_type_id":"4","last_reported":1750885786,"current_range_meters":1200,"station_id":"","pricing_plan_id":"cebpf4jnsgd1na2vs0mg"},{"bike_id":"e958b87a-6435-444a-8654-6ab949754ae0","system_id":"levelo_inurba_marseille","lat":43.31425,"lon":5.37216,"is_reserved":false,"is_disabled":true,"rental_uris":{"android":"levelo://app?vid=e958b87a-6435-444a-8654-6ab949754ae0","ios":"levelo://app?vid=e958b87a-6435-444a-8654-6ab949754ae0"},"vehicle_type_id":"4","last_reported":1750885786,"current_range_meters":1200,"station_id":"","pricing_plan_id":"cebpf4jnsgd1na2vs0mg"},{"bike_id":"6eab125a-ad57-4434-ac31-43ca0427abd6","system_id":"levelo_inurba_marseille","lat":43.31326,"lon":5.3969,"is_reserved":false,"is_disabled":true,"rental_uris":{"android":"levelo://app?vid=6eab125a-ad57-4434-ac31-43ca0427abd6","ios":"levelo://app?vid=6eab125a-ad57-4434-ac31-43ca0427abd6"},"vehicle_type_id":"4","last_reported":1750885786,"current_range_meters":1200,"station_id":"ce4bgvp2rcd13ifvqcu0","pricing_plan_id":"cebpf4jnsgd1na2vs0mg"},{"bike_id":"35c3f023-aef1-44d7-bd18-62d7606decc2","system_id":"levelo_inurba_marseille","lat":43.2795,"lon":5.41048,"is_reserved":false,"is_disabled":true,"rental_uris":{"android":"levelo://app?vid=35c3f023-aef1-44d7-bd18-62d7606decc2","ios":"levelo://app?vid=35c3f023-aef1-44d7-bd18-62d7606decc2"},"vehicle_type_id":"4","last_reported":1750885786,"current_range_meters":1200,"station_id":"ce4bhnp2rcd13ifvqh0g","pricing_plan_id":"cebpf4jnsgd1na2vs0mg"},{"bike_id":"f9b023c6-c870-4265-b25d-f554624c965b","system_id":"levelo_inurba_marseille","lat":43.29875,"lon":5.3973,"is_reserved":false,"is_disabled":true,"rental_uris":{"android":"levelo://app?vid=f9b023c6-c870-4265-b25d-f554624c965b","ios":"levelo://app?vid=f9b023c6-c870-4265-b25d-f554624c965b"},"vehicle_type_id":"4","last_reported":1750885786,"current_range_meters":1600,"station_id":"ce4bh0h2rcd13ifvqd50","pricing_plan_id":"cebpf4jnsgd1na2vs0mg"},{"bike_id":"f7f97041-e4e1-4943-af12-af214f3dce4e","system_id":"levelo_inurba_marseille","lat":43.30642,"lon":5.40091,"is_reserved":false,"is_disabled":true,"rental_uris":{"android":"levelo://app?vid=f7f97041-e4e1-4943-af12-af214f3dce4e","ios":"levelo://app?vid=f7f97041-e4e1-4943-af12-af214f3dce4e"},"vehicle_type_id":"4","last_reported":1750885786,"current_range_meters":1600,"station_id":"ce4bh112rcd13ifvqda0","pricing_plan_id":"cebpf4jnsgd1na2vs0mg"},{"bike_id":"a5e36499-1f93-4882-8cc4-079359ec44c0","system_id":"levelo_inurba_marseille","lat":43.28669,"lon":5.38664,"is_reserved":false,"is_disabled":true,"rental_uris":{"android":"levelo://app?vid=a5e36499-1f93-4882-8cc4-079359ec44c0","ios":"levelo://app?vid=a5e36499-1f93-4882-8cc4-079359ec44c0"},"vehicle_type_id":"4","last_reported":1750885786,"current_range_meters":1600,"station_id":"ce4bh492rcd13ifvqdug","pricing_plan_id":"cebpf4jnsgd1na2vs0mg"},{"bike_id":"ab1f4be9-8355-471b-a8ab-63c808bd93fe","system_id":"levelo_inurba_marseille","lat":43.286676,"lon":5.363398,"is_reserved":false,"is_disabled":true,"rental_uris":{"android":"levelo://app?vid=ab1f4be9-8355-471b-a8ab-63c808bd93fe","ios":"levelo://app?vid=ab1f4be9-8355-471b-a8ab-63c808bd93fe"},"vehicle_type_id":"4","last_reported":1750885786,"current_range_meters":1600,"station_id":"ce4bhah2rcd13ifvqej0","pricing_plan_id":"cebpf4jnsgd1na2vs0mg"},{"bike_id":"82b2227c-9b70-41ec-ace7-30a834c01c22","system_id":"levelo_inurba_marseille","lat":43.29586,"lon":5.40023,"is_reserved":false,"is_disabled":false,"rental_uris":{"android":"levelo://app?vid=82b2227c-9b70-41ec-ace7-30a834c01c22","ios":"levelo://app?vid=82b2227c-9b70-41ec-ace7-30a834c01c22"},"vehicle_type_id":"4","last_reported":1750885786,"current_range_meters":2800,"station_id":"","pricing_plan_id":"cebpf4jnsgd1na2vs0mg"},{"bike_id":"465d2323-f97d-48b0-a820-bc5fa54ae0fa","system_id":"levelo_inurba_marseille","lat":43.28383,"lon":5.45987,"is_reserved":false,"is_disabled":false,"rental_uris":{"android":"levelo://app?vid=465d2323-f97d-48b0-a820-bc5fa54ae0fa","ios":"levelo://app?vid=465d2323-f97d-48b0-a820-bc5fa54ae0fa"},"vehicle_type_id":"4","last_reported":1750885786,"current_range_meters":2800,"station_id":"","pricing_plan_id":"cebpf4jnsgd1na2vs0mg"},{"bike_id":"eb73079c-9014-40d6-827f-26ee251fdcba","system_id":"levelo_inurba_marseille","lat":43.31162,"lon":5.38717,"is_reserved":false,"is_disabled":false,"rental_uris":{"android":"levelo://app?vid=eb73079c-9014-40d6-827f-26ee251fdcba","ios":"levelo://app?vid=eb73079c-9014-40d6-827f-26ee251fdcba"},"vehicle_type_id":"4","last_reported":1750885786,"current_range_meters":2800,"station_id":"ce4bgv12rcd13ifvqcp0","pricing_plan_id":"cebpf4jnsgd1na2vs0mg"},{"bike_id":"6edd0bb4-ff0e-471f-a9a4-d525185a905d","system_id":"levelo_inurba_marseille","lat":43.30783,"lon":5.37644,"is_reserved":false,"is_disabled":false,"rental_uris":{"android":"levelo://app?vid=6edd0bb4-ff0e-471f-a9a4-d525185a905d","ios":"levelo://app?vid=6edd0bb4-ff0e-471f-a9a4-d525185a905d"},"vehicle_type_id":"4","last_reported":1750885786,"current_range_meters":2800,"station_id":"ce4bgv92rcd13ifvqcq0","pricing_plan_id":"cebpf4jnsgd1na2vs0mg"},{"bike_id":"5789bf88-326a-4663-bca1-971d71c0ee16","system_id":"levelo_inurba_marseille","lat":43.27376,"lon":5.36257,"is_reserved":false,"is_disabled":false,"rental_uris":{"android":"levelo://app?vid=5789bf88-326a-4663-bca1-971d71c0ee16","ios":"levelo://app?vid=5789bf88-326a-4663-bca1-971d71c0ee16"},"vehicle_type_id":"4","last_reported":1750885786,"current_range_meters":2800,"station_id":"ce4bhbh2rcd13ifvqeo0","pricing_plan_id":"cebpf4jnsgd1na2vs0mg"},{"bike_id":"6ee429fd-671e-40cb-af49-d48f50dbfa8a","system_id":"levelo_inurba_marseille","lat":43.279411,"lon":5.387363,"is_reserved":false,"is_disabled":false,"rental_uris":{"android":"levelo://app?vid=6ee429fd-671e-40cb-af49-d48f50dbfa8a","ios":"levelo://app?vid=6ee429fd-671e-40cb-af49-d48f50dbfa8a"},"vehicle_type_id":"4","last_reported":1750885786,"current_range_meters":2800,"station_id":"ce4bhg12rcd13ifvqf80","pricing_plan_id":"cebpf4jnsgd1na2vs0mg"},{"bike_id":"04d3bfc6-d897-4e53-9242-b6b91dc360fe","system_id":"levelo_inurba_marseille","lat":43.30001,"lon":5.39672,"is_reserved":false,"is_disabled":false,"rental_uris":{"android":"levelo://app?vid=04d3bfc6-d897-4e53-9242-b6b91dc360fe","ios":"levelo://app?vid=04d3bfc6-d897-4e53-9242-b6b91dc360fe"},"vehicle_type_id":"4","last_reported":1750885786,"current_range_meters":3200,"station_id":"","pricing_plan_id":"cebpf4jnsgd1na2vs0mg"},{"bike_id":"5080d894-c25a-47bf-a87d-095f67da0eed","system_id":"levelo_inurba_marseille","lat":43.31112,"lon":5.37768,"is_reserved":false,"is_disabled":false,"rental_uris":{"android":"levelo://app?vid=5080d894-c25a-47bf-a87d-095f67da0eed","ios":"levelo://app?vid=5080d894-c25a-47bf-a87d-095f67da0eed"},"vehicle_type_id":"4","last_reported":1750885786,"current_range_meters":3200,"station_id":"ce4bgt92rcd13ifvqcg0","pricing_plan_id":"cebpf4jnsgd1na2vs0mg"},{"bike_id":"858dba7b-f317-4b08-8138-2a878bb8406a","system_id":"levelo_inurba_marseille","lat":43.30889,"lon":5.37194,"is_reserved":false,"is_disabled":false,"rental_uris":{"android":"levelo://app?vid=858dba7b-f317-4b08-8138-2a878bb8406a","ios":"levelo://app?vid=858dba7b-f317-4b08-8138-2a878bb8406a"},"vehicle_type_id":"4","last_reported":1750885786,"current_range_meters":3200,"station_id":"ce4bguh2rcd13ifvqckg","pricing_plan_id":"cebpf4jnsgd1na2vs0mg"},{"bike_id":"a3b4c98a-0e93-4262-a953-282fa9b5124c","system_id":"levelo_inurba_marseille","lat":43.2919,"lon":5.39324,"is_reserved":false,"is_disabled":false,"rental_uris":{"android":"levelo://app?vid=a3b4c98a-0e93-4262-a953-282fa9b5124c","ios":"levelo://app?vid=a3b4c98a-0e93-4262-a953-282fa9b5124c"},"vehicle_type_id":"4","last_reported":1750885786,"current_range_meters":3200,"station_id":"ce4bh192rcd13ifvqdd0","pricing_plan_id":"cebpf4jnsgd1na2vs0mg"},{"bike_id":"0c4e8941-b602-4c83-8dd9-6765608998d8","system_id":"levelo_inurba_marseille","lat":43.29092,"lon":5.38134,"is_reserved":false,"is_disabled":false,"rental_uris":{"android":"levelo://app?vid=0c4e8941-b602-4c83-8dd9-6765608998d8","ios":"levelo://app?vid=0c4e8941-b602-4c83-8dd9-6765608998d8"},"vehicle_type_id":"4","last_reported":1750885786,"current_range_meters":3200,"station_id":"ce4bh512rcd13ifvqe2g","pricing_plan_id":"cebpf4jnsgd1na2vs0mg"},{"bike_id":"2837d5f1-afb0-4d29-8a67-11ffc5f4db5f","system_id":"levelo_inurba_marseille","lat":43.27811,"lon":5.40707,"is_reserved":false,"is_disabled":false,"rental_uris":{"android":"levelo://app?vid=2837d5f1-afb0-4d29-8a67-11ffc5f4db5f","ios":"levelo://app?vid=2837d5f1-afb0-4d29-8a67-11ffc5f4db5f"},"vehicle_type_id":"4","last_reported":1750885786,"current_range_meters":3200,"station_id":"ce4bhnh2rcd13ifvqgtg","pricing_plan_id":"cebpf4jnsgd1na2vs0mg"},{"bike_id":"f333bcb3-17e0-43f1-847f-eb3d745e3e41","system_id":"levelo_inurba_marseille","lat":43.29336,"lon":5.42818,"is_reserved":false,"is_disabled":false,"rental_uris":{"android":"levelo://app?vid=f333bcb3-17e0-43f1-847f-eb3d745e3e41","ios":"levelo://app?vid=f333bcb3-17e0-43f1-847f-eb3d745e3e41"},"vehicle_type_id":"4","last_reported":1750885786,"current_range_meters":3600,"station_id":"","pricing_plan_id":"cebpf4jnsgd1na2vs0mg"},{"bike_id":"6ac3a525-989a-4352-b1b9-c1d0aba5e9b5","system_id":"levelo_inurba_marseille","lat":43.28103,"lon":5.37832,"is_reserved":false,"is_disabled":false,"rental_uris":{"android":"levelo://app?vid=6ac3a525-989a-4352-b1b9-c1d0aba5e9b5","ios":"levelo://app?vid=6ac3a525-989a-4352-b1b9-c1d0aba5e9b5"},"vehicle_type_id":"4","last_reported":1750885786,"current_range_meters":3600,"station_id":"ce4bha12rcd13ifvqee0","pricing_plan_id":"cebpf4jnsgd1na2vs0mg"},{"bike_id":"4affc658-db2b-4cd0-8308-f61e4a3838ad","system_id":"levelo_inurba_marseille","lat":43.2549,"lon":5.37641,"is_reserved":false,"is_disabled":false,"rental_uris":{"android":"levelo://app?vid=4affc658-db2b-4cd0-8308-f61e4a3838ad","ios":"levelo://app?vid=4affc658-db2b-4cd0-8308-f61e4a3838ad"},"vehicle_type_id":"4","last_reported":1750885786,"current_range_meters":3600,"station_id":"ce4bhh12rcd13ifvqff0","pricing_plan_id":"cebpf4jnsgd1na2vs0mg"},{"bike_id":"b3d70ed8-2ec8-41e2-b10a-b9072a345e91","system_id":"levelo_inurba_marseille","lat":43.29281,"lon":5.40114,"is_reserved":false,"is_disabled":false,"rental_uris":{"android":"levelo://app?vid=b3d70ed8-2ec8-41e2-b10a-b9072a345e91","ios":"levelo://app?vid=b3d70ed8-2ec8-41e2-b10a-b9072a345e91"},"vehicle_type_id":"4","last_reported":1750885786,"current_range_meters":4000,"station_id":"ce4bh312rcd13ifvqdk0","pricing_plan_id":"cebpf4jnsgd1na2vs0mg"},{"bike_id":"03b69742-e76c-44d1-9e1d-095fbb8dc5e2","system_id":"levelo_inurba_marseille","lat":43.28153,"lon":5.42638,"is_reserved":false,"is_disabled":false,"rental_uris":{"android":"levelo://app?vid=03b69742-e76c-44d1-9e1d-095fbb8dc5e2","ios":"levelo://app?vid=03b69742-e76c-44d1-9e1d-095fbb8dc5e2"},"vehicle_type_id":"4","last_reported":1750885786,"current_range_meters":4000,"station_id":"ce4bhnh2rcd13ifvqgug","pricing_plan_id":"cebpf4jnsgd1na2vs0mg"},{"bike_id":"be6544fb-6c1c-4292-b44a-7843b5c7fb9c","system_id":"levelo_inurba_marseille","lat":43.31637,"lon":5.41396,"is_reserved":false,"is_disabled":false,"rental_uris":{"android":"levelo://app?vid=be6544fb-6c1c-4292-b44a-7843b5c7fb9c","ios":"levelo://app?vid=be6544fb-6c1c-4292-b44a-7843b5c7fb9c"},"vehicle_type_id":"4","last_reported":1750885786,"current_range_meters":4400,"station_id":"","pricing_plan_id":"cebpf4jnsgd1na2vs0mg"},{"bike_id":"91f7d707-bc77-4fa2-be75-d62d1e5a6157","system_id":"levelo_inurba_marseille","lat":43.2869,"lon":5.37419,"is_reserved":false,"is_disabled":false,"rental_uris":{"android":"levelo://app?vid=91f7d707-bc77-4fa2-be75-d62d1e5a6157","ios":"levelo://app?vid=91f7d707-bc77-4fa2-be75-d62d1e5a6157"},"vehicle_type_id":"4","last_reported":1750885786,"current_range_meters":4400,"station_id":"ce4bh3p2rcd13ifvqdq0","pricing_plan_id":"cebpf4jnsgd1na2vs0mg"},{"bike_id":"754396d5-ecba-46c5-9c2c-09e3c692e0a2","system_id":"levelo_inurba_marseille","lat":43.27976,"lon":5.38743,"is_reserved":false,"is_disabled":false,"rental_uris":{"android":"levelo://app?vid=754396d5-ecba-46c5-9c2c-09e3c692e0a2","ios":"levelo://app?vid=754396d5-ecba-46c5-9c2c-09e3c692e0a2"},"vehicle_type_id":"4","last_reported":1750885786,"current_range_meters":4400,"station_id":"ce4bhg12rcd13ifvqf80","pricing_plan_id":"cebpf4jnsgd1na2vs0mg"},{"bike_id":"099b646e-ba6a-47e5-9f39-887b10c8baaa","system_id":"levelo_inurba_marseille","lat":43.27122,"lon":5.40919,"is_reserved":false,"is_disabled":false,"rental_uris":{"android":"levelo://app?vid=099b646e-ba6a-47e5-9f39-887b10c8baaa","ios":"levelo://app?vid=099b646e-ba6a-47e5-9f39-887b10c8baaa"},"vehicle_type_id":"4","last_reported":1750885786,"current_range_meters":4800,"station_id":"","pricing_plan_id":"cebpf4jnsgd1na2vs0mg"},{"bike_id":"156180f5-90cc-42ff-bbc5-56e5f3104370","system_id":"levelo_inurba_marseille","lat":43.23868,"lon":5.43026,"is_reserved":false,"is_disabled":false,"rental_uris":{"android":"levelo://app?vid=156180f5-90cc-42ff-bbc5-56e5f3104370","ios":"levelo://app?vid=156180f5-90cc-42ff-bbc5-56e5f3104370"},"vehicle_type_id":"4","last_reported":1750885786,"current_range_meters":4800,"station_id":"","pricing_plan_id":"cebpf4jnsgd1na2vs0mg"},{"bike_id":"c2d43608-11b6-477a-a3b7-ea86445a76ea","system_id":"levelo_inurba_marseille","lat":43.27485,"lon":5.42469,"is_reserved":false,"is_disabled":false,"rental_uris":{"android":"levelo://app?vid=c2d43608-11b6-477a-a3b7-ea86445a76ea","ios":"levelo://app?vid=c2d43608-11b6-477a-a3b7-ea86445a76ea"},"vehicle_type_id":"4","last_reported":1750885786,"current_range_meters":4800,"station_id":"ce4bhn92rcd13ifvqgrg","pricing_plan_id":"cebpf4jnsgd1na2vs0mg"},{"bike_id":"377a3710-ae4f-4594-ac53-95b04d169bc1","system_id":"levelo_inurba_marseille","lat":43.30324,"lon":5.40436,"is_reserved":false,"is_disabled":false,"rental_uris":{"android":"levelo://app?vid=377a3710-ae4f-4594-ac53-95b04d169bc1","ios":"levelo://app?vid=377a3710-ae4f-4594-ac53-95b04d169bc1"},"vehicle_type_id":"4","last_reported":1750885786,"current_range_meters":5600,"station_id":"ce4bh012rcd13ifvqd10","pricing_plan_id":"cebpf4jnsgd1na2vs0mg"},{"bike_id":"0c4307bd-0192-4099-9ca6-196bcea3418c","system_id":"levelo_inurba_marseille","lat":43.28479,"lon":5.35858,"is_reserved":false,"is_disabled":false,"rental_uris":{"android":"levelo://app?vid=0c4307bd-0192-4099-9ca6-196bcea3418c","ios":"levelo://app?vid=0c4307bd-0192-4099-9ca6-196bcea3418c"},"vehicle_type_id":"4","last_reported":1750885786,"current_range_meters":5600,"station_id":"ce4bhah2rcd13ifvqei0","pricing_plan_id":"cebpf4jnsgd1na2vs0mg"},{"bike_id":"71638a97-e772-4edf-9ced-c2d7aeb98c01","system_id":"levelo_inurba_marseille","lat":43.258724,"lon":5.39889,"is_reserved":false,"is_disabled":false,"rental_uris":{"android":"levelo://app?vid=71638a97-e772-4edf-9ced-c2d7aeb98c01","ios":"levelo://app?vid=71638a97-e772-4edf-9ced-c2d7aeb98c01"},"vehicle_type_id":"4","last_reported":1750885786,"current_range_meters":5600,"station_id":"ce4bhl92rcd13ifvqghg","pricing_plan_id":"cebpf4jnsgd1na2vs0mg"},{"bike_id":"41705be6-b08f-4343-8120-fa9668a161b7","system_id":"levelo_inurba_marseille","lat":43.30662,"lon":5.40033,"is_reserved":false,"is_disabled":false,"rental_uris":{"android":"levelo://app?vid=41705be6-b08f-4343-8120-fa9668a161b7","ios":"levelo://app?vid=41705be6-b08f-4343-8120-fa9668a161b7"},"vehicle_type_id":"4","last_reported":1750885786,"current_range_meters":6000,"station_id":"ce4bh112rcd13ifvqda0","pricing_plan_id":"cebpf4jnsgd1na2vs0mg"},{"bike_id":"1b8c416c-0c10-487f-89e5-915031fe23fe","system_id":"levelo_inurba_marseille","lat":43.28367,"lon":5.38646,"is_reserved":false,"is_disabled":false,"rental_uris":{"android":"levelo://app?vid=1b8c416c-0c10-487f-89e5-915031fe23fe","ios":"levelo://app?vid=1b8c416c-0c10-487f-89e5-915031fe23fe"},"vehicle_type_id":"4","last_reported":1750885786,"current_range_meters":6000,"station_id":"ce4bh492rcd13ifvqdvg","pricing_plan_id":"cebpf4jnsgd1na2vs0mg"},{"bike_id":"644acfbe-f10a-4ad6-9464-fe1144fb1ca5","system_id":"levelo_inurba_marseille","lat":43.25497,"lon":5.37641,"is_reserved":false,"is_disabled":false,"rental_uris":{"android":"levelo://app?vid=644acfbe-f10a-4ad6-9464-fe1144fb1ca5","ios":"levelo://app?vid=644acfbe-f10a-4ad6-9464-fe1144fb1ca5"},"vehicle_type_id":"4","last_reported":1750885786,"current_range_meters":6000,"station_id":"ce4bhh12rcd13ifvqff0","pricing_plan_id":"cebpf4jnsgd1na2vs0mg"},{"bike_id":"ed1d1d2c-5654-43b6-8579-495e672f1e35","system_id":"levelo_inurba_marseille","lat":43.25492,"lon":5.37651,"is_reserved":false,"is_disabled":false,"rental_uris":{"android":"levelo://app?vid=ed1d1d2c-5654-43b6-8579-495e672f1e35","ios":"levelo://app?vid=ed1d1d2c-5654-43b6-8579-495e672f1e35"},"vehicle_type_id":"4","last_reported":1750885786,"current_range_meters":6400,"station_id":"ce4bhh12rcd13ifvqff0","pricing_plan_id":"cebpf4jnsgd1na2vs0mg"},{"bike_id":"00e841b4-7bcd-4c30-b2d6-ecef7ce04dde","system_id":"levelo_inurba_marseille","lat":43.328981,"lon":5.375088,"is_reserved":false,"is_disabled":false,"rental_uris":{"android":"levelo://app?vid=00e841b4-7bcd-4c30-b2d6-ecef7ce04dde","ios":"levelo://app?vid=00e841b4-7bcd-4c30-b2d6-ecef7ce04dde"},"vehicle_type_id":"4","last_reported":1750885786,"current_range_meters":6800,"station_id":"","pricing_plan_id":"cebpf4jnsgd1na2vs0mg"},{"bike_id":"69f81d68-54cc-4a39-b0b0-b4b815551123","system_id":"levelo_inurba_marseille","lat":43.28041,"lon":5.36949,"is_reserved":false,"is_disabled":false,"rental_uris":{"android":"levelo://app?vid=69f81d68-54cc-4a39-b0b0-b4b815551123","ios":"levelo://app?vid=69f81d68-54cc-4a39-b0b0-b4b815551123"},"vehicle_type_id":"4","last_reported":1750885786,"current_range_meters":6800,"station_id":"ce4bha12rcd13ifvqef0","pricing_plan_id":"cebpf4jnsgd1na2vs0mg"},{"bike_id":"25138291-c698-4caa-b090-224a8a01ea0e","system_id":"levelo_inurba_marseille","lat":43.25501,"lon":5.37655,"is_reserved":false,"is_disabled":false,"rental_uris":{"android":"levelo://app?vid=25138291-c698-4caa-b090-224a8a01ea0e","ios":"levelo://app?vid=25138291-c698-4caa-b090-224a8a01ea0e"},"vehicle_type_id":"4","last_reported":1750885786,"current_range_meters":6800,"station_id":"ce4bhh12rcd13ifvqff0","pricing_plan_id":"cebpf4jnsgd1na2vs0mg"},{"bike_id":"0bd3ecdf-42e2-4233-9ca3-df02cb2c693c","system_id":"levelo_inurba_marseille","lat":43.25495,"lon":5.37646,"is_reserved":false,"is_disabled":false,"rental_uris":{"android":"levelo://app?vid=0bd3ecdf-42e2-4233-9ca3-df02cb2c693c","ios":"levelo://app?vid=0bd3ecdf-42e2-4233-9ca3-df02cb2c693c"},"vehicle_type_id":"4","last_reported":1750885786,"current_range_meters":6800,"station_id":"ce4bhh12rcd13ifvqff0","pricing_plan_id":"cebpf4jnsgd1na2vs0mg"},{"bike_id":"0b7b91a3-b8ae-4064-8971-f8217715ada9","system_id":"levelo_inurba_marseille","lat":43.2794,"lon":5.41052,"is_reserved":false,"is_disabled":false,"rental_uris":{"android":"levelo://app?vid=0b7b91a3-b8ae-4064-8971-f8217715ada9","ios":"levelo://app?vid=0b7b91a3-b8ae-4064-8971-f8217715ada9"},"vehicle_type_id":"4","last_reported":1750885786,"current_range_meters":6800,"station_id":"ce4bhnp2rcd13ifvqh0g","pricing_plan_id":"cebpf4jnsgd1na2vs0mg"},{"bike_id":"106a18bf-1e18-48b1-a019-66650297ceaf","system_id":"levelo_inurba_marseille","lat":43.31513,"lon":5.37267,"is_reserved":false,"is_disabled":false,"rental_uris":{"android":"levelo://app?vid=106a18bf-1e18-48b1-a019-66650297ceaf","ios":"levelo://app?vid=106a18bf-1e18-48b1-a019-66650297ceaf"},"vehicle_type_id":"4","last_reported":1750885786,"current_range_meters":7200,"station_id":"ce4bgt12rcd13ifvqcd0","pricing_plan_id":"cebpf4jnsgd1na2vs0mg"},{"bike_id":"343972a4-5bbf-40e3-bf4a-ee674a0ce10f","system_id":"levelo_inurba_marseille","lat":43.23963,"lon":5.36628,"is_reserved":false,"is_disabled":false,"rental_uris":{"android":"levelo://app?vid=343972a4-5bbf-40e3-bf4a-ee674a0ce10f","ios":"levelo://app?vid=343972a4-5bbf-40e3-bf4a-ee674a0ce10f"},"vehicle_type_id":"4","last_reported":1750885786,"current_range_meters":7200,"station_id":"ce4bhi12rcd13ifvqfp0","pricing_plan_id":"cebpf4jnsgd1na2vs0mg"},{"bike_id":"8465ed1a-fe3a-48ee-a67e-6365fd0a58f0","system_id":"levelo_inurba_marseille","lat":43.3171,"lon":5.43708,"is_reserved":false,"is_disabled":false,"rental_uris":{"android":"levelo://app?vid=8465ed1a-fe3a-48ee-a67e-6365fd0a58f0","ios":"levelo://app?vid=8465ed1a-fe3a-48ee-a67e-6365fd0a58f0"},"vehicle_type_id":"4","last_reported":1750885786,"current_range_meters":7200,"station_id":"ce4bhp92rcd13ifvqhcg","pricing_plan_id":"cebpf4jnsgd1na2vs0mg"},{"bike_id":"934409e8-39c5-48e0-a995-2148275193e5","system_id":"levelo_inurba_marseille","lat":43.26829,"lon":5.40221,"is_reserved":false,"is_disabled":false,"rental_uris":{"android":"levelo://app?vid=934409e8-39c5-48e0-a995-2148275193e5","ios":"levelo://app?vid=934409e8-39c5-48e0-a995-2148275193e5"},"vehicle_type_id":"4","last_reported":1750885786,"current_range_meters":7200,"station_id":"ce501612rcd8frsf0b60","pricing_plan_id":"cebpf4jnsgd1na2vs0mg"},{"bike_id":"37e0ff9d-a8de-4088-a164-75282686d41d","system_id":"levelo_inurba_marseille","lat":43.33749,"lon":5.374481,"is_reserved":false,"is_disabled":false,"rental_uris":{"android":"levelo://app?vid=37e0ff9d-a8de-4088-a164-75282686d41d","ios":"levelo://app?vid=37e0ff9d-a8de-4088-a164-75282686d41d"},"vehicle_type_id":"4","last_reported":1750885786,"current_range_meters":8000,"station_id":"","pricing_plan_id":"cebpf4jnsgd1na2vs0mg"},{"bike_id":"11ebf4fb-e752-44af-81e3-7d28e8eee9cc","system_id":"levelo_inurba_marseille","lat":43.28089,"lon":5.43192,"is_reserved":false,"is_disabled":false,"rental_uris":{"android":"levelo://app?vid=11ebf4fb-e752-44af-81e3-7d28e8eee9cc","ios":"levelo://app?vid=11ebf4fb-e752-44af-81e3-7d28e8eee9cc"},"vehicle_type_id":"4","last_reported":1750885786,"current_range_meters":8000,"station_id":"","pricing_plan_id":"cebpf4jnsgd1na2vs0mg"},{"bike_id":"7c3f6852-4f29-42a9-a8c1-e2b82bb43fcf","system_id":"levelo_inurba_marseille","lat":43.2924,"lon":5.42657,"is_reserved":false,"is_disabled":false,"rental_uris":{"android":"levelo://app?vid=7c3f6852-4f29-42a9-a8c1-e2b82bb43fcf","ios":"levelo://app?vid=7c3f6852-4f29-42a9-a8c1-e2b82bb43fcf"},"vehicle_type_id":"4","last_reported":1750885786,"current_range_meters":8000,"station_id":"","pricing_plan_id":"cebpf4jnsgd1na2vs0mg"},{"bike_id":"0bdc406c-c83f-4aba-a5b8-17fa1870246b","system_id":"levelo_inurba_marseille","lat":43.30934,"lon":5.401576,"is_reserved":false,"is_disabled":false,"rental_uris":{"android":"levelo://app?vid=0bdc406c-c83f-4aba-a5b8-17fa1870246b","ios":"levelo://app?vid=0bdc406c-c83f-4aba-a5b8-17fa1870246b"},"vehicle_type_id":"4","last_reported":1750885786,"current_range_meters":8000,"station_id":"ce4bgvp2rcd13ifvqct0","pricing_plan_id":"cebpf4jnsgd1na2vs0mg"},{"bike_id":"b2b2c10c-bbe1-4d83-86ef-09ba864e6a16","system_id":"levelo_inurba_marseille","lat":43.29626,"lon":5.377105,"is_reserved":false,"is_disabled":false,"rental_uris":{"android":"levelo://app?vid=b2b2c10c-bbe1-4d83-86ef-09ba864e6a16","ios":"levelo://app?vid=b2b2c10c-bbe1-4d83-86ef-09ba864e6a16"},"vehicle_type_id":"4","last_reported":1750885786,"current_range_meters":8400,"station_id":"","pricing_plan_id":"cebpf4jnsgd1na2vs0mg"},{"bike_id":"f105ba07-7a85-4a15-9c59-20e295807e8a","system_id":"levelo_inurba_marseille","lat":43.30425,"lon":5.38884,"is_reserved":false,"is_disabled":false,"rental_uris":{"android":"levelo://app?vid=f105ba07-7a85-4a15-9c59-20e295807e8a","ios":"levelo://app?vid=f105ba07-7a85-4a15-9c59-20e295807e8a"},"vehicle_type_id":"4","last_reported":1750885786,"current_range_meters":8400,"station_id":"ce4bgk12rcd13ifvqbi0","pricing_plan_id":"cebpf4jnsgd1na2vs0mg"},{"bike_id":"7d5f7c11-6bca-4447-bc09-285ec976854a","system_id":"levelo_inurba_marseille","lat":43.2811,"lon":5.37829,"is_reserved":false,"is_disabled":false,"rental_uris":{"android":"levelo://app?vid=7d5f7c11-6bca-4447-bc09-285ec976854a","ios":"levelo://app?vid=7d5f7c11-6bca-4447-bc09-285ec976854a"},"vehicle_type_id":"4","last_reported":1750885786,"current_range_meters":8400,"station_id":"ce4bha12rcd13ifvqee0","pricing_plan_id":"cebpf4jnsgd1na2vs0mg"},{"bike_id":"67a5051a-b32e-408a-8389-c22b54eb81f6","system_id":"levelo_inurba_marseille","lat":43.32959,"lon":5.45637,"is_reserved":false,"is_disabled":false,"rental_uris":{"android":"levelo://app?vid=67a5051a-b32e-408a-8389-c22b54eb81f6","ios":"levelo://app?vid=67a5051a-b32e-408a-8389-c22b54eb81f6"},"vehicle_type_id":"4","last_reported":1750885786,"current_range_meters":8800,"station_id":"","pricing_plan_id":"cebpf4jnsgd1na2vs0mg"},{"bike_id":"2915a83b-af1f-439c-8a6f-970fd5cdb1ab","system_id":"levelo_inurba_marseille","lat":43.30896,"lon":5.39675,"is_reserved":false,"is_disabled":false,"rental_uris":{"android":"levelo://app?vid=2915a83b-af1f-439c-8a6f-970fd5cdb1ab","ios":"levelo://app?vid=2915a83b-af1f-439c-8a6f-970fd5cdb1ab"},"vehicle_type_id":"4","last_reported":1750885786,"current_range_meters":8800,"station_id":"ce4bh012rcd13ifvqcv0","pricing_plan_id":"cebpf4jnsgd1na2vs0mg"},{"bike_id":"a990f38d-40d1-481c-bacf-cae3972dc749","system_id":"levelo_inurba_marseille","lat":43.28368,"lon":5.38625,"is_reserved":false,"is_disabled":false,"rental_uris":{"android":"levelo://app?vid=a990f38d-40d1-481c-bacf-cae3972dc749","ios":"levelo://app?vid=a990f38d-40d1-481c-bacf-cae3972dc749"},"vehicle_type_id":"4","last_reported":1750885786,"current_range_meters":8800,"station_id":"ce4bh492rcd13ifvqdvg","pricing_plan_id":"cebpf4jnsgd1na2vs0mg"},{"bike_id":"dbfb2b4d-f467-42b8-bdec-0c1e515fa89f","system_id":"levelo_inurba_marseille","lat":43.29889,"lon":5.43641,"is_reserved":false,"is_disabled":false,"rental_uris":{"android":"levelo://app?vid=dbfb2b4d-f467-42b8-bdec-0c1e515fa89f","ios":"levelo://app?vid=dbfb2b4d-f467-42b8-bdec-0c1e515fa89f"},"vehicle_type_id":"4","last_reported":1750885786,"current_range_meters":8800,"station_id":"ce4bhpp2rcd13ifvqhfg","pricing_plan_id":"cebpf4jnsgd1na2vs0mg"},{"bike_id":"e8081119-6f29-4c8d-b7c1-4ee6e7284726","system_id":"levelo_inurba_marseille","lat":43.23194,"lon":5.3555,"is_reserved":false,"is_disabled":false,"rental_uris":{"android":"levelo://app?vid=e8081119-6f29-4c8d-b7c1-4ee6e7284726","ios":"levelo://app?vid=e8081119-6f29-4c8d-b7c1-4ee6e7284726"},"vehicle_type_id":"4","last_reported":1750885786,"current_range_meters":8800,"station_id":"ce4bhu92rcd13ifvqi70","pricing_plan_id":"cebpf4jnsgd1na2vs0mg"},{"bike_id":"51b217be-9488-41c1-b083-6d728251b280","system_id":"levelo_inurba_marseille","lat":43.243305,"lon":5.368807,"is_reserved":false,"is_disabled":false,"rental_uris":{"android":"levelo://app?vid=51b217be-9488-41c1-b083-6d728251b280","ios":"levelo://app?vid=51b217be-9488-41c1-b083-6d728251b280"},"vehicle_type_id":"4","last_reported":1750885786,"current_range_meters":9200,"station_id":"","pricing_plan_id":"cebpf4jnsgd1na2vs0mg"},{"bike_id":"c6089291-cbb8-4184-84a4-f03dfcf89ae3","system_id":"levelo_inurba_marseille","lat":43.31373,"lon":5.38492,"is_reserved":false,"is_disabled":false,"rental_uris":{"android":"levelo://app?vid=c6089291-cbb8-4184-84a4-f03dfcf89ae3","ios":"levelo://app?vid=c6089291-cbb8-4184-84a4-f03dfcf89ae3"},"vehicle_type_id":"4","last_reported":1750885786,"current_range_meters":9200,"station_id":"ce4bgt92rcd13ifvqcf0","pricing_plan_id":"cebpf4jnsgd1na2vs0mg"},{"bike_id":"c70284a7-a187-47d6-bd12-f2144f2aca60","system_id":"levelo_inurba_marseille","lat":43.30636,"lon":5.4007,"is_reserved":false,"is_disabled":false,"rental_uris":{"android":"levelo://app?vid=c70284a7-a187-47d6-bd12-f2144f2aca60","ios":"levelo://app?vid=c70284a7-a187-47d6-bd12-f2144f2aca60"},"vehicle_type_id":"4","last_reported":1750885786,"current_range_meters":9200,"station_id":"ce4bh112rcd13ifvqda0","pricing_plan_id":"cebpf4jnsgd1na2vs0mg"},{"bike_id":"993a79c5-0f46-4aec-888b-2e763c865b17","system_id":"levelo_inurba_marseille","lat":43.28459,"lon":5.35885,"is_reserved":false,"is_disabled":false,"rental_uris":{"android":"levelo://app?vid=993a79c5-0f46-4aec-888b-2e763c865b17","ios":"levelo://app?vid=993a79c5-0f46-4aec-888b-2e763c865b17"},"vehicle_type_id":"4","last_reported":1750885786,"current_range_meters":9200,"station_id":"ce4bhah2rcd13ifvqei0","pricing_plan_id":"cebpf4jnsgd1na2vs0mg"},{"bike_id":"35b14479-4a4d-4383-83de-c7fea66894b3","system_id":"levelo_inurba_marseille","lat":43.2991,"lon":5.43678,"is_reserved":false,"is_disabled":false,"rental_uris":{"android":"levelo://app?vid=35b14479-4a4d-4383-83de-c7fea66894b3","ios":"levelo://app?vid=35b14479-4a4d-4383-83de-c7fea66894b3"},"vehicle_type_id":"4","last_reported":1750885786,"current_range_meters":9200,"station_id":"ce4bhpp2rcd13ifvqhfg","pricing_plan_id":"cebpf4jnsgd1na2vs0mg"},{"bike_id":"553167ae-a0f9-45ce-96b7-ee839f0686a7","system_id":"levelo_inurba_marseille","lat":43.31561,"lon":5.39717,"is_reserved":false,"is_disabled":false,"rental_uris":{"android":"levelo://app?vid=553167ae-a0f9-45ce-96b7-ee839f0686a7","ios":"levelo://app?vid=553167ae-a0f9-45ce-96b7-ee839f0686a7"},"vehicle_type_id":"4","last_reported":1750885786,"current_range_meters":9600,"station_id":"","pricing_plan_id":"cebpf4jnsgd1na2vs0mg"},{"bike_id":"93ca9cdf-2146-46c0-aa6f-ba360ed67e83","system_id":"levelo_inurba_marseille","lat":43.30531,"lon":5.38419,"is_reserved":false,"is_disabled":false,"rental_uris":{"android":"levelo://app?vid=93ca9cdf-2146-46c0-aa6f-ba360ed67e83","ios":"levelo://app?vid=93ca9cdf-2146-46c0-aa6f-ba360ed67e83"},"vehicle_type_id":"4","last_reported":1750885786,"current_range_meters":9600,"station_id":"ce4bgg92rcd13ifvqb30","pricing_plan_id":"cebpf4jnsgd1na2vs0mg"},{"bike_id":"eee07a10-4c96-4c6a-81c0-88d6c1d341c7","system_id":"levelo_inurba_marseille","lat":43.29282,"lon":5.40114,"is_reserved":false,"is_disabled":false,"rental_uris":{"android":"levelo://app?vid=eee07a10-4c96-4c6a-81c0-88d6c1d341c7","ios":"levelo://app?vid=eee07a10-4c96-4c6a-81c0-88d6c1d341c7"},"vehicle_type_id":"4","last_reported":1750885786,"current_range_meters":9600,"station_id":"ce4bh312rcd13ifvqdk0","pricing_plan_id":"cebpf4jnsgd1na2vs0mg"},{"bike_id":"af112b62-19de-41d4-b8d7-e14d0172315d","system_id":"levelo_inurba_marseille","lat":43.32697,"lon":5.39221,"is_reserved":false,"is_disabled":false,"rental_uris":{"android":"levelo://app?vid=af112b62-19de-41d4-b8d7-e14d0172315d","ios":"levelo://app?vid=af112b62-19de-41d4-b8d7-e14d0172315d"},"vehicle_type_id":"4","last_reported":1750885786,"current_range_meters":10000,"station_id":"","pricing_plan_id":"cebpf4jnsgd1na2vs0mg"},{"bike_id":"4124c10f-b5c1-4100-9e8c-f258d82c306e","system_id":"levelo_inurba_marseille","lat":43.31685,"lon":5.40473,"is_reserved":false,"is_disabled":false,"rental_uris":{"android":"levelo://app?vid=4124c10f-b5c1-4100-9e8c-f258d82c306e","ios":"levelo://app?vid=4124c10f-b5c1-4100-9e8c-f258d82c306e"},"vehicle_type_id":"4","last_reported":1750885786,"current_range_meters":10000,"station_id":"ce4bh012rcd13ifvqd00","pricing_plan_id":"cebpf4jnsgd1na2vs0mg"},{"bike_id":"0b654056-f800-458a-a59d-2c8117ddec2c","system_id":"levelo_inurba_marseille","lat":43.30133,"lon":5.39861,"is_reserved":false,"is_disabled":false,"rental_uris":{"android":"levelo://app?vid=0b654056-f800-458a-a59d-2c8117ddec2c","ios":"levelo://app?vid=0b654056-f800-458a-a59d-2c8117ddec2c"},"vehicle_type_id":"4","last_reported":1750885786,"current_range_meters":10000,"station_id":"ce4bh0h2rcd13ifvqd40","pricing_plan_id":"cebpf4jnsgd1na2vs0mg"},{"bike_id":"70c99990-dc29-4ed1-b5f2-987b729cbef7","system_id":"levelo_inurba_marseille","lat":43.29256,"lon":5.40903,"is_reserved":false,"is_disabled":false,"rental_uris":{"android":"levelo://app?vid=70c99990-dc29-4ed1-b5f2-987b729cbef7","ios":"levelo://app?vid=70c99990-dc29-4ed1-b5f2-987b729cbef7"},"vehicle_type_id":"4","last_reported":1750885786,"current_range_meters":10000,"station_id":"ce4bh192rcd13ifvqdc0","pricing_plan_id":"cebpf4jnsgd1na2vs0mg"},{"bike_id":"cbe28df8-12c9-4ec7-98f2-1eea80417d1c","system_id":"levelo_inurba_marseille","lat":43.26678,"lon":5.38268,"is_reserved":false,"is_disabled":false,"rental_uris":{"android":"levelo://app?vid=cbe28df8-12c9-4ec7-98f2-1eea80417d1c","ios":"levelo://app?vid=cbe28df8-12c9-4ec7-98f2-1eea80417d1c"},"vehicle_type_id":"4","last_reported":1750885786,"current_range_meters":10000,"station_id":"ce4bhg92rcd13ifvqf90","pricing_plan_id":"cebpf4jnsgd1na2vs0mg"},{"bike_id":"3b937622-e708-4c9d-8222-7806c8e40e20","system_id":"levelo_inurba_marseille","lat":43.287376,"lon":5.400397,"is_reserved":false,"is_disabled":false,"rental_uris":{"android":"levelo://app?vid=3b937622-e708-4c9d-8222-7806c8e40e20","ios":"levelo://app?vid=3b937622-e708-4c9d-8222-7806c8e40e20"},"vehicle_type_id":"4","last_reported":1750885786,"current_range_meters":10000,"station_id":"ce4bho92rcd13ifvqh3g","pricing_plan_id":"cebpf4jnsgd1na2vs0mg"},{"bike_id":"85aebb63-1277-49af-91e5-22f2d655e266","system_id":"levelo_inurba_marseille","lat":43.29888,"lon":5.43689,"is_reserved":false,"is_disabled":false,"rental_uris":{"android":"levelo://app?vid=85aebb63-1277-49af-91e5-22f2d655e266","ios":"levelo://app?vid=85aebb63-1277-49af-91e5-22f2d655e266"},"vehicle_type_id":"4","last_reported":1750885786,"current_range_meters":10000,"station_id":"ce4bhpp2rcd13ifvqhfg","pricing_plan_id":"cebpf4jnsgd1na2vs0mg"},{"bike_id":"23a576b0-f308-4af9-a856-c356c821e9fe","system_id":"levelo_inurba_marseille","lat":43.25158,"lon":5.40654,"is_reserved":false,"is_disabled":false,"rental_uris":{"android":"levelo://app?vid=23a576b0-f308-4af9-a856-c356c821e9fe","ios":"levelo://app?vid=23a576b0-f308-4af9-a856-c356c821e9fe"},"vehicle_type_id":"4","last_reported":1750885786,"current_range_meters":10800,"station_id":"","pricing_plan_id":"cebpf4jnsgd1na2vs0mg"},{"bike_id":"a9d25cad-d480-4c75-aec5-3969f1a4e6c7","system_id":"levelo_inurba_marseille","lat":43.329301,"lon":5.390073,"is_reserved":false,"is_disabled":false,"rental_uris":{"android":"levelo://app?vid=a9d25cad-d480-4c75-aec5-3969f1a4e6c7","ios":"levelo://app?vid=a9d25cad-d480-4c75-aec5-3969f1a4e6c7"},"vehicle_type_id":"4","last_reported":1750885786,"current_range_meters":10800,"station_id":"","pricing_plan_id":"cebpf4jnsgd1na2vs0mg"},{"bike_id":"83de8c85-d50e-4c29-83d8-c247123db0e3","system_id":"levelo_inurba_marseille","lat":43.31119,"lon":5.37773,"is_reserved":false,"is_disabled":false,"rental_uris":{"android":"levelo://app?vid=83de8c85-d50e-4c29-83d8-c247123db0e3","ios":"levelo://app?vid=83de8c85-d50e-4c29-83d8-c247123db0e3"},"vehicle_type_id":"4","last_reported":1750885786,"current_range_meters":10800,"station_id":"ce4bgt92rcd13ifvqcg0","pricing_plan_id":"cebpf4jnsgd1na2vs0mg"},{"bike_id":"d010fa69-eed7-415e-bda4-8ccba58cfa26","system_id":"levelo_inurba_marseille","lat":43.30318,"lon":5.40443,"is_reserved":false,"is_disabled":false,"rental_uris":{"android":"levelo://app?vid=d010fa69-eed7-415e-bda4-8ccba58cfa26","ios":"levelo://app?vid=d010fa69-eed7-415e-bda4-8ccba58cfa26"},"vehicle_type_id":"4","last_reported":1750885786,"current_range_meters":10800,"station_id":"ce4bh012rcd13ifvqd10","pricing_plan_id":"cebpf4jnsgd1na2vs0mg"},{"bike_id":"7cb5840b-7261-48d0-8b77-8a8f139f4134","system_id":"levelo_inurba_marseille","lat":43.28842,"lon":5.39319,"is_reserved":false,"is_disabled":false,"rental_uris":{"android":"levelo://app?vid=7cb5840b-7261-48d0-8b77-8a8f139f4134","ios":"levelo://app?vid=7cb5840b-7261-48d0-8b77-8a8f139f4134"},"vehicle_type_id":"4","last_reported":1750885786,"current_range_meters":10800,"station_id":"ce4bh2p2rcd13ifvqdi0","pricing_plan_id":"cebpf4jnsgd1na2vs0mg"},{"bike_id":"17995820-01e3-4cd2-982d-5095ab05cedb","system_id":"levelo_inurba_marseille","lat":43.24806,"lon":5.37453,"is_reserved":false,"is_disabled":false,"rental_uris":{"android":"levelo://app?vid=17995820-01e3-4cd2-982d-5095ab05cedb","ios":"levelo://app?vid=17995820-01e3-4cd2-982d-5095ab05cedb"},"vehicle_type_id":"4","last_reported":1750885786,"current_range_meters":10800,"station_id":"ce4bhgh2rcd13ifvqfb0","pricing_plan_id":"cebpf4jnsgd1na2vs0mg"},{"bike_id":"451696b7-cde8-417f-918c-5e1840f4b90e","system_id":"levelo_inurba_marseille","lat":43.2843,"lon":5.39175,"is_reserved":false,"is_disabled":false,"rental_uris":{"android":"levelo://app?vid=451696b7-cde8-417f-918c-5e1840f4b90e","ios":"levelo://app?vid=451696b7-cde8-417f-918c-5e1840f4b90e"},"vehicle_type_id":"4","last_reported":1750885786,"current_range_meters":10800,"station_id":"ce4bhoh2rcd13ifvqh5g","pricing_plan_id":"cebpf4jnsgd1na2vs0mg"},{"bike_id":"05067616-1200-4c06-a418-47a79104c086","system_id":"levelo_inurba_marseille","lat":43.32038,"lon":5.41565,"is_reserved":false,"is_disabled":false,"rental_uris":{"android":"levelo://app?vid=05067616-1200-4c06-a418-47a79104c086","ios":"levelo://app?vid=05067616-1200-4c06-a418-47a79104c086"},"vehicle_type_id":"4","last_reported":1750885786,"current_range_meters":10800,"station_id":"ce4bhq92rcd13ifvqhkg","pricing_plan_id":"cebpf4jnsgd1na2vs0mg"},{"bike_id":"5eee8925-0941-460b-a942-18fcb70bac7c","system_id":"levelo_inurba_marseille","lat":43.27256,"lon":5.40054,"is_reserved":false,"is_disabled":false,"rental_uris":{"android":"levelo://app?vid=5eee8925-0941-460b-a942-18fcb70bac7c","ios":"levelo://app?vid=5eee8925-0941-460b-a942-18fcb70bac7c"},"vehicle_type_id":"4","last_reported":1750885786,"current_range_meters":11200,"station_id":"","pricing_plan_id":"cebpf4jnsgd1na2vs0mg"},{"bike_id":"54063075-307e-4f27-9061-3d26bc2b8a29","system_id":"levelo_inurba_marseille","lat":43.26228,"lon":5.4045,"is_reserved":false,"is_disabled":false,"rental_uris":{"android":"levelo://app?vid=54063075-307e-4f27-9061-3d26bc2b8a29","ios":"levelo://app?vid=54063075-307e-4f27-9061-3d26bc2b8a29"},"vehicle_type_id":"4","last_reported":1750885786,"current_range_meters":11200,"station_id":"ce4bhmh2rcd13ifvqgmg","pricing_plan_id":"cebpf4jnsgd1na2vs0mg"},{"bike_id":"2ee7af20-0e07-411f-aec7-408ce75edff5","system_id":"levelo_inurba_marseille","lat":43.2871,"lon":5.39993,"is_reserved":false,"is_disabled":false,"rental_uris":{"android":"levelo://app?vid=2ee7af20-0e07-411f-aec7-408ce75edff5","ios":"levelo://app?vid=2ee7af20-0e07-411f-aec7-408ce75edff5"},"vehicle_type_id":"4","last_reported":1750885786,"current_range_meters":11200,"station_id":"ce4bho92rcd13ifvqh3g","pricing_plan_id":"cebpf4jnsgd1na2vs0mg"},{"bike_id":"e143f879-3707-489f-8884-359dbfc8a9ad","system_id":"levelo_inurba_marseille","lat":43.33597,"lon":5.41037,"is_reserved":false,"is_disabled":false,"rental_uris":{"android":"levelo://app?vid=e143f879-3707-489f-8884-359dbfc8a9ad","ios":"levelo://app?vid=e143f879-3707-489f-8884-359dbfc8a9ad"},"vehicle_type_id":"4","last_reported":1750885786,"current_range_meters":11200,"station_id":"ce4bhqh2rcd13ifvqhmg","pricing_plan_id":"cebpf4jnsgd1na2vs0mg"},{"bike_id":"441e2f39-7054-4744-894b-72ac8474531d","system_id":"levelo_inurba_marseille","lat":43.21183,"lon":5.35074,"is_reserved":false,"is_disabled":false,"rental_uris":{"android":"levelo://app?vid=441e2f39-7054-4744-894b-72ac8474531d","ios":"levelo://app?vid=441e2f39-7054-4744-894b-72ac8474531d"},"vehicle_type_id":"4","last_reported":1750885786,"current_range_meters":11200,"station_id":"st_cvj6sg6p6f1abm77japg","pricing_plan_id":"cebpf4jnsgd1na2vs0mg"},{"bike_id":"26a14eba-87a9-47b8-9607-30bd0042d428","system_id":"levelo_inurba_marseille","lat":43.3146,"lon":5.39435,"is_reserved":false,"is_disabled":false,"rental_uris":{"android":"levelo://app?vid=26a14eba-87a9-47b8-9607-30bd0042d428","ios":"levelo://app?vid=26a14eba-87a9-47b8-9607-30bd0042d428"},"vehicle_type_id":"4","last_reported":1750885786,"current_range_meters":11600,"station_id":"","pricing_plan_id":"cebpf4jnsgd1na2vs0mg"},{"bike_id":"d1a8b8e7-5364-4067-acbb-f313e71cedd0","system_id":"levelo_inurba_marseille","lat":43.30307,"lon":5.36896,"is_reserved":false,"is_disabled":false,"rental_uris":{"android":"levelo://app?vid=d1a8b8e7-5364-4067-acbb-f313e71cedd0","ios":"levelo://app?vid=d1a8b8e7-5364-4067-acbb-f313e71cedd0"},"vehicle_type_id":"4","last_reported":1750885786,"current_range_meters":11600,"station_id":"ce4bgqh2rcd13ifvqc5g","pricing_plan_id":"cebpf4jnsgd1na2vs0mg"},{"bike_id":"00e41c96-7d6e-44f1-9e72-7a92f5d48c06","system_id":"levelo_inurba_marseille","lat":43.30892,"lon":5.3719,"is_reserved":false,"is_disabled":false,"rental_uris":{"android":"levelo://app?vid=00e41c96-7d6e-44f1-9e72-7a92f5d48c06","ios":"levelo://app?vid=00e41c96-7d6e-44f1-9e72-7a92f5d48c06"},"vehicle_type_id":"4","last_reported":1750885786,"current_range_meters":11600,"station_id":"ce4bguh2rcd13ifvqckg","pricing_plan_id":"cebpf4jnsgd1na2vs0mg"},{"bike_id":"331b64e2-4162-48fa-b3c3-0521380b0f32","system_id":"levelo_inurba_marseille","lat":43.30882,"lon":5.39643,"is_reserved":false,"is_disabled":false,"rental_uris":{"android":"levelo://app?vid=331b64e2-4162-48fa-b3c3-0521380b0f32","ios":"levelo://app?vid=331b64e2-4162-48fa-b3c3-0521380b0f32"},"vehicle_type_id":"4","last_reported":1750885786,"current_range_meters":11600,"station_id":"ce4bh012rcd13ifvqcv0","pricing_plan_id":"cebpf4jnsgd1na2vs0mg"},{"bike_id":"8d88d68b-e4da-4c26-b2c4-05038f10b551","system_id":"levelo_inurba_marseille","lat":43.288089,"lon":5.392483,"is_reserved":false,"is_disabled":false,"rental_uris":{"android":"levelo://app?vid=8d88d68b-e4da-4c26-b2c4-05038f10b551","ios":"levelo://app?vid=8d88d68b-e4da-4c26-b2c4-05038f10b551"},"vehicle_type_id":"4","last_reported":1750885786,"current_range_meters":11600,"station_id":"ce4bh2p2rcd13ifvqdi0","pricing_plan_id":"cebpf4jnsgd1na2vs0mg"},{"bike_id":"ed9848e4-6bfb-433c-a169-f0b048bf84e0","system_id":"levelo_inurba_marseille","lat":43.284707,"lon":5.358986,"is_reserved":false,"is_disabled":false,"rental_uris":{"android":"levelo://app?vid=ed9848e4-6bfb-433c-a169-f0b048bf84e0","ios":"levelo://app?vid=ed9848e4-6bfb-433c-a169-f0b048bf84e0"},"vehicle_type_id":"4","last_reported":1750885786,"current_range_meters":11600,"station_id":"ce4bhah2rcd13ifvqei0","pricing_plan_id":"cebpf4jnsgd1na2vs0mg"},{"bike_id":"2c164c82-b057-47a1-b1b1-6990db82a18a","system_id":"levelo_inurba_marseille","lat":43.25484,"lon":5.37653,"is_reserved":false,"is_disabled":false,"rental_uris":{"android":"levelo://app?vid=2c164c82-b057-47a1-b1b1-6990db82a18a","ios":"levelo://app?vid=2c164c82-b057-47a1-b1b1-6990db82a18a"},"vehicle_type_id":"4","last_reported":1750885786,"current_range_meters":11600,"station_id":"ce4bhh12rcd13ifvqff0","pricing_plan_id":"cebpf4jnsgd1na2vs0mg"},{"bike_id":"d695cf0c-74ca-481e-b9ba-09018c4ecb42","system_id":"levelo_inurba_marseille","lat":43.24663,"lon":5.3816,"is_reserved":false,"is_disabled":false,"rental_uris":{"android":"levelo://app?vid=d695cf0c-74ca-481e-b9ba-09018c4ecb42","ios":"levelo://app?vid=d695cf0c-74ca-481e-b9ba-09018c4ecb42"},"vehicle_type_id":"4","last_reported":1750885786,"current_range_meters":11600,"station_id":"ce4bhih2rcd13ifvqfr0","pricing_plan_id":"cebpf4jnsgd1na2vs0mg"},{"bike_id":"8dfc8bd6-ce60-41c0-acf4-fbdac92663d9","system_id":"levelo_inurba_marseille","lat":43.231878,"lon":5.35553,"is_reserved":false,"is_disabled":false,"rental_uris":{"android":"levelo://app?vid=8dfc8bd6-ce60-41c0-acf4-fbdac92663d9","ios":"levelo://app?vid=8dfc8bd6-ce60-41c0-acf4-fbdac92663d9"},"vehicle_type_id":"4","last_reported":1750885786,"current_range_meters":11600,"station_id":"ce4bhu92rcd13ifvqi70","pricing_plan_id":"cebpf4jnsgd1na2vs0mg"},{"bike_id":"727d5848-308a-4148-8e6d-6b74dae7761d","system_id":"levelo_inurba_marseille","lat":43.29033,"lon":5.39962,"is_reserved":false,"is_disabled":false,"rental_uris":{"android":"levelo://app?vid=727d5848-308a-4148-8e6d-6b74dae7761d","ios":"levelo://app?vid=727d5848-308a-4148-8e6d-6b74dae7761d"},"vehicle_type_id":"4","last_reported":1750885786,"current_range_meters":12000,"station_id":"ce4bh392rcd13ifvqdm0","pricing_plan_id":"cebpf4jnsgd1na2vs0mg"},{"bike_id":"e84de95a-f583-4156-9930-14f69f108f4c","system_id":"levelo_inurba_marseille","lat":43.27197,"lon":5.41025,"is_reserved":false,"is_disabled":false,"rental_uris":{"android":"levelo://app?vid=e84de95a-f583-4156-9930-14f69f108f4c","ios":"levelo://app?vid=e84de95a-f583-4156-9930-14f69f108f4c"},"vehicle_type_id":"4","last_reported":1750885786,"current_range_meters":12000,"station_id":"ce4bhl12rcd13ifvqgf0","pricing_plan_id":"cebpf4jnsgd1na2vs0mg"},{"bike_id":"8782709b-5b05-4343-8f19-00315e904241","system_id":"levelo_inurba_marseille","lat":43.31082,"lon":5.42429,"is_reserved":false,"is_disabled":false,"rental_uris":{"android":"levelo://app?vid=8782709b-5b05-4343-8f19-00315e904241","ios":"levelo://app?vid=8782709b-5b05-4343-8f19-00315e904241"},"vehicle_type_id":"4","last_reported":1750885786,"current_range_meters":12000,"station_id":"ce4bhp92rcd13ifvqhag","pricing_plan_id":"cebpf4jnsgd1na2vs0mg"},{"bike_id":"e2f5b300-4a63-4778-aada-c29a8a0ea1e8","system_id":"levelo_inurba_marseille","lat":43.32783,"lon":5.39211,"is_reserved":false,"is_disabled":false,"rental_uris":{"android":"levelo://app?vid=e2f5b300-4a63-4778-aada-c29a8a0ea1e8","ios":"levelo://app?vid=e2f5b300-4a63-4778-aada-c29a8a0ea1e8"},"vehicle_type_id":"4","last_reported":1750885786,"current_range_meters":12400,"station_id":"","pricing_plan_id":"cebpf4jnsgd1na2vs0mg"},{"bike_id":"c98c1b2d-edef-4d91-8795-cb89b5a888ab","system_id":"levelo_inurba_marseille","lat":43.29796,"lon":5.40406,"is_reserved":false,"is_disabled":false,"rental_uris":{"android":"levelo://app?vid=c98c1b2d-edef-4d91-8795-cb89b5a888ab","ios":"levelo://app?vid=c98c1b2d-edef-4d91-8795-cb89b5a888ab"},"vehicle_type_id":"4","last_reported":1750885786,"current_range_meters":12400,"station_id":"ce4bh112rcd13ifvqd90","pricing_plan_id":"cebpf4jnsgd1na2vs0mg"},{"bike_id":"773195e4-395e-443c-be8c-bb46422eac03","system_id":"levelo_inurba_marseille","lat":43.25482,"lon":5.37665,"is_reserved":false,"is_disabled":false,"rental_uris":{"android":"levelo://app?vid=773195e4-395e-443c-be8c-bb46422eac03","ios":"levelo://app?vid=773195e4-395e-443c-be8c-bb46422eac03"},"vehicle_type_id":"4","last_reported":1750885786,"current_range_meters":12400,"station_id":"ce4bhh12rcd13ifvqff0","pricing_plan_id":"cebpf4jnsgd1na2vs0mg"},{"bike_id":"16288e10-12db-45c2-8d5b-ba7444c60d06","system_id":"levelo_inurba_marseille","lat":43.26789,"lon":5.39405,"is_reserved":false,"is_disabled":false,"rental_uris":{"android":"levelo://app?vid=16288e10-12db-45c2-8d5b-ba7444c60d06","ios":"levelo://app?vid=16288e10-12db-45c2-8d5b-ba7444c60d06"},"vehicle_type_id":"4","last_reported":1750885786,"current_range_meters":12400,"station_id":"ce4bhh12rcd13ifvqfg0","pricing_plan_id":"cebpf4jnsgd1na2vs0mg"},{"bike_id":"4f9929d1-bcc4-4432-9ea5-264827c7f7de","system_id":"levelo_inurba_marseille","lat":43.32478,"lon":5.36566,"is_reserved":false,"is_disabled":false,"rental_uris":{"android":"levelo://app?vid=4f9929d1-bcc4-4432-9ea5-264827c7f7de","ios":"levelo://app?vid=4f9929d1-bcc4-4432-9ea5-264827c7f7de"},"vehicle_type_id":"4","last_reported":1750885786,"current_range_meters":12400,"station_id":"ce4bhs12rcd13ifvqhvg","pricing_plan_id":"cebpf4jnsgd1na2vs0mg"},{"bike_id":"5b0059f2-5a2a-41ce-b903-1f956adfdd24","system_id":"levelo_inurba_marseille","lat":43.29792,"lon":5.4357,"is_reserved":false,"is_disabled":false,"rental_uris":{"android":"levelo://app?vid=5b0059f2-5a2a-41ce-b903-1f956adfdd24","ios":"levelo://app?vid=5b0059f2-5a2a-41ce-b903-1f956adfdd24"},"vehicle_type_id":"4","last_reported":1750885786,"current_range_meters":12800,"station_id":"","pricing_plan_id":"cebpf4jnsgd1na2vs0mg"},{"bike_id":"3f7022a0-baae-4020-a96d-4737fb3f1d0c","system_id":"levelo_inurba_marseille","lat":43.29085,"lon":5.39986,"is_reserved":false,"is_disabled":false,"rental_uris":{"android":"levelo://app?vid=3f7022a0-baae-4020-a96d-4737fb3f1d0c","ios":"levelo://app?vid=3f7022a0-baae-4020-a96d-4737fb3f1d0c"},"vehicle_type_id":"4","last_reported":1750885786,"current_range_meters":12800,"station_id":"","pricing_plan_id":"cebpf4jnsgd1na2vs0mg"},{"bike_id":"fd8c18c4-d29e-42b5-a3d5-d1f93e7ea541","system_id":"levelo_inurba_marseille","lat":43.31314,"lon":5.39697,"is_reserved":false,"is_disabled":false,"rental_uris":{"android":"levelo://app?vid=fd8c18c4-d29e-42b5-a3d5-d1f93e7ea541","ios":"levelo://app?vid=fd8c18c4-d29e-42b5-a3d5-d1f93e7ea541"},"vehicle_type_id":"4","last_reported":1750885786,"current_range_meters":12800,"station_id":"ce4bgvp2rcd13ifvqcu0","pricing_plan_id":"cebpf4jnsgd1na2vs0mg"},{"bike_id":"095ae29c-108b-47ac-992a-df21c5af342a","system_id":"levelo_inurba_marseille","lat":43.31698,"lon":5.4045,"is_reserved":false,"is_disabled":false,"rental_uris":{"android":"levelo://app?vid=095ae29c-108b-47ac-992a-df21c5af342a","ios":"levelo://app?vid=095ae29c-108b-47ac-992a-df21c5af342a"},"vehicle_type_id":"4","last_reported":1750885786,"current_range_meters":12800,"station_id":"ce4bh012rcd13ifvqd00","pricing_plan_id":"cebpf4jnsgd1na2vs0mg"},{"bike_id":"9d016fa1-886c-48f3-8115-249152c54e2a","system_id":"levelo_inurba_marseille","lat":43.28852,"lon":5.39318,"is_reserved":false,"is_disabled":false,"rental_uris":{"android":"levelo://app?vid=9d016fa1-886c-48f3-8115-249152c54e2a","ios":"levelo://app?vid=9d016fa1-886c-48f3-8115-249152c54e2a"},"vehicle_type_id":"4","last_reported":1750885786,"current_range_meters":12800,"station_id":"ce4bh2p2rcd13ifvqdi0","pricing_plan_id":"cebpf4jnsgd1na2vs0mg"},{"bike_id":"781b9f6b-4237-4cf5-876c-5a8958dd9b26","system_id":"levelo_inurba_marseille","lat":43.29532,"lon":5.39029,"is_reserved":false,"is_disabled":false,"rental_uris":{"android":"levelo://app?vid=781b9f6b-4237-4cf5-876c-5a8958dd9b26","ios":"levelo://app?vid=781b9f6b-4237-4cf5-876c-5a8958dd9b26"},"vehicle_type_id":"4","last_reported":1750885786,"current_range_meters":12800,"station_id":"ce4bh3p2rcd13ifvqdp0","pricing_plan_id":"cebpf4jnsgd1na2vs0mg"},{"bike_id":"174de888-f4a5-4fbc-acd9-efd704e1a577","system_id":"levelo_inurba_marseille","lat":43.27683,"lon":5.38878,"is_reserved":false,"is_disabled":false,"rental_uris":{"android":"levelo://app?vid=174de888-f4a5-4fbc-acd9-efd704e1a577","ios":"levelo://app?vid=174de888-f4a5-4fbc-acd9-efd704e1a577"},"vehicle_type_id":"4","last_reported":1750885786,"current_range_meters":13600,"station_id":"","pricing_plan_id":"cebpf4jnsgd1na2vs0mg"},{"bike_id":"86ba9b6f-713d-44a9-9afc-c825a3e588e6","system_id":"levelo_inurba_marseille","lat":43.26027,"lon":5.37549,"is_reserved":false,"is_disabled":false,"rental_uris":{"android":"levelo://app?vid=86ba9b6f-713d-44a9-9afc-c825a3e588e6","ios":"levelo://app?vid=86ba9b6f-713d-44a9-9afc-c825a3e588e6"},"vehicle_type_id":"4","last_reported":1750885786,"current_range_meters":13600,"station_id":"ce4bhgh2rcd13ifvqfa0","pricing_plan_id":"cebpf4jnsgd1na2vs0mg"},{"bike_id":"efabcb35-59bb-4758-8a6c-5665d0efe20c","system_id":"levelo_inurba_marseille","lat":43.23188,"lon":5.35556,"is_reserved":false,"is_disabled":false,"rental_uris":{"android":"levelo://app?vid=efabcb35-59bb-4758-8a6c-5665d0efe20c","ios":"levelo://app?vid=efabcb35-59bb-4758-8a6c-5665d0efe20c"},"vehicle_type_id":"4","last_reported":1750885786,"current_range_meters":13600,"station_id":"ce4bhu92rcd13ifvqi70","pricing_plan_id":"cebpf4jnsgd1na2vs0mg"},{"bike_id":"1507d491-2e58-4878-b5dd-67410ae7f548","system_id":"levelo_inurba_marseille","lat":43.26632,"lon":5.38292,"is_reserved":false,"is_disabled":false,"rental_uris":{"android":"levelo://app?vid=1507d491-2e58-4878-b5dd-67410ae7f548","ios":"levelo://app?vid=1507d491-2e58-4878-b5dd-67410ae7f548"},"vehicle_type_id":"4","last_reported":1750885786,"current_range_meters":14000,"station_id":"","pricing_plan_id":"cebpf4jnsgd1na2vs0mg"},{"bike_id":"6de72933-1e1b-4210-918e-260ebaa8a1d6","system_id":"levelo_inurba_marseille","lat":43.301465,"lon":5.374224,"is_reserved":false,"is_disabled":false,"rental_uris":{"android":"levelo://app?vid=6de72933-1e1b-4210-918e-260ebaa8a1d6","ios":"levelo://app?vid=6de72933-1e1b-4210-918e-260ebaa8a1d6"},"vehicle_type_id":"4","last_reported":1750885786,"current_range_meters":14000,"station_id":"ce4bgi92rcd13ifvqb90","pricing_plan_id":"cebpf4jnsgd1na2vs0mg"},{"bike_id":"4d6658f4-b84c-4066-af22-3348974d22c3","system_id":"levelo_inurba_marseille","lat":43.31117,"lon":5.37773,"is_reserved":false,"is_disabled":false,"rental_uris":{"android":"levelo://app?vid=4d6658f4-b84c-4066-af22-3348974d22c3","ios":"levelo://app?vid=4d6658f4-b84c-4066-af22-3348974d22c3"},"vehicle_type_id":"4","last_reported":1750885786,"current_range_meters":14000,"station_id":"ce4bgt92rcd13ifvqcg0","pricing_plan_id":"cebpf4jnsgd1na2vs0mg"},{"bike_id":"01288e0b-ce4c-4245-9e19-476b750b4d54","system_id":"levelo_inurba_marseille","lat":43.29191,"lon":5.39322,"is_reserved":false,"is_disabled":false,"rental_uris":{"android":"levelo://app?vid=01288e0b-ce4c-4245-9e19-476b750b4d54","ios":"levelo://app?vid=01288e0b-ce4c-4245-9e19-476b750b4d54"},"vehicle_type_id":"4","last_reported":1750885786,"current_range_meters":14000,"station_id":"ce4bh192rcd13ifvqdd0","pricing_plan_id":"cebpf4jnsgd1na2vs0mg"},{"bike_id":"e5546373-4c53-4bc5-a5a1-7b80cd0ec164","system_id":"levelo_inurba_marseille","lat":43.29465,"lon":5.39741,"is_reserved":false,"is_disabled":false,"rental_uris":{"android":"levelo://app?vid=e5546373-4c53-4bc5-a5a1-7b80cd0ec164","ios":"levelo://app?vid=e5546373-4c53-4bc5-a5a1-7b80cd0ec164"},"vehicle_type_id":"4","last_reported":1750885786,"current_range_meters":14000,"station_id":"ce4bh3h2rcd13ifvqdo0","pricing_plan_id":"cebpf4jnsgd1na2vs0mg"},{"bike_id":"16cd3084-e6c2-4434-853a-62bba9b4fe34","system_id":"levelo_inurba_marseille","lat":43.24068,"lon":5.37764,"is_reserved":false,"is_disabled":false,"rental_uris":{"android":"levelo://app?vid=16cd3084-e6c2-4434-853a-62bba9b4fe34","ios":"levelo://app?vid=16cd3084-e6c2-4434-853a-62bba9b4fe34"},"vehicle_type_id":"4","last_reported":1750885786,"current_range_meters":14000,"station_id":"ce4bhnp2rcd13ifvqgvg","pricing_plan_id":"cebpf4jnsgd1na2vs0mg"},{"bike_id":"a0fa9c87-bacd-4c4f-b3ff-a189c0292c16","system_id":"levelo_inurba_marseille","lat":43.28705,"lon":5.39982,"is_reserved":false,"is_disabled":false,"rental_uris":{"android":"levelo://app?vid=a0fa9c87-bacd-4c4f-b3ff-a189c0292c16","ios":"levelo://app?vid=a0fa9c87-bacd-4c4f-b3ff-a189c0292c16"},"vehicle_type_id":"4","last_reported":1750885786,"current_range_meters":14000,"station_id":"ce4bho92rcd13ifvqh3g","pricing_plan_id":"cebpf4jnsgd1na2vs0mg"},{"bike_id":"d5f5bd0f-9033-4216-bca8-d3e4e9b9d21f","system_id":"levelo_inurba_marseille","lat":43.31527,"lon":5.38037,"is_reserved":false,"is_disabled":false,"rental_uris":{"android":"levelo://app?vid=d5f5bd0f-9033-4216-bca8-d3e4e9b9d21f","ios":"levelo://app?vid=d5f5bd0f-9033-4216-bca8-d3e4e9b9d21f"},"vehicle_type_id":"4","last_reported":1750885786,"current_range_meters":14000,"station_id":"ce4bhsp2rcd13ifvqi50","pricing_plan_id":"cebpf4jnsgd1na2vs0mg"},{"bike_id":"6cab99cb-0d00-466e-9784-7b30453c5200","system_id":"levelo_inurba_marseille","lat":43.30308,"lon":5.36883,"is_reserved":false,"is_disabled":false,"rental_uris":{"android":"levelo://app?vid=6cab99cb-0d00-466e-9784-7b30453c5200","ios":"levelo://app?vid=6cab99cb-0d00-466e-9784-7b30453c5200"},"vehicle_type_id":"4","last_reported":1750885786,"current_range_meters":14400,"station_id":"ce4bgqh2rcd13ifvqc5g","pricing_plan_id":"cebpf4jnsgd1na2vs0mg"},{"bike_id":"e377a263-ad3e-49f3-8476-066a4a43ce3a","system_id":"levelo_inurba_marseille","lat":43.31118,"lon":5.37761,"is_reserved":false,"is_disabled":false,"rental_uris":{"android":"levelo://app?vid=e377a263-ad3e-49f3-8476-066a4a43ce3a","ios":"levelo://app?vid=e377a263-ad3e-49f3-8476-066a4a43ce3a"},"vehicle_type_id":"4","last_reported":1750885786,"current_range_meters":14400,"station_id":"ce4bgt92rcd13ifvqcg0","pricing_plan_id":"cebpf4jnsgd1na2vs0mg"},{"bike_id":"06d00a6e-80a9-4dc3-8858-6af76340c7c1","system_id":"levelo_inurba_marseille","lat":43.29242,"lon":5.409,"is_reserved":false,"is_disabled":false,"rental_uris":{"android":"levelo://app?vid=06d00a6e-80a9-4dc3-8858-6af76340c7c1","ios":"levelo://app?vid=06d00a6e-80a9-4dc3-8858-6af76340c7c1"},"vehicle_type_id":"4","last_reported":1750885786,"current_range_meters":14400,"station_id":"ce4bh192rcd13ifvqdc0","pricing_plan_id":"cebpf4jnsgd1na2vs0mg"},{"bike_id":"426ff645-85a7-4777-a31e-ff6b1c9bb8b1","system_id":"levelo_inurba_marseille","lat":43.24997,"lon":5.38926,"is_reserved":false,"is_disabled":false,"rental_uris":{"android":"levelo://app?vid=426ff645-85a7-4777-a31e-ff6b1c9bb8b1","ios":"levelo://app?vid=426ff645-85a7-4777-a31e-ff6b1c9bb8b1"},"vehicle_type_id":"4","last_reported":1750885786,"current_range_meters":14400,"station_id":"ce4bhgp2rcd13ifvqfd0","pricing_plan_id":"cebpf4jnsgd1na2vs0mg"},{"bike_id":"3dcd68e6-fc93-4cc5-a969-7e5a37ba167d","system_id":"levelo_inurba_marseille","lat":43.30604,"lon":5.372217,"is_reserved":false,"is_disabled":false,"rental_uris":{"android":"levelo://app?vid=3dcd68e6-fc93-4cc5-a969-7e5a37ba167d","ios":"levelo://app?vid=3dcd68e6-fc93-4cc5-a969-7e5a37ba167d"},"vehicle_type_id":"4","last_reported":1750885786,"current_range_meters":14800,"station_id":"ce4bgqh2rcd13ifvqc4g","pricing_plan_id":"cebpf4jnsgd1na2vs0mg"},{"bike_id":"d5f84f5f-7963-4cf3-9803-4fddbea117f5","system_id":"levelo_inurba_marseille","lat":43.31703,"lon":5.37766,"is_reserved":false,"is_disabled":false,"rental_uris":{"android":"levelo://app?vid=d5f84f5f-7963-4cf3-9803-4fddbea117f5","ios":"levelo://app?vid=d5f84f5f-7963-4cf3-9803-4fddbea117f5"},"vehicle_type_id":"4","last_reported":1750885786,"current_range_meters":14800,"station_id":"ce4bgth2rcd13ifvqch0","pricing_plan_id":"cebpf4jnsgd1na2vs0mg"},{"bike_id":"6bc2e831-0377-4679-8bfc-f4724d358561","system_id":"levelo_inurba_marseille","lat":43.29445,"lon":5.39733,"is_reserved":false,"is_disabled":false,"rental_uris":{"android":"levelo://app?vid=6bc2e831-0377-4679-8bfc-f4724d358561","ios":"levelo://app?vid=6bc2e831-0377-4679-8bfc-f4724d358561"},"vehicle_type_id":"4","last_reported":1750885786,"current_range_meters":14800,"station_id":"ce4bh3h2rcd13ifvqdo0","pricing_plan_id":"cebpf4jnsgd1na2vs0mg"},{"bike_id":"5ff107fb-d9ab-4209-935b-ea7b17c79014","system_id":"levelo_inurba_marseille","lat":43.23192,"lon":5.39975,"is_reserved":false,"is_disabled":false,"rental_uris":{"android":"levelo://app?vid=5ff107fb-d9ab-4209-935b-ea7b17c79014","ios":"levelo://app?vid=5ff107fb-d9ab-4209-935b-ea7b17c79014"},"vehicle_type_id":"4","last_reported":1750885786,"current_range_meters":14800,"station_id":"ce4bhn12rcd13ifvqgqg","pricing_plan_id":"cebpf4jnsgd1na2vs0mg"},{"bike_id":"4a3b2336-b160-4bb9-9e1d-d6b38a4e252a","system_id":"levelo_inurba_marseille","lat":43.30132,"lon":5.3986,"is_reserved":false,"is_disabled":false,"rental_uris":{"android":"levelo://app?vid=4a3b2336-b160-4bb9-9e1d-d6b38a4e252a","ios":"levelo://app?vid=4a3b2336-b160-4bb9-9e1d-d6b38a4e252a"},"vehicle_type_id":"4","last_reported":1750885786,"current_range_meters":15200,"station_id":"ce4bh0h2rcd13ifvqd40","pricing_plan_id":"cebpf4jnsgd1na2vs0mg"},{"bike_id":"c0fb9f42-0e80-42ac-902b-0ccb87ee79e2","system_id":"levelo_inurba_marseille","lat":43.28107,"lon":5.37834,"is_reserved":false,"is_disabled":false,"rental_uris":{"android":"levelo://app?vid=c0fb9f42-0e80-42ac-902b-0ccb87ee79e2","ios":"levelo://app?vid=c0fb9f42-0e80-42ac-902b-0ccb87ee79e2"},"vehicle_type_id":"4","last_reported":1750885786,"current_range_meters":15200,"station_id":"ce4bha12rcd13ifvqee0","pricing_plan_id":"cebpf4jnsgd1na2vs0mg"},{"bike_id":"3a35f631-e561-4637-9c8a-7567e4ed8912","system_id":"levelo_inurba_marseille","lat":43.27682,"lon":5.38914,"is_reserved":false,"is_disabled":false,"rental_uris":{"android":"levelo://app?vid=3a35f631-e561-4637-9c8a-7567e4ed8912","ios":"levelo://app?vid=3a35f631-e561-4637-9c8a-7567e4ed8912"},"vehicle_type_id":"4","last_reported":1750885786,"current_range_meters":15200,"station_id":"ce4bhi12rcd13ifvqfo0","pricing_plan_id":"cebpf4jnsgd1na2vs0mg"},{"bike_id":"2db5b890-c058-4532-9547-56e223e114f5","system_id":"levelo_inurba_marseille","lat":43.28425,"lon":5.39184,"is_reserved":false,"is_disabled":false,"rental_uris":{"android":"levelo://app?vid=2db5b890-c058-4532-9547-56e223e114f5","ios":"levelo://app?vid=2db5b890-c058-4532-9547-56e223e114f5"},"vehicle_type_id":"4","last_reported":1750885786,"current_range_meters":15200,"station_id":"ce4bhoh2rcd13ifvqh5g","pricing_plan_id":"cebpf4jnsgd1na2vs0mg"},{"bike_id":"f47876d7-9c85-474e-92c5-7a242e08b67c","system_id":"levelo_inurba_marseille","lat":43.30541,"lon":5.37582,"is_reserved":false,"is_disabled":false,"rental_uris":{"android":"levelo://app?vid=f47876d7-9c85-474e-92c5-7a242e08b67c","ios":"levelo://app?vid=f47876d7-9c85-474e-92c5-7a242e08b67c"},"vehicle_type_id":"4","last_reported":1750885786,"current_range_meters":16000,"station_id":"","pricing_plan_id":"cebpf4jnsgd1na2vs0mg"},{"bike_id":"b2b02e0f-ae2e-4d62-b6d1-bbccd31e58d6","system_id":"levelo_inurba_marseille","lat":43.30067,"lon":5.39318,"is_reserved":false,"is_disabled":false,"rental_uris":{"android":"levelo://app?vid=b2b02e0f-ae2e-4d62-b6d1-bbccd31e58d6","ios":"levelo://app?vid=b2b02e0f-ae2e-4d62-b6d1-bbccd31e58d6"},"vehicle_type_id":"4","last_reported":1750885786,"current_range_meters":16000,"station_id":"","pricing_plan_id":"cebpf4jnsgd1na2vs0mg"},{"bike_id":"6e891900-d8a5-4793-b3d3-2f7eaa0d4cc5","system_id":"levelo_inurba_marseille","lat":43.31167,"lon":5.38721,"is_reserved":false,"is_disabled":false,"rental_uris":{"android":"levelo://app?vid=6e891900-d8a5-4793-b3d3-2f7eaa0d4cc5","ios":"levelo://app?vid=6e891900-d8a5-4793-b3d3-2f7eaa0d4cc5"},"vehicle_type_id":"4","last_reported":1750885786,"current_range_meters":16000,"station_id":"ce4bgv12rcd13ifvqcp0","pricing_plan_id":"cebpf4jnsgd1na2vs0mg"},{"bike_id":"390a643e-e987-4e87-95bc-639c6b99971c","system_id":"levelo_inurba_marseille","lat":43.282696,"lon":5.350571,"is_reserved":false,"is_disabled":false,"rental_uris":{"android":"levelo://app?vid=390a643e-e987-4e87-95bc-639c6b99971c","ios":"levelo://app?vid=390a643e-e987-4e87-95bc-639c6b99971c"},"vehicle_type_id":"4","last_reported":1750885786,"current_range_meters":16000,"station_id":"ce4bh112rcd13ifvqda0","pricing_plan_id":"cebpf4jnsgd1na2vs0mg"},{"bike_id":"ddc1f841-8229-44af-88dc-2db91e8b1604","system_id":"levelo_inurba_marseille","lat":43.25492,"lon":5.37642,"is_reserved":false,"is_disabled":false,"rental_uris":{"android":"levelo://app?vid=ddc1f841-8229-44af-88dc-2db91e8b1604","ios":"levelo://app?vid=ddc1f841-8229-44af-88dc-2db91e8b1604"},"vehicle_type_id":"4","last_reported":1750885786,"current_range_meters":16000,"station_id":"ce4bhh12rcd13ifvqff0","pricing_plan_id":"cebpf4jnsgd1na2vs0mg"},{"bike_id":"7c6393eb-d420-454a-af7b-a4d433987214","system_id":"levelo_inurba_marseille","lat":43.25867,"lon":5.39897,"is_reserved":false,"is_disabled":false,"rental_uris":{"android":"levelo://app?vid=7c6393eb-d420-454a-af7b-a4d433987214","ios":"levelo://app?vid=7c6393eb-d420-454a-af7b-a4d433987214"},"vehicle_type_id":"4","last_reported":1750885786,"current_range_meters":16000,"station_id":"ce4bhl92rcd13ifvqghg","pricing_plan_id":"cebpf4jnsgd1na2vs0mg"},{"bike_id":"15b2721a-3664-49e1-9877-261c08daeef5","system_id":"levelo_inurba_marseille","lat":43.21185,"lon":5.35081,"is_reserved":false,"is_disabled":false,"rental_uris":{"android":"levelo://app?vid=15b2721a-3664-49e1-9877-261c08daeef5","ios":"levelo://app?vid=15b2721a-3664-49e1-9877-261c08daeef5"},"vehicle_type_id":"4","last_reported":1750885786,"current_range_meters":16000,"station_id":"st_cvj6sg6p6f1abm77japg","pricing_plan_id":"cebpf4jnsgd1na2vs0mg"},{"bike_id":"de0f7c2b-5974-4035-a240-8ed367c0e3f3","system_id":"levelo_inurba_marseille","lat":43.319641,"lon":5.376275,"is_reserved":false,"is_disabled":false,"rental_uris":{"android":"levelo://app?vid=de0f7c2b-5974-4035-a240-8ed367c0e3f3","ios":"levelo://app?vid=de0f7c2b-5974-4035-a240-8ed367c0e3f3"},"vehicle_type_id":"4","last_reported":1750885786,"current_range_meters":16400,"station_id":"","pricing_plan_id":"cebpf4jnsgd1na2vs0mg"},{"bike_id":"41283710-85f7-468a-86e0-babdcd32cc08","system_id":"levelo_inurba_marseille","lat":43.28347,"lon":5.38114,"is_reserved":false,"is_disabled":false,"rental_uris":{"android":"levelo://app?vid=41283710-85f7-468a-86e0-babdcd32cc08","ios":"levelo://app?vid=41283710-85f7-468a-86e0-babdcd32cc08"},"vehicle_type_id":"4","last_reported":1750885786,"current_range_meters":16400,"station_id":"ce4bh412rcd13ifvqdr0","pricing_plan_id":"cebpf4jnsgd1na2vs0mg"},{"bike_id":"ee9db356-6b1a-43d1-8cd0-12f8f0e5264f","system_id":"levelo_inurba_marseille","lat":43.28371,"lon":5.3862,"is_reserved":false,"is_disabled":false,"rental_uris":{"android":"levelo://app?vid=ee9db356-6b1a-43d1-8cd0-12f8f0e5264f","ios":"levelo://app?vid=ee9db356-6b1a-43d1-8cd0-12f8f0e5264f"},"vehicle_type_id":"4","last_reported":1750885786,"current_range_meters":16400,"station_id":"ce4bh492rcd13ifvqdvg","pricing_plan_id":"cebpf4jnsgd1na2vs0mg"},{"bike_id":"a33aba85-77d2-41b8-9c5e-7033cc6b5195","system_id":"levelo_inurba_marseille","lat":43.25497,"lon":5.3766,"is_reserved":false,"is_disabled":false,"rental_uris":{"android":"levelo://app?vid=a33aba85-77d2-41b8-9c5e-7033cc6b5195","ios":"levelo://app?vid=a33aba85-77d2-41b8-9c5e-7033cc6b5195"},"vehicle_type_id":"4","last_reported":1750885786,"current_range_meters":16400,"station_id":"ce4bhh12rcd13ifvqff0","pricing_plan_id":"cebpf4jnsgd1na2vs0mg"},{"bike_id":"d1529dce-77d5-4b66-9aa3-f57c10bfa692","system_id":"levelo_inurba_marseille","lat":43.27945,"lon":5.41039,"is_reserved":false,"is_disabled":false,"rental_uris":{"android":"levelo://app?vid=d1529dce-77d5-4b66-9aa3-f57c10bfa692","ios":"levelo://app?vid=d1529dce-77d5-4b66-9aa3-f57c10bfa692"},"vehicle_type_id":"4","last_reported":1750885786,"current_range_meters":16400,"station_id":"ce4bhnp2rcd13ifvqh0g","pricing_plan_id":"cebpf4jnsgd1na2vs0mg"},{"bike_id":"70a87e8b-7ad1-4bdf-b181-5e2fc38709cd","system_id":"levelo_inurba_marseille","lat":43.29901,"lon":5.43665,"is_reserved":false,"is_disabled":false,"rental_uris":{"android":"levelo://app?vid=70a87e8b-7ad1-4bdf-b181-5e2fc38709cd","ios":"levelo://app?vid=70a87e8b-7ad1-4bdf-b181-5e2fc38709cd"},"vehicle_type_id":"4","last_reported":1750885786,"current_range_meters":16400,"station_id":"ce4bhpp2rcd13ifvqhfg","pricing_plan_id":"cebpf4jnsgd1na2vs0mg"},{"bike_id":"998f1a71-bcce-4de7-b7f5-6c4a8fe8c657","system_id":"levelo_inurba_marseille","lat":43.31078,"lon":5.38351,"is_reserved":false,"is_disabled":false,"rental_uris":{"android":"levelo://app?vid=998f1a71-bcce-4de7-b7f5-6c4a8fe8c657","ios":"levelo://app?vid=998f1a71-bcce-4de7-b7f5-6c4a8fe8c657"},"vehicle_type_id":"4","last_reported":1750885786,"current_range_meters":16800,"station_id":"ce4bgv92rcd13ifvqcr0","pricing_plan_id":"cebpf4jnsgd1na2vs0mg"},{"bike_id":"b2fddb22-c2d0-4434-a6a7-ab8c451fba61","system_id":"levelo_inurba_marseille","lat":43.29512,"lon":5.39402,"is_reserved":false,"is_disabled":false,"rental_uris":{"android":"levelo://app?vid=b2fddb22-c2d0-4434-a6a7-ab8c451fba61","ios":"levelo://app?vid=b2fddb22-c2d0-4434-a6a7-ab8c451fba61"},"vehicle_type_id":"4","last_reported":1750885786,"current_range_meters":16800,"station_id":"ce4bh292rcd13ifvqdf0","pricing_plan_id":"cebpf4jnsgd1na2vs0mg"},{"bike_id":"86e6ad35-881f-447a-9611-58dea7500649","system_id":"levelo_inurba_marseille","lat":43.27917,"lon":5.3957,"is_reserved":false,"is_disabled":false,"rental_uris":{"android":"levelo://app?vid=86e6ad35-881f-447a-9611-58dea7500649","ios":"levelo://app?vid=86e6ad35-881f-447a-9611-58dea7500649"},"vehicle_type_id":"4","last_reported":1750885786,"current_range_meters":16800,"station_id":"ce4bhf92rcd13ifvqf40","pricing_plan_id":"cebpf4jnsgd1na2vs0mg"},{"bike_id":"6d2671ac-83e9-4fb7-a06d-3b8fad6a032f","system_id":"levelo_inurba_marseille","lat":43.25488,"lon":5.37666,"is_reserved":false,"is_disabled":false,"rental_uris":{"android":"levelo://app?vid=6d2671ac-83e9-4fb7-a06d-3b8fad6a032f","ios":"levelo://app?vid=6d2671ac-83e9-4fb7-a06d-3b8fad6a032f"},"vehicle_type_id":"4","last_reported":1750885786,"current_range_meters":16800,"station_id":"ce4bhh12rcd13ifvqff0","pricing_plan_id":"cebpf4jnsgd1na2vs0mg"},{"bike_id":"7f212f1e-9b22-4ad3-88bb-18d999719345","system_id":"levelo_inurba_marseille","lat":43.21185,"lon":5.35059,"is_reserved":false,"is_disabled":false,"rental_uris":{"android":"levelo://app?vid=7f212f1e-9b22-4ad3-88bb-18d999719345","ios":"levelo://app?vid=7f212f1e-9b22-4ad3-88bb-18d999719345"},"vehicle_type_id":"4","last_reported":1750885786,"current_range_meters":16800,"station_id":"st_cvj6sg6p6f1abm77japg","pricing_plan_id":"cebpf4jnsgd1na2vs0mg"},{"bike_id":"4b8da722-ee9e-48a4-a5e5-3a8a10364708","system_id":"levelo_inurba_marseille","lat":43.31214,"lon":5.37831,"is_reserved":false,"is_disabled":false,"rental_uris":{"android":"levelo://app?vid=4b8da722-ee9e-48a4-a5e5-3a8a10364708","ios":"levelo://app?vid=4b8da722-ee9e-48a4-a5e5-3a8a10364708"},"vehicle_type_id":"4","last_reported":1750885786,"current_range_meters":17200,"station_id":"","pricing_plan_id":"cebpf4jnsgd1na2vs0mg"},{"bike_id":"c3d951ea-3701-4d76-8e41-09648beae56a","system_id":"levelo_inurba_marseille","lat":43.248606,"lon":5.373589,"is_reserved":false,"is_disabled":false,"rental_uris":{"android":"levelo://app?vid=c3d951ea-3701-4d76-8e41-09648beae56a","ios":"levelo://app?vid=c3d951ea-3701-4d76-8e41-09648beae56a"},"vehicle_type_id":"4","last_reported":1750885786,"current_range_meters":17200,"station_id":"","pricing_plan_id":"cebpf4jnsgd1na2vs0mg"},{"bike_id":"c8c6bb8b-e6e6-4187-aab6-9a452986ddf2","system_id":"levelo_inurba_marseille","lat":43.29529,"lon":5.38541,"is_reserved":false,"is_disabled":false,"rental_uris":{"android":"levelo://app?vid=c8c6bb8b-e6e6-4187-aab6-9a452986ddf2","ios":"levelo://app?vid=c8c6bb8b-e6e6-4187-aab6-9a452986ddf2"},"vehicle_type_id":"4","last_reported":1750885786,"current_range_meters":17200,"station_id":"ce4bgih2rcd13ifvqba0","pricing_plan_id":"cebpf4jnsgd1na2vs0mg"},{"bike_id":"ec699393-b4c5-4b93-82f7-e6993934192c","system_id":"levelo_inurba_marseille","lat":43.30597,"lon":5.37204,"is_reserved":false,"is_disabled":false,"rental_uris":{"android":"levelo://app?vid=ec699393-b4c5-4b93-82f7-e6993934192c","ios":"levelo://app?vid=ec699393-b4c5-4b93-82f7-e6993934192c"},"vehicle_type_id":"4","last_reported":1750885786,"current_range_meters":17200,"station_id":"ce4bgqh2rcd13ifvqc4g","pricing_plan_id":"cebpf4jnsgd1na2vs0mg"},{"bike_id":"d96535ea-4cf9-49b4-91ef-b8987b00d3e6","system_id":"levelo_inurba_marseille","lat":43.31075,"lon":5.38351,"is_reserved":false,"is_disabled":false,"rental_uris":{"android":"levelo://app?vid=d96535ea-4cf9-49b4-91ef-b8987b00d3e6","ios":"levelo://app?vid=d96535ea-4cf9-49b4-91ef-b8987b00d3e6"},"vehicle_type_id":"4","last_reported":1750885786,"current_range_meters":17200,"station_id":"ce4bgv92rcd13ifvqcr0","pricing_plan_id":"cebpf4jnsgd1na2vs0mg"},{"bike_id":"6161de28-477a-409c-a4f1-c5df93c966b6","system_id":"levelo_inurba_marseille","lat":43.28314,"lon":5.38115,"is_reserved":false,"is_disabled":false,"rental_uris":{"android":"levelo://app?vid=6161de28-477a-409c-a4f1-c5df93c966b6","ios":"levelo://app?vid=6161de28-477a-409c-a4f1-c5df93c966b6"},"vehicle_type_id":"4","last_reported":1750885786,"current_range_meters":17200,"station_id":"ce4bh412rcd13ifvqdr0","pricing_plan_id":"cebpf4jnsgd1na2vs0mg"},{"bike_id":"993ec81a-bca7-45fb-9df1-8c719d232af5","system_id":"levelo_inurba_marseille","lat":43.28101,"lon":5.37844,"is_reserved":false,"is_disabled":false,"rental_uris":{"android":"levelo://app?vid=993ec81a-bca7-45fb-9df1-8c719d232af5","ios":"levelo://app?vid=993ec81a-bca7-45fb-9df1-8c719d232af5"},"vehicle_type_id":"4","last_reported":1750885786,"current_range_meters":17200,"station_id":"ce4bha12rcd13ifvqee0","pricing_plan_id":"cebpf4jnsgd1na2vs0mg"},{"bike_id":"c95ee612-90c9-466a-8517-2725b2b88ca7","system_id":"levelo_inurba_marseille","lat":43.31756,"lon":5.39017,"is_reserved":false,"is_disabled":false,"rental_uris":{"android":"levelo://app?vid=c95ee612-90c9-466a-8517-2725b2b88ca7","ios":"levelo://app?vid=c95ee612-90c9-466a-8517-2725b2b88ca7"},"vehicle_type_id":"4","last_reported":1750885786,"current_range_meters":17200,"station_id":"ce4bhqp2rcd13ifvqhng","pricing_plan_id":"cebpf4jnsgd1na2vs0mg"},{"bike_id":"b935579a-e9d3-4ccf-a111-a22b8dbf997d","system_id":"levelo_inurba_marseille","lat":43.21195,"lon":5.35054,"is_reserved":false,"is_disabled":false,"rental_uris":{"android":"levelo://app?vid=b935579a-e9d3-4ccf-a111-a22b8dbf997d","ios":"levelo://app?vid=b935579a-e9d3-4ccf-a111-a22b8dbf997d"},"vehicle_type_id":"4","last_reported":1750885786,"current_range_meters":17200,"station_id":"st_cvj6sg6p6f1abm77japg","pricing_plan_id":"cebpf4jnsgd1na2vs0mg"},{"bike_id":"86ebd8a7-7d30-43b6-953e-6107b0f77710","system_id":"levelo_inurba_marseille","lat":43.33412,"lon":5.40073,"is_reserved":false,"is_disabled":false,"rental_uris":{"android":"levelo://app?vid=86ebd8a7-7d30-43b6-953e-6107b0f77710","ios":"levelo://app?vid=86ebd8a7-7d30-43b6-953e-6107b0f77710"},"vehicle_type_id":"4","last_reported":1750885786,"current_range_meters":17600,"station_id":"","pricing_plan_id":"cebpf4jnsgd1na2vs0mg"},{"bike_id":"20251968-ee9f-4d22-81ba-cdc59b751d57","system_id":"levelo_inurba_marseille","lat":43.29973,"lon":5.3716,"is_reserved":false,"is_disabled":false,"rental_uris":{"android":"levelo://app?vid=20251968-ee9f-4d22-81ba-cdc59b751d57","ios":"levelo://app?vid=20251968-ee9f-4d22-81ba-cdc59b751d57"},"vehicle_type_id":"4","last_reported":1750885786,"current_range_meters":17600,"station_id":"ce4bgr92rcd13ifvqc7g","pricing_plan_id":"cebpf4jnsgd1na2vs0mg"},{"bike_id":"4e314eb5-ddac-4859-ad70-da33424a5efd","system_id":"levelo_inurba_marseille","lat":43.31113,"lon":5.37769,"is_reserved":false,"is_disabled":false,"rental_uris":{"android":"levelo://app?vid=4e314eb5-ddac-4859-ad70-da33424a5efd","ios":"levelo://app?vid=4e314eb5-ddac-4859-ad70-da33424a5efd"},"vehicle_type_id":"4","last_reported":1750885786,"current_range_meters":17600,"station_id":"ce4bgt92rcd13ifvqcg0","pricing_plan_id":"cebpf4jnsgd1na2vs0mg"},{"bike_id":"57a09f5d-fc0b-43ba-abd7-fb46285d39d3","system_id":"levelo_inurba_marseille","lat":43.2902,"lon":5.38127,"is_reserved":false,"is_disabled":false,"rental_uris":{"android":"levelo://app?vid=57a09f5d-fc0b-43ba-abd7-fb46285d39d3","ios":"levelo://app?vid=57a09f5d-fc0b-43ba-abd7-fb46285d39d3"},"vehicle_type_id":"4","last_reported":1750885786,"current_range_meters":17600,"station_id":"ce4bh4p2rcd13ifvqe1g","pricing_plan_id":"cebpf4jnsgd1na2vs0mg"},{"bike_id":"5858db34-eade-494b-a24c-72e315b2c37b","system_id":"levelo_inurba_marseille","lat":43.283311,"lon":5.350309,"is_reserved":false,"is_disabled":false,"rental_uris":{"android":"levelo://app?vid=5858db34-eade-494b-a24c-72e315b2c37b","ios":"levelo://app?vid=5858db34-eade-494b-a24c-72e315b2c37b"},"vehicle_type_id":"4","last_reported":1750885786,"current_range_meters":17600,"station_id":"ce4bhbp2rcd13ifvqerg","pricing_plan_id":"cebpf4jnsgd1na2vs0mg"},{"bike_id":"a76f4da4-1e36-4646-8c26-06d9cd2548d6","system_id":"levelo_inurba_marseille","lat":43.2549,"lon":5.3765,"is_reserved":false,"is_disabled":false,"rental_uris":{"android":"levelo://app?vid=a76f4da4-1e36-4646-8c26-06d9cd2548d6","ios":"levelo://app?vid=a76f4da4-1e36-4646-8c26-06d9cd2548d6"},"vehicle_type_id":"4","last_reported":1750885786,"current_range_meters":17600,"station_id":"ce4bhh12rcd13ifvqff0","pricing_plan_id":"cebpf4jnsgd1na2vs0mg"},{"bike_id":"f1695973-e89c-4c07-842e-d785e6c34567","system_id":"levelo_inurba_marseille","lat":43.31067,"lon":5.40082,"is_reserved":false,"is_disabled":false,"rental_uris":{"android":"levelo://app?vid=f1695973-e89c-4c07-842e-d785e6c34567","ios":"levelo://app?vid=f1695973-e89c-4c07-842e-d785e6c34567"},"vehicle_type_id":"4","last_reported":1750885786,"current_range_meters":18000,"station_id":"","pricing_plan_id":"cebpf4jnsgd1na2vs0mg"},{"bike_id":"815887f4-13e6-48e4-aebd-6e8b1bc6251b","system_id":"levelo_inurba_marseille","lat":43.283507,"lon":5.381025,"is_reserved":false,"is_disabled":false,"rental_uris":{"android":"levelo://app?vid=815887f4-13e6-48e4-aebd-6e8b1bc6251b","ios":"levelo://app?vid=815887f4-13e6-48e4-aebd-6e8b1bc6251b"},"vehicle_type_id":"4","last_reported":1750885786,"current_range_meters":18000,"station_id":"ce4bh412rcd13ifvqdr0","pricing_plan_id":"cebpf4jnsgd1na2vs0mg"},{"bike_id":"3dd23ed0-d91b-4e70-bf1f-9122494518e2","system_id":"levelo_inurba_marseille","lat":43.24664,"lon":5.38168,"is_reserved":false,"is_disabled":false,"rental_uris":{"android":"levelo://app?vid=3dd23ed0-d91b-4e70-bf1f-9122494518e2","ios":"levelo://app?vid=3dd23ed0-d91b-4e70-bf1f-9122494518e2"},"vehicle_type_id":"4","last_reported":1750885786,"current_range_meters":18000,"station_id":"ce4bhih2rcd13ifvqfr0","pricing_plan_id":"cebpf4jnsgd1na2vs0mg"},{"bike_id":"d0a014d3-adae-4aec-beb5-0ece5ab3b84c","system_id":"levelo_inurba_marseille","lat":43.28438,"lon":5.39175,"is_reserved":false,"is_disabled":false,"rental_uris":{"android":"levelo://app?vid=d0a014d3-adae-4aec-beb5-0ece5ab3b84c","ios":"levelo://app?vid=d0a014d3-adae-4aec-beb5-0ece5ab3b84c"},"vehicle_type_id":"4","last_reported":1750885786,"current_range_meters":18000,"station_id":"ce4bhoh2rcd13ifvqh5g","pricing_plan_id":"cebpf4jnsgd1na2vs0mg"},{"bike_id":"7955c207-4f12-4121-b9a1-09bcb47367b2","system_id":"levelo_inurba_marseille","lat":43.28464,"lon":5.45971,"is_reserved":false,"is_disabled":false,"rental_uris":{"android":"levelo://app?vid=7955c207-4f12-4121-b9a1-09bcb47367b2","ios":"levelo://app?vid=7955c207-4f12-4121-b9a1-09bcb47367b2"},"vehicle_type_id":"4","last_reported":1750885786,"current_range_meters":18800,"station_id":"","pricing_plan_id":"cebpf4jnsgd1na2vs0mg"},{"bike_id":"2f0a79cd-6c32-45e1-8e87-69c05eea1985","system_id":"levelo_inurba_marseille","lat":43.25492,"lon":5.37656,"is_reserved":false,"is_disabled":false,"rental_uris":{"android":"levelo://app?vid=2f0a79cd-6c32-45e1-8e87-69c05eea1985","ios":"levelo://app?vid=2f0a79cd-6c32-45e1-8e87-69c05eea1985"},"vehicle_type_id":"4","last_reported":1750885786,"current_range_meters":18800,"station_id":"ce4bhh12rcd13ifvqff0","pricing_plan_id":"cebpf4jnsgd1na2vs0mg"},{"bike_id":"6bff5b35-c04f-4610-b434-dcfc99322f1d","system_id":"levelo_inurba_marseille","lat":43.296018,"lon":5.380926,"is_reserved":false,"is_disabled":false,"rental_uris":{"android":"levelo://app?vid=6bff5b35-c04f-4610-b434-dcfc99322f1d","ios":"levelo://app?vid=6bff5b35-c04f-4610-b434-dcfc99322f1d"},"vehicle_type_id":"4","last_reported":1750885786,"current_range_meters":19200,"station_id":"ce4bgl12rcd13ifvqbo0","pricing_plan_id":"cebpf4jnsgd1na2vs0mg"},{"bike_id":"095bfec0-3abf-4eeb-9821-15a8b506a2b8","system_id":"levelo_inurba_marseille","lat":43.31072,"lon":5.38351,"is_reserved":false,"is_disabled":false,"rental_uris":{"android":"levelo://app?vid=095bfec0-3abf-4eeb-9821-15a8b506a2b8","ios":"levelo://app?vid=095bfec0-3abf-4eeb-9821-15a8b506a2b8"},"vehicle_type_id":"4","last_reported":1750885786,"current_range_meters":19200,"station_id":"ce4bgv92rcd13ifvqcr0","pricing_plan_id":"cebpf4jnsgd1na2vs0mg"},{"bike_id":"df8af17b-9ed2-44d6-ba8c-6535ed09df14","system_id":"levelo_inurba_marseille","lat":43.2897,"lon":5.37837,"is_reserved":false,"is_disabled":false,"rental_uris":{"android":"levelo://app?vid=df8af17b-9ed2-44d6-ba8c-6535ed09df14","ios":"levelo://app?vid=df8af17b-9ed2-44d6-ba8c-6535ed09df14"},"vehicle_type_id":"4","last_reported":1750885786,"current_range_meters":19200,"station_id":"ce4bh9p2rcd13ifvqed0","pricing_plan_id":"cebpf4jnsgd1na2vs0mg"},{"bike_id":"9fa18a84-1d67-4379-b50e-6611e989cb39","system_id":"levelo_inurba_marseille","lat":43.25496,"lon":5.37652,"is_reserved":false,"is_disabled":false,"rental_uris":{"android":"levelo://app?vid=9fa18a84-1d67-4379-b50e-6611e989cb39","ios":"levelo://app?vid=9fa18a84-1d67-4379-b50e-6611e989cb39"},"vehicle_type_id":"4","last_reported":1750885786,"current_range_meters":19200,"station_id":"ce4bhh12rcd13ifvqff0","pricing_plan_id":"cebpf4jnsgd1na2vs0mg"},{"bike_id":"1f45f57b-1820-489e-bb3b-1c9f0dca560f","system_id":"levelo_inurba_marseille","lat":43.2548,"lon":5.37655,"is_reserved":false,"is_disabled":false,"rental_uris":{"android":"levelo://app?vid=1f45f57b-1820-489e-bb3b-1c9f0dca560f","ios":"levelo://app?vid=1f45f57b-1820-489e-bb3b-1c9f0dca560f"},"vehicle_type_id":"4","last_reported":1750885786,"current_range_meters":19200,"station_id":"ce4bhh12rcd13ifvqff0","pricing_plan_id":"cebpf4jnsgd1na2vs0mg"},{"bike_id":"548a1946-6b2e-4487-8245-1c74f9d1b629","system_id":"levelo_inurba_marseille","lat":43.3198,"lon":5.38156,"is_reserved":false,"is_disabled":false,"rental_uris":{"android":"levelo://app?vid=548a1946-6b2e-4487-8245-1c74f9d1b629","ios":"levelo://app?vid=548a1946-6b2e-4487-8245-1c74f9d1b629"},"vehicle_type_id":"4","last_reported":1750885786,"current_range_meters":19200,"station_id":"ce4bhr12rcd13ifvqhpg","pricing_plan_id":"cebpf4jnsgd1na2vs0mg"},{"bike_id":"a51ec734-5178-414e-a25f-24121b362afd","system_id":"levelo_inurba_marseille","lat":43.31527,"lon":5.380427,"is_reserved":false,"is_disabled":false,"rental_uris":{"android":"levelo://app?vid=a51ec734-5178-414e-a25f-24121b362afd","ios":"levelo://app?vid=a51ec734-5178-414e-a25f-24121b362afd"},