{"last_updated":1753816446,"ttl":60,"version":"2.2","data":{"bikes":[{"bike_id":"cdac9db5-03b6-44e7-8afb-73c159a082d9","system_id":"levelo_inurba_marseille","lat":43.29893,"lon":5.38897,"is_reserved":false,"is_disabled":false,"rental_uris":{"android":"levelo://app?vid=cdac9db5-03b6-44e7-8afb-73c159a082d9","ios":"levelo://app?vid=cdac9db5-03b6-44e7-8afb-73c159a082d9"},"vehicle_type_id":"4","last_reported":1753816446,"current_range_meters":2800,"station_id":"ce4bh392rcd13ifvqdl0","pricing_plan_id":"cebpf4jnsgd1na2vs0mg"},{"bike_id":"d1b99199-8ffa-4206-abb6-7ecc609cf88f","system_id":"levelo_inurba_marseille","lat":43.29531,"lon":5.39054,"is_reserved":false,"is_disabled":false,"rental_uris":{"android":"levelo://app?vid=d1b99199-8ffa-4206-abb6-7ecc609cf88f","ios":"levelo://app?vid=d1b99199-8ffa-4206-abb6-7ecc609cf88f"},"vehicle_type_id":"4","last_reported":1753816446,"current_range_meters":2800,"station_id":"ce4bh3p2rcd13ifvqdp0","pricing_plan_id":"cebpf4jnsgd1na2vs0mg"},{"bike_id":"c566fac1-bdc0-44b4-b51d-6079acd80ddc","system_id":"levelo_inurba_marseille","lat":43.32292,"lon":5.38258,"is_reserved":false,"is_disabled":false,"rental_uris":{"android":"levelo://app?vid=c566fac1-bdc0-44b4-b51d-6079acd80ddc","ios":"levelo://app?vid=c566fac1-bdc0-44b4-b51d-6079acd80ddc"},"vehicle_type_id":"4","last_reported":1753816446,"current_range_meters":2800,"station_id":"ce4bhr12rcd13ifvqhqg","pricing_plan_id":"cebpf4jnsgd1na2vs0mg"},{"bike_id":"ef430ec4-19a7-497d-99c3-ca95577bc1d0","system_id":"levelo_inurba_marseille","lat":43.269439,"lon":5.40262,"is_reserved":false,"is_disabled":false,"rental_uris":{"android":"levelo://app?vid=ef430ec4-19a7-497d-99c3-ca95577bc1d0","ios":"levelo://app?vid=ef430ec4-19a7-497d-99c3-ca95577bc1d0"},"vehicle_type_id":"4","last_reported":1753816446,"current_range_meters":3200,"station_id":"","pricing_plan_id":"cebpf4jnsgd1na2vs0mg"},{"bike_id":"f2ed36f9-0f01-4b33-af18-8a277c95e69c","system_id":"levelo_inurba_marseille","lat":43.33767,"lon":5.37473,"is_reserved":false,"is_disabled":false,"rental_uris":{"android":"levelo://app?vid=f2ed36f9-0f01-4b33-af18-8a277c95e69c","ios":"levelo://app?vid=f2ed36f9-0f01-4b33-af18-8a277c95e69c"},"vehicle_type_id":"4","last_reported":1753816446,"current_range_meters":3600,"station_id":"","pricing_plan_id":"cebpf4jnsgd1na2vs0mg"},{"bike_id":"7a91e30e-fc4c-48d0-8c3c-34f443d53a6d","system_id":"levelo_inurba_marseille","lat":43.29256,"lon":5.3847,"is_reserved":false,"is_disabled":false,"rental_uris":{"android":"levelo://app?vid=7a91e30e-fc4c-48d0-8c3c-34f443d53a6d","ios":"levelo://app?vid=7a91e30e-fc4c-48d0-8c3c-34f443d53a6d"},"vehicle_type_id":"4","last_reported":1753816446,"current_range_meters":3600,"station_id":"ce4bh692rcd13ifvqea0","pricing_plan_id":"cebpf4jnsgd1na2vs0mg"},{"bike_id":"5774ce45-4052-4e9e-a1de-263e1ab957b3","system_id":"levelo_inurba_marseille","lat":43.29036,"lon":5.38646,"is_reserved":false,"is_disabled":false,"rental_uris":{"android":"levelo://app?vid=5774ce45-4052-4e9e-a1de-263e1ab957b3","ios":"levelo://app?vid=5774ce45-4052-4e9e-a1de-263e1ab957b3"},"vehicle_type_id":"4","last_reported":1753816446,"current_range_meters":3600,"station_id":"ce4bh4p2rcd13ifvqe0g","pricing_plan_id":"cebpf4jnsgd1na2vs0mg"},{"bike_id":"546d6b03-d265-454a-8f04-8ccbdb1a2f1e","system_id":"levelo_inurba_marseille","lat":43.28657,"lon":5.36341,"is_reserved":false,"is_disabled":false,"rental_uris":{"android":"levelo://app?vid=546d6b03-d265-454a-8f04-8ccbdb1a2f1e","ios":"levelo://app?vid=546d6b03-d265-454a-8f04-8ccbdb1a2f1e"},"vehicle_type_id":"4","last_reported":1753816446,"current_range_meters":3600,"station_id":"ce4bhah2rcd13ifvqej0","pricing_plan_id":"cebpf4jnsgd1na2vs0mg"},{"bike_id":"baebe4c9-a6e8-4d2b-9927-e45b3a953104","system_id":"levelo_inurba_marseille","lat":43.29885,"lon":5.37636,"is_reserved":false,"is_disabled":false,"rental_uris":{"android":"levelo://app?vid=baebe4c9-a6e8-4d2b-9927-e45b3a953104","ios":"levelo://app?vid=baebe4c9-a6e8-4d2b-9927-e45b3a953104"},"vehicle_type_id":"4","last_reported":1753816446,"current_range_meters":4000,"station_id":"","pricing_plan_id":"cebpf4jnsgd1na2vs0mg"},{"bike_id":"da0dea9a-07a2-4249-aa7c-2489e28d40de","system_id":"levelo_inurba_marseille","lat":43.29683,"lon":5.36239,"is_reserved":false,"is_disabled":false,"rental_uris":{"android":"levelo://app?vid=da0dea9a-07a2-4249-aa7c-2489e28d40de","ios":"levelo://app?vid=da0dea9a-07a2-4249-aa7c-2489e28d40de"},"vehicle_type_id":"4","last_reported":1753816446,"current_range_meters":4400,"station_id":"","pricing_plan_id":"cebpf4jnsgd1na2vs0mg"},{"bike_id":"6fe4f646-b75b-4e51-99c9-25f3c1f3f3ab","system_id":"levelo_inurba_marseille","lat":43.2737,"lon":5.36245,"is_reserved":false,"is_disabled":true,"rental_uris":{"android":"levelo://app?vid=6fe4f646-b75b-4e51-99c9-25f3c1f3f3ab","ios":"levelo://app?vid=6fe4f646-b75b-4e51-99c9-25f3c1f3f3ab"},"vehicle_type_id":"4","last_reported":1753816446,"current_range_meters":4400,"station_id":"ce4bhbh2rcd13ifvqeo0","pricing_plan_id":"cebpf4jnsgd1na2vs0mg"},{"bike_id":"5a67886b-2f40-46df-b0be-1179491cb0a7","system_id":"levelo_inurba_marseille","lat":43.299683,"lon":5.386239,"is_reserved":false,"is_disabled":false,"rental_uris":{"android":"levelo://app?vid=5a67886b-2f40-46df-b0be-1179491cb0a7","ios":"levelo://app?vid=5a67886b-2f40-46df-b0be-1179491cb0a7"},"vehicle_type_id":"4","last_reported":1753816446,"current_range_meters":4400,"station_id":"","pricing_plan_id":"cebpf4jnsgd1na2vs0mg"},{"bike_id":"d26365d2-3cd7-4e3c-808d-3362d6bbfb56","system_id":"levelo_inurba_marseille","lat":43.33767,"lon":5.37481,"is_reserved":false,"is_disabled":false,"rental_uris":{"android":"levelo://app?vid=d26365d2-3cd7-4e3c-808d-3362d6bbfb56","ios":"levelo://app?vid=d26365d2-3cd7-4e3c-808d-3362d6bbfb56"},"vehicle_type_id":"4","last_reported":1753816446,"current_range_meters":4400,"station_id":"","pricing_plan_id":"cebpf4jnsgd1na2vs0mg"},{"bike_id":"05d08534-1f52-4b11-989e-8dfe870e6f0e","system_id":"levelo_inurba_marseille","lat":43.30309,"lon":5.39206,"is_reserved":false,"is_disabled":false,"rental_uris":{"android":"levelo://app?vid=05d08534-1f52-4b11-989e-8dfe870e6f0e","ios":"levelo://app?vid=05d08534-1f52-4b11-989e-8dfe870e6f0e"},"vehicle_type_id":"4","last_reported":1753816446,"current_range_meters":4400,"station_id":"ce4bgkh2rcd13ifvqbk0","pricing_plan_id":"cebpf4jnsgd1na2vs0mg"},{"bike_id":"6cb11f4f-f451-4a1b-a7c5-61054d6b97f6","system_id":"levelo_inurba_marseille","lat":43.23635,"lon":5.40981,"is_reserved":false,"is_disabled":false,"rental_uris":{"android":"levelo://app?vid=6cb11f4f-f451-4a1b-a7c5-61054d6b97f6","ios":"levelo://app?vid=6cb11f4f-f451-4a1b-a7c5-61054d6b97f6"},"vehicle_type_id":"4","last_reported":1753816446,"current_range_meters":4400,"station_id":"","pricing_plan_id":"cebpf4jnsgd1na2vs0mg"},{"bike_id":"c5cea941-bf48-41d2-af07-5bb159cc2240","system_id":"levelo_inurba_marseille","lat":43.29264,"lon":5.38437,"is_reserved":false,"is_disabled":false,"rental_uris":{"android":"levelo://app?vid=c5cea941-bf48-41d2-af07-5bb159cc2240","ios":"levelo://app?vid=c5cea941-bf48-41d2-af07-5bb159cc2240"},"vehicle_type_id":"4","last_reported":1753816446,"current_range_meters":4400,"station_id":"ce4bh692rcd13ifvqea0","pricing_plan_id":"cebpf4jnsgd1na2vs0mg"},{"bike_id":"1d4f91b0-99eb-4526-b84c-c1793301f4b1","system_id":"levelo_inurba_marseille","lat":43.25086,"lon":5.39532,"is_reserved":false,"is_disabled":false,"rental_uris":{"android":"levelo://app?vid=1d4f91b0-99eb-4526-b84c-c1793301f4b1","ios":"levelo://app?vid=1d4f91b0-99eb-4526-b84c-c1793301f4b1"},"vehicle_type_id":"4","last_reported":1753816446,"current_range_meters":4800,"station_id":"ce4bhm12rcd13ifvqgkg","pricing_plan_id":"cebpf4jnsgd1na2vs0mg"},{"bike_id":"fb45cff3-08fa-4cc9-bf53-0d8295f6b8d1","system_id":"levelo_inurba_marseille","lat":43.278771,"lon":5.428178,"is_reserved":false,"is_disabled":false,"rental_uris":{"android":"levelo://app?vid=fb45cff3-08fa-4cc9-bf53-0d8295f6b8d1","ios":"levelo://app?vid=fb45cff3-08fa-4cc9-bf53-0d8295f6b8d1"},"vehicle_type_id":"4","last_reported":1753816446,"current_range_meters":5600,"station_id":"","pricing_plan_id":"cebpf4jnsgd1na2vs0mg"},{"bike_id":"a31b7f1e-f40b-4d41-9900-75d7dd6df8e2","system_id":"levelo_inurba_marseille","lat":43.2861,"lon":5.37058,"is_reserved":false,"is_disabled":false,"rental_uris":{"android":"levelo://app?vid=a31b7f1e-f40b-4d41-9900-75d7dd6df8e2","ios":"levelo://app?vid=a31b7f1e-f40b-4d41-9900-75d7dd6df8e2"},"vehicle_type_id":"4","last_reported":1753816446,"current_range_meters":5600,"station_id":"ce4bht12rcd13ifvqi60","pricing_plan_id":"cebpf4jnsgd1na2vs0mg"},{"bike_id":"a5ffa286-ffb1-4f55-bfbe-7821ace3a066","system_id":"levelo_inurba_marseille","lat":43.21188,"lon":5.35072,"is_reserved":false,"is_disabled":false,"rental_uris":{"android":"levelo://app?vid=a5ffa286-ffb1-4f55-bfbe-7821ace3a066","ios":"levelo://app?vid=a5ffa286-ffb1-4f55-bfbe-7821ace3a066"},"vehicle_type_id":"4","last_reported":1753816446,"current_range_meters":5600,"station_id":"st_cvj6sg6p6f1abm77japg","pricing_plan_id":"cebpf4jnsgd1na2vs0mg"},{"bike_id":"dfeef013-405d-4d83-bff9-fe3d4f9e6756","system_id":"levelo_inurba_marseille","lat":43.31686,"lon":5.40473,"is_reserved":false,"is_disabled":true,"rental_uris":{"android":"levelo://app?vid=dfeef013-405d-4d83-bff9-fe3d4f9e6756","ios":"levelo://app?vid=dfeef013-405d-4d83-bff9-fe3d4f9e6756"},"vehicle_type_id":"4","last_reported":1753816446,"current_range_meters":5600,"station_id":"ce4bh012rcd13ifvqd00","pricing_plan_id":"cebpf4jnsgd1na2vs0mg"},{"bike_id":"3152576e-d602-4c3f-980e-717f41aed773","system_id":"levelo_inurba_marseille","lat":43.33737,"lon":5.37465,"is_reserved":false,"is_disabled":false,"rental_uris":{"android":"levelo://app?vid=3152576e-d602-4c3f-980e-717f41aed773","ios":"levelo://app?vid=3152576e-d602-4c3f-980e-717f41aed773"},"vehicle_type_id":"4","last_reported":1753816446,"current_range_meters":5600,"station_id":"","pricing_plan_id":"cebpf4jnsgd1na2vs0mg"},{"bike_id":"14f7ea76-b7b3-4a62-bcea-673134e53d49","system_id":"levelo_inurba_marseille","lat":43.29582,"lon":5.36739,"is_reserved":false,"is_disabled":false,"rental_uris":{"android":"levelo://app?vid=14f7ea76-b7b3-4a62-bcea-673134e53d49","ios":"levelo://app?vid=14f7ea76-b7b3-4a62-bcea-673134e53d49"},"vehicle_type_id":"4","last_reported":1753816446,"current_range_meters":6000,"station_id":"ce4bgph2rcd13ifvqc2g","pricing_plan_id":"cebpf4jnsgd1na2vs0mg"},{"bike_id":"bcf147d5-8db6-47b1-a556-6cd073aa518c","system_id":"levelo_inurba_marseille","lat":43.24803,"lon":5.37447,"is_reserved":false,"is_disabled":false,"rental_uris":{"android":"levelo://app?vid=bcf147d5-8db6-47b1-a556-6cd073aa518c","ios":"levelo://app?vid=bcf147d5-8db6-47b1-a556-6cd073aa518c"},"vehicle_type_id":"4","last_reported":1753816446,"current_range_meters":6000,"station_id":"ce4bhgh2rcd13ifvqfb0","pricing_plan_id":"cebpf4jnsgd1na2vs0mg"},{"bike_id":"9c7b496e-65b1-4b83-87d3-d78e77e2f561","system_id":"levelo_inurba_marseille","lat":43.30321,"lon":5.4044,"is_reserved":false,"is_disabled":false,"rental_uris":{"android":"levelo://app?vid=9c7b496e-65b1-4b83-87d3-d78e77e2f561","ios":"levelo://app?vid=9c7b496e-65b1-4b83-87d3-d78e77e2f561"},"vehicle_type_id":"4","last_reported":1753816446,"current_range_meters":6000,"station_id":"ce4bh012rcd13ifvqd10","pricing_plan_id":"cebpf4jnsgd1na2vs0mg"},{"bike_id":"35983826-9e38-40ad-8af8-62350d06c23a","system_id":"levelo_inurba_marseille","lat":43.32366,"lon":5.3888,"is_reserved":false,"is_disabled":false,"rental_uris":{"android":"levelo://app?vid=35983826-9e38-40ad-8af8-62350d06c23a","ios":"levelo://app?vid=35983826-9e38-40ad-8af8-62350d06c23a"},"vehicle_type_id":"4","last_reported":1753816446,"current_range_meters":6000,"station_id":"ce4bhqp2rcd13ifvqhog","pricing_plan_id":"cebpf4jnsgd1na2vs0mg"},{"bike_id":"83fdb9f2-ef9d-4a70-8333-65f103ec90ae","system_id":"levelo_inurba_marseille","lat":43.27333,"lon":5.36274,"is_reserved":false,"is_disabled":true,"rental_uris":{"android":"levelo://app?vid=83fdb9f2-ef9d-4a70-8333-65f103ec90ae","ios":"levelo://app?vid=83fdb9f2-ef9d-4a70-8333-65f103ec90ae"},"vehicle_type_id":"4","last_reported":1753816446,"current_range_meters":6400,"station_id":"ce4bhbh2rcd13ifvqeo0","pricing_plan_id":"cebpf4jnsgd1na2vs0mg"},{"bike_id":"369c0dba-2a72-4219-a08b-a80c07efe07e","system_id":"levelo_inurba_marseille","lat":43.25576,"lon":5.3824,"is_reserved":false,"is_disabled":false,"rental_uris":{"android":"levelo://app?vid=369c0dba-2a72-4219-a08b-a80c07efe07e","ios":"levelo://app?vid=369c0dba-2a72-4219-a08b-a80c07efe07e"},"vehicle_type_id":"4","last_reported":1753816446,"current_range_meters":6400,"station_id":"ce4bhih2rcd13ifvqfs0","pricing_plan_id":"cebpf4jnsgd1na2vs0mg"},{"bike_id":"92e42660-a536-44ce-8373-a8e02907d30e","system_id":"levelo_inurba_marseille","lat":43.28107,"lon":5.37828,"is_reserved":false,"is_disabled":false,"rental_uris":{"android":"levelo://app?vid=92e42660-a536-44ce-8373-a8e02907d30e","ios":"levelo://app?vid=92e42660-a536-44ce-8373-a8e02907d30e"},"vehicle_type_id":"4","last_reported":1753816446,"current_range_meters":6400,"station_id":"ce4bha12rcd13ifvqee0","pricing_plan_id":"cebpf4jnsgd1na2vs0mg"},{"bike_id":"938c16e4-dc7a-407a-b088-a048160d8de5","system_id":"levelo_inurba_marseille","lat":43.2119,"lon":5.35069,"is_reserved":false,"is_disabled":false,"rental_uris":{"android":"levelo://app?vid=938c16e4-dc7a-407a-b088-a048160d8de5","ios":"levelo://app?vid=938c16e4-dc7a-407a-b088-a048160d8de5"},"vehicle_type_id":"4","last_reported":1753816446,"current_range_meters":6800,"station_id":"st_cvj6sg6p6f1abm77japg","pricing_plan_id":"cebpf4jnsgd1na2vs0mg"},{"bike_id":"2e5212ac-bffa-427c-b95e-4e3cda6e298a","system_id":"levelo_inurba_marseille","lat":43.28683,"lon":5.38661,"is_reserved":false,"is_disabled":false,"rental_uris":{"android":"levelo://app?vid=2e5212ac-bffa-427c-b95e-4e3cda6e298a","ios":"levelo://app?vid=2e5212ac-bffa-427c-b95e-4e3cda6e298a"},"vehicle_type_id":"4","last_reported":1753816446,"current_range_meters":6800,"station_id":"ce4bh492rcd13ifvqdug","pricing_plan_id":"cebpf4jnsgd1na2vs0mg"},{"bike_id":"e80c02c6-1f29-4b43-a4ea-49edf6e4b356","system_id":"levelo_inurba_marseille","lat":43.30301,"lon":5.39219,"is_reserved":false,"is_disabled":false,"rental_uris":{"android":"levelo://app?vid=e80c02c6-1f29-4b43-a4ea-49edf6e4b356","ios":"levelo://app?vid=e80c02c6-1f29-4b43-a4ea-49edf6e4b356"},"vehicle_type_id":"4","last_reported":1753816446,"current_range_meters":6800,"station_id":"ce4bgkh2rcd13ifvqbk0","pricing_plan_id":"cebpf4jnsgd1na2vs0mg"},{"bike_id":"495f9f77-34aa-4678-bcaf-8a3a4d726e8d","system_id":"levelo_inurba_marseille","lat":43.28424,"lon":5.34972,"is_reserved":false,"is_disabled":false,"rental_uris":{"android":"levelo://app?vid=495f9f77-34aa-4678-bcaf-8a3a4d726e8d","ios":"levelo://app?vid=495f9f77-34aa-4678-bcaf-8a3a4d726e8d"},"vehicle_type_id":"4","last_reported":1753816446,"current_range_meters":6800,"station_id":"ce4bhbh2rcd13ifvqepg","pricing_plan_id":"cebpf4jnsgd1na2vs0mg"},{"bike_id":"d99716cc-03d7-4ec6-9afb-f243b2d67578","system_id":"levelo_inurba_marseille","lat":43.33771,"lon":5.37485,"is_reserved":false,"is_disabled":false,"rental_uris":{"android":"levelo://app?vid=d99716cc-03d7-4ec6-9afb-f243b2d67578","ios":"levelo://app?vid=d99716cc-03d7-4ec6-9afb-f243b2d67578"},"vehicle_type_id":"4","last_reported":1753816446,"current_range_meters":6800,"station_id":"","pricing_plan_id":"cebpf4jnsgd1na2vs0mg"},{"bike_id":"64f258c6-1e92-4dd0-a4f6-11b336a5b138","system_id":"levelo_inurba_marseille","lat":43.22511,"lon":5.34773,"is_reserved":false,"is_disabled":false,"rental_uris":{"android":"levelo://app?vid=64f258c6-1e92-4dd0-a4f6-11b336a5b138","ios":"levelo://app?vid=64f258c6-1e92-4dd0-a4f6-11b336a5b138"},"vehicle_type_id":"4","last_reported":1753816446,"current_range_meters":6800,"station_id":"st_cvj5dfep6f1abm77gieg","pricing_plan_id":"cebpf4jnsgd1na2vs0mg"},{"bike_id":"a7b6ca92-cce1-42cf-98fb-982855461765","system_id":"levelo_inurba_marseille","lat":43.299316,"lon":5.365535,"is_reserved":false,"is_disabled":false,"rental_uris":{"android":"levelo://app?vid=a7b6ca92-cce1-42cf-98fb-982855461765","ios":"levelo://app?vid=a7b6ca92-cce1-42cf-98fb-982855461765"},"vehicle_type_id":"4","last_reported":1753816446,"current_range_meters":6800,"station_id":"ce4bgm92rcd13ifvqbr0","pricing_plan_id":"cebpf4jnsgd1na2vs0mg"},{"bike_id":"fccb7643-a231-43f6-9b16-8ddba7a283fb","system_id":"levelo_inurba_marseille","lat":43.24665,"lon":5.3816,"is_reserved":false,"is_disabled":false,"rental_uris":{"android":"levelo://app?vid=fccb7643-a231-43f6-9b16-8ddba7a283fb","ios":"levelo://app?vid=fccb7643-a231-43f6-9b16-8ddba7a283fb"},"vehicle_type_id":"4","last_reported":1753816446,"current_range_meters":6800,"station_id":"ce4bhih2rcd13ifvqfr0","pricing_plan_id":"cebpf4jnsgd1na2vs0mg"},{"bike_id":"5915c484-bd7c-435f-bca1-185e1e80dfcf","system_id":"levelo_inurba_marseille","lat":43.23151,"lon":5.43695,"is_reserved":false,"is_disabled":false,"rental_uris":{"android":"levelo://app?vid=5915c484-bd7c-435f-bca1-185e1e80dfcf","ios":"levelo://app?vid=5915c484-bd7c-435f-bca1-185e1e80dfcf"},"vehicle_type_id":"4","last_reported":1753816446,"current_range_meters":7200,"station_id":"ce4bhmp2rcd13ifvqgog","pricing_plan_id":"cebpf4jnsgd1na2vs0mg"},{"bike_id":"51ad230f-40b1-4de5-8158-93871a57b0cd","system_id":"levelo_inurba_marseille","lat":43.23122,"lon":5.43726,"is_reserved":false,"is_disabled":false,"rental_uris":{"android":"levelo://app?vid=51ad230f-40b1-4de5-8158-93871a57b0cd","ios":"levelo://app?vid=51ad230f-40b1-4de5-8158-93871a57b0cd"},"vehicle_type_id":"4","last_reported":1753816446,"current_range_meters":7200,"station_id":"ce4bhmp2rcd13ifvqgog","pricing_plan_id":"cebpf4jnsgd1na2vs0mg"},{"bike_id":"8e37ef79-bd01-46c2-9d9e-3d3f7741a07a","system_id":"levelo_inurba_marseille","lat":43.297302,"lon":5.374166,"is_reserved":false,"is_disabled":false,"rental_uris":{"android":"levelo://app?vid=8e37ef79-bd01-46c2-9d9e-3d3f7741a07a","ios":"levelo://app?vid=8e37ef79-bd01-46c2-9d9e-3d3f7741a07a"},"vehicle_type_id":"4","last_reported":1753816446,"current_range_meters":7200,"station_id":"","pricing_plan_id":"cebpf4jnsgd1na2vs0mg"},{"bike_id":"3f6ec753-f83a-4a45-b776-c830b0bb91f2","system_id":"levelo_inurba_marseille","lat":43.30544,"lon":5.3843,"is_reserved":false,"is_disabled":false,"rental_uris":{"android":"levelo://app?vid=3f6ec753-f83a-4a45-b776-c830b0bb91f2","ios":"levelo://app?vid=3f6ec753-f83a-4a45-b776-c830b0bb91f2"},"vehicle_type_id":"4","last_reported":1753816446,"current_range_meters":7200,"station_id":"ce4bgg92rcd13ifvqb30","pricing_plan_id":"cebpf4jnsgd1na2vs0mg"},{"bike_id":"bf61039f-3568-49d1-b45a-0b9742a8ba82","system_id":"levelo_inurba_marseille","lat":43.31712,"lon":5.43705,"is_reserved":false,"is_disabled":false,"rental_uris":{"android":"levelo://app?vid=bf61039f-3568-49d1-b45a-0b9742a8ba82","ios":"levelo://app?vid=bf61039f-3568-49d1-b45a-0b9742a8ba82"},"vehicle_type_id":"4","last_reported":1753816446,"current_range_meters":7200,"station_id":"ce4bhp92rcd13ifvqhcg","pricing_plan_id":"cebpf4jnsgd1na2vs0mg"},{"bike_id":"fe3567fe-b4bb-4e32-962f-58e6786da77f","system_id":"levelo_inurba_marseille","lat":43.29859,"lon":5.39737,"is_reserved":false,"is_disabled":false,"rental_uris":{"android":"levelo://app?vid=fe3567fe-b4bb-4e32-962f-58e6786da77f","ios":"levelo://app?vid=fe3567fe-b4bb-4e32-962f-58e6786da77f"},"vehicle_type_id":"4","last_reported":1753816446,"current_range_meters":7200,"station_id":"ce4bh0h2rcd13ifvqd50","pricing_plan_id":"cebpf4jnsgd1na2vs0mg"},{"bike_id":"d8e9eb43-d9ac-42e1-88de-25fa47793dd2","system_id":"levelo_inurba_marseille","lat":43.32368,"lon":5.38881,"is_reserved":false,"is_disabled":false,"rental_uris":{"android":"levelo://app?vid=d8e9eb43-d9ac-42e1-88de-25fa47793dd2","ios":"levelo://app?vid=d8e9eb43-d9ac-42e1-88de-25fa47793dd2"},"vehicle_type_id":"4","last_reported":1753816446,"current_range_meters":7200,"station_id":"ce4bhqp2rcd13ifvqhog","pricing_plan_id":"cebpf4jnsgd1na2vs0mg"},{"bike_id":"62f5da51-1009-4002-b725-5765ccaaf3ec","system_id":"levelo_inurba_marseille","lat":43.29378,"lon":5.39891,"is_reserved":false,"is_disabled":false,"rental_uris":{"android":"levelo://app?vid=62f5da51-1009-4002-b725-5765ccaaf3ec","ios":"levelo://app?vid=62f5da51-1009-4002-b725-5765ccaaf3ec"},"vehicle_type_id":"4","last_reported":1753816446,"current_range_meters":7200,"station_id":"","pricing_plan_id":"cebpf4jnsgd1na2vs0mg"},{"bike_id":"209c73e6-1f69-4d13-9fed-77cb46eecd05","system_id":"levelo_inurba_marseille","lat":43.34681,"lon":5.38065,"is_reserved":false,"is_disabled":false,"rental_uris":{"android":"levelo://app?vid=209c73e6-1f69-4d13-9fed-77cb46eecd05","ios":"levelo://app?vid=209c73e6-1f69-4d13-9fed-77cb46eecd05"},"vehicle_type_id":"4","last_reported":1753816446,"current_range_meters":7200,"station_id":"","pricing_plan_id":"cebpf4jnsgd1na2vs0mg"},{"bike_id":"b8effca7-37ee-449b-aff1-48a34600de2d","system_id":"levelo_inurba_marseille","lat":43.308,"lon":5.38162,"is_reserved":false,"is_disabled":false,"rental_uris":{"android":"levelo://app?vid=b8effca7-37ee-449b-aff1-48a34600de2d","ios":"levelo://app?vid=b8effca7-37ee-449b-aff1-48a34600de2d"},"vehicle_type_id":"4","last_reported":1753816446,"current_range_meters":8000,"station_id":"ce4bgt12rcd13ifvqce0","pricing_plan_id":"cebpf4jnsgd1na2vs0mg"},{"bike_id":"3b513104-0304-493c-9215-438a9d2db08a","system_id":"levelo_inurba_marseille","lat":43.29532,"lon":5.39268,"is_reserved":false,"is_disabled":false,"rental_uris":{"android":"levelo://app?vid=3b513104-0304-493c-9215-438a9d2db08a","ios":"levelo://app?vid=3b513104-0304-493c-9215-438a9d2db08a"},"vehicle_type_id":"4","last_reported":1753816446,"current_range_meters":8000,"station_id":"","pricing_plan_id":"cebpf4jnsgd1na2vs0mg"},{"bike_id":"80915a30-ef88-4d81-b5d1-969d1c17a42d","system_id":"levelo_inurba_marseille","lat":43.30421,"lon":5.40828,"is_reserved":false,"is_disabled":false,"rental_uris":{"android":"levelo://app?vid=80915a30-ef88-4d81-b5d1-969d1c17a42d","ios":"levelo://app?vid=80915a30-ef88-4d81-b5d1-969d1c17a42d"},"vehicle_type_id":"4","last_reported":1753816446,"current_range_meters":8000,"station_id":"","pricing_plan_id":"cebpf4jnsgd1na2vs0mg"},{"bike_id":"39a53078-0a4b-4478-9dcd-deab6f6d2477","system_id":"levelo_inurba_marseille","lat":43.29536,"lon":5.38542,"is_reserved":false,"is_disabled":false,"rental_uris":{"android":"levelo://app?vid=39a53078-0a4b-4478-9dcd-deab6f6d2477","ios":"levelo://app?vid=39a53078-0a4b-4478-9dcd-deab6f6d2477"},"vehicle_type_id":"4","last_reported":1753816446,"current_range_meters":8000,"station_id":"ce4bgih2rcd13ifvqba0","pricing_plan_id":"cebpf4jnsgd1na2vs0mg"},{"bike_id":"f1045b23-30d4-4e89-bb2c-845c4e2e7df5","system_id":"levelo_inurba_marseille","lat":43.28281,"lon":5.3506,"is_reserved":false,"is_disabled":false,"rental_uris":{"android":"levelo://app?vid=f1045b23-30d4-4e89-bb2c-845c4e2e7df5","ios":"levelo://app?vid=f1045b23-30d4-4e89-bb2c-845c4e2e7df5"},"vehicle_type_id":"4","last_reported":1753816446,"current_range_meters":5600,"station_id":"ce4bhbp2rcd13ifvqerg","pricing_plan_id":"cebpf4jnsgd1na2vs0mg"},{"bike_id":"95dd70e4-879c-49e7-b318-a6c71b22a43e","system_id":"levelo_inurba_marseille","lat":43.2703,"lon":5.39295,"is_reserved":false,"is_disabled":false,"rental_uris":{"android":"levelo://app?vid=95dd70e4-879c-49e7-b318-a6c71b22a43e","ios":"levelo://app?vid=95dd70e4-879c-49e7-b318-a6c71b22a43e"},"vehicle_type_id":"4","last_reported":1753816446,"current_range_meters":8000,"station_id":"","pricing_plan_id":"cebpf4jnsgd1na2vs0mg"},{"bike_id":"65be1806-255c-4e54-949a-5dd5c4d955f5","system_id":"levelo_inurba_marseille","lat":43.29682,"lon":5.37295,"is_reserved":false,"is_disabled":false,"rental_uris":{"android":"levelo://app?vid=65be1806-255c-4e54-949a-5dd5c4d955f5","ios":"levelo://app?vid=65be1806-255c-4e54-949a-5dd5c4d955f5"},"vehicle_type_id":"4","last_reported":1753816446,"current_range_meters":8000,"station_id":"ce4bgk12rcd13ifvqbj0","pricing_plan_id":"cebpf4jnsgd1na2vs0mg"},{"bike_id":"4023e5c0-eec1-468d-8924-fe6c2f5268be","system_id":"levelo_inurba_marseille","lat":43.29097,"lon":5.37777,"is_reserved":false,"is_disabled":false,"rental_uris":{"android":"levelo://app?vid=4023e5c0-eec1-468d-8924-fe6c2f5268be","ios":"levelo://app?vid=4023e5c0-eec1-468d-8924-fe6c2f5268be"},"vehicle_type_id":"4","last_reported":1753816446,"current_range_meters":7200,"station_id":"ce4bgi12rcd13ifvqb70","pricing_plan_id":"cebpf4jnsgd1na2vs0mg"},{"bike_id":"63c0baa2-16a1-4377-a1c3-c59cf270a640","system_id":"levelo_inurba_marseille","lat":43.27939,"lon":5.41048,"is_reserved":false,"is_disabled":false,"rental_uris":{"android":"levelo://app?vid=63c0baa2-16a1-4377-a1c3-c59cf270a640","ios":"levelo://app?vid=63c0baa2-16a1-4377-a1c3-c59cf270a640"},"vehicle_type_id":"4","last_reported":1753816446,"current_range_meters":8000,"station_id":"ce4bhnp2rcd13ifvqh0g","pricing_plan_id":"cebpf4jnsgd1na2vs0mg"},{"bike_id":"08f964bd-43d7-4b5c-886f-476d3b5a9c21","system_id":"levelo_inurba_marseille","lat":43.29081,"lon":5.37173,"is_reserved":false,"is_disabled":false,"rental_uris":{"android":"levelo://app?vid=08f964bd-43d7-4b5c-886f-476d3b5a9c21","ios":"levelo://app?vid=08f964bd-43d7-4b5c-886f-476d3b5a9c21"},"vehicle_type_id":"4","last_reported":1753816446,"current_range_meters":8400,"station_id":"ce4bh5p2rcd13ifvqe4g","pricing_plan_id":"cebpf4jnsgd1na2vs0mg"},{"bike_id":"bbcb9b1f-3381-4a31-bfe4-815b1295179d","system_id":"levelo_inurba_marseille","lat":43.29678,"lon":5.37295,"is_reserved":false,"is_disabled":false,"rental_uris":{"android":"levelo://app?vid=bbcb9b1f-3381-4a31-bfe4-815b1295179d","ios":"levelo://app?vid=bbcb9b1f-3381-4a31-bfe4-815b1295179d"},"vehicle_type_id":"4","last_reported":1753816446,"current_range_meters":8400,"station_id":"ce4bgk12rcd13ifvqbj0","pricing_plan_id":"cebpf4jnsgd1na2vs0mg"},{"bike_id":"05cbfde1-bc8b-4494-8924-fea2291ddb1f","system_id":"levelo_inurba_marseille","lat":43.29549,"lon":5.3655,"is_reserved":false,"is_disabled":false,"rental_uris":{"android":"levelo://app?vid=05cbfde1-bc8b-4494-8924-fea2291ddb1f","ios":"levelo://app?vid=05cbfde1-bc8b-4494-8924-fea2291ddb1f"},"vehicle_type_id":"4","last_reported":1753816446,"current_range_meters":8400,"station_id":"","pricing_plan_id":"cebpf4jnsgd1na2vs0mg"},{"bike_id":"37fcf059-83b8-4b6e-bc28-0c83f77e3c05","system_id":"levelo_inurba_marseille","lat":43.22448,"lon":5.34783,"is_reserved":false,"is_disabled":false,"rental_uris":{"android":"levelo://app?vid=37fcf059-83b8-4b6e-bc28-0c83f77e3c05","ios":"levelo://app?vid=37fcf059-83b8-4b6e-bc28-0c83f77e3c05"},"vehicle_type_id":"4","last_reported":1753816446,"current_range_meters":8400,"station_id":"","pricing_plan_id":"cebpf4jnsgd1na2vs0mg"},{"bike_id":"65e3db07-f188-422b-b687-3d06cfe2bcf8","system_id":"levelo_inurba_marseille","lat":43.28057,"lon":5.35003,"is_reserved":false,"is_disabled":false,"rental_uris":{"android":"levelo://app?vid=65e3db07-f188-422b-b687-3d06cfe2bcf8","ios":"levelo://app?vid=65e3db07-f188-422b-b687-3d06cfe2bcf8"},"vehicle_type_id":"4","last_reported":1753816446,"current_range_meters":8400,"station_id":"","pricing_plan_id":"cebpf4jnsgd1na2vs0mg"},{"bike_id":"003ac50b-fe3f-4861-87fb-8b9b1a9548bf","system_id":"levelo_inurba_marseille","lat":43.28915,"lon":5.38404,"is_reserved":false,"is_disabled":false,"rental_uris":{"android":"levelo://app?vid=003ac50b-fe3f-4861-87fb-8b9b1a9548bf","ios":"levelo://app?vid=003ac50b-fe3f-4861-87fb-8b9b1a9548bf"},"vehicle_type_id":"4","last_reported":1753816446,"current_range_meters":8400,"station_id":"ce4bh612rcd13ifvqe6g","pricing_plan_id":"cebpf4jnsgd1na2vs0mg"},{"bike_id":"0c308ff4-f8e0-4961-a792-5a3d17b8c5f6","system_id":"levelo_inurba_marseille","lat":43.29218,"lon":5.36074,"is_reserved":false,"is_disabled":false,"rental_uris":{"android":"levelo://app?vid=0c308ff4-f8e0-4961-a792-5a3d17b8c5f6","ios":"levelo://app?vid=0c308ff4-f8e0-4961-a792-5a3d17b8c5f6"},"vehicle_type_id":"4","last_reported":1753816446,"current_range_meters":8400,"station_id":"ce4bhbh2rcd13ifvqeqg","pricing_plan_id":"cebpf4jnsgd1na2vs0mg"},{"bike_id":"e3076d38-a9ea-4b03-9d5f-23b204e3f5cb","system_id":"levelo_inurba_marseille","lat":43.29785,"lon":5.39336,"is_reserved":false,"is_disabled":false,"rental_uris":{"android":"levelo://app?vid=e3076d38-a9ea-4b03-9d5f-23b204e3f5cb","ios":"levelo://app?vid=e3076d38-a9ea-4b03-9d5f-23b204e3f5cb"},"vehicle_type_id":"4","last_reported":1753816446,"current_range_meters":8000,"station_id":"chh1huq6cuj3fo74tm60","pricing_plan_id":"cebpf4jnsgd1na2vs0mg"},{"bike_id":"ff1814c4-7138-4a0a-8e13-b1e9093bc547","system_id":"levelo_inurba_marseille","lat":43.32665,"lon":5.40989,"is_reserved":false,"is_disabled":false,"rental_uris":{"android":"levelo://app?vid=ff1814c4-7138-4a0a-8e13-b1e9093bc547","ios":"levelo://app?vid=ff1814c4-7138-4a0a-8e13-b1e9093bc547"},"vehicle_type_id":"4","last_reported":1753816446,"current_range_meters":8400,"station_id":"ce4bhpp2rcd13ifvqhgg","pricing_plan_id":"cebpf4jnsgd1na2vs0mg"},{"bike_id":"dd618abb-b1fd-4945-994b-5c36a5051d06","system_id":"levelo_inurba_marseille","lat":43.29445,"lon":5.39748,"is_reserved":false,"is_disabled":false,"rental_uris":{"android":"levelo://app?vid=dd618abb-b1fd-4945-994b-5c36a5051d06","ios":"levelo://app?vid=dd618abb-b1fd-4945-994b-5c36a5051d06"},"vehicle_type_id":"4","last_reported":1753816446,"current_range_meters":8400,"station_id":"ce4bh3h2rcd13ifvqdo0","pricing_plan_id":"cebpf4jnsgd1na2vs0mg"},{"bike_id":"fab13034-32ba-4a46-9edf-f085fe6f3601","system_id":"levelo_inurba_marseille","lat":43.21192,"lon":5.35075,"is_reserved":false,"is_disabled":false,"rental_uris":{"android":"levelo://app?vid=fab13034-32ba-4a46-9edf-f085fe6f3601","ios":"levelo://app?vid=fab13034-32ba-4a46-9edf-f085fe6f3601"},"vehicle_type_id":"4","last_reported":1753816446,"current_range_meters":8800,"station_id":"st_cvj6sg6p6f1abm77japg","pricing_plan_id":"cebpf4jnsgd1na2vs0mg"},{"bike_id":"51c181f3-1f43-4f50-87e1-3dd33436d6a6","system_id":"levelo_inurba_marseille","lat":43.23193,"lon":5.35552,"is_reserved":false,"is_disabled":false,"rental_uris":{"android":"levelo://app?vid=51c181f3-1f43-4f50-87e1-3dd33436d6a6","ios":"levelo://app?vid=51c181f3-1f43-4f50-87e1-3dd33436d6a6"},"vehicle_type_id":"4","last_reported":1753816446,"current_range_meters":8400,"station_id":"ce4bhu92rcd13ifvqi70","pricing_plan_id":"cebpf4jnsgd1na2vs0mg"},{"bike_id":"dc295621-d13e-4210-8efb-ed92df6e662c","system_id":"levelo_inurba_marseille","lat":43.29538,"lon":5.385507,"is_reserved":false,"is_disabled":false,"rental_uris":{"android":"levelo://app?vid=dc295621-d13e-4210-8efb-ed92df6e662c","ios":"levelo://app?vid=dc295621-d13e-4210-8efb-ed92df6e662c"},"vehicle_type_id":"4","last_reported":1753816446,"current_range_meters":8800,"station_id":"ce4bgih2rcd13ifvqba0","pricing_plan_id":"cebpf4jnsgd1na2vs0mg"},{"bike_id":"149fbe11-3bce-47a0-b584-c7c7bd6bb12f","system_id":"levelo_inurba_marseille","lat":43.21622,"lon":5.34444,"is_reserved":false,"is_disabled":false,"rental_uris":{"android":"levelo://app?vid=149fbe11-3bce-47a0-b584-c7c7bd6bb12f","ios":"levelo://app?vid=149fbe11-3bce-47a0-b584-c7c7bd6bb12f"},"vehicle_type_id":"4","last_reported":1753816446,"current_range_meters":8800,"station_id":"","pricing_plan_id":"cebpf4jnsgd1na2vs0mg"},{"bike_id":"496de10e-287a-4cce-bea7-fb61c6e90556","system_id":"levelo_inurba_marseille","lat":43.241652,"lon":5.363886,"is_reserved":false,"is_disabled":false,"rental_uris":{"android":"levelo://app?vid=496de10e-287a-4cce-bea7-fb61c6e90556","ios":"levelo://app?vid=496de10e-287a-4cce-bea7-fb61c6e90556"},"vehicle_type_id":"4","last_reported":1753816446,"current_range_meters":9200,"station_id":"cpo36qri1sfpv3e86is0","pricing_plan_id":"cebpf4jnsgd1na2vs0mg"},{"bike_id":"544abcce-415c-443e-8d79-fdea90651f4d","system_id":"levelo_inurba_marseille","lat":43.26554,"lon":5.37285,"is_reserved":false,"is_disabled":false,"rental_uris":{"android":"levelo://app?vid=544abcce-415c-443e-8d79-fdea90651f4d","ios":"levelo://app?vid=544abcce-415c-443e-8d79-fdea90651f4d"},"vehicle_type_id":"4","last_reported":1753816446,"current_range_meters":9200,"station_id":"ce4bhg12rcd13ifvqf70","pricing_plan_id":"cebpf4jnsgd1na2vs0mg"},{"bike_id":"1eaed3d9-1597-4048-9a91-4abdbb2c54b4","system_id":"levelo_inurba_marseille","lat":43.29886,"lon":5.38907,"is_reserved":false,"is_disabled":false,"rental_uris":{"android":"levelo://app?vid=1eaed3d9-1597-4048-9a91-4abdbb2c54b4","ios":"levelo://app?vid=1eaed3d9-1597-4048-9a91-4abdbb2c54b4"},"vehicle_type_id":"4","last_reported":1753816446,"current_range_meters":8800,"station_id":"ce4bh392rcd13ifvqdl0","pricing_plan_id":"cebpf4jnsgd1na2vs0mg"},{"bike_id":"e0ce0053-71c4-4b07-8b9e-379e7ce2bf22","system_id":"levelo_inurba_marseille","lat":43.30242,"lon":5.39849,"is_reserved":false,"is_disabled":false,"rental_uris":{"android":"levelo://app?vid=e0ce0053-71c4-4b07-8b9e-379e7ce2bf22","ios":"levelo://app?vid=e0ce0053-71c4-4b07-8b9e-379e7ce2bf22"},"vehicle_type_id":"4","last_reported":1753816446,"current_range_meters":9200,"station_id":"","pricing_plan_id":"cebpf4jnsgd1na2vs0mg"},{"bike_id":"295f3cc6-5859-4304-8a2e-82d41677d5b8","system_id":"levelo_inurba_marseille","lat":43.31973,"lon":5.38118,"is_reserved":false,"is_disabled":false,"rental_uris":{"android":"levelo://app?vid=295f3cc6-5859-4304-8a2e-82d41677d5b8","ios":"levelo://app?vid=295f3cc6-5859-4304-8a2e-82d41677d5b8"},"vehicle_type_id":"4","last_reported":1753816446,"current_range_meters":10000,"station_id":"ce4bhr12rcd13ifvqhpg","pricing_plan_id":"cebpf4jnsgd1na2vs0mg"},{"bike_id":"971b9572-dacb-4705-afa3-ab8ef8fd0141","system_id":"levelo_inurba_marseille","lat":43.24661,"lon":5.38132,"is_reserved":false,"is_disabled":false,"rental_uris":{"android":"levelo://app?vid=971b9572-dacb-4705-afa3-ab8ef8fd0141","ios":"levelo://app?vid=971b9572-dacb-4705-afa3-ab8ef8fd0141"},"vehicle_type_id":"4","last_reported":1753816446,"current_range_meters":9600,"station_id":"ce4bhih2rcd13ifvqfr0","pricing_plan_id":"cebpf4jnsgd1na2vs0mg"},{"bike_id":"882bdff1-651a-41c1-9ab0-596f43205cf1","system_id":"levelo_inurba_marseille","lat":43.337444,"lon":5.374475,"is_reserved":false,"is_disabled":false,"rental_uris":{"android":"levelo://app?vid=882bdff1-651a-41c1-9ab0-596f43205cf1","ios":"levelo://app?vid=882bdff1-651a-41c1-9ab0-596f43205cf1"},"vehicle_type_id":"4","last_reported":1753816446,"current_range_meters":9600,"station_id":"ce4bgkp2rcd13ifvqbmg","pricing_plan_id":"cebpf4jnsgd1na2vs0mg"},{"bike_id":"da913aa8-3d8c-4ab2-b48f-187998fd2a99","system_id":"levelo_inurba_marseille","lat":43.33768,"lon":5.37476,"is_reserved":false,"is_disabled":false,"rental_uris":{"android":"levelo://app?vid=da913aa8-3d8c-4ab2-b48f-187998fd2a99","ios":"levelo://app?vid=da913aa8-3d8c-4ab2-b48f-187998fd2a99"},"vehicle_type_id":"4","last_reported":1753816446,"current_range_meters":9600,"station_id":"","pricing_plan_id":"cebpf4jnsgd1na2vs0mg"},{"bike_id":"c13ce413-660f-4ff8-9547-d17d0704485e","system_id":"levelo_inurba_marseille","lat":43.211993,"lon":5.350658,"is_reserved":false,"is_disabled":false,"rental_uris":{"android":"levelo://app?vid=c13ce413-660f-4ff8-9547-d17d0704485e","ios":"levelo://app?vid=c13ce413-660f-4ff8-9547-d17d0704485e"},"vehicle_type_id":"4","last_reported":1753816446,"current_range_meters":9600,"station_id":"","pricing_plan_id":"cebpf4jnsgd1na2vs0mg"},{"bike_id":"3b08c7fe-da62-4fb4-8da1-3e8b0064e2d8","system_id":"levelo_inurba_marseille","lat":43.30877,"lon":5.39639,"is_reserved":false,"is_disabled":true,"rental_uris":{"android":"levelo://app?vid=3b08c7fe-da62-4fb4-8da1-3e8b0064e2d8","ios":"levelo://app?vid=3b08c7fe-da62-4fb4-8da1-3e8b0064e2d8"},"vehicle_type_id":"4","last_reported":1753816446,"current_range_meters":9600,"station_id":"ce4bh012rcd13ifvqcv0","pricing_plan_id":"cebpf4jnsgd1na2vs0mg"},{"bike_id":"7124d89e-5080-46fe-9c6c-17fe9a6f6968","system_id":"levelo_inurba_marseille","lat":43.275737,"lon":5.384255,"is_reserved":false,"is_disabled":false,"rental_uris":{"android":"levelo://app?vid=7124d89e-5080-46fe-9c6c-17fe9a6f6968","ios":"levelo://app?vid=7124d89e-5080-46fe-9c6c-17fe9a6f6968"},"vehicle_type_id":"4","last_reported":1753816446,"current_range_meters":9600,"station_id":"ce4bhh92rcd13ifvqfi0","pricing_plan_id":"cebpf4jnsgd1na2vs0mg"},{"bike_id":"c346c2b3-6cb3-42c5-a1da-7b31c382d050","system_id":"levelo_inurba_marseille","lat":43.29582,"lon":5.36741,"is_reserved":false,"is_disabled":false,"rental_uris":{"android":"levelo://app?vid=c346c2b3-6cb3-42c5-a1da-7b31c382d050","ios":"levelo://app?vid=c346c2b3-6cb3-42c5-a1da-7b31c382d050"},"vehicle_type_id":"4","last_reported":1753816446,"current_range_meters":9600,"station_id":"ce4bgph2rcd13ifvqc2g","pricing_plan_id":"cebpf4jnsgd1na2vs0mg"},{"bike_id":"ded3ca32-79cf-499e-a93e-78e8e0a58def","system_id":"levelo_inurba_marseille","lat":43.29194,"lon":5.35795,"is_reserved":false,"is_disabled":true,"rental_uris":{"android":"levelo://app?vid=ded3ca32-79cf-499e-a93e-78e8e0a58def","ios":"levelo://app?vid=ded3ca32-79cf-499e-a93e-78e8e0a58def"},"vehicle_type_id":"4","last_reported":1753816446,"current_range_meters":9600,"station_id":"ce4bhb12rcd13ifvqel0","pricing_plan_id":"cebpf4jnsgd1na2vs0mg"},{"bike_id":"ec9c32a9-7247-4a7f-bfaa-d071e61566f4","system_id":"levelo_inurba_marseille","lat":43.29694,"lon":5.36607,"is_reserved":false,"is_disabled":false,"rental_uris":{"android":"levelo://app?vid=ec9c32a9-7247-4a7f-bfaa-d071e61566f4","ios":"levelo://app?vid=ec9c32a9-7247-4a7f-bfaa-d071e61566f4"},"vehicle_type_id":"4","last_reported":1753816446,"current_range_meters":9600,"station_id":"ce4bgn12rcd13ifvqbt0","pricing_plan_id":"cebpf4jnsgd1na2vs0mg"},{"bike_id":"63cb52bd-5539-4bdd-a943-0c152aa27823","system_id":"levelo_inurba_marseille","lat":43.29031,"lon":5.38644,"is_reserved":false,"is_disabled":false,"rental_uris":{"android":"levelo://app?vid=63cb52bd-5539-4bdd-a943-0c152aa27823","ios":"levelo://app?vid=63cb52bd-5539-4bdd-a943-0c152aa27823"},"vehicle_type_id":"4","last_reported":1753816446,"current_range_meters":9600,"station_id":"ce4bh4p2rcd13ifvqe0g","pricing_plan_id":"cebpf4jnsgd1na2vs0mg"},{"bike_id":"2a3a9f20-00d1-4c95-a093-ba8e28724bc0","system_id":"levelo_inurba_marseille","lat":43.30693,"lon":5.37575,"is_reserved":false,"is_disabled":false,"rental_uris":{"android":"levelo://app?vid=2a3a9f20-00d1-4c95-a093-ba8e28724bc0","ios":"levelo://app?vid=2a3a9f20-00d1-4c95-a093-ba8e28724bc0"},"vehicle_type_id":"4","last_reported":1753816446,"current_range_meters":9600,"station_id":"","pricing_plan_id":"cebpf4jnsgd1na2vs0mg"},{"bike_id":"b6c1096b-d915-4a56-9f0a-4188874faa14","system_id":"levelo_inurba_marseille","lat":43.29917,"lon":5.37477,"is_reserved":false,"is_disabled":false,"rental_uris":{"android":"levelo://app?vid=b6c1096b-d915-4a56-9f0a-4188874faa14","ios":"levelo://app?vid=b6c1096b-d915-4a56-9f0a-4188874faa14"},"vehicle_type_id":"4","last_reported":1753816446,"current_range_meters":10000,"station_id":"ce4bgjh2rcd13ifvqbg0","pricing_plan_id":"cebpf4jnsgd1na2vs0mg"},{"bike_id":"764cae37-9cae-4594-8ba0-5e89e98e74bb","system_id":"levelo_inurba_marseille","lat":43.30011,"lon":5.37158,"is_reserved":false,"is_disabled":false,"rental_uris":{"android":"levelo://app?vid=764cae37-9cae-4594-8ba0-5e89e98e74bb","ios":"levelo://app?vid=764cae37-9cae-4594-8ba0-5e89e98e74bb"},"vehicle_type_id":"4","last_reported":1753816446,"current_range_meters":10000,"station_id":"ce4bgr92rcd13ifvqc7g","pricing_plan_id":"cebpf4jnsgd1na2vs0mg"},{"bike_id":"49e11b9f-e8e8-49b0-9a27-db6ed487d8be","system_id":"levelo_inurba_marseille","lat":43.231952,"lon":5.355491,"is_reserved":false,"is_disabled":true,"rental_uris":{"android":"levelo://app?vid=49e11b9f-e8e8-49b0-9a27-db6ed487d8be","ios":"levelo://app?vid=49e11b9f-e8e8-49b0-9a27-db6ed487d8be"},"vehicle_type_id":"4","last_reported":1753816446,"current_range_meters":10000,"station_id":"ce4bhu92rcd13ifvqi70","pricing_plan_id":"cebpf4jnsgd1na2vs0mg"},{"bike_id":"ce0572ec-0376-449a-b5b5-2987ec30561e","system_id":"levelo_inurba_marseille","lat":43.27918,"lon":5.38006,"is_reserved":false,"is_disabled":false,"rental_uris":{"android":"levelo://app?vid=ce0572ec-0376-449a-b5b5-2987ec30561e","ios":"levelo://app?vid=ce0572ec-0376-449a-b5b5-2987ec30561e"},"vehicle_type_id":"4","last_reported":1753816446,"current_range_meters":10000,"station_id":"ce4bhf92rcd13ifvqf50","pricing_plan_id":"cebpf4jnsgd1na2vs0mg"},{"bike_id":"d4b0442d-37e3-4887-8827-87b59f4e9086","system_id":"levelo_inurba_marseille","lat":43.2977,"lon":5.38108,"is_reserved":false,"is_disabled":false,"rental_uris":{"android":"levelo://app?vid=d4b0442d-37e3-4887-8827-87b59f4e9086","ios":"levelo://app?vid=d4b0442d-37e3-4887-8827-87b59f4e9086"},"vehicle_type_id":"4","last_reported":1753816446,"current_range_meters":10000,"station_id":"","pricing_plan_id":"cebpf4jnsgd1na2vs0mg"},{"bike_id":"2a48028b-7faf-4fc4-865f-b6f0c90a202d","system_id":"levelo_inurba_marseille","lat":43.29262,"lon":5.3844,"is_reserved":false,"is_disabled":false,"rental_uris":{"android":"levelo://app?vid=2a48028b-7faf-4fc4-865f-b6f0c90a202d","ios":"levelo://app?vid=2a48028b-7faf-4fc4-865f-b6f0c90a202d"},"vehicle_type_id":"4","last_reported":1753816446,"current_range_meters":10000,"station_id":"ce4bh692rcd13ifvqea0","pricing_plan_id":"cebpf4jnsgd1na2vs0mg"},{"bike_id":"a13668ea-0d35-42e2-a804-3482027d7b6a","system_id":"levelo_inurba_marseille","lat":43.29249,"lon":5.3845,"is_reserved":false,"is_disabled":false,"rental_uris":{"android":"levelo://app?vid=a13668ea-0d35-42e2-a804-3482027d7b6a","ios":"levelo://app?vid=a13668ea-0d35-42e2-a804-3482027d7b6a"},"vehicle_type_id":"4","last_reported":1753816446,"current_range_meters":10800,"station_id":"ce4bh692rcd13ifvqea0","pricing_plan_id":"cebpf4jnsgd1na2vs0mg"},{"bike_id":"f0f34d3f-837c-4172-abe3-7e6d22090a62","system_id":"levelo_inurba_marseille","lat":43.28492,"lon":5.3842,"is_reserved":false,"is_disabled":false,"rental_uris":{"android":"levelo://app?vid=f0f34d3f-837c-4172-abe3-7e6d22090a62","ios":"levelo://app?vid=f0f34d3f-837c-4172-abe3-7e6d22090a62"},"vehicle_type_id":"4","last_reported":1753816446,"current_range_meters":10800,"station_id":"ce4bh512rcd13ifvqe3g","pricing_plan_id":"cebpf4jnsgd1na2vs0mg"},{"bike_id":"607d0243-98b0-4e6a-a234-c66bb6d28950","system_id":"levelo_inurba_marseille","lat":43.29799,"lon":5.40398,"is_reserved":false,"is_disabled":false,"rental_uris":{"android":"levelo://app?vid=607d0243-98b0-4e6a-a234-c66bb6d28950","ios":"levelo://app?vid=607d0243-98b0-4e6a-a234-c66bb6d28950"},"vehicle_type_id":"4","last_reported":1753816446,"current_range_meters":10800,"station_id":"ce4bh112rcd13ifvqd90","pricing_plan_id":"cebpf4jnsgd1na2vs0mg"},{"bike_id":"95d7a287-6dae-45ed-bdfb-160d2a26ba01","system_id":"levelo_inurba_marseille","lat":43.30131,"lon":5.38788,"is_reserved":false,"is_disabled":false,"rental_uris":{"android":"levelo://app?vid=95d7a287-6dae-45ed-bdfb-160d2a26ba01","ios":"levelo://app?vid=95d7a287-6dae-45ed-bdfb-160d2a26ba01"},"vehicle_type_id":"4","last_reported":1753816446,"current_range_meters":10800,"station_id":"ce4bghh2rcd13ifvqb60","pricing_plan_id":"cebpf4jnsgd1na2vs0mg"},{"bike_id":"e353a6c8-9bd8-4f86-a636-297c35a01052","system_id":"levelo_inurba_marseille","lat":43.3236,"lon":5.38885,"is_reserved":false,"is_disabled":false,"rental_uris":{"android":"levelo://app?vid=e353a6c8-9bd8-4f86-a636-297c35a01052","ios":"levelo://app?vid=e353a6c8-9bd8-4f86-a636-297c35a01052"},"vehicle_type_id":"4","last_reported":1753816446,"current_range_meters":10800,"station_id":"ce4bhqp2rcd13ifvqhog","pricing_plan_id":"cebpf4jnsgd1na2vs0mg"},{"bike_id":"54a53936-76d0-43c5-8d73-70c16309babc","system_id":"levelo_inurba_marseille","lat":43.29633,"lon":5.40591,"is_reserved":false,"is_disabled":false,"rental_uris":{"android":"levelo://app?vid=54a53936-76d0-43c5-8d73-70c16309babc","ios":"levelo://app?vid=54a53936-76d0-43c5-8d73-70c16309babc"},"vehicle_type_id":"4","last_reported":1753816446,"current_range_meters":10000,"station_id":"ce4bh0h2rcd13ifvqd60","pricing_plan_id":"cebpf4jnsgd1na2vs0mg"},{"bike_id":"6b7aef10-6ea3-4f15-8f97-883780aa294e","system_id":"levelo_inurba_marseille","lat":43.26558,"lon":5.37287,"is_reserved":false,"is_disabled":false,"rental_uris":{"android":"levelo://app?vid=6b7aef10-6ea3-4f15-8f97-883780aa294e","ios":"levelo://app?vid=6b7aef10-6ea3-4f15-8f97-883780aa294e"},"vehicle_type_id":"4","last_reported":1753816446,"current_range_meters":11200,"station_id":"ce4bhg12rcd13ifvqf70","pricing_plan_id":"cebpf4jnsgd1na2vs0mg"},{"bike_id":"8ba36832-dad3-4c36-b14b-ec7c5f18f131","system_id":"levelo_inurba_marseille","lat":43.29169,"lon":5.37158,"is_reserved":false,"is_disabled":false,"rental_uris":{"android":"levelo://app?vid=8ba36832-dad3-4c36-b14b-ec7c5f18f131","ios":"levelo://app?vid=8ba36832-dad3-4c36-b14b-ec7c5f18f131"},"vehicle_type_id":"4","last_reported":1753816446,"current_range_meters":11200,"station_id":"ce4bha92rcd13ifvqeh0","pricing_plan_id":"cebpf4jnsgd1na2vs0mg"},{"bike_id":"12aecde3-64c8-43cb-b27f-fc7122ab25a3","system_id":"levelo_inurba_marseille","lat":43.23976,"lon":5.3662,"is_reserved":false,"is_disabled":false,"rental_uris":{"android":"levelo://app?vid=12aecde3-64c8-43cb-b27f-fc7122ab25a3","ios":"levelo://app?vid=12aecde3-64c8-43cb-b27f-fc7122ab25a3"},"vehicle_type_id":"4","last_reported":1753816446,"current_range_meters":11200,"station_id":"ce4bhi12rcd13ifvqfp0","pricing_plan_id":"cebpf4jnsgd1na2vs0mg"},{"bike_id":"b463b0f9-fd1e-4d1f-988a-9fcdc134ae7b","system_id":"levelo_inurba_marseille","lat":43.2894,"lon":5.36652,"is_reserved":false,"is_disabled":false,"rental_uris":{"android":"levelo://app?vid=b463b0f9-fd1e-4d1f-988a-9fcdc134ae7b","ios":"levelo://app?vid=b463b0f9-fd1e-4d1f-988a-9fcdc134ae7b"},"vehicle_type_id":"4","last_reported":1753816446,"current_range_meters":11200,"station_id":"ce4bhap2rcd13ifvqek0","pricing_plan_id":"cebpf4jnsgd1na2vs0mg"},{"bike_id":"38b16143-eb85-40e0-962c-1bf201465b10","system_id":"levelo_inurba_marseille","lat":43.29042,"lon":5.37562,"is_reserved":false,"is_disabled":false,"rental_uris":{"android":"levelo://app?vid=38b16143-eb85-40e0-962c-1bf201465b10","ios":"levelo://app?vid=38b16143-eb85-40e0-962c-1bf201465b10"},"vehicle_type_id":"4","last_reported":1753816446,"current_range_meters":11200,"station_id":"ce4bh692rcd13ifvqe90","pricing_plan_id":"cebpf4jnsgd1na2vs0mg"},{"bike_id":"c81542ba-64ab-4123-9c79-2647f4b17111","system_id":"levelo_inurba_marseille","lat":43.29079,"lon":5.3717,"is_reserved":false,"is_disabled":false,"rental_uris":{"android":"levelo://app?vid=c81542ba-64ab-4123-9c79-2647f4b17111","ios":"levelo://app?vid=c81542ba-64ab-4123-9c79-2647f4b17111"},"vehicle_type_id":"4","last_reported":1753816446,"current_range_meters":11200,"station_id":"ce4bh5p2rcd13ifvqe4g","pricing_plan_id":"cebpf4jnsgd1na2vs0mg"},{"bike_id":"c25aac09-9044-471c-bc84-37fd09162d20","system_id":"levelo_inurba_marseille","lat":43.28609,"lon":5.3706,"is_reserved":false,"is_disabled":false,"rental_uris":{"android":"levelo://app?vid=c25aac09-9044-471c-bc84-37fd09162d20","ios":"levelo://app?vid=c25aac09-9044-471c-bc84-37fd09162d20"},"vehicle_type_id":"4","last_reported":1753816446,"current_range_meters":11200,"station_id":"ce4bht12rcd13ifvqi60","pricing_plan_id":"cebpf4jnsgd1na2vs0mg"},{"bike_id":"e73010b4-e218-4311-8a84-a58e5e5e14f1","system_id":"levelo_inurba_marseille","lat":43.273765,"lon":5.362564,"is_reserved":false,"is_disabled":false,"rental_uris":{"android":"levelo://app?vid=e73010b4-e218-4311-8a84-a58e5e5e14f1","ios":"levelo://app?vid=e73010b4-e218-4311-8a84-a58e5e5e14f1"},"vehicle_type_id":"4","last_reported":1753816446,"current_range_meters":11200,"station_id":"ce4bhbh2rcd13ifvqeo0","pricing_plan_id":"cebpf4jnsgd1na2vs0mg"},{"bike_id":"55201a9e-328f-452a-8b58-b76f0e5a4511","system_id":"levelo_inurba_marseille","lat":43.23188,"lon":5.39986,"is_reserved":false,"is_disabled":false,"rental_uris":{"android":"levelo://app?vid=55201a9e-328f-452a-8b58-b76f0e5a4511","ios":"levelo://app?vid=55201a9e-328f-452a-8b58-b76f0e5a4511"},"vehicle_type_id":"4","last_reported":1753816446,"current_range_meters":11200,"station_id":"ce4bhn12rcd13ifvqgqg","pricing_plan_id":"cebpf4jnsgd1na2vs0mg"},{"bike_id":"149441a1-4a20-4aba-ad8b-5cb0f28aa1c9","system_id":"levelo_inurba_marseille","lat":43.23077,"lon":5.35507,"is_reserved":false,"is_disabled":false,"rental_uris":{"android":"levelo://app?vid=149441a1-4a20-4aba-ad8b-5cb0f28aa1c9","ios":"levelo://app?vid=149441a1-4a20-4aba-ad8b-5cb0f28aa1c9"},"vehicle_type_id":"4","last_reported":1753816446,"current_range_meters":11200,"station_id":"cpo3342slgdg3j2ifvpg","pricing_plan_id":"cebpf4jnsgd1na2vs0mg"},{"bike_id":"cbc64ee5-590a-46f3-af18-6c8fa4e10c59","system_id":"levelo_inurba_marseille","lat":43.29561,"lon":5.37509,"is_reserved":false,"is_disabled":false,"rental_uris":{"android":"levelo://app?vid=cbc64ee5-590a-46f3-af18-6c8fa4e10c59","ios":"levelo://app?vid=cbc64ee5-590a-46f3-af18-6c8fa4e10c59"},"vehicle_type_id":"4","last_reported":1753816446,"current_range_meters":11200,"station_id":"ce4bgh92rcd13ifvqb50","pricing_plan_id":"cebpf4jnsgd1na2vs0mg"},{"bike_id":"913a9f6d-20be-461b-9b43-0e59b72b03d6","system_id":"levelo_inurba_marseille","lat":43.34142,"lon":5.409,"is_reserved":false,"is_disabled":false,"rental_uris":{"android":"levelo://app?vid=913a9f6d-20be-461b-9b43-0e59b72b03d6","ios":"levelo://app?vid=913a9f6d-20be-461b-9b43-0e59b72b03d6"},"vehicle_type_id":"4","last_reported":1753816446,"current_range_meters":11200,"station_id":"ce4bhqh2rcd13ifvqhlg","pricing_plan_id":"cebpf4jnsgd1na2vs0mg"},{"bike_id":"f534e7eb-85e1-475b-8b40-9f2f4c713dbd","system_id":"levelo_inurba_marseille","lat":43.2603,"lon":5.37559,"is_reserved":false,"is_disabled":false,"rental_uris":{"android":"levelo://app?vid=f534e7eb-85e1-475b-8b40-9f2f4c713dbd","ios":"levelo://app?vid=f534e7eb-85e1-475b-8b40-9f2f4c713dbd"},"vehicle_type_id":"4","last_reported":1753816446,"current_range_meters":11600,"station_id":"ce4bhgh2rcd13ifvqfa0","pricing_plan_id":"cebpf4jnsgd1na2vs0mg"},{"bike_id":"50427cb4-f7c5-45fa-9402-39ede650aa5c","system_id":"levelo_inurba_marseille","lat":43.31293,"lon":5.40168,"is_reserved":false,"is_disabled":true,"rental_uris":{"android":"levelo://app?vid=50427cb4-f7c5-45fa-9402-39ede650aa5c","ios":"levelo://app?vid=50427cb4-f7c5-45fa-9402-39ede650aa5c"},"vehicle_type_id":"4","last_reported":1753816446,"current_range_meters":11600,"station_id":"ce4bh092rcd13ifvqd30","pricing_plan_id":"cebpf4jnsgd1na2vs0mg"},{"bike_id":"cc19c470-73ee-457d-9003-0d7eac4ce3a6","system_id":"levelo_inurba_marseille","lat":43.29986,"lon":5.384932,"is_reserved":false,"is_disabled":false,"rental_uris":{"android":"levelo://app?vid=cc19c470-73ee-457d-9003-0d7eac4ce3a6","ios":"levelo://app?vid=cc19c470-73ee-457d-9003-0d7eac4ce3a6"},"vehicle_type_id":"4","last_reported":1753816446,"current_range_meters":11600,"station_id":"ce4bgj92rcd13ifvqbd0","pricing_plan_id":"cebpf4jnsgd1na2vs0mg"},{"bike_id":"b4f9bc61-142c-4b80-86bf-75cb2419a7ac","system_id":"levelo_inurba_marseille","lat":43.280128,"lon":5.400138,"is_reserved":false,"is_disabled":false,"rental_uris":{"android":"levelo://app?vid=b4f9bc61-142c-4b80-86bf-75cb2419a7ac","ios":"levelo://app?vid=b4f9bc61-142c-4b80-86bf-75cb2419a7ac"},"vehicle_type_id":"4","last_reported":1753816446,"current_range_meters":11600,"station_id":"ce4bho92rcd13ifvqh4g","pricing_plan_id":"cebpf4jnsgd1na2vs0mg"},{"bike_id":"3cde7563-c08b-4084-b499-b4beb99a6492","system_id":"levelo_inurba_marseille","lat":43.29033,"lon":5.38637,"is_reserved":false,"is_disabled":false,"rental_uris":{"android":"levelo://app?vid=3cde7563-c08b-4084-b499-b4beb99a6492","ios":"levelo://app?vid=3cde7563-c08b-4084-b499-b4beb99a6492"},"vehicle_type_id":"4","last_reported":1753816446,"current_range_meters":11600,"station_id":"ce4bh4p2rcd13ifvqe0g","pricing_plan_id":"cebpf4jnsgd1na2vs0mg"},{"bike_id":"c72b8430-e370-4070-8fde-2429b91dd6f5","system_id":"levelo_inurba_marseille","lat":43.30249,"lon":5.40068,"is_reserved":false,"is_disabled":false,"rental_uris":{"android":"levelo://app?vid=c72b8430-e370-4070-8fde-2429b91dd6f5","ios":"levelo://app?vid=c72b8430-e370-4070-8fde-2429b91dd6f5"},"vehicle_type_id":"4","last_reported":1753816446,"current_range_meters":11600,"station_id":"ce4bgvh2rcd13ifvqcs0","pricing_plan_id":"cebpf4jnsgd1na2vs0mg"},{"bike_id":"bf992b70-3c30-4c86-bbc9-cd4a96bdeb46","system_id":"levelo_inurba_marseille","lat":43.2508,"lon":5.39507,"is_reserved":false,"is_disabled":false,"rental_uris":{"android":"levelo://app?vid=bf992b70-3c30-4c86-bbc9-cd4a96bdeb46","ios":"levelo://app?vid=bf992b70-3c30-4c86-bbc9-cd4a96bdeb46"},"vehicle_type_id":"4","last_reported":1753816446,"current_range_meters":11600,"station_id":"ce4bhm12rcd13ifvqgkg","pricing_plan_id":"cebpf4jnsgd1na2vs0mg"},{"bike_id":"290896dd-a95b-4e84-9a74-df08aeb56be3","system_id":"levelo_inurba_marseille","lat":43.295991,"lon":5.38095,"is_reserved":false,"is_disabled":false,"rental_uris":{"android":"levelo://app?vid=290896dd-a95b-4e84-9a74-df08aeb56be3","ios":"levelo://app?vid=290896dd-a95b-4e84-9a74-df08aeb56be3"},"vehicle_type_id":"4","last_reported":1753816446,"current_range_meters":12000,"station_id":"ce4bgl12rcd13ifvqbo0","pricing_plan_id":"cebpf4jnsgd1na2vs0mg"},{"bike_id":"e537f11c-0c03-49df-a86e-b1d008bced09","system_id":"levelo_inurba_marseille","lat":43.29704,"lon":5.3662,"is_reserved":false,"is_disabled":false,"rental_uris":{"android":"levelo://app?vid=e537f11c-0c03-49df-a86e-b1d008bced09","ios":"levelo://app?vid=e537f11c-0c03-49df-a86e-b1d008bced09"},"vehicle_type_id":"4","last_reported":1753816446,"current_range_meters":12000,"station_id":"ce4bgn12rcd13ifvqbt0","pricing_plan_id":"cebpf4jnsgd1na2vs0mg"},{"bike_id":"1157ea4f-32f1-4274-ba5a-9cf1ed7dbcae","system_id":"levelo_inurba_marseille","lat":43.29057,"lon":5.38576,"is_reserved":false,"is_disabled":false,"rental_uris":{"android":"levelo://app?vid=1157ea4f-32f1-4274-ba5a-9cf1ed7dbcae","ios":"levelo://app?vid=1157ea4f-32f1-4274-ba5a-9cf1ed7dbcae"},"vehicle_type_id":"4","last_reported":1753816446,"current_range_meters":12000,"station_id":"","pricing_plan_id":"cebpf4jnsgd1na2vs0mg"},{"bike_id":"f73f8966-8b7e-457a-8b9d-c5b89ce65a5c","system_id":"levelo_inurba_marseille","lat":43.28432,"lon":5.34977,"is_reserved":false,"is_disabled":true,"rental_uris":{"android":"levelo://app?vid=f73f8966-8b7e-457a-8b9d-c5b89ce65a5c","ios":"levelo://app?vid=f73f8966-8b7e-457a-8b9d-c5b89ce65a5c"},"vehicle_type_id":"4","last_reported":1753816446,"current_range_meters":12000,"station_id":"ce4bhbh2rcd13ifvqepg","pricing_plan_id":"cebpf4jnsgd1na2vs0mg"},{"bike_id":"d8c698e8-dbd4-4e20-8574-5b433942b5f7","system_id":"levelo_inurba_marseille","lat":43.27171,"lon":5.40991,"is_reserved":false,"is_disabled":false,"rental_uris":{"android":"levelo://app?vid=d8c698e8-dbd4-4e20-8574-5b433942b5f7","ios":"levelo://app?vid=d8c698e8-dbd4-4e20-8574-5b433942b5f7"},"vehicle_type_id":"4","last_reported":1753816446,"current_range_meters":12000,"station_id":"ce4bhl12rcd13ifvqgf0","pricing_plan_id":"cebpf4jnsgd1na2vs0mg"},{"bike_id":"43348ea9-7f7d-45e7-9344-a5a742188c65","system_id":"levelo_inurba_marseille","lat":43.28701,"lon":5.37403,"is_reserved":false,"is_disabled":true,"rental_uris":{"android":"levelo://app?vid=43348ea9-7f7d-45e7-9344-a5a742188c65","ios":"levelo://app?vid=43348ea9-7f7d-45e7-9344-a5a742188c65"},"vehicle_type_id":"4","last_reported":1753816446,"current_range_meters":12000,"station_id":"ce4bh3p2rcd13ifvqdq0","pricing_plan_id":"cebpf4jnsgd1na2vs0mg"},{"bike_id":"c919fe33-8ed3-4cef-af91-da8f802c7459","system_id":"levelo_inurba_marseille","lat":43.24069,"lon":5.37772,"is_reserved":false,"is_disabled":false,"rental_uris":{"android":"levelo://app?vid=c919fe33-8ed3-4cef-af91-da8f802c7459","ios":"levelo://app?vid=c919fe33-8ed3-4cef-af91-da8f802c7459"},"vehicle_type_id":"4","last_reported":1753816446,"current_range_meters":12000,"station_id":"ce4bhnp2rcd13ifvqgvg","pricing_plan_id":"cebpf4jnsgd1na2vs0mg"},{"bike_id":"b22a3189-83db-42a2-b905-c5cad3845799","system_id":"levelo_inurba_marseille","lat":43.28933,"lon":5.36624,"is_reserved":false,"is_disabled":false,"rental_uris":{"android":"levelo://app?vid=b22a3189-83db-42a2-b905-c5cad3845799","ios":"levelo://app?vid=b22a3189-83db-42a2-b905-c5cad3845799"},"vehicle_type_id":"4","last_reported":1753816446,"current_range_meters":12000,"station_id":"ce4bhap2rcd13ifvqek0","pricing_plan_id":"cebpf4jnsgd1na2vs0mg"},{"bike_id":"b0f2b2c1-b378-4164-a22b-6eceaa434acc","system_id":"levelo_inurba_marseille","lat":43.29282,"lon":5.42752,"is_reserved":false,"is_disabled":false,"rental_uris":{"android":"levelo://app?vid=b0f2b2c1-b378-4164-a22b-6eceaa434acc","ios":"levelo://app?vid=b0f2b2c1-b378-4164-a22b-6eceaa434acc"},"vehicle_type_id":"4","last_reported":1753816446,"current_range_meters":12000,"station_id":"","pricing_plan_id":"cebpf4jnsgd1na2vs0mg"},{"bike_id":"b907c6b0-1ead-4598-8218-49f79a83ed45","system_id":"levelo_inurba_marseille","lat":43.30182,"lon":5.36617,"is_reserved":false,"is_disabled":false,"rental_uris":{"android":"levelo://app?vid=b907c6b0-1ead-4598-8218-49f79a83ed45","ios":"levelo://app?vid=b907c6b0-1ead-4598-8218-49f79a83ed45"},"vehicle_type_id":"4","last_reported":1753816446,"current_range_meters":12000,"station_id":"ce4bgrh2rcd13ifvqc8g","pricing_plan_id":"cebpf4jnsgd1na2vs0mg"},{"bike_id":"ca84d86b-b250-4928-929e-11889ddf68bf","system_id":"levelo_inurba_marseille","lat":43.29729,"lon":5.377,"is_reserved":false,"is_disabled":false,"rental_uris":{"android":"levelo://app?vid=ca84d86b-b250-4928-929e-11889ddf68bf","ios":"levelo://app?vid=ca84d86b-b250-4928-929e-11889ddf68bf"},"vehicle_type_id":"4","last_reported":1753816446,"current_range_meters":11600,"station_id":"ce4bgkh2rcd13ifvqbl0","pricing_plan_id":"cebpf4jnsgd1na2vs0mg"},{"bike_id":"1c2cee29-6d27-4bdf-b97c-eecf71616341","system_id":"levelo_inurba_marseille","lat":43.23195,"lon":5.35553,"is_reserved":false,"is_disabled":false,"rental_uris":{"android":"levelo://app?vid=1c2cee29-6d27-4bdf-b97c-eecf71616341","ios":"levelo://app?vid=1c2cee29-6d27-4bdf-b97c-eecf71616341"},"vehicle_type_id":"4","last_reported":1753816446,"current_range_meters":12400,"station_id":"ce4bhu92rcd13ifvqi70","pricing_plan_id":"cebpf4jnsgd1na2vs0mg"},{"bike_id":"2a2ab750-97a9-4e27-9f0d-b7eaa4b32af5","system_id":"levelo_inurba_marseille","lat":43.28607,"lon":5.37073,"is_reserved":false,"is_disabled":false,"rental_uris":{"android":"levelo://app?vid=2a2ab750-97a9-4e27-9f0d-b7eaa4b32af5","ios":"levelo://app?vid=2a2ab750-97a9-4e27-9f0d-b7eaa4b32af5"},"vehicle_type_id":"4","last_reported":1753816446,"current_range_meters":12400,"station_id":"ce4bht12rcd13ifvqi60","pricing_plan_id":"cebpf4jnsgd1na2vs0mg"},{"bike_id":"e137dc03-26cf-440c-b3ea-1ea522645199","system_id":"levelo_inurba_marseille","lat":43.280815,"lon":5.396626,"is_reserved":false,"is_disabled":false,"rental_uris":{"android":"levelo://app?vid=e137dc03-26cf-440c-b3ea-1ea522645199","ios":"levelo://app?vid=e137dc03-26cf-440c-b3ea-1ea522645199"},"vehicle_type_id":"4","last_reported":1753816446,"current_range_meters":12400,"station_id":"","pricing_plan_id":"cebpf4jnsgd1na2vs0mg"},{"bike_id":"000d39f0-4b83-444d-9dca-a7afdcd75602","system_id":"levelo_inurba_marseille","lat":43.29721,"lon":5.36613,"is_reserved":false,"is_disabled":false,"rental_uris":{"android":"levelo://app?vid=000d39f0-4b83-444d-9dca-a7afdcd75602","ios":"levelo://app?vid=000d39f0-4b83-444d-9dca-a7afdcd75602"},"vehicle_type_id":"4","last_reported":1753816446,"current_range_meters":12400,"station_id":"ce4bgn12rcd13ifvqbt0","pricing_plan_id":"cebpf4jnsgd1na2vs0mg"},{"bike_id":"edbaf522-9f56-45bd-ad83-eed92216bc67","system_id":"levelo_inurba_marseille","lat":43.29688,"lon":5.37287,"is_reserved":false,"is_disabled":false,"rental_uris":{"android":"levelo://app?vid=edbaf522-9f56-45bd-ad83-eed92216bc67","ios":"levelo://app?vid=edbaf522-9f56-45bd-ad83-eed92216bc67"},"vehicle_type_id":"4","last_reported":1753816446,"current_range_meters":12000,"station_id":"ce4bgk12rcd13ifvqbj0","pricing_plan_id":"cebpf4jnsgd1na2vs0mg"},{"bike_id":"d0cf6478-42c1-4d11-a40a-4e1c357a50d0","system_id":"levelo_inurba_marseille","lat":43.29513,"lon":5.39043,"is_reserved":false,"is_disabled":false,"rental_uris":{"android":"levelo://app?vid=d0cf6478-42c1-4d11-a40a-4e1c357a50d0","ios":"levelo://app?vid=d0cf6478-42c1-4d11-a40a-4e1c357a50d0"},"vehicle_type_id":"4","last_reported":1753816446,"current_range_meters":11200,"station_id":"ce4bh3p2rcd13ifvqdp0","pricing_plan_id":"cebpf4jnsgd1na2vs0mg"},{"bike_id":"e9217c43-d2dc-4322-900b-9e62dd2aa0ad","system_id":"levelo_inurba_marseille","lat":43.29305,"lon":5.37161,"is_reserved":false,"is_disabled":false,"rental_uris":{"android":"levelo://app?vid=e9217c43-d2dc-4322-900b-9e62dd2aa0ad","ios":"levelo://app?vid=e9217c43-d2dc-4322-900b-9e62dd2aa0ad"},"vehicle_type_id":"4","last_reported":1753816446,"current_range_meters":12800,"station_id":"ce4bgh92rcd13ifvqb40","pricing_plan_id":"cebpf4jnsgd1na2vs0mg"},{"bike_id":"8030baba-acad-4d90-b92e-f7a34b0afb39","system_id":"levelo_inurba_marseille","lat":43.29641,"lon":5.37147,"is_reserved":false,"is_disabled":false,"rental_uris":{"android":"levelo://app?vid=8030baba-acad-4d90-b92e-f7a34b0afb39","ios":"levelo://app?vid=8030baba-acad-4d90-b92e-f7a34b0afb39"},"vehicle_type_id":"4","last_reported":1753816446,"current_range_meters":12800,"station_id":"ce4bgnh2rcd13ifvqc0g","pricing_plan_id":"cebpf4jnsgd1na2vs0mg"},{"bike_id":"73c28b44-fb9a-4083-b9eb-e60de241e4cb","system_id":"levelo_inurba_marseille","lat":43.323278,"lon":5.38901,"is_reserved":false,"is_disabled":false,"rental_uris":{"android":"levelo://app?vid=73c28b44-fb9a-4083-b9eb-e60de241e4cb","ios":"levelo://app?vid=73c28b44-fb9a-4083-b9eb-e60de241e4cb"},"vehicle_type_id":"4","last_reported":1753816446,"current_range_meters":12800,"station_id":"ce4bhqp2rcd13ifvqhog","pricing_plan_id":"cebpf4jnsgd1na2vs0mg"},{"bike_id":"af0f0e27-0d5e-4a2d-a60a-619978603135","system_id":"levelo_inurba_marseille","lat":43.293041,"lon":5.371605,"is_reserved":false,"is_disabled":false,"rental_uris":{"android":"levelo://app?vid=af0f0e27-0d5e-4a2d-a60a-619978603135","ios":"levelo://app?vid=af0f0e27-0d5e-4a2d-a60a-619978603135"},"vehicle_type_id":"4","last_reported":1753816446,"current_range_meters":12400,"station_id":"ce4bgh92rcd13ifvqb40","pricing_plan_id":"cebpf4jnsgd1na2vs0mg"},{"bike_id":"4c2adbbe-5f43-4add-8684-7611d788a1b7","system_id":"levelo_inurba_marseille","lat":43.29751,"lon":5.37728,"is_reserved":false,"is_disabled":false,"rental_uris":{"android":"levelo://app?vid=4c2adbbe-5f43-4add-8684-7611d788a1b7","ios":"levelo://app?vid=4c2adbbe-5f43-4add-8684-7611d788a1b7"},"vehicle_type_id":"4","last_reported":1753816446,"current_range_meters":12800,"station_id":"","pricing_plan_id":"cebpf4jnsgd1na2vs0mg"},{"bike_id":"b7aa1750-7f3a-4c3b-8885-94542dbcd6cb","system_id":"levelo_inurba_marseille","lat":43.29442,"lon":5.39752,"is_reserved":false,"is_disabled":false,"rental_uris":{"android":"levelo://app?vid=b7aa1750-7f3a-4c3b-8885-94542dbcd6cb","ios":"levelo://app?vid=b7aa1750-7f3a-4c3b-8885-94542dbcd6cb"},"vehicle_type_id":"4","last_reported":1753816446,"current_range_meters":12400,"station_id":"ce4bh3h2rcd13ifvqdo0","pricing_plan_id":"cebpf4jnsgd1na2vs0mg"},{"bike_id":"ba3ac8df-fb3c-41ad-9170-2f46a7269b41","system_id":"levelo_inurba_marseille","lat":43.23182,"lon":5.39992,"is_reserved":false,"is_disabled":false,"rental_uris":{"android":"levelo://app?vid=ba3ac8df-fb3c-41ad-9170-2f46a7269b41","ios":"levelo://app?vid=ba3ac8df-fb3c-41ad-9170-2f46a7269b41"},"vehicle_type_id":"4","last_reported":1753816446,"current_range_meters":12400,"station_id":"ce4bhn12rcd13ifvqgqg","pricing_plan_id":"cebpf4jnsgd1na2vs0mg"},{"bike_id":"793a5934-9da6-495a-87d5-d2e814e81cd9","system_id":"levelo_inurba_marseille","lat":43.27621,"lon":5.36088,"is_reserved":false,"is_disabled":false,"rental_uris":{"android":"levelo://app?vid=793a5934-9da6-495a-87d5-d2e814e81cd9","ios":"levelo://app?vid=793a5934-9da6-495a-87d5-d2e814e81cd9"},"vehicle_type_id":"4","last_reported":1753816446,"current_range_meters":12800,"station_id":"ce4bgj92rcd13ifvqbe0","pricing_plan_id":"cebpf4jnsgd1na2vs0mg"},{"bike_id":"6d40d0dc-56be-4684-ab62-30a9f8bcd161","system_id":"levelo_inurba_marseille","lat":43.29264,"lon":5.38441,"is_reserved":false,"is_disabled":false,"rental_uris":{"android":"levelo://app?vid=6d40d0dc-56be-4684-ab62-30a9f8bcd161","ios":"levelo://app?vid=6d40d0dc-56be-4684-ab62-30a9f8bcd161"},"vehicle_type_id":"4","last_reported":1753816446,"current_range_meters":12800,"station_id":"ce4bh692rcd13ifvqea0","pricing_plan_id":"cebpf4jnsgd1na2vs0mg"},{"bike_id":"39687413-41bf-4779-8a6c-0b7f613290bd","system_id":"levelo_inurba_marseille","lat":43.29259,"lon":5.38403,"is_reserved":false,"is_disabled":false,"rental_uris":{"android":"levelo://app?vid=39687413-41bf-4779-8a6c-0b7f613290bd","ios":"levelo://app?vid=39687413-41bf-4779-8a6c-0b7f613290bd"},"vehicle_type_id":"4","last_reported":1753816446,"current_range_meters":12800,"station_id":"ce4bh692rcd13ifvqea0","pricing_plan_id":"cebpf4jnsgd1na2vs0mg"},{"bike_id":"a5d21f19-a2f8-4c79-9341-84f97b97beb0","system_id":"levelo_inurba_marseille","lat":43.3339,"lon":5.4007,"is_reserved":false,"is_disabled":false,"rental_uris":{"android":"levelo://app?vid=a5d21f19-a2f8-4c79-9341-84f97b97beb0","ios":"levelo://app?vid=a5d21f19-a2f8-4c79-9341-84f97b97beb0"},"vehicle_type_id":"4","last_reported":1753816446,"current_range_meters":12800,"station_id":"","pricing_plan_id":"cebpf4jnsgd1na2vs0mg"},{"bike_id":"996fe539-42e6-4511-a382-9c507d4c6b32","system_id":"levelo_inurba_marseille","lat":43.2953,"lon":5.38541,"is_reserved":false,"is_disabled":false,"rental_uris":{"android":"levelo://app?vid=996fe539-42e6-4511-a382-9c507d4c6b32","ios":"levelo://app?vid=996fe539-42e6-4511-a382-9c507d4c6b32"},"vehicle_type_id":"4","last_reported":1753816446,"current_range_meters":12800,"station_id":"ce4bgih2rcd13ifvqba0","pricing_plan_id":"cebpf4jnsgd1na2vs0mg"},{"bike_id":"04da1e35-1db0-41bf-93ea-197c60c02fc9","system_id":"levelo_inurba_marseille","lat":43.28655,"lon":5.37026,"is_reserved":false,"is_disabled":false,"rental_uris":{"android":"levelo://app?vid=04da1e35-1db0-41bf-93ea-197c60c02fc9","ios":"levelo://app?vid=04da1e35-1db0-41bf-93ea-197c60c02fc9"},"vehicle_type_id":"4","last_reported":1753816446,"current_range_meters":12800,"station_id":"ce4bht12rcd13ifvqi60","pricing_plan_id":"cebpf4jnsgd1na2vs0mg"},{"bike_id":"0dc99cab-1546-4588-8ef9-e9c6ae8e0a6f","system_id":"levelo_inurba_marseille","lat":43.23064,"lon":5.35514,"is_reserved":false,"is_disabled":false,"rental_uris":{"android":"levelo://app?vid=0dc99cab-1546-4588-8ef9-e9c6ae8e0a6f","ios":"levelo://app?vid=0dc99cab-1546-4588-8ef9-e9c6ae8e0a6f"},"vehicle_type_id":"4","last_reported":1753816446,"current_range_meters":12800,"station_id":"cpo3342slgdg3j2ifvpg","pricing_plan_id":"cebpf4jnsgd1na2vs0mg"},{"bike_id":"e9624a09-b572-4bcb-944b-ef4683557984","system_id":"levelo_inurba_marseille","lat":43.23069,"lon":5.35518,"is_reserved":false,"is_disabled":false,"rental_uris":{"android":"levelo://app?vid=e9624a09-b572-4bcb-944b-ef4683557984","ios":"levelo://app?vid=e9624a09-b572-4bcb-944b-ef4683557984"},"vehicle_type_id":"4","last_reported":1753816446,"current_range_meters":12800,"station_id":"cpo3342slgdg3j2ifvpg","pricing_plan_id":"cebpf4jnsgd1na2vs0mg"},{"bike_id":"155dc271-67c1-4e90-9c28-c36fe1e2e04d","system_id":"levelo_inurba_marseille","lat":43.28672,"lon":5.36347,"is_reserved":false,"is_disabled":false,"rental_uris":{"android":"levelo://app?vid=155dc271-67c1-4e90-9c28-c36fe1e2e04d","ios":"levelo://app?vid=155dc271-67c1-4e90-9c28-c36fe1e2e04d"},"vehicle_type_id":"4","last_reported":1753816446,"current_range_meters":12800,"station_id":"ce4bhah2rcd13ifvqej0","pricing_plan_id":"cebpf4jnsgd1na2vs0mg"},{"bike_id":"2f5a766e-3ece-4a36-9442-eef7b36a8a22","system_id":"levelo_inurba_marseille","lat":43.248136,"lon":5.37458,"is_reserved":false,"is_disabled":false,"rental_uris":{"android":"levelo://app?vid=2f5a766e-3ece-4a36-9442-eef7b36a8a22","ios":"levelo://app?vid=2f5a766e-3ece-4a36-9442-eef7b36a8a22"},"vehicle_type_id":"4","last_reported":1753816446,"current_range_meters":13600,"station_id":"ce4bhgh2rcd13ifvqfb0","pricing_plan_id":"cebpf4jnsgd1na2vs0mg"},{"bike_id":"18fca586-5175-481e-8d38-ba8432954899","system_id":"levelo_inurba_marseille","lat":43.29558,"lon":5.38507,"is_reserved":false,"is_disabled":false,"rental_uris":{"android":"levelo://app?vid=18fca586-5175-481e-8d38-ba8432954899","ios":"levelo://app?vid=18fca586-5175-481e-8d38-ba8432954899"},"vehicle_type_id":"4","last_reported":1753816446,"current_range_meters":13600,"station_id":"","pricing_plan_id":"cebpf4jnsgd1na2vs0mg"},{"bike_id":"b7234136-bf62-4ef1-9964-a9c43529d354","system_id":"levelo_inurba_marseille","lat":43.31798,"lon":5.3944,"is_reserved":false,"is_disabled":false,"rental_uris":{"android":"levelo://app?vid=b7234136-bf62-4ef1-9964-a9c43529d354","ios":"levelo://app?vid=b7234136-bf62-4ef1-9964-a9c43529d354"},"vehicle_type_id":"4","last_reported":1753816446,"current_range_meters":13600,"station_id":"","pricing_plan_id":"cebpf4jnsgd1na2vs0mg"},{"bike_id":"b93ce78a-91c6-4fce-9307-3a583d277b06","system_id":"levelo_inurba_marseille","lat":43.28718,"lon":5.37942,"is_reserved":false,"is_disabled":true,"rental_uris":{"android":"levelo://app?vid=b93ce78a-91c6-4fce-9307-3a583d277b06","ios":"levelo://app?vid=b93ce78a-91c6-4fce-9307-3a583d277b06"},"vehicle_type_id":"4","last_reported":1753816446,"current_range_meters":13600,"station_id":"ce4bh9p2rcd13ifvqec0","pricing_plan_id":"cebpf4jnsgd1na2vs0mg"},{"bike_id":"481d5c87-8363-425b-b04a-99bdd02845df","system_id":"levelo_inurba_marseille","lat":43.284159,"lon":5.374994,"is_reserved":false,"is_disabled":false,"rental_uris":{"android":"levelo://app?vid=481d5c87-8363-425b-b04a-99bdd02845df","ios":"levelo://app?vid=481d5c87-8363-425b-b04a-99bdd02845df"},"vehicle_type_id":"4","last_reported":1753816446,"current_range_meters":13600,"station_id":"ce4bh412rcd13ifvqds0","pricing_plan_id":"cebpf4jnsgd1na2vs0mg"},{"bike_id":"bafc27ca-49ca-4ecb-bc0c-66a7b5c11e40","system_id":"levelo_inurba_marseille","lat":43.298535,"lon":5.36285,"is_reserved":false,"is_disabled":false,"rental_uris":{"android":"levelo://app?vid=bafc27ca-49ca-4ecb-bc0c-66a7b5c11e40","ios":"levelo://app?vid=bafc27ca-49ca-4ecb-bc0c-66a7b5c11e40"},"vehicle_type_id":"4","last_reported":1753816446,"current_range_meters":12800,"station_id":"ce4bgpp2rcd13ifvqc3g","pricing_plan_id":"cebpf4jnsgd1na2vs0mg"},{"bike_id":"d2238803-f02f-4325-83ea-22f51f7419b5","system_id":"levelo_inurba_marseille","lat":43.2836,"lon":5.381,"is_reserved":false,"is_disabled":false,"rental_uris":{"android":"levelo://app?vid=d2238803-f02f-4325-83ea-22f51f7419b5","ios":"levelo://app?vid=d2238803-f02f-4325-83ea-22f51f7419b5"},"vehicle_type_id":"4","last_reported":1753816446,"current_range_meters":14000,"station_id":"ce4bh412rcd13ifvqdr0","pricing_plan_id":"cebpf4jnsgd1na2vs0mg"},{"bike_id":"19099173-92fb-4cb5-b5bb-c04f83c44f6e","system_id":"levelo_inurba_marseille","lat":43.27425,"lon":5.39421,"is_reserved":false,"is_disabled":false,"rental_uris":{"android":"levelo://app?vid=19099173-92fb-4cb5-b5bb-c04f83c44f6e","ios":"levelo://app?vid=19099173-92fb-4cb5-b5bb-c04f83c44f6e"},"vehicle_type_id":"4","last_reported":1753816446,"current_range_meters":13600,"station_id":"ce4bhdp2rcd13ifvqf20","pricing_plan_id":"cebpf4jnsgd1na2vs0mg"},{"bike_id":"7887f1f5-6e70-43f7-9388-01ef84d4cdc0","system_id":"levelo_inurba_marseille","lat":43.262133,"lon":5.374442,"is_reserved":false,"is_disabled":false,"rental_uris":{"android":"levelo://app?vid=7887f1f5-6e70-43f7-9388-01ef84d4cdc0","ios":"levelo://app?vid=7887f1f5-6e70-43f7-9388-01ef84d4cdc0"},"vehicle_type_id":"4","last_reported":1753816446,"current_range_meters":14000,"station_id":"ce4bgh92rcd13ifvqb40","pricing_plan_id":"cebpf4jnsgd1na2vs0mg"},{"bike_id":"a027973f-c8c9-4811-a512-806c935b4c27","system_id":"levelo_inurba_marseille","lat":43.21226,"lon":5.35077,"is_reserved":false,"is_disabled":true,"rental_uris":{"android":"levelo://app?vid=a027973f-c8c9-4811-a512-806c935b4c27","ios":"levelo://app?vid=a027973f-c8c9-4811-a512-806c935b4c27"},"vehicle_type_id":"4","last_reported":1753816446,"current_range_meters":14000,"station_id":"st_cvj6sg6p6f1abm77japg","pricing_plan_id":"cebpf4jnsgd1na2vs0mg"},{"bike_id":"36a4311d-f13b-4729-8d27-70dfef909ab6","system_id":"levelo_inurba_marseille","lat":43.27365,"lon":5.36244,"is_reserved":false,"is_disabled":false,"rental_uris":{"android":"levelo://app?vid=36a4311d-f13b-4729-8d27-70dfef909ab6","ios":"levelo://app?vid=36a4311d-f13b-4729-8d27-70dfef909ab6"},"vehicle_type_id":"4","last_reported":1753816446,"current_range_meters":14000,"station_id":"ce4bhbh2rcd13ifvqeo0","pricing_plan_id":"cebpf4jnsgd1na2vs0mg"},{"bike_id":"3b5c0421-e471-45c0-90b1-51fa584cf305","system_id":"levelo_inurba_marseille","lat":43.27814,"lon":5.40715,"is_reserved":false,"is_disabled":false,"rental_uris":{"android":"levelo://app?vid=3b5c0421-e471-45c0-90b1-51fa584cf305","ios":"levelo://app?vid=3b5c0421-e471-45c0-90b1-51fa584cf305"},"vehicle_type_id":"4","last_reported":1753816446,"current_range_meters":14000,"station_id":"ce4bhnh2rcd13ifvqgtg","pricing_plan_id":"cebpf4jnsgd1na2vs0mg"},{"bike_id":"d8e6094c-0de7-412e-bab8-3969f4a35524","system_id":"levelo_inurba_marseille","lat":43.29847,"lon":5.37574,"is_reserved":false,"is_disabled":false,"rental_uris":{"android":"levelo://app?vid=d8e6094c-0de7-412e-bab8-3969f4a35524","ios":"levelo://app?vid=d8e6094c-0de7-412e-bab8-3969f4a35524"},"vehicle_type_id":"4","last_reported":1753816446,"current_range_meters":14000,"station_id":"","pricing_plan_id":"cebpf4jnsgd1na2vs0mg"},{"bike_id":"7f3262f8-b9db-4ce0-9f33-68bc0d73023a","system_id":"levelo_inurba_marseille","lat":43.2922,"lon":5.36049,"is_reserved":false,"is_disabled":false,"rental_uris":{"android":"levelo://app?vid=7f3262f8-b9db-4ce0-9f33-68bc0d73023a","ios":"levelo://app?vid=7f3262f8-b9db-4ce0-9f33-68bc0d73023a"},"vehicle_type_id":"4","last_reported":1753816446,"current_range_meters":14000,"station_id":"ce4bhbh2rcd13ifvqeqg","pricing_plan_id":"cebpf4jnsgd1na2vs0mg"},{"bike_id":"4c9becfb-b223-42b2-8f64-37550aec8781","system_id":"levelo_inurba_marseille","lat":43.32657,"lon":5.40993,"is_reserved":false,"is_disabled":false,"rental_uris":{"android":"levelo://app?vid=4c9becfb-b223-42b2-8f64-37550aec8781","ios":"levelo://app?vid=4c9becfb-b223-42b2-8f64-37550aec8781"},"vehicle_type_id":"4","last_reported":1753816446,"current_range_meters":14400,"station_id":"ce4bhpp2rcd13ifvqhgg","pricing_plan_id":"cebpf4jnsgd1na2vs0mg"},{"bike_id":"a25d9488-e73b-40be-bb9f-2b8ca9ef5ae8","system_id":"levelo_inurba_marseille","lat":43.286006,"lon":5.398564,"is_reserved":false,"is_disabled":false,"rental_uris":{"android":"levelo://app?vid=a25d9488-e73b-40be-bb9f-2b8ca9ef5ae8","ios":"levelo://app?vid=a25d9488-e73b-40be-bb9f-2b8ca9ef5ae8"},"vehicle_type_id":"4","last_reported":1753816446,"current_range_meters":14400,"station_id":"ce4bho92rcd13ifvqh3g","pricing_plan_id":"cebpf4jnsgd1na2vs0mg"},{"bike_id":"cf0fca3e-9515-4303-8197-103af083731a","system_id":"levelo_inurba_marseille","lat":43.29282,"lon":5.36836,"is_reserved":false,"is_disabled":false,"rental_uris":{"android":"levelo://app?vid=cf0fca3e-9515-4303-8197-103af083731a","ios":"levelo://app?vid=cf0fca3e-9515-4303-8197-103af083731a"},"vehicle_type_id":"4","last_reported":1753816446,"current_range_meters":14400,"station_id":"ce4bhbp2rcd13ifvqesg","pricing_plan_id":"cebpf4jnsgd1na2vs0mg"},{"bike_id":"df12338b-d013-4f63-ab4c-a73a6173c766","system_id":"levelo_inurba_marseille","lat":43.28979,"lon":5.37845,"is_reserved":false,"is_disabled":false,"rental_uris":{"android":"levelo://app?vid=df12338b-d013-4f63-ab4c-a73a6173c766","ios":"levelo://app?vid=df12338b-d013-4f63-ab4c-a73a6173c766"},"vehicle_type_id":"4","last_reported":1753816446,"current_range_meters":14400,"station_id":"ce4bh9p2rcd13ifvqed0","pricing_plan_id":"cebpf4jnsgd1na2vs0mg"},{"bike_id":"e8a0c05d-7272-4138-a1f4-e9de17058e9b","system_id":"levelo_inurba_marseille","lat":43.28271,"lon":5.35026,"is_reserved":false,"is_disabled":true,"rental_uris":{"android":"levelo://app?vid=e8a0c05d-7272-4138-a1f4-e9de17058e9b","ios":"levelo://app?vid=e8a0c05d-7272-4138-a1f4-e9de17058e9b"},"vehicle_type_id":"4","last_reported":1753816446,"current_range_meters":14400,"station_id":"ce4bhbp2rcd13ifvqerg","pricing_plan_id":"cebpf4jnsgd1na2vs0mg"},{"bike_id":"178dea84-7705-4cd7-b754-23e78bbfdf56","system_id":"levelo_inurba_marseille","lat":43.2927,"lon":5.409,"is_reserved":false,"is_disabled":false,"rental_uris":{"android":"levelo://app?vid=178dea84-7705-4cd7-b754-23e78bbfdf56","ios":"levelo://app?vid=178dea84-7705-4cd7-b754-23e78bbfdf56"},"vehicle_type_id":"4","last_reported":1753816446,"current_range_meters":14400,"station_id":"ce4bh192rcd13ifvqdc0","pricing_plan_id":"cebpf4jnsgd1na2vs0mg"},{"bike_id":"da5d3923-6dbb-403f-97df-6ae8963f47df","system_id":"levelo_inurba_marseille","lat":43.21199,"lon":5.35061,"is_reserved":false,"is_disabled":false,"rental_uris":{"android":"levelo://app?vid=da5d3923-6dbb-403f-97df-6ae8963f47df","ios":"levelo://app?vid=da5d3923-6dbb-403f-97df-6ae8963f47df"},"vehicle_type_id":"4","last_reported":1753816446,"current_range_meters":14800,"station_id":"st_cvj6sg6p6f1abm77japg","pricing_plan_id":"cebpf4jnsgd1na2vs0mg"},{"bike_id":"ed2653a8-cef8-419b-b19a-e1a7f6058aa9","system_id":"levelo_inurba_marseille","lat":43.23197,"lon":5.35564,"is_reserved":false,"is_disabled":false,"rental_uris":{"android":"levelo://app?vid=ed2653a8-cef8-419b-b19a-e1a7f6058aa9","ios":"levelo://app?vid=ed2653a8-cef8-419b-b19a-e1a7f6058aa9"},"vehicle_type_id":"4","last_reported":1753816446,"current_range_meters":14800,"station_id":"ce4bhu92rcd13ifvqi70","pricing_plan_id":"cebpf4jnsgd1na2vs0mg"},{"bike_id":"7ae9a301-af81-4c61-b264-f97fbac78c92","system_id":"levelo_inurba_marseille","lat":43.24804,"lon":5.37465,"is_reserved":false,"is_disabled":false,"rental_uris":{"android":"levelo://app?vid=7ae9a301-af81-4c61-b264-f97fbac78c92","ios":"levelo://app?vid=7ae9a301-af81-4c61-b264-f97fbac78c92"},"vehicle_type_id":"4","last_reported":1753816446,"current_range_meters":14800,"station_id":"ce4bhgh2rcd13ifvqfb0","pricing_plan_id":"cebpf4jnsgd1na2vs0mg"},{"bike_id":"ca2b3e47-bb3e-462d-8fd3-b8cfe9ebc47e","system_id":"levelo_inurba_marseille","lat":43.28705,"lon":5.37391,"is_reserved":false,"is_disabled":false,"rental_uris":{"android":"levelo://app?vid=ca2b3e47-bb3e-462d-8fd3-b8cfe9ebc47e","ios":"levelo://app?vid=ca2b3e47-bb3e-462d-8fd3-b8cfe9ebc47e"},"vehicle_type_id":"4","last_reported":1753816446,"current_range_meters":14800,"station_id":"ce4bh3p2rcd13ifvqdq0","pricing_plan_id":"cebpf4jnsgd1na2vs0mg"},{"bike_id":"5b275c5b-f074-45ee-a28c-2709cdbbfcc4","system_id":"levelo_inurba_marseille","lat":43.30896,"lon":5.39659,"is_reserved":false,"is_disabled":false,"rental_uris":{"android":"levelo://app?vid=5b275c5b-f074-45ee-a28c-2709cdbbfcc4","ios":"levelo://app?vid=5b275c5b-f074-45ee-a28c-2709cdbbfcc4"},"vehicle_type_id":"4","last_reported":1753816446,"current_range_meters":14800,"station_id":"ce4bh012rcd13ifvqcv0","pricing_plan_id":"cebpf4jnsgd1na2vs0mg"},{"bike_id":"3e632e67-e785-475b-93e1-b0a668624c02","system_id":"levelo_inurba_marseille","lat":43.2816,"lon":5.42617,"is_reserved":false,"is_disabled":false,"rental_uris":{"android":"levelo://app?vid=3e632e67-e785-475b-93e1-b0a668624c02","ios":"levelo://app?vid=3e632e67-e785-475b-93e1-b0a668624c02"},"vehicle_type_id":"4","last_reported":1753816446,"current_range_meters":14800,"station_id":"ce4bhnh2rcd13ifvqgug","pricing_plan_id":"cebpf4jnsgd1na2vs0mg"},{"bike_id":"ef65f066-de96-432a-a3bf-b1b3ad0e62a1","system_id":"levelo_inurba_marseille","lat":43.32094,"lon":5.3679,"is_reserved":false,"is_disabled":false,"rental_uris":{"android":"levelo://app?vid=ef65f066-de96-432a-a3bf-b1b3ad0e62a1","ios":"levelo://app?vid=ef65f066-de96-432a-a3bf-b1b3ad0e62a1"},"vehicle_type_id":"4","last_reported":1753816446,"current_range_meters":14800,"station_id":"ce4bhrh2rcd13ifvqhug","pricing_plan_id":"cebpf4jnsgd1na2vs0mg"},{"bike_id":"07bfc2df-4fb8-4b42-9d6c-2075bbabdfd3","system_id":"levelo_inurba_marseille","lat":43.24171,"lon":5.36387,"is_reserved":false,"is_disabled":false,"rental_uris":{"android":"levelo://app?vid=07bfc2df-4fb8-4b42-9d6c-2075bbabdfd3","ios":"levelo://app?vid=07bfc2df-4fb8-4b42-9d6c-2075bbabdfd3"},"vehicle_type_id":"4","last_reported":1753816446,"current_range_meters":14800,"station_id":"cpo36qri1sfpv3e86is0","pricing_plan_id":"cebpf4jnsgd1na2vs0mg"},{"bike_id":"ab9c577b-9cc3-4d9b-9e71-2ee231744295","system_id":"levelo_inurba_marseille","lat":43.28109,"lon":5.38357,"is_reserved":false,"is_disabled":false,"rental_uris":{"android":"levelo://app?vid=ab9c577b-9cc3-4d9b-9e71-2ee231744295","ios":"levelo://app?vid=ab9c577b-9cc3-4d9b-9e71-2ee231744295"},"vehicle_type_id":"4","last_reported":1753816446,"current_range_meters":15200,"station_id":"","pricing_plan_id":"cebpf4jnsgd1na2vs0mg"},{"bike_id":"6331c319-a027-4e92-a182-1b44edbfba4a","system_id":"levelo_inurba_marseille","lat":43.2924,"lon":5.38441,"is_reserved":false,"is_disabled":false,"rental_uris":{"android":"levelo://app?vid=6331c319-a027-4e92-a182-1b44edbfba4a","ios":"levelo://app?vid=6331c319-a027-4e92-a182-1b44edbfba4a"},"vehicle_type_id":"4","last_reported":1753816446,"current_range_meters":15200,"station_id":"ce4bh692rcd13ifvqea0","pricing_plan_id":"cebpf4jnsgd1na2vs0mg"},{"bike_id":"a16d408b-87b7-4ea5-b6d0-ce9b4fba403c","system_id":"levelo_inurba_marseille","lat":43.28611,"lon":5.37068,"is_reserved":false,"is_disabled":false,"rental_uris":{"android":"levelo://app?vid=a16d408b-87b7-4ea5-b6d0-ce9b4fba403c","ios":"levelo://app?vid=a16d408b-87b7-4ea5-b6d0-ce9b4fba403c"},"vehicle_type_id":"4","last_reported":1753816446,"current_range_meters":15200,"station_id":"ce4bht12rcd13ifvqi60","pricing_plan_id":"cebpf4jnsgd1na2vs0mg"},{"bike_id":"b48f5dd0-6dba-4454-bab2-8fe0e77c0439","system_id":"levelo_inurba_marseille","lat":43.24169,"lon":5.3639,"is_reserved":false,"is_disabled":false,"rental_uris":{"android":"levelo://app?vid=b48f5dd0-6dba-4454-bab2-8fe0e77c0439","ios":"levelo://app?vid=b48f5dd0-6dba-4454-bab2-8fe0e77c0439"},"vehicle_type_id":"4","last_reported":1753816446,"current_range_meters":15200,"station_id":"cpo36qri1sfpv3e86is0","pricing_plan_id":"cebpf4jnsgd1na2vs0mg"},{"bike_id":"58d60ef7-501e-48a0-a97f-c0e09ff3aab0","system_id":"levelo_inurba_marseille","lat":43.222792,"lon":5.345958,"is_reserved":false,"is_disabled":false,"rental_uris":{"android":"levelo://app?vid=58d60ef7-501e-48a0-a97f-c0e09ff3aab0","ios":"levelo://app?vid=58d60ef7-501e-48a0-a97f-c0e09ff3aab0"},"vehicle_type_id":"4","last_reported":1753816446,"current_range_meters":15200,"station_id":"ce4bhp92rcd13ifvqhag","pricing_plan_id":"cebpf4jnsgd1na2vs0mg"},{"bike_id":"e293ed13-a5f8-47d4-bbe1-9c9b52c0a2e5","system_id":"levelo_inurba_marseille","lat":43.28967,"lon":5.37841,"is_reserved":false,"is_disabled":true,"rental_uris":{"android":"levelo://app?vid=e293ed13-a5f8-47d4-bbe1-9c9b52c0a2e5","ios":"levelo://app?vid=e293ed13-a5f8-47d4-bbe1-9c9b52c0a2e5"},"vehicle_type_id":"4","last_reported":1753816446,"current_range_meters":15200,"station_id":"ce4bh9p2rcd13ifvqed0","pricing_plan_id":"cebpf4jnsgd1na2vs0mg"},{"bike_id":"1ae5d7eb-1e99-401d-bdff-f20d11a3625e","system_id":"levelo_inurba_marseille","lat":43.303291,"lon":5.40441,"is_reserved":false,"is_disabled":true,"rental_uris":{"android":"levelo://app?vid=1ae5d7eb-1e99-401d-bdff-f20d11a3625e","ios":"levelo://app?vid=1ae5d7eb-1e99-401d-bdff-f20d11a3625e"},"vehicle_type_id":"4","last_reported":1753816446,"current_range_meters":15200,"station_id":"","pricing_plan_id":"cebpf4jnsgd1na2vs0mg"},{"bike_id":"417c39d2-201a-4d9b-b6d5-8cfac9c6e68b","system_id":"levelo_inurba_marseille","lat":43.29525,"lon":5.37504,"is_reserved":false,"is_disabled":false,"rental_uris":{"android":"levelo://app?vid=417c39d2-201a-4d9b-b6d5-8cfac9c6e68b","ios":"levelo://app?vid=417c39d2-201a-4d9b-b6d5-8cfac9c6e68b"},"vehicle_type_id":"4","last_reported":1753816446,"current_range_meters":16000,"station_id":"ce4bgkp2rcd13ifvqbmg","pricing_plan_id":"cebpf4jnsgd1na2vs0mg"},{"bike_id":"bcd4db20-7cfd-4c69-92d5-9b1c35a388f7","system_id":"levelo_inurba_marseille","lat":43.2306,"lon":5.35496,"is_reserved":false,"is_disabled":false,"rental_uris":{"android":"levelo://app?vid=bcd4db20-7cfd-4c69-92d5-9b1c35a388f7","ios":"levelo://app?vid=bcd4db20-7cfd-4c69-92d5-9b1c35a388f7"},"vehicle_type_id":"4","last_reported":1753816446,"current_range_meters":16000,"station_id":"cpo3342slgdg3j2ifvpg","pricing_plan_id":"cebpf4jnsgd1na2vs0mg"},{"bike_id":"860ef372-9a0c-49fb-8b40-818bf00817bd","system_id":"levelo_inurba_marseille","lat":43.29786,"lon":5.39353,"is_reserved":false,"is_disabled":false,"rental_uris":{"android":"levelo://app?vid=860ef372-9a0c-49fb-8b40-818bf00817bd","ios":"levelo://app?vid=860ef372-9a0c-49fb-8b40-818bf00817bd"},"vehicle_type_id":"4","last_reported":1753816446,"current_range_meters":16000,"station_id":"chh1huq6cuj3fo74tm60","pricing_plan_id":"cebpf4jnsgd1na2vs0mg"},{"bike_id":"ab666d87-3e70-4814-9ff2-9c4c5eb8d522","system_id":"levelo_inurba_marseille","lat":43.32146,"lon":5.36747,"is_reserved":false,"is_disabled":false,"rental_uris":{"android":"levelo://app?vid=ab666d87-3e70-4814-9ff2-9c4c5eb8d522","ios":"levelo://app?vid=ab666d87-3e70-4814-9ff2-9c4c5eb8d522"},"vehicle_type_id":"4","last_reported":1753816446,"current_range_meters":16000,"station_id":"","pricing_plan_id":"cebpf4jnsgd1na2vs0mg"},{"bike_id":"5cc5e290-c9e6-44c9-bee3-ec494abe9db7","system_id":"levelo_inurba_marseille","lat":43.30316,"lon":5.38962,"is_reserved":false,"is_disabled":false,"rental_uris":{"android":"levelo://app?vid=5cc5e290-c9e6-44c9-bee3-ec494abe9db7","ios":"levelo://app?vid=5cc5e290-c9e6-44c9-bee3-ec494abe9db7"},"vehicle_type_id":"4","last_reported":1753816446,"current_range_meters":16000,"station_id":"","pricing_plan_id":"cebpf4jnsgd1na2vs0mg"},{"bike_id":"d643088b-34c8-4e36-9c8f-84c2d6400ccb","system_id":"levelo_inurba_marseille","lat":43.29622,"lon":5.37173,"is_reserved":false,"is_disabled":false,"rental_uris":{"android":"levelo://app?vid=d643088b-34c8-4e36-9c8f-84c2d6400ccb","ios":"levelo://app?vid=d643088b-34c8-4e36-9c8f-84c2d6400ccb"},"vehicle_type_id":"4","last_reported":1753816446,"current_range_meters":16000,"station_id":"ce4bgnh2rcd13ifvqc0g","pricing_plan_id":"cebpf4jnsgd1na2vs0mg"},{"bike_id":"863b2e2b-1f2d-4c94-b7fc-5e3cf1d176ec","system_id":"levelo_inurba_marseille","lat":43.32115,"lon":5.36756,"is_reserved":false,"is_disabled":false,"rental_uris":{"android":"levelo://app?vid=863b2e2b-1f2d-4c94-b7fc-5e3cf1d176ec","ios":"levelo://app?vid=863b2e2b-1f2d-4c94-b7fc-5e3cf1d176ec"},"vehicle_type_id":"4","last_reported":1753816446,"current_range_meters":16000,"station_id":"ce4bhrh2rcd13ifvqhug","pricing_plan_id":"cebpf4jnsgd1na2vs0mg"},{"bike_id":"3c65e3a4-d98b-4db2-8d36-951b9612ba65","system_id":"levelo_inurba_marseille","lat":43.23218,"lon":5.35538,"is_reserved":false,"is_disabled":false,"rental_uris":{"android":"levelo://app?vid=3c65e3a4-d98b-4db2-8d36-951b9612ba65","ios":"levelo://app?vid=3c65e3a4-d98b-4db2-8d36-951b9612ba65"},"vehicle_type_id":"4","last_reported":1753816446,"current_range_meters":16000,"station_id":"ce4bhu92rcd13ifvqi70","pricing_plan_id":"cebpf4jnsgd1na2vs0mg"},{"bike_id":"3384dba0-7496-43d4-b6dd-d826483a6e93","system_id":"levelo_inurba_marseille","lat":43.24803,"lon":5.37457,"is_reserved":false,"is_disabled":false,"rental_uris":{"android":"levelo://app?vid=3384dba0-7496-43d4-b6dd-d826483a6e93","ios":"levelo://app?vid=3384dba0-7496-43d4-b6dd-d826483a6e93"},"vehicle_type_id":"4","last_reported":1753816446,"current_range_meters":16000,"station_id":"ce4bhgh2rcd13ifvqfb0","pricing_plan_id":"cebpf4jnsgd1na2vs0mg"},{"bike_id":"ba3a7a64-7a22-46f9-b75d-f2ece0fafc4c","system_id":"levelo_inurba_marseille","lat":43.2998,"lon":5.37171,"is_reserved":false,"is_disabled":false,"rental_uris":{"android":"levelo://app?vid=ba3a7a64-7a22-46f9-b75d-f2ece0fafc4c","ios":"levelo://app?vid=ba3a7a64-7a22-46f9-b75d-f2ece0fafc4c"},"vehicle_type_id":"4","last_reported":1753816446,"current_range_meters":16000,"station_id":"ce4bgr92rcd13ifvqc7g","pricing_plan_id":"cebpf4jnsgd1na2vs0mg"},{"bike_id":"006989d0-e964-4aa4-ad1e-5b81a65c337e","system_id":"levelo_inurba_marseille","lat":43.30824,"lon":5.38123,"is_reserved":false,"is_disabled":true,"rental_uris":{"android":"levelo://app?vid=006989d0-e964-4aa4-ad1e-5b81a65c337e","ios":"levelo://app?vid=006989d0-e964-4aa4-ad1e-5b81a65c337e"},"vehicle_type_id":"4","last_reported":1753816446,"current_range_meters":16000,"station_id":"ce4bgt12rcd13ifvqce0","pricing_plan_id":"cebpf4jnsgd1na2vs0mg"},{"bike_id":"00de3457-bb26-4f86-be97-d29604933a4d","system_id":"levelo_inurba_marseille","lat":43.28651,"lon":5.37195,"is_reserved":false,"is_disabled":false,"rental_uris":{"android":"levelo://app?vid=00de3457-bb26-4f86-be97-d29604933a4d","ios":"levelo://app?vid=00de3457-bb26-4f86-be97-d29604933a4d"},"vehicle_type_id":"4","last_reported":1753816446,"current_range_meters":16000,"station_id":"","pricing_plan_id":"cebpf4jnsgd1na2vs0mg"},{"bike_id":"d77a0db6-09c1-4add-9e54-6f6a5c0286b6","system_id":"levelo_inurba_marseille","lat":43.2925,"lon":5.38447,"is_reserved":false,"is_disabled":false,"rental_uris":{"android":"levelo://app?vid=d77a0db6-09c1-4add-9e54-6f6a5c0286b6","ios":"levelo://app?vid=d77a0db6-09c1-4add-9e54-6f6a5c0286b6"},"vehicle_type_id":"4","last_reported":1753816446,"current_range_meters":16000,"station_id":"ce4bh692rcd13ifvqea0","pricing_plan_id":"cebpf4jnsgd1na2vs0mg"},{"bike_id":"4443f0ce-ee7a-488d-b2bd-37ad7a387376","system_id":"levelo_inurba_marseille","lat":43.288483,"lon":5.39302,"is_reserved":false,"is_disabled":false,"rental_uris":{"android":"levelo://app?vid=4443f0ce-ee7a-488d-b2bd-37ad7a387376","ios":"levelo://app?vid=4443f0ce-ee7a-488d-b2bd-37ad7a387376"},"vehicle_type_id":"4","last_reported":1753816446,"current_range_meters":16400,"station_id":"ce4bh2p2rcd13ifvqdi0","pricing_plan_id":"cebpf4jnsgd1na2vs0mg"},{"bike_id":"62cc2b57-4239-43f5-99b3-51e3c34f2329","system_id":"levelo_inurba_marseille","lat":43.29982,"lon":5.38498,"is_reserved":false,"is_disabled":false,"rental_uris":{"android":"levelo://app?vid=62cc2b57-4239-43f5-99b3-51e3c34f2329","ios":"levelo://app?vid=62cc2b57-4239-43f5-99b3-51e3c34f2329"},"vehicle_type_id":"4","last_reported":1753816446,"current_range_meters":16400,"station_id":"ce4bgj92rcd13ifvqbd0","pricing_plan_id":"cebpf4jnsgd1na2vs0mg"},{"bike_id":"135ab1ea-fc9a-4785-9240-6bfa3adf7c7c","system_id":"levelo_inurba_marseille","lat":43.32358,"lon":5.36748,"is_reserved":false,"is_disabled":false,"rental_uris":{"android":"levelo://app?vid=135ab1ea-fc9a-4785-9240-6bfa3adf7c7c","ios":"levelo://app?vid=135ab1ea-fc9a-4785-9240-6bfa3adf7c7c"},"vehicle_type_id":"4","last_reported":1753816446,"current_range_meters":16400,"station_id":"ce4bhsh2rcd13ifvqi2g","pricing_plan_id":"cebpf4jnsgd1na2vs0mg"},{"bike_id":"22a76ee8-f553-454b-8e2c-89c9a43fef04","system_id":"levelo_inurba_marseille","lat":43.2577,"lon":5.3939,"is_reserved":false,"is_disabled":false,"rental_uris":{"android":"levelo://app?vid=22a76ee8-f553-454b-8e2c-89c9a43fef04","ios":"levelo://app?vid=22a76ee8-f553-454b-8e2c-89c9a43fef04"},"vehicle_type_id":"4","last_reported":1753816446,"current_range_meters":16400,"station_id":"","pricing_plan_id":"cebpf4jnsgd1na2vs0mg"},{"bike_id":"d2a74895-e846-45f5-a706-f79dccbdde17","system_id":"levelo_inurba_marseille","lat":43.286144,"lon":5.351009,"is_reserved":false,"is_disabled":false,"rental_uris":{"android":"levelo://app?vid=d2a74895-e846-45f5-a706-f79dccbdde17","ios":"levelo://app?vid=d2a74895-e846-45f5-a706-f79dccbdde17"},"vehicle_type_id":"4","last_reported":1753816446,"current_range_meters":16400,"station_id":"ce4bhch2rcd13ifvqeug","pricing_plan_id":"cebpf4jnsgd1na2vs0mg"},{"bike_id":"e835e740-02a8-4b55-b83d-8f7e332e158e","system_id":"levelo_inurba_marseille","lat":43.23062,"lon":5.35484,"is_reserved":false,"is_disabled":false,"rental_uris":{"android":"levelo://app?vid=e835e740-02a8-4b55-b83d-8f7e332e158e","ios":"levelo://app?vid=e835e740-02a8-4b55-b83d-8f7e332e158e"},"vehicle_type_id":"4","last_reported":1753816446,"current_range_meters":16400,"station_id":"cpo3342slgdg3j2ifvpg","pricing_plan_id":"cebpf4jnsgd1na2vs0mg"},{"bike_id":"d24e661e-c377-4e80-ab69-c34eefe7c2d4","system_id":"levelo_inurba_marseille","lat":43.27378,"lon":5.36252,"is_reserved":false,"is_disabled":false,"rental_uris":{"android":"levelo://app?vid=d24e661e-c377-4e80-ab69-c34eefe7c2d4","ios":"levelo://app?vid=d24e661e-c377-4e80-ab69-c34eefe7c2d4"},"vehicle_type_id":"4","last_reported":1753816446,"current_range_meters":16400,"station_id":"ce4bhbh2rcd13ifvqeo0","pricing_plan_id":"cebpf4jnsgd1na2vs0mg"},{"bike_id":"f129605f-c561-462b-9dd8-38b1fae764e6","system_id":"levelo_inurba_marseille","lat":43.32344,"lon":5.36731,"is_reserved":false,"is_disabled":false,"rental_uris":{"android":"levelo://app?vid=f129605f-c561-462b-9dd8-38b1fae764e6","ios":"levelo://app?vid=f129605f-c561-462b-9dd8-38b1fae764e6"},"vehicle_type_id":"4","last_reported":1753816446,"current_range_meters":16400,"station_id":"ce4bhsh2rcd13ifvqi2g","pricing_plan_id":"cebpf4jnsgd1na2vs0mg"},{"bike_id":"24ddc855-9db1-447b-8cc7-fb33f85a47fb","system_id":"levelo_inurba_marseille","lat":43.30595,"lon":5.37213,"is_reserved":false,"is_disabled":false,"rental_uris":{"android":"levelo://app?vid=24ddc855-9db1-447b-8cc7-fb33f85a47fb","ios":"levelo://app?vid=24ddc855-9db1-447b-8cc7-fb33f85a47fb"},"vehicle_type_id":"4","last_reported":1753816446,"current_range_meters":16400,"station_id":"ce4bgqh2rcd13ifvqc4g","pricing_plan_id":"cebpf4jnsgd1na2vs0mg"},{"bike_id":"daabd21d-fe72-4bef-9caa-c5886e1b6fe4","system_id":"levelo_inurba_marseille","lat":43.32013,"lon":5.37421,"is_reserved":false,"is_disabled":false,"rental_uris":{"android":"levelo://app?vid=daabd21d-fe72-4bef-9caa-c5886e1b6fe4","ios":"levelo://app?vid=daabd21d-fe72-4bef-9caa-c5886e1b6fe4"},"vehicle_type_id":"4","last_reported":1753816446,"current_range_meters":16400,"station_id":"","pricing_plan_id":"cebpf4jnsgd1na2vs0mg"},{"bike_id":"de0d17df-be84-4879-a59f-baa4ec3324c5","system_id":"levelo_inurba_marseille","lat":43.30892,"lon":5.39647,"is_reserved":false,"is_disabled":false,"rental_uris":{"android":"levelo://app?vid=de0d17df-be84-4879-a59f-baa4ec3324c5","ios":"levelo://app?vid=de0d17df-be84-4879-a59f-baa4ec3324c5"},"vehicle_type_id":"4","last_reported":1753816446,"current_range_meters":16400,"station_id":"ce4bh012rcd13ifvqcv0","pricing_plan_id":"cebpf4jnsgd1na2vs0mg"},{"bike_id":"0017f7c4-387e-474a-96e2-8149701bed71","system_id":"levelo_inurba_marseille","lat":43.29195,"lon":5.39314,"is_reserved":false,"is_disabled":false,"rental_uris":{"android":"levelo://app?vid=0017f7c4-387e-474a-96e2-8149701bed71","ios":"levelo://app?vid=0017f7c4-387e-474a-96e2-8149701bed71"},"vehicle_type_id":"4","last_reported":1753816446,"current_range_meters":16800,"station_id":"ce4bh192rcd13ifvqdd0","pricing_plan_id":"cebpf4jnsgd1na2vs0mg"},{"bike_id":"23cb5642-15b1-4dff-8751-77349dab4204","system_id":"levelo_inurba_marseille","lat":43.22923,"lon":5.35381,"is_reserved":false,"is_disabled":false,"rental_uris":{"android":"levelo://app?vid=23cb5642-15b1-4dff-8751-77349dab4204","ios":"levelo://app?vid=23cb5642-15b1-4dff-8751-77349dab4204"},"vehicle_type_id":"4","last_reported":1753816446,"current_range_meters":16800,"station_id":"cpo3532slgdg3j2ikp40","pricing_plan_id":"cebpf4jnsgd1na2vs0mg"},{"bike_id":"17dc87c3-f4e0-4a9e-b684-514dade2d8dd","system_id":"levelo_inurba_marseille","lat":43.29609,"lon":5.36722,"is_reserved":false,"is_disabled":false,"rental_uris":{"android":"levelo://app?vid=17dc87c3-f4e0-4a9e-b684-514dade2d8dd","ios":"levelo://app?vid=17dc87c3-f4e0-4a9e-b684-514dade2d8dd"},"vehicle_type_id":"4","last_reported":1753816446,"current_range_meters":16800,"station_id":"ce4bgph2rcd13ifvqc2g","pricing_plan_id":"cebpf4jnsgd1na2vs0mg"},{"bike_id":"a9c33566-d93e-498e-b1fa-19d57b0f8701","system_id":"levelo_inurba_marseille","lat":43.29032,"lon":5.38648,"is_reserved":false,"is_disabled":false,"rental_uris":{"android":"levelo://app?vid=a9c33566-d93e-498e-b1fa-19d57b0f8701","ios":"levelo://app?vid=a9c33566-d93e-498e-b1fa-19d57b0f8701"},"vehicle_type_id":"4","last_reported":1753816446,"current_range_meters":17200,"station_id":"ce4bh4p2rcd13ifvqe0g","pricing_plan_id":"cebpf4jnsgd1na2vs0mg"},{"bike_id":"50b4b37a-6dd8-4e2f-9faa-cd5450e06e22","system_id":"levelo_inurba_marseille","lat":43.2872,"lon":5.39978,"is_reserved":false,"is_disabled":false,"rental_uris":{"android":"levelo://app?vid=50b4b37a-6dd8-4e2f-9faa-cd5450e06e22","ios":"levelo://app?vid=50b4b37a-6dd8-4e2f-9faa-cd5450e06e22"},"vehicle_type_id":"4","last_reported":1753816446,"current_range_meters":16800,"station_id":"ce4bho92rcd13ifvqh3g","pricing_plan_id":"cebpf4jnsgd1na2vs0mg"},{"bike_id":"a6a46ae2-d764-44ee-baf2-a76e49bd9084","system_id":"levelo_inurba_marseille","lat":43.26979,"lon":5.40291,"is_reserved":false,"is_disabled":false,"rental_uris":{"android":"levelo://app?vid=a6a46ae2-d764-44ee-baf2-a76e49bd9084","ios":"levelo://app?vid=a6a46ae2-d764-44ee-baf2-a76e49bd9084"},"vehicle_type_id":"4","last_reported":1753816446,"current_range_meters":16800,"station_id":"cjm6bp8fraef2m0cb0m0","pricing_plan_id":"cebpf4jnsgd1na2vs0mg"},{"bike_id":"5aae0171-8e81-41e3-9059-0b6db07bd8e8","system_id":"levelo_inurba_marseille","lat":43.28432,"lon":5.34971,"is_reserved":false,"is_disabled":false,"rental_uris":{"android":"levelo://app?vid=5aae0171-8e81-41e3-9059-0b6db07bd8e8","ios":"levelo://app?vid=5aae0171-8e81-41e3-9059-0b6db07bd8e8"},"vehicle_type_id":"4","last_reported":1753816446,"current_range_meters":16800,"station_id":"ce4bhbh2rcd13ifvqepg","pricing_plan_id":"cebpf4jnsgd1na2vs0mg"},{"bike_id":"c686771c-e4d6-4ee5-934b-f3ca190b833e","system_id":"levelo_inurba_marseille","lat":43.32765,"lon":5.39204,"is_reserved":false,"is_disabled":false,"rental_uris":{"android":"levelo://app?vid=c686771c-e4d6-4ee5-934b-f3ca190b833e","ios":"levelo://app?vid=c686771c-e4d6-4ee5-934b-f3ca190b833e"},"vehicle_type_id":"4","last_reported":1753816446,"current_range_meters":16800,"station_id":"","pricing_plan_id":"cebpf4jnsgd1na2vs0mg"},{"bike_id":"c377b3f9-68be-44d7-b77d-929e8fb3bd57","system_id":"levelo_inurba_marseille","lat":43.29923,"lon":5.37473,"is_reserved":false,"is_disabled":false,"rental_uris":{"android":"levelo://app?vid=c377b3f9-68be-44d7-b77d-929e8fb3bd57","ios":"levelo://app?vid=c377b3f9-68be-44d7-b77d-929e8fb3bd57"},"vehicle_type_id":"4","last_reported":1753816446,"current_range_meters":16800,"station_id":"ce4bgjh2rcd13ifvqbg0","pricing_plan_id":"cebpf4jnsgd1na2vs0mg"},{"bike_id":"3d54e97c-ec3a-42f4-bf86-812f072159e8","system_id":"levelo_inurba_marseille","lat":43.2815,"lon":5.4264,"is_reserved":false,"is_disabled":false,"rental_uris":{"android":"levelo://app?vid=3d54e97c-ec3a-42f4-bf86-812f072159e8","ios":"levelo://app?vid=3d54e97c-ec3a-42f4-bf86-812f072159e8"},"vehicle_type_id":"4","last_reported":1753816446,"current_range_meters":16800,"station_id":"ce4bhnh2rcd13ifvqgug","pricing_plan_id":"cebpf4jnsgd1na2vs0mg"},{"bike_id":"27121016-03d3-4670-9ce6-a156435b86ae","system_id":"levelo_inurba_marseille","lat":43.323421,"lon":5.406284,"is_reserved":false,"is_disabled":true,"rental_uris":{"android":"levelo://app?vid=27121016-03d3-4670-9ce6-a156435b86ae","ios":"levelo://app?vid=27121016-03d3-4670-9ce6-a156435b86ae"},"vehicle_type_id":"4","last_reported":1753816446,"current_range_meters":17200,"station_id":"ce4bh012rcd13ifvqd00","pricing_plan_id":"cebpf4jnsgd1na2vs0mg"},{"bike_id":"85d95a9a-bae1-4127-a50f-dff98ce29fd5","system_id":"levelo_inurba_marseille","lat":43.32364,"lon":5.3888,"is_reserved":false,"is_disabled":false,"rental_uris":{"android":"levelo://app?vid=85d95a9a-bae1-4127-a50f-dff98ce29fd5","ios":"levelo://app?vid=85d95a9a-bae1-4127-a50f-dff98ce29fd5"},"vehicle_type_id":"4","last_reported":1753816446,"current_range_meters":17200,"station_id":"ce4bhqp2rcd13ifvqhog","pricing_plan_id":"cebpf4jnsgd1na2vs0mg"},