{"last_updated":1767680401,"ttl":60,"version":"2.2","data":{"bikes":[{"bike_id":"3115bbd7-1c85-4603-a617-db0a037ecab5","system_id":"levelo_inurba_marseille","lat":43.29445,"lon":5.43241,"is_reserved":false,"is_disabled":false,"rental_uris":{"android":"levelo://app?vid=3115bbd7-1c85-4603-a617-db0a037ecab5","ios":"levelo://app?vid=3115bbd7-1c85-4603-a617-db0a037ecab5"},"vehicle_type_id":"4","last_reported":1767680401,"current_range_meters":2800,"station_id":"","pricing_plan_id":"cebpf4jnsgd1na2vs0mg"},{"bike_id":"0e471836-29c5-4d70-93bc-4b375d486538","system_id":"levelo_inurba_marseille","lat":43.294533,"lon":5.397449,"is_reserved":false,"is_disabled":false,"rental_uris":{"android":"levelo://app?vid=0e471836-29c5-4d70-93bc-4b375d486538","ios":"levelo://app?vid=0e471836-29c5-4d70-93bc-4b375d486538"},"vehicle_type_id":"4","last_reported":1767680401,"current_range_meters":2800,"station_id":"ce4bh3h2rcd13ifvqdo0","pricing_plan_id":"cebpf4jnsgd1na2vs0mg"},{"bike_id":"3f8b91dc-4190-44ac-a53a-0db98b9d9ad9","system_id":"levelo_inurba_marseille","lat":43.2442,"lon":5.37053,"is_reserved":false,"is_disabled":false,"rental_uris":{"android":"levelo://app?vid=3f8b91dc-4190-44ac-a53a-0db98b9d9ad9","ios":"levelo://app?vid=3f8b91dc-4190-44ac-a53a-0db98b9d9ad9"},"vehicle_type_id":"4","last_reported":1767680401,"current_range_meters":2800,"station_id":"ce4bhhh2rcd13ifvqfk0","pricing_plan_id":"cebpf4jnsgd1na2vs0mg"},{"bike_id":"8f67289a-c445-41d3-a7c1-2b5874f96ec2","system_id":"levelo_inurba_marseille","lat":43.31329,"lon":5.40446,"is_reserved":false,"is_disabled":false,"rental_uris":{"android":"levelo://app?vid=8f67289a-c445-41d3-a7c1-2b5874f96ec2","ios":"levelo://app?vid=8f67289a-c445-41d3-a7c1-2b5874f96ec2"},"vehicle_type_id":"4","last_reported":1767680401,"current_range_meters":2800,"station_id":"","pricing_plan_id":"cebpf4jnsgd1na2vs0mg"},{"bike_id":"fad88370-eff2-40ad-91f9-be30e2fbd51d","system_id":"levelo_inurba_marseille","lat":43.29443,"lon":5.39749,"is_reserved":false,"is_disabled":true,"rental_uris":{"android":"levelo://app?vid=fad88370-eff2-40ad-91f9-be30e2fbd51d","ios":"levelo://app?vid=fad88370-eff2-40ad-91f9-be30e2fbd51d"},"vehicle_type_id":"4","last_reported":1767680401,"current_range_meters":2800,"station_id":"ce4bh3h2rcd13ifvqdo0","pricing_plan_id":"cebpf4jnsgd1na2vs0mg"},{"bike_id":"d1a8582c-3d84-4b4e-ace7-3ba06413c6cb","system_id":"levelo_inurba_marseille","lat":43.31224,"lon":5.36884,"is_reserved":false,"is_disabled":false,"rental_uris":{"android":"levelo://app?vid=d1a8582c-3d84-4b4e-ace7-3ba06413c6cb","ios":"levelo://app?vid=d1a8582c-3d84-4b4e-ace7-3ba06413c6cb"},"vehicle_type_id":"4","last_reported":1767680401,"current_range_meters":2800,"station_id":"ce4bgl92rcd13ifvqbq0","pricing_plan_id":"cebpf4jnsgd1na2vs0mg"},{"bike_id":"8c3e87fb-1d28-47b4-8c2c-d2b9f5aa74c7","system_id":"levelo_inurba_marseille","lat":43.28157,"lon":5.4265,"is_reserved":false,"is_disabled":false,"rental_uris":{"android":"levelo://app?vid=8c3e87fb-1d28-47b4-8c2c-d2b9f5aa74c7","ios":"levelo://app?vid=8c3e87fb-1d28-47b4-8c2c-d2b9f5aa74c7"},"vehicle_type_id":"4","last_reported":1767680401,"current_range_meters":2800,"station_id":"ce4bhnh2rcd13ifvqgug","pricing_plan_id":"cebpf4jnsgd1na2vs0mg"},{"bike_id":"254a6c59-5f0c-4c52-8628-8e7efad88c7e","system_id":"levelo_inurba_marseille","lat":43.24156,"lon":5.36395,"is_reserved":false,"is_disabled":false,"rental_uris":{"android":"levelo://app?vid=254a6c59-5f0c-4c52-8628-8e7efad88c7e","ios":"levelo://app?vid=254a6c59-5f0c-4c52-8628-8e7efad88c7e"},"vehicle_type_id":"4","last_reported":1767680401,"current_range_meters":2800,"station_id":"cpo36qri1sfpv3e86is0","pricing_plan_id":"cebpf4jnsgd1na2vs0mg"},{"bike_id":"89cdcc0f-6abe-433f-a6b7-588bb41bee1d","system_id":"levelo_inurba_marseille","lat":43.29062,"lon":5.37116,"is_reserved":false,"is_disabled":false,"rental_uris":{"android":"levelo://app?vid=89cdcc0f-6abe-433f-a6b7-588bb41bee1d","ios":"levelo://app?vid=89cdcc0f-6abe-433f-a6b7-588bb41bee1d"},"vehicle_type_id":"4","last_reported":1767680401,"current_range_meters":3200,"station_id":"ce4bh5p2rcd13ifvqe4g","pricing_plan_id":"cebpf4jnsgd1na2vs0mg"},{"bike_id":"85e63a3c-0a42-4442-8bd8-e76297dfbb4f","system_id":"levelo_inurba_marseille","lat":43.26554,"lon":5.37292,"is_reserved":false,"is_disabled":false,"rental_uris":{"android":"levelo://app?vid=85e63a3c-0a42-4442-8bd8-e76297dfbb4f","ios":"levelo://app?vid=85e63a3c-0a42-4442-8bd8-e76297dfbb4f"},"vehicle_type_id":"4","last_reported":1767680401,"current_range_meters":3200,"station_id":"ce4bhg12rcd13ifvqf70","pricing_plan_id":"cebpf4jnsgd1na2vs0mg"},{"bike_id":"f3b4d634-902f-494f-ac75-5bbe54b9827c","system_id":"levelo_inurba_marseille","lat":43.293738,"lon":5.37856,"is_reserved":false,"is_disabled":false,"rental_uris":{"android":"levelo://app?vid=f3b4d634-902f-494f-ac75-5bbe54b9827c","ios":"levelo://app?vid=f3b4d634-902f-494f-ac75-5bbe54b9827c"},"vehicle_type_id":"4","last_reported":1767680401,"current_range_meters":3200,"station_id":"ce4bgjh2rcd13ifvqbf0","pricing_plan_id":"cebpf4jnsgd1na2vs0mg"},{"bike_id":"c916e23f-69cf-4763-8e6a-30df04016fcd","system_id":"levelo_inurba_marseille","lat":43.24667,"lon":5.3815,"is_reserved":false,"is_disabled":false,"rental_uris":{"android":"levelo://app?vid=c916e23f-69cf-4763-8e6a-30df04016fcd","ios":"levelo://app?vid=c916e23f-69cf-4763-8e6a-30df04016fcd"},"vehicle_type_id":"4","last_reported":1767680401,"current_range_meters":3200,"station_id":"ce4bhih2rcd13ifvqfr0","pricing_plan_id":"cebpf4jnsgd1na2vs0mg"},{"bike_id":"edbb502a-babb-4b56-b7b2-69e8e10c7c11","system_id":"levelo_inurba_marseille","lat":43.2852,"lon":5.48363,"is_reserved":false,"is_disabled":false,"rental_uris":{"android":"levelo://app?vid=edbb502a-babb-4b56-b7b2-69e8e10c7c11","ios":"levelo://app?vid=edbb502a-babb-4b56-b7b2-69e8e10c7c11"},"vehicle_type_id":"4","last_reported":1767680401,"current_range_meters":3200,"station_id":"","pricing_plan_id":"cebpf4jnsgd1na2vs0mg"},{"bike_id":"c48b8ab0-3aed-485b-9e87-5ea8f52478d4","system_id":"levelo_inurba_marseille","lat":43.316,"lon":5.38405,"is_reserved":false,"is_disabled":false,"rental_uris":{"android":"levelo://app?vid=c48b8ab0-3aed-485b-9e87-5ea8f52478d4","ios":"levelo://app?vid=c48b8ab0-3aed-485b-9e87-5ea8f52478d4"},"vehicle_type_id":"4","last_reported":1767680401,"current_range_meters":3200,"station_id":"","pricing_plan_id":"cebpf4jnsgd1na2vs0mg"},{"bike_id":"0d813d00-2a6d-404d-ba29-9da1ea6709a3","system_id":"levelo_inurba_marseille","lat":43.25873,"lon":5.39891,"is_reserved":false,"is_disabled":false,"rental_uris":{"android":"levelo://app?vid=0d813d00-2a6d-404d-ba29-9da1ea6709a3","ios":"levelo://app?vid=0d813d00-2a6d-404d-ba29-9da1ea6709a3"},"vehicle_type_id":"4","last_reported":1767680401,"current_range_meters":3200,"station_id":"ce4bhl92rcd13ifvqghg","pricing_plan_id":"cebpf4jnsgd1na2vs0mg"},{"bike_id":"2972406d-51d8-45d2-9547-23c812d25ec7","system_id":"levelo_inurba_marseille","lat":43.31226,"lon":5.36873,"is_reserved":false,"is_disabled":false,"rental_uris":{"android":"levelo://app?vid=2972406d-51d8-45d2-9547-23c812d25ec7","ios":"levelo://app?vid=2972406d-51d8-45d2-9547-23c812d25ec7"},"vehicle_type_id":"4","last_reported":1767680401,"current_range_meters":3200,"station_id":"ce4bgl92rcd13ifvqbq0","pricing_plan_id":"cebpf4jnsgd1na2vs0mg"},{"bike_id":"bbc52f9d-58c0-4a25-aafe-221d02bf47d5","system_id":"levelo_inurba_marseille","lat":43.31366,"lon":5.38497,"is_reserved":false,"is_disabled":false,"rental_uris":{"android":"levelo://app?vid=bbc52f9d-58c0-4a25-aafe-221d02bf47d5","ios":"levelo://app?vid=bbc52f9d-58c0-4a25-aafe-221d02bf47d5"},"vehicle_type_id":"4","last_reported":1767680401,"current_range_meters":3200,"station_id":"ce4bgt92rcd13ifvqcf0","pricing_plan_id":"cebpf4jnsgd1na2vs0mg"},{"bike_id":"9eb9f2a9-0def-423d-bc04-f48d9e280ab5","system_id":"levelo_inurba_marseille","lat":43.30537,"lon":5.36708,"is_reserved":false,"is_disabled":false,"rental_uris":{"android":"levelo://app?vid=9eb9f2a9-0def-423d-bc04-f48d9e280ab5","ios":"levelo://app?vid=9eb9f2a9-0def-423d-bc04-f48d9e280ab5"},"vehicle_type_id":"4","last_reported":1767680401,"current_range_meters":3600,"station_id":"ce4bgrp2rcd13ifvqc9g","pricing_plan_id":"cebpf4jnsgd1na2vs0mg"},{"bike_id":"ee777e48-7b1d-477a-8aa7-246572e50a4f","system_id":"levelo_inurba_marseille","lat":43.23779,"lon":5.3662,"is_reserved":false,"is_disabled":false,"rental_uris":{"android":"levelo://app?vid=ee777e48-7b1d-477a-8aa7-246572e50a4f","ios":"levelo://app?vid=ee777e48-7b1d-477a-8aa7-246572e50a4f"},"vehicle_type_id":"4","last_reported":1767680401,"current_range_meters":3600,"station_id":"st_d3nk18o9ro0c73en2l3g","pricing_plan_id":"cebpf4jnsgd1na2vs0mg"},{"bike_id":"3bc151a5-6a42-4f15-984e-e4dbbdbf3b09","system_id":"levelo_inurba_marseille","lat":43.32353,"lon":5.36731,"is_reserved":false,"is_disabled":false,"rental_uris":{"android":"levelo://app?vid=3bc151a5-6a42-4f15-984e-e4dbbdbf3b09","ios":"levelo://app?vid=3bc151a5-6a42-4f15-984e-e4dbbdbf3b09"},"vehicle_type_id":"4","last_reported":1767680401,"current_range_meters":3600,"station_id":"ce4bhsh2rcd13ifvqi2g","pricing_plan_id":"cebpf4jnsgd1na2vs0mg"},{"bike_id":"e3aa32d8-6703-4bb5-89dd-c6404061fee0","system_id":"levelo_inurba_marseille","lat":43.31376,"lon":5.38011,"is_reserved":false,"is_disabled":false,"rental_uris":{"android":"levelo://app?vid=e3aa32d8-6703-4bb5-89dd-c6404061fee0","ios":"levelo://app?vid=e3aa32d8-6703-4bb5-89dd-c6404061fee0"},"vehicle_type_id":"4","last_reported":1767680401,"current_range_meters":3600,"station_id":"","pricing_plan_id":"cebpf4jnsgd1na2vs0mg"},{"bike_id":"94631d93-b069-40b3-983b-fd97171222ce","system_id":"levelo_inurba_marseille","lat":43.279496,"lon":5.410456,"is_reserved":false,"is_disabled":false,"rental_uris":{"android":"levelo://app?vid=94631d93-b069-40b3-983b-fd97171222ce","ios":"levelo://app?vid=94631d93-b069-40b3-983b-fd97171222ce"},"vehicle_type_id":"4","last_reported":1767680401,"current_range_meters":3600,"station_id":"ce4bhnp2rcd13ifvqh0g","pricing_plan_id":"cebpf4jnsgd1na2vs0mg"},{"bike_id":"fd8f368a-790a-472f-8659-a02b635b9f3b","system_id":"levelo_inurba_marseille","lat":43.31066,"lon":5.37447,"is_reserved":false,"is_disabled":false,"rental_uris":{"android":"levelo://app?vid=fd8f368a-790a-472f-8659-a02b635b9f3b","ios":"levelo://app?vid=fd8f368a-790a-472f-8659-a02b635b9f3b"},"vehicle_type_id":"4","last_reported":1767680401,"current_range_meters":3600,"station_id":"","pricing_plan_id":"cebpf4jnsgd1na2vs0mg"},{"bike_id":"a37d40f7-6a7a-463a-8f5a-b25737a5a4f2","system_id":"levelo_inurba_marseille","lat":43.299,"lon":5.38004,"is_reserved":false,"is_disabled":false,"rental_uris":{"android":"levelo://app?vid=a37d40f7-6a7a-463a-8f5a-b25737a5a4f2","ios":"levelo://app?vid=a37d40f7-6a7a-463a-8f5a-b25737a5a4f2"},"vehicle_type_id":"4","last_reported":1767680401,"current_range_meters":3600,"station_id":"","pricing_plan_id":"cebpf4jnsgd1na2vs0mg"},{"bike_id":"0abda507-827b-4ba6-b5d5-a4467158d662","system_id":"levelo_inurba_marseille","lat":43.23189,"lon":5.40001,"is_reserved":false,"is_disabled":false,"rental_uris":{"android":"levelo://app?vid=0abda507-827b-4ba6-b5d5-a4467158d662","ios":"levelo://app?vid=0abda507-827b-4ba6-b5d5-a4467158d662"},"vehicle_type_id":"4","last_reported":1767680401,"current_range_meters":3600,"station_id":"ce4bhn12rcd13ifvqgqg","pricing_plan_id":"cebpf4jnsgd1na2vs0mg"},{"bike_id":"7409f8d2-dfa9-4964-9bc6-c3a46a1923df","system_id":"levelo_inurba_marseille","lat":43.27381,"lon":5.3626,"is_reserved":false,"is_disabled":false,"rental_uris":{"android":"levelo://app?vid=7409f8d2-dfa9-4964-9bc6-c3a46a1923df","ios":"levelo://app?vid=7409f8d2-dfa9-4964-9bc6-c3a46a1923df"},"vehicle_type_id":"4","last_reported":1767680401,"current_range_meters":3600,"station_id":"ce4bhbh2rcd13ifvqeo0","pricing_plan_id":"cebpf4jnsgd1na2vs0mg"},{"bike_id":"5c827fc7-5784-4786-aa73-f42f7218f09d","system_id":"levelo_inurba_marseille","lat":43.30028,"lon":5.38335,"is_reserved":false,"is_disabled":false,"rental_uris":{"android":"levelo://app?vid=5c827fc7-5784-4786-aa73-f42f7218f09d","ios":"levelo://app?vid=5c827fc7-5784-4786-aa73-f42f7218f09d"},"vehicle_type_id":"4","last_reported":1767680401,"current_range_meters":4000,"station_id":"ce4bhn12rcd13ifvqgpg","pricing_plan_id":"cebpf4jnsgd1na2vs0mg"},{"bike_id":"85f65327-244d-4e0f-989f-0ca631a03630","system_id":"levelo_inurba_marseille","lat":43.28162,"lon":5.42636,"is_reserved":false,"is_disabled":false,"rental_uris":{"android":"levelo://app?vid=85f65327-244d-4e0f-989f-0ca631a03630","ios":"levelo://app?vid=85f65327-244d-4e0f-989f-0ca631a03630"},"vehicle_type_id":"4","last_reported":1767680401,"current_range_meters":4000,"station_id":"ce4bhnh2rcd13ifvqgug","pricing_plan_id":"cebpf4jnsgd1na2vs0mg"},{"bike_id":"6931475d-2e9f-45d6-89bf-e7806014b592","system_id":"levelo_inurba_marseille","lat":43.307825,"lon":5.376502,"is_reserved":false,"is_disabled":true,"rental_uris":{"android":"levelo://app?vid=6931475d-2e9f-45d6-89bf-e7806014b592","ios":"levelo://app?vid=6931475d-2e9f-45d6-89bf-e7806014b592"},"vehicle_type_id":"4","last_reported":1767680401,"current_range_meters":4000,"station_id":"ce4bgv92rcd13ifvqcq0","pricing_plan_id":"cebpf4jnsgd1na2vs0mg"},{"bike_id":"5c208eb7-cfe0-4db6-8dff-e4e21273e139","system_id":"levelo_inurba_marseille","lat":43.26936,"lon":5.40233,"is_reserved":false,"is_disabled":false,"rental_uris":{"android":"levelo://app?vid=5c208eb7-cfe0-4db6-8dff-e4e21273e139","ios":"levelo://app?vid=5c208eb7-cfe0-4db6-8dff-e4e21273e139"},"vehicle_type_id":"4","last_reported":1767680401,"current_range_meters":4000,"station_id":"cjm6bp8fraef2m0cb0m0","pricing_plan_id":"cebpf4jnsgd1na2vs0mg"},{"bike_id":"7fb60e4c-351d-4c82-b949-05a0c6795968","system_id":"levelo_inurba_marseille","lat":43.299742,"lon":5.371854,"is_reserved":false,"is_disabled":false,"rental_uris":{"android":"levelo://app?vid=7fb60e4c-351d-4c82-b949-05a0c6795968","ios":"levelo://app?vid=7fb60e4c-351d-4c82-b949-05a0c6795968"},"vehicle_type_id":"4","last_reported":1767680401,"current_range_meters":4000,"station_id":"ce4bgr92rcd13ifvqc7g","pricing_plan_id":"cebpf4jnsgd1na2vs0mg"},{"bike_id":"5c752d77-7b25-48ba-99ef-9b278d0c9e59","system_id":"levelo_inurba_marseille","lat":43.243878,"lon":5.370476,"is_reserved":false,"is_disabled":false,"rental_uris":{"android":"levelo://app?vid=5c752d77-7b25-48ba-99ef-9b278d0c9e59","ios":"levelo://app?vid=5c752d77-7b25-48ba-99ef-9b278d0c9e59"},"vehicle_type_id":"4","last_reported":1767680401,"current_range_meters":4000,"station_id":"ce4bhhh2rcd13ifvqfk0","pricing_plan_id":"cebpf4jnsgd1na2vs0mg"},{"bike_id":"c5365846-c619-4f12-8c92-97c9f9725a15","system_id":"levelo_inurba_marseille","lat":43.29507,"lon":5.37947,"is_reserved":false,"is_disabled":false,"rental_uris":{"android":"levelo://app?vid=c5365846-c619-4f12-8c92-97c9f9725a15","ios":"levelo://app?vid=c5365846-c619-4f12-8c92-97c9f9725a15"},"vehicle_type_id":"4","last_reported":1767680401,"current_range_meters":4000,"station_id":"","pricing_plan_id":"cebpf4jnsgd1na2vs0mg"},{"bike_id":"55654a27-5cd8-4223-b844-2fc4c9f1600a","system_id":"levelo_inurba_marseille","lat":43.31366,"lon":5.37911,"is_reserved":false,"is_disabled":false,"rental_uris":{"android":"levelo://app?vid=55654a27-5cd8-4223-b844-2fc4c9f1600a","ios":"levelo://app?vid=55654a27-5cd8-4223-b844-2fc4c9f1600a"},"vehicle_type_id":"4","last_reported":1767680401,"current_range_meters":4000,"station_id":"","pricing_plan_id":"cebpf4jnsgd1na2vs0mg"},{"bike_id":"a346bc68-538a-4c08-a956-8c993271e9f9","system_id":"levelo_inurba_marseille","lat":43.316056,"lon":5.384452,"is_reserved":false,"is_disabled":false,"rental_uris":{"android":"levelo://app?vid=a346bc68-538a-4c08-a956-8c993271e9f9","ios":"levelo://app?vid=a346bc68-538a-4c08-a956-8c993271e9f9"},"vehicle_type_id":"4","last_reported":1767680401,"current_range_meters":4400,"station_id":"","pricing_plan_id":"cebpf4jnsgd1na2vs0mg"},{"bike_id":"a521f1e5-04a4-4f93-9ae1-8abfbfbd224d","system_id":"levelo_inurba_marseille","lat":43.30362,"lon":5.43064,"is_reserved":false,"is_disabled":false,"rental_uris":{"android":"levelo://app?vid=a521f1e5-04a4-4f93-9ae1-8abfbfbd224d","ios":"levelo://app?vid=a521f1e5-04a4-4f93-9ae1-8abfbfbd224d"},"vehicle_type_id":"4","last_reported":1767680401,"current_range_meters":4400,"station_id":"","pricing_plan_id":"cebpf4jnsgd1na2vs0mg"},{"bike_id":"506403bb-f5d1-4958-a710-37acfa7c195c","system_id":"levelo_inurba_marseille","lat":43.31249,"lon":5.3812,"is_reserved":false,"is_disabled":false,"rental_uris":{"android":"levelo://app?vid=506403bb-f5d1-4958-a710-37acfa7c195c","ios":"levelo://app?vid=506403bb-f5d1-4958-a710-37acfa7c195c"},"vehicle_type_id":"4","last_reported":1767680401,"current_range_meters":4400,"station_id":"","pricing_plan_id":"cebpf4jnsgd1na2vs0mg"},{"bike_id":"a7ddf1fe-a380-4005-be9c-254f57d4d0b0","system_id":"levelo_inurba_marseille","lat":43.337444,"lon":5.374475,"is_reserved":false,"is_disabled":true,"rental_uris":{"android":"levelo://app?vid=a7ddf1fe-a380-4005-be9c-254f57d4d0b0","ios":"levelo://app?vid=a7ddf1fe-a380-4005-be9c-254f57d4d0b0"},"vehicle_type_id":"4","last_reported":1767680401,"current_range_meters":4400,"station_id":"","pricing_plan_id":"cebpf4jnsgd1na2vs0mg"},{"bike_id":"8f3e537d-e514-408a-bb87-1ef66add8f2f","system_id":"levelo_inurba_marseille","lat":43.29216,"lon":5.36039,"is_reserved":false,"is_disabled":false,"rental_uris":{"android":"levelo://app?vid=8f3e537d-e514-408a-bb87-1ef66add8f2f","ios":"levelo://app?vid=8f3e537d-e514-408a-bb87-1ef66add8f2f"},"vehicle_type_id":"4","last_reported":1767680401,"current_range_meters":4400,"station_id":"ce4bhbh2rcd13ifvqeqg","pricing_plan_id":"cebpf4jnsgd1na2vs0mg"},{"bike_id":"bded8fdd-ec77-4f6c-ac80-640892e88778","system_id":"levelo_inurba_marseille","lat":43.27827,"lon":5.4071,"is_reserved":false,"is_disabled":false,"rental_uris":{"android":"levelo://app?vid=bded8fdd-ec77-4f6c-ac80-640892e88778","ios":"levelo://app?vid=bded8fdd-ec77-4f6c-ac80-640892e88778"},"vehicle_type_id":"4","last_reported":1767680401,"current_range_meters":4400,"station_id":"ce4bhnh2rcd13ifvqgtg","pricing_plan_id":"cebpf4jnsgd1na2vs0mg"},{"bike_id":"9a898d8c-cf91-4640-acfb-d3be64781fb9","system_id":"levelo_inurba_marseille","lat":43.28474,"lon":5.48397,"is_reserved":false,"is_disabled":false,"rental_uris":{"android":"levelo://app?vid=9a898d8c-cf91-4640-acfb-d3be64781fb9","ios":"levelo://app?vid=9a898d8c-cf91-4640-acfb-d3be64781fb9"},"vehicle_type_id":"4","last_reported":1767680401,"current_range_meters":4400,"station_id":"","pricing_plan_id":"cebpf4jnsgd1na2vs0mg"},{"bike_id":"801e0e40-fac2-4fbc-9636-b8eb982b0989","system_id":"levelo_inurba_marseille","lat":43.23961,"lon":5.36628,"is_reserved":false,"is_disabled":false,"rental_uris":{"android":"levelo://app?vid=801e0e40-fac2-4fbc-9636-b8eb982b0989","ios":"levelo://app?vid=801e0e40-fac2-4fbc-9636-b8eb982b0989"},"vehicle_type_id":"4","last_reported":1767680401,"current_range_meters":4800,"station_id":"ce4bhi12rcd13ifvqfp0","pricing_plan_id":"cebpf4jnsgd1na2vs0mg"},{"bike_id":"0e22fed4-cc8e-4c96-9cf2-c02ee7fd65a9","system_id":"levelo_inurba_marseille","lat":43.31064,"lon":5.39275,"is_reserved":false,"is_disabled":false,"rental_uris":{"android":"levelo://app?vid=0e22fed4-cc8e-4c96-9cf2-c02ee7fd65a9","ios":"levelo://app?vid=0e22fed4-cc8e-4c96-9cf2-c02ee7fd65a9"},"vehicle_type_id":"4","last_reported":1767680401,"current_range_meters":4800,"station_id":"","pricing_plan_id":"cebpf4jnsgd1na2vs0mg"},{"bike_id":"803689f6-700f-46ea-893e-250f914f8390","system_id":"levelo_inurba_marseille","lat":43.30209,"lon":5.394613,"is_reserved":false,"is_disabled":false,"rental_uris":{"android":"levelo://app?vid=803689f6-700f-46ea-893e-250f914f8390","ios":"levelo://app?vid=803689f6-700f-46ea-893e-250f914f8390"},"vehicle_type_id":"4","last_reported":1767680401,"current_range_meters":4800,"station_id":"ce4bh0p2rcd13ifvqd70","pricing_plan_id":"cebpf4jnsgd1na2vs0mg"},{"bike_id":"7f0effc9-a455-4ad1-9f50-585d68dccc8b","system_id":"levelo_inurba_marseille","lat":43.28809,"lon":5.36361,"is_reserved":false,"is_disabled":false,"rental_uris":{"android":"levelo://app?vid=7f0effc9-a455-4ad1-9f50-585d68dccc8b","ios":"levelo://app?vid=7f0effc9-a455-4ad1-9f50-585d68dccc8b"},"vehicle_type_id":"4","last_reported":1767680401,"current_range_meters":4800,"station_id":"","pricing_plan_id":"cebpf4jnsgd1na2vs0mg"},{"bike_id":"78b11bb5-5700-4fb6-b0c1-d37e13475e71","system_id":"levelo_inurba_marseille","lat":43.29387,"lon":5.37866,"is_reserved":false,"is_disabled":false,"rental_uris":{"android":"levelo://app?vid=78b11bb5-5700-4fb6-b0c1-d37e13475e71","ios":"levelo://app?vid=78b11bb5-5700-4fb6-b0c1-d37e13475e71"},"vehicle_type_id":"4","last_reported":1767680401,"current_range_meters":4800,"station_id":"ce4bgjh2rcd13ifvqbf0","pricing_plan_id":"cebpf4jnsgd1na2vs0mg"},{"bike_id":"d19e7d8f-8d39-4e32-b60a-b3305948b30b","system_id":"levelo_inurba_marseille","lat":43.24172,"lon":5.36393,"is_reserved":false,"is_disabled":false,"rental_uris":{"android":"levelo://app?vid=d19e7d8f-8d39-4e32-b60a-b3305948b30b","ios":"levelo://app?vid=d19e7d8f-8d39-4e32-b60a-b3305948b30b"},"vehicle_type_id":"4","last_reported":1767680401,"current_range_meters":4800,"station_id":"cpo36qri1sfpv3e86is0","pricing_plan_id":"cebpf4jnsgd1na2vs0mg"},{"bike_id":"577a8429-e907-45de-a0fc-b8c3d38163f6","system_id":"levelo_inurba_marseille","lat":43.27911,"lon":5.38258,"is_reserved":false,"is_disabled":false,"rental_uris":{"android":"levelo://app?vid=577a8429-e907-45de-a0fc-b8c3d38163f6","ios":"levelo://app?vid=577a8429-e907-45de-a0fc-b8c3d38163f6"},"vehicle_type_id":"4","last_reported":1767680401,"current_range_meters":4800,"station_id":"","pricing_plan_id":"cebpf4jnsgd1na2vs0mg"},{"bike_id":"dca9a712-a982-44b1-8cbd-17efb24372eb","system_id":"levelo_inurba_marseille","lat":43.30175,"lon":5.3665,"is_reserved":false,"is_disabled":false,"rental_uris":{"android":"levelo://app?vid=dca9a712-a982-44b1-8cbd-17efb24372eb","ios":"levelo://app?vid=dca9a712-a982-44b1-8cbd-17efb24372eb"},"vehicle_type_id":"4","last_reported":1767680401,"current_range_meters":5600,"station_id":"ce4bgrh2rcd13ifvqc8g","pricing_plan_id":"cebpf4jnsgd1na2vs0mg"},{"bike_id":"0f7eefdf-8972-4dc8-89aa-952cc1944736","system_id":"levelo_inurba_marseille","lat":43.27813,"lon":5.407306,"is_reserved":false,"is_disabled":false,"rental_uris":{"android":"levelo://app?vid=0f7eefdf-8972-4dc8-89aa-952cc1944736","ios":"levelo://app?vid=0f7eefdf-8972-4dc8-89aa-952cc1944736"},"vehicle_type_id":"4","last_reported":1767680401,"current_range_meters":5600,"station_id":"ce4bhnh2rcd13ifvqgtg","pricing_plan_id":"cebpf4jnsgd1na2vs0mg"},{"bike_id":"624def88-3290-4b1b-8e34-827eb7187f9b","system_id":"levelo_inurba_marseille","lat":43.27066,"lon":5.422762,"is_reserved":false,"is_disabled":false,"rental_uris":{"android":"levelo://app?vid=624def88-3290-4b1b-8e34-827eb7187f9b","ios":"levelo://app?vid=624def88-3290-4b1b-8e34-827eb7187f9b"},"vehicle_type_id":"4","last_reported":1767680401,"current_range_meters":5600,"station_id":"ce4bhk92rcd13ifvqgb0","pricing_plan_id":"cebpf4jnsgd1na2vs0mg"},{"bike_id":"989451d7-3f8d-4e64-a115-091fbcfa3071","system_id":"levelo_inurba_marseille","lat":43.28432,"lon":5.39183,"is_reserved":false,"is_disabled":false,"rental_uris":{"android":"levelo://app?vid=989451d7-3f8d-4e64-a115-091fbcfa3071","ios":"levelo://app?vid=989451d7-3f8d-4e64-a115-091fbcfa3071"},"vehicle_type_id":"4","last_reported":1767680401,"current_range_meters":5600,"station_id":"ce4bhoh2rcd13ifvqh5g","pricing_plan_id":"cebpf4jnsgd1na2vs0mg"},{"bike_id":"504c62db-8dc0-4d03-9c83-c1acce2e5fab","system_id":"levelo_inurba_marseille","lat":43.29147,"lon":5.37972,"is_reserved":false,"is_disabled":false,"rental_uris":{"android":"levelo://app?vid=504c62db-8dc0-4d03-9c83-c1acce2e5fab","ios":"levelo://app?vid=504c62db-8dc0-4d03-9c83-c1acce2e5fab"},"vehicle_type_id":"4","last_reported":1767680401,"current_range_meters":5600,"station_id":"","pricing_plan_id":"cebpf4jnsgd1na2vs0mg"},{"bike_id":"2aef254a-0519-4115-b834-d932ebcb603b","system_id":"levelo_inurba_marseille","lat":43.24187,"lon":5.39721,"is_reserved":false,"is_disabled":false,"rental_uris":{"android":"levelo://app?vid=2aef254a-0519-4115-b834-d932ebcb603b","ios":"levelo://app?vid=2aef254a-0519-4115-b834-d932ebcb603b"},"vehicle_type_id":"4","last_reported":1767680401,"current_range_meters":5600,"station_id":"ce4bhn12rcd13ifvqgpg","pricing_plan_id":"cebpf4jnsgd1na2vs0mg"},{"bike_id":"49a70347-36ae-4442-a0c3-32c4ed4b4ff4","system_id":"levelo_inurba_marseille","lat":43.28856,"lon":5.42524,"is_reserved":false,"is_disabled":false,"rental_uris":{"android":"levelo://app?vid=49a70347-36ae-4442-a0c3-32c4ed4b4ff4","ios":"levelo://app?vid=49a70347-36ae-4442-a0c3-32c4ed4b4ff4"},"vehicle_type_id":"4","last_reported":1767680401,"current_range_meters":6000,"station_id":"st_d3b462108ojc7389ooeg","pricing_plan_id":"cebpf4jnsgd1na2vs0mg"},{"bike_id":"8c1916f3-9874-4eb0-8987-deefc3073e14","system_id":"levelo_inurba_marseille","lat":43.29116,"lon":5.38099,"is_reserved":false,"is_disabled":false,"rental_uris":{"android":"levelo://app?vid=8c1916f3-9874-4eb0-8987-deefc3073e14","ios":"levelo://app?vid=8c1916f3-9874-4eb0-8987-deefc3073e14"},"vehicle_type_id":"4","last_reported":1767680401,"current_range_meters":6000,"station_id":"ce4bh512rcd13ifvqe2g","pricing_plan_id":"cebpf4jnsgd1na2vs0mg"},{"bike_id":"423890d3-f014-4ad2-9883-d1880b33351e","system_id":"levelo_inurba_marseille","lat":43.3133,"lon":5.39688,"is_reserved":false,"is_disabled":false,"rental_uris":{"android":"levelo://app?vid=423890d3-f014-4ad2-9883-d1880b33351e","ios":"levelo://app?vid=423890d3-f014-4ad2-9883-d1880b33351e"},"vehicle_type_id":"4","last_reported":1767680401,"current_range_meters":6000,"station_id":"ce4bgvp2rcd13ifvqcu0","pricing_plan_id":"cebpf4jnsgd1na2vs0mg"},{"bike_id":"2ad11e8b-6525-4219-97fa-e942c570f9bd","system_id":"levelo_inurba_marseille","lat":43.27041,"lon":5.38317,"is_reserved":false,"is_disabled":false,"rental_uris":{"android":"levelo://app?vid=2ad11e8b-6525-4219-97fa-e942c570f9bd","ios":"levelo://app?vid=2ad11e8b-6525-4219-97fa-e942c570f9bd"},"vehicle_type_id":"4","last_reported":1767680401,"current_range_meters":6000,"station_id":"st_d3n2fo6cfp8s73cte1j0","pricing_plan_id":"cebpf4jnsgd1na2vs0mg"},{"bike_id":"e5080626-6fd3-465a-95fc-ffeeb81121ed","system_id":"levelo_inurba_marseille","lat":43.30515,"lon":5.36652,"is_reserved":false,"is_disabled":false,"rental_uris":{"android":"levelo://app?vid=e5080626-6fd3-465a-95fc-ffeeb81121ed","ios":"levelo://app?vid=e5080626-6fd3-465a-95fc-ffeeb81121ed"},"vehicle_type_id":"4","last_reported":1767680401,"current_range_meters":6000,"station_id":"","pricing_plan_id":"cebpf4jnsgd1na2vs0mg"},{"bike_id":"58aa433d-6523-48fb-83cc-9676ed151533","system_id":"levelo_inurba_marseille","lat":43.27914,"lon":5.39589,"is_reserved":false,"is_disabled":false,"rental_uris":{"android":"levelo://app?vid=58aa433d-6523-48fb-83cc-9676ed151533","ios":"levelo://app?vid=58aa433d-6523-48fb-83cc-9676ed151533"},"vehicle_type_id":"4","last_reported":1767680401,"current_range_meters":6000,"station_id":"ce4bhf92rcd13ifvqf40","pricing_plan_id":"cebpf4jnsgd1na2vs0mg"},{"bike_id":"093f3379-cf7d-4260-b2a9-7ae528f92dcb","system_id":"levelo_inurba_marseille","lat":43.29609,"lon":5.37717,"is_reserved":false,"is_disabled":false,"rental_uris":{"android":"levelo://app?vid=093f3379-cf7d-4260-b2a9-7ae528f92dcb","ios":"levelo://app?vid=093f3379-cf7d-4260-b2a9-7ae528f92dcb"},"vehicle_type_id":"4","last_reported":1767680401,"current_range_meters":6000,"station_id":"ce4bgi92rcd13ifvqb90","pricing_plan_id":"cebpf4jnsgd1na2vs0mg"},{"bike_id":"f97c9d69-08f3-4e6e-837a-e318a0cb9742","system_id":"levelo_inurba_marseille","lat":43.29297,"lon":5.36828,"is_reserved":false,"is_disabled":false,"rental_uris":{"android":"levelo://app?vid=f97c9d69-08f3-4e6e-837a-e318a0cb9742","ios":"levelo://app?vid=f97c9d69-08f3-4e6e-837a-e318a0cb9742"},"vehicle_type_id":"4","last_reported":1767680401,"current_range_meters":6000,"station_id":"ce4bhbp2rcd13ifvqesg","pricing_plan_id":"cebpf4jnsgd1na2vs0mg"},{"bike_id":"0e918b68-9ad7-4fa7-a25b-8a5f660aa768","system_id":"levelo_inurba_marseille","lat":43.29159,"lon":5.37159,"is_reserved":false,"is_disabled":false,"rental_uris":{"android":"levelo://app?vid=0e918b68-9ad7-4fa7-a25b-8a5f660aa768","ios":"levelo://app?vid=0e918b68-9ad7-4fa7-a25b-8a5f660aa768"},"vehicle_type_id":"4","last_reported":1767680401,"current_range_meters":6000,"station_id":"ce4bha92rcd13ifvqeh0","pricing_plan_id":"cebpf4jnsgd1na2vs0mg"},{"bike_id":"6d144e18-c317-45d2-a70f-5ce6eec5adda","system_id":"levelo_inurba_marseille","lat":43.26707,"lon":5.40219,"is_reserved":false,"is_disabled":false,"rental_uris":{"android":"levelo://app?vid=6d144e18-c317-45d2-a70f-5ce6eec5adda","ios":"levelo://app?vid=6d144e18-c317-45d2-a70f-5ce6eec5adda"},"vehicle_type_id":"4","last_reported":1767680401,"current_range_meters":6000,"station_id":"","pricing_plan_id":"cebpf4jnsgd1na2vs0mg"},{"bike_id":"19ae9f94-2604-4ea1-9b89-2cfef13f757c","system_id":"levelo_inurba_marseille","lat":43.253424,"lon":5.421644,"is_reserved":false,"is_disabled":false,"rental_uris":{"android":"levelo://app?vid=19ae9f94-2604-4ea1-9b89-2cfef13f757c","ios":"levelo://app?vid=19ae9f94-2604-4ea1-9b89-2cfef13f757c"},"vehicle_type_id":"4","last_reported":1767680401,"current_range_meters":6000,"station_id":"st_d2m65c5bi1j21697t3ng","pricing_plan_id":"cebpf4jnsgd1na2vs0mg"},{"bike_id":"bd300446-e87a-42b8-9a81-aff40a2f3d1f","system_id":"levelo_inurba_marseille","lat":43.28696,"lon":5.37388,"is_reserved":false,"is_disabled":false,"rental_uris":{"android":"levelo://app?vid=bd300446-e87a-42b8-9a81-aff40a2f3d1f","ios":"levelo://app?vid=bd300446-e87a-42b8-9a81-aff40a2f3d1f"},"vehicle_type_id":"4","last_reported":1767680401,"current_range_meters":6000,"station_id":"ce4bh3p2rcd13ifvqdq0","pricing_plan_id":"cebpf4jnsgd1na2vs0mg"},{"bike_id":"9b6d4335-5c89-40cd-a57b-155467c3599f","system_id":"levelo_inurba_marseille","lat":43.28053,"lon":5.39694,"is_reserved":false,"is_disabled":false,"rental_uris":{"android":"levelo://app?vid=9b6d4335-5c89-40cd-a57b-155467c3599f","ios":"levelo://app?vid=9b6d4335-5c89-40cd-a57b-155467c3599f"},"vehicle_type_id":"4","last_reported":1767680401,"current_range_meters":6000,"station_id":"ce4bho12rcd13ifvqh2g","pricing_plan_id":"cebpf4jnsgd1na2vs0mg"},{"bike_id":"4d3ddcb3-cc8f-4e3d-93e5-673f0eb4bf33","system_id":"levelo_inurba_marseille","lat":43.28078,"lon":5.39659,"is_reserved":false,"is_disabled":false,"rental_uris":{"android":"levelo://app?vid=4d3ddcb3-cc8f-4e3d-93e5-673f0eb4bf33","ios":"levelo://app?vid=4d3ddcb3-cc8f-4e3d-93e5-673f0eb4bf33"},"vehicle_type_id":"4","last_reported":1767680401,"current_range_meters":6000,"station_id":"ce4bho12rcd13ifvqh2g","pricing_plan_id":"cebpf4jnsgd1na2vs0mg"},{"bike_id":"bf5aaa97-9258-436f-934d-edcef9bf7954","system_id":"levelo_inurba_marseille","lat":43.31699,"lon":5.39986,"is_reserved":false,"is_disabled":false,"rental_uris":{"android":"levelo://app?vid=bf5aaa97-9258-436f-934d-edcef9bf7954","ios":"levelo://app?vid=bf5aaa97-9258-436f-934d-edcef9bf7954"},"vehicle_type_id":"4","last_reported":1767680401,"current_range_meters":6000,"station_id":"","pricing_plan_id":"cebpf4jnsgd1na2vs0mg"},{"bike_id":"8674a0fb-2929-4fee-a4ac-adb3c958d8ee","system_id":"levelo_inurba_marseille","lat":43.29217,"lon":5.36072,"is_reserved":false,"is_disabled":false,"rental_uris":{"android":"levelo://app?vid=8674a0fb-2929-4fee-a4ac-adb3c958d8ee","ios":"levelo://app?vid=8674a0fb-2929-4fee-a4ac-adb3c958d8ee"},"vehicle_type_id":"4","last_reported":1767680401,"current_range_meters":6000,"station_id":"ce4bhbh2rcd13ifvqeqg","pricing_plan_id":"cebpf4jnsgd1na2vs0mg"},{"bike_id":"e3a366e7-432a-4c86-8fda-c24791fb1ce5","system_id":"levelo_inurba_marseille","lat":43.29769,"lon":5.37745,"is_reserved":false,"is_disabled":false,"rental_uris":{"android":"levelo://app?vid=e3a366e7-432a-4c86-8fda-c24791fb1ce5","ios":"levelo://app?vid=e3a366e7-432a-4c86-8fda-c24791fb1ce5"},"vehicle_type_id":"4","last_reported":1767680401,"current_range_meters":6000,"station_id":"","pricing_plan_id":"cebpf4jnsgd1na2vs0mg"},{"bike_id":"cfd96779-ac06-41e3-84f7-a5ca7fe9eaab","system_id":"levelo_inurba_marseille","lat":43.28478,"lon":5.48377,"is_reserved":false,"is_disabled":false,"rental_uris":{"android":"levelo://app?vid=cfd96779-ac06-41e3-84f7-a5ca7fe9eaab","ios":"levelo://app?vid=cfd96779-ac06-41e3-84f7-a5ca7fe9eaab"},"vehicle_type_id":"4","last_reported":1767680401,"current_range_meters":6000,"station_id":"","pricing_plan_id":"cebpf4jnsgd1na2vs0mg"},{"bike_id":"fde24df3-addb-4a7b-b0e7-f2e289c22e5d","system_id":"levelo_inurba_marseille","lat":43.31042,"lon":5.39376,"is_reserved":false,"is_disabled":false,"rental_uris":{"android":"levelo://app?vid=fde24df3-addb-4a7b-b0e7-f2e289c22e5d","ios":"levelo://app?vid=fde24df3-addb-4a7b-b0e7-f2e289c22e5d"},"vehicle_type_id":"4","last_reported":1767680401,"current_range_meters":6000,"station_id":"","pricing_plan_id":"cebpf4jnsgd1na2vs0mg"},{"bike_id":"f191a03b-f238-4b08-9e6f-cfcdf5b41fcf","system_id":"levelo_inurba_marseille","lat":43.25101,"lon":5.39515,"is_reserved":false,"is_disabled":false,"rental_uris":{"android":"levelo://app?vid=f191a03b-f238-4b08-9e6f-cfcdf5b41fcf","ios":"levelo://app?vid=f191a03b-f238-4b08-9e6f-cfcdf5b41fcf"},"vehicle_type_id":"4","last_reported":1767680401,"current_range_meters":6000,"station_id":"ce4bhm12rcd13ifvqgkg","pricing_plan_id":"cebpf4jnsgd1na2vs0mg"},{"bike_id":"531ba190-2d4e-4722-99ab-7185252e6433","system_id":"levelo_inurba_marseille","lat":43.22567,"lon":5.41626,"is_reserved":false,"is_disabled":false,"rental_uris":{"android":"levelo://app?vid=531ba190-2d4e-4722-99ab-7185252e6433","ios":"levelo://app?vid=531ba190-2d4e-4722-99ab-7185252e6433"},"vehicle_type_id":"4","last_reported":1767680401,"current_range_meters":6000,"station_id":"st_d2o4gvlbi1j2169b742g","pricing_plan_id":"cebpf4jnsgd1na2vs0mg"},{"bike_id":"0e56497d-2fdb-4797-b5b0-2fbc698bc20a","system_id":"levelo_inurba_marseille","lat":43.293735,"lon":5.378661,"is_reserved":false,"is_disabled":false,"rental_uris":{"android":"levelo://app?vid=0e56497d-2fdb-4797-b5b0-2fbc698bc20a","ios":"levelo://app?vid=0e56497d-2fdb-4797-b5b0-2fbc698bc20a"},"vehicle_type_id":"4","last_reported":1767680401,"current_range_meters":6000,"station_id":"ce4bgjh2rcd13ifvqbf0","pricing_plan_id":"cebpf4jnsgd1na2vs0mg"},{"bike_id":"18fd9acf-139f-469c-825a-531fec60dfb8","system_id":"levelo_inurba_marseille","lat":43.289393,"lon":5.367054,"is_reserved":false,"is_disabled":false,"rental_uris":{"android":"levelo://app?vid=18fd9acf-139f-469c-825a-531fec60dfb8","ios":"levelo://app?vid=18fd9acf-139f-469c-825a-531fec60dfb8"},"vehicle_type_id":"4","last_reported":1767680401,"current_range_meters":6400,"station_id":"ce4bhap2rcd13ifvqek0","pricing_plan_id":"cebpf4jnsgd1na2vs0mg"},{"bike_id":"00da6500-68b4-4b45-be1f-48d675212bd1","system_id":"levelo_inurba_marseille","lat":43.305316,"lon":5.365441,"is_reserved":false,"is_disabled":false,"rental_uris":{"android":"levelo://app?vid=00da6500-68b4-4b45-be1f-48d675212bd1","ios":"levelo://app?vid=00da6500-68b4-4b45-be1f-48d675212bd1"},"vehicle_type_id":"4","last_reported":1767680401,"current_range_meters":6400,"station_id":"ce4bgs12rcd13ifvqcag","pricing_plan_id":"cebpf4jnsgd1na2vs0mg"},{"bike_id":"39bf0acd-4f70-47d3-a144-ba9f5f687ddd","system_id":"levelo_inurba_marseille","lat":43.2553,"lon":5.37648,"is_reserved":false,"is_disabled":false,"rental_uris":{"android":"levelo://app?vid=39bf0acd-4f70-47d3-a144-ba9f5f687ddd","ios":"levelo://app?vid=39bf0acd-4f70-47d3-a144-ba9f5f687ddd"},"vehicle_type_id":"4","last_reported":1767680401,"current_range_meters":6400,"station_id":"ce4bhh12rcd13ifvqff0","pricing_plan_id":"cebpf4jnsgd1na2vs0mg"},{"bike_id":"8299be8b-6e8b-4ca4-ad90-3349d456df65","system_id":"levelo_inurba_marseille","lat":43.27184,"lon":5.40974,"is_reserved":false,"is_disabled":false,"rental_uris":{"android":"levelo://app?vid=8299be8b-6e8b-4ca4-ad90-3349d456df65","ios":"levelo://app?vid=8299be8b-6e8b-4ca4-ad90-3349d456df65"},"vehicle_type_id":"4","last_reported":1767680401,"current_range_meters":6400,"station_id":"ce4bhl12rcd13ifvqgf0","pricing_plan_id":"cebpf4jnsgd1na2vs0mg"},{"bike_id":"28abf1e2-a38c-4481-b948-880e95850eb2","system_id":"levelo_inurba_marseille","lat":43.305553,"lon":5.367164,"is_reserved":false,"is_disabled":false,"rental_uris":{"android":"levelo://app?vid=28abf1e2-a38c-4481-b948-880e95850eb2","ios":"levelo://app?vid=28abf1e2-a38c-4481-b948-880e95850eb2"},"vehicle_type_id":"4","last_reported":1767680401,"current_range_meters":6400,"station_id":"ce4bgrp2rcd13ifvqc9g","pricing_plan_id":"cebpf4jnsgd1na2vs0mg"},{"bike_id":"6b322d1c-13b4-4164-9464-e25ade04017e","system_id":"levelo_inurba_marseille","lat":43.30147,"lon":5.39873,"is_reserved":false,"is_disabled":false,"rental_uris":{"android":"levelo://app?vid=6b322d1c-13b4-4164-9464-e25ade04017e","ios":"levelo://app?vid=6b322d1c-13b4-4164-9464-e25ade04017e"},"vehicle_type_id":"4","last_reported":1767680401,"current_range_meters":6400,"station_id":"ce4bh0h2rcd13ifvqd40","pricing_plan_id":"cebpf4jnsgd1na2vs0mg"},{"bike_id":"b4c11553-2fcc-4f5f-b639-dae5caeff1ab","system_id":"levelo_inurba_marseille","lat":43.29633,"lon":5.40587,"is_reserved":false,"is_disabled":false,"rental_uris":{"android":"levelo://app?vid=b4c11553-2fcc-4f5f-b639-dae5caeff1ab","ios":"levelo://app?vid=b4c11553-2fcc-4f5f-b639-dae5caeff1ab"},"vehicle_type_id":"4","last_reported":1767680401,"current_range_meters":6400,"station_id":"ce4bh0h2rcd13ifvqd60","pricing_plan_id":"cebpf4jnsgd1na2vs0mg"},{"bike_id":"fb7d2000-511d-4e1f-b651-b3d8692adce4","system_id":"levelo_inurba_marseille","lat":43.249459,"lon":5.404995,"is_reserved":false,"is_disabled":false,"rental_uris":{"android":"levelo://app?vid=fb7d2000-511d-4e1f-b651-b3d8692adce4","ios":"levelo://app?vid=fb7d2000-511d-4e1f-b651-b3d8692adce4"},"vehicle_type_id":"4","last_reported":1767680401,"current_range_meters":6400,"station_id":"st_d2ngiaodas8pm72gd1h0","pricing_plan_id":"cebpf4jnsgd1na2vs0mg"},{"bike_id":"00ebedf9-0c96-49ce-bb80-7f39d448d3e4","system_id":"levelo_inurba_marseille","lat":43.29191,"lon":5.35788,"is_reserved":false,"is_disabled":false,"rental_uris":{"android":"levelo://app?vid=00ebedf9-0c96-49ce-bb80-7f39d448d3e4","ios":"levelo://app?vid=00ebedf9-0c96-49ce-bb80-7f39d448d3e4"},"vehicle_type_id":"4","last_reported":1767680401,"current_range_meters":6400,"station_id":"ce4bhb12rcd13ifvqel0","pricing_plan_id":"cebpf4jnsgd1na2vs0mg"},{"bike_id":"6978fec3-7553-4c88-b8a0-53d7a29ef142","system_id":"levelo_inurba_marseille","lat":43.26275,"lon":5.39791,"is_reserved":false,"is_disabled":false,"rental_uris":{"android":"levelo://app?vid=6978fec3-7553-4c88-b8a0-53d7a29ef142","ios":"levelo://app?vid=6978fec3-7553-4c88-b8a0-53d7a29ef142"},"vehicle_type_id":"4","last_reported":1767680401,"current_range_meters":6400,"station_id":"","pricing_plan_id":"cebpf4jnsgd1na2vs0mg"},{"bike_id":"d63adab8-fe33-47d0-bef7-72b9f680ef30","system_id":"levelo_inurba_marseille","lat":43.28863,"lon":5.42504,"is_reserved":false,"is_disabled":false,"rental_uris":{"android":"levelo://app?vid=d63adab8-fe33-47d0-bef7-72b9f680ef30","ios":"levelo://app?vid=d63adab8-fe33-47d0-bef7-72b9f680ef30"},"vehicle_type_id":"4","last_reported":1767680401,"current_range_meters":6400,"station_id":"st_d3b462108ojc7389ooeg","pricing_plan_id":"cebpf4jnsgd1na2vs0mg"},{"bike_id":"a49ccc60-1c05-455f-b690-8b6829c4966b","system_id":"levelo_inurba_marseille","lat":43.24068,"lon":5.37751,"is_reserved":false,"is_disabled":false,"rental_uris":{"android":"levelo://app?vid=a49ccc60-1c05-455f-b690-8b6829c4966b","ios":"levelo://app?vid=a49ccc60-1c05-455f-b690-8b6829c4966b"},"vehicle_type_id":"4","last_reported":1767680401,"current_range_meters":6400,"station_id":"ce4bhnp2rcd13ifvqgvg","pricing_plan_id":"cebpf4jnsgd1na2vs0mg"},{"bike_id":"bd370c67-7ebd-4b98-b04e-decd496cefe6","system_id":"levelo_inurba_marseille","lat":43.30094,"lon":5.39096,"is_reserved":false,"is_disabled":true,"rental_uris":{"android":"levelo://app?vid=bd370c67-7ebd-4b98-b04e-decd496cefe6","ios":"levelo://app?vid=bd370c67-7ebd-4b98-b04e-decd496cefe6"},"vehicle_type_id":"4","last_reported":1767680401,"current_range_meters":6800,"station_id":"ce4bh192rcd13ifvqdb0","pricing_plan_id":"cebpf4jnsgd1na2vs0mg"},{"bike_id":"ece91064-8675-490a-b853-1cfa2d016560","system_id":"levelo_inurba_marseille","lat":43.23961,"lon":5.366287,"is_reserved":false,"is_disabled":false,"rental_uris":{"android":"levelo://app?vid=ece91064-8675-490a-b853-1cfa2d016560","ios":"levelo://app?vid=ece91064-8675-490a-b853-1cfa2d016560"},"vehicle_type_id":"4","last_reported":1767680401,"current_range_meters":6800,"station_id":"ce4bhi12rcd13ifvqfp0","pricing_plan_id":"cebpf4jnsgd1na2vs0mg"},{"bike_id":"f195a72e-e4f7-4129-808a-cab5b6257fad","system_id":"levelo_inurba_marseille","lat":43.21195,"lon":5.35072,"is_reserved":false,"is_disabled":false,"rental_uris":{"android":"levelo://app?vid=f195a72e-e4f7-4129-808a-cab5b6257fad","ios":"levelo://app?vid=f195a72e-e4f7-4129-808a-cab5b6257fad"},"vehicle_type_id":"4","last_reported":1767680401,"current_range_meters":6800,"station_id":"st_cvj6sg6p6f1abm77japg","pricing_plan_id":"cebpf4jnsgd1na2vs0mg"},{"bike_id":"1e8f5205-973a-43e9-90dc-afde1e68dc83","system_id":"levelo_inurba_marseille","lat":43.3106,"lon":5.40081,"is_reserved":false,"is_disabled":false,"rental_uris":{"android":"levelo://app?vid=1e8f5205-973a-43e9-90dc-afde1e68dc83","ios":"levelo://app?vid=1e8f5205-973a-43e9-90dc-afde1e68dc83"},"vehicle_type_id":"4","last_reported":1767680401,"current_range_meters":6800,"station_id":"","pricing_plan_id":"cebpf4jnsgd1na2vs0mg"},{"bike_id":"d479a5e7-3cbe-4ebf-a3e1-182f6667dcef","system_id":"levelo_inurba_marseille","lat":43.24393,"lon":5.37071,"is_reserved":false,"is_disabled":false,"rental_uris":{"android":"levelo://app?vid=d479a5e7-3cbe-4ebf-a3e1-182f6667dcef","ios":"levelo://app?vid=d479a5e7-3cbe-4ebf-a3e1-182f6667dcef"},"vehicle_type_id":"4","last_reported":1767680401,"current_range_meters":6800,"station_id":"ce4bhhh2rcd13ifvqfk0","pricing_plan_id":"cebpf4jnsgd1na2vs0mg"},{"bike_id":"1b152ae5-9ff7-4d57-b381-b6d23a851225","system_id":"levelo_inurba_marseille","lat":43.335607,"lon":5.374557,"is_reserved":false,"is_disabled":false,"rental_uris":{"android":"levelo://app?vid=1b152ae5-9ff7-4d57-b381-b6d23a851225","ios":"levelo://app?vid=1b152ae5-9ff7-4d57-b381-b6d23a851225"},"vehicle_type_id":"4","last_reported":1767680401,"current_range_meters":6800,"station_id":"st_d46tts09ee8s73dlu43g","pricing_plan_id":"cebpf4jnsgd1na2vs0mg"},{"bike_id":"a414d67b-9afa-4a87-9fac-f67cdff12698","system_id":"levelo_inurba_marseille","lat":43.29451,"lon":5.37934,"is_reserved":false,"is_disabled":false,"rental_uris":{"android":"levelo://app?vid=a414d67b-9afa-4a87-9fac-f67cdff12698","ios":"levelo://app?vid=a414d67b-9afa-4a87-9fac-f67cdff12698"},"vehicle_type_id":"4","last_reported":1767680401,"current_range_meters":6800,"station_id":"","pricing_plan_id":"cebpf4jnsgd1na2vs0mg"},{"bike_id":"f3f9e90a-7a70-44ed-b22c-538fa428e8ed","system_id":"levelo_inurba_marseille","lat":43.28709,"lon":5.37383,"is_reserved":false,"is_disabled":false,"rental_uris":{"android":"levelo://app?vid=f3f9e90a-7a70-44ed-b22c-538fa428e8ed","ios":"levelo://app?vid=f3f9e90a-7a70-44ed-b22c-538fa428e8ed"},"vehicle_type_id":"4","last_reported":1767680401,"current_range_meters":6800,"station_id":"ce4bh3p2rcd13ifvqdq0","pricing_plan_id":"cebpf4jnsgd1na2vs0mg"},{"bike_id":"1ae92490-659a-4b31-9282-3be4a846553c","system_id":"levelo_inurba_marseille","lat":43.31698,"lon":5.39848,"is_reserved":false,"is_disabled":false,"rental_uris":{"android":"levelo://app?vid=1ae92490-659a-4b31-9282-3be4a846553c","ios":"levelo://app?vid=1ae92490-659a-4b31-9282-3be4a846553c"},"vehicle_type_id":"4","last_reported":1767680401,"current_range_meters":6800,"station_id":"","pricing_plan_id":"cebpf4jnsgd1na2vs0mg"},{"bike_id":"150aba92-ff82-4e7d-aa4f-4d9583997907","system_id":"levelo_inurba_marseille","lat":43.229251,"lon":5.353788,"is_reserved":false,"is_disabled":false,"rental_uris":{"android":"levelo://app?vid=150aba92-ff82-4e7d-aa4f-4d9583997907","ios":"levelo://app?vid=150aba92-ff82-4e7d-aa4f-4d9583997907"},"vehicle_type_id":"4","last_reported":1767680401,"current_range_meters":6800,"station_id":"cpo3532slgdg3j2ikp40","pricing_plan_id":"cebpf4jnsgd1na2vs0mg"},{"bike_id":"c1694b41-e18e-46a6-ad0f-1cad09925867","system_id":"levelo_inurba_marseille","lat":43.28869,"lon":5.42515,"is_reserved":false,"is_disabled":false,"rental_uris":{"android":"levelo://app?vid=c1694b41-e18e-46a6-ad0f-1cad09925867","ios":"levelo://app?vid=c1694b41-e18e-46a6-ad0f-1cad09925867"},"vehicle_type_id":"4","last_reported":1767680401,"current_range_meters":6800,"station_id":"st_d3b462108ojc7389ooeg","pricing_plan_id":"cebpf4jnsgd1na2vs0mg"},{"bike_id":"b2606257-53d8-4eda-9c19-28cbdd366e57","system_id":"levelo_inurba_marseille","lat":43.2953,"lon":5.39034,"is_reserved":false,"is_disabled":true,"rental_uris":{"android":"levelo://app?vid=b2606257-53d8-4eda-9c19-28cbdd366e57","ios":"levelo://app?vid=b2606257-53d8-4eda-9c19-28cbdd366e57"},"vehicle_type_id":"4","last_reported":1767680401,"current_range_meters":6800,"station_id":"ce4bh3p2rcd13ifvqdp0","pricing_plan_id":"cebpf4jnsgd1na2vs0mg"},{"bike_id":"aaf8f526-d023-4b38-bf56-10367dc9309b","system_id":"levelo_inurba_marseille","lat":43.279866,"lon":5.416666,"is_reserved":false,"is_disabled":false,"rental_uris":{"android":"levelo://app?vid=aaf8f526-d023-4b38-bf56-10367dc9309b","ios":"levelo://app?vid=aaf8f526-d023-4b38-bf56-10367dc9309b"},"vehicle_type_id":"4","last_reported":1767680401,"current_range_meters":6800,"station_id":"ce4bho12rcd13ifvqh1g","pricing_plan_id":"cebpf4jnsgd1na2vs0mg"},{"bike_id":"e99dab34-17f6-423d-b33b-48ac939b33ed","system_id":"levelo_inurba_marseille","lat":43.24011,"lon":5.40714,"is_reserved":false,"is_disabled":false,"rental_uris":{"android":"levelo://app?vid=e99dab34-17f6-423d-b33b-48ac939b33ed","ios":"levelo://app?vid=e99dab34-17f6-423d-b33b-48ac939b33ed"},"vehicle_type_id":"4","last_reported":1767680401,"current_range_meters":6800,"station_id":"","pricing_plan_id":"cebpf4jnsgd1na2vs0mg"},{"bike_id":"139e13a1-e72b-4a5d-ab11-5f421c44da57","system_id":"levelo_inurba_marseille","lat":43.30351,"lon":5.42519,"is_reserved":false,"is_disabled":false,"rental_uris":{"android":"levelo://app?vid=139e13a1-e72b-4a5d-ab11-5f421c44da57","ios":"levelo://app?vid=139e13a1-e72b-4a5d-ab11-5f421c44da57"},"vehicle_type_id":"4","last_reported":1767680401,"current_range_meters":6800,"station_id":"","pricing_plan_id":"cebpf4jnsgd1na2vs0mg"},{"bike_id":"6f46e1b4-663e-4c43-9cc4-4c8a983f164f","system_id":"levelo_inurba_marseille","lat":43.23161,"lon":5.43717,"is_reserved":false,"is_disabled":false,"rental_uris":{"android":"levelo://app?vid=6f46e1b4-663e-4c43-9cc4-4c8a983f164f","ios":"levelo://app?vid=6f46e1b4-663e-4c43-9cc4-4c8a983f164f"},"vehicle_type_id":"4","last_reported":1767680401,"current_range_meters":6800,"station_id":"ce4bhmp2rcd13ifvqgog","pricing_plan_id":"cebpf4jnsgd1na2vs0mg"},{"bike_id":"aff7ede2-d3c6-4426-827e-a4ce14157f34","system_id":"levelo_inurba_marseille","lat":43.3076,"lon":5.38139,"is_reserved":false,"is_disabled":false,"rental_uris":{"android":"levelo://app?vid=aff7ede2-d3c6-4426-827e-a4ce14157f34","ios":"levelo://app?vid=aff7ede2-d3c6-4426-827e-a4ce14157f34"},"vehicle_type_id":"4","last_reported":1767680401,"current_range_meters":6800,"station_id":"ce4bgt12rcd13ifvqce0","pricing_plan_id":"cebpf4jnsgd1na2vs0mg"},{"bike_id":"7c66cd5b-1ea7-4bc0-8234-30b50d6f8f8b","system_id":"levelo_inurba_marseille","lat":43.33154,"lon":5.37677,"is_reserved":false,"is_disabled":false,"rental_uris":{"android":"levelo://app?vid=7c66cd5b-1ea7-4bc0-8234-30b50d6f8f8b","ios":"levelo://app?vid=7c66cd5b-1ea7-4bc0-8234-30b50d6f8f8b"},"vehicle_type_id":"4","last_reported":1767680401,"current_range_meters":6800,"station_id":"st_d46cu089ee8s73dldbu0","pricing_plan_id":"cebpf4jnsgd1na2vs0mg"},{"bike_id":"e684172b-ec09-41ca-b7fc-943b8d49c82b","system_id":"levelo_inurba_marseille","lat":43.26568,"lon":5.39013,"is_reserved":false,"is_disabled":false,"rental_uris":{"android":"levelo://app?vid=e684172b-ec09-41ca-b7fc-943b8d49c82b","ios":"levelo://app?vid=e684172b-ec09-41ca-b7fc-943b8d49c82b"},"vehicle_type_id":"4","last_reported":1767680401,"current_range_meters":6800,"station_id":"ce4bhe12rcd13ifvqf30","pricing_plan_id":"cebpf4jnsgd1na2vs0mg"},{"bike_id":"8888b60a-8078-401c-9213-eda80077f961","system_id":"levelo_inurba_marseille","lat":43.28615,"lon":5.35125,"is_reserved":false,"is_disabled":false,"rental_uris":{"android":"levelo://app?vid=8888b60a-8078-401c-9213-eda80077f961","ios":"levelo://app?vid=8888b60a-8078-401c-9213-eda80077f961"},"vehicle_type_id":"4","last_reported":1767680401,"current_range_meters":6800,"station_id":"ce4bhch2rcd13ifvqeug","pricing_plan_id":"cebpf4jnsgd1na2vs0mg"},{"bike_id":"53fbe8d7-5e1a-4a63-b3fe-3b66cff7b3ba","system_id":"levelo_inurba_marseille","lat":43.30181,"lon":5.36597,"is_reserved":false,"is_disabled":false,"rental_uris":{"android":"levelo://app?vid=53fbe8d7-5e1a-4a63-b3fe-3b66cff7b3ba","ios":"levelo://app?vid=53fbe8d7-5e1a-4a63-b3fe-3b66cff7b3ba"},"vehicle_type_id":"4","last_reported":1767680401,"current_range_meters":6800,"station_id":"ce4bgrh2rcd13ifvqc8g","pricing_plan_id":"cebpf4jnsgd1na2vs0mg"},{"bike_id":"28fc6bcc-e465-48e9-ad1d-810f9d62680e","system_id":"levelo_inurba_marseille","lat":43.30321,"lon":5.36893,"is_reserved":false,"is_disabled":false,"rental_uris":{"android":"levelo://app?vid=28fc6bcc-e465-48e9-ad1d-810f9d62680e","ios":"levelo://app?vid=28fc6bcc-e465-48e9-ad1d-810f9d62680e"},"vehicle_type_id":"4","last_reported":1767680401,"current_range_meters":6800,"station_id":"ce4bgqh2rcd13ifvqc5g","pricing_plan_id":"cebpf4jnsgd1na2vs0mg"},{"bike_id":"e95ce2d0-07e6-408c-94e5-1989f12b6691","system_id":"levelo_inurba_marseille","lat":43.24394,"lon":5.37062,"is_reserved":false,"is_disabled":false,"rental_uris":{"android":"levelo://app?vid=e95ce2d0-07e6-408c-94e5-1989f12b6691","ios":"levelo://app?vid=e95ce2d0-07e6-408c-94e5-1989f12b6691"},"vehicle_type_id":"4","last_reported":1767680401,"current_range_meters":6800,"station_id":"ce4bhhh2rcd13ifvqfk0","pricing_plan_id":"cebpf4jnsgd1na2vs0mg"},{"bike_id":"08597d3b-78bf-4d1d-84e3-67cebc91408d","system_id":"levelo_inurba_marseille","lat":43.25582,"lon":5.38234,"is_reserved":false,"is_disabled":false,"rental_uris":{"android":"levelo://app?vid=08597d3b-78bf-4d1d-84e3-67cebc91408d","ios":"levelo://app?vid=08597d3b-78bf-4d1d-84e3-67cebc91408d"},"vehicle_type_id":"4","last_reported":1767680401,"current_range_meters":6800,"station_id":"ce4bhih2rcd13ifvqfs0","pricing_plan_id":"cebpf4jnsgd1na2vs0mg"},{"bike_id":"0ab915a5-aa3e-44ed-b898-e07671cade81","system_id":"levelo_inurba_marseille","lat":43.25329,"lon":5.42147,"is_reserved":false,"is_disabled":false,"rental_uris":{"android":"levelo://app?vid=0ab915a5-aa3e-44ed-b898-e07671cade81","ios":"levelo://app?vid=0ab915a5-aa3e-44ed-b898-e07671cade81"},"vehicle_type_id":"4","last_reported":1767680401,"current_range_meters":6800,"station_id":"st_d2m65c5bi1j21697t3ng","pricing_plan_id":"cebpf4jnsgd1na2vs0mg"},{"bike_id":"da033954-77a4-4a42-af93-ddd0b90806cb","system_id":"levelo_inurba_marseille","lat":43.31279,"lon":5.37372,"is_reserved":false,"is_disabled":false,"rental_uris":{"android":"levelo://app?vid=da033954-77a4-4a42-af93-ddd0b90806cb","ios":"levelo://app?vid=da033954-77a4-4a42-af93-ddd0b90806cb"},"vehicle_type_id":"4","last_reported":1767680401,"current_range_meters":7200,"station_id":"","pricing_plan_id":"cebpf4jnsgd1na2vs0mg"},{"bike_id":"fc24e154-126f-487a-abd8-81f2874cd1b6","system_id":"levelo_inurba_marseille","lat":43.27165,"lon":5.40978,"is_reserved":false,"is_disabled":false,"rental_uris":{"android":"levelo://app?vid=fc24e154-126f-487a-abd8-81f2874cd1b6","ios":"levelo://app?vid=fc24e154-126f-487a-abd8-81f2874cd1b6"},"vehicle_type_id":"4","last_reported":1767680401,"current_range_meters":7200,"station_id":"ce4bhl12rcd13ifvqgf0","pricing_plan_id":"cebpf4jnsgd1na2vs0mg"},{"bike_id":"58327590-a8e0-4c00-9f2e-f934f6672946","system_id":"levelo_inurba_marseille","lat":43.27838,"lon":5.39217,"is_reserved":false,"is_disabled":false,"rental_uris":{"android":"levelo://app?vid=58327590-a8e0-4c00-9f2e-f934f6672946","ios":"levelo://app?vid=58327590-a8e0-4c00-9f2e-f934f6672946"},"vehicle_type_id":"4","last_reported":1767680401,"current_range_meters":7200,"station_id":"ce4bhjp2rcd13ifvqga0","pricing_plan_id":"cebpf4jnsgd1na2vs0mg"},{"bike_id":"b54e5aa3-f80c-415f-8398-f57ed95bfed2","system_id":"levelo_inurba_marseille","lat":43.22549,"lon":5.41627,"is_reserved":false,"is_disabled":false,"rental_uris":{"android":"levelo://app?vid=b54e5aa3-f80c-415f-8398-f57ed95bfed2","ios":"levelo://app?vid=b54e5aa3-f80c-415f-8398-f57ed95bfed2"},"vehicle_type_id":"4","last_reported":1767680401,"current_range_meters":7200,"station_id":"st_d2o4gvlbi1j2169b742g","pricing_plan_id":"cebpf4jnsgd1na2vs0mg"},{"bike_id":"363d24ec-7f56-48ba-afb4-d6a61684329e","system_id":"levelo_inurba_marseille","lat":43.30485,"lon":5.41042,"is_reserved":false,"is_disabled":false,"rental_uris":{"android":"levelo://app?vid=363d24ec-7f56-48ba-afb4-d6a61684329e","ios":"levelo://app?vid=363d24ec-7f56-48ba-afb4-d6a61684329e"},"vehicle_type_id":"4","last_reported":1767680401,"current_range_meters":7200,"station_id":"","pricing_plan_id":"cebpf4jnsgd1na2vs0mg"},{"bike_id":"a2705467-58d0-47d8-8aee-544b6d032199","system_id":"levelo_inurba_marseille","lat":43.2447,"lon":5.42532,"is_reserved":false,"is_disabled":false,"rental_uris":{"android":"levelo://app?vid=a2705467-58d0-47d8-8aee-544b6d032199","ios":"levelo://app?vid=a2705467-58d0-47d8-8aee-544b6d032199"},"vehicle_type_id":"4","last_reported":1767680401,"current_range_meters":7200,"station_id":"st_d4a3vfp97mjs738cd8kg","pricing_plan_id":"cebpf4jnsgd1na2vs0mg"},{"bike_id":"1a6e1c7c-9ed2-4166-8162-ade6bcac84e8","system_id":"levelo_inurba_marseille","lat":43.23939,"lon":5.36659,"is_reserved":false,"is_disabled":false,"rental_uris":{"android":"levelo://app?vid=1a6e1c7c-9ed2-4166-8162-ade6bcac84e8","ios":"levelo://app?vid=1a6e1c7c-9ed2-4166-8162-ade6bcac84e8"},"vehicle_type_id":"4","last_reported":1767680401,"current_range_meters":7200,"station_id":"ce4bhi12rcd13ifvqfp0","pricing_plan_id":"cebpf4jnsgd1na2vs0mg"},{"bike_id":"355c1d25-ff0d-43f2-abc7-da11db998286","system_id":"levelo_inurba_marseille","lat":43.23183,"lon":5.35556,"is_reserved":false,"is_disabled":false,"rental_uris":{"android":"levelo://app?vid=355c1d25-ff0d-43f2-abc7-da11db998286","ios":"levelo://app?vid=355c1d25-ff0d-43f2-abc7-da11db998286"},"vehicle_type_id":"4","last_reported":1767680401,"current_range_meters":7200,"station_id":"ce4bhu92rcd13ifvqi70","pricing_plan_id":"cebpf4jnsgd1na2vs0mg"},{"bike_id":"2375141c-46f9-4ef6-890b-4fbb983a553c","system_id":"levelo_inurba_marseille","lat":43.29294,"lon":5.37162,"is_reserved":false,"is_disabled":true,"rental_uris":{"android":"levelo://app?vid=2375141c-46f9-4ef6-890b-4fbb983a553c","ios":"levelo://app?vid=2375141c-46f9-4ef6-890b-4fbb983a553c"},"vehicle_type_id":"4","last_reported":1767680401,"current_range_meters":7200,"station_id":"ce4bgh92rcd13ifvqb40","pricing_plan_id":"cebpf4jnsgd1na2vs0mg"},{"bike_id":"82866fe7-628d-412e-a722-bf250d7406b8","system_id":"levelo_inurba_marseille","lat":43.26698,"lon":5.38266,"is_reserved":false,"is_disabled":false,"rental_uris":{"android":"levelo://app?vid=82866fe7-628d-412e-a722-bf250d7406b8","ios":"levelo://app?vid=82866fe7-628d-412e-a722-bf250d7406b8"},"vehicle_type_id":"4","last_reported":1767680401,"current_range_meters":7200,"station_id":"ce4bhg92rcd13ifvqf90","pricing_plan_id":"cebpf4jnsgd1na2vs0mg"},{"bike_id":"64dce7dc-2940-4e8a-9086-d22acc0cbd8b","system_id":"levelo_inurba_marseille","lat":43.301,"lon":5.390862,"is_reserved":false,"is_disabled":false,"rental_uris":{"android":"levelo://app?vid=64dce7dc-2940-4e8a-9086-d22acc0cbd8b","ios":"levelo://app?vid=64dce7dc-2940-4e8a-9086-d22acc0cbd8b"},"vehicle_type_id":"4","last_reported":1767680401,"current_range_meters":7200,"station_id":"ce4bh192rcd13ifvqdb0","pricing_plan_id":"cebpf4jnsgd1na2vs0mg"},{"bike_id":"47377072-bd80-416c-a61b-557514cde97a","system_id":"levelo_inurba_marseille","lat":43.29728,"lon":5.37693,"is_reserved":false,"is_disabled":false,"rental_uris":{"android":"levelo://app?vid=47377072-bd80-416c-a61b-557514cde97a","ios":"levelo://app?vid=47377072-bd80-416c-a61b-557514cde97a"},"vehicle_type_id":"4","last_reported":1767680401,"current_range_meters":7200,"station_id":"ce4bgkh2rcd13ifvqbl0","pricing_plan_id":"cebpf4jnsgd1na2vs0mg"},{"bike_id":"09dd03c7-b8fd-46b8-99cd-062943175452","system_id":"levelo_inurba_marseille","lat":43.23191,"lon":5.35547,"is_reserved":false,"is_disabled":false,"rental_uris":{"android":"levelo://app?vid=09dd03c7-b8fd-46b8-99cd-062943175452","ios":"levelo://app?vid=09dd03c7-b8fd-46b8-99cd-062943175452"},"vehicle_type_id":"4","last_reported":1767680401,"current_range_meters":7200,"station_id":"ce4bhu92rcd13ifvqi70","pricing_plan_id":"cebpf4jnsgd1na2vs0mg"},{"bike_id":"8c0cfe8d-397e-430a-8fdc-041338a3c227","system_id":"levelo_inurba_marseille","lat":43.28614,"lon":5.39875,"is_reserved":false,"is_disabled":false,"rental_uris":{"android":"levelo://app?vid=8c0cfe8d-397e-430a-8fdc-041338a3c227","ios":"levelo://app?vid=8c0cfe8d-397e-430a-8fdc-041338a3c227"},"vehicle_type_id":"4","last_reported":1767680401,"current_range_meters":7200,"station_id":"st_d4a7ka997mjs738ck50g","pricing_plan_id":"cebpf4jnsgd1na2vs0mg"},{"bike_id":"9ffd8e4e-6671-4e68-b198-26c59cc5e3d1","system_id":"levelo_inurba_marseille","lat":43.32652,"lon":5.41944,"is_reserved":false,"is_disabled":false,"rental_uris":{"android":"levelo://app?vid=9ffd8e4e-6671-4e68-b198-26c59cc5e3d1","ios":"levelo://app?vid=9ffd8e4e-6671-4e68-b198-26c59cc5e3d1"},"vehicle_type_id":"4","last_reported":1767680401,"current_range_meters":7200,"station_id":"","pricing_plan_id":"cebpf4jnsgd1na2vs0mg"},{"bike_id":"5eb9d049-497c-49ad-9dab-0cd5459065b5","system_id":"levelo_inurba_marseille","lat":43.28463,"lon":5.38412,"is_reserved":false,"is_disabled":false,"rental_uris":{"android":"levelo://app?vid=5eb9d049-497c-49ad-9dab-0cd5459065b5","ios":"levelo://app?vid=5eb9d049-497c-49ad-9dab-0cd5459065b5"},"vehicle_type_id":"4","last_reported":1767680401,"current_range_meters":7200,"station_id":"ce4bh512rcd13ifvqe3g","pricing_plan_id":"cebpf4jnsgd1na2vs0mg"},{"bike_id":"61f49521-8b5c-4174-93f3-ac307392a905","system_id":"levelo_inurba_marseille","lat":43.31362,"lon":5.37166,"is_reserved":false,"is_disabled":false,"rental_uris":{"android":"levelo://app?vid=61f49521-8b5c-4174-93f3-ac307392a905","ios":"levelo://app?vid=61f49521-8b5c-4174-93f3-ac307392a905"},"vehicle_type_id":"4","last_reported":1767680401,"current_range_meters":7200,"station_id":"","pricing_plan_id":"cebpf4jnsgd1na2vs0mg"},{"bike_id":"4f197866-80d3-4126-b564-260c9c967362","system_id":"levelo_inurba_marseille","lat":43.27314,"lon":5.39089,"is_reserved":false,"is_disabled":false,"rental_uris":{"android":"levelo://app?vid=4f197866-80d3-4126-b564-260c9c967362","ios":"levelo://app?vid=4f197866-80d3-4126-b564-260c9c967362"},"vehicle_type_id":"4","last_reported":1767680401,"current_range_meters":7200,"station_id":"ce4bhgp2rcd13ifvqfe0","pricing_plan_id":"cebpf4jnsgd1na2vs0mg"},{"bike_id":"5ea8c758-8d88-4a0d-8adf-3234df9934ae","system_id":"levelo_inurba_marseille","lat":43.29761,"lon":5.37762,"is_reserved":false,"is_disabled":false,"rental_uris":{"android":"levelo://app?vid=5ea8c758-8d88-4a0d-8adf-3234df9934ae","ios":"levelo://app?vid=5ea8c758-8d88-4a0d-8adf-3234df9934ae"},"vehicle_type_id":"4","last_reported":1767680401,"current_range_meters":7200,"station_id":"","pricing_plan_id":"cebpf4jnsgd1na2vs0mg"},{"bike_id":"a8cd7802-144d-4c11-af29-be2259acf14c","system_id":"levelo_inurba_marseille","lat":43.24394,"lon":5.37071,"is_reserved":false,"is_disabled":false,"rental_uris":{"android":"levelo://app?vid=a8cd7802-144d-4c11-af29-be2259acf14c","ios":"levelo://app?vid=a8cd7802-144d-4c11-af29-be2259acf14c"},"vehicle_type_id":"4","last_reported":1767680401,"current_range_meters":7200,"station_id":"","pricing_plan_id":"cebpf4jnsgd1na2vs0mg"},{"bike_id":"d279c8f1-2aca-445d-9302-00d4fa05021b","system_id":"levelo_inurba_marseille","lat":43.3168,"lon":5.37431,"is_reserved":false,"is_disabled":false,"rental_uris":{"android":"levelo://app?vid=d279c8f1-2aca-445d-9302-00d4fa05021b","ios":"levelo://app?vid=d279c8f1-2aca-445d-9302-00d4fa05021b"},"vehicle_type_id":"4","last_reported":1767680401,"current_range_meters":7200,"station_id":"","pricing_plan_id":"cebpf4jnsgd1na2vs0mg"},{"bike_id":"48cb5e65-0874-43c1-81b7-43be0bcb9709","system_id":"levelo_inurba_marseille","lat":43.24798,"lon":5.37465,"is_reserved":false,"is_disabled":false,"rental_uris":{"android":"levelo://app?vid=48cb5e65-0874-43c1-81b7-43be0bcb9709","ios":"levelo://app?vid=48cb5e65-0874-43c1-81b7-43be0bcb9709"},"vehicle_type_id":"4","last_reported":1767680401,"current_range_meters":7200,"station_id":"ce4bhgh2rcd13ifvqfb0","pricing_plan_id":"cebpf4jnsgd1na2vs0mg"},{"bike_id":"256d892c-80b7-4dcf-b490-44e1146ff28f","system_id":"levelo_inurba_marseille","lat":43.28534,"lon":5.44094,"is_reserved":false,"is_disabled":false,"rental_uris":{"android":"levelo://app?vid=256d892c-80b7-4dcf-b490-44e1146ff28f","ios":"levelo://app?vid=256d892c-80b7-4dcf-b490-44e1146ff28f"},"vehicle_type_id":"4","last_reported":1767680401,"current_range_meters":7200,"station_id":"st_d3j3df2ikq2c7380ej80","pricing_plan_id":"cebpf4jnsgd1na2vs0mg"},{"bike_id":"63cd53d7-b9e4-4b4e-9379-bf3843c04565","system_id":"levelo_inurba_marseille","lat":43.28523,"lon":5.44109,"is_reserved":false,"is_disabled":false,"rental_uris":{"android":"levelo://app?vid=63cd53d7-b9e4-4b4e-9379-bf3843c04565","ios":"levelo://app?vid=63cd53d7-b9e4-4b4e-9379-bf3843c04565"},"vehicle_type_id":"4","last_reported":1767680401,"current_range_meters":7200,"station_id":"st_d3j3df2ikq2c7380ej80","pricing_plan_id":"cebpf4jnsgd1na2vs0mg"},{"bike_id":"687755bb-10fb-4901-ae22-36a6ae269729","system_id":"levelo_inurba_marseille","lat":43.27964,"lon":5.38718,"is_reserved":false,"is_disabled":false,"rental_uris":{"android":"levelo://app?vid=687755bb-10fb-4901-ae22-36a6ae269729","ios":"levelo://app?vid=687755bb-10fb-4901-ae22-36a6ae269729"},"vehicle_type_id":"4","last_reported":1767680401,"current_range_meters":7200,"station_id":"ce4bhg12rcd13ifvqf80","pricing_plan_id":"cebpf4jnsgd1na2vs0mg"},{"bike_id":"7691ecae-e3bc-4c1e-bb4e-7b24a1d8adc3","system_id":"levelo_inurba_marseille","lat":43.23966,"lon":5.36621,"is_reserved":false,"is_disabled":false,"rental_uris":{"android":"levelo://app?vid=7691ecae-e3bc-4c1e-bb4e-7b24a1d8adc3","ios":"levelo://app?vid=7691ecae-e3bc-4c1e-bb4e-7b24a1d8adc3"},"vehicle_type_id":"4","last_reported":1767680401,"current_range_meters":7200,"station_id":"ce4bhi12rcd13ifvqfp0","pricing_plan_id":"cebpf4jnsgd1na2vs0mg"},{"bike_id":"8f968c9d-e057-45ea-898c-8595b6240a39","system_id":"levelo_inurba_marseille","lat":43.29722,"lon":5.3791,"is_reserved":false,"is_disabled":false,"rental_uris":{"android":"levelo://app?vid=8f968c9d-e057-45ea-898c-8595b6240a39","ios":"levelo://app?vid=8f968c9d-e057-45ea-898c-8595b6240a39"},"vehicle_type_id":"4","last_reported":1767680401,"current_range_meters":8000,"station_id":"","pricing_plan_id":"cebpf4jnsgd1na2vs0mg"},{"bike_id":"af601a35-d80a-41bb-ac39-f45cf7219279","system_id":"levelo_inurba_marseille","lat":43.29872,"lon":5.38904,"is_reserved":false,"is_disabled":false,"rental_uris":{"android":"levelo://app?vid=af601a35-d80a-41bb-ac39-f45cf7219279","ios":"levelo://app?vid=af601a35-d80a-41bb-ac39-f45cf7219279"},"vehicle_type_id":"4","last_reported":1767680401,"current_range_meters":8000,"station_id":"ce4bh392rcd13ifvqdl0","pricing_plan_id":"cebpf4jnsgd1na2vs0mg"},{"bike_id":"8b3ac315-2885-4111-ba33-ec1516cc1aa3","system_id":"levelo_inurba_marseille","lat":43.31157,"lon":5.38663,"is_reserved":false,"is_disabled":false,"rental_uris":{"android":"levelo://app?vid=8b3ac315-2885-4111-ba33-ec1516cc1aa3","ios":"levelo://app?vid=8b3ac315-2885-4111-ba33-ec1516cc1aa3"},"vehicle_type_id":"4","last_reported":1767680401,"current_range_meters":8000,"station_id":"ce4bgv12rcd13ifvqcp0","pricing_plan_id":"cebpf4jnsgd1na2vs0mg"},{"bike_id":"4935536b-bd9a-4a04-acc0-8338e8db4fa7","system_id":"levelo_inurba_marseille","lat":43.27848,"lon":5.40697,"is_reserved":false,"is_disabled":false,"rental_uris":{"android":"levelo://app?vid=4935536b-bd9a-4a04-acc0-8338e8db4fa7","ios":"levelo://app?vid=4935536b-bd9a-4a04-acc0-8338e8db4fa7"},"vehicle_type_id":"4","last_reported":1767680401,"current_range_meters":8000,"station_id":"ce4bhnh2rcd13ifvqgtg","pricing_plan_id":"cebpf4jnsgd1na2vs0mg"},{"bike_id":"b0405c1f-3452-4f34-9f4d-79f9b8ddb38f","system_id":"levelo_inurba_marseille","lat":43.27817,"lon":5.3921,"is_reserved":false,"is_disabled":false,"rental_uris":{"android":"levelo://app?vid=b0405c1f-3452-4f34-9f4d-79f9b8ddb38f","ios":"levelo://app?vid=b0405c1f-3452-4f34-9f4d-79f9b8ddb38f"},"vehicle_type_id":"4","last_reported":1767680401,"current_range_meters":8000,"station_id":"ce4bhjp2rcd13ifvqga0","pricing_plan_id":"cebpf4jnsgd1na2vs0mg"},{"bike_id":"0e1237f5-c526-48aa-8d6e-d4762d4905eb","system_id":"levelo_inurba_marseille","lat":43.28885,"lon":5.42522,"is_reserved":false,"is_disabled":false,"rental_uris":{"android":"levelo://app?vid=0e1237f5-c526-48aa-8d6e-d4762d4905eb","ios":"levelo://app?vid=0e1237f5-c526-48aa-8d6e-d4762d4905eb"},"vehicle_type_id":"4","last_reported":1767680401,"current_range_meters":8000,"station_id":"st_d3b462108ojc7389ooeg","pricing_plan_id":"cebpf4jnsgd1na2vs0mg"},{"bike_id":"9c1f964b-63f3-482b-b8aa-946aa8840ac2","system_id":"levelo_inurba_marseille","lat":43.246343,"lon":5.431363,"is_reserved":false,"is_disabled":false,"rental_uris":{"android":"levelo://app?vid=9c1f964b-63f3-482b-b8aa-946aa8840ac2","ios":"levelo://app?vid=9c1f964b-63f3-482b-b8aa-946aa8840ac2"},"vehicle_type_id":"4","last_reported":1767680401,"current_range_meters":8000,"station_id":"st_d2m6c4gdas8pm72e190g","pricing_plan_id":"cebpf4jnsgd1na2vs0mg"},{"bike_id":"69b54c5e-99fd-4b4a-a8fa-07e156c09108","system_id":"levelo_inurba_marseille","lat":43.27951,"lon":5.41048,"is_reserved":false,"is_disabled":false,"rental_uris":{"android":"levelo://app?vid=69b54c5e-99fd-4b4a-a8fa-07e156c09108","ios":"levelo://app?vid=69b54c5e-99fd-4b4a-a8fa-07e156c09108"},"vehicle_type_id":"4","last_reported":1767680401,"current_range_meters":8000,"station_id":"ce4bhnp2rcd13ifvqh0g","pricing_plan_id":"cebpf4jnsgd1na2vs0mg"},{"bike_id":"b3210e81-09d9-486e-b51e-83859801ecb9","system_id":"levelo_inurba_marseille","lat":43.246256,"lon":5.431431,"is_reserved":false,"is_disabled":false,"rental_uris":{"android":"levelo://app?vid=b3210e81-09d9-486e-b51e-83859801ecb9","ios":"levelo://app?vid=b3210e81-09d9-486e-b51e-83859801ecb9"},"vehicle_type_id":"4","last_reported":1767680401,"current_range_meters":8000,"station_id":"st_d2m6c4gdas8pm72e190g","pricing_plan_id":"cebpf4jnsgd1na2vs0mg"},{"bike_id":"40f2de2e-f0cb-4446-9f43-80012f17f8ce","system_id":"levelo_inurba_marseille","lat":43.32361,"lon":5.36734,"is_reserved":false,"is_disabled":false,"rental_uris":{"android":"levelo://app?vid=40f2de2e-f0cb-4446-9f43-80012f17f8ce","ios":"levelo://app?vid=40f2de2e-f0cb-4446-9f43-80012f17f8ce"},"vehicle_type_id":"4","last_reported":1767680401,"current_range_meters":8000,"station_id":"ce4bhsh2rcd13ifvqi2g","pricing_plan_id":"cebpf4jnsgd1na2vs0mg"},{"bike_id":"6b6d8f9f-6e00-4965-a447-66d7628c7986","system_id":"levelo_inurba_marseille","lat":43.25126,"lon":5.4033,"is_reserved":false,"is_disabled":false,"rental_uris":{"android":"levelo://app?vid=6b6d8f9f-6e00-4965-a447-66d7628c7986","ios":"levelo://app?vid=6b6d8f9f-6e00-4965-a447-66d7628c7986"},"vehicle_type_id":"4","last_reported":1767680401,"current_range_meters":8000,"station_id":"ce4bhlh2rcd13ifvqgig","pricing_plan_id":"cebpf4jnsgd1na2vs0mg"},{"bike_id":"00389c66-d10b-4f85-8b89-cd1629e9774d","system_id":"levelo_inurba_marseille","lat":43.31498,"lon":5.38633,"is_reserved":false,"is_disabled":false,"rental_uris":{"android":"levelo://app?vid=00389c66-d10b-4f85-8b89-cd1629e9774d","ios":"levelo://app?vid=00389c66-d10b-4f85-8b89-cd1629e9774d"},"vehicle_type_id":"4","last_reported":1767680401,"current_range_meters":8000,"station_id":"","pricing_plan_id":"cebpf4jnsgd1na2vs0mg"},{"bike_id":"433d1b20-0a2d-4e0f-98b5-65f53b0b7541","system_id":"levelo_inurba_marseille","lat":43.311717,"lon":5.387212,"is_reserved":false,"is_disabled":false,"rental_uris":{"android":"levelo://app?vid=433d1b20-0a2d-4e0f-98b5-65f53b0b7541","ios":"levelo://app?vid=433d1b20-0a2d-4e0f-98b5-65f53b0b7541"},"vehicle_type_id":"4","last_reported":1767680401,"current_range_meters":8000,"station_id":"ce4bgv12rcd13ifvqcp0","pricing_plan_id":"cebpf4jnsgd1na2vs0mg"},{"bike_id":"3a8eae66-603b-4cc6-a47a-5e999d573fad","system_id":"levelo_inurba_marseille","lat":43.26999,"lon":5.38756,"is_reserved":false,"is_disabled":false,"rental_uris":{"android":"levelo://app?vid=3a8eae66-603b-4cc6-a47a-5e999d573fad","ios":"levelo://app?vid=3a8eae66-603b-4cc6-a47a-5e999d573fad"},"vehicle_type_id":"4","last_reported":1767680401,"current_range_meters":8000,"station_id":"","pricing_plan_id":"cebpf4jnsgd1na2vs0mg"},{"bike_id":"3836b4a8-93e4-4aeb-8fc2-55643106b2c7","system_id":"levelo_inurba_marseille","lat":43.27056,"lon":5.40255,"is_reserved":false,"is_disabled":false,"rental_uris":{"android":"levelo://app?vid=3836b4a8-93e4-4aeb-8fc2-55643106b2c7","ios":"levelo://app?vid=3836b4a8-93e4-4aeb-8fc2-55643106b2c7"},"vehicle_type_id":"4","last_reported":1767680401,"current_range_meters":8000,"station_id":"ce4bhk92rcd13ifvqgc0","pricing_plan_id":"cebpf4jnsgd1na2vs0mg"},{"bike_id":"feaa8378-fac9-460d-b058-b1573970eace","system_id":"levelo_inurba_marseille","lat":43.29919,"lon":5.38619,"is_reserved":false,"is_disabled":false,"rental_uris":{"android":"levelo://app?vid=feaa8378-fac9-460d-b058-b1573970eace","ios":"levelo://app?vid=feaa8378-fac9-460d-b058-b1573970eace"},"vehicle_type_id":"4","last_reported":1767680401,"current_range_meters":8000,"station_id":"","pricing_plan_id":"cebpf4jnsgd1na2vs0mg"},{"bike_id":"49a51c2b-e6e9-4224-8a36-f6fcfb3bf9e7","system_id":"levelo_inurba_marseille","lat":43.2848,"lon":5.48397,"is_reserved":false,"is_disabled":false,"rental_uris":{"android":"levelo://app?vid=49a51c2b-e6e9-4224-8a36-f6fcfb3bf9e7","ios":"levelo://app?vid=49a51c2b-e6e9-4224-8a36-f6fcfb3bf9e7"},"vehicle_type_id":"4","last_reported":1767680401,"current_range_meters":8000,"station_id":"","pricing_plan_id":"cebpf4jnsgd1na2vs0mg"},{"bike_id":"3d8062de-4bd0-49c7-86a6-7bf3b5df4845","system_id":"levelo_inurba_marseille","lat":43.284747,"lon":5.484033,"is_reserved":false,"is_disabled":false,"rental_uris":{"android":"levelo://app?vid=3d8062de-4bd0-49c7-86a6-7bf3b5df4845","ios":"levelo://app?vid=3d8062de-4bd0-49c7-86a6-7bf3b5df4845"},"vehicle_type_id":"4","last_reported":1767680401,"current_range_meters":8000,"station_id":"","pricing_plan_id":"cebpf4jnsgd1na2vs0mg"},{"bike_id":"efa425c6-cbf6-4941-b4e5-f9d843f1f6fe","system_id":"levelo_inurba_marseille","lat":43.269252,"lon":5.402376,"is_reserved":false,"is_disabled":false,"rental_uris":{"android":"levelo://app?vid=efa425c6-cbf6-4941-b4e5-f9d843f1f6fe","ios":"levelo://app?vid=efa425c6-cbf6-4941-b4e5-f9d843f1f6fe"},"vehicle_type_id":"4","last_reported":1767680401,"current_range_meters":8000,"station_id":"cjm6bp8fraef2m0cb0m0","pricing_plan_id":"cebpf4jnsgd1na2vs0mg"},{"bike_id":"5d5497ef-b65a-4cae-8f60-cff9661679f2","system_id":"levelo_inurba_marseille","lat":43.28331,"lon":5.38888,"is_reserved":false,"is_disabled":false,"rental_uris":{"android":"levelo://app?vid=5d5497ef-b65a-4cae-8f60-cff9661679f2","ios":"levelo://app?vid=5d5497ef-b65a-4cae-8f60-cff9661679f2"},"vehicle_type_id":"4","last_reported":1767680401,"current_range_meters":8000,"station_id":"","pricing_plan_id":"cebpf4jnsgd1na2vs0mg"},{"bike_id":"185a9e57-705a-4211-b642-4f93dd08ee85","system_id":"levelo_inurba_marseille","lat":43.28513,"lon":5.38543,"is_reserved":false,"is_disabled":false,"rental_uris":{"android":"levelo://app?vid=185a9e57-705a-4211-b642-4f93dd08ee85","ios":"levelo://app?vid=185a9e57-705a-4211-b642-4f93dd08ee85"},"vehicle_type_id":"4","last_reported":1767680401,"current_range_meters":8000,"station_id":"ce4bh8p2rcd13ifvqeb0","pricing_plan_id":"cebpf4jnsgd1na2vs0mg"},{"bike_id":"ca62b965-aa44-45f4-8af6-6631050856ac","system_id":"levelo_inurba_marseille","lat":43.28933,"lon":5.36419,"is_reserved":false,"is_disabled":false,"rental_uris":{"android":"levelo://app?vid=ca62b965-aa44-45f4-8af6-6631050856ac","ios":"levelo://app?vid=ca62b965-aa44-45f4-8af6-6631050856ac"},"vehicle_type_id":"4","last_reported":1767680401,"current_range_meters":8400,"station_id":"ce4bhc92rcd13ifvqetg","pricing_plan_id":"cebpf4jnsgd1na2vs0mg"},{"bike_id":"0669a486-1e35-4993-8c57-0773a050daef","system_id":"levelo_inurba_marseille","lat":43.26234,"lon":5.41615,"is_reserved":false,"is_disabled":false,"rental_uris":{"android":"levelo://app?vid=0669a486-1e35-4993-8c57-0773a050daef","ios":"levelo://app?vid=0669a486-1e35-4993-8c57-0773a050daef"},"vehicle_type_id":"4","last_reported":1767680401,"current_range_meters":8400,"station_id":"","pricing_plan_id":"cebpf4jnsgd1na2vs0mg"},{"bike_id":"6362d2e9-b1aa-4dc0-b92d-936be0445a44","system_id":"levelo_inurba_marseille","lat":43.24818,"lon":5.37442,"is_reserved":false,"is_disabled":false,"rental_uris":{"android":"levelo://app?vid=6362d2e9-b1aa-4dc0-b92d-936be0445a44","ios":"levelo://app?vid=6362d2e9-b1aa-4dc0-b92d-936be0445a44"},"vehicle_type_id":"4","last_reported":1767680401,"current_range_meters":8400,"station_id":"ce4bhgh2rcd13ifvqfb0","pricing_plan_id":"cebpf4jnsgd1na2vs0mg"},{"bike_id":"08e7d044-a859-4a5a-90d4-366b263d7407","system_id":"levelo_inurba_marseille","lat":43.27685,"lon":5.42047,"is_reserved":false,"is_disabled":false,"rental_uris":{"android":"levelo://app?vid=08e7d044-a859-4a5a-90d4-366b263d7407","ios":"levelo://app?vid=08e7d044-a859-4a5a-90d4-366b263d7407"},"vehicle_type_id":"4","last_reported":1767680401,"current_range_meters":8400,"station_id":"","pricing_plan_id":"cebpf4jnsgd1na2vs0mg"},{"bike_id":"070101d6-40a0-434e-9541-f1fc17be1902","system_id":"levelo_inurba_marseille","lat":43.28928,"lon":5.3841,"is_reserved":false,"is_disabled":false,"rental_uris":{"android":"levelo://app?vid=070101d6-40a0-434e-9541-f1fc17be1902","ios":"levelo://app?vid=070101d6-40a0-434e-9541-f1fc17be1902"},"vehicle_type_id":"4","last_reported":1767680401,"current_range_meters":8400,"station_id":"ce4bh612rcd13ifvqe6g","pricing_plan_id":"cebpf4jnsgd1na2vs0mg"},{"bike_id":"8c36c95e-44f9-4494-942c-e8a98d6f94b4","system_id":"levelo_inurba_marseille","lat":43.24714,"lon":5.43164,"is_reserved":false,"is_disabled":false,"rental_uris":{"android":"levelo://app?vid=8c36c95e-44f9-4494-942c-e8a98d6f94b4","ios":"levelo://app?vid=8c36c95e-44f9-4494-942c-e8a98d6f94b4"},"vehicle_type_id":"4","last_reported":1767680401,"current_range_meters":8400,"station_id":"","pricing_plan_id":"cebpf4jnsgd1na2vs0mg"},{"bike_id":"0724d8ea-4b25-40a4-aa82-62aedb38be0b","system_id":"levelo_inurba_marseille","lat":43.31308,"lon":5.39702,"is_reserved":false,"is_disabled":false,"rental_uris":{"android":"levelo://app?vid=0724d8ea-4b25-40a4-aa82-62aedb38be0b","ios":"levelo://app?vid=0724d8ea-4b25-40a4-aa82-62aedb38be0b"},"vehicle_type_id":"4","last_reported":1767680401,"current_range_meters":8400,"station_id":"ce4bgvp2rcd13ifvqcu0","pricing_plan_id":"cebpf4jnsgd1na2vs0mg"},{"bike_id":"b2e816c5-9b60-4dbf-9f39-7c8d6a115207","system_id":"levelo_inurba_marseille","lat":43.321122,"lon":5.36771,"is_reserved":false,"is_disabled":false,"rental_uris":{"android":"levelo://app?vid=b2e816c5-9b60-4dbf-9f39-7c8d6a115207","ios":"levelo://app?vid=b2e816c5-9b60-4dbf-9f39-7c8d6a115207"},"vehicle_type_id":"4","last_reported":1767680401,"current_range_meters":8400,"station_id":"ce4bhrh2rcd13ifvqhug","pricing_plan_id":"cebpf4jnsgd1na2vs0mg"},{"bike_id":"2b6b5472-bf4d-4858-81ea-712597b78b9c","system_id":"levelo_inurba_marseille","lat":43.289439,"lon":5.396232,"is_reserved":false,"is_disabled":false,"rental_uris":{"android":"levelo://app?vid=2b6b5472-bf4d-4858-81ea-712597b78b9c","ios":"levelo://app?vid=2b6b5472-bf4d-4858-81ea-712597b78b9c"},"vehicle_type_id":"4","last_reported":1767680401,"current_range_meters":8400,"station_id":"ce4bh3h2rcd13ifvqdn0","pricing_plan_id":"cebpf4jnsgd1na2vs0mg"},{"bike_id":"8ee4b4d7-91ed-4f73-ba76-d3d52bc870c2","system_id":"levelo_inurba_marseille","lat":43.29795,"lon":5.37748,"is_reserved":false,"is_disabled":false,"rental_uris":{"android":"levelo://app?vid=8ee4b4d7-91ed-4f73-ba76-d3d52bc870c2","ios":"levelo://app?vid=8ee4b4d7-91ed-4f73-ba76-d3d52bc870c2"},"vehicle_type_id":"4","last_reported":1767680401,"current_range_meters":8400,"station_id":"","pricing_plan_id":"cebpf4jnsgd1na2vs0mg"},{"bike_id":"042aca96-0bcc-4b72-8a8d-ea43e5d85ee4","system_id":"levelo_inurba_marseille","lat":43.31273,"lon":5.37758,"is_reserved":false,"is_disabled":false,"rental_uris":{"android":"levelo://app?vid=042aca96-0bcc-4b72-8a8d-ea43e5d85ee4","ios":"levelo://app?vid=042aca96-0bcc-4b72-8a8d-ea43e5d85ee4"},"vehicle_type_id":"4","last_reported":1767680401,"current_range_meters":8400,"station_id":"","pricing_plan_id":"cebpf4jnsgd1na2vs0mg"},{"bike_id":"deb75a9f-e8d9-4537-a4d4-e56d55771a46","system_id":"levelo_inurba_marseille","lat":43.281051,"lon":5.378462,"is_reserved":false,"is_disabled":false,"rental_uris":{"android":"levelo://app?vid=deb75a9f-e8d9-4537-a4d4-e56d55771a46","ios":"levelo://app?vid=deb75a9f-e8d9-4537-a4d4-e56d55771a46"},"vehicle_type_id":"4","last_reported":1767680401,"current_range_meters":8400,"station_id":"ce4bha12rcd13ifvqee0","pricing_plan_id":"cebpf4jnsgd1na2vs0mg"},{"bike_id":"c8c1f8d2-6c88-4f8a-8c50-54fe9ff592fd","system_id":"levelo_inurba_marseille","lat":43.246616,"lon":5.381534,"is_reserved":false,"is_disabled":false,"rental_uris":{"android":"levelo://app?vid=c8c1f8d2-6c88-4f8a-8c50-54fe9ff592fd","ios":"levelo://app?vid=c8c1f8d2-6c88-4f8a-8c50-54fe9ff592fd"},"vehicle_type_id":"4","last_reported":1767680401,"current_range_meters":8400,"station_id":"ce4bhih2rcd13ifvqfr0","pricing_plan_id":"cebpf4jnsgd1na2vs0mg"},{"bike_id":"87e389ee-1985-4b49-be6d-abd8bb105d12","system_id":"levelo_inurba_marseille","lat":43.27931,"lon":5.39567,"is_reserved":false,"is_disabled":false,"rental_uris":{"android":"levelo://app?vid=87e389ee-1985-4b49-be6d-abd8bb105d12","ios":"levelo://app?vid=87e389ee-1985-4b49-be6d-abd8bb105d12"},"vehicle_type_id":"4","last_reported":1767680401,"current_range_meters":8400,"station_id":"ce4bhf92rcd13ifvqf40","pricing_plan_id":"cebpf4jnsgd1na2vs0mg"},{"bike_id":"95eef2fc-be24-452d-b1ad-1286363d1af4","system_id":"levelo_inurba_marseille","lat":43.30086,"lon":5.36937,"is_reserved":false,"is_disabled":false,"rental_uris":{"android":"levelo://app?vid=95eef2fc-be24-452d-b1ad-1286363d1af4","ios":"levelo://app?vid=95eef2fc-be24-452d-b1ad-1286363d1af4"},"vehicle_type_id":"4","last_reported":1767680401,"current_range_meters":8400,"station_id":"","pricing_plan_id":"cebpf4jnsgd1na2vs0mg"},{"bike_id":"b0980a67-1a01-4ac3-8cf4-81a1cb81abd2","system_id":"levelo_inurba_marseille","lat":43.25823,"lon":5.39431,"is_reserved":false,"is_disabled":false,"rental_uris":{"android":"levelo://app?vid=b0980a67-1a01-4ac3-8cf4-81a1cb81abd2","ios":"levelo://app?vid=b0980a67-1a01-4ac3-8cf4-81a1cb81abd2"},"vehicle_type_id":"4","last_reported":1767680401,"current_range_meters":8400,"station_id":"ce4bhip2rcd13ifvqft0","pricing_plan_id":"cebpf4jnsgd1na2vs0mg"},{"bike_id":"f5918fd1-e76a-41a6-9b3d-0261fab958fa","system_id":"levelo_inurba_marseille","lat":43.31173,"lon":5.38714,"is_reserved":false,"is_disabled":false,"rental_uris":{"android":"levelo://app?vid=f5918fd1-e76a-41a6-9b3d-0261fab958fa","ios":"levelo://app?vid=f5918fd1-e76a-41a6-9b3d-0261fab958fa"},"vehicle_type_id":"4","last_reported":1767680401,"current_range_meters":8400,"station_id":"ce4bgv12rcd13ifvqcp0","pricing_plan_id":"cebpf4jnsgd1na2vs0mg"},{"bike_id":"401599ae-e2a4-4b4a-8836-eb6feb2d0e4b","system_id":"levelo_inurba_marseille","lat":43.284468,"lon":5.358943,"is_reserved":false,"is_disabled":false,"rental_uris":{"android":"levelo://app?vid=401599ae-e2a4-4b4a-8836-eb6feb2d0e4b","ios":"levelo://app?vid=401599ae-e2a4-4b4a-8836-eb6feb2d0e4b"},"vehicle_type_id":"4","last_reported":1767680401,"current_range_meters":8400,"station_id":"ce4bhah2rcd13ifvqei0","pricing_plan_id":"cebpf4jnsgd1na2vs0mg"},{"bike_id":"3b465cf0-7e0f-4919-8de2-76e493d53c54","system_id":"levelo_inurba_marseille","lat":43.272,"lon":5.40991,"is_reserved":false,"is_disabled":false,"rental_uris":{"android":"levelo://app?vid=3b465cf0-7e0f-4919-8de2-76e493d53c54","ios":"levelo://app?vid=3b465cf0-7e0f-4919-8de2-76e493d53c54"},"vehicle_type_id":"4","last_reported":1767680401,"current_range_meters":8400,"station_id":"ce4bhl12rcd13ifvqgf0","pricing_plan_id":"cebpf4jnsgd1na2vs0mg"},{"bike_id":"186f2fa8-9d13-45c5-bc32-0ad3d6ed2a48","system_id":"levelo_inurba_marseille","lat":43.25377,"lon":5.42201,"is_reserved":false,"is_disabled":false,"rental_uris":{"android":"levelo://app?vid=186f2fa8-9d13-45c5-bc32-0ad3d6ed2a48","ios":"levelo://app?vid=186f2fa8-9d13-45c5-bc32-0ad3d6ed2a48"},"vehicle_type_id":"4","last_reported":1767680401,"current_range_meters":8400,"station_id":"st_d2m65c5bi1j21697t3ng","pricing_plan_id":"cebpf4jnsgd1na2vs0mg"},{"bike_id":"d9af73a0-2f63-4b3e-8964-f0034091ca3d","system_id":"levelo_inurba_marseille","lat":43.2734,"lon":5.39117,"is_reserved":false,"is_disabled":false,"rental_uris":{"android":"levelo://app?vid=d9af73a0-2f63-4b3e-8964-f0034091ca3d","ios":"levelo://app?vid=d9af73a0-2f63-4b3e-8964-f0034091ca3d"},"vehicle_type_id":"4","last_reported":1767680401,"current_range_meters":8400,"station_id":"ce4bhgp2rcd13ifvqfe0","pricing_plan_id":"cebpf4jnsgd1na2vs0mg"},{"bike_id":"d10b7e7e-9c34-4685-8c8c-ab766cfc897f","system_id":"levelo_inurba_marseille","lat":43.26917,"lon":5.403,"is_reserved":false,"is_disabled":false,"rental_uris":{"android":"levelo://app?vid=d10b7e7e-9c34-4685-8c8c-ab766cfc897f","ios":"levelo://app?vid=d10b7e7e-9c34-4685-8c8c-ab766cfc897f"},"vehicle_type_id":"4","last_reported":1767680401,"current_range_meters":8400,"station_id":"cjm6bp8fraef2m0cb0m0","pricing_plan_id":"cebpf4jnsgd1na2vs0mg"},{"bike_id":"35e08880-df71-4ce5-90d6-5ad22f3d1f69","system_id":"levelo_inurba_marseille","lat":43.31139,"lon":5.37751,"is_reserved":false,"is_disabled":false,"rental_uris":{"android":"levelo://app?vid=35e08880-df71-4ce5-90d6-5ad22f3d1f69","ios":"levelo://app?vid=35e08880-df71-4ce5-90d6-5ad22f3d1f69"},"vehicle_type_id":"4","last_reported":1767680401,"current_range_meters":8400,"station_id":"ce4bgt92rcd13ifvqcg0","pricing_plan_id":"cebpf4jnsgd1na2vs0mg"},{"bike_id":"7103c3dd-48a2-41c6-9969-082f2a213528","system_id":"levelo_inurba_marseille","lat":43.320005,"lon":5.381562,"is_reserved":false,"is_disabled":false,"rental_uris":{"android":"levelo://app?vid=7103c3dd-48a2-41c6-9969-082f2a213528","ios":"levelo://app?vid=7103c3dd-48a2-41c6-9969-082f2a213528"},"vehicle_type_id":"4","last_reported":1767680401,"current_range_meters":8400,"station_id":"ce4bhr12rcd13ifvqhpg","pricing_plan_id":"cebpf4jnsgd1na2vs0mg"},{"bike_id":"87ad74c9-6a6e-42a2-96a8-ed84f1428998","system_id":"levelo_inurba_marseille","lat":43.32155,"lon":5.36839,"is_reserved":false,"is_disabled":false,"rental_uris":{"android":"levelo://app?vid=87ad74c9-6a6e-42a2-96a8-ed84f1428998","ios":"levelo://app?vid=87ad74c9-6a6e-42a2-96a8-ed84f1428998"},"vehicle_type_id":"4","last_reported":1767680401,"current_range_meters":8400,"station_id":"ce4bhrh2rcd13ifvqhug","pricing_plan_id":"cebpf4jnsgd1na2vs0mg"},{"bike_id":"94e28fa6-a8ad-443d-96d0-87f0f916c30e","system_id":"levelo_inurba_marseille","lat":43.2871,"lon":5.36113,"is_reserved":false,"is_disabled":false,"rental_uris":{"android":"levelo://app?vid=94e28fa6-a8ad-443d-96d0-87f0f916c30e","ios":"levelo://app?vid=94e28fa6-a8ad-443d-96d0-87f0f916c30e"},"vehicle_type_id":"4","last_reported":1767680401,"current_range_meters":8800,"station_id":"cki0cbj6b192h4jlfktg","pricing_plan_id":"cebpf4jnsgd1na2vs0mg"},{"bike_id":"15146725-de08-4e0d-adeb-5883b023eca1","system_id":"levelo_inurba_marseille","lat":43.29594,"lon":5.36739,"is_reserved":false,"is_disabled":false,"rental_uris":{"android":"levelo://app?vid=15146725-de08-4e0d-adeb-5883b023eca1","ios":"levelo://app?vid=15146725-de08-4e0d-adeb-5883b023eca1"},"vehicle_type_id":"4","last_reported":1767680401,"current_range_meters":8800,"station_id":"ce4bgph2rcd13ifvqc2g","pricing_plan_id":"cebpf4jnsgd1na2vs0mg"},{"bike_id":"330d4ba7-c5f2-4d83-947c-8c0cc6747825","system_id":"levelo_inurba_marseille","lat":43.30547,"lon":5.3668,"is_reserved":false,"is_disabled":false,"rental_uris":{"android":"levelo://app?vid=330d4ba7-c5f2-4d83-947c-8c0cc6747825","ios":"levelo://app?vid=330d4ba7-c5f2-4d83-947c-8c0cc6747825"},"vehicle_type_id":"4","last_reported":1767680401,"current_range_meters":8800,"station_id":"ce4bgrp2rcd13ifvqc9g","pricing_plan_id":"cebpf4jnsgd1na2vs0mg"},{"bike_id":"787d7e25-1d4e-4b9b-9a41-18331fa60325","system_id":"levelo_inurba_marseille","lat":43.28267,"lon":5.35091,"is_reserved":false,"is_disabled":false,"rental_uris":{"android":"levelo://app?vid=787d7e25-1d4e-4b9b-9a41-18331fa60325","ios":"levelo://app?vid=787d7e25-1d4e-4b9b-9a41-18331fa60325"},"vehicle_type_id":"4","last_reported":1767680401,"current_range_meters":8800,"station_id":"ce4bhbp2rcd13ifvqerg","pricing_plan_id":"cebpf4jnsgd1na2vs0mg"},{"bike_id":"4d22c5d1-8740-4a81-80ad-bfbaa8b756eb","system_id":"levelo_inurba_marseille","lat":43.26496,"lon":5.39578,"is_reserved":false,"is_disabled":false,"rental_uris":{"android":"levelo://app?vid=4d22c5d1-8740-4a81-80ad-bfbaa8b756eb","ios":"levelo://app?vid=4d22c5d1-8740-4a81-80ad-bfbaa8b756eb"},"vehicle_type_id":"4","last_reported":1767680401,"current_range_meters":8800,"station_id":"ce4bhi12rcd13ifvqfq0","pricing_plan_id":"cebpf4jnsgd1na2vs0mg"},{"bike_id":"b67f4710-3d69-4d45-b21f-6b71ebaaeb7d","system_id":"levelo_inurba_marseille","lat":43.31381,"lon":5.36734,"is_reserved":false,"is_disabled":false,"rental_uris":{"android":"levelo://app?vid=b67f4710-3d69-4d45-b21f-6b71ebaaeb7d","ios":"levelo://app?vid=b67f4710-3d69-4d45-b21f-6b71ebaaeb7d"},"vehicle_type_id":"4","last_reported":1767680401,"current_range_meters":8800,"station_id":"ce4bgr92rcd13ifvqc6g","pricing_plan_id":"cebpf4jnsgd1na2vs0mg"},{"bike_id":"3e18d3c2-0e26-4ccd-8f3e-24c938dce9c0","system_id":"levelo_inurba_marseille","lat":43.284902,"lon":5.385748,"is_reserved":false,"is_disabled":false,"rental_uris":{"android":"levelo://app?vid=3e18d3c2-0e26-4ccd-8f3e-24c938dce9c0","ios":"levelo://app?vid=3e18d3c2-0e26-4ccd-8f3e-24c938dce9c0"},"vehicle_type_id":"4","last_reported":1767680401,"current_range_meters":8800,"station_id":"ce4bh8p2rcd13ifvqeb0","pricing_plan_id":"cebpf4jnsgd1na2vs0mg"},{"bike_id":"792e1e2e-f71f-47ee-9471-2778171764aa","system_id":"levelo_inurba_marseille","lat":43.27817,"lon":5.40711,"is_reserved":false,"is_disabled":false,"rental_uris":{"android":"levelo://app?vid=792e1e2e-f71f-47ee-9471-2778171764aa","ios":"levelo://app?vid=792e1e2e-f71f-47ee-9471-2778171764aa"},"vehicle_type_id":"4","last_reported":1767680401,"current_range_meters":8800,"station_id":"ce4bhnh2rcd13ifvqgtg","pricing_plan_id":"cebpf4jnsgd1na2vs0mg"},{"bike_id":"d524b089-628a-4d78-9683-770000750388","system_id":"levelo_inurba_marseille","lat":43.29907,"lon":5.38498,"is_reserved":false,"is_disabled":false,"rental_uris":{"android":"levelo://app?vid=d524b089-628a-4d78-9683-770000750388","ios":"levelo://app?vid=d524b089-628a-4d78-9683-770000750388"},"vehicle_type_id":"4","last_reported":1767680401,"current_range_meters":8800,"station_id":"","pricing_plan_id":"cebpf4jnsgd1na2vs0mg"},{"bike_id":"fbe615c7-395f-45e4-952e-5c258fb1b5f0","system_id":"levelo_inurba_marseille","lat":43.290027,"lon":5.356045,"is_reserved":false,"is_disabled":false,"rental_uris":{"android":"levelo://app?vid=fbe615c7-395f-45e4-952e-5c258fb1b5f0","ios":"levelo://app?vid=fbe615c7-395f-45e4-952e-5c258fb1b5f0"},"vehicle_type_id":"4","last_reported":1767680401,"current_range_meters":8800,"station_id":"ce4bhb92rcd13ifvqen0","pricing_plan_id":"cebpf4jnsgd1na2vs0mg"},{"bike_id":"52003a07-269b-4685-b5ee-91acfd77bba8","system_id":"levelo_inurba_marseille","lat":43.28599,"lon":5.37059,"is_reserved":false,"is_disabled":false,"rental_uris":{"android":"levelo://app?vid=52003a07-269b-4685-b5ee-91acfd77bba8","ios":"levelo://app?vid=52003a07-269b-4685-b5ee-91acfd77bba8"},"vehicle_type_id":"4","last_reported":1767680401,"current_range_meters":8800,"station_id":"ce4bht12rcd13ifvqi60","pricing_plan_id":"cebpf4jnsgd1na2vs0mg"},{"bike_id":"8b14cd5a-7d76-43a2-a46e-a705820146ab","system_id":"levelo_inurba_marseille","lat":43.28088,"lon":5.39685,"is_reserved":false,"is_disabled":false,"rental_uris":{"android":"levelo://app?vid=8b14cd5a-7d76-43a2-a46e-a705820146ab","ios":"levelo://app?vid=8b14cd5a-7d76-43a2-a46e-a705820146ab"},"vehicle_type_id":"4","last_reported":1767680401,"current_range_meters":8800,"station_id":"ce4bho12rcd13ifvqh2g","pricing_plan_id":"cebpf4jnsgd1na2vs0mg"},{"bike_id":"ad50377a-7552-4540-b3a2-64867f58981e","system_id":"levelo_inurba_marseille","lat":43.29213,"lon":5.39563,"is_reserved":false,"is_disabled":false,"rental_uris":{"android":"levelo://app?vid=ad50377a-7552-4540-b3a2-64867f58981e","ios":"levelo://app?vid=ad50377a-7552-4540-b3a2-64867f58981e"},"vehicle_type_id":"4","last_reported":1767680401,"current_range_meters":8800,"station_id":"","pricing_plan_id":"cebpf4jnsgd1na2vs0mg"},{"bike_id":"c0a4f535-e870-4e6a-89ce-4533403bde0f","system_id":"levelo_inurba_marseille","lat":43.28616,"lon":5.35097,"is_reserved":false,"is_disabled":false,"rental_uris":{"android":"levelo://app?vid=c0a4f535-e870-4e6a-89ce-4533403bde0f","ios":"levelo://app?vid=c0a4f535-e870-4e6a-89ce-4533403bde0f"},"vehicle_type_id":"4","last_reported":1767680401,"current_range_meters":8800,"station_id":"ce4bhch2rcd13ifvqeug","pricing_plan_id":"cebpf4jnsgd1na2vs0mg"},{"bike_id":"dd854dc8-7e11-4bd0-8a36-c7988426f001","system_id":"levelo_inurba_marseille","lat":43.28703,"lon":5.37392,"is_reserved":false,"is_disabled":false,"rental_uris":{"android":"levelo://app?vid=dd854dc8-7e11-4bd0-8a36-c7988426f001","ios":"levelo://app?vid=dd854dc8-7e11-4bd0-8a36-c7988426f001"},"vehicle_type_id":"4","last_reported":1767680401,"current_range_meters":8800,"station_id":"ce4bh3p2rcd13ifvqdq0","pricing_plan_id":"cebpf4jnsgd1na2vs0mg"},{"bike_id":"220e9d14-9486-45cd-a161-9ef23e117aad","system_id":"levelo_inurba_marseille","lat":43.22939,"lon":5.35373,"is_reserved":false,"is_disabled":false,"rental_uris":{"android":"levelo://app?vid=220e9d14-9486-45cd-a161-9ef23e117aad","ios":"levelo://app?vid=220e9d14-9486-45cd-a161-9ef23e117aad"},"vehicle_type_id":"4","last_reported":1767680401,"current_range_meters":8800,"station_id":"cpo3532slgdg3j2ikp40","pricing_plan_id":"cebpf4jnsgd1na2vs0mg"},{"bike_id":"d67b210f-67cc-40d8-b12a-09ab202f8bb3","system_id":"levelo_inurba_marseille","lat":43.25791,"lon":5.41046,"is_reserved":false,"is_disabled":false,"rental_uris":{"android":"levelo://app?vid=d67b210f-67cc-40d8-b12a-09ab202f8bb3","ios":"levelo://app?vid=d67b210f-67cc-40d8-b12a-09ab202f8bb3"},"vehicle_type_id":"4","last_reported":1767680401,"current_range_meters":8800,"station_id":"","pricing_plan_id":"cebpf4jnsgd1na2vs0mg"},{"bike_id":"1581330e-c183-40f3-9c23-a712c19eaa61","system_id":"levelo_inurba_marseille","lat":43.27944,"lon":5.41048,"is_reserved":false,"is_disabled":false,"rental_uris":{"android":"levelo://app?vid=1581330e-c183-40f3-9c23-a712c19eaa61","ios":"levelo://app?vid=1581330e-c183-40f3-9c23-a712c19eaa61"},"vehicle_type_id":"4","last_reported":1767680401,"current_range_meters":8800,"station_id":"ce4bhnp2rcd13ifvqh0g","pricing_plan_id":"cebpf4jnsgd1na2vs0mg"},{"bike_id":"94b65cfe-edaf-4322-865d-06eff46e3ede","system_id":"levelo_inurba_marseille","lat":43.30032,"lon":5.37354,"is_reserved":false,"is_disabled":false,"rental_uris":{"android":"levelo://app?vid=94b65cfe-edaf-4322-865d-06eff46e3ede","ios":"levelo://app?vid=94b65cfe-edaf-4322-865d-06eff46e3ede"},"vehicle_type_id":"4","last_reported":1767680401,"current_range_meters":8800,"station_id":"","pricing_plan_id":"cebpf4jnsgd1na2vs0mg"},{"bike_id":"c0723a55-d0d0-493e-a4c5-9479bcaeff93","system_id":"levelo_inurba_marseille","lat":43.284814,"lon":5.483905,"is_reserved":false,"is_disabled":false,"rental_uris":{"android":"levelo://app?vid=c0723a55-d0d0-493e-a4c5-9479bcaeff93","ios":"levelo://app?vid=c0723a55-d0d0-493e-a4c5-9479bcaeff93"},"vehicle_type_id":"4","last_reported":1767680401,"current_range_meters":8800,"station_id":"st_d3svhcjqgbts73a3dn0g","pricing_plan_id":"cebpf4jnsgd1na2vs0mg"},{"bike_id":"9b6b7efc-b94d-4891-ad8f-12a39bd6f282","system_id":"levelo_inurba_marseille","lat":43.27178,"lon":5.40993,"is_reserved":false,"is_disabled":false,"rental_uris":{"android":"levelo://app?vid=9b6b7efc-b94d-4891-ad8f-12a39bd6f282","ios":"levelo://app?vid=9b6b7efc-b94d-4891-ad8f-12a39bd6f282"},"vehicle_type_id":"4","last_reported":1767680401,"current_range_meters":8800,"station_id":"ce4bhl12rcd13ifvqgf0","pricing_plan_id":"cebpf4jnsgd1na2vs0mg"},{"bike_id":"c4740940-72c6-4662-b058-816e4040185b","system_id":"levelo_inurba_marseille","lat":43.29487,"lon":5.43309,"is_reserved":false,"is_disabled":false,"rental_uris":{"android":"levelo://app?vid=c4740940-72c6-4662-b058-816e4040185b","ios":"levelo://app?vid=c4740940-72c6-4662-b058-816e4040185b"},"vehicle_type_id":"4","last_reported":1767680401,"current_range_meters":8800,"station_id":"st_d3j5ugp08ojc73fj9d10","pricing_plan_id":"cebpf4jnsgd1na2vs0mg"},{"bike_id":"1ab87b03-b050-4230-809d-69fbeeb81b42","system_id":"levelo_inurba_marseille","lat":43.331579,"lon":5.376953,"is_reserved":false,"is_disabled":false,"rental_uris":{"android":"levelo://app?vid=1ab87b03-b050-4230-809d-69fbeeb81b42","ios":"levelo://app?vid=1ab87b03-b050-4230-809d-69fbeeb81b42"},"vehicle_type_id":"4","last_reported":1767680401,"current_range_meters":8800,"station_id":"st_d46cu089ee8s73dldbu0","pricing_plan_id":"cebpf4jnsgd1na2vs0mg"},{"bike_id":"a84fd1e4-4518-4212-a538-cc8cf2cc49f3","system_id":"levelo_inurba_marseille","lat":43.262002,"lon":5.374521,"is_reserved":false,"is_disabled":false,"rental_uris":{"android":"levelo://app?vid=a84fd1e4-4518-4212-a538-cc8cf2cc49f3","ios":"levelo://app?vid=a84fd1e4-4518-4212-a538-cc8cf2cc49f3"},"vehicle_type_id":"4","last_reported":1767680401,"current_range_meters":8800,"station_id":"ce4bhgp2rcd13ifvqfc0","pricing_plan_id":"cebpf4jnsgd1na2vs0mg"},{"bike_id":"33aabde5-d3ab-405e-9de5-eb69377e597d","system_id":"levelo_inurba_marseille","lat":43.28534,"lon":5.44096,"is_reserved":false,"is_disabled":false,"rental_uris":{"android":"levelo://app?vid=33aabde5-d3ab-405e-9de5-eb69377e597d","ios":"levelo://app?vid=33aabde5-d3ab-405e-9de5-eb69377e597d"},"vehicle_type_id":"4","last_reported":1767680401,"current_range_meters":8800,"station_id":"st_d3j3df2ikq2c7380ej80","pricing_plan_id":"cebpf4jnsgd1na2vs0mg"},{"bike_id":"af1f9193-90aa-4f34-b2c4-fb0bbaea183c","system_id":"levelo_inurba_marseille","lat":43.28485,"lon":5.4839,"is_reserved":false,"is_disabled":false,"rental_uris":{"android":"levelo://app?vid=af1f9193-90aa-4f34-b2c4-fb0bbaea183c","ios":"levelo://app?vid=af1f9193-90aa-4f34-b2c4-fb0bbaea183c"},"vehicle_type_id":"4","last_reported":1767680401,"current_range_meters":8800,"station_id":"","pricing_plan_id":"cebpf4jnsgd1na2vs0mg"},{"bike_id":"f9c54d67-52ad-41a1-a71d-d18b594fec8c","system_id":"levelo_inurba_marseille","lat":43.23965,"lon":5.366,"is_reserved":false,"is_disabled":false,"rental_uris":{"android":"levelo://app?vid=f9c54d67-52ad-41a1-a71d-d18b594fec8c","ios":"levelo://app?vid=f9c54d67-52ad-41a1-a71d-d18b594fec8c"},"vehicle_type_id":"4","last_reported":1767680401,"current_range_meters":8800,"station_id":"ce4bhi12rcd13ifvqfp0","pricing_plan_id":"cebpf4jnsgd1na2vs0mg"},{"bike_id":"c60e7c58-72a9-4de1-9081-df3a95a02550","system_id":"levelo_inurba_marseille","lat":43.24479,"lon":5.42532,"is_reserved":false,"is_disabled":false,"rental_uris":{"android":"levelo://app?vid=c60e7c58-72a9-4de1-9081-df3a95a02550","ios":"levelo://app?vid=c60e7c58-72a9-4de1-9081-df3a95a02550"},"vehicle_type_id":"4","last_reported":1767680401,"current_range_meters":8800,"station_id":"st_d4a3vfp97mjs738cd8kg","pricing_plan_id":"cebpf4jnsgd1na2vs0mg"},{"bike_id":"46ef03cb-b925-40b7-a1a6-23037d30bb59","system_id":"levelo_inurba_marseille","lat":43.28357,"lon":5.38462,"is_reserved":false,"is_disabled":false,"rental_uris":{"android":"levelo://app?vid=46ef03cb-b925-40b7-a1a6-23037d30bb59","ios":"levelo://app?vid=46ef03cb-b925-40b7-a1a6-23037d30bb59"},"vehicle_type_id":"4","last_reported":1767680401,"current_range_meters":8800,"station_id":"","pricing_plan_id":"cebpf4jnsgd1na2vs0mg"},{"bike_id":"6904fafc-0923-4ab1-a67b-6baa0374dd3c","system_id":"levelo_inurba_marseille","lat":43.27071,"lon":5.42272,"is_reserved":false,"is_disabled":false,"rental_uris":{"android":"levelo://app?vid=6904fafc-0923-4ab1-a67b-6baa0374dd3c","ios":"levelo://app?vid=6904fafc-0923-4ab1-a67b-6baa0374dd3c"},"vehicle_type_id":"4","last_reported":1767680401,"current_range_meters":8800,"station_id":"ce4bhk92rcd13ifvqgb0","pricing_plan_id":"cebpf4jnsgd1na2vs0mg"},{"bike_id":"42484e9b-3440-415a-98a0-c23f4521a831","system_id":"levelo_inurba_marseille","lat":43.29755,"lon":5.42786,"is_reserved":false,"is_disabled":false,"rental_uris":{"android":"levelo://app?vid=42484e9b-3440-415a-98a0-c23f4521a831","ios":"levelo://app?vid=42484e9b-3440-415a-98a0-c23f4521a831"},"vehicle_type_id":"4","last_reported":1767680401,"current_range_meters":8800,"station_id":"st_d3md5207bmas73dh9klg","pricing_plan_id":"cebpf4jnsgd1na2vs0mg"},{"bike_id":"c955f478-5dc3-460f-9a8c-58367dc82f77","system_id":"levelo_inurba_marseille","lat":43.285738,"lon":5.39499,"is_reserved":false,"is_disabled":false,"rental_uris":{"android":"levelo://app?vid=c955f478-5dc3-460f-9a8c-58367dc82f77","ios":"levelo://app?vid=c955f478-5dc3-460f-9a8c-58367dc82f77"},"vehicle_type_id":"4","last_reported":1767680401,"current_range_meters":8800,"station_id":"ce4bh292rcd13ifvqdg0","pricing_plan_id":"cebpf4jnsgd1na2vs0mg"},{"bike_id":"3181c2cd-9510-4262-914c-714c2c8d3e9b","system_id":"levelo_inurba_marseille","lat":43.31544,"lon":5.38002,"is_reserved":false,"is_disabled":false,"rental_uris":{"android":"levelo://app?vid=3181c2cd-9510-4262-914c-714c2c8d3e9b","ios":"levelo://app?vid=3181c2cd-9510-4262-914c-714c2c8d3e9b"},"vehicle_type_id":"4","last_reported":1767680401,"current_range_meters":8800,"station_id":"ce4bhsp2rcd13ifvqi50","pricing_plan_id":"cebpf4jnsgd1na2vs0mg"},{"bike_id":"6b1d47d5-2cdd-4a3d-a92f-e0f8834836c5","system_id":"levelo_inurba_marseille","lat":43.23184,"lon":5.39987,"is_reserved":false,"is_disabled":false,"rental_uris":{"android":"levelo://app?vid=6b1d47d5-2cdd-4a3d-a92f-e0f8834836c5","ios":"levelo://app?vid=6b1d47d5-2cdd-4a3d-a92f-e0f8834836c5"},"vehicle_type_id":"4","last_reported":1767680401,"current_range_meters":8800,"station_id":"ce4bhn12rcd13ifvqgqg","pricing_plan_id":"cebpf4jnsgd1na2vs0mg"},{"bike_id":"51b1a85a-7c6e-4d80-ad29-8e240f78adcc","system_id":"levelo_inurba_marseille","lat":43.29588,"lon":5.36735,"is_reserved":false,"is_disabled":false,"rental_uris":{"android":"levelo://app?vid=51b1a85a-7c6e-4d80-ad29-8e240f78adcc","ios":"levelo://app?vid=51b1a85a-7c6e-4d80-ad29-8e240f78adcc"},"vehicle_type_id":"4","last_reported":1767680401,"current_range_meters":8800,"station_id":"ce4bgph2rcd13ifvqc2g","pricing_plan_id":"cebpf4jnsgd1na2vs0mg"},{"bike_id":"78e8a1f1-3251-4194-b565-8e924b588766","system_id":"levelo_inurba_marseille","lat":43.296256,"lon":5.381269,"is_reserved":false,"is_disabled":true,"rental_uris":{"android":"levelo://app?vid=78e8a1f1-3251-4194-b565-8e924b588766","ios":"levelo://app?vid=78e8a1f1-3251-4194-b565-8e924b588766"},"vehicle_type_id":"4","last_reported":1767680401,"current_range_meters":8800,"station_id":"ce4bgl12rcd13ifvqbo0","pricing_plan_id":"cebpf4jnsgd1na2vs0mg"},