{"last_updated":1708466798,"ttl":30,"version":"2.2","data":{"bikes":[{"bike_id":"4364f1e2-3635-4926-9306-3c3246ad3b9a","system_id":"levelo_inurba_marseille","lat":43.312239,"lon":5.368562,"is_reserved":false,"is_disabled":false,"rental_uris":{"android":"levelo://app?vid=4364f1e2-3635-4926-9306-3c3246ad3b9a","ios":"levelo://app?vid=4364f1e2-3635-4926-9306-3c3246ad3b9a"},"vehicle_type_id":"4","last_reported":1708466798,"current_range_meters":0,"station_id":"ce4bgl92rcd13ifvqbq0","pricing_plan_id":"cebpf4jnsgd1na2vs0mg"},{"bike_id":"335b407d-6bd0-44f3-a7ab-707caa73a298","system_id":"levelo_inurba_marseille","lat":43.312223,"lon":5.36854,"is_reserved":false,"is_disabled":false,"rental_uris":{"android":"levelo://app?vid=335b407d-6bd0-44f3-a7ab-707caa73a298","ios":"levelo://app?vid=335b407d-6bd0-44f3-a7ab-707caa73a298"},"vehicle_type_id":"4","last_reported":1708466798,"current_range_meters":0,"station_id":"ce4bgl92rcd13ifvqbq0","pricing_plan_id":"cebpf4jnsgd1na2vs0mg"},{"bike_id":"3ce90527-4a13-4a63-b23e-6e3256d20af4","system_id":"levelo_inurba_marseille","lat":43.31222,"lon":5.36855,"is_reserved":false,"is_disabled":false,"rental_uris":{"android":"levelo://app?vid=3ce90527-4a13-4a63-b23e-6e3256d20af4","ios":"levelo://app?vid=3ce90527-4a13-4a63-b23e-6e3256d20af4"},"vehicle_type_id":"4","last_reported":1708466798,"current_range_meters":4400,"station_id":"ce4bgl92rcd13ifvqbq0","pricing_plan_id":"cebpf4jnsgd1na2vs0mg"},{"bike_id":"732a0298-35bf-4ce3-9bfc-105f75e58d6c","system_id":"levelo_inurba_marseille","lat":43.3149,"lon":5.37305,"is_reserved":false,"is_disabled":false,"rental_uris":{"android":"levelo://app?vid=732a0298-35bf-4ce3-9bfc-105f75e58d6c","ios":"levelo://app?vid=732a0298-35bf-4ce3-9bfc-105f75e58d6c"},"vehicle_type_id":"4","last_reported":1708466798,"current_range_meters":3600,"station_id":"ce4bgt12rcd13ifvqcd0","pricing_plan_id":"cebpf4jnsgd1na2vs0mg"},{"bike_id":"eb6c33bc-7c80-470d-8fcb-ec4946dc866e","system_id":"levelo_inurba_marseille","lat":43.31484,"lon":5.37311,"is_reserved":false,"is_disabled":false,"rental_uris":{"android":"levelo://app?vid=eb6c33bc-7c80-470d-8fcb-ec4946dc866e","ios":"levelo://app?vid=eb6c33bc-7c80-470d-8fcb-ec4946dc866e"},"vehicle_type_id":"4","last_reported":1708466798,"current_range_meters":17200,"station_id":"ce4bgt12rcd13ifvqcd0","pricing_plan_id":"cebpf4jnsgd1na2vs0mg"},{"bike_id":"d5a6a931-efe4-415d-9d51-aa01df1d9e86","system_id":"levelo_inurba_marseille","lat":43.309039,"lon":5.371797,"is_reserved":false,"is_disabled":false,"rental_uris":{"android":"levelo://app?vid=d5a6a931-efe4-415d-9d51-aa01df1d9e86","ios":"levelo://app?vid=d5a6a931-efe4-415d-9d51-aa01df1d9e86"},"vehicle_type_id":"4","last_reported":1708466798,"current_range_meters":8000,"station_id":"ce4bguh2rcd13ifvqckg","pricing_plan_id":"cebpf4jnsgd1na2vs0mg"},{"bike_id":"7f44eedd-3e27-4a2a-b438-ef73f08a5de8","system_id":"levelo_inurba_marseille","lat":43.309034,"lon":5.371783,"is_reserved":false,"is_disabled":false,"rental_uris":{"android":"levelo://app?vid=7f44eedd-3e27-4a2a-b438-ef73f08a5de8","ios":"levelo://app?vid=7f44eedd-3e27-4a2a-b438-ef73f08a5de8"},"vehicle_type_id":"4","last_reported":1708466798,"current_range_meters":26400,"station_id":"ce4bguh2rcd13ifvqckg","pricing_plan_id":"cebpf4jnsgd1na2vs0mg"},{"bike_id":"190633c6-220b-429e-8d6d-2f84365f6e24","system_id":"levelo_inurba_marseille","lat":43.309034,"lon":5.371783,"is_reserved":false,"is_disabled":false,"rental_uris":{"android":"levelo://app?vid=190633c6-220b-429e-8d6d-2f84365f6e24","ios":"levelo://app?vid=190633c6-220b-429e-8d6d-2f84365f6e24"},"vehicle_type_id":"4","last_reported":1708466798,"current_range_meters":27200,"station_id":"ce4bguh2rcd13ifvqckg","pricing_plan_id":"cebpf4jnsgd1na2vs0mg"},{"bike_id":"2e0ba08b-9659-4d0b-8e6a-e277b29700c2","system_id":"levelo_inurba_marseille","lat":43.305368,"lon":5.367343,"is_reserved":false,"is_disabled":false,"rental_uris":{"android":"levelo://app?vid=2e0ba08b-9659-4d0b-8e6a-e277b29700c2","ios":"levelo://app?vid=2e0ba08b-9659-4d0b-8e6a-e277b29700c2"},"vehicle_type_id":"4","last_reported":1708466798,"current_range_meters":8000,"station_id":"ce4bgrp2rcd13ifvqc9g","pricing_plan_id":"cebpf4jnsgd1na2vs0mg"},{"bike_id":"c2d6ba26-df0c-4d93-b28b-a16523e43094","system_id":"levelo_inurba_marseille","lat":43.305989,"lon":5.37225,"is_reserved":false,"is_disabled":false,"rental_uris":{"android":"levelo://app?vid=c2d6ba26-df0c-4d93-b28b-a16523e43094","ios":"levelo://app?vid=c2d6ba26-df0c-4d93-b28b-a16523e43094"},"vehicle_type_id":"4","last_reported":1708466798,"current_range_meters":4400,"station_id":"ce4bgqh2rcd13ifvqc4g","pricing_plan_id":"cebpf4jnsgd1na2vs0mg"},{"bike_id":"ea61b4f7-b353-4c08-9f75-2df755db827d","system_id":"levelo_inurba_marseille","lat":43.311244,"lon":5.377788,"is_reserved":false,"is_disabled":false,"rental_uris":{"android":"levelo://app?vid=ea61b4f7-b353-4c08-9f75-2df755db827d","ios":"levelo://app?vid=ea61b4f7-b353-4c08-9f75-2df755db827d"},"vehicle_type_id":"4","last_reported":1708466798,"current_range_meters":0,"station_id":"ce4bgt92rcd13ifvqcg0","pricing_plan_id":"cebpf4jnsgd1na2vs0mg"},{"bike_id":"dc22c28f-522a-4fb4-b7ab-c6251b90de82","system_id":"levelo_inurba_marseille","lat":43.31654,"lon":5.37675,"is_reserved":false,"is_disabled":false,"rental_uris":{"android":"levelo://app?vid=dc22c28f-522a-4fb4-b7ab-c6251b90de82","ios":"levelo://app?vid=dc22c28f-522a-4fb4-b7ab-c6251b90de82"},"vehicle_type_id":"4","last_reported":1708466798,"current_range_meters":30000,"station_id":"","pricing_plan_id":"cebpf4jnsgd1na2vs0mg"},{"bike_id":"700fc5f0-a6db-4d66-8b8e-8ebbbf55c89f","system_id":"levelo_inurba_marseille","lat":43.311131,"lon":5.377651,"is_reserved":false,"is_disabled":false,"rental_uris":{"android":"levelo://app?vid=700fc5f0-a6db-4d66-8b8e-8ebbbf55c89f","ios":"levelo://app?vid=700fc5f0-a6db-4d66-8b8e-8ebbbf55c89f"},"vehicle_type_id":"4","last_reported":1708466798,"current_range_meters":20400,"station_id":"ce4bgt92rcd13ifvqcg0","pricing_plan_id":"cebpf4jnsgd1na2vs0mg"},{"bike_id":"9e68b400-3a9c-44cf-b8bf-f1c2089a49df","system_id":"levelo_inurba_marseille","lat":43.311131,"lon":5.377651,"is_reserved":false,"is_disabled":false,"rental_uris":{"android":"levelo://app?vid=9e68b400-3a9c-44cf-b8bf-f1c2089a49df","ios":"levelo://app?vid=9e68b400-3a9c-44cf-b8bf-f1c2089a49df"},"vehicle_type_id":"4","last_reported":1708466798,"current_range_meters":6800,"station_id":"ce4bgt92rcd13ifvqcg0","pricing_plan_id":"cebpf4jnsgd1na2vs0mg"},{"bike_id":"e922799c-2f83-4bd0-a585-9b57c289e584","system_id":"levelo_inurba_marseille","lat":43.307945,"lon":5.376487,"is_reserved":false,"is_disabled":false,"rental_uris":{"android":"levelo://app?vid=e922799c-2f83-4bd0-a585-9b57c289e584","ios":"levelo://app?vid=e922799c-2f83-4bd0-a585-9b57c289e584"},"vehicle_type_id":"4","last_reported":1708466798,"current_range_meters":10000,"station_id":"ce4bgv92rcd13ifvqcq0","pricing_plan_id":"cebpf4jnsgd1na2vs0mg"},{"bike_id":"f89faff1-8a8a-4de7-996b-028b668d8098","system_id":"levelo_inurba_marseille","lat":43.307945,"lon":5.376487,"is_reserved":false,"is_disabled":false,"rental_uris":{"android":"levelo://app?vid=f89faff1-8a8a-4de7-996b-028b668d8098","ios":"levelo://app?vid=f89faff1-8a8a-4de7-996b-028b668d8098"},"vehicle_type_id":"4","last_reported":1708466798,"current_range_meters":20000,"station_id":"ce4bgv92rcd13ifvqcq0","pricing_plan_id":"cebpf4jnsgd1na2vs0mg"},{"bike_id":"67f06919-7c6d-4963-8326-b4f429adf7b7","system_id":"levelo_inurba_marseille","lat":43.307945,"lon":5.376487,"is_reserved":false,"is_disabled":false,"rental_uris":{"android":"levelo://app?vid=67f06919-7c6d-4963-8326-b4f429adf7b7","ios":"levelo://app?vid=67f06919-7c6d-4963-8326-b4f429adf7b7"},"vehicle_type_id":"4","last_reported":1708466798,"current_range_meters":17200,"station_id":"ce4bgv92rcd13ifvqcq0","pricing_plan_id":"cebpf4jnsgd1na2vs0mg"},{"bike_id":"3765168d-e47b-4b95-b34b-fb916cd04606","system_id":"levelo_inurba_marseille","lat":43.307945,"lon":5.376487,"is_reserved":false,"is_disabled":false,"rental_uris":{"android":"levelo://app?vid=3765168d-e47b-4b95-b34b-fb916cd04606","ios":"levelo://app?vid=3765168d-e47b-4b95-b34b-fb916cd04606"},"vehicle_type_id":"4","last_reported":1708466798,"current_range_meters":31600,"station_id":"ce4bgv92rcd13ifvqcq0","pricing_plan_id":"cebpf4jnsgd1na2vs0mg"},{"bike_id":"dd2b686a-f736-4829-957e-07897b032d5d","system_id":"levelo_inurba_marseille","lat":43.317075,"lon":5.377367,"is_reserved":false,"is_disabled":false,"rental_uris":{"android":"levelo://app?vid=dd2b686a-f736-4829-957e-07897b032d5d","ios":"levelo://app?vid=dd2b686a-f736-4829-957e-07897b032d5d"},"vehicle_type_id":"4","last_reported":1708466798,"current_range_meters":16000,"station_id":"ce4bgth2rcd13ifvqch0","pricing_plan_id":"cebpf4jnsgd1na2vs0mg"},{"bike_id":"f2dfa75f-eb4e-4f9c-9729-85a59db10d6c","system_id":"levelo_inurba_marseille","lat":43.317096,"lon":5.377464,"is_reserved":false,"is_disabled":false,"rental_uris":{"android":"levelo://app?vid=f2dfa75f-eb4e-4f9c-9729-85a59db10d6c","ios":"levelo://app?vid=f2dfa75f-eb4e-4f9c-9729-85a59db10d6c"},"vehicle_type_id":"4","last_reported":1708466798,"current_range_meters":19200,"station_id":"","pricing_plan_id":"cebpf4jnsgd1na2vs0mg"},{"bike_id":"d1ea9677-574a-4b9f-a2e8-bc3e5e634690","system_id":"levelo_inurba_marseille","lat":43.303046,"lon":5.368981,"is_reserved":false,"is_disabled":false,"rental_uris":{"android":"levelo://app?vid=d1ea9677-574a-4b9f-a2e8-bc3e5e634690","ios":"levelo://app?vid=d1ea9677-574a-4b9f-a2e8-bc3e5e634690"},"vehicle_type_id":"4","last_reported":1708466798,"current_range_meters":800,"station_id":"ce4bgqh2rcd13ifvqc5g","pricing_plan_id":"cebpf4jnsgd1na2vs0mg"},{"bike_id":"07e1d6a6-527b-4c1b-a885-5621c988d8e5","system_id":"levelo_inurba_marseille","lat":43.30306,"lon":5.3692,"is_reserved":false,"is_disabled":false,"rental_uris":{"android":"levelo://app?vid=07e1d6a6-527b-4c1b-a885-5621c988d8e5","ios":"levelo://app?vid=07e1d6a6-527b-4c1b-a885-5621c988d8e5"},"vehicle_type_id":"4","last_reported":1708466798,"current_range_meters":29600,"station_id":"ce4bgqh2rcd13ifvqc5g","pricing_plan_id":"cebpf4jnsgd1na2vs0mg"},{"bike_id":"a8da9c64-ff44-452d-a385-0c6903f4db99","system_id":"levelo_inurba_marseille","lat":43.315359,"lon":5.380263,"is_reserved":false,"is_disabled":false,"rental_uris":{"android":"levelo://app?vid=a8da9c64-ff44-452d-a385-0c6903f4db99","ios":"levelo://app?vid=a8da9c64-ff44-452d-a385-0c6903f4db99"},"vehicle_type_id":"4","last_reported":1708466798,"current_range_meters":10000,"station_id":"ce4bhsp2rcd13ifvqi50","pricing_plan_id":"cebpf4jnsgd1na2vs0mg"},{"bike_id":"5e9a81c8-a4ff-4d24-9ca7-faa91cc4ddb5","system_id":"levelo_inurba_marseille","lat":43.301939,"lon":5.366286,"is_reserved":false,"is_disabled":false,"rental_uris":{"android":"levelo://app?vid=5e9a81c8-a4ff-4d24-9ca7-faa91cc4ddb5","ios":"levelo://app?vid=5e9a81c8-a4ff-4d24-9ca7-faa91cc4ddb5"},"vehicle_type_id":"4","last_reported":1708466798,"current_range_meters":15200,"station_id":"ce4bgrh2rcd13ifvqc8g","pricing_plan_id":"cebpf4jnsgd1na2vs0mg"},{"bike_id":"456afa71-598b-4d9a-8929-510bc8b3593f","system_id":"levelo_inurba_marseille","lat":43.301939,"lon":5.366286,"is_reserved":false,"is_disabled":false,"rental_uris":{"android":"levelo://app?vid=456afa71-598b-4d9a-8929-510bc8b3593f","ios":"levelo://app?vid=456afa71-598b-4d9a-8929-510bc8b3593f"},"vehicle_type_id":"4","last_reported":1708466798,"current_range_meters":25200,"station_id":"ce4bgrh2rcd13ifvqc8g","pricing_plan_id":"cebpf4jnsgd1na2vs0mg"},{"bike_id":"d3f0efec-069d-490a-a72c-e813bcff9bc4","system_id":"levelo_inurba_marseille","lat":43.301939,"lon":5.366286,"is_reserved":false,"is_disabled":false,"rental_uris":{"android":"levelo://app?vid=d3f0efec-069d-490a-a72c-e813bcff9bc4","ios":"levelo://app?vid=d3f0efec-069d-490a-a72c-e813bcff9bc4"},"vehicle_type_id":"4","last_reported":1708466798,"current_range_meters":8800,"station_id":"ce4bgrh2rcd13ifvqc8g","pricing_plan_id":"cebpf4jnsgd1na2vs0mg"},{"bike_id":"70bf0c1f-9a4b-451f-93df-c58e0efc1873","system_id":"levelo_inurba_marseille","lat":43.308012,"lon":5.381511,"is_reserved":false,"is_disabled":false,"rental_uris":{"android":"levelo://app?vid=70bf0c1f-9a4b-451f-93df-c58e0efc1873","ios":"levelo://app?vid=70bf0c1f-9a4b-451f-93df-c58e0efc1873"},"vehicle_type_id":"4","last_reported":1708466798,"current_range_meters":23600,"station_id":"ce4bgt12rcd13ifvqce0","pricing_plan_id":"cebpf4jnsgd1na2vs0mg"},{"bike_id":"2ebf4cb1-d01c-429a-b952-1b521fb87668","system_id":"levelo_inurba_marseille","lat":43.308012,"lon":5.381511,"is_reserved":false,"is_disabled":false,"rental_uris":{"android":"levelo://app?vid=2ebf4cb1-d01c-429a-b952-1b521fb87668","ios":"levelo://app?vid=2ebf4cb1-d01c-429a-b952-1b521fb87668"},"vehicle_type_id":"4","last_reported":1708466798,"current_range_meters":22800,"station_id":"ce4bgt12rcd13ifvqce0","pricing_plan_id":"cebpf4jnsgd1na2vs0mg"},{"bike_id":"df2e8be1-a186-4acb-8794-3d09859ca296","system_id":"levelo_inurba_marseille","lat":43.308012,"lon":5.381511,"is_reserved":false,"is_disabled":false,"rental_uris":{"android":"levelo://app?vid=df2e8be1-a186-4acb-8794-3d09859ca296","ios":"levelo://app?vid=df2e8be1-a186-4acb-8794-3d09859ca296"},"vehicle_type_id":"4","last_reported":1708466798,"current_range_meters":30000,"station_id":"ce4bgt12rcd13ifvqce0","pricing_plan_id":"cebpf4jnsgd1na2vs0mg"},{"bike_id":"8988ab5a-bee0-40a7-aabb-7ecdaaa3eb15","system_id":"levelo_inurba_marseille","lat":43.308012,"lon":5.381511,"is_reserved":false,"is_disabled":false,"rental_uris":{"android":"levelo://app?vid=8988ab5a-bee0-40a7-aabb-7ecdaaa3eb15","ios":"levelo://app?vid=8988ab5a-bee0-40a7-aabb-7ecdaaa3eb15"},"vehicle_type_id":"4","last_reported":1708466798,"current_range_meters":13600,"station_id":"ce4bgt12rcd13ifvqce0","pricing_plan_id":"cebpf4jnsgd1na2vs0mg"},{"bike_id":"a239bfdb-ca4b-4d40-a2a0-55537b1612cd","system_id":"levelo_inurba_marseille","lat":43.308012,"lon":5.381511,"is_reserved":false,"is_disabled":false,"rental_uris":{"android":"levelo://app?vid=a239bfdb-ca4b-4d40-a2a0-55537b1612cd","ios":"levelo://app?vid=a239bfdb-ca4b-4d40-a2a0-55537b1612cd"},"vehicle_type_id":"4","last_reported":1708466798,"current_range_meters":11200,"station_id":"ce4bgt12rcd13ifvqce0","pricing_plan_id":"cebpf4jnsgd1na2vs0mg"},{"bike_id":"d6e52bca-576d-462c-b611-6436e336be5b","system_id":"levelo_inurba_marseille","lat":43.308012,"lon":5.381511,"is_reserved":false,"is_disabled":false,"rental_uris":{"android":"levelo://app?vid=d6e52bca-576d-462c-b611-6436e336be5b","ios":"levelo://app?vid=d6e52bca-576d-462c-b611-6436e336be5b"},"vehicle_type_id":"4","last_reported":1708466798,"current_range_meters":10400,"station_id":"ce4bgt12rcd13ifvqce0","pricing_plan_id":"cebpf4jnsgd1na2vs0mg"},{"bike_id":"aea2630d-ca35-4f30-beec-0a50718bc7e7","system_id":"levelo_inurba_marseille","lat":43.304606,"lon":5.379026,"is_reserved":false,"is_disabled":false,"rental_uris":{"android":"levelo://app?vid=aea2630d-ca35-4f30-beec-0a50718bc7e7","ios":"levelo://app?vid=aea2630d-ca35-4f30-beec-0a50718bc7e7"},"vehicle_type_id":"4","last_reported":1708466798,"current_range_meters":19200,"station_id":"ce4bgup2rcd13ifvqcn0","pricing_plan_id":"cebpf4jnsgd1na2vs0mg"},{"bike_id":"3b4aac0d-02f5-467d-ae7d-3492d9985b80","system_id":"levelo_inurba_marseille","lat":43.304606,"lon":5.379026,"is_reserved":false,"is_disabled":false,"rental_uris":{"android":"levelo://app?vid=3b4aac0d-02f5-467d-ae7d-3492d9985b80","ios":"levelo://app?vid=3b4aac0d-02f5-467d-ae7d-3492d9985b80"},"vehicle_type_id":"4","last_reported":1708466798,"current_range_meters":16400,"station_id":"ce4bgup2rcd13ifvqcn0","pricing_plan_id":"cebpf4jnsgd1na2vs0mg"},{"bike_id":"2a251856-e1b8-4c18-a0a0-94a2c0abc5e4","system_id":"levelo_inurba_marseille","lat":43.324771,"lon":5.36557,"is_reserved":false,"is_disabled":false,"rental_uris":{"android":"levelo://app?vid=2a251856-e1b8-4c18-a0a0-94a2c0abc5e4","ios":"levelo://app?vid=2a251856-e1b8-4c18-a0a0-94a2c0abc5e4"},"vehicle_type_id":"4","last_reported":1708466798,"current_range_meters":28400,"station_id":"ce4bhs12rcd13ifvqhvg","pricing_plan_id":"cebpf4jnsgd1na2vs0mg"},{"bike_id":"5f3727da-be6d-4245-8b7a-5c108328736b","system_id":"levelo_inurba_marseille","lat":43.324771,"lon":5.36557,"is_reserved":false,"is_disabled":false,"rental_uris":{"android":"levelo://app?vid=5f3727da-be6d-4245-8b7a-5c108328736b","ios":"levelo://app?vid=5f3727da-be6d-4245-8b7a-5c108328736b"},"vehicle_type_id":"4","last_reported":1708466798,"current_range_meters":0,"station_id":"ce4bhs12rcd13ifvqhvg","pricing_plan_id":"cebpf4jnsgd1na2vs0mg"},{"bike_id":"caaf26f8-fbed-445b-be7b-3ecf625cc521","system_id":"levelo_inurba_marseille","lat":43.324771,"lon":5.36557,"is_reserved":false,"is_disabled":false,"rental_uris":{"android":"levelo://app?vid=caaf26f8-fbed-445b-be7b-3ecf625cc521","ios":"levelo://app?vid=caaf26f8-fbed-445b-be7b-3ecf625cc521"},"vehicle_type_id":"4","last_reported":1708466798,"current_range_meters":29600,"station_id":"ce4bhs12rcd13ifvqhvg","pricing_plan_id":"cebpf4jnsgd1na2vs0mg"},{"bike_id":"4cd60cd3-101b-4a05-9703-76840434a255","system_id":"levelo_inurba_marseille","lat":43.324771,"lon":5.36557,"is_reserved":false,"is_disabled":false,"rental_uris":{"android":"levelo://app?vid=4cd60cd3-101b-4a05-9703-76840434a255","ios":"levelo://app?vid=4cd60cd3-101b-4a05-9703-76840434a255"},"vehicle_type_id":"4","last_reported":1708466798,"current_range_meters":23600,"station_id":"ce4bhs12rcd13ifvqhvg","pricing_plan_id":"cebpf4jnsgd1na2vs0mg"},{"bike_id":"cda8eb5b-2134-4fe4-b0ac-1209e0bbc329","system_id":"levelo_inurba_marseille","lat":43.324771,"lon":5.36557,"is_reserved":false,"is_disabled":false,"rental_uris":{"android":"levelo://app?vid=cda8eb5b-2134-4fe4-b0ac-1209e0bbc329","ios":"levelo://app?vid=cda8eb5b-2134-4fe4-b0ac-1209e0bbc329"},"vehicle_type_id":"4","last_reported":1708466798,"current_range_meters":16400,"station_id":"ce4bhs12rcd13ifvqhvg","pricing_plan_id":"cebpf4jnsgd1na2vs0mg"},{"bike_id":"0bebe47b-6ff5-453e-acf2-e467137dbc70","system_id":"levelo_inurba_marseille","lat":43.324771,"lon":5.36557,"is_reserved":false,"is_disabled":false,"rental_uris":{"android":"levelo://app?vid=0bebe47b-6ff5-453e-acf2-e467137dbc70","ios":"levelo://app?vid=0bebe47b-6ff5-453e-acf2-e467137dbc70"},"vehicle_type_id":"4","last_reported":1708466798,"current_range_meters":2000,"station_id":"ce4bhs12rcd13ifvqhvg","pricing_plan_id":"cebpf4jnsgd1na2vs0mg"},{"bike_id":"3bbc04bb-dbdd-4536-a593-19fd850bed52","system_id":"levelo_inurba_marseille","lat":43.324771,"lon":5.36557,"is_reserved":false,"is_disabled":false,"rental_uris":{"android":"levelo://app?vid=3bbc04bb-dbdd-4536-a593-19fd850bed52","ios":"levelo://app?vid=3bbc04bb-dbdd-4536-a593-19fd850bed52"},"vehicle_type_id":"4","last_reported":1708466798,"current_range_meters":4000,"station_id":"ce4bhs12rcd13ifvqhvg","pricing_plan_id":"cebpf4jnsgd1na2vs0mg"},{"bike_id":"1b487b6d-34c4-4361-92b5-121164332e2c","system_id":"levelo_inurba_marseille","lat":43.310804,"lon":5.38359,"is_reserved":false,"is_disabled":false,"rental_uris":{"android":"levelo://app?vid=1b487b6d-34c4-4361-92b5-121164332e2c","ios":"levelo://app?vid=1b487b6d-34c4-4361-92b5-121164332e2c"},"vehicle_type_id":"4","last_reported":1708466798,"current_range_meters":26400,"station_id":"ce4bgv92rcd13ifvqcr0","pricing_plan_id":"cebpf4jnsgd1na2vs0mg"},{"bike_id":"60bd5b21-6f65-4106-848b-6b1dc6e92f81","system_id":"levelo_inurba_marseille","lat":43.302744,"lon":5.377004,"is_reserved":false,"is_disabled":false,"rental_uris":{"android":"levelo://app?vid=60bd5b21-6f65-4106-848b-6b1dc6e92f81","ios":"levelo://app?vid=60bd5b21-6f65-4106-848b-6b1dc6e92f81"},"vehicle_type_id":"4","last_reported":1708466798,"current_range_meters":29600,"station_id":"ce4bguh2rcd13ifvqcj0","pricing_plan_id":"cebpf4jnsgd1na2vs0mg"},{"bike_id":"fa74ca84-175e-486c-a29b-18a75d0e7172","system_id":"levelo_inurba_marseille","lat":43.31993,"lon":5.38145,"is_reserved":false,"is_disabled":false,"rental_uris":{"android":"levelo://app?vid=fa74ca84-175e-486c-a29b-18a75d0e7172","ios":"levelo://app?vid=fa74ca84-175e-486c-a29b-18a75d0e7172"},"vehicle_type_id":"4","last_reported":1708466798,"current_range_meters":0,"station_id":"ce4bhr12rcd13ifvqhpg","pricing_plan_id":"cebpf4jnsgd1na2vs0mg"},{"bike_id":"63143a37-fb22-47f3-9b42-20c7dfb13dfc","system_id":"levelo_inurba_marseille","lat":43.319935,"lon":5.381699,"is_reserved":false,"is_disabled":false,"rental_uris":{"android":"levelo://app?vid=63143a37-fb22-47f3-9b42-20c7dfb13dfc","ios":"levelo://app?vid=63143a37-fb22-47f3-9b42-20c7dfb13dfc"},"vehicle_type_id":"4","last_reported":1708466798,"current_range_meters":15200,"station_id":"ce4bhr12rcd13ifvqhpg","pricing_plan_id":"cebpf4jnsgd1na2vs0mg"},{"bike_id":"4da0bc28-1f1b-4133-aeb1-e5fa264d8ee7","system_id":"levelo_inurba_marseille","lat":43.31549,"lon":5.3845,"is_reserved":false,"is_disabled":false,"rental_uris":{"android":"levelo://app?vid=4da0bc28-1f1b-4133-aeb1-e5fa264d8ee7","ios":"levelo://app?vid=4da0bc28-1f1b-4133-aeb1-e5fa264d8ee7"},"vehicle_type_id":"4","last_reported":1708466798,"current_range_meters":21600,"station_id":"","pricing_plan_id":"cebpf4jnsgd1na2vs0mg"},{"bike_id":"e778ed09-c729-45a4-9bb3-2995f5f6b10d","system_id":"levelo_inurba_marseille","lat":43.313571,"lon":5.384829,"is_reserved":false,"is_disabled":false,"rental_uris":{"android":"levelo://app?vid=e778ed09-c729-45a4-9bb3-2995f5f6b10d","ios":"levelo://app?vid=e778ed09-c729-45a4-9bb3-2995f5f6b10d"},"vehicle_type_id":"4","last_reported":1708466798,"current_range_meters":12400,"station_id":"ce4bgt92rcd13ifvqcf0","pricing_plan_id":"cebpf4jnsgd1na2vs0mg"},{"bike_id":"6cb43481-661c-40c6-8d76-28ebf2bca466","system_id":"levelo_inurba_marseille","lat":43.313571,"lon":5.384829,"is_reserved":false,"is_disabled":false,"rental_uris":{"android":"levelo://app?vid=6cb43481-661c-40c6-8d76-28ebf2bca466","ios":"levelo://app?vid=6cb43481-661c-40c6-8d76-28ebf2bca466"},"vehicle_type_id":"4","last_reported":1708466798,"current_range_meters":15600,"station_id":"ce4bgt92rcd13ifvqcf0","pricing_plan_id":"cebpf4jnsgd1na2vs0mg"},{"bike_id":"93ed9176-7b2d-4639-892b-280d96af046d","system_id":"levelo_inurba_marseille","lat":43.299222,"lon":5.365554,"is_reserved":false,"is_disabled":false,"rental_uris":{"android":"levelo://app?vid=93ed9176-7b2d-4639-892b-280d96af046d","ios":"levelo://app?vid=93ed9176-7b2d-4639-892b-280d96af046d"},"vehicle_type_id":"4","last_reported":1708466798,"current_range_meters":31200,"station_id":"ce4bgm92rcd13ifvqbr0","pricing_plan_id":"cebpf4jnsgd1na2vs0mg"},{"bike_id":"8d89379c-19f0-4e74-a3de-11e7b25d39e3","system_id":"levelo_inurba_marseille","lat":43.305364,"lon":5.384119,"is_reserved":false,"is_disabled":false,"rental_uris":{"android":"levelo://app?vid=8d89379c-19f0-4e74-a3de-11e7b25d39e3","ios":"levelo://app?vid=8d89379c-19f0-4e74-a3de-11e7b25d39e3"},"vehicle_type_id":"4","last_reported":1708466798,"current_range_meters":24400,"station_id":"ce4bgg92rcd13ifvqb30","pricing_plan_id":"cebpf4jnsgd1na2vs0mg"},{"bike_id":"d19d5881-bf52-4a70-b368-95d538b38a71","system_id":"levelo_inurba_marseille","lat":43.305364,"lon":5.384119,"is_reserved":false,"is_disabled":false,"rental_uris":{"android":"levelo://app?vid=d19d5881-bf52-4a70-b368-95d538b38a71","ios":"levelo://app?vid=d19d5881-bf52-4a70-b368-95d538b38a71"},"vehicle_type_id":"4","last_reported":1708466798,"current_range_meters":27200,"station_id":"ce4bgg92rcd13ifvqb30","pricing_plan_id":"cebpf4jnsgd1na2vs0mg"},{"bike_id":"f1d9aa1f-d7bf-4a67-bed6-307ea08e9ecc","system_id":"levelo_inurba_marseille","lat":43.311722,"lon":5.387247,"is_reserved":false,"is_disabled":false,"rental_uris":{"android":"levelo://app?vid=f1d9aa1f-d7bf-4a67-bed6-307ea08e9ecc","ios":"levelo://app?vid=f1d9aa1f-d7bf-4a67-bed6-307ea08e9ecc"},"vehicle_type_id":"4","last_reported":1708466798,"current_range_meters":28800,"station_id":"ce4bgv12rcd13ifvqcp0","pricing_plan_id":"cebpf4jnsgd1na2vs0mg"},{"bike_id":"f6a86732-d769-4a07-8a0f-0c7f0b7570df","system_id":"levelo_inurba_marseille","lat":43.311722,"lon":5.387247,"is_reserved":false,"is_disabled":false,"rental_uris":{"android":"levelo://app?vid=f6a86732-d769-4a07-8a0f-0c7f0b7570df","ios":"levelo://app?vid=f6a86732-d769-4a07-8a0f-0c7f0b7570df"},"vehicle_type_id":"4","last_reported":1708466798,"current_range_meters":20800,"station_id":"ce4bgv12rcd13ifvqcp0","pricing_plan_id":"cebpf4jnsgd1na2vs0mg"},{"bike_id":"1176da8f-7365-4c1e-b5b7-36810e521dd2","system_id":"levelo_inurba_marseille","lat":43.311722,"lon":5.387247,"is_reserved":false,"is_disabled":false,"rental_uris":{"android":"levelo://app?vid=1176da8f-7365-4c1e-b5b7-36810e521dd2","ios":"levelo://app?vid=1176da8f-7365-4c1e-b5b7-36810e521dd2"},"vehicle_type_id":"4","last_reported":1708466798,"current_range_meters":24000,"station_id":"ce4bgv12rcd13ifvqcp0","pricing_plan_id":"cebpf4jnsgd1na2vs0mg"},{"bike_id":"93b58ba6-1305-4178-91c6-865c793c341e","system_id":"levelo_inurba_marseille","lat":43.299243,"lon":5.37481,"is_reserved":false,"is_disabled":false,"rental_uris":{"android":"levelo://app?vid=93b58ba6-1305-4178-91c6-865c793c341e","ios":"levelo://app?vid=93b58ba6-1305-4178-91c6-865c793c341e"},"vehicle_type_id":"4","last_reported":1708466798,"current_range_meters":3200,"station_id":"ce4bgjh2rcd13ifvqbg0","pricing_plan_id":"cebpf4jnsgd1na2vs0mg"},{"bike_id":"b8fded91-470c-440e-84dc-874ba2e0aad6","system_id":"levelo_inurba_marseille","lat":43.311722,"lon":5.387247,"is_reserved":false,"is_disabled":false,"rental_uris":{"android":"levelo://app?vid=b8fded91-470c-440e-84dc-874ba2e0aad6","ios":"levelo://app?vid=b8fded91-470c-440e-84dc-874ba2e0aad6"},"vehicle_type_id":"4","last_reported":1708466798,"current_range_meters":16800,"station_id":"ce4bgv12rcd13ifvqcp0","pricing_plan_id":"cebpf4jnsgd1na2vs0mg"},{"bike_id":"a9d2e652-b46a-4446-a139-0051cb158cf6","system_id":"levelo_inurba_marseille","lat":43.299243,"lon":5.37481,"is_reserved":false,"is_disabled":false,"rental_uris":{"android":"levelo://app?vid=a9d2e652-b46a-4446-a139-0051cb158cf6","ios":"levelo://app?vid=a9d2e652-b46a-4446-a139-0051cb158cf6"},"vehicle_type_id":"4","last_reported":1708466798,"current_range_meters":19600,"station_id":"ce4bgjh2rcd13ifvqbg0","pricing_plan_id":"cebpf4jnsgd1na2vs0mg"},{"bike_id":"098eaae3-c91c-4c4e-9a14-70e940012909","system_id":"levelo_inurba_marseille","lat":43.29803,"lon":5.3622,"is_reserved":false,"is_disabled":false,"rental_uris":{"android":"levelo://app?vid=098eaae3-c91c-4c4e-9a14-70e940012909","ios":"levelo://app?vid=098eaae3-c91c-4c4e-9a14-70e940012909"},"vehicle_type_id":"4","last_reported":1708466798,"current_range_meters":20400,"station_id":"","pricing_plan_id":"cebpf4jnsgd1na2vs0mg"},{"bike_id":"deca02c5-1726-4b76-af04-fb53eedb9ea1","system_id":"levelo_inurba_marseille","lat":43.297794,"lon":5.370888,"is_reserved":false,"is_disabled":false,"rental_uris":{"android":"levelo://app?vid=deca02c5-1726-4b76-af04-fb53eedb9ea1","ios":"levelo://app?vid=deca02c5-1726-4b76-af04-fb53eedb9ea1"},"vehicle_type_id":"4","last_reported":1708466798,"current_range_meters":15200,"station_id":"ce4bgop2rcd13ifvqc1g","pricing_plan_id":"cebpf4jnsgd1na2vs0mg"},{"bike_id":"79b54601-dd27-44fc-91ca-5befd5594d9b","system_id":"levelo_inurba_marseille","lat":43.322872,"lon":5.382756,"is_reserved":false,"is_disabled":false,"rental_uris":{"android":"levelo://app?vid=79b54601-dd27-44fc-91ca-5befd5594d9b","ios":"levelo://app?vid=79b54601-dd27-44fc-91ca-5befd5594d9b"},"vehicle_type_id":"4","last_reported":1708466798,"current_range_meters":30000,"station_id":"ce4bhr12rcd13ifvqhqg","pricing_plan_id":"cebpf4jnsgd1na2vs0mg"},{"bike_id":"25fc5026-6ec5-4002-b696-3e1c3a41c330","system_id":"levelo_inurba_marseille","lat":43.32287,"lon":5.38279,"is_reserved":false,"is_disabled":false,"rental_uris":{"android":"levelo://app?vid=25fc5026-6ec5-4002-b696-3e1c3a41c330","ios":"levelo://app?vid=25fc5026-6ec5-4002-b696-3e1c3a41c330"},"vehicle_type_id":"4","last_reported":1708466798,"current_range_meters":10400,"station_id":"ce4bhr12rcd13ifvqhqg","pricing_plan_id":"cebpf4jnsgd1na2vs0mg"},{"bike_id":"3ef6b703-e056-421a-9179-5e7d94b25453","system_id":"levelo_inurba_marseille","lat":43.3229,"lon":5.38281,"is_reserved":false,"is_disabled":false,"rental_uris":{"android":"levelo://app?vid=3ef6b703-e056-421a-9179-5e7d94b25453","ios":"levelo://app?vid=3ef6b703-e056-421a-9179-5e7d94b25453"},"vehicle_type_id":"4","last_reported":1708466798,"current_range_meters":23600,"station_id":"ce4bhr12rcd13ifvqhqg","pricing_plan_id":"cebpf4jnsgd1na2vs0mg"},{"bike_id":"42a5bc49-017c-4bed-ace8-b0cc016138bf","system_id":"levelo_inurba_marseille","lat":43.328506,"lon":5.366889,"is_reserved":false,"is_disabled":false,"rental_uris":{"android":"levelo://app?vid=42a5bc49-017c-4bed-ace8-b0cc016138bf","ios":"levelo://app?vid=42a5bc49-017c-4bed-ace8-b0cc016138bf"},"vehicle_type_id":"4","last_reported":1708466798,"current_range_meters":7600,"station_id":"","pricing_plan_id":"cebpf4jnsgd1na2vs0mg"},{"bike_id":"697e2f4c-d5d2-4458-8944-d05879544f0f","system_id":"levelo_inurba_marseille","lat":43.2968,"lon":5.37291,"is_reserved":false,"is_disabled":false,"rental_uris":{"android":"levelo://app?vid=697e2f4c-d5d2-4458-8944-d05879544f0f","ios":"levelo://app?vid=697e2f4c-d5d2-4458-8944-d05879544f0f"},"vehicle_type_id":"4","last_reported":1708466798,"current_range_meters":15600,"station_id":"ce4bgk12rcd13ifvqbj0","pricing_plan_id":"cebpf4jnsgd1na2vs0mg"},{"bike_id":"94d05653-18fa-44ca-99c1-724693dfd273","system_id":"levelo_inurba_marseille","lat":43.2968,"lon":5.37291,"is_reserved":false,"is_disabled":false,"rental_uris":{"android":"levelo://app?vid=94d05653-18fa-44ca-99c1-724693dfd273","ios":"levelo://app?vid=94d05653-18fa-44ca-99c1-724693dfd273"},"vehicle_type_id":"4","last_reported":1708466798,"current_range_meters":4000,"station_id":"ce4bgk12rcd13ifvqbj0","pricing_plan_id":"cebpf4jnsgd1na2vs0mg"},{"bike_id":"fac9877d-be08-4241-a5fa-5fcffe0b76d5","system_id":"levelo_inurba_marseille","lat":43.309589,"lon":5.390258,"is_reserved":false,"is_disabled":false,"rental_uris":{"android":"levelo://app?vid=fac9877d-be08-4241-a5fa-5fcffe0b76d5","ios":"levelo://app?vid=fac9877d-be08-4241-a5fa-5fcffe0b76d5"},"vehicle_type_id":"4","last_reported":1708466798,"current_range_meters":0,"station_id":"ce4bgup2rcd13ifvqco0","pricing_plan_id":"cebpf4jnsgd1na2vs0mg"},{"bike_id":"21219058-4def-440f-b159-d8afae7f9922","system_id":"levelo_inurba_marseille","lat":43.299028,"lon":5.381509,"is_reserved":false,"is_disabled":false,"rental_uris":{"android":"levelo://app?vid=21219058-4def-440f-b159-d8afae7f9922","ios":"levelo://app?vid=21219058-4def-440f-b159-d8afae7f9922"},"vehicle_type_id":"4","last_reported":1708466798,"current_range_meters":24000,"station_id":"ce4bgj12rcd13ifvqbc0","pricing_plan_id":"cebpf4jnsgd1na2vs0mg"},{"bike_id":"116fec0f-c8be-4b6b-81fc-0f820be02093","system_id":"levelo_inurba_marseille","lat":43.299028,"lon":5.381509,"is_reserved":false,"is_disabled":false,"rental_uris":{"android":"levelo://app?vid=116fec0f-c8be-4b6b-81fc-0f820be02093","ios":"levelo://app?vid=116fec0f-c8be-4b6b-81fc-0f820be02093"},"vehicle_type_id":"4","last_reported":1708466798,"current_range_meters":6000,"station_id":"ce4bgj12rcd13ifvqbc0","pricing_plan_id":"cebpf4jnsgd1na2vs0mg"},{"bike_id":"05e57e98-6cb1-4eba-84b1-3e5e5fca2f14","system_id":"levelo_inurba_marseille","lat":43.29907,"lon":5.38141,"is_reserved":false,"is_disabled":false,"rental_uris":{"android":"levelo://app?vid=05e57e98-6cb1-4eba-84b1-3e5e5fca2f14","ios":"levelo://app?vid=05e57e98-6cb1-4eba-84b1-3e5e5fca2f14"},"vehicle_type_id":"4","last_reported":1708466798,"current_range_meters":5600,"station_id":"ce4bgj12rcd13ifvqbc0","pricing_plan_id":"cebpf4jnsgd1na2vs0mg"},{"bike_id":"c9bfdcc9-3e59-408d-bbe2-08041bc06d60","system_id":"levelo_inurba_marseille","lat":43.299028,"lon":5.381509,"is_reserved":false,"is_disabled":false,"rental_uris":{"android":"levelo://app?vid=c9bfdcc9-3e59-408d-bbe2-08041bc06d60","ios":"levelo://app?vid=c9bfdcc9-3e59-408d-bbe2-08041bc06d60"},"vehicle_type_id":"4","last_reported":1708466798,"current_range_meters":22400,"station_id":"ce4bgj12rcd13ifvqbc0","pricing_plan_id":"cebpf4jnsgd1na2vs0mg"},{"bike_id":"5b203d42-e187-4b85-8bc0-1d5e005706c0","system_id":"levelo_inurba_marseille","lat":43.309589,"lon":5.390258,"is_reserved":false,"is_disabled":false,"rental_uris":{"android":"levelo://app?vid=5b203d42-e187-4b85-8bc0-1d5e005706c0","ios":"levelo://app?vid=5b203d42-e187-4b85-8bc0-1d5e005706c0"},"vehicle_type_id":"4","last_reported":1708466798,"current_range_meters":31200,"station_id":"ce4bgup2rcd13ifvqco0","pricing_plan_id":"cebpf4jnsgd1na2vs0mg"},{"bike_id":"25ac4e30-226a-48db-92d7-6eacc4e6ec30","system_id":"levelo_inurba_marseille","lat":43.309589,"lon":5.390258,"is_reserved":false,"is_disabled":false,"rental_uris":{"android":"levelo://app?vid=25ac4e30-226a-48db-92d7-6eacc4e6ec30","ios":"levelo://app?vid=25ac4e30-226a-48db-92d7-6eacc4e6ec30"},"vehicle_type_id":"4","last_reported":1708466798,"current_range_meters":26400,"station_id":"ce4bgup2rcd13ifvqco0","pricing_plan_id":"cebpf4jnsgd1na2vs0mg"},{"bike_id":"d8e199a1-664b-4dd0-82eb-aea7c746ff0e","system_id":"levelo_inurba_marseille","lat":43.317557,"lon":5.390173,"is_reserved":false,"is_disabled":false,"rental_uris":{"android":"levelo://app?vid=d8e199a1-664b-4dd0-82eb-aea7c746ff0e","ios":"levelo://app?vid=d8e199a1-664b-4dd0-82eb-aea7c746ff0e"},"vehicle_type_id":"4","last_reported":1708466798,"current_range_meters":26800,"station_id":"ce4bhqp2rcd13ifvqhng","pricing_plan_id":"cebpf4jnsgd1na2vs0mg"},{"bike_id":"d6e2bc02-57e3-487e-896f-1135c0ee3fc2","system_id":"levelo_inurba_marseille","lat":43.31757,"lon":5.39024,"is_reserved":false,"is_disabled":false,"rental_uris":{"android":"levelo://app?vid=d6e2bc02-57e3-487e-896f-1135c0ee3fc2","ios":"levelo://app?vid=d6e2bc02-57e3-487e-896f-1135c0ee3fc2"},"vehicle_type_id":"4","last_reported":1708466798,"current_range_meters":0,"station_id":"ce4bhqp2rcd13ifvqhng","pricing_plan_id":"cebpf4jnsgd1na2vs0mg"},{"bike_id":"77c7b040-238a-45a4-8a53-f14279ac3d2f","system_id":"levelo_inurba_marseille","lat":43.298037,"lon":5.381066,"is_reserved":false,"is_disabled":false,"rental_uris":{"android":"levelo://app?vid=77c7b040-238a-45a4-8a53-f14279ac3d2f","ios":"levelo://app?vid=77c7b040-238a-45a4-8a53-f14279ac3d2f"},"vehicle_type_id":"4","last_reported":1708466798,"current_range_meters":26800,"station_id":"ce4bgip2rcd13ifvqbb0","pricing_plan_id":"cebpf4jnsgd1na2vs0mg"},{"bike_id":"0798a4e7-f779-47e2-a558-207b5c0752cf","system_id":"levelo_inurba_marseille","lat":43.304335,"lon":5.38885,"is_reserved":false,"is_disabled":false,"rental_uris":{"android":"levelo://app?vid=0798a4e7-f779-47e2-a558-207b5c0752cf","ios":"levelo://app?vid=0798a4e7-f779-47e2-a558-207b5c0752cf"},"vehicle_type_id":"4","last_reported":1708466798,"current_range_meters":8800,"station_id":"ce4bgk12rcd13ifvqbi0","pricing_plan_id":"cebpf4jnsgd1na2vs0mg"},{"bike_id":"b44a9de4-fef5-4169-ab16-37574915487b","system_id":"levelo_inurba_marseille","lat":43.304278,"lon":5.388868,"is_reserved":false,"is_disabled":false,"rental_uris":{"android":"levelo://app?vid=b44a9de4-fef5-4169-ab16-37574915487b","ios":"levelo://app?vid=b44a9de4-fef5-4169-ab16-37574915487b"},"vehicle_type_id":"4","last_reported":1708466798,"current_range_meters":28800,"station_id":"ce4bgk12rcd13ifvqbi0","pricing_plan_id":"cebpf4jnsgd1na2vs0mg"},{"bike_id":"a7e97fff-207a-46e0-8a48-127d4c069144","system_id":"levelo_inurba_marseille","lat":43.304278,"lon":5.388868,"is_reserved":false,"is_disabled":false,"rental_uris":{"android":"levelo://app?vid=a7e97fff-207a-46e0-8a48-127d4c069144","ios":"levelo://app?vid=a7e97fff-207a-46e0-8a48-127d4c069144"},"vehicle_type_id":"4","last_reported":1708466798,"current_range_meters":15200,"station_id":"ce4bgk12rcd13ifvqbi0","pricing_plan_id":"cebpf4jnsgd1na2vs0mg"},{"bike_id":"46c2d1a2-d143-422b-80ac-474dd53be570","system_id":"levelo_inurba_marseille","lat":43.297855,"lon":5.381338,"is_reserved":false,"is_disabled":false,"rental_uris":{"android":"levelo://app?vid=46c2d1a2-d143-422b-80ac-474dd53be570","ios":"levelo://app?vid=46c2d1a2-d143-422b-80ac-474dd53be570"},"vehicle_type_id":"4","last_reported":1708466798,"current_range_meters":30800,"station_id":"ce4bgip2rcd13ifvqbb0","pricing_plan_id":"cebpf4jnsgd1na2vs0mg"},{"bike_id":"cedf18e9-1f25-4139-9cf1-cd3aeba80406","system_id":"levelo_inurba_marseille","lat":43.299707,"lon":5.384859,"is_reserved":false,"is_disabled":false,"rental_uris":{"android":"levelo://app?vid=cedf18e9-1f25-4139-9cf1-cd3aeba80406","ios":"levelo://app?vid=cedf18e9-1f25-4139-9cf1-cd3aeba80406"},"vehicle_type_id":"4","last_reported":1708466798,"current_range_meters":8400,"station_id":"ce4bgj92rcd13ifvqbd0","pricing_plan_id":"cebpf4jnsgd1na2vs0mg"},{"bike_id":"3d57e456-9667-472b-9d6b-2c21d1ae635c","system_id":"levelo_inurba_marseille","lat":43.299707,"lon":5.384859,"is_reserved":false,"is_disabled":false,"rental_uris":{"android":"levelo://app?vid=3d57e456-9667-472b-9d6b-2c21d1ae635c","ios":"levelo://app?vid=3d57e456-9667-472b-9d6b-2c21d1ae635c"},"vehicle_type_id":"4","last_reported":1708466798,"current_range_meters":18000,"station_id":"ce4bgj92rcd13ifvqbd0","pricing_plan_id":"cebpf4jnsgd1na2vs0mg"},{"bike_id":"c9f4112d-e882-4730-9643-d1aa9283f9ec","system_id":"levelo_inurba_marseille","lat":43.299707,"lon":5.384859,"is_reserved":false,"is_disabled":false,"rental_uris":{"android":"levelo://app?vid=c9f4112d-e882-4730-9643-d1aa9283f9ec","ios":"levelo://app?vid=c9f4112d-e882-4730-9643-d1aa9283f9ec"},"vehicle_type_id":"4","last_reported":1708466798,"current_range_meters":25200,"station_id":"ce4bgj92rcd13ifvqbd0","pricing_plan_id":"cebpf4jnsgd1na2vs0mg"},{"bike_id":"7c5f0fe0-d73a-4aa5-94f8-1db82e995da3","system_id":"levelo_inurba_marseille","lat":43.309589,"lon":5.390258,"is_reserved":false,"is_disabled":false,"rental_uris":{"android":"levelo://app?vid=7c5f0fe0-d73a-4aa5-94f8-1db82e995da3","ios":"levelo://app?vid=7c5f0fe0-d73a-4aa5-94f8-1db82e995da3"},"vehicle_type_id":"4","last_reported":1708466798,"current_range_meters":18000,"station_id":"ce4bgup2rcd13ifvqco0","pricing_plan_id":"cebpf4jnsgd1na2vs0mg"},{"bike_id":"c58c9640-4d7e-481b-a021-4ca22c49ee93","system_id":"levelo_inurba_marseille","lat":43.299724,"lon":5.384848,"is_reserved":false,"is_disabled":false,"rental_uris":{"android":"levelo://app?vid=c58c9640-4d7e-481b-a021-4ca22c49ee93","ios":"levelo://app?vid=c58c9640-4d7e-481b-a021-4ca22c49ee93"},"vehicle_type_id":"4","last_reported":1708466798,"current_range_meters":22800,"station_id":"ce4bgj92rcd13ifvqbd0","pricing_plan_id":"cebpf4jnsgd1na2vs0mg"},{"bike_id":"ffa3a922-4c5d-4a9c-9e91-ae0166b49b2d","system_id":"levelo_inurba_marseille","lat":43.301207,"lon":5.387904,"is_reserved":false,"is_disabled":false,"rental_uris":{"android":"levelo://app?vid=ffa3a922-4c5d-4a9c-9e91-ae0166b49b2d","ios":"levelo://app?vid=ffa3a922-4c5d-4a9c-9e91-ae0166b49b2d"},"vehicle_type_id":"4","last_reported":1708466798,"current_range_meters":9600,"station_id":"","pricing_plan_id":"cebpf4jnsgd1na2vs0mg"},{"bike_id":"ac81b7ab-301c-41f2-a918-4bfbf1eff5ff","system_id":"levelo_inurba_marseille","lat":43.32367,"lon":5.388836,"is_reserved":false,"is_disabled":false,"rental_uris":{"android":"levelo://app?vid=ac81b7ab-301c-41f2-a918-4bfbf1eff5ff","ios":"levelo://app?vid=ac81b7ab-301c-41f2-a918-4bfbf1eff5ff"},"vehicle_type_id":"4","last_reported":1708466798,"current_range_meters":2000,"station_id":"ce4bhqp2rcd13ifvqhog","pricing_plan_id":"cebpf4jnsgd1na2vs0mg"},{"bike_id":"7671d002-68d4-4024-8203-235f9470c257","system_id":"levelo_inurba_marseille","lat":43.32367,"lon":5.388836,"is_reserved":false,"is_disabled":false,"rental_uris":{"android":"levelo://app?vid=7671d002-68d4-4024-8203-235f9470c257","ios":"levelo://app?vid=7671d002-68d4-4024-8203-235f9470c257"},"vehicle_type_id":"4","last_reported":1708466798,"current_range_meters":18400,"station_id":"ce4bhqp2rcd13ifvqhog","pricing_plan_id":"cebpf4jnsgd1na2vs0mg"},{"bike_id":"146e877e-91b7-4571-b34e-bca68e9e556b","system_id":"levelo_inurba_marseille","lat":43.32367,"lon":5.388836,"is_reserved":false,"is_disabled":false,"rental_uris":{"android":"levelo://app?vid=146e877e-91b7-4571-b34e-bca68e9e556b","ios":"levelo://app?vid=146e877e-91b7-4571-b34e-bca68e9e556b"},"vehicle_type_id":"4","last_reported":1708466798,"current_range_meters":24400,"station_id":"ce4bhqp2rcd13ifvqhog","pricing_plan_id":"cebpf4jnsgd1na2vs0mg"},{"bike_id":"43dc3f08-caf8-4bc2-94dc-bce4ff290aab","system_id":"levelo_inurba_marseille","lat":43.32367,"lon":5.388836,"is_reserved":false,"is_disabled":false,"rental_uris":{"android":"levelo://app?vid=43dc3f08-caf8-4bc2-94dc-bce4ff290aab","ios":"levelo://app?vid=43dc3f08-caf8-4bc2-94dc-bce4ff290aab"},"vehicle_type_id":"4","last_reported":1708466798,"current_range_meters":19600,"station_id":"ce4bhqp2rcd13ifvqhog","pricing_plan_id":"cebpf4jnsgd1na2vs0mg"},{"bike_id":"f6d70e1a-28a8-4fd6-82cd-ab78aeaef9da","system_id":"levelo_inurba_marseille","lat":43.32367,"lon":5.388836,"is_reserved":false,"is_disabled":false,"rental_uris":{"android":"levelo://app?vid=f6d70e1a-28a8-4fd6-82cd-ab78aeaef9da","ios":"levelo://app?vid=f6d70e1a-28a8-4fd6-82cd-ab78aeaef9da"},"vehicle_type_id":"4","last_reported":1708466798,"current_range_meters":26800,"station_id":"ce4bhqp2rcd13ifvqhog","pricing_plan_id":"cebpf4jnsgd1na2vs0mg"},{"bike_id":"c7084a34-df4c-476a-a442-9e632d7f09f6","system_id":"levelo_inurba_marseille","lat":43.32367,"lon":5.388836,"is_reserved":false,"is_disabled":false,"rental_uris":{"android":"levelo://app?vid=c7084a34-df4c-476a-a442-9e632d7f09f6","ios":"levelo://app?vid=c7084a34-df4c-476a-a442-9e632d7f09f6"},"vehicle_type_id":"4","last_reported":1708466798,"current_range_meters":5200,"station_id":"ce4bhqp2rcd13ifvqhog","pricing_plan_id":"cebpf4jnsgd1na2vs0mg"},{"bike_id":"0605d24d-f576-4560-a092-4bccfadc3a33","system_id":"levelo_inurba_marseille","lat":43.32367,"lon":5.388836,"is_reserved":false,"is_disabled":false,"rental_uris":{"android":"levelo://app?vid=0605d24d-f576-4560-a092-4bccfadc3a33","ios":"levelo://app?vid=0605d24d-f576-4560-a092-4bccfadc3a33"},"vehicle_type_id":"4","last_reported":1708466798,"current_range_meters":8400,"station_id":"ce4bhqp2rcd13ifvqhog","pricing_plan_id":"cebpf4jnsgd1na2vs0mg"},{"bike_id":"697fd039-9670-48ca-b027-bb66dfa54dbc","system_id":"levelo_inurba_marseille","lat":43.299028,"lon":5.381509,"is_reserved":false,"is_disabled":false,"rental_uris":{"android":"levelo://app?vid=697fd039-9670-48ca-b027-bb66dfa54dbc","ios":"levelo://app?vid=697fd039-9670-48ca-b027-bb66dfa54dbc"},"vehicle_type_id":"4","last_reported":1708466798,"current_range_meters":14400,"station_id":"ce4bgj12rcd13ifvqbc0","pricing_plan_id":"cebpf4jnsgd1na2vs0mg"},{"bike_id":"329a33c3-a828-4b37-8434-1ef61d227642","system_id":"levelo_inurba_marseille","lat":43.29602,"lon":5.381084,"is_reserved":false,"is_disabled":false,"rental_uris":{"android":"levelo://app?vid=329a33c3-a828-4b37-8434-1ef61d227642","ios":"levelo://app?vid=329a33c3-a828-4b37-8434-1ef61d227642"},"vehicle_type_id":"4","last_reported":1708466798,"current_range_meters":18800,"station_id":"ce4bgl12rcd13ifvqbo0","pricing_plan_id":"cebpf4jnsgd1na2vs0mg"},{"bike_id":"af3dabe6-b930-410a-b946-601474256b68","system_id":"levelo_inurba_marseille","lat":43.29266,"lon":5.36839,"is_reserved":false,"is_disabled":false,"rental_uris":{"android":"levelo://app?vid=af3dabe6-b930-410a-b946-601474256b68","ios":"levelo://app?vid=af3dabe6-b930-410a-b946-601474256b68"},"vehicle_type_id":"4","last_reported":1708466798,"current_range_meters":0,"station_id":"ce4bhbp2rcd13ifvqesg","pricing_plan_id":"cebpf4jnsgd1na2vs0mg"},{"bike_id":"f4da61fc-4d2f-4d8e-8e25-285d308dc089","system_id":"levelo_inurba_marseille","lat":43.305994,"lon":5.393687,"is_reserved":false,"is_disabled":false,"rental_uris":{"android":"levelo://app?vid=f4da61fc-4d2f-4d8e-8e25-285d308dc089","ios":"levelo://app?vid=f4da61fc-4d2f-4d8e-8e25-285d308dc089"},"vehicle_type_id":"4","last_reported":1708466798,"current_range_meters":31200,"station_id":"ce4bh0p2rcd13ifvqd80","pricing_plan_id":"cebpf4jnsgd1na2vs0mg"},{"bike_id":"3d1400e7-40bc-4b35-9131-78c7b78eb703","system_id":"levelo_inurba_marseille","lat":43.305994,"lon":5.393687,"is_reserved":false,"is_disabled":false,"rental_uris":{"android":"levelo://app?vid=3d1400e7-40bc-4b35-9131-78c7b78eb703","ios":"levelo://app?vid=3d1400e7-40bc-4b35-9131-78c7b78eb703"},"vehicle_type_id":"4","last_reported":1708466798,"current_range_meters":9600,"station_id":"ce4bh0p2rcd13ifvqd80","pricing_plan_id":"cebpf4jnsgd1na2vs0mg"},{"bike_id":"aaba5baa-ff71-4d63-a243-294d528101db","system_id":"levelo_inurba_marseille","lat":43.30595,"lon":5.39357,"is_reserved":false,"is_disabled":false,"rental_uris":{"android":"levelo://app?vid=aaba5baa-ff71-4d63-a243-294d528101db","ios":"levelo://app?vid=aaba5baa-ff71-4d63-a243-294d528101db"},"vehicle_type_id":"4","last_reported":1708466798,"current_range_meters":30000,"station_id":"ce4bh0p2rcd13ifvqd80","pricing_plan_id":"cebpf4jnsgd1na2vs0mg"},{"bike_id":"c8f01b04-34a7-413c-9a44-be2006edf24c","system_id":"levelo_inurba_marseille","lat":43.30589,"lon":5.39362,"is_reserved":false,"is_disabled":false,"rental_uris":{"android":"levelo://app?vid=c8f01b04-34a7-413c-9a44-be2006edf24c","ios":"levelo://app?vid=c8f01b04-34a7-413c-9a44-be2006edf24c"},"vehicle_type_id":"4","last_reported":1708466798,"current_range_meters":22800,"station_id":"","pricing_plan_id":"cebpf4jnsgd1na2vs0mg"},{"bike_id":"6d52c489-42b3-4ffd-9432-ce96ad7afd20","system_id":"levelo_inurba_marseille","lat":43.303123,"lon":5.39198,"is_reserved":false,"is_disabled":false,"rental_uris":{"android":"levelo://app?vid=6d52c489-42b3-4ffd-9432-ce96ad7afd20","ios":"levelo://app?vid=6d52c489-42b3-4ffd-9432-ce96ad7afd20"},"vehicle_type_id":"4","last_reported":1708466798,"current_range_meters":23600,"station_id":"ce4bgkh2rcd13ifvqbk0","pricing_plan_id":"cebpf4jnsgd1na2vs0mg"},{"bike_id":"2c0631dd-90bc-4e0f-88e7-2d4f809ebdf3","system_id":"levelo_inurba_marseille","lat":43.303019,"lon":5.392042,"is_reserved":false,"is_disabled":false,"rental_uris":{"android":"levelo://app?vid=2c0631dd-90bc-4e0f-88e7-2d4f809ebdf3","ios":"levelo://app?vid=2c0631dd-90bc-4e0f-88e7-2d4f809ebdf3"},"vehicle_type_id":"4","last_reported":1708466798,"current_range_meters":24000,"station_id":"ce4bgkh2rcd13ifvqbk0","pricing_plan_id":"cebpf4jnsgd1na2vs0mg"},{"bike_id":"f575c977-2f4d-4d2a-aaa4-9c77b8a7fbff","system_id":"levelo_inurba_marseille","lat":43.303041,"lon":5.392069,"is_reserved":false,"is_disabled":false,"rental_uris":{"android":"levelo://app?vid=f575c977-2f4d-4d2a-aaa4-9c77b8a7fbff","ios":"levelo://app?vid=f575c977-2f4d-4d2a-aaa4-9c77b8a7fbff"},"vehicle_type_id":"4","last_reported":1708466798,"current_range_meters":27600,"station_id":"ce4bgkh2rcd13ifvqbk0","pricing_plan_id":"cebpf4jnsgd1na2vs0mg"},{"bike_id":"047b874e-f744-47e5-b3b9-c68d83ef6ece","system_id":"levelo_inurba_marseille","lat":43.30297,"lon":5.3921,"is_reserved":false,"is_disabled":false,"rental_uris":{"android":"levelo://app?vid=047b874e-f744-47e5-b3b9-c68d83ef6ece","ios":"levelo://app?vid=047b874e-f744-47e5-b3b9-c68d83ef6ece"},"vehicle_type_id":"4","last_reported":1708466798,"current_range_meters":30800,"station_id":"ce4bgkh2rcd13ifvqbk0","pricing_plan_id":"cebpf4jnsgd1na2vs0mg"},{"bike_id":"f8a0510e-ebce-40da-ab54-25c235b2ff96","system_id":"levelo_inurba_marseille","lat":43.30304,"lon":5.39219,"is_reserved":false,"is_disabled":false,"rental_uris":{"android":"levelo://app?vid=f8a0510e-ebce-40da-ab54-25c235b2ff96","ios":"levelo://app?vid=f8a0510e-ebce-40da-ab54-25c235b2ff96"},"vehicle_type_id":"4","last_reported":1708466798,"current_range_meters":6000,"station_id":"ce4bgkh2rcd13ifvqbk0","pricing_plan_id":"cebpf4jnsgd1na2vs0mg"},{"bike_id":"3294824e-070a-46c6-8802-5f65c1ff606d","system_id":"levelo_inurba_marseille","lat":43.30299,"lon":5.39216,"is_reserved":false,"is_disabled":false,"rental_uris":{"android":"levelo://app?vid=3294824e-070a-46c6-8802-5f65c1ff606d","ios":"levelo://app?vid=3294824e-070a-46c6-8802-5f65c1ff606d"},"vehicle_type_id":"4","last_reported":1708466798,"current_range_meters":15200,"station_id":"ce4bgkh2rcd13ifvqbk0","pricing_plan_id":"cebpf4jnsgd1na2vs0mg"},{"bike_id":"fc79754c-c25a-4857-b7ab-0766db31cbc1","system_id":"levelo_inurba_marseille","lat":43.30297,"lon":5.39219,"is_reserved":false,"is_disabled":false,"rental_uris":{"android":"levelo://app?vid=fc79754c-c25a-4857-b7ab-0766db31cbc1","ios":"levelo://app?vid=fc79754c-c25a-4857-b7ab-0766db31cbc1"},"vehicle_type_id":"4","last_reported":1708466798,"current_range_meters":12000,"station_id":"ce4bgkh2rcd13ifvqbk0","pricing_plan_id":"cebpf4jnsgd1na2vs0mg"},{"bike_id":"ced04b86-ef37-48ff-8101-83188245b1bb","system_id":"levelo_inurba_marseille","lat":43.29368,"lon":5.378588,"is_reserved":false,"is_disabled":false,"rental_uris":{"android":"levelo://app?vid=ced04b86-ef37-48ff-8101-83188245b1bb","ios":"levelo://app?vid=ced04b86-ef37-48ff-8101-83188245b1bb"},"vehicle_type_id":"4","last_reported":1708466798,"current_range_meters":0,"station_id":"","pricing_plan_id":"cebpf4jnsgd1na2vs0mg"},{"bike_id":"5e774ffa-42b2-4f16-97d7-d54e88763a07","system_id":"levelo_inurba_marseille","lat":43.300852,"lon":5.390859,"is_reserved":false,"is_disabled":false,"rental_uris":{"android":"levelo://app?vid=5e774ffa-42b2-4f16-97d7-d54e88763a07","ios":"levelo://app?vid=5e774ffa-42b2-4f16-97d7-d54e88763a07"},"vehicle_type_id":"4","last_reported":1708466798,"current_range_meters":16800,"station_id":"ce4bh192rcd13ifvqdb0","pricing_plan_id":"cebpf4jnsgd1na2vs0mg"},{"bike_id":"90237fbb-8904-48a9-8842-c30f6c0bbf3c","system_id":"levelo_inurba_marseille","lat":43.300852,"lon":5.390859,"is_reserved":false,"is_disabled":false,"rental_uris":{"android":"levelo://app?vid=90237fbb-8904-48a9-8842-c30f6c0bbf3c","ios":"levelo://app?vid=90237fbb-8904-48a9-8842-c30f6c0bbf3c"},"vehicle_type_id":"4","last_reported":1708466798,"current_range_meters":13200,"station_id":"ce4bh192rcd13ifvqdb0","pricing_plan_id":"cebpf4jnsgd1na2vs0mg"},{"bike_id":"55bf56f1-6a68-42c3-a212-fb35b1fc1174","system_id":"levelo_inurba_marseille","lat":43.300852,"lon":5.390859,"is_reserved":false,"is_disabled":false,"rental_uris":{"android":"levelo://app?vid=55bf56f1-6a68-42c3-a212-fb35b1fc1174","ios":"levelo://app?vid=55bf56f1-6a68-42c3-a212-fb35b1fc1174"},"vehicle_type_id":"4","last_reported":1708466798,"current_range_meters":12000,"station_id":"ce4bh192rcd13ifvqdb0","pricing_plan_id":"cebpf4jnsgd1na2vs0mg"},{"bike_id":"b8146bd2-0c9b-4652-9cd9-1af91fc7c18a","system_id":"levelo_inurba_marseille","lat":43.300852,"lon":5.390859,"is_reserved":false,"is_disabled":false,"rental_uris":{"android":"levelo://app?vid=b8146bd2-0c9b-4652-9cd9-1af91fc7c18a","ios":"levelo://app?vid=b8146bd2-0c9b-4652-9cd9-1af91fc7c18a"},"vehicle_type_id":"4","last_reported":1708466798,"current_range_meters":15200,"station_id":"ce4bh192rcd13ifvqdb0","pricing_plan_id":"cebpf4jnsgd1na2vs0mg"},{"bike_id":"975f807f-6b98-499e-997f-08ada6793d8a","system_id":"levelo_inurba_marseille","lat":43.30085,"lon":5.390856,"is_reserved":false,"is_disabled":false,"rental_uris":{"android":"levelo://app?vid=975f807f-6b98-499e-997f-08ada6793d8a","ios":"levelo://app?vid=975f807f-6b98-499e-997f-08ada6793d8a"},"vehicle_type_id":"4","last_reported":1708466798,"current_range_meters":8000,"station_id":"ce4bh192rcd13ifvqdb0","pricing_plan_id":"cebpf4jnsgd1na2vs0mg"},{"bike_id":"f7e7eaa3-9bfb-4321-a7a4-1cdfcafd72d0","system_id":"levelo_inurba_marseille","lat":43.29214,"lon":5.36059,"is_reserved":false,"is_disabled":false,"rental_uris":{"android":"levelo://app?vid=f7e7eaa3-9bfb-4321-a7a4-1cdfcafd72d0","ios":"levelo://app?vid=f7e7eaa3-9bfb-4321-a7a4-1cdfcafd72d0"},"vehicle_type_id":"4","last_reported":1708466798,"current_range_meters":27200,"station_id":"ce4bhbh2rcd13ifvqeqg","pricing_plan_id":"cebpf4jnsgd1na2vs0mg"},{"bike_id":"234c8a7f-ebc6-4e13-9f12-fca28fd6640f","system_id":"levelo_inurba_marseille","lat":43.298764,"lon":5.388973,"is_reserved":false,"is_disabled":false,"rental_uris":{"android":"levelo://app?vid=234c8a7f-ebc6-4e13-9f12-fca28fd6640f","ios":"levelo://app?vid=234c8a7f-ebc6-4e13-9f12-fca28fd6640f"},"vehicle_type_id":"4","last_reported":1708466798,"current_range_meters":0,"station_id":"ce4bh392rcd13ifvqdl0","pricing_plan_id":"cebpf4jnsgd1na2vs0mg"},{"bike_id":"bcbe1367-f01f-4c17-80aa-078806d58347","system_id":"levelo_inurba_marseille","lat":43.291675,"lon":5.371583,"is_reserved":false,"is_disabled":false,"rental_uris":{"android":"levelo://app?vid=bcbe1367-f01f-4c17-80aa-078806d58347","ios":"levelo://app?vid=bcbe1367-f01f-4c17-80aa-078806d58347"},"vehicle_type_id":"4","last_reported":1708466798,"current_range_meters":18400,"station_id":"ce4bha92rcd13ifvqeh0","pricing_plan_id":"cebpf4jnsgd1na2vs0mg"},{"bike_id":"7169bb19-64e6-4a4b-bdfe-ef43be7d92f5","system_id":"levelo_inurba_marseille","lat":43.298764,"lon":5.388973,"is_reserved":false,"is_disabled":false,"rental_uris":{"android":"levelo://app?vid=7169bb19-64e6-4a4b-bdfe-ef43be7d92f5","ios":"levelo://app?vid=7169bb19-64e6-4a4b-bdfe-ef43be7d92f5"},"vehicle_type_id":"4","last_reported":1708466798,"current_range_meters":21600,"station_id":"ce4bh392rcd13ifvqdl0","pricing_plan_id":"cebpf4jnsgd1na2vs0mg"},{"bike_id":"90bd4596-b9a2-4c42-8ec7-f0d4444269b9","system_id":"levelo_inurba_marseille","lat":43.29169,"lon":5.37137,"is_reserved":false,"is_disabled":false,"rental_uris":{"android":"levelo://app?vid=90bd4596-b9a2-4c42-8ec7-f0d4444269b9","ios":"levelo://app?vid=90bd4596-b9a2-4c42-8ec7-f0d4444269b9"},"vehicle_type_id":"4","last_reported":1708466798,"current_range_meters":0,"station_id":"ce4bha92rcd13ifvqeh0","pricing_plan_id":"cebpf4jnsgd1na2vs0mg"},{"bike_id":"d418b51f-70ce-4caa-8b62-93ce995be6d2","system_id":"levelo_inurba_marseille","lat":43.298764,"lon":5.388973,"is_reserved":false,"is_disabled":false,"rental_uris":{"android":"levelo://app?vid=d418b51f-70ce-4caa-8b62-93ce995be6d2","ios":"levelo://app?vid=d418b51f-70ce-4caa-8b62-93ce995be6d2"},"vehicle_type_id":"4","last_reported":1708466798,"current_range_meters":11600,"station_id":"ce4bh392rcd13ifvqdl0","pricing_plan_id":"cebpf4jnsgd1na2vs0mg"},{"bike_id":"c55bb9fa-251d-4027-8a30-91628bdd200e","system_id":"levelo_inurba_marseille","lat":43.298764,"lon":5.388973,"is_reserved":false,"is_disabled":false,"rental_uris":{"android":"levelo://app?vid=c55bb9fa-251d-4027-8a30-91628bdd200e","ios":"levelo://app?vid=c55bb9fa-251d-4027-8a30-91628bdd200e"},"vehicle_type_id":"4","last_reported":1708466798,"current_range_meters":12400,"station_id":"ce4bh392rcd13ifvqdl0","pricing_plan_id":"cebpf4jnsgd1na2vs0mg"},{"bike_id":"855ac862-eadc-4106-994e-0826df01c293","system_id":"levelo_inurba_marseille","lat":43.298764,"lon":5.388973,"is_reserved":false,"is_disabled":false,"rental_uris":{"android":"levelo://app?vid=855ac862-eadc-4106-994e-0826df01c293","ios":"levelo://app?vid=855ac862-eadc-4106-994e-0826df01c293"},"vehicle_type_id":"4","last_reported":1708466798,"current_range_meters":22400,"station_id":"ce4bh392rcd13ifvqdl0","pricing_plan_id":"cebpf4jnsgd1na2vs0mg"},{"bike_id":"5a24af77-a6cf-40bf-9778-8e0f174fc684","system_id":"levelo_inurba_marseille","lat":43.298764,"lon":5.388973,"is_reserved":false,"is_disabled":false,"rental_uris":{"android":"levelo://app?vid=5a24af77-a6cf-40bf-9778-8e0f174fc684","ios":"levelo://app?vid=5a24af77-a6cf-40bf-9778-8e0f174fc684"},"vehicle_type_id":"4","last_reported":1708466798,"current_range_meters":27200,"station_id":"ce4bh392rcd13ifvqdl0","pricing_plan_id":"cebpf4jnsgd1na2vs0mg"},{"bike_id":"6b87218b-4369-4ab0-aa02-e034664af97b","system_id":"levelo_inurba_marseille","lat":43.298764,"lon":5.388973,"is_reserved":false,"is_disabled":false,"rental_uris":{"android":"levelo://app?vid=6b87218b-4369-4ab0-aa02-e034664af97b","ios":"levelo://app?vid=6b87218b-4369-4ab0-aa02-e034664af97b"},"vehicle_type_id":"4","last_reported":1708466798,"current_range_meters":28800,"station_id":"ce4bh392rcd13ifvqdl0","pricing_plan_id":"cebpf4jnsgd1na2vs0mg"},{"bike_id":"22c3d2c2-247c-46b8-9437-c6704a8ad207","system_id":"levelo_inurba_marseille","lat":43.309047,"lon":5.396551,"is_reserved":false,"is_disabled":false,"rental_uris":{"android":"levelo://app?vid=22c3d2c2-247c-46b8-9437-c6704a8ad207","ios":"levelo://app?vid=22c3d2c2-247c-46b8-9437-c6704a8ad207"},"vehicle_type_id":"4","last_reported":1708466798,"current_range_meters":5600,"station_id":"ce4bh012rcd13ifvqcv0","pricing_plan_id":"cebpf4jnsgd1na2vs0mg"},{"bike_id":"44ee7ac5-6398-4e31-bfea-488afc00b53f","system_id":"levelo_inurba_marseille","lat":43.309047,"lon":5.396551,"is_reserved":false,"is_disabled":false,"rental_uris":{"android":"levelo://app?vid=44ee7ac5-6398-4e31-bfea-488afc00b53f","ios":"levelo://app?vid=44ee7ac5-6398-4e31-bfea-488afc00b53f"},"vehicle_type_id":"4","last_reported":1708466798,"current_range_meters":27600,"station_id":"ce4bh012rcd13ifvqcv0","pricing_plan_id":"cebpf4jnsgd1na2vs0mg"},{"bike_id":"a00d3993-5cc5-42fe-a346-7fb57b305871","system_id":"levelo_inurba_marseille","lat":43.309047,"lon":5.396551,"is_reserved":false,"is_disabled":false,"rental_uris":{"android":"levelo://app?vid=a00d3993-5cc5-42fe-a346-7fb57b305871","ios":"levelo://app?vid=a00d3993-5cc5-42fe-a346-7fb57b305871"},"vehicle_type_id":"4","last_reported":1708466798,"current_range_meters":17600,"station_id":"ce4bh012rcd13ifvqcv0","pricing_plan_id":"cebpf4jnsgd1na2vs0mg"},{"bike_id":"34a78d8f-16a7-48c2-9f83-7a325f0f9681","system_id":"levelo_inurba_marseille","lat":43.313291,"lon":5.396838,"is_reserved":false,"is_disabled":false,"rental_uris":{"android":"levelo://app?vid=34a78d8f-16a7-48c2-9f83-7a325f0f9681","ios":"levelo://app?vid=34a78d8f-16a7-48c2-9f83-7a325f0f9681"},"vehicle_type_id":"4","last_reported":1708466798,"current_range_meters":24800,"station_id":"ce4bgvp2rcd13ifvqcu0","pricing_plan_id":"cebpf4jnsgd1na2vs0mg"},{"bike_id":"fdb67376-d227-4e73-b425-8e591c97d637","system_id":"levelo_inurba_marseille","lat":43.309038,"lon":5.396546,"is_reserved":false,"is_disabled":false,"rental_uris":{"android":"levelo://app?vid=fdb67376-d227-4e73-b425-8e591c97d637","ios":"levelo://app?vid=fdb67376-d227-4e73-b425-8e591c97d637"},"vehicle_type_id":"4","last_reported":1708466798,"current_range_meters":800,"station_id":"ce4bh012rcd13ifvqcv0","pricing_plan_id":"cebpf4jnsgd1na2vs0mg"},{"bike_id":"46664148-94b4-4d11-900b-75fe01328a6e","system_id":"levelo_inurba_marseille","lat":43.309038,"lon":5.396546,"is_reserved":false,"is_disabled":false,"rental_uris":{"android":"levelo://app?vid=46664148-94b4-4d11-900b-75fe01328a6e","ios":"levelo://app?vid=46664148-94b4-4d11-900b-75fe01328a6e"},"vehicle_type_id":"4","last_reported":1708466798,"current_range_meters":4400,"station_id":"ce4bh012rcd13ifvqcv0","pricing_plan_id":"cebpf4jnsgd1na2vs0mg"},{"bike_id":"7c0ab7d6-0ab5-481b-8b6f-31edf10e5503","system_id":"levelo_inurba_marseille","lat":43.313291,"lon":5.396838,"is_reserved":false,"is_disabled":false,"rental_uris":{"android":"levelo://app?vid=7c0ab7d6-0ab5-481b-8b6f-31edf10e5503","ios":"levelo://app?vid=7c0ab7d6-0ab5-481b-8b6f-31edf10e5503"},"vehicle_type_id":"4","last_reported":1708466798,"current_range_meters":20400,"station_id":"ce4bgvp2rcd13ifvqcu0","pricing_plan_id":"cebpf4jnsgd1na2vs0mg"},{"bike_id":"46b1b3d2-2e54-49fa-ae50-f9bdeca1a26d","system_id":"levelo_inurba_marseille","lat":43.291994,"lon":5.357886,"is_reserved":false,"is_disabled":false,"rental_uris":{"android":"levelo://app?vid=46b1b3d2-2e54-49fa-ae50-f9bdeca1a26d","ios":"levelo://app?vid=46b1b3d2-2e54-49fa-ae50-f9bdeca1a26d"},"vehicle_type_id":"4","last_reported":1708466798,"current_range_meters":31200,"station_id":"ce4bhb12rcd13ifvqel0","pricing_plan_id":"cebpf4jnsgd1na2vs0mg"},{"bike_id":"fc27d094-8ceb-4415-be00-0af2219c5e01","system_id":"levelo_inurba_marseille","lat":43.29191,"lon":5.35806,"is_reserved":false,"is_disabled":false,"rental_uris":{"android":"levelo://app?vid=fc27d094-8ceb-4415-be00-0af2219c5e01","ios":"levelo://app?vid=fc27d094-8ceb-4415-be00-0af2219c5e01"},"vehicle_type_id":"4","last_reported":1708466798,"current_range_meters":2400,"station_id":"ce4bhb12rcd13ifvqel0","pricing_plan_id":"cebpf4jnsgd1na2vs0mg"},{"bike_id":"2b106bd7-e21c-45a9-813b-570f2f32c230","system_id":"levelo_inurba_marseille","lat":43.313291,"lon":5.396838,"is_reserved":false,"is_disabled":false,"rental_uris":{"android":"levelo://app?vid=2b106bd7-e21c-45a9-813b-570f2f32c230","ios":"levelo://app?vid=2b106bd7-e21c-45a9-813b-570f2f32c230"},"vehicle_type_id":"4","last_reported":1708466798,"current_range_meters":15600,"station_id":"ce4bgvp2rcd13ifvqcu0","pricing_plan_id":"cebpf4jnsgd1na2vs0mg"},{"bike_id":"eff3f471-65bb-48d3-9394-d54da10d6aea","system_id":"levelo_inurba_marseille","lat":43.309038,"lon":5.396546,"is_reserved":false,"is_disabled":false,"rental_uris":{"android":"levelo://app?vid=eff3f471-65bb-48d3-9394-d54da10d6aea","ios":"levelo://app?vid=eff3f471-65bb-48d3-9394-d54da10d6aea"},"vehicle_type_id":"4","last_reported":1708466798,"current_range_meters":28000,"station_id":"ce4bh012rcd13ifvqcv0","pricing_plan_id":"cebpf4jnsgd1na2vs0mg"},{"bike_id":"180a3929-6535-4296-942f-19d37f04a27b","system_id":"levelo_inurba_marseille","lat":43.309047,"lon":5.396551,"is_reserved":false,"is_disabled":false,"rental_uris":{"android":"levelo://app?vid=180a3929-6535-4296-942f-19d37f04a27b","ios":"levelo://app?vid=180a3929-6535-4296-942f-19d37f04a27b"},"vehicle_type_id":"4","last_reported":1708466798,"current_range_meters":6000,"station_id":"ce4bh012rcd13ifvqcv0","pricing_plan_id":"cebpf4jnsgd1na2vs0mg"},{"bike_id":"a18a8e53-a21d-4f1c-b971-a459b3adfcde","system_id":"levelo_inurba_marseille","lat":43.313291,"lon":5.396838,"is_reserved":false,"is_disabled":false,"rental_uris":{"android":"levelo://app?vid=a18a8e53-a21d-4f1c-b971-a459b3adfcde","ios":"levelo://app?vid=a18a8e53-a21d-4f1c-b971-a459b3adfcde"},"vehicle_type_id":"4","last_reported":1708466798,"current_range_meters":7600,"station_id":"ce4bgvp2rcd13ifvqcu0","pricing_plan_id":"cebpf4jnsgd1na2vs0mg"},{"bike_id":"1c8e05e1-50a2-495d-b73e-83b1c65be716","system_id":"levelo_inurba_marseille","lat":43.313291,"lon":5.396838,"is_reserved":false,"is_disabled":false,"rental_uris":{"android":"levelo://app?vid=1c8e05e1-50a2-495d-b73e-83b1c65be716","ios":"levelo://app?vid=1c8e05e1-50a2-495d-b73e-83b1c65be716"},"vehicle_type_id":"4","last_reported":1708466798,"current_range_meters":6800,"station_id":"ce4bgvp2rcd13ifvqcu0","pricing_plan_id":"cebpf4jnsgd1na2vs0mg"},{"bike_id":"7a0398e1-3895-40a6-9cc4-11ace95086c3","system_id":"levelo_inurba_marseille","lat":43.313291,"lon":5.396838,"is_reserved":false,"is_disabled":false,"rental_uris":{"android":"levelo://app?vid=7a0398e1-3895-40a6-9cc4-11ace95086c3","ios":"levelo://app?vid=7a0398e1-3895-40a6-9cc4-11ace95086c3"},"vehicle_type_id":"4","last_reported":1708466798,"current_range_meters":21200,"station_id":"ce4bgvp2rcd13ifvqcu0","pricing_plan_id":"cebpf4jnsgd1na2vs0mg"},{"bike_id":"5ea256f7-79fa-451a-8ab5-05cb3615da89","system_id":"levelo_inurba_marseille","lat":43.313291,"lon":5.396838,"is_reserved":false,"is_disabled":false,"rental_uris":{"android":"levelo://app?vid=5ea256f7-79fa-451a-8ab5-05cb3615da89","ios":"levelo://app?vid=5ea256f7-79fa-451a-8ab5-05cb3615da89"},"vehicle_type_id":"4","last_reported":1708466798,"current_range_meters":6800,"station_id":"ce4bgvp2rcd13ifvqcu0","pricing_plan_id":"cebpf4jnsgd1na2vs0mg"},{"bike_id":"b254b897-3e14-4b27-8ae8-379a3ddebe36","system_id":"levelo_inurba_marseille","lat":43.313291,"lon":5.396838,"is_reserved":false,"is_disabled":false,"rental_uris":{"android":"levelo://app?vid=b254b897-3e14-4b27-8ae8-379a3ddebe36","ios":"levelo://app?vid=b254b897-3e14-4b27-8ae8-379a3ddebe36"},"vehicle_type_id":"4","last_reported":1708466798,"current_range_meters":6400,"station_id":"ce4bgvp2rcd13ifvqcu0","pricing_plan_id":"cebpf4jnsgd1na2vs0mg"},{"bike_id":"4b30381d-e9a0-48b3-8761-698b06657900","system_id":"levelo_inurba_marseille","lat":43.313291,"lon":5.396838,"is_reserved":false,"is_disabled":false,"rental_uris":{"android":"levelo://app?vid=4b30381d-e9a0-48b3-8761-698b06657900","ios":"levelo://app?vid=4b30381d-e9a0-48b3-8761-698b06657900"},"vehicle_type_id":"4","last_reported":1708466798,"current_range_meters":18000,"station_id":"ce4bgvp2rcd13ifvqcu0","pricing_plan_id":"cebpf4jnsgd1na2vs0mg"},{"bike_id":"4a311b97-3e9e-404f-bdaf-0c60464fd60a","system_id":"levelo_inurba_marseille","lat":43.309038,"lon":5.396546,"is_reserved":false,"is_disabled":false,"rental_uris":{"android":"levelo://app?vid=4a311b97-3e9e-404f-bdaf-0c60464fd60a","ios":"levelo://app?vid=4a311b97-3e9e-404f-bdaf-0c60464fd60a"},"vehicle_type_id":"4","last_reported":1708466798,"current_range_meters":12400,"station_id":"ce4bh012rcd13ifvqcv0","pricing_plan_id":"cebpf4jnsgd1na2vs0mg"},{"bike_id":"c7675864-b47b-4d37-a757-396a5e51116a","system_id":"levelo_inurba_marseille","lat":43.313291,"lon":5.396838,"is_reserved":false,"is_disabled":false,"rental_uris":{"android":"levelo://app?vid=c7675864-b47b-4d37-a757-396a5e51116a","ios":"levelo://app?vid=c7675864-b47b-4d37-a757-396a5e51116a"},"vehicle_type_id":"4","last_reported":1708466798,"current_range_meters":30800,"station_id":"ce4bgvp2rcd13ifvqcu0","pricing_plan_id":"cebpf4jnsgd1na2vs0mg"},{"bike_id":"f4a18168-32b2-43db-b7cd-83c80028a94e","system_id":"levelo_inurba_marseille","lat":43.309047,"lon":5.396551,"is_reserved":false,"is_disabled":false,"rental_uris":{"android":"levelo://app?vid=f4a18168-32b2-43db-b7cd-83c80028a94e","ios":"levelo://app?vid=f4a18168-32b2-43db-b7cd-83c80028a94e"},"vehicle_type_id":"4","last_reported":1708466798,"current_range_meters":24000,"station_id":"ce4bh012rcd13ifvqcv0","pricing_plan_id":"cebpf4jnsgd1na2vs0mg"},{"bike_id":"df156dcd-e0f4-4ab8-808b-7ab8725b2fb5","system_id":"levelo_inurba_marseille","lat":43.309047,"lon":5.396551,"is_reserved":false,"is_disabled":false,"rental_uris":{"android":"levelo://app?vid=df156dcd-e0f4-4ab8-808b-7ab8725b2fb5","ios":"levelo://app?vid=df156dcd-e0f4-4ab8-808b-7ab8725b2fb5"},"vehicle_type_id":"4","last_reported":1708466798,"current_range_meters":0,"station_id":"ce4bh012rcd13ifvqcv0","pricing_plan_id":"cebpf4jnsgd1na2vs0mg"},{"bike_id":"522d23de-7991-4b92-9e72-b611c0d9b2fa","system_id":"levelo_inurba_marseille","lat":43.309047,"lon":5.396551,"is_reserved":false,"is_disabled":false,"rental_uris":{"android":"levelo://app?vid=522d23de-7991-4b92-9e72-b611c0d9b2fa","ios":"levelo://app?vid=522d23de-7991-4b92-9e72-b611c0d9b2fa"},"vehicle_type_id":"4","last_reported":1708466798,"current_range_meters":21600,"station_id":"ce4bh012rcd13ifvqcv0","pricing_plan_id":"cebpf4jnsgd1na2vs0mg"},{"bike_id":"5f43bd54-58ab-4cb3-acb2-9eee9aaa0511","system_id":"levelo_inurba_marseille","lat":43.302236,"lon":5.394607,"is_reserved":false,"is_disabled":false,"rental_uris":{"android":"levelo://app?vid=5f43bd54-58ab-4cb3-acb2-9eee9aaa0511","ios":"levelo://app?vid=5f43bd54-58ab-4cb3-acb2-9eee9aaa0511"},"vehicle_type_id":"4","last_reported":1708466798,"current_range_meters":800,"station_id":"","pricing_plan_id":"cebpf4jnsgd1na2vs0mg"},{"bike_id":"20bc340f-40b8-42ba-ac8d-08dd3d7db221","system_id":"levelo_inurba_marseille","lat":43.302008,"lon":5.394694,"is_reserved":false,"is_disabled":false,"rental_uris":{"android":"levelo://app?vid=20bc340f-40b8-42ba-ac8d-08dd3d7db221","ios":"levelo://app?vid=20bc340f-40b8-42ba-ac8d-08dd3d7db221"},"vehicle_type_id":"4","last_reported":1708466798,"current_range_meters":29200,"station_id":"ce4bh0p2rcd13ifvqd70","pricing_plan_id":"cebpf4jnsgd1na2vs0mg"},{"bike_id":"7b82f3d4-4b3c-4c54-9784-2ffc4347110c","system_id":"levelo_inurba_marseille","lat":43.290624,"lon":5.359245,"is_reserved":false,"is_disabled":false,"rental_uris":{"android":"levelo://app?vid=7b82f3d4-4b3c-4c54-9784-2ffc4347110c","ios":"levelo://app?vid=7b82f3d4-4b3c-4c54-9784-2ffc4347110c"},"vehicle_type_id":"4","last_reported":1708466798,"current_range_meters":22800,"station_id":"ce4bha92rcd13ifvqeg0","pricing_plan_id":"cebpf4jnsgd1na2vs0mg"},{"bike_id":"5e270fb6-b7b3-449f-bb8e-5459bf519bb4","system_id":"levelo_inurba_marseille","lat":43.290624,"lon":5.359245,"is_reserved":false,"is_disabled":false,"rental_uris":{"android":"levelo://app?vid=5e270fb6-b7b3-449f-bb8e-5459bf519bb4","ios":"levelo://app?vid=5e270fb6-b7b3-449f-bb8e-5459bf519bb4"},"vehicle_type_id":"4","last_reported":1708466798,"current_range_meters":18800,"station_id":"ce4bha92rcd13ifvqeg0","pricing_plan_id":"cebpf4jnsgd1na2vs0mg"},{"bike_id":"0959b3c1-686d-4c14-a9e7-d1bb7eda1d4a","system_id":"levelo_inurba_marseille","lat":43.290631,"lon":5.359244,"is_reserved":false,"is_disabled":false,"rental_uris":{"android":"levelo://app?vid=0959b3c1-686d-4c14-a9e7-d1bb7eda1d4a","ios":"levelo://app?vid=0959b3c1-686d-4c14-a9e7-d1bb7eda1d4a"},"vehicle_type_id":"4","last_reported":1708466798,"current_range_meters":16800,"station_id":"ce4bha92rcd13ifvqeg0","pricing_plan_id":"cebpf4jnsgd1na2vs0mg"},{"bike_id":"ca8d8174-35c3-4d23-851e-0c5cd6cde000","system_id":"levelo_inurba_marseille","lat":43.29222,"lon":5.38122,"is_reserved":false,"is_disabled":false,"rental_uris":{"android":"levelo://app?vid=ca8d8174-35c3-4d23-851e-0c5cd6cde000","ios":"levelo://app?vid=ca8d8174-35c3-4d23-851e-0c5cd6cde000"},"vehicle_type_id":"4","last_reported":1708466798,"current_range_meters":30400,"station_id":"","pricing_plan_id":"cebpf4jnsgd1na2vs0mg"},{"bike_id":"abff4a3f-811f-4675-8d9c-d5fe6e6e18a3","system_id":"levelo_inurba_marseille","lat":43.290624,"lon":5.359245,"is_reserved":false,"is_disabled":false,"rental_uris":{"android":"levelo://app?vid=abff4a3f-811f-4675-8d9c-d5fe6e6e18a3","ios":"levelo://app?vid=abff4a3f-811f-4675-8d9c-d5fe6e6e18a3"},"vehicle_type_id":"4","last_reported":1708466798,"current_range_meters":0,"station_id":"ce4bha92rcd13ifvqeg0","pricing_plan_id":"cebpf4jnsgd1na2vs0mg"},{"bike_id":"8bedf8cb-27f1-4ee0-aa78-b2a9ad98f17e","system_id":"levelo_inurba_marseille","lat":43.290631,"lon":5.359244,"is_reserved":false,"is_disabled":false,"rental_uris":{"android":"levelo://app?vid=8bedf8cb-27f1-4ee0-aa78-b2a9ad98f17e","ios":"levelo://app?vid=8bedf8cb-27f1-4ee0-aa78-b2a9ad98f17e"},"vehicle_type_id":"4","last_reported":1708466798,"current_range_meters":19600,"station_id":"ce4bha92rcd13ifvqeg0","pricing_plan_id":"cebpf4jnsgd1na2vs0mg"},{"bike_id":"322c11dd-9af1-491e-ad1e-ce201759aefb","system_id":"levelo_inurba_marseille","lat":43.290327,"lon":5.375711,"is_reserved":false,"is_disabled":false,"rental_uris":{"android":"levelo://app?vid=322c11dd-9af1-491e-ad1e-ce201759aefb","ios":"levelo://app?vid=322c11dd-9af1-491e-ad1e-ce201759aefb"},"vehicle_type_id":"4","last_reported":1708466798,"current_range_meters":5200,"station_id":"ce4bh692rcd13ifvqe90","pricing_plan_id":"cebpf4jnsgd1na2vs0mg"},{"bike_id":"913426ba-bdd6-4895-84f6-1ef3c629bea5","system_id":"levelo_inurba_marseille","lat":43.290293,"lon":5.375487,"is_reserved":false,"is_disabled":false,"rental_uris":{"android":"levelo://app?vid=913426ba-bdd6-4895-84f6-1ef3c629bea5","ios":"levelo://app?vid=913426ba-bdd6-4895-84f6-1ef3c629bea5"},"vehicle_type_id":"4","last_reported":1708466798,"current_range_meters":31200,"station_id":"ce4bh692rcd13ifvqe90","pricing_plan_id":"cebpf4jnsgd1na2vs0mg"},{"bike_id":"4b442917-8bdb-4e12-8092-641e177c619a","system_id":"levelo_inurba_marseille","lat":43.29028,"lon":5.375515,"is_reserved":false,"is_disabled":false,"rental_uris":{"android":"levelo://app?vid=4b442917-8bdb-4e12-8092-641e177c619a","ios":"levelo://app?vid=4b442917-8bdb-4e12-8092-641e177c619a"},"vehicle_type_id":"4","last_reported":1708466798,"current_range_meters":0,"station_id":"ce4bh692rcd13ifvqe90","pricing_plan_id":"cebpf4jnsgd1na2vs0mg"},{"bike_id":"48688055-5259-4ddb-acda-539fdbb1bfef","system_id":"levelo_inurba_marseille","lat":43.29416,"lon":5.3863,"is_reserved":false,"is_disabled":false,"rental_uris":{"android":"levelo://app?vid=48688055-5259-4ddb-acda-539fdbb1bfef","ios":"levelo://app?vid=48688055-5259-4ddb-acda-539fdbb1bfef"},"vehicle_type_id":"4","last_reported":1708466798,"current_range_meters":28000,"station_id":"ce4bh2h2rcd13ifvqdh0","pricing_plan_id":"cebpf4jnsgd1na2vs0mg"},{"bike_id":"fb0da1f8-9140-4c66-b83a-4f6a9eeb07a0","system_id":"levelo_inurba_marseille","lat":43.29021,"lon":5.37548,"is_reserved":false,"is_disabled":false,"rental_uris":{"android":"levelo://app?vid=fb0da1f8-9140-4c66-b83a-4f6a9eeb07a0","ios":"levelo://app?vid=fb0da1f8-9140-4c66-b83a-4f6a9eeb07a0"},"vehicle_type_id":"4","last_reported":1708466798,"current_range_meters":29200,"station_id":"ce4bh692rcd13ifvqe90","pricing_plan_id":"cebpf4jnsgd1na2vs0mg"},{"bike_id":"4b699efa-efd0-4163-b9f4-43dfdc983a33","system_id":"levelo_inurba_marseille","lat":43.289468,"lon":5.363719,"is_reserved":false,"is_disabled":false,"rental_uris":{"android":"levelo://app?vid=4b699efa-efd0-4163-b9f4-43dfdc983a33","ios":"levelo://app?vid=4b699efa-efd0-4163-b9f4-43dfdc983a33"},"vehicle_type_id":"4","last_reported":1708466798,"current_range_meters":15600,"station_id":"ce4bhc92rcd13ifvqetg","pricing_plan_id":"cebpf4jnsgd1na2vs0mg"},{"bike_id":"58d0a51b-13d4-474f-902c-db9e665744e0","system_id":"levelo_inurba_marseille","lat":43.294153,"lon":5.386305,"is_reserved":false,"is_disabled":false,"rental_uris":{"android":"levelo://app?vid=58d0a51b-13d4-474f-902c-db9e665744e0","ios":"levelo://app?vid=58d0a51b-13d4-474f-902c-db9e665744e0"},"vehicle_type_id":"4","last_reported":1708466798,"current_range_meters":29600,"station_id":"ce4bh2h2rcd13ifvqdh0","pricing_plan_id":"cebpf4jnsgd1na2vs0mg"},{"bike_id":"5bac689c-7008-49e8-b192-a9a103d5f004","system_id":"levelo_inurba_marseille","lat":43.29009,"lon":5.3755,"is_reserved":false,"is_disabled":false,"rental_uris":{"android":"levelo://app?vid=5bac689c-7008-49e8-b192-a9a103d5f004","ios":"levelo://app?vid=5bac689c-7008-49e8-b192-a9a103d5f004"},"vehicle_type_id":"4","last_reported":1708466798,"current_range_meters":31200,"station_id":"ce4bh692rcd13ifvqe90","pricing_plan_id":"cebpf4jnsgd1na2vs0mg"},{"bike_id":"f7ef945e-d793-4e1e-8b1e-636d351e2689","system_id":"levelo_inurba_marseille","lat":43.30642,"lon":5.401031,"is_reserved":false,"is_disabled":false,"rental_uris":{"android":"levelo://app?vid=f7ef945e-d793-4e1e-8b1e-636d351e2689","ios":"levelo://app?vid=f7ef945e-d793-4e1e-8b1e-636d351e2689"},"vehicle_type_id":"4","last_reported":1708466798,"current_range_meters":0,"station_id":"ce4bh112rcd13ifvqda0","pricing_plan_id":"cebpf4jnsgd1na2vs0mg"},{"bike_id":"b815b539-8fd0-41e0-926d-d2d6fb392027","system_id":"levelo_inurba_marseille","lat":43.292612,"lon":5.384457,"is_reserved":false,"is_disabled":false,"rental_uris":{"android":"levelo://app?vid=b815b539-8fd0-41e0-926d-d2d6fb392027","ios":"levelo://app?vid=b815b539-8fd0-41e0-926d-d2d6fb392027"},"vehicle_type_id":"4","last_reported":1708466798,"current_range_meters":30800,"station_id":"ce4bh692rcd13ifvqea0","pricing_plan_id":"cebpf4jnsgd1na2vs0mg"},{"bike_id":"64c8a977-e817-4529-bbbf-d54830de4873","system_id":"levelo_inurba_marseille","lat":43.29103,"lon":5.38085,"is_reserved":false,"is_disabled":false,"rental_uris":{"android":"levelo://app?vid=64c8a977-e817-4529-bbbf-d54830de4873","ios":"levelo://app?vid=64c8a977-e817-4529-bbbf-d54830de4873"},"vehicle_type_id":"4","last_reported":1708466798,"current_range_meters":11600,"station_id":"","pricing_plan_id":"cebpf4jnsgd1na2vs0mg"},{"bike_id":"ef8d6413-1ea5-45e4-a1b2-ca0b043d95b3","system_id":"levelo_inurba_marseille","lat":43.304873,"lon":5.39806,"is_reserved":false,"is_disabled":false,"rental_uris":{"android":"levelo://app?vid=ef8d6413-1ea5-45e4-a1b2-ca0b043d95b3","ios":"levelo://app?vid=ef8d6413-1ea5-45e4-a1b2-ca0b043d95b3"},"vehicle_type_id":"4","last_reported":1708466798,"current_range_meters":18000,"station_id":"","pricing_plan_id":"cebpf4jnsgd1na2vs0mg"},{"bike_id":"1fe5f5e8-1572-415a-8c5e-1f9a720e3db9","system_id":"levelo_inurba_marseille","lat":43.290104,"lon":5.356111,"is_reserved":false,"is_disabled":false,"rental_uris":{"android":"levelo://app?vid=1fe5f5e8-1572-415a-8c5e-1f9a720e3db9","ios":"levelo://app?vid=1fe5f5e8-1572-415a-8c5e-1f9a720e3db9"},"vehicle_type_id":"4","last_reported":1708466798,"current_range_meters":28000,"station_id":"ce4bhb92rcd13ifvqen0","pricing_plan_id":"cebpf4jnsgd1na2vs0mg"},{"bike_id":"f94afa02-f63c-4d7f-bc36-e6b448475032","system_id":"levelo_inurba_marseille","lat":43.290104,"lon":5.356111,"is_reserved":false,"is_disabled":false,"rental_uris":{"android":"levelo://app?vid=f94afa02-f63c-4d7f-bc36-e6b448475032","ios":"levelo://app?vid=f94afa02-f63c-4d7f-bc36-e6b448475032"},"vehicle_type_id":"4","last_reported":1708466798,"current_range_meters":27200,"station_id":"ce4bhb92rcd13ifvqen0","pricing_plan_id":"cebpf4jnsgd1na2vs0mg"},{"bike_id":"0e92f60d-3256-4f35-91e3-29b9ee9c14da","system_id":"levelo_inurba_marseille","lat":43.290995,"lon":5.381361,"is_reserved":false,"is_disabled":false,"rental_uris":{"android":"levelo://app?vid=0e92f60d-3256-4f35-91e3-29b9ee9c14da","ios":"levelo://app?vid=0e92f60d-3256-4f35-91e3-29b9ee9c14da"},"vehicle_type_id":"4","last_reported":1708466798,"current_range_meters":18800,"station_id":"ce4bh512rcd13ifvqe2g","pricing_plan_id":"cebpf4jnsgd1na2vs0mg"},{"bike_id":"35ac08c8-9680-4cea-93cc-153311e64974","system_id":"levelo_inurba_marseille","lat":43.290995,"lon":5.381361,"is_reserved":false,"is_disabled":false,"rental_uris":{"android":"levelo://app?vid=35ac08c8-9680-4cea-93cc-153311e64974","ios":"levelo://app?vid=35ac08c8-9680-4cea-93cc-153311e64974"},"vehicle_type_id":"4","last_reported":1708466798,"current_range_meters":31200,"station_id":"ce4bh512rcd13ifvqe2g","pricing_plan_id":"cebpf4jnsgd1na2vs0mg"},{"bike_id":"73e9c814-3e10-4cff-b075-ab4ca91587cb","system_id":"levelo_inurba_marseille","lat":43.297915,"lon":5.39334,"is_reserved":false,"is_disabled":false,"rental_uris":{"android":"levelo://app?vid=73e9c814-3e10-4cff-b075-ab4ca91587cb","ios":"levelo://app?vid=73e9c814-3e10-4cff-b075-ab4ca91587cb"},"vehicle_type_id":"4","last_reported":1708466798,"current_range_meters":19200,"station_id":"chh1huq6cuj3fo74tm60","pricing_plan_id":"cebpf4jnsgd1na2vs0mg"},{"bike_id":"6703f306-f7e7-41b6-afa9-43fa3ec4826c","system_id":"levelo_inurba_marseille","lat":43.29789,"lon":5.39334,"is_reserved":false,"is_disabled":false,"rental_uris":{"android":"levelo://app?vid=6703f306-f7e7-41b6-afa9-43fa3ec4826c","ios":"levelo://app?vid=6703f306-f7e7-41b6-afa9-43fa3ec4826c"},"vehicle_type_id":"4","last_reported":1708466798,"current_range_meters":5200,"station_id":"chh1huq6cuj3fo74tm60","pricing_plan_id":"cebpf4jnsgd1na2vs0mg"},{"bike_id":"11a93470-ba28-46ab-99c4-a0d2b137a56a","system_id":"levelo_inurba_marseille","lat":43.297906,"lon":5.393364,"is_reserved":false,"is_disabled":false,"rental_uris":{"android":"levelo://app?vid=11a93470-ba28-46ab-99c4-a0d2b137a56a","ios":"levelo://app?vid=11a93470-ba28-46ab-99c4-a0d2b137a56a"},"vehicle_type_id":"4","last_reported":1708466798,"current_range_meters":800,"station_id":"chh1huq6cuj3fo74tm60","pricing_plan_id":"cebpf4jnsgd1na2vs0mg"},{"bike_id":"61995278-75bf-426c-87a8-af273b0b7276","system_id":"levelo_inurba_marseille","lat":43.297907,"lon":5.393386,"is_reserved":false,"is_disabled":false,"rental_uris":{"android":"levelo://app?vid=61995278-75bf-426c-87a8-af273b0b7276","ios":"levelo://app?vid=61995278-75bf-426c-87a8-af273b0b7276"},"vehicle_type_id":"4","last_reported":1708466798,"current_range_meters":26400,"station_id":"chh1huq6cuj3fo74tm60","pricing_plan_id":"cebpf4jnsgd1na2vs0mg"},{"bike_id":"b3231f76-7756-4bd6-b194-6dfc11c3f6fa","system_id":"levelo_inurba_marseille","lat":43.290995,"lon":5.381361,"is_reserved":false,"is_disabled":false,"rental_uris":{"android":"levelo://app?vid=b3231f76-7756-4bd6-b194-6dfc11c3f6fa","ios":"levelo://app?vid=b3231f76-7756-4bd6-b194-6dfc11c3f6fa"},"vehicle_type_id":"4","last_reported":1708466798,"current_range_meters":2400,"station_id":"ce4bh512rcd13ifvqe2g","pricing_plan_id":"cebpf4jnsgd1na2vs0mg"},{"bike_id":"548bfde2-3722-4ede-8228-1fdfbe8a4414","system_id":"levelo_inurba_marseille","lat":43.297815,"lon":5.393548,"is_reserved":false,"is_disabled":false,"rental_uris":{"android":"levelo://app?vid=548bfde2-3722-4ede-8228-1fdfbe8a4414","ios":"levelo://app?vid=548bfde2-3722-4ede-8228-1fdfbe8a4414"},"vehicle_type_id":"4","last_reported":1708466798,"current_range_meters":1600,"station_id":"chh1huq6cuj3fo74tm60","pricing_plan_id":"cebpf4jnsgd1na2vs0mg"},{"bike_id":"9c40386f-55ee-49cd-a8b3-29cba79c3b3d","system_id":"levelo_inurba_marseille","lat":43.297905,"lon":5.393425,"is_reserved":false,"is_disabled":false,"rental_uris":{"android":"levelo://app?vid=9c40386f-55ee-49cd-a8b3-29cba79c3b3d","ios":"levelo://app?vid=9c40386f-55ee-49cd-a8b3-29cba79c3b3d"},"vehicle_type_id":"4","last_reported":1708466798,"current_range_meters":14800,"station_id":"chh1huq6cuj3fo74tm60","pricing_plan_id":"cebpf4jnsgd1na2vs0mg"},{"bike_id":"70de2a23-62ba-451d-b616-714b9b5d8838","system_id":"levelo_inurba_marseille","lat":43.289741,"lon":5.378306,"is_reserved":false,"is_disabled":false,"rental_uris":{"android":"levelo://app?vid=70de2a23-62ba-451d-b616-714b9b5d8838","ios":"levelo://app?vid=70de2a23-62ba-451d-b616-714b9b5d8838"},"vehicle_type_id":"4","last_reported":1708466798,"current_range_meters":31200,"station_id":"ce4bh9p2rcd13ifvqed0","pricing_plan_id":"cebpf4jnsgd1na2vs0mg"},{"bike_id":"35a6337e-f52d-45ff-a42a-40f08f2c5c79","system_id":"levelo_inurba_marseille","lat":43.297815,"lon":5.393548,"is_reserved":false,"is_disabled":false,"rental_uris":{"android":"levelo://app?vid=35a6337e-f52d-45ff-a42a-40f08f2c5c79","ios":"levelo://app?vid=35a6337e-f52d-45ff-a42a-40f08f2c5c79"},"vehicle_type_id":"4","last_reported":1708466798,"current_range_meters":15600,"station_id":"chh1huq6cuj3fo74tm60","pricing_plan_id":"cebpf4jnsgd1na2vs0mg"},{"bike_id":"6c11a405-e959-4de5-93d0-f799dd210e01","system_id":"levelo_inurba_marseille","lat":43.289743,"lon":5.378304,"is_reserved":false,"is_disabled":false,"rental_uris":{"android":"levelo://app?vid=6c11a405-e959-4de5-93d0-f799dd210e01","ios":"levelo://app?vid=6c11a405-e959-4de5-93d0-f799dd210e01"},"vehicle_type_id":"4","last_reported":1708466798,"current_range_meters":5200,"station_id":"ce4bh9p2rcd13ifvqed0","pricing_plan_id":"cebpf4jnsgd1na2vs0mg"},{"bike_id":"ebd1d360-5671-4e43-be85-0b7c8a048e03","system_id":"levelo_inurba_marseille","lat":43.295268,"lon":5.390297,"is_reserved":false,"is_disabled":false,"rental_uris":{"android":"levelo://app?vid=ebd1d360-5671-4e43-be85-0b7c8a048e03","ios":"levelo://app?vid=ebd1d360-5671-4e43-be85-0b7c8a048e03"},"vehicle_type_id":"4","last_reported":1708466798,"current_range_meters":28400,"station_id":"ce4bh3p2rcd13ifvqdp0","pricing_plan_id":"cebpf4jnsgd1na2vs0mg"},{"bike_id":"3b593a2d-3831-4d86-a542-8b3e4bb17009","system_id":"levelo_inurba_marseille","lat":43.297815,"lon":5.393548,"is_reserved":false,"is_disabled":false,"rental_uris":{"android":"levelo://app?vid=3b593a2d-3831-4d86-a542-8b3e4bb17009","ios":"levelo://app?vid=3b593a2d-3831-4d86-a542-8b3e4bb17009"},"vehicle_type_id":"4","last_reported":1708466798,"current_range_meters":21600,"station_id":"chh1huq6cuj3fo74tm60","pricing_plan_id":"cebpf4jnsgd1na2vs0mg"},{"bike_id":"26450a15-ae4a-4b64-87e3-49309ab53440","system_id":"levelo_inurba_marseille","lat":43.29528,"lon":5.39039,"is_reserved":false,"is_disabled":false,"rental_uris":{"android":"levelo://app?vid=26450a15-ae4a-4b64-87e3-49309ab53440","ios":"levelo://app?vid=26450a15-ae4a-4b64-87e3-49309ab53440"},"vehicle_type_id":"4","last_reported":1708466798,"current_range_meters":0,"station_id":"ce4bh3p2rcd13ifvqdp0","pricing_plan_id":"cebpf4jnsgd1na2vs0mg"},{"bike_id":"4012e222-27fb-4df6-ab75-3051f919d866","system_id":"levelo_inurba_marseille","lat":43.295169,"lon":5.390426,"is_reserved":false,"is_disabled":false,"rental_uris":{"android":"levelo://app?vid=4012e222-27fb-4df6-ab75-3051f919d866","ios":"levelo://app?vid=4012e222-27fb-4df6-ab75-3051f919d866"},"vehicle_type_id":"4","last_reported":1708466798,"current_range_meters":22800,"station_id":"ce4bh3p2rcd13ifvqdp0","pricing_plan_id":"cebpf4jnsgd1na2vs0mg"},{"bike_id":"a4f2e61f-fb62-4278-b6f8-aa1032f104d0","system_id":"levelo_inurba_marseille","lat":43.330442,"lon":5.389148,"is_reserved":false,"is_disabled":false,"rental_uris":{"android":"levelo://app?vid=a4f2e61f-fb62-4278-b6f8-aa1032f104d0","ios":"levelo://app?vid=a4f2e61f-fb62-4278-b6f8-aa1032f104d0"},"vehicle_type_id":"4","last_reported":1708466798,"current_range_meters":29600,"station_id":"ce4bhr92rcd13ifvqhrg","pricing_plan_id":"cebpf4jnsgd1na2vs0mg"},{"bike_id":"6c4e4a8e-6056-4d3e-a0b7-1c9ff74d1d0a","system_id":"levelo_inurba_marseille","lat":43.295196,"lon":5.3904,"is_reserved":false,"is_disabled":false,"rental_uris":{"android":"levelo://app?vid=6c4e4a8e-6056-4d3e-a0b7-1c9ff74d1d0a","ios":"levelo://app?vid=6c4e4a8e-6056-4d3e-a0b7-1c9ff74d1d0a"},"vehicle_type_id":"4","last_reported":1708466798,"current_range_meters":4800,"station_id":"ce4bh3p2rcd13ifvqdp0","pricing_plan_id":"cebpf4jnsgd1na2vs0mg"},{"bike_id":"b222e60b-1a0a-4238-8d75-ad779c97778f","system_id":"levelo_inurba_marseille","lat":43.330442,"lon":5.389148,"is_reserved":false,"is_disabled":false,"rental_uris":{"android":"levelo://app?vid=b222e60b-1a0a-4238-8d75-ad779c97778f","ios":"levelo://app?vid=b222e60b-1a0a-4238-8d75-ad779c97778f"},"vehicle_type_id":"4","last_reported":1708466798,"current_range_meters":5600,"station_id":"ce4bhr92rcd13ifvqhrg","pricing_plan_id":"cebpf4jnsgd1na2vs0mg"},{"bike_id":"b855f4e0-242e-4f60-a12e-d72ff0cb4970","system_id":"levelo_inurba_marseille","lat":43.29516,"lon":5.39036,"is_reserved":false,"is_disabled":false,"rental_uris":{"android":"levelo://app?vid=b855f4e0-242e-4f60-a12e-d72ff0cb4970","ios":"levelo://app?vid=b855f4e0-242e-4f60-a12e-d72ff0cb4970"},"vehicle_type_id":"4","last_reported":1708466798,"current_range_meters":20400,"station_id":"ce4bh3p2rcd13ifvqdp0","pricing_plan_id":"cebpf4jnsgd1na2vs0mg"},{"bike_id":"1a662cb3-f0bd-4842-8f7c-f79f6112a6d0","system_id":"levelo_inurba_marseille","lat":43.28856,"lon":5.358371,"is_reserved":false,"is_disabled":false,"rental_uris":{"android":"levelo://app?vid=1a662cb3-f0bd-4842-8f7c-f79f6112a6d0","ios":"levelo://app?vid=1a662cb3-f0bd-4842-8f7c-f79f6112a6d0"},"vehicle_type_id":"4","last_reported":1708466798,"current_range_meters":3200,"station_id":"ce4bhb12rcd13ifvqem0","pricing_plan_id":"cebpf4jnsgd1na2vs0mg"},{"bike_id":"ea03aabc-52ef-4d15-a949-a5defe4d6fb7","system_id":"levelo_inurba_marseille","lat":43.290094,"lon":5.381264,"is_reserved":false,"is_disabled":false,"rental_uris":{"android":"levelo://app?vid=ea03aabc-52ef-4d15-a949-a5defe4d6fb7","ios":"levelo://app?vid=ea03aabc-52ef-4d15-a949-a5defe4d6fb7"},"vehicle_type_id":"4","last_reported":1708466798,"current_range_meters":17600,"station_id":"ce4bh4p2rcd13ifvqe1g","pricing_plan_id":"cebpf4jnsgd1na2vs0mg"},{"bike_id":"e5d82bd8-cc64-45b6-a104-0156c6ed11a6","system_id":"levelo_inurba_marseille","lat":43.28856,"lon":5.358371,"is_reserved":false,"is_disabled":false,"rental_uris":{"android":"levelo://app?vid=e5d82bd8-cc64-45b6-a104-0156c6ed11a6","ios":"levelo://app?vid=e5d82bd8-cc64-45b6-a104-0156c6ed11a6"},"vehicle_type_id":"4","last_reported":1708466798,"current_range_meters":9600,"station_id":"ce4bhb12rcd13ifvqem0","pricing_plan_id":"cebpf4jnsgd1na2vs0mg"},{"bike_id":"578a0353-9712-4729-952c-585c16d29e60","system_id":"levelo_inurba_marseille","lat":43.28856,"lon":5.358371,"is_reserved":false,"is_disabled":false,"rental_uris":{"android":"levelo://app?vid=578a0353-9712-4729-952c-585c16d29e60","ios":"levelo://app?vid=578a0353-9712-4729-952c-585c16d29e60"},"vehicle_type_id":"4","last_reported":1708466798,"current_range_meters":31600,"station_id":"ce4bhb12rcd13ifvqem0","pricing_plan_id":"cebpf4jnsgd1na2vs0mg"},{"bike_id":"c9884986-1cea-4439-8c97-cb2165044817","system_id":"levelo_inurba_marseille","lat":43.28856,"lon":5.358371,"is_reserved":false,"is_disabled":false,"rental_uris":{"android":"levelo://app?vid=c9884986-1cea-4439-8c97-cb2165044817","ios":"levelo://app?vid=c9884986-1cea-4439-8c97-cb2165044817"},"vehicle_type_id":"4","last_reported":1708466798,"current_range_meters":16400,"station_id":"ce4bhb12rcd13ifvqem0","pricing_plan_id":"cebpf4jnsgd1na2vs0mg"},{"bike_id":"55522c3c-5647-43cd-8c9a-b2bd90cc62c5","system_id":"levelo_inurba_marseille","lat":43.288557,"lon":5.35839,"is_reserved":false,"is_disabled":false,"rental_uris":{"android":"levelo://app?vid=55522c3c-5647-43cd-8c9a-b2bd90cc62c5","ios":"levelo://app?vid=55522c3c-5647-43cd-8c9a-b2bd90cc62c5"},"vehicle_type_id":"4","last_reported":1708466798,"current_range_meters":19600,"station_id":"","pricing_plan_id":"cebpf4jnsgd1na2vs0mg"},{"bike_id":"905a4aaa-d9ec-447c-981b-62b411ed91a5","system_id":"levelo_inurba_marseille","lat":43.28856,"lon":5.358371,"is_reserved":false,"is_disabled":false,"rental_uris":{"android":"levelo://app?vid=905a4aaa-d9ec-447c-981b-62b411ed91a5","ios":"levelo://app?vid=905a4aaa-d9ec-447c-981b-62b411ed91a5"},"vehicle_type_id":"4","last_reported":1708466798,"current_range_meters":10000,"station_id":"ce4bhb12rcd13ifvqem0","pricing_plan_id":"cebpf4jnsgd1na2vs0mg"},{"bike_id":"9d8e6e39-7b6d-476d-a681-3f4ab3709dc3","system_id":"levelo_inurba_marseille","lat":43.28856,"lon":5.358371,"is_reserved":false,"is_disabled":false,"rental_uris":{"android":"levelo://app?vid=9d8e6e39-7b6d-476d-a681-3f4ab3709dc3","ios":"levelo://app?vid=9d8e6e39-7b6d-476d-a681-3f4ab3709dc3"},"vehicle_type_id":"4","last_reported":1708466798,"current_range_meters":20400,"station_id":"ce4bhb12rcd13ifvqem0","pricing_plan_id":"cebpf4jnsgd1na2vs0mg"},{"bike_id":"4c1e26da-1daa-47cb-a1b0-68f224959241","system_id":"levelo_inurba_marseille","lat":43.28856,"lon":5.358371,"is_reserved":false,"is_disabled":false,"rental_uris":{"android":"levelo://app?vid=4c1e26da-1daa-47cb-a1b0-68f224959241","ios":"levelo://app?vid=4c1e26da-1daa-47cb-a1b0-68f224959241"},"vehicle_type_id":"4","last_reported":1708466798,"current_range_meters":30800,"station_id":"ce4bhb12rcd13ifvqem0","pricing_plan_id":"cebpf4jnsgd1na2vs0mg"},{"bike_id":"c1468d7e-1f6b-4a4b-baf6-7dbfd34e7699","system_id":"levelo_inurba_marseille","lat":43.28856,"lon":5.358371,"is_reserved":false,"is_disabled":false,"rental_uris":{"android":"levelo://app?vid=c1468d7e-1f6b-4a4b-baf6-7dbfd34e7699","ios":"levelo://app?vid=c1468d7e-1f6b-4a4b-baf6-7dbfd34e7699"},"vehicle_type_id":"4","last_reported":1708466798,"current_range_meters":20000,"station_id":"ce4bhb12rcd13ifvqem0","pricing_plan_id":"cebpf4jnsgd1na2vs0mg"},{"bike_id":"4cdc7c66-a8e9-46bc-8b00-ade4932aeceb","system_id":"levelo_inurba_marseille","lat":43.28856,"lon":5.358371,"is_reserved":false,"is_disabled":false,"rental_uris":{"android":"levelo://app?vid=4cdc7c66-a8e9-46bc-8b00-ade4932aeceb","ios":"levelo://app?vid=4cdc7c66-a8e9-46bc-8b00-ade4932aeceb"},"vehicle_type_id":"4","last_reported":1708466798,"current_range_meters":29200,"station_id":"ce4bhb12rcd13ifvqem0","pricing_plan_id":"cebpf4jnsgd1na2vs0mg"},{"bike_id":"acc8d8f2-e803-4f38-ad7d-b2639bd2bdc3","system_id":"levelo_inurba_marseille","lat":43.309371,"lon":5.401449,"is_reserved":false,"is_disabled":false,"rental_uris":{"android":"levelo://app?vid=acc8d8f2-e803-4f38-ad7d-b2639bd2bdc3","ios":"levelo://app?vid=acc8d8f2-e803-4f38-ad7d-b2639bd2bdc3"},"vehicle_type_id":"4","last_reported":1708466798,"current_range_meters":25600,"station_id":"ce4bgvp2rcd13ifvqct0","pricing_plan_id":"cebpf4jnsgd1na2vs0mg"},{"bike_id":"7deb327a-8ec1-4ef5-bc5c-705ae6bbb03e","system_id":"levelo_inurba_marseille","lat":43.28856,"lon":5.358371,"is_reserved":false,"is_disabled":false,"rental_uris":{"android":"levelo://app?vid=7deb327a-8ec1-4ef5-bc5c-705ae6bbb03e","ios":"levelo://app?vid=7deb327a-8ec1-4ef5-bc5c-705ae6bbb03e"},"vehicle_type_id":"4","last_reported":1708466798,"current_range_meters":21200,"station_id":"ce4bhb12rcd13ifvqem0","pricing_plan_id":"cebpf4jnsgd1na2vs0mg"},{"bike_id":"d0d74ce0-8db1-44a1-8eac-f5e1c6bca7e1","system_id":"levelo_inurba_marseille","lat":43.28856,"lon":5.358371,"is_reserved":false,"is_disabled":false,"rental_uris":{"android":"levelo://app?vid=d0d74ce0-8db1-44a1-8eac-f5e1c6bca7e1","ios":"levelo://app?vid=d0d74ce0-8db1-44a1-8eac-f5e1c6bca7e1"},"vehicle_type_id":"4","last_reported":1708466798,"current_range_meters":30000,"station_id":"ce4bhb12rcd13ifvqem0","pricing_plan_id":"cebpf4jnsgd1na2vs0mg"},{"bike_id":"bee98f28-a687-44a1-a0fc-44985e86dc27","system_id":"levelo_inurba_marseille","lat":43.337405,"lon":5.374546,"is_reserved":false,"is_disabled":false,"rental_uris":{"android":"levelo://app?vid=bee98f28-a687-44a1-a0fc-44985e86dc27","ios":"levelo://app?vid=bee98f28-a687-44a1-a0fc-44985e86dc27"},"vehicle_type_id":"4","last_reported":1708466798,"current_range_meters":10400,"station_id":"","pricing_plan_id":"cebpf4jnsgd1na2vs0mg"},{"bike_id":"89d65cf8-fb75-4b83-9668-72258beda1f2","system_id":"levelo_inurba_marseille","lat":43.309371,"lon":5.401449,"is_reserved":false,"is_disabled":false,"rental_uris":{"android":"levelo://app?vid=89d65cf8-fb75-4b83-9668-72258beda1f2","ios":"levelo://app?vid=89d65cf8-fb75-4b83-9668-72258beda1f2"},"vehicle_type_id":"4","last_reported":1708466798,"current_range_meters":22400,"station_id":"ce4bgvp2rcd13ifvqct0","pricing_plan_id":"cebpf4jnsgd1na2vs0mg"},{"bike_id":"17fa40a9-c008-40c3-8c55-8bf0f7bfa052","system_id":"levelo_inurba_marseille","lat":43.31269,"lon":5.40174,"is_reserved":false,"is_disabled":false,"rental_uris":{"android":"levelo://app?vid=17fa40a9-c008-40c3-8c55-8bf0f7bfa052","ios":"levelo://app?vid=17fa40a9-c008-40c3-8c55-8bf0f7bfa052"},"vehicle_type_id":"4","last_reported":1708466798,"current_range_meters":8000,"station_id":"ce4bh092rcd13ifvqd30","pricing_plan_id":"cebpf4jnsgd1na2vs0mg"},{"bike_id":"6a2b7330-9a83-4705-bf85-f8b9cdd5dce9","system_id":"levelo_inurba_marseille","lat":43.309371,"lon":5.401449,"is_reserved":false,"is_disabled":false,"rental_uris":{"android":"levelo://app?vid=6a2b7330-9a83-4705-bf85-f8b9cdd5dce9","ios":"levelo://app?vid=6a2b7330-9a83-4705-bf85-f8b9cdd5dce9"},"vehicle_type_id":"4","last_reported":1708466798,"current_range_meters":0,"station_id":"ce4bgvp2rcd13ifvqct0","pricing_plan_id":"cebpf4jnsgd1na2vs0mg"},{"bike_id":"9aba47a3-b307-43c1-95ae-e849bd0eb373","system_id":"levelo_inurba_marseille","lat":43.312609,"lon":5.401662,"is_reserved":false,"is_disabled":false,"rental_uris":{"android":"levelo://app?vid=9aba47a3-b307-43c1-95ae-e849bd0eb373","ios":"levelo://app?vid=9aba47a3-b307-43c1-95ae-e849bd0eb373"},"vehicle_type_id":"4","last_reported":1708466798,"current_range_meters":20000,"station_id":"ce4bh092rcd13ifvqd30","pricing_plan_id":"cebpf4jnsgd1na2vs0mg"},{"bike_id":"dbda385f-d4b0-46c8-b18b-6a4760f450d4","system_id":"levelo_inurba_marseille","lat":43.309371,"lon":5.401449,"is_reserved":false,"is_disabled":false,"rental_uris":{"android":"levelo://app?vid=dbda385f-d4b0-46c8-b18b-6a4760f450d4","ios":"levelo://app?vid=dbda385f-d4b0-46c8-b18b-6a4760f450d4"},"vehicle_type_id":"4","last_reported":1708466798,"current_range_meters":0,"station_id":"ce4bgvp2rcd13ifvqct0","pricing_plan_id":"cebpf4jnsgd1na2vs0mg"},{"bike_id":"4e62f32a-2c8a-4791-9449-de28cfa118f6","system_id":"levelo_inurba_marseille","lat":43.309371,"lon":5.401449,"is_reserved":false,"is_disabled":false,"rental_uris":{"android":"levelo://app?vid=4e62f32a-2c8a-4791-9449-de28cfa118f6","ios":"levelo://app?vid=4e62f32a-2c8a-4791-9449-de28cfa118f6"},"vehicle_type_id":"4","last_reported":1708466798,"current_range_meters":4400,"station_id":"ce4bgvp2rcd13ifvqct0","pricing_plan_id":"cebpf4jnsgd1na2vs0mg"},{"bike_id":"8032f488-736d-4f91-b5b8-9c785931ead9","system_id":"levelo_inurba_marseille","lat":43.309371,"lon":5.401449,"is_reserved":false,"is_disabled":false,"rental_uris":{"android":"levelo://app?vid=8032f488-736d-4f91-b5b8-9c785931ead9","ios":"levelo://app?vid=8032f488-736d-4f91-b5b8-9c785931ead9"},"vehicle_type_id":"4","last_reported":1708466798,"current_range_meters":13600,"station_id":"ce4bgvp2rcd13ifvqct0","pricing_plan_id":"cebpf4jnsgd1na2vs0mg"},{"bike_id":"254db809-d603-4868-be95-eb61ba19bc37","system_id":"levelo_inurba_marseille","lat":43.337504,"lon":5.374545,"is_reserved":false,"is_disabled":false,"rental_uris":{"android":"levelo://app?vid=254db809-d603-4868-be95-eb61ba19bc37","ios":"levelo://app?vid=254db809-d603-4868-be95-eb61ba19bc37"},"vehicle_type_id":"4","last_reported":1708466798,"current_range_meters":24000,"station_id":"","pricing_plan_id":"cebpf4jnsgd1na2vs0mg"},{"bike_id":"be2269ac-9e97-4cba-829f-5b4176152953","system_id":"levelo_inurba_marseille","lat":43.31259,"lon":5.401818,"is_reserved":false,"is_disabled":false,"rental_uris":{"android":"levelo://app?vid=be2269ac-9e97-4cba-829f-5b4176152953","ios":"levelo://app?vid=be2269ac-9e97-4cba-829f-5b4176152953"},"vehicle_type_id":"4","last_reported":1708466798,"current_range_meters":800,"station_id":"ce4bh092rcd13ifvqd30","pricing_plan_id":"cebpf4jnsgd1na2vs0mg"},{"bike_id":"b1c83910-604f-4632-ba4e-8963b40857c4","system_id":"levelo_inurba_marseille","lat":43.309371,"lon":5.401449,"is_reserved":false,"is_disabled":false,"rental_uris":{"android":"levelo://app?vid=b1c83910-604f-4632-ba4e-8963b40857c4","ios":"levelo://app?vid=b1c83910-604f-4632-ba4e-8963b40857c4"},"vehicle_type_id":"4","last_reported":1708466798,"current_range_meters":18000,"station_id":"ce4bgvp2rcd13ifvqct0","pricing_plan_id":"cebpf4jnsgd1na2vs0mg"},{"bike_id":"7dcf6df5-d49c-4ddd-ac2e-774d693a0a00","system_id":"levelo_inurba_marseille","lat":43.309371,"lon":5.401449,"is_reserved":false,"is_disabled":false,"rental_uris":{"android":"levelo://app?vid=7dcf6df5-d49c-4ddd-ac2e-774d693a0a00","ios":"levelo://app?vid=7dcf6df5-d49c-4ddd-ac2e-774d693a0a00"},"vehicle_type_id":"4","last_reported":1708466798,"current_range_meters":12400,"station_id":"ce4bgvp2rcd13ifvqct0","pricing_plan_id":"cebpf4jnsgd1na2vs0mg"},{"bike_id":"a0ce5835-7bff-4de3-9e35-caf556e60610","system_id":"levelo_inurba_marseille","lat":43.309371,"lon":5.401449,"is_reserved":false,"is_disabled":false,"rental_uris":{"android":"levelo://app?vid=a0ce5835-7bff-4de3-9e35-caf556e60610","ios":"levelo://app?vid=a0ce5835-7bff-4de3-9e35-caf556e60610"},"vehicle_type_id":"4","last_reported":1708466798,"current_range_meters":14000,"station_id":"ce4bgvp2rcd13ifvqct0","pricing_plan_id":"cebpf4jnsgd1na2vs0mg"},{"bike_id":"e6fead58-30a5-4fc6-8152-d9425db58d30","system_id":"levelo_inurba_marseille","lat":43.306412,"lon":5.401035,"is_reserved":false,"is_disabled":false,"rental_uris":{"android":"levelo://app?vid=e6fead58-30a5-4fc6-8152-d9425db58d30","ios":"levelo://app?vid=e6fead58-30a5-4fc6-8152-d9425db58d30"},"vehicle_type_id":"4","last_reported":1708466798,"current_range_meters":19600,"station_id":"ce4bh112rcd13ifvqda0","pricing_plan_id":"cebpf4jnsgd1na2vs0mg"},{"bike_id":"08161c98-2296-40b0-b9fd-9fb447b2e696","system_id":"levelo_inurba_marseille","lat":43.30642,"lon":5.401031,"is_reserved":false,"is_disabled":false,"rental_uris":{"android":"levelo://app?vid=08161c98-2296-40b0-b9fd-9fb447b2e696","ios":"levelo://app?vid=08161c98-2296-40b0-b9fd-9fb447b2e696"},"vehicle_type_id":"4","last_reported":1708466798,"current_range_meters":28000,"station_id":"ce4bh112rcd13ifvqda0","pricing_plan_id":"cebpf4jnsgd1na2vs0mg"},{"bike_id":"0e73ae39-ec3b-4a82-980d-baa7ac57da15","system_id":"levelo_inurba_marseille","lat":43.30642,"lon":5.401031,"is_reserved":false,"is_disabled":false,"rental_uris":{"android":"levelo://app?vid=0e73ae39-ec3b-4a82-980d-baa7ac57da15","ios":"levelo://app?vid=0e73ae39-ec3b-4a82-980d-baa7ac57da15"},"vehicle_type_id":"4","last_reported":1708466798,"current_range_meters":10000,"station_id":"ce4bh112rcd13ifvqda0","pricing_plan_id":"cebpf4jnsgd1na2vs0mg"},{"bike_id":"646f0e3a-09f9-45fe-af5d-9e8255e37ae6","system_id":"levelo_inurba_marseille","lat":43.30642,"lon":5.401031,"is_reserved":false,"is_disabled":false,"rental_uris":{"android":"levelo://app?vid=646f0e3a-09f9-45fe-af5d-9e8255e37ae6","ios":"levelo://app?vid=646f0e3a-09f9-45fe-af5d-9e8255e37ae6"},"vehicle_type_id":"4","last_reported":1708466798,"current_range_meters":10000,"station_id":"ce4bh112rcd13ifvqda0","pricing_plan_id":"cebpf4jnsgd1na2vs0mg"},{"bike_id":"5b772d11-a561-4faf-8d5a-187d4227e938","system_id":"levelo_inurba_marseille","lat":43.30642,"lon":5.401031,"is_reserved":false,"is_disabled":false,"rental_uris":{"android":"levelo://app?vid=5b772d11-a561-4faf-8d5a-187d4227e938","ios":"levelo://app?vid=5b772d11-a561-4faf-8d5a-187d4227e938"},