{"last_updated":1705745226,"ttl":30,"version":"2.2","data":{"bikes":[{"bike_id":"751edf1e-dd70-4e05-86ab-98bd702d3bbe","system_id":"levelo_inurba_marseille","lat":43.313391,"lon":5.36706,"is_reserved":false,"is_disabled":false,"rental_uris":{"android":"levelo://app?vid=751edf1e-dd70-4e05-86ab-98bd702d3bbe","ios":"levelo://app?vid=751edf1e-dd70-4e05-86ab-98bd702d3bbe"},"vehicle_type_id":"4","last_reported":1705745227,"current_range_meters":26400,"station_id":"ce4bgr92rcd13ifvqc6g","pricing_plan_id":"free"},{"bike_id":"173c07e5-8508-415e-8f5f-ed33807c7621","system_id":"levelo_inurba_marseille","lat":43.312239,"lon":5.368562,"is_reserved":false,"is_disabled":false,"rental_uris":{"android":"levelo://app?vid=173c07e5-8508-415e-8f5f-ed33807c7621","ios":"levelo://app?vid=173c07e5-8508-415e-8f5f-ed33807c7621"},"vehicle_type_id":"4","last_reported":1705745227,"current_range_meters":28400,"station_id":"ce4bgl92rcd13ifvqbq0","pricing_plan_id":"free"},{"bike_id":"c29a3c1a-2bc1-48d4-8c54-54ccfbc2af99","system_id":"levelo_inurba_marseille","lat":43.312239,"lon":5.368562,"is_reserved":false,"is_disabled":false,"rental_uris":{"android":"levelo://app?vid=c29a3c1a-2bc1-48d4-8c54-54ccfbc2af99","ios":"levelo://app?vid=c29a3c1a-2bc1-48d4-8c54-54ccfbc2af99"},"vehicle_type_id":"4","last_reported":1705745227,"current_range_meters":27200,"station_id":"ce4bgl92rcd13ifvqbq0","pricing_plan_id":"free"},{"bike_id":"68ce9576-2dba-47f5-a97d-7c3897ff0890","system_id":"levelo_inurba_marseille","lat":43.312239,"lon":5.368562,"is_reserved":false,"is_disabled":false,"rental_uris":{"android":"levelo://app?vid=68ce9576-2dba-47f5-a97d-7c3897ff0890","ios":"levelo://app?vid=68ce9576-2dba-47f5-a97d-7c3897ff0890"},"vehicle_type_id":"4","last_reported":1705745227,"current_range_meters":30800,"station_id":"ce4bgl92rcd13ifvqbq0","pricing_plan_id":"free"},{"bike_id":"1281d799-9d76-4a04-b28f-c7585f08f157","system_id":"levelo_inurba_marseille","lat":43.312239,"lon":5.368562,"is_reserved":false,"is_disabled":false,"rental_uris":{"android":"levelo://app?vid=1281d799-9d76-4a04-b28f-c7585f08f157","ios":"levelo://app?vid=1281d799-9d76-4a04-b28f-c7585f08f157"},"vehicle_type_id":"4","last_reported":1705745227,"current_range_meters":30800,"station_id":"ce4bgl92rcd13ifvqbq0","pricing_plan_id":"free"},{"bike_id":"f9b82c1c-7c82-4344-bd05-c27963a7b1e2","system_id":"levelo_inurba_marseille","lat":43.312239,"lon":5.368562,"is_reserved":false,"is_disabled":false,"rental_uris":{"android":"levelo://app?vid=f9b82c1c-7c82-4344-bd05-c27963a7b1e2","ios":"levelo://app?vid=f9b82c1c-7c82-4344-bd05-c27963a7b1e2"},"vehicle_type_id":"4","last_reported":1705745227,"current_range_meters":30800,"station_id":"ce4bgl92rcd13ifvqbq0","pricing_plan_id":"free"},{"bike_id":"25205c82-9642-4578-8c50-8d01b937e62b","system_id":"levelo_inurba_marseille","lat":43.314811,"lon":5.373103,"is_reserved":false,"is_disabled":false,"rental_uris":{"android":"levelo://app?vid=25205c82-9642-4578-8c50-8d01b937e62b","ios":"levelo://app?vid=25205c82-9642-4578-8c50-8d01b937e62b"},"vehicle_type_id":"4","last_reported":1705745227,"current_range_meters":14400,"station_id":"ce4bgt12rcd13ifvqcd0","pricing_plan_id":"free"},{"bike_id":"a9e7b7b6-d85a-4417-9083-c1d3adc79294","system_id":"levelo_inurba_marseille","lat":43.314811,"lon":5.373104,"is_reserved":false,"is_disabled":false,"rental_uris":{"android":"levelo://app?vid=a9e7b7b6-d85a-4417-9083-c1d3adc79294","ios":"levelo://app?vid=a9e7b7b6-d85a-4417-9083-c1d3adc79294"},"vehicle_type_id":"4","last_reported":1705745227,"current_range_meters":30800,"station_id":"ce4bgt12rcd13ifvqcd0","pricing_plan_id":"free"},{"bike_id":"2e2fe417-e13f-4e7f-8970-a935d7ba4e44","system_id":"levelo_inurba_marseille","lat":43.305364,"lon":5.384119,"is_reserved":false,"is_disabled":false,"rental_uris":{"android":"levelo://app?vid=2e2fe417-e13f-4e7f-8970-a935d7ba4e44","ios":"levelo://app?vid=2e2fe417-e13f-4e7f-8970-a935d7ba4e44"},"vehicle_type_id":"4","last_reported":1705745227,"current_range_meters":29600,"station_id":"ce4bgg92rcd13ifvqb30","pricing_plan_id":"free"},{"bike_id":"0090a1f2-2bcf-4ce6-804c-c09fb7d4fab1","system_id":"levelo_inurba_marseille","lat":43.314811,"lon":5.373104,"is_reserved":false,"is_disabled":false,"rental_uris":{"android":"levelo://app?vid=0090a1f2-2bcf-4ce6-804c-c09fb7d4fab1","ios":"levelo://app?vid=0090a1f2-2bcf-4ce6-804c-c09fb7d4fab1"},"vehicle_type_id":"4","last_reported":1705745227,"current_range_meters":26400,"station_id":"ce4bgt12rcd13ifvqcd0","pricing_plan_id":"free"},{"bike_id":"d5e7358c-1950-4d29-bb30-e41620797e6b","system_id":"levelo_inurba_marseille","lat":43.309039,"lon":5.371797,"is_reserved":false,"is_disabled":false,"rental_uris":{"android":"levelo://app?vid=d5e7358c-1950-4d29-bb30-e41620797e6b","ios":"levelo://app?vid=d5e7358c-1950-4d29-bb30-e41620797e6b"},"vehicle_type_id":"4","last_reported":1705745227,"current_range_meters":11200,"station_id":"ce4bguh2rcd13ifvqckg","pricing_plan_id":"free"},{"bike_id":"4cee8d8c-49a6-46c1-af7a-99337407b602","system_id":"levelo_inurba_marseille","lat":43.308868,"lon":5.371971,"is_reserved":false,"is_disabled":false,"rental_uris":{"android":"levelo://app?vid=4cee8d8c-49a6-46c1-af7a-99337407b602","ios":"levelo://app?vid=4cee8d8c-49a6-46c1-af7a-99337407b602"},"vehicle_type_id":"4","last_reported":1705745227,"current_range_meters":15600,"station_id":"ce4bguh2rcd13ifvqckg","pricing_plan_id":"free"},{"bike_id":"67176285-2a66-4ded-8f1c-8713b045b9b0","system_id":"levelo_inurba_marseille","lat":43.309039,"lon":5.371797,"is_reserved":false,"is_disabled":false,"rental_uris":{"android":"levelo://app?vid=67176285-2a66-4ded-8f1c-8713b045b9b0","ios":"levelo://app?vid=67176285-2a66-4ded-8f1c-8713b045b9b0"},"vehicle_type_id":"4","last_reported":1705745227,"current_range_meters":20000,"station_id":"ce4bguh2rcd13ifvqckg","pricing_plan_id":"free"},{"bike_id":"102ca21d-ae39-4dd1-9546-ff87aaaf4999","system_id":"levelo_inurba_marseille","lat":43.313498,"lon":5.375058,"is_reserved":false,"is_disabled":false,"rental_uris":{"android":"levelo://app?vid=102ca21d-ae39-4dd1-9546-ff87aaaf4999","ios":"levelo://app?vid=102ca21d-ae39-4dd1-9546-ff87aaaf4999"},"vehicle_type_id":"4","last_reported":1705745227,"current_range_meters":0,"station_id":"","pricing_plan_id":"free"},{"bike_id":"19711754-e24f-468c-8e75-73679554f805","system_id":"levelo_inurba_marseille","lat":43.305706,"lon":5.365654,"is_reserved":false,"is_disabled":false,"rental_uris":{"android":"levelo://app?vid=19711754-e24f-468c-8e75-73679554f805","ios":"levelo://app?vid=19711754-e24f-468c-8e75-73679554f805"},"vehicle_type_id":"4","last_reported":1705745227,"current_range_meters":6400,"station_id":"ce4bgs12rcd13ifvqcag","pricing_plan_id":"free"},{"bike_id":"05ac3dca-138b-4718-bfc1-0665239bef79","system_id":"levelo_inurba_marseille","lat":43.305714,"lon":5.365633,"is_reserved":false,"is_disabled":false,"rental_uris":{"android":"levelo://app?vid=05ac3dca-138b-4718-bfc1-0665239bef79","ios":"levelo://app?vid=05ac3dca-138b-4718-bfc1-0665239bef79"},"vehicle_type_id":"4","last_reported":1705745227,"current_range_meters":29600,"station_id":"ce4bgs12rcd13ifvqcag","pricing_plan_id":"free"},{"bike_id":"4749c916-2437-4581-b74a-b7a5577c7407","system_id":"levelo_inurba_marseille","lat":43.305714,"lon":5.365633,"is_reserved":false,"is_disabled":false,"rental_uris":{"android":"levelo://app?vid=4749c916-2437-4581-b74a-b7a5577c7407","ios":"levelo://app?vid=4749c916-2437-4581-b74a-b7a5577c7407"},"vehicle_type_id":"4","last_reported":1705745227,"current_range_meters":22800,"station_id":"ce4bgs12rcd13ifvqcag","pricing_plan_id":"free"},{"bike_id":"d7d1611d-97b0-46e1-a328-8a1e9a6efb59","system_id":"levelo_inurba_marseille","lat":43.305714,"lon":5.365633,"is_reserved":false,"is_disabled":false,"rental_uris":{"android":"levelo://app?vid=d7d1611d-97b0-46e1-a328-8a1e9a6efb59","ios":"levelo://app?vid=d7d1611d-97b0-46e1-a328-8a1e9a6efb59"},"vehicle_type_id":"4","last_reported":1705745227,"current_range_meters":17600,"station_id":"ce4bgs12rcd13ifvqcag","pricing_plan_id":"free"},{"bike_id":"70c9f3a4-70a6-4497-bf94-1d8f2776c721","system_id":"levelo_inurba_marseille","lat":43.305714,"lon":5.365633,"is_reserved":false,"is_disabled":false,"rental_uris":{"android":"levelo://app?vid=70c9f3a4-70a6-4497-bf94-1d8f2776c721","ios":"levelo://app?vid=70c9f3a4-70a6-4497-bf94-1d8f2776c721"},"vehicle_type_id":"4","last_reported":1705745227,"current_range_meters":20800,"station_id":"ce4bgs12rcd13ifvqcag","pricing_plan_id":"free"},{"bike_id":"35062bec-7b1a-45b4-8f98-33b0fc74cbed","system_id":"levelo_inurba_marseille","lat":43.305714,"lon":5.365633,"is_reserved":false,"is_disabled":false,"rental_uris":{"android":"levelo://app?vid=35062bec-7b1a-45b4-8f98-33b0fc74cbed","ios":"levelo://app?vid=35062bec-7b1a-45b4-8f98-33b0fc74cbed"},"vehicle_type_id":"4","last_reported":1705745227,"current_range_meters":31200,"station_id":"ce4bgs12rcd13ifvqcag","pricing_plan_id":"free"},{"bike_id":"8aacb602-e420-4213-9fcd-7ce413f7cc83","system_id":"levelo_inurba_marseille","lat":43.305706,"lon":5.365654,"is_reserved":false,"is_disabled":false,"rental_uris":{"android":"levelo://app?vid=8aacb602-e420-4213-9fcd-7ce413f7cc83","ios":"levelo://app?vid=8aacb602-e420-4213-9fcd-7ce413f7cc83"},"vehicle_type_id":"4","last_reported":1705745227,"current_range_meters":24000,"station_id":"ce4bgs12rcd13ifvqcag","pricing_plan_id":"free"},{"bike_id":"a2d1151d-b951-4449-abc4-b493afa49075","system_id":"levelo_inurba_marseille","lat":43.305706,"lon":5.365654,"is_reserved":false,"is_disabled":false,"rental_uris":{"android":"levelo://app?vid=a2d1151d-b951-4449-abc4-b493afa49075","ios":"levelo://app?vid=a2d1151d-b951-4449-abc4-b493afa49075"},"vehicle_type_id":"4","last_reported":1705745227,"current_range_meters":16800,"station_id":"ce4bgs12rcd13ifvqcag","pricing_plan_id":"free"},{"bike_id":"89453f24-0945-4c12-a32d-a5e1d7f8a31a","system_id":"levelo_inurba_marseille","lat":43.305714,"lon":5.365633,"is_reserved":false,"is_disabled":false,"rental_uris":{"android":"levelo://app?vid=89453f24-0945-4c12-a32d-a5e1d7f8a31a","ios":"levelo://app?vid=89453f24-0945-4c12-a32d-a5e1d7f8a31a"},"vehicle_type_id":"4","last_reported":1705745227,"current_range_meters":31200,"station_id":"ce4bgs12rcd13ifvqcag","pricing_plan_id":"free"},{"bike_id":"9d44c7a5-2c4f-410c-bd92-c89dc6b3235b","system_id":"levelo_inurba_marseille","lat":43.305714,"lon":5.365633,"is_reserved":false,"is_disabled":false,"rental_uris":{"android":"levelo://app?vid=9d44c7a5-2c4f-410c-bd92-c89dc6b3235b","ios":"levelo://app?vid=9d44c7a5-2c4f-410c-bd92-c89dc6b3235b"},"vehicle_type_id":"4","last_reported":1705745227,"current_range_meters":13600,"station_id":"ce4bgs12rcd13ifvqcag","pricing_plan_id":"free"},{"bike_id":"6da8febd-ec0e-4c64-bfed-b275a8aab22d","system_id":"levelo_inurba_marseille","lat":43.305706,"lon":5.365654,"is_reserved":false,"is_disabled":false,"rental_uris":{"android":"levelo://app?vid=6da8febd-ec0e-4c64-bfed-b275a8aab22d","ios":"levelo://app?vid=6da8febd-ec0e-4c64-bfed-b275a8aab22d"},"vehicle_type_id":"4","last_reported":1705745227,"current_range_meters":12400,"station_id":"ce4bgs12rcd13ifvqcag","pricing_plan_id":"free"},{"bike_id":"b9772229-2f91-415a-a947-2e325ca96cd9","system_id":"levelo_inurba_marseille","lat":43.305706,"lon":5.365654,"is_reserved":false,"is_disabled":false,"rental_uris":{"android":"levelo://app?vid=b9772229-2f91-415a-a947-2e325ca96cd9","ios":"levelo://app?vid=b9772229-2f91-415a-a947-2e325ca96cd9"},"vehicle_type_id":"4","last_reported":1705745227,"current_range_meters":30400,"station_id":"ce4bgs12rcd13ifvqcag","pricing_plan_id":"free"},{"bike_id":"8a9b91fc-20ab-406a-af0d-b3506fe455de","system_id":"levelo_inurba_marseille","lat":43.305368,"lon":5.367343,"is_reserved":false,"is_disabled":false,"rental_uris":{"android":"levelo://app?vid=8a9b91fc-20ab-406a-af0d-b3506fe455de","ios":"levelo://app?vid=8a9b91fc-20ab-406a-af0d-b3506fe455de"},"vehicle_type_id":"4","last_reported":1705745227,"current_range_meters":27200,"station_id":"ce4bgrp2rcd13ifvqc9g","pricing_plan_id":"free"},{"bike_id":"74d982c7-c606-419c-83dc-0b5157badc82","system_id":"levelo_inurba_marseille","lat":43.305706,"lon":5.365654,"is_reserved":false,"is_disabled":false,"rental_uris":{"android":"levelo://app?vid=74d982c7-c606-419c-83dc-0b5157badc82","ios":"levelo://app?vid=74d982c7-c606-419c-83dc-0b5157badc82"},"vehicle_type_id":"4","last_reported":1705745227,"current_range_meters":26400,"station_id":"ce4bgs12rcd13ifvqcag","pricing_plan_id":"free"},{"bike_id":"3974e76e-11f7-412c-b76b-d5f7d6b2e156","system_id":"levelo_inurba_marseille","lat":43.305706,"lon":5.365654,"is_reserved":false,"is_disabled":false,"rental_uris":{"android":"levelo://app?vid=3974e76e-11f7-412c-b76b-d5f7d6b2e156","ios":"levelo://app?vid=3974e76e-11f7-412c-b76b-d5f7d6b2e156"},"vehicle_type_id":"4","last_reported":1705745227,"current_range_meters":15600,"station_id":"ce4bgs12rcd13ifvqcag","pricing_plan_id":"free"},{"bike_id":"43781b95-0057-447b-b349-b723e20f0f6c","system_id":"levelo_inurba_marseille","lat":43.305706,"lon":5.365654,"is_reserved":false,"is_disabled":false,"rental_uris":{"android":"levelo://app?vid=43781b95-0057-447b-b349-b723e20f0f6c","ios":"levelo://app?vid=43781b95-0057-447b-b349-b723e20f0f6c"},"vehicle_type_id":"4","last_reported":1705745227,"current_range_meters":21200,"station_id":"ce4bgs12rcd13ifvqcag","pricing_plan_id":"free"},{"bike_id":"5edb4520-6d7e-40ec-8c83-dc9d9a057957","system_id":"levelo_inurba_marseille","lat":43.311195,"lon":5.377531,"is_reserved":false,"is_disabled":false,"rental_uris":{"android":"levelo://app?vid=5edb4520-6d7e-40ec-8c83-dc9d9a057957","ios":"levelo://app?vid=5edb4520-6d7e-40ec-8c83-dc9d9a057957"},"vehicle_type_id":"4","last_reported":1705745227,"current_range_meters":27200,"station_id":"ce4bgt92rcd13ifvqcg0","pricing_plan_id":"free"},{"bike_id":"1e598083-a05f-45ba-b573-c0fbb591b4db","system_id":"levelo_inurba_marseille","lat":43.311194,"lon":5.377545,"is_reserved":false,"is_disabled":false,"rental_uris":{"android":"levelo://app?vid=1e598083-a05f-45ba-b573-c0fbb591b4db","ios":"levelo://app?vid=1e598083-a05f-45ba-b573-c0fbb591b4db"},"vehicle_type_id":"4","last_reported":1705745227,"current_range_meters":30000,"station_id":"ce4bgt92rcd13ifvqcg0","pricing_plan_id":"free"},{"bike_id":"e9f1f913-b4f3-462f-9075-9050f0b54b11","system_id":"levelo_inurba_marseille","lat":43.307945,"lon":5.376487,"is_reserved":false,"is_disabled":false,"rental_uris":{"android":"levelo://app?vid=e9f1f913-b4f3-462f-9075-9050f0b54b11","ios":"levelo://app?vid=e9f1f913-b4f3-462f-9075-9050f0b54b11"},"vehicle_type_id":"4","last_reported":1705745227,"current_range_meters":28400,"station_id":"ce4bgv92rcd13ifvqcq0","pricing_plan_id":"free"},{"bike_id":"bc5fa535-88b3-406b-bd14-afa0bf9eb036","system_id":"levelo_inurba_marseille","lat":43.31694,"lon":5.377453,"is_reserved":false,"is_disabled":false,"rental_uris":{"android":"levelo://app?vid=bc5fa535-88b3-406b-bd14-afa0bf9eb036","ios":"levelo://app?vid=bc5fa535-88b3-406b-bd14-afa0bf9eb036"},"vehicle_type_id":"4","last_reported":1705745227,"current_range_meters":10400,"station_id":"ce4bgth2rcd13ifvqch0","pricing_plan_id":"free"},{"bike_id":"7955623d-8a02-427a-b1b9-5933c360e32c","system_id":"levelo_inurba_marseille","lat":43.317075,"lon":5.377367,"is_reserved":false,"is_disabled":false,"rental_uris":{"android":"levelo://app?vid=7955623d-8a02-427a-b1b9-5933c360e32c","ios":"levelo://app?vid=7955623d-8a02-427a-b1b9-5933c360e32c"},"vehicle_type_id":"4","last_reported":1705745227,"current_range_meters":29600,"station_id":"ce4bgth2rcd13ifvqch0","pricing_plan_id":"free"},{"bike_id":"b96e0905-475c-4f2a-8358-500ce1ca522d","system_id":"levelo_inurba_marseille","lat":43.316991,"lon":5.377546,"is_reserved":false,"is_disabled":false,"rental_uris":{"android":"levelo://app?vid=b96e0905-475c-4f2a-8358-500ce1ca522d","ios":"levelo://app?vid=b96e0905-475c-4f2a-8358-500ce1ca522d"},"vehicle_type_id":"4","last_reported":1705745227,"current_range_meters":30400,"station_id":"ce4bgth2rcd13ifvqch0","pricing_plan_id":"free"},{"bike_id":"c5e37bd6-6f81-4cf3-b74b-87c0ce98b56a","system_id":"levelo_inurba_marseille","lat":43.317016,"lon":5.377542,"is_reserved":false,"is_disabled":false,"rental_uris":{"android":"levelo://app?vid=c5e37bd6-6f81-4cf3-b74b-87c0ce98b56a","ios":"levelo://app?vid=c5e37bd6-6f81-4cf3-b74b-87c0ce98b56a"},"vehicle_type_id":"4","last_reported":1705745227,"current_range_meters":16400,"station_id":"ce4bgth2rcd13ifvqch0","pricing_plan_id":"free"},{"bike_id":"938dfd92-0f93-4c4a-ba46-566922b6b1b2","system_id":"levelo_inurba_marseille","lat":43.317075,"lon":5.377367,"is_reserved":false,"is_disabled":false,"rental_uris":{"android":"levelo://app?vid=938dfd92-0f93-4c4a-ba46-566922b6b1b2","ios":"levelo://app?vid=938dfd92-0f93-4c4a-ba46-566922b6b1b2"},"vehicle_type_id":"4","last_reported":1705745227,"current_range_meters":31200,"station_id":"ce4bgth2rcd13ifvqch0","pricing_plan_id":"free"},{"bike_id":"66560373-2471-45d6-8dc4-41527f5c79c5","system_id":"levelo_inurba_marseille","lat":43.317075,"lon":5.377367,"is_reserved":false,"is_disabled":false,"rental_uris":{"android":"levelo://app?vid=66560373-2471-45d6-8dc4-41527f5c79c5","ios":"levelo://app?vid=66560373-2471-45d6-8dc4-41527f5c79c5"},"vehicle_type_id":"4","last_reported":1705745227,"current_range_meters":30000,"station_id":"ce4bgth2rcd13ifvqch0","pricing_plan_id":"free"},{"bike_id":"aedad604-ac0b-48ec-82d5-031bae3e14af","system_id":"levelo_inurba_marseille","lat":43.303046,"lon":5.368981,"is_reserved":false,"is_disabled":false,"rental_uris":{"android":"levelo://app?vid=aedad604-ac0b-48ec-82d5-031bae3e14af","ios":"levelo://app?vid=aedad604-ac0b-48ec-82d5-031bae3e14af"},"vehicle_type_id":"4","last_reported":1705745227,"current_range_meters":29600,"station_id":"ce4bgqh2rcd13ifvqc5g","pricing_plan_id":"free"},{"bike_id":"2796bc32-19af-4e17-a02b-f966a4416035","system_id":"levelo_inurba_marseille","lat":43.303046,"lon":5.368981,"is_reserved":false,"is_disabled":false,"rental_uris":{"android":"levelo://app?vid=2796bc32-19af-4e17-a02b-f966a4416035","ios":"levelo://app?vid=2796bc32-19af-4e17-a02b-f966a4416035"},"vehicle_type_id":"4","last_reported":1705745227,"current_range_meters":26400,"station_id":"ce4bgqh2rcd13ifvqc5g","pricing_plan_id":"free"},{"bike_id":"b9d59533-d338-42c6-bdab-63d9590dad37","system_id":"levelo_inurba_marseille","lat":43.315293,"lon":5.380349,"is_reserved":false,"is_disabled":false,"rental_uris":{"android":"levelo://app?vid=b9d59533-d338-42c6-bdab-63d9590dad37","ios":"levelo://app?vid=b9d59533-d338-42c6-bdab-63d9590dad37"},"vehicle_type_id":"4","last_reported":1705745227,"current_range_meters":26400,"station_id":"ce4bhsp2rcd13ifvqi50","pricing_plan_id":"free"},{"bike_id":"c8b288ca-bda6-43e4-89f6-13188448b236","system_id":"levelo_inurba_marseille","lat":43.30813,"lon":5.38157,"is_reserved":false,"is_disabled":false,"rental_uris":{"android":"levelo://app?vid=c8b288ca-bda6-43e4-89f6-13188448b236","ios":"levelo://app?vid=c8b288ca-bda6-43e4-89f6-13188448b236"},"vehicle_type_id":"4","last_reported":1705745227,"current_range_meters":3200,"station_id":"ce4bgt12rcd13ifvqce0","pricing_plan_id":"free"},{"bike_id":"f3e25559-641d-43ff-8bad-8bbdd2de8656","system_id":"levelo_inurba_marseille","lat":43.304606,"lon":5.379026,"is_reserved":false,"is_disabled":false,"rental_uris":{"android":"levelo://app?vid=f3e25559-641d-43ff-8bad-8bbdd2de8656","ios":"levelo://app?vid=f3e25559-641d-43ff-8bad-8bbdd2de8656"},"vehicle_type_id":"4","last_reported":1705745227,"current_range_meters":13200,"station_id":"ce4bgup2rcd13ifvqcn0","pricing_plan_id":"free"},{"bike_id":"60c52e1d-67ed-4f20-b64b-6619b440e65b","system_id":"levelo_inurba_marseille","lat":43.304606,"lon":5.379026,"is_reserved":false,"is_disabled":false,"rental_uris":{"android":"levelo://app?vid=60c52e1d-67ed-4f20-b64b-6619b440e65b","ios":"levelo://app?vid=60c52e1d-67ed-4f20-b64b-6619b440e65b"},"vehicle_type_id":"4","last_reported":1705745227,"current_range_meters":22400,"station_id":"ce4bgup2rcd13ifvqcn0","pricing_plan_id":"free"},{"bike_id":"2af4cdff-297a-44e3-9a07-ba2d30c22d22","system_id":"levelo_inurba_marseille","lat":43.304606,"lon":5.379026,"is_reserved":false,"is_disabled":false,"rental_uris":{"android":"levelo://app?vid=2af4cdff-297a-44e3-9a07-ba2d30c22d22","ios":"levelo://app?vid=2af4cdff-297a-44e3-9a07-ba2d30c22d22"},"vehicle_type_id":"4","last_reported":1705745227,"current_range_meters":9200,"station_id":"ce4bgup2rcd13ifvqcn0","pricing_plan_id":"free"},{"bike_id":"b1a55dbb-81d4-44d0-926c-e68686d3ab73","system_id":"levelo_inurba_marseille","lat":43.304606,"lon":5.379026,"is_reserved":false,"is_disabled":false,"rental_uris":{"android":"levelo://app?vid=b1a55dbb-81d4-44d0-926c-e68686d3ab73","ios":"levelo://app?vid=b1a55dbb-81d4-44d0-926c-e68686d3ab73"},"vehicle_type_id":"4","last_reported":1705745227,"current_range_meters":7200,"station_id":"ce4bgup2rcd13ifvqcn0","pricing_plan_id":"free"},{"bike_id":"562e1cf6-595d-49e5-bca8-82de5cbd5879","system_id":"levelo_inurba_marseille","lat":43.304606,"lon":5.379026,"is_reserved":false,"is_disabled":false,"rental_uris":{"android":"levelo://app?vid=562e1cf6-595d-49e5-bca8-82de5cbd5879","ios":"levelo://app?vid=562e1cf6-595d-49e5-bca8-82de5cbd5879"},"vehicle_type_id":"4","last_reported":1705745227,"current_range_meters":31200,"station_id":"ce4bgup2rcd13ifvqcn0","pricing_plan_id":"free"},{"bike_id":"652261b3-248c-4d4e-9716-23b770cf1aad","system_id":"levelo_inurba_marseille","lat":43.304606,"lon":5.379026,"is_reserved":false,"is_disabled":false,"rental_uris":{"android":"levelo://app?vid=652261b3-248c-4d4e-9716-23b770cf1aad","ios":"levelo://app?vid=652261b3-248c-4d4e-9716-23b770cf1aad"},"vehicle_type_id":"4","last_reported":1705745227,"current_range_meters":21200,"station_id":"ce4bgup2rcd13ifvqcn0","pricing_plan_id":"free"},{"bike_id":"b01cadcc-83e1-4df9-be22-9baf76d0e74d","system_id":"levelo_inurba_marseille","lat":43.304606,"lon":5.379026,"is_reserved":false,"is_disabled":false,"rental_uris":{"android":"levelo://app?vid=b01cadcc-83e1-4df9-be22-9baf76d0e74d","ios":"levelo://app?vid=b01cadcc-83e1-4df9-be22-9baf76d0e74d"},"vehicle_type_id":"4","last_reported":1705745227,"current_range_meters":23600,"station_id":"ce4bgup2rcd13ifvqcn0","pricing_plan_id":"free"},{"bike_id":"746d20ed-1626-4b2f-a13a-68848de4068d","system_id":"levelo_inurba_marseille","lat":43.304606,"lon":5.379026,"is_reserved":false,"is_disabled":false,"rental_uris":{"android":"levelo://app?vid=746d20ed-1626-4b2f-a13a-68848de4068d","ios":"levelo://app?vid=746d20ed-1626-4b2f-a13a-68848de4068d"},"vehicle_type_id":"4","last_reported":1705745227,"current_range_meters":20800,"station_id":"ce4bgup2rcd13ifvqcn0","pricing_plan_id":"free"},{"bike_id":"e6e2ed41-5a46-45e7-8ec9-322b7a806a40","system_id":"levelo_inurba_marseille","lat":43.304606,"lon":5.379026,"is_reserved":false,"is_disabled":false,"rental_uris":{"android":"levelo://app?vid=e6e2ed41-5a46-45e7-8ec9-322b7a806a40","ios":"levelo://app?vid=e6e2ed41-5a46-45e7-8ec9-322b7a806a40"},"vehicle_type_id":"4","last_reported":1705745227,"current_range_meters":30000,"station_id":"ce4bgup2rcd13ifvqcn0","pricing_plan_id":"free"},{"bike_id":"eff41b95-25a4-4e1e-8ecb-1869328b807f","system_id":"levelo_inurba_marseille","lat":43.304651,"lon":5.378971,"is_reserved":false,"is_disabled":false,"rental_uris":{"android":"levelo://app?vid=eff41b95-25a4-4e1e-8ecb-1869328b807f","ios":"levelo://app?vid=eff41b95-25a4-4e1e-8ecb-1869328b807f"},"vehicle_type_id":"4","last_reported":1705745227,"current_range_meters":15200,"station_id":"ce4bgup2rcd13ifvqcn0","pricing_plan_id":"free"},{"bike_id":"4be25c77-8289-4aca-8e15-7ab64a4cd71c","system_id":"levelo_inurba_marseille","lat":43.304606,"lon":5.379026,"is_reserved":false,"is_disabled":false,"rental_uris":{"android":"levelo://app?vid=4be25c77-8289-4aca-8e15-7ab64a4cd71c","ios":"levelo://app?vid=4be25c77-8289-4aca-8e15-7ab64a4cd71c"},"vehicle_type_id":"4","last_reported":1705745227,"current_range_meters":18400,"station_id":"ce4bgup2rcd13ifvqcn0","pricing_plan_id":"free"},{"bike_id":"f42a44a3-f884-473e-978b-669e1b993619","system_id":"levelo_inurba_marseille","lat":43.30466,"lon":5.37902,"is_reserved":false,"is_disabled":false,"rental_uris":{"android":"levelo://app?vid=f42a44a3-f884-473e-978b-669e1b993619","ios":"levelo://app?vid=f42a44a3-f884-473e-978b-669e1b993619"},"vehicle_type_id":"4","last_reported":1705745227,"current_range_meters":6000,"station_id":"ce4bgup2rcd13ifvqcn0","pricing_plan_id":"free"},{"bike_id":"11d3237e-3602-47e7-9344-c3f7b11e7060","system_id":"levelo_inurba_marseille","lat":43.304606,"lon":5.379026,"is_reserved":false,"is_disabled":false,"rental_uris":{"android":"levelo://app?vid=11d3237e-3602-47e7-9344-c3f7b11e7060","ios":"levelo://app?vid=11d3237e-3602-47e7-9344-c3f7b11e7060"},"vehicle_type_id":"4","last_reported":1705745227,"current_range_meters":21600,"station_id":"ce4bgup2rcd13ifvqcn0","pricing_plan_id":"free"},{"bike_id":"cbddcd09-7bfe-4391-b6fa-7f87a06954b3","system_id":"levelo_inurba_marseille","lat":43.30469,"lon":5.37907,"is_reserved":false,"is_disabled":false,"rental_uris":{"android":"levelo://app?vid=cbddcd09-7bfe-4391-b6fa-7f87a06954b3","ios":"levelo://app?vid=cbddcd09-7bfe-4391-b6fa-7f87a06954b3"},"vehicle_type_id":"4","last_reported":1705745227,"current_range_meters":14800,"station_id":"ce4bgup2rcd13ifvqcn0","pricing_plan_id":"free"},{"bike_id":"bad782ab-1143-4fb1-98af-15a59b45c170","system_id":"levelo_inurba_marseille","lat":43.304606,"lon":5.379026,"is_reserved":false,"is_disabled":false,"rental_uris":{"android":"levelo://app?vid=bad782ab-1143-4fb1-98af-15a59b45c170","ios":"levelo://app?vid=bad782ab-1143-4fb1-98af-15a59b45c170"},"vehicle_type_id":"4","last_reported":1705745227,"current_range_meters":6400,"station_id":"ce4bgup2rcd13ifvqcn0","pricing_plan_id":"free"},{"bike_id":"83019155-fa8c-4b30-8cc1-9b109be7ec9d","system_id":"levelo_inurba_marseille","lat":43.304606,"lon":5.379026,"is_reserved":false,"is_disabled":false,"rental_uris":{"android":"levelo://app?vid=83019155-fa8c-4b30-8cc1-9b109be7ec9d","ios":"levelo://app?vid=83019155-fa8c-4b30-8cc1-9b109be7ec9d"},"vehicle_type_id":"4","last_reported":1705745227,"current_range_meters":27200,"station_id":"ce4bgup2rcd13ifvqcn0","pricing_plan_id":"free"},{"bike_id":"bbd26e89-970c-439d-8b2d-f50228bcded7","system_id":"levelo_inurba_marseille","lat":43.304606,"lon":5.379026,"is_reserved":false,"is_disabled":false,"rental_uris":{"android":"levelo://app?vid=bbd26e89-970c-439d-8b2d-f50228bcded7","ios":"levelo://app?vid=bbd26e89-970c-439d-8b2d-f50228bcded7"},"vehicle_type_id":"4","last_reported":1705745227,"current_range_meters":21600,"station_id":"ce4bgup2rcd13ifvqcn0","pricing_plan_id":"free"},{"bike_id":"5e5bf51b-7be7-464c-8201-ffb0f73081aa","system_id":"levelo_inurba_marseille","lat":43.3046,"lon":5.37902,"is_reserved":false,"is_disabled":false,"rental_uris":{"android":"levelo://app?vid=5e5bf51b-7be7-464c-8201-ffb0f73081aa","ios":"levelo://app?vid=5e5bf51b-7be7-464c-8201-ffb0f73081aa"},"vehicle_type_id":"4","last_reported":1705745227,"current_range_meters":14400,"station_id":"ce4bgup2rcd13ifvqcn0","pricing_plan_id":"free"},{"bike_id":"b5fcd907-5b1d-4929-84ba-ec8179a1762e","system_id":"levelo_inurba_marseille","lat":43.304606,"lon":5.379026,"is_reserved":false,"is_disabled":false,"rental_uris":{"android":"levelo://app?vid=b5fcd907-5b1d-4929-84ba-ec8179a1762e","ios":"levelo://app?vid=b5fcd907-5b1d-4929-84ba-ec8179a1762e"},"vehicle_type_id":"4","last_reported":1705745227,"current_range_meters":25200,"station_id":"ce4bgup2rcd13ifvqcn0","pricing_plan_id":"free"},{"bike_id":"25505857-3fe6-4b7d-944e-b6292636c972","system_id":"levelo_inurba_marseille","lat":43.3046,"lon":5.37903,"is_reserved":false,"is_disabled":false,"rental_uris":{"android":"levelo://app?vid=25505857-3fe6-4b7d-944e-b6292636c972","ios":"levelo://app?vid=25505857-3fe6-4b7d-944e-b6292636c972"},"vehicle_type_id":"4","last_reported":1705745227,"current_range_meters":31200,"station_id":"ce4bgup2rcd13ifvqcn0","pricing_plan_id":"free"},{"bike_id":"232fb117-276f-469a-b0f4-e83e829a79d1","system_id":"levelo_inurba_marseille","lat":43.304606,"lon":5.379026,"is_reserved":false,"is_disabled":false,"rental_uris":{"android":"levelo://app?vid=232fb117-276f-469a-b0f4-e83e829a79d1","ios":"levelo://app?vid=232fb117-276f-469a-b0f4-e83e829a79d1"},"vehicle_type_id":"4","last_reported":1705745227,"current_range_meters":4400,"station_id":"ce4bgup2rcd13ifvqcn0","pricing_plan_id":"free"},{"bike_id":"bad426a6-ddcd-4f28-9a5f-32bd80adda51","system_id":"levelo_inurba_marseille","lat":43.304606,"lon":5.379026,"is_reserved":false,"is_disabled":false,"rental_uris":{"android":"levelo://app?vid=bad426a6-ddcd-4f28-9a5f-32bd80adda51","ios":"levelo://app?vid=bad426a6-ddcd-4f28-9a5f-32bd80adda51"},"vehicle_type_id":"4","last_reported":1705745227,"current_range_meters":11200,"station_id":"ce4bgup2rcd13ifvqcn0","pricing_plan_id":"free"},{"bike_id":"c7d678ca-5190-4aab-9b8d-cdb0cac2118f","system_id":"levelo_inurba_marseille","lat":43.324771,"lon":5.36557,"is_reserved":false,"is_disabled":false,"rental_uris":{"android":"levelo://app?vid=c7d678ca-5190-4aab-9b8d-cdb0cac2118f","ios":"levelo://app?vid=c7d678ca-5190-4aab-9b8d-cdb0cac2118f"},"vehicle_type_id":"4","last_reported":1705745227,"current_range_meters":14000,"station_id":"ce4bhs12rcd13ifvqhvg","pricing_plan_id":"free"},{"bike_id":"473641ac-6aae-4372-b0d6-cad5571f515f","system_id":"levelo_inurba_marseille","lat":43.324771,"lon":5.36557,"is_reserved":false,"is_disabled":false,"rental_uris":{"android":"levelo://app?vid=473641ac-6aae-4372-b0d6-cad5571f515f","ios":"levelo://app?vid=473641ac-6aae-4372-b0d6-cad5571f515f"},"vehicle_type_id":"4","last_reported":1705745227,"current_range_meters":4400,"station_id":"ce4bhs12rcd13ifvqhvg","pricing_plan_id":"free"},{"bike_id":"2179bf7d-2ef3-478f-ab07-0d1474ed1fd2","system_id":"levelo_inurba_marseille","lat":43.324816,"lon":5.365731,"is_reserved":false,"is_disabled":false,"rental_uris":{"android":"levelo://app?vid=2179bf7d-2ef3-478f-ab07-0d1474ed1fd2","ios":"levelo://app?vid=2179bf7d-2ef3-478f-ab07-0d1474ed1fd2"},"vehicle_type_id":"4","last_reported":1705745227,"current_range_meters":27600,"station_id":"ce4bhs12rcd13ifvqhvg","pricing_plan_id":"free"},{"bike_id":"71a126c7-b719-426c-b069-4af1d4a5ba47","system_id":"levelo_inurba_marseille","lat":43.324817,"lon":5.365659,"is_reserved":false,"is_disabled":false,"rental_uris":{"android":"levelo://app?vid=71a126c7-b719-426c-b069-4af1d4a5ba47","ios":"levelo://app?vid=71a126c7-b719-426c-b069-4af1d4a5ba47"},"vehicle_type_id":"4","last_reported":1705745227,"current_range_meters":30400,"station_id":"ce4bhs12rcd13ifvqhvg","pricing_plan_id":"free"},{"bike_id":"303265ce-08f1-4bc2-afd3-0425b4b00f8f","system_id":"levelo_inurba_marseille","lat":43.32483,"lon":5.365675,"is_reserved":false,"is_disabled":false,"rental_uris":{"android":"levelo://app?vid=303265ce-08f1-4bc2-afd3-0425b4b00f8f","ios":"levelo://app?vid=303265ce-08f1-4bc2-afd3-0425b4b00f8f"},"vehicle_type_id":"4","last_reported":1705745227,"current_range_meters":17200,"station_id":"ce4bhs12rcd13ifvqhvg","pricing_plan_id":"free"},{"bike_id":"bc5f05ec-9200-4b4a-bb5c-8c7a1a0d0ebb","system_id":"levelo_inurba_marseille","lat":43.324771,"lon":5.36557,"is_reserved":false,"is_disabled":false,"rental_uris":{"android":"levelo://app?vid=bc5f05ec-9200-4b4a-bb5c-8c7a1a0d0ebb","ios":"levelo://app?vid=bc5f05ec-9200-4b4a-bb5c-8c7a1a0d0ebb"},"vehicle_type_id":"4","last_reported":1705745227,"current_range_meters":5200,"station_id":"ce4bhs12rcd13ifvqhvg","pricing_plan_id":"free"},{"bike_id":"3cb5ad2b-e743-4194-9d67-007686b421e8","system_id":"levelo_inurba_marseille","lat":43.324771,"lon":5.36557,"is_reserved":false,"is_disabled":false,"rental_uris":{"android":"levelo://app?vid=3cb5ad2b-e743-4194-9d67-007686b421e8","ios":"levelo://app?vid=3cb5ad2b-e743-4194-9d67-007686b421e8"},"vehicle_type_id":"4","last_reported":1705745227,"current_range_meters":17200,"station_id":"ce4bhs12rcd13ifvqhvg","pricing_plan_id":"free"},{"bike_id":"d3c12c07-9adf-4ee9-a278-dd4a66fbaa07","system_id":"levelo_inurba_marseille","lat":43.324836,"lon":5.36568,"is_reserved":false,"is_disabled":false,"rental_uris":{"android":"levelo://app?vid=d3c12c07-9adf-4ee9-a278-dd4a66fbaa07","ios":"levelo://app?vid=d3c12c07-9adf-4ee9-a278-dd4a66fbaa07"},"vehicle_type_id":"4","last_reported":1705745227,"current_range_meters":12000,"station_id":"ce4bhs12rcd13ifvqhvg","pricing_plan_id":"free"},{"bike_id":"d655f5bb-ed30-48d1-8fea-b10c22e797ad","system_id":"levelo_inurba_marseille","lat":43.324771,"lon":5.36557,"is_reserved":false,"is_disabled":false,"rental_uris":{"android":"levelo://app?vid=d655f5bb-ed30-48d1-8fea-b10c22e797ad","ios":"levelo://app?vid=d655f5bb-ed30-48d1-8fea-b10c22e797ad"},"vehicle_type_id":"4","last_reported":1705745227,"current_range_meters":16000,"station_id":"ce4bhs12rcd13ifvqhvg","pricing_plan_id":"free"},{"bike_id":"2c7b11b2-aeb0-46dd-88cd-cd944730dc70","system_id":"levelo_inurba_marseille","lat":43.324879,"lon":5.365626,"is_reserved":false,"is_disabled":false,"rental_uris":{"android":"levelo://app?vid=2c7b11b2-aeb0-46dd-88cd-cd944730dc70","ios":"levelo://app?vid=2c7b11b2-aeb0-46dd-88cd-cd944730dc70"},"vehicle_type_id":"4","last_reported":1705745227,"current_range_meters":9200,"station_id":"ce4bhs12rcd13ifvqhvg","pricing_plan_id":"free"},{"bike_id":"88737cc3-3bc5-4645-8a42-bbdaeeca7e95","system_id":"levelo_inurba_marseille","lat":43.30286,"lon":5.3769,"is_reserved":false,"is_disabled":false,"rental_uris":{"android":"levelo://app?vid=88737cc3-3bc5-4645-8a42-bbdaeeca7e95","ios":"levelo://app?vid=88737cc3-3bc5-4645-8a42-bbdaeeca7e95"},"vehicle_type_id":"4","last_reported":1705745227,"current_range_meters":24400,"station_id":"","pricing_plan_id":"free"},{"bike_id":"b43ae240-bba9-46cf-9146-05edf6ed1d8f","system_id":"levelo_inurba_marseille","lat":43.302841,"lon":5.376964,"is_reserved":false,"is_disabled":false,"rental_uris":{"android":"levelo://app?vid=b43ae240-bba9-46cf-9146-05edf6ed1d8f","ios":"levelo://app?vid=b43ae240-bba9-46cf-9146-05edf6ed1d8f"},"vehicle_type_id":"4","last_reported":1705745227,"current_range_meters":22400,"station_id":"","pricing_plan_id":"free"},{"bike_id":"82a76316-54cd-4c1a-8033-6ca575882da5","system_id":"levelo_inurba_marseille","lat":43.302791,"lon":5.376906,"is_reserved":false,"is_disabled":false,"rental_uris":{"android":"levelo://app?vid=82a76316-54cd-4c1a-8033-6ca575882da5","ios":"levelo://app?vid=82a76316-54cd-4c1a-8033-6ca575882da5"},"vehicle_type_id":"4","last_reported":1705745227,"current_range_meters":12000,"station_id":"","pricing_plan_id":"free"},{"bike_id":"1191badf-91f6-4e14-9e9d-f57c35aabf1f","system_id":"levelo_inurba_marseille","lat":43.302818,"lon":5.377017,"is_reserved":false,"is_disabled":false,"rental_uris":{"android":"levelo://app?vid=1191badf-91f6-4e14-9e9d-f57c35aabf1f","ios":"levelo://app?vid=1191badf-91f6-4e14-9e9d-f57c35aabf1f"},"vehicle_type_id":"4","last_reported":1705745227,"current_range_meters":21200,"station_id":"","pricing_plan_id":"free"},{"bike_id":"66f21602-ca63-45eb-bdfd-12a71693adee","system_id":"levelo_inurba_marseille","lat":43.302787,"lon":5.376983,"is_reserved":false,"is_disabled":false,"rental_uris":{"android":"levelo://app?vid=66f21602-ca63-45eb-bdfd-12a71693adee","ios":"levelo://app?vid=66f21602-ca63-45eb-bdfd-12a71693adee"},"vehicle_type_id":"4","last_reported":1705745227,"current_range_meters":6800,"station_id":"","pricing_plan_id":"free"},{"bike_id":"5a1e9115-f58a-47ec-8f1e-849e81b6a87d","system_id":"levelo_inurba_marseille","lat":43.3028,"lon":5.37701,"is_reserved":false,"is_disabled":false,"rental_uris":{"android":"levelo://app?vid=5a1e9115-f58a-47ec-8f1e-849e81b6a87d","ios":"levelo://app?vid=5a1e9115-f58a-47ec-8f1e-849e81b6a87d"},"vehicle_type_id":"4","last_reported":1705745227,"current_range_meters":3600,"station_id":"","pricing_plan_id":"free"},{"bike_id":"6b8e4129-7a53-4397-bcc3-294ab5d1f0cd","system_id":"levelo_inurba_marseille","lat":43.30277,"lon":5.377028,"is_reserved":false,"is_disabled":false,"rental_uris":{"android":"levelo://app?vid=6b8e4129-7a53-4397-bcc3-294ab5d1f0cd","ios":"levelo://app?vid=6b8e4129-7a53-4397-bcc3-294ab5d1f0cd"},"vehicle_type_id":"4","last_reported":1705745227,"current_range_meters":22000,"station_id":"","pricing_plan_id":"free"},{"bike_id":"9ebd38cf-b1cf-4a04-928d-5f1ff53349f7","system_id":"levelo_inurba_marseille","lat":43.30143,"lon":5.37413,"is_reserved":false,"is_disabled":false,"rental_uris":{"android":"levelo://app?vid=9ebd38cf-b1cf-4a04-928d-5f1ff53349f7","ios":"levelo://app?vid=9ebd38cf-b1cf-4a04-928d-5f1ff53349f7"},"vehicle_type_id":"4","last_reported":1705745227,"current_range_meters":24400,"station_id":"ce4bgs92rcd13ifvqcc0","pricing_plan_id":"free"},{"bike_id":"99ff9d4c-8cdc-4f13-85d3-414da73ba14b","system_id":"levelo_inurba_marseille","lat":43.301429,"lon":5.37413,"is_reserved":false,"is_disabled":false,"rental_uris":{"android":"levelo://app?vid=99ff9d4c-8cdc-4f13-85d3-414da73ba14b","ios":"levelo://app?vid=99ff9d4c-8cdc-4f13-85d3-414da73ba14b"},"vehicle_type_id":"4","last_reported":1705745227,"current_range_meters":23600,"station_id":"ce4bgs92rcd13ifvqcc0","pricing_plan_id":"free"},{"bike_id":"018de736-3b08-4833-b5d0-4b9ccf8f2ecd","system_id":"levelo_inurba_marseille","lat":43.30143,"lon":5.37413,"is_reserved":false,"is_disabled":false,"rental_uris":{"android":"levelo://app?vid=018de736-3b08-4833-b5d0-4b9ccf8f2ecd","ios":"levelo://app?vid=018de736-3b08-4833-b5d0-4b9ccf8f2ecd"},"vehicle_type_id":"4","last_reported":1705745227,"current_range_meters":12400,"station_id":"ce4bgs92rcd13ifvqcc0","pricing_plan_id":"free"},{"bike_id":"a5605478-720f-48fe-b19d-580b9c358f06","system_id":"levelo_inurba_marseille","lat":43.319935,"lon":5.381699,"is_reserved":false,"is_disabled":false,"rental_uris":{"android":"levelo://app?vid=a5605478-720f-48fe-b19d-580b9c358f06","ios":"levelo://app?vid=a5605478-720f-48fe-b19d-580b9c358f06"},"vehicle_type_id":"4","last_reported":1705745227,"current_range_meters":28000,"station_id":"ce4bhr12rcd13ifvqhpg","pricing_plan_id":"free"},{"bike_id":"bdf00670-0310-4df6-9dcf-31e8246a9b2f","system_id":"levelo_inurba_marseille","lat":43.319935,"lon":5.381699,"is_reserved":false,"is_disabled":false,"rental_uris":{"android":"levelo://app?vid=bdf00670-0310-4df6-9dcf-31e8246a9b2f","ios":"levelo://app?vid=bdf00670-0310-4df6-9dcf-31e8246a9b2f"},"vehicle_type_id":"4","last_reported":1705745227,"current_range_meters":27600,"station_id":"ce4bhr12rcd13ifvqhpg","pricing_plan_id":"free"},{"bike_id":"f0e6f343-5d11-4ccd-b521-fba2ec1496b9","system_id":"levelo_inurba_marseille","lat":43.319935,"lon":5.381699,"is_reserved":false,"is_disabled":false,"rental_uris":{"android":"levelo://app?vid=f0e6f343-5d11-4ccd-b521-fba2ec1496b9","ios":"levelo://app?vid=f0e6f343-5d11-4ccd-b521-fba2ec1496b9"},"vehicle_type_id":"4","last_reported":1705745227,"current_range_meters":10800,"station_id":"ce4bhr12rcd13ifvqhpg","pricing_plan_id":"free"},{"bike_id":"8e43a38a-4142-45af-822c-1e6dfeb97434","system_id":"levelo_inurba_marseille","lat":43.3137,"lon":5.38492,"is_reserved":false,"is_disabled":false,"rental_uris":{"android":"levelo://app?vid=8e43a38a-4142-45af-822c-1e6dfeb97434","ios":"levelo://app?vid=8e43a38a-4142-45af-822c-1e6dfeb97434"},"vehicle_type_id":"4","last_reported":1705745227,"current_range_meters":25200,"station_id":"ce4bgt92rcd13ifvqcf0","pricing_plan_id":"free"},{"bike_id":"eb72e076-40ab-41ef-80b3-16823c3d838f","system_id":"levelo_inurba_marseille","lat":43.313571,"lon":5.384829,"is_reserved":false,"is_disabled":false,"rental_uris":{"android":"levelo://app?vid=eb72e076-40ab-41ef-80b3-16823c3d838f","ios":"levelo://app?vid=eb72e076-40ab-41ef-80b3-16823c3d838f"},"vehicle_type_id":"4","last_reported":1705745227,"current_range_meters":27200,"station_id":"ce4bgt92rcd13ifvqcf0","pricing_plan_id":"free"},{"bike_id":"0eb10803-bf21-42fd-bb19-dbde9c199eff","system_id":"levelo_inurba_marseille","lat":43.31362,"lon":5.38494,"is_reserved":false,"is_disabled":false,"rental_uris":{"android":"levelo://app?vid=0eb10803-bf21-42fd-bb19-dbde9c199eff","ios":"levelo://app?vid=0eb10803-bf21-42fd-bb19-dbde9c199eff"},"vehicle_type_id":"4","last_reported":1705745227,"current_range_meters":2800,"station_id":"ce4bgt92rcd13ifvqcf0","pricing_plan_id":"free"},{"bike_id":"ed5dce76-6c46-4a91-962c-245a1ea3f9e8","system_id":"levelo_inurba_marseille","lat":43.299222,"lon":5.365554,"is_reserved":false,"is_disabled":false,"rental_uris":{"android":"levelo://app?vid=ed5dce76-6c46-4a91-962c-245a1ea3f9e8","ios":"levelo://app?vid=ed5dce76-6c46-4a91-962c-245a1ea3f9e8"},"vehicle_type_id":"4","last_reported":1705745227,"current_range_meters":5200,"station_id":"ce4bgm92rcd13ifvqbr0","pricing_plan_id":"free"},{"bike_id":"669a3505-15ab-42f4-bdde-f85bd9f88fff","system_id":"levelo_inurba_marseille","lat":43.299222,"lon":5.365554,"is_reserved":false,"is_disabled":false,"rental_uris":{"android":"levelo://app?vid=669a3505-15ab-42f4-bdde-f85bd9f88fff","ios":"levelo://app?vid=669a3505-15ab-42f4-bdde-f85bd9f88fff"},"vehicle_type_id":"4","last_reported":1705745227,"current_range_meters":12400,"station_id":"ce4bgm92rcd13ifvqbr0","pricing_plan_id":"free"},{"bike_id":"a5e581ae-f21e-41a1-89a8-077d1128d5aa","system_id":"levelo_inurba_marseille","lat":43.299222,"lon":5.365554,"is_reserved":false,"is_disabled":false,"rental_uris":{"android":"levelo://app?vid=a5e581ae-f21e-41a1-89a8-077d1128d5aa","ios":"levelo://app?vid=a5e581ae-f21e-41a1-89a8-077d1128d5aa"},"vehicle_type_id":"4","last_reported":1705745227,"current_range_meters":14400,"station_id":"ce4bgm92rcd13ifvqbr0","pricing_plan_id":"free"},{"bike_id":"2b239575-1e9b-4efd-b460-1f8035ca7f2a","system_id":"levelo_inurba_marseille","lat":43.299724,"lon":5.371829,"is_reserved":false,"is_disabled":false,"rental_uris":{"android":"levelo://app?vid=2b239575-1e9b-4efd-b460-1f8035ca7f2a","ios":"levelo://app?vid=2b239575-1e9b-4efd-b460-1f8035ca7f2a"},"vehicle_type_id":"4","last_reported":1705745227,"current_range_meters":30400,"station_id":"ce4bgr92rcd13ifvqc7g","pricing_plan_id":"free"},{"bike_id":"e2e042da-5404-46b2-9b18-68f8dc17adf0","system_id":"levelo_inurba_marseille","lat":43.31082,"lon":5.385211,"is_reserved":false,"is_disabled":false,"rental_uris":{"android":"levelo://app?vid=e2e042da-5404-46b2-9b18-68f8dc17adf0","ios":"levelo://app?vid=e2e042da-5404-46b2-9b18-68f8dc17adf0"},"vehicle_type_id":"4","last_reported":1705745227,"current_range_meters":3200,"station_id":"","pricing_plan_id":"free"},{"bike_id":"281c44ac-bce0-4c46-a193-2aa425f080fe","system_id":"levelo_inurba_marseille","lat":43.299724,"lon":5.371829,"is_reserved":false,"is_disabled":false,"rental_uris":{"android":"levelo://app?vid=281c44ac-bce0-4c46-a193-2aa425f080fe","ios":"levelo://app?vid=281c44ac-bce0-4c46-a193-2aa425f080fe"},"vehicle_type_id":"4","last_reported":1705745227,"current_range_meters":18400,"station_id":"ce4bgr92rcd13ifvqc7g","pricing_plan_id":"free"},{"bike_id":"2623460b-1d9e-448c-8df2-28523dcfe99b","system_id":"levelo_inurba_marseille","lat":43.298433,"lon":5.362774,"is_reserved":false,"is_disabled":false,"rental_uris":{"android":"levelo://app?vid=2623460b-1d9e-448c-8df2-28523dcfe99b","ios":"levelo://app?vid=2623460b-1d9e-448c-8df2-28523dcfe99b"},"vehicle_type_id":"4","last_reported":1705745227,"current_range_meters":21200,"station_id":"ce4bgpp2rcd13ifvqc3g","pricing_plan_id":"free"},{"bike_id":"6f40c0da-bd32-41eb-899a-0691c8d802b5","system_id":"levelo_inurba_marseille","lat":43.305364,"lon":5.384119,"is_reserved":false,"is_disabled":false,"rental_uris":{"android":"levelo://app?vid=6f40c0da-bd32-41eb-899a-0691c8d802b5","ios":"levelo://app?vid=6f40c0da-bd32-41eb-899a-0691c8d802b5"},"vehicle_type_id":"4","last_reported":1705745227,"current_range_meters":28400,"station_id":"ce4bgg92rcd13ifvqb30","pricing_plan_id":"free"},{"bike_id":"4b5ef168-adc2-4f46-a2cc-9aa69f5b2e2c","system_id":"levelo_inurba_marseille","lat":43.298433,"lon":5.362774,"is_reserved":false,"is_disabled":false,"rental_uris":{"android":"levelo://app?vid=4b5ef168-adc2-4f46-a2cc-9aa69f5b2e2c","ios":"levelo://app?vid=4b5ef168-adc2-4f46-a2cc-9aa69f5b2e2c"},"vehicle_type_id":"4","last_reported":1705745227,"current_range_meters":24000,"station_id":"ce4bgpp2rcd13ifvqc3g","pricing_plan_id":"free"},{"bike_id":"8cf6dd42-a5bb-4422-9e09-249b54d5f1b5","system_id":"levelo_inurba_marseille","lat":43.298433,"lon":5.362774,"is_reserved":false,"is_disabled":false,"rental_uris":{"android":"levelo://app?vid=8cf6dd42-a5bb-4422-9e09-249b54d5f1b5","ios":"levelo://app?vid=8cf6dd42-a5bb-4422-9e09-249b54d5f1b5"},"vehicle_type_id":"4","last_reported":1705745227,"current_range_meters":21200,"station_id":"ce4bgpp2rcd13ifvqc3g","pricing_plan_id":"free"},{"bike_id":"251993f5-22c7-4a92-b13a-f40d8070d442","system_id":"levelo_inurba_marseille","lat":43.298433,"lon":5.362774,"is_reserved":false,"is_disabled":false,"rental_uris":{"android":"levelo://app?vid=251993f5-22c7-4a92-b13a-f40d8070d442","ios":"levelo://app?vid=251993f5-22c7-4a92-b13a-f40d8070d442"},"vehicle_type_id":"4","last_reported":1705745227,"current_range_meters":31200,"station_id":"ce4bgpp2rcd13ifvqc3g","pricing_plan_id":"free"},{"bike_id":"567654b0-e49e-4745-a438-43f8de2624e7","system_id":"levelo_inurba_marseille","lat":43.298433,"lon":5.362774,"is_reserved":false,"is_disabled":false,"rental_uris":{"android":"levelo://app?vid=567654b0-e49e-4745-a438-43f8de2624e7","ios":"levelo://app?vid=567654b0-e49e-4745-a438-43f8de2624e7"},"vehicle_type_id":"4","last_reported":1705745227,"current_range_meters":20400,"station_id":"ce4bgpp2rcd13ifvqc3g","pricing_plan_id":"free"},{"bike_id":"4c97b976-0ce6-49f2-981e-4334448fa3ae","system_id":"levelo_inurba_marseille","lat":43.299243,"lon":5.374807,"is_reserved":false,"is_disabled":false,"rental_uris":{"android":"levelo://app?vid=4c97b976-0ce6-49f2-981e-4334448fa3ae","ios":"levelo://app?vid=4c97b976-0ce6-49f2-981e-4334448fa3ae"},"vehicle_type_id":"4","last_reported":1705745227,"current_range_meters":15200,"station_id":"ce4bgjh2rcd13ifvqbg0","pricing_plan_id":"free"},{"bike_id":"b09a4324-cfc4-4154-8ef9-bc18e01025eb","system_id":"levelo_inurba_marseille","lat":43.299243,"lon":5.374807,"is_reserved":false,"is_disabled":false,"rental_uris":{"android":"levelo://app?vid=b09a4324-cfc4-4154-8ef9-bc18e01025eb","ios":"levelo://app?vid=b09a4324-cfc4-4154-8ef9-bc18e01025eb"},"vehicle_type_id":"4","last_reported":1705745227,"current_range_meters":20800,"station_id":"ce4bgjh2rcd13ifvqbg0","pricing_plan_id":"free"},{"bike_id":"4c7a1345-dbfa-4634-935f-458f191d5fae","system_id":"levelo_inurba_marseille","lat":43.297794,"lon":5.370888,"is_reserved":false,"is_disabled":false,"rental_uris":{"android":"levelo://app?vid=4c7a1345-dbfa-4634-935f-458f191d5fae","ios":"levelo://app?vid=4c7a1345-dbfa-4634-935f-458f191d5fae"},"vehicle_type_id":"4","last_reported":1705745227,"current_range_meters":26800,"station_id":"ce4bgop2rcd13ifvqc1g","pricing_plan_id":"free"},{"bike_id":"583c6f1a-e64f-4c9e-ac8b-28623b01e801","system_id":"levelo_inurba_marseille","lat":43.322872,"lon":5.382756,"is_reserved":false,"is_disabled":false,"rental_uris":{"android":"levelo://app?vid=583c6f1a-e64f-4c9e-ac8b-28623b01e801","ios":"levelo://app?vid=583c6f1a-e64f-4c9e-ac8b-28623b01e801"},"vehicle_type_id":"4","last_reported":1705745227,"current_range_meters":30400,"station_id":"ce4bhr12rcd13ifvqhqg","pricing_plan_id":"free"},{"bike_id":"34c8b400-5074-46e3-aa02-f5d274dfaa4f","system_id":"levelo_inurba_marseille","lat":43.322872,"lon":5.382756,"is_reserved":false,"is_disabled":false,"rental_uris":{"android":"levelo://app?vid=34c8b400-5074-46e3-aa02-f5d274dfaa4f","ios":"levelo://app?vid=34c8b400-5074-46e3-aa02-f5d274dfaa4f"},"vehicle_type_id":"4","last_reported":1705745227,"current_range_meters":26000,"station_id":"ce4bhr12rcd13ifvqhqg","pricing_plan_id":"free"},{"bike_id":"c3ab95e9-b05f-4b19-b4ee-7abea1f52c27","system_id":"levelo_inurba_marseille","lat":43.322872,"lon":5.382756,"is_reserved":false,"is_disabled":false,"rental_uris":{"android":"levelo://app?vid=c3ab95e9-b05f-4b19-b4ee-7abea1f52c27","ios":"levelo://app?vid=c3ab95e9-b05f-4b19-b4ee-7abea1f52c27"},"vehicle_type_id":"4","last_reported":1705745227,"current_range_meters":31200,"station_id":"ce4bhr12rcd13ifvqhqg","pricing_plan_id":"free"},{"bike_id":"c59e915a-05cb-49b2-8b19-dcae4465ebcc","system_id":"levelo_inurba_marseille","lat":43.322872,"lon":5.382756,"is_reserved":false,"is_disabled":false,"rental_uris":{"android":"levelo://app?vid=c59e915a-05cb-49b2-8b19-dcae4465ebcc","ios":"levelo://app?vid=c59e915a-05cb-49b2-8b19-dcae4465ebcc"},"vehicle_type_id":"4","last_reported":1705745227,"current_range_meters":23200,"station_id":"ce4bhr12rcd13ifvqhqg","pricing_plan_id":"free"},{"bike_id":"510e4003-ad50-4182-a4bb-6da1b111fff5","system_id":"levelo_inurba_marseille","lat":43.322872,"lon":5.382756,"is_reserved":false,"is_disabled":false,"rental_uris":{"android":"levelo://app?vid=510e4003-ad50-4182-a4bb-6da1b111fff5","ios":"levelo://app?vid=510e4003-ad50-4182-a4bb-6da1b111fff5"},"vehicle_type_id":"4","last_reported":1705745227,"current_range_meters":18000,"station_id":"ce4bhr12rcd13ifvqhqg","pricing_plan_id":"free"},{"bike_id":"217b56ce-f663-414b-bd80-2c68d6f3e28b","system_id":"levelo_inurba_marseille","lat":43.322872,"lon":5.382756,"is_reserved":false,"is_disabled":false,"rental_uris":{"android":"levelo://app?vid=217b56ce-f663-414b-bd80-2c68d6f3e28b","ios":"levelo://app?vid=217b56ce-f663-414b-bd80-2c68d6f3e28b"},"vehicle_type_id":"4","last_reported":1705745227,"current_range_meters":20800,"station_id":"ce4bhr12rcd13ifvqhqg","pricing_plan_id":"free"},{"bike_id":"afe2d6ba-ebda-4981-9104-c77037901f05","system_id":"levelo_inurba_marseille","lat":43.322872,"lon":5.382756,"is_reserved":false,"is_disabled":false,"rental_uris":{"android":"levelo://app?vid=afe2d6ba-ebda-4981-9104-c77037901f05","ios":"levelo://app?vid=afe2d6ba-ebda-4981-9104-c77037901f05"},"vehicle_type_id":"4","last_reported":1705745227,"current_range_meters":25600,"station_id":"ce4bhr12rcd13ifvqhqg","pricing_plan_id":"free"},{"bike_id":"6da9db5a-42ba-4fa8-afc9-4fdbb45498c1","system_id":"levelo_inurba_marseille","lat":43.328248,"lon":5.366754,"is_reserved":false,"is_disabled":false,"rental_uris":{"android":"levelo://app?vid=6da9db5a-42ba-4fa8-afc9-4fdbb45498c1","ios":"levelo://app?vid=6da9db5a-42ba-4fa8-afc9-4fdbb45498c1"},"vehicle_type_id":"4","last_reported":1705745227,"current_range_meters":16800,"station_id":"ce4bhs92rcd13ifvqi0g","pricing_plan_id":"free"},{"bike_id":"ea0178f3-2c6b-4af6-b062-91b0b8dde1df","system_id":"levelo_inurba_marseille","lat":43.328248,"lon":5.36675,"is_reserved":false,"is_disabled":false,"rental_uris":{"android":"levelo://app?vid=ea0178f3-2c6b-4af6-b062-91b0b8dde1df","ios":"levelo://app?vid=ea0178f3-2c6b-4af6-b062-91b0b8dde1df"},"vehicle_type_id":"4","last_reported":1705745227,"current_range_meters":24000,"station_id":"ce4bhs92rcd13ifvqi0g","pricing_plan_id":"free"},{"bike_id":"33a5b9b9-aec4-4925-974d-72730cfc5f44","system_id":"levelo_inurba_marseille","lat":43.32826,"lon":5.36671,"is_reserved":false,"is_disabled":false,"rental_uris":{"android":"levelo://app?vid=33a5b9b9-aec4-4925-974d-72730cfc5f44","ios":"levelo://app?vid=33a5b9b9-aec4-4925-974d-72730cfc5f44"},"vehicle_type_id":"4","last_reported":1705745227,"current_range_meters":14800,"station_id":"ce4bhs92rcd13ifvqi0g","pricing_plan_id":"free"},{"bike_id":"2aea99ef-6604-41e9-be87-22fe40b61b9c","system_id":"levelo_inurba_marseille","lat":43.328371,"lon":5.366909,"is_reserved":false,"is_disabled":false,"rental_uris":{"android":"levelo://app?vid=2aea99ef-6604-41e9-be87-22fe40b61b9c","ios":"levelo://app?vid=2aea99ef-6604-41e9-be87-22fe40b61b9c"},"vehicle_type_id":"4","last_reported":1705745227,"current_range_meters":15200,"station_id":"ce4bhs92rcd13ifvqi0g","pricing_plan_id":"free"},{"bike_id":"59148974-5dd5-4b80-aebd-ec12c23b58c1","system_id":"levelo_inurba_marseille","lat":43.32827,"lon":5.366751,"is_reserved":false,"is_disabled":false,"rental_uris":{"android":"levelo://app?vid=59148974-5dd5-4b80-aebd-ec12c23b58c1","ios":"levelo://app?vid=59148974-5dd5-4b80-aebd-ec12c23b58c1"},"vehicle_type_id":"4","last_reported":1705745227,"current_range_meters":5600,"station_id":"ce4bhs92rcd13ifvqi0g","pricing_plan_id":"free"},{"bike_id":"85cedcff-9e9a-415d-8415-195178ea3cb7","system_id":"levelo_inurba_marseille","lat":43.328277,"lon":5.366867,"is_reserved":false,"is_disabled":false,"rental_uris":{"android":"levelo://app?vid=85cedcff-9e9a-415d-8415-195178ea3cb7","ios":"levelo://app?vid=85cedcff-9e9a-415d-8415-195178ea3cb7"},"vehicle_type_id":"4","last_reported":1705745227,"current_range_meters":7200,"station_id":"ce4bhs92rcd13ifvqi0g","pricing_plan_id":"free"},{"bike_id":"2803fe27-a1ed-4e33-b01b-36cea3e87468","system_id":"levelo_inurba_marseille","lat":43.328279,"lon":5.36677,"is_reserved":false,"is_disabled":false,"rental_uris":{"android":"levelo://app?vid=2803fe27-a1ed-4e33-b01b-36cea3e87468","ios":"levelo://app?vid=2803fe27-a1ed-4e33-b01b-36cea3e87468"},"vehicle_type_id":"4","last_reported":1705745227,"current_range_meters":30000,"station_id":"ce4bhs92rcd13ifvqi0g","pricing_plan_id":"free"},{"bike_id":"02f97db8-1e1e-4f38-89f3-11868234f7c3","system_id":"levelo_inurba_marseille","lat":43.32828,"lon":5.36676,"is_reserved":false,"is_disabled":false,"rental_uris":{"android":"levelo://app?vid=02f97db8-1e1e-4f38-89f3-11868234f7c3","ios":"levelo://app?vid=02f97db8-1e1e-4f38-89f3-11868234f7c3"},"vehicle_type_id":"4","last_reported":1705745227,"current_range_meters":5200,"station_id":"ce4bhs92rcd13ifvqi0g","pricing_plan_id":"free"},{"bike_id":"2849c95b-f1a6-402d-aac7-80ea81f2feb2","system_id":"levelo_inurba_marseille","lat":43.32829,"lon":5.36676,"is_reserved":false,"is_disabled":false,"rental_uris":{"android":"levelo://app?vid=2849c95b-f1a6-402d-aac7-80ea81f2feb2","ios":"levelo://app?vid=2849c95b-f1a6-402d-aac7-80ea81f2feb2"},"vehicle_type_id":"4","last_reported":1705745227,"current_range_meters":22000,"station_id":"ce4bhs92rcd13ifvqi0g","pricing_plan_id":"free"},{"bike_id":"6b4ea496-3016-42db-af64-ba8beb6e73fc","system_id":"levelo_inurba_marseille","lat":43.328371,"lon":5.366909,"is_reserved":false,"is_disabled":false,"rental_uris":{"android":"levelo://app?vid=6b4ea496-3016-42db-af64-ba8beb6e73fc","ios":"levelo://app?vid=6b4ea496-3016-42db-af64-ba8beb6e73fc"},"vehicle_type_id":"4","last_reported":1705745227,"current_range_meters":10400,"station_id":"ce4bhs92rcd13ifvqi0g","pricing_plan_id":"free"},{"bike_id":"1782ad4d-7cbc-4ac0-af82-b65688e9d34c","system_id":"levelo_inurba_marseille","lat":43.328371,"lon":5.366909,"is_reserved":false,"is_disabled":false,"rental_uris":{"android":"levelo://app?vid=1782ad4d-7cbc-4ac0-af82-b65688e9d34c","ios":"levelo://app?vid=1782ad4d-7cbc-4ac0-af82-b65688e9d34c"},"vehicle_type_id":"4","last_reported":1705745227,"current_range_meters":14400,"station_id":"ce4bhs92rcd13ifvqi0g","pricing_plan_id":"free"},{"bike_id":"a53b6dde-9c97-4a96-897c-ee7f9265222d","system_id":"levelo_inurba_marseille","lat":43.328371,"lon":5.366909,"is_reserved":false,"is_disabled":false,"rental_uris":{"android":"levelo://app?vid=a53b6dde-9c97-4a96-897c-ee7f9265222d","ios":"levelo://app?vid=a53b6dde-9c97-4a96-897c-ee7f9265222d"},"vehicle_type_id":"4","last_reported":1705745227,"current_range_meters":8000,"station_id":"ce4bhs92rcd13ifvqi0g","pricing_plan_id":"free"},{"bike_id":"61a079af-f381-4861-a2d3-cb4721969f2e","system_id":"levelo_inurba_marseille","lat":43.297163,"lon":5.365866,"is_reserved":false,"is_disabled":false,"rental_uris":{"android":"levelo://app?vid=61a079af-f381-4861-a2d3-cb4721969f2e","ios":"levelo://app?vid=61a079af-f381-4861-a2d3-cb4721969f2e"},"vehicle_type_id":"4","last_reported":1705745227,"current_range_meters":28800,"station_id":"ce4bgn12rcd13ifvqbt0","pricing_plan_id":"free"},{"bike_id":"88638e12-da12-4596-b7e2-600ab2f62219","system_id":"levelo_inurba_marseille","lat":43.328371,"lon":5.366909,"is_reserved":false,"is_disabled":false,"rental_uris":{"android":"levelo://app?vid=88638e12-da12-4596-b7e2-600ab2f62219","ios":"levelo://app?vid=88638e12-da12-4596-b7e2-600ab2f62219"},"vehicle_type_id":"4","last_reported":1705745227,"current_range_meters":30000,"station_id":"ce4bhs92rcd13ifvqi0g","pricing_plan_id":"free"},{"bike_id":"38082c03-fac1-44d3-a79f-5142b4a113a9","system_id":"levelo_inurba_marseille","lat":43.328373,"lon":5.366902,"is_reserved":false,"is_disabled":false,"rental_uris":{"android":"levelo://app?vid=38082c03-fac1-44d3-a79f-5142b4a113a9","ios":"levelo://app?vid=38082c03-fac1-44d3-a79f-5142b4a113a9"},"vehicle_type_id":"4","last_reported":1705745227,"current_range_meters":10800,"station_id":"ce4bhs92rcd13ifvqi0g","pricing_plan_id":"free"},{"bike_id":"59c37962-b1e4-4b57-9527-e11199d8b1a3","system_id":"levelo_inurba_marseille","lat":43.297163,"lon":5.365866,"is_reserved":false,"is_disabled":false,"rental_uris":{"android":"levelo://app?vid=59c37962-b1e4-4b57-9527-e11199d8b1a3","ios":"levelo://app?vid=59c37962-b1e4-4b57-9527-e11199d8b1a3"},"vehicle_type_id":"4","last_reported":1705745227,"current_range_meters":29200,"station_id":"ce4bgn12rcd13ifvqbt0","pricing_plan_id":"free"},{"bike_id":"7c54614e-d6da-4359-a5b2-36b539e6cce7","system_id":"levelo_inurba_marseille","lat":43.2968,"lon":5.37291,"is_reserved":false,"is_disabled":false,"rental_uris":{"android":"levelo://app?vid=7c54614e-d6da-4359-a5b2-36b539e6cce7","ios":"levelo://app?vid=7c54614e-d6da-4359-a5b2-36b539e6cce7"},"vehicle_type_id":"4","last_reported":1705745227,"current_range_meters":26000,"station_id":"ce4bgk12rcd13ifvqbj0","pricing_plan_id":"free"},{"bike_id":"566d4f26-76b8-4fbb-acf6-a134bcfc1751","system_id":"levelo_inurba_marseille","lat":43.2968,"lon":5.37291,"is_reserved":false,"is_disabled":false,"rental_uris":{"android":"levelo://app?vid=566d4f26-76b8-4fbb-acf6-a134bcfc1751","ios":"levelo://app?vid=566d4f26-76b8-4fbb-acf6-a134bcfc1751"},"vehicle_type_id":"4","last_reported":1705745227,"current_range_meters":11600,"station_id":"ce4bgk12rcd13ifvqbj0","pricing_plan_id":"free"},{"bike_id":"e06ba539-68ef-4081-b628-aa3bd8e0a848","system_id":"levelo_inurba_marseille","lat":43.29573,"lon":5.367355,"is_reserved":false,"is_disabled":false,"rental_uris":{"android":"levelo://app?vid=e06ba539-68ef-4081-b628-aa3bd8e0a848","ios":"levelo://app?vid=e06ba539-68ef-4081-b628-aa3bd8e0a848"},"vehicle_type_id":"4","last_reported":1705745227,"current_range_meters":27600,"station_id":"ce4bgph2rcd13ifvqc2g","pricing_plan_id":"free"},{"bike_id":"b2f23863-de53-49c9-a116-7307fc7d4d38","system_id":"levelo_inurba_marseille","lat":43.29573,"lon":5.367355,"is_reserved":false,"is_disabled":false,"rental_uris":{"android":"levelo://app?vid=b2f23863-de53-49c9-a116-7307fc7d4d38","ios":"levelo://app?vid=b2f23863-de53-49c9-a116-7307fc7d4d38"},"vehicle_type_id":"4","last_reported":1705745227,"current_range_meters":28800,"station_id":"ce4bgph2rcd13ifvqc2g","pricing_plan_id":"free"},{"bike_id":"8e8ba750-c2e1-4b4b-8129-3ce41fd23746","system_id":"levelo_inurba_marseille","lat":43.29573,"lon":5.367355,"is_reserved":false,"is_disabled":false,"rental_uris":{"android":"levelo://app?vid=8e8ba750-c2e1-4b4b-8129-3ce41fd23746","ios":"levelo://app?vid=8e8ba750-c2e1-4b4b-8129-3ce41fd23746"},"vehicle_type_id":"4","last_reported":1705745227,"current_range_meters":29600,"station_id":"ce4bgph2rcd13ifvqc2g","pricing_plan_id":"free"},{"bike_id":"b0eb58b0-64d5-4e6b-a120-95bd571f61d3","system_id":"levelo_inurba_marseille","lat":43.29573,"lon":5.367355,"is_reserved":false,"is_disabled":false,"rental_uris":{"android":"levelo://app?vid=b0eb58b0-64d5-4e6b-a120-95bd571f61d3","ios":"levelo://app?vid=b0eb58b0-64d5-4e6b-a120-95bd571f61d3"},"vehicle_type_id":"4","last_reported":1705745227,"current_range_meters":27200,"station_id":"ce4bgph2rcd13ifvqc2g","pricing_plan_id":"free"},{"bike_id":"0138d845-e632-45f8-893b-4197fa3765d5","system_id":"levelo_inurba_marseille","lat":43.296129,"lon":5.370777,"is_reserved":false,"is_disabled":false,"rental_uris":{"android":"levelo://app?vid=0138d845-e632-45f8-893b-4197fa3765d5","ios":"levelo://app?vid=0138d845-e632-45f8-893b-4197fa3765d5"},"vehicle_type_id":"4","last_reported":1705745227,"current_range_meters":27600,"station_id":"ce4bgnh2rcd13ifvqc0g","pricing_plan_id":"free"},{"bike_id":"c94d72d7-5793-4ed1-bfcd-f8bff99e2ec9","system_id":"levelo_inurba_marseille","lat":43.29573,"lon":5.367355,"is_reserved":false,"is_disabled":false,"rental_uris":{"android":"levelo://app?vid=c94d72d7-5793-4ed1-bfcd-f8bff99e2ec9","ios":"levelo://app?vid=c94d72d7-5793-4ed1-bfcd-f8bff99e2ec9"},"vehicle_type_id":"4","last_reported":1705745227,"current_range_meters":20800,"station_id":"ce4bgph2rcd13ifvqc2g","pricing_plan_id":"free"},{"bike_id":"66d1ee0a-5ac4-4776-aaf0-db57e653d9e6","system_id":"levelo_inurba_marseille","lat":43.29573,"lon":5.367355,"is_reserved":false,"is_disabled":false,"rental_uris":{"android":"levelo://app?vid=66d1ee0a-5ac4-4776-aaf0-db57e653d9e6","ios":"levelo://app?vid=66d1ee0a-5ac4-4776-aaf0-db57e653d9e6"},"vehicle_type_id":"4","last_reported":1705745227,"current_range_meters":22400,"station_id":"ce4bgph2rcd13ifvqc2g","pricing_plan_id":"free"},{"bike_id":"50c7ac50-f5e2-42f5-a00a-f3530adbc5cd","system_id":"levelo_inurba_marseille","lat":43.29573,"lon":5.367355,"is_reserved":false,"is_disabled":false,"rental_uris":{"android":"levelo://app?vid=50c7ac50-f5e2-42f5-a00a-f3530adbc5cd","ios":"levelo://app?vid=50c7ac50-f5e2-42f5-a00a-f3530adbc5cd"},"vehicle_type_id":"4","last_reported":1705745227,"current_range_meters":30800,"station_id":"ce4bgph2rcd13ifvqc2g","pricing_plan_id":"free"},{"bike_id":"726a1789-c136-4895-92ac-58bd09f07405","system_id":"levelo_inurba_marseille","lat":43.296921,"lon":5.376579,"is_reserved":false,"is_disabled":false,"rental_uris":{"android":"levelo://app?vid=726a1789-c136-4895-92ac-58bd09f07405","ios":"levelo://app?vid=726a1789-c136-4895-92ac-58bd09f07405"},"vehicle_type_id":"4","last_reported":1705745227,"current_range_meters":27600,"station_id":"ce4bgkh2rcd13ifvqbl0","pricing_plan_id":"free"},{"bike_id":"367e76f8-1b16-42a7-83c7-fee6c1ccfb31","system_id":"levelo_inurba_marseille","lat":43.296921,"lon":5.376579,"is_reserved":false,"is_disabled":false,"rental_uris":{"android":"levelo://app?vid=367e76f8-1b16-42a7-83c7-fee6c1ccfb31","ios":"levelo://app?vid=367e76f8-1b16-42a7-83c7-fee6c1ccfb31"},"vehicle_type_id":"4","last_reported":1705745227,"current_range_meters":30400,"station_id":"ce4bgkh2rcd13ifvqbl0","pricing_plan_id":"free"},{"bike_id":"9b8735d0-8a05-403a-a2c7-be462eca7b46","system_id":"levelo_inurba_marseille","lat":43.296921,"lon":5.376579,"is_reserved":false,"is_disabled":false,"rental_uris":{"android":"levelo://app?vid=9b8735d0-8a05-403a-a2c7-be462eca7b46","ios":"levelo://app?vid=9b8735d0-8a05-403a-a2c7-be462eca7b46"},"vehicle_type_id":"4","last_reported":1705745227,"current_range_meters":20400,"station_id":"ce4bgkh2rcd13ifvqbl0","pricing_plan_id":"free"},{"bike_id":"f3568b4a-989e-4083-b472-9018d8a272ee","system_id":"levelo_inurba_marseille","lat":43.299028,"lon":5.381509,"is_reserved":false,"is_disabled":false,"rental_uris":{"android":"levelo://app?vid=f3568b4a-989e-4083-b472-9018d8a272ee","ios":"levelo://app?vid=f3568b4a-989e-4083-b472-9018d8a272ee"},"vehicle_type_id":"4","last_reported":1705745227,"current_range_meters":25200,"station_id":"ce4bgj12rcd13ifvqbc0","pricing_plan_id":"free"},{"bike_id":"064dca8e-3716-46b3-a192-8d59e2fe983e","system_id":"levelo_inurba_marseille","lat":43.29721,"lon":5.377025,"is_reserved":false,"is_disabled":false,"rental_uris":{"android":"levelo://app?vid=064dca8e-3716-46b3-a192-8d59e2fe983e","ios":"levelo://app?vid=064dca8e-3716-46b3-a192-8d59e2fe983e"},"vehicle_type_id":"4","last_reported":1705745227,"current_range_meters":16400,"station_id":"ce4bgkh2rcd13ifvqbl0","pricing_plan_id":"free"},{"bike_id":"156e5427-2593-4519-ac1d-be98b03b3fbb","system_id":"levelo_inurba_marseille","lat":43.296921,"lon":5.376579,"is_reserved":false,"is_disabled":false,"rental_uris":{"android":"levelo://app?vid=156e5427-2593-4519-ac1d-be98b03b3fbb","ios":"levelo://app?vid=156e5427-2593-4519-ac1d-be98b03b3fbb"},"vehicle_type_id":"4","last_reported":1705745227,"current_range_meters":12000,"station_id":"ce4bgkh2rcd13ifvqbl0","pricing_plan_id":"free"},{"bike_id":"a2a5a4c4-b210-4043-9213-bdb6592e083f","system_id":"levelo_inurba_marseille","lat":43.296921,"lon":5.376579,"is_reserved":false,"is_disabled":false,"rental_uris":{"android":"levelo://app?vid=a2a5a4c4-b210-4043-9213-bdb6592e083f","ios":"levelo://app?vid=a2a5a4c4-b210-4043-9213-bdb6592e083f"},"vehicle_type_id":"4","last_reported":1705745227,"current_range_meters":28000,"station_id":"ce4bgkh2rcd13ifvqbl0","pricing_plan_id":"free"},{"bike_id":"7e003220-bada-4d9f-aba2-0385e3a96c69","system_id":"levelo_inurba_marseille","lat":43.309589,"lon":5.390258,"is_reserved":false,"is_disabled":false,"rental_uris":{"android":"levelo://app?vid=7e003220-bada-4d9f-aba2-0385e3a96c69","ios":"levelo://app?vid=7e003220-bada-4d9f-aba2-0385e3a96c69"},"vehicle_type_id":"4","last_reported":1705745227,"current_range_meters":17200,"station_id":"ce4bgup2rcd13ifvqco0","pricing_plan_id":"free"},{"bike_id":"9315f9ec-ec07-4bc3-a0b0-ea0fb39081b3","system_id":"levelo_inurba_marseille","lat":43.296935,"lon":5.376544,"is_reserved":false,"is_disabled":false,"rental_uris":{"android":"levelo://app?vid=9315f9ec-ec07-4bc3-a0b0-ea0fb39081b3","ios":"levelo://app?vid=9315f9ec-ec07-4bc3-a0b0-ea0fb39081b3"},"vehicle_type_id":"4","last_reported":1705745227,"current_range_meters":18800,"station_id":"ce4bgkh2rcd13ifvqbl0","pricing_plan_id":"free"},{"bike_id":"fdd0e930-fc4d-4a74-9a3a-80614ba5a3c3","system_id":"levelo_inurba_marseille","lat":43.309589,"lon":5.390258,"is_reserved":false,"is_disabled":false,"rental_uris":{"android":"levelo://app?vid=fdd0e930-fc4d-4a74-9a3a-80614ba5a3c3","ios":"levelo://app?vid=fdd0e930-fc4d-4a74-9a3a-80614ba5a3c3"},"vehicle_type_id":"4","last_reported":1705745227,"current_range_meters":28400,"station_id":"ce4bgup2rcd13ifvqco0","pricing_plan_id":"free"},{"bike_id":"996e2c46-e333-44b3-97af-f7b61b69da24","system_id":"levelo_inurba_marseille","lat":43.309589,"lon":5.390258,"is_reserved":false,"is_disabled":false,"rental_uris":{"android":"levelo://app?vid=996e2c46-e333-44b3-97af-f7b61b69da24","ios":"levelo://app?vid=996e2c46-e333-44b3-97af-f7b61b69da24"},"vehicle_type_id":"4","last_reported":1705745227,"current_range_meters":24800,"station_id":"ce4bgup2rcd13ifvqco0","pricing_plan_id":"free"},{"bike_id":"2537991d-d26b-4226-9432-75a283707c74","system_id":"levelo_inurba_marseille","lat":43.296921,"lon":5.376579,"is_reserved":false,"is_disabled":false,"rental_uris":{"android":"levelo://app?vid=2537991d-d26b-4226-9432-75a283707c74","ios":"levelo://app?vid=2537991d-d26b-4226-9432-75a283707c74"},"vehicle_type_id":"4","last_reported":1705745227,"current_range_meters":24000,"station_id":"ce4bgkh2rcd13ifvqbl0","pricing_plan_id":"free"},{"bike_id":"f632f883-e115-437b-afcc-b2fbbb7f2851","system_id":"levelo_inurba_marseille","lat":43.317557,"lon":5.390173,"is_reserved":false,"is_disabled":false,"rental_uris":{"android":"levelo://app?vid=f632f883-e115-437b-afcc-b2fbbb7f2851","ios":"levelo://app?vid=f632f883-e115-437b-afcc-b2fbbb7f2851"},"vehicle_type_id":"4","last_reported":1705745227,"current_range_meters":30800,"station_id":"ce4bhqp2rcd13ifvqhng","pricing_plan_id":"free"},{"bike_id":"a276cda9-8631-45d8-bc16-95776dbb0d8a","system_id":"levelo_inurba_marseille","lat":43.298413,"lon":5.380852,"is_reserved":false,"is_disabled":false,"rental_uris":{"android":"levelo://app?vid=a276cda9-8631-45d8-bc16-95776dbb0d8a","ios":"levelo://app?vid=a276cda9-8631-45d8-bc16-95776dbb0d8a"},"vehicle_type_id":"4","last_reported":1705745227,"current_range_meters":26000,"station_id":"ce4bgip2rcd13ifvqbb0","pricing_plan_id":"free"},{"bike_id":"4f1afcd2-16e8-43f8-8e1f-31650f950355","system_id":"levelo_inurba_marseille","lat":43.317557,"lon":5.390173,"is_reserved":false,"is_disabled":false,"rental_uris":{"android":"levelo://app?vid=4f1afcd2-16e8-43f8-8e1f-31650f950355","ios":"levelo://app?vid=4f1afcd2-16e8-43f8-8e1f-31650f950355"},"vehicle_type_id":"4","last_reported":1705745227,"current_range_meters":30400,"station_id":"ce4bhqp2rcd13ifvqhng","pricing_plan_id":"free"},{"bike_id":"1747a2df-9fdd-4485-8c0a-008d957b61d7","system_id":"levelo_inurba_marseille","lat":43.317557,"lon":5.390173,"is_reserved":false,"is_disabled":false,"rental_uris":{"android":"levelo://app?vid=1747a2df-9fdd-4485-8c0a-008d957b61d7","ios":"levelo://app?vid=1747a2df-9fdd-4485-8c0a-008d957b61d7"},"vehicle_type_id":"4","last_reported":1705745227,"current_range_meters":30000,"station_id":"ce4bhqp2rcd13ifvqhng","pricing_plan_id":"free"},{"bike_id":"090dfe68-71ae-4cb7-94e2-5ef8d2ca5427","system_id":"levelo_inurba_marseille","lat":43.317557,"lon":5.390173,"is_reserved":false,"is_disabled":false,"rental_uris":{"android":"levelo://app?vid=090dfe68-71ae-4cb7-94e2-5ef8d2ca5427","ios":"levelo://app?vid=090dfe68-71ae-4cb7-94e2-5ef8d2ca5427"},"vehicle_type_id":"4","last_reported":1705745227,"current_range_meters":16400,"station_id":"ce4bhqp2rcd13ifvqhng","pricing_plan_id":"free"},{"bike_id":"14e0d56e-cde5-4799-a904-73db61fcc0f7","system_id":"levelo_inurba_marseille","lat":43.317557,"lon":5.390173,"is_reserved":false,"is_disabled":false,"rental_uris":{"android":"levelo://app?vid=14e0d56e-cde5-4799-a904-73db61fcc0f7","ios":"levelo://app?vid=14e0d56e-cde5-4799-a904-73db61fcc0f7"},"vehicle_type_id":"4","last_reported":1705745227,"current_range_meters":21600,"station_id":"ce4bhqp2rcd13ifvqhng","pricing_plan_id":"free"},{"bike_id":"6337c53f-efba-450d-a9d4-376b8b1b93e4","system_id":"levelo_inurba_marseille","lat":43.317557,"lon":5.390173,"is_reserved":false,"is_disabled":false,"rental_uris":{"android":"levelo://app?vid=6337c53f-efba-450d-a9d4-376b8b1b93e4","ios":"levelo://app?vid=6337c53f-efba-450d-a9d4-376b8b1b93e4"},"vehicle_type_id":"4","last_reported":1705745227,"current_range_meters":30400,"station_id":"ce4bhqp2rcd13ifvqhng","pricing_plan_id":"free"},{"bike_id":"373ea65c-e78a-4be2-94a7-29cd8d9cc69e","system_id":"levelo_inurba_marseille","lat":43.298037,"lon":5.381066,"is_reserved":false,"is_disabled":false,"rental_uris":{"android":"levelo://app?vid=373ea65c-e78a-4be2-94a7-29cd8d9cc69e","ios":"levelo://app?vid=373ea65c-e78a-4be2-94a7-29cd8d9cc69e"},"vehicle_type_id":"4","last_reported":1705745227,"current_range_meters":30000,"station_id":"ce4bgip2rcd13ifvqbb0","pricing_plan_id":"free"},{"bike_id":"8f51d099-ced0-4d4f-8f22-1485e57af8a8","system_id":"levelo_inurba_marseille","lat":43.29797,"lon":5.38092,"is_reserved":false,"is_disabled":false,"rental_uris":{"android":"levelo://app?vid=8f51d099-ced0-4d4f-8f22-1485e57af8a8","ios":"levelo://app?vid=8f51d099-ced0-4d4f-8f22-1485e57af8a8"},"vehicle_type_id":"4","last_reported":1705745227,"current_range_meters":29600,"station_id":"ce4bgip2rcd13ifvqbb0","pricing_plan_id":"free"},{"bike_id":"9965fb5d-3b9c-4874-99e3-b909c0c9d211","system_id":"levelo_inurba_marseille","lat":43.29791,"lon":5.38085,"is_reserved":false,"is_disabled":false,"rental_uris":{"android":"levelo://app?vid=9965fb5d-3b9c-4874-99e3-b909c0c9d211","ios":"levelo://app?vid=9965fb5d-3b9c-4874-99e3-b909c0c9d211"},"vehicle_type_id":"4","last_reported":1705745227,"current_range_meters":26400,"station_id":"ce4bgip2rcd13ifvqbb0","pricing_plan_id":"free"},{"bike_id":"7174908b-795b-4dac-bf61-42f5e2374509","system_id":"levelo_inurba_marseille","lat":43.298037,"lon":5.381066,"is_reserved":false,"is_disabled":false,"rental_uris":{"android":"levelo://app?vid=7174908b-795b-4dac-bf61-42f5e2374509","ios":"levelo://app?vid=7174908b-795b-4dac-bf61-42f5e2374509"},"vehicle_type_id":"4","last_reported":1705745227,"current_range_meters":29200,"station_id":"ce4bgip2rcd13ifvqbb0","pricing_plan_id":"free"},{"bike_id":"ea9324c9-ec1e-4f8f-a301-14c082951a86","system_id":"levelo_inurba_marseille","lat":43.304329,"lon":5.388872,"is_reserved":false,"is_disabled":false,"rental_uris":{"android":"levelo://app?vid=ea9324c9-ec1e-4f8f-a301-14c082951a86","ios":"levelo://app?vid=ea9324c9-ec1e-4f8f-a301-14c082951a86"},"vehicle_type_id":"4","last_reported":1705745227,"current_range_meters":30400,"station_id":"ce4bgk12rcd13ifvqbi0","pricing_plan_id":"free"},{"bike_id":"173d7bb6-de9c-4a93-8fc4-a6f1d1fd8573","system_id":"levelo_inurba_marseille","lat":43.304343,"lon":5.388924,"is_reserved":false,"is_disabled":false,"rental_uris":{"android":"levelo://app?vid=173d7bb6-de9c-4a93-8fc4-a6f1d1fd8573","ios":"levelo://app?vid=173d7bb6-de9c-4a93-8fc4-a6f1d1fd8573"},"vehicle_type_id":"4","last_reported":1705745227,"current_range_meters":30000,"station_id":"ce4bgk12rcd13ifvqbi0","pricing_plan_id":"free"},{"bike_id":"1c03abb0-d853-4cfd-8d88-4a75a1748e76","system_id":"levelo_inurba_marseille","lat":43.304274,"lon":5.388873,"is_reserved":false,"is_disabled":false,"rental_uris":{"android":"levelo://app?vid=1c03abb0-d853-4cfd-8d88-4a75a1748e76","ios":"levelo://app?vid=1c03abb0-d853-4cfd-8d88-4a75a1748e76"},"vehicle_type_id":"4","last_reported":1705745227,"current_range_meters":15200,"station_id":"ce4bgk12rcd13ifvqbi0","pricing_plan_id":"free"},{"bike_id":"4b97aaa2-d997-4f16-8bde-e2a337a61cd5","system_id":"levelo_inurba_marseille","lat":43.296277,"lon":5.377108,"is_reserved":false,"is_disabled":false,"rental_uris":{"android":"levelo://app?vid=4b97aaa2-d997-4f16-8bde-e2a337a61cd5","ios":"levelo://app?vid=4b97aaa2-d997-4f16-8bde-e2a337a61cd5"},"vehicle_type_id":"4","last_reported":1705745227,"current_range_meters":11200,"station_id":"ce4bgi92rcd13ifvqb90","pricing_plan_id":"free"},{"bike_id":"37a5c604-f37c-4476-aedb-fc515e5f9066","system_id":"levelo_inurba_marseille","lat":43.295748,"lon":5.37522,"is_reserved":false,"is_disabled":false,"rental_uris":{"android":"levelo://app?vid=37a5c604-f37c-4476-aedb-fc515e5f9066","ios":"levelo://app?vid=37a5c604-f37c-4476-aedb-fc515e5f9066"},"vehicle_type_id":"4","last_reported":1705745227,"current_range_meters":10800,"station_id":"ce4bgh92rcd13ifvqb50","pricing_plan_id":"free"},{"bike_id":"60d1658e-316c-4d6d-a4b3-45a7b00a9fd2","system_id":"levelo_inurba_marseille","lat":43.295748,"lon":5.37522,"is_reserved":false,"is_disabled":false,"rental_uris":{"android":"levelo://app?vid=60d1658e-316c-4d6d-a4b3-45a7b00a9fd2","ios":"levelo://app?vid=60d1658e-316c-4d6d-a4b3-45a7b00a9fd2"},"vehicle_type_id":"4","last_reported":1705745227,"current_range_meters":22800,"station_id":"ce4bgh92rcd13ifvqb50","pricing_plan_id":"free"},{"bike_id":"a9f958e7-f562-4224-b870-061448a064c0","system_id":"levelo_inurba_marseille","lat":43.295748,"lon":5.37522,"is_reserved":false,"is_disabled":false,"rental_uris":{"android":"levelo://app?vid=a9f958e7-f562-4224-b870-061448a064c0","ios":"levelo://app?vid=a9f958e7-f562-4224-b870-061448a064c0"},"vehicle_type_id":"4","last_reported":1705745227,"current_range_meters":27200,"station_id":"ce4bgh92rcd13ifvqb50","pricing_plan_id":"free"},{"bike_id":"ea625b05-1830-46b5-a54f-0efbad5865c9","system_id":"levelo_inurba_marseille","lat":43.296277,"lon":5.377108,"is_reserved":false,"is_disabled":false,"rental_uris":{"android":"levelo://app?vid=ea625b05-1830-46b5-a54f-0efbad5865c9","ios":"levelo://app?vid=ea625b05-1830-46b5-a54f-0efbad5865c9"},"vehicle_type_id":"4","last_reported":1705745227,"current_range_meters":28400,"station_id":"ce4bgi92rcd13ifvqb90","pricing_plan_id":"free"},{"bike_id":"b430ecee-a929-436a-8b59-3f2e0e611b24","system_id":"levelo_inurba_marseille","lat":43.296277,"lon":5.377108,"is_reserved":false,"is_disabled":false,"rental_uris":{"android":"levelo://app?vid=b430ecee-a929-436a-8b59-3f2e0e611b24","ios":"levelo://app?vid=b430ecee-a929-436a-8b59-3f2e0e611b24"},"vehicle_type_id":"4","last_reported":1705745227,"current_range_meters":30000,"station_id":"ce4bgi92rcd13ifvqb90","pricing_plan_id":"free"},{"bike_id":"b77529ec-7f6e-468d-9c3e-64b6f489d233","system_id":"levelo_inurba_marseille","lat":43.296277,"lon":5.377108,"is_reserved":false,"is_disabled":false,"rental_uris":{"android":"levelo://app?vid=b77529ec-7f6e-468d-9c3e-64b6f489d233","ios":"levelo://app?vid=b77529ec-7f6e-468d-9c3e-64b6f489d233"},"vehicle_type_id":"4","last_reported":1705745227,"current_range_meters":28800,"station_id":"ce4bgi92rcd13ifvqb90","pricing_plan_id":"free"},{"bike_id":"a2e91bbe-9c27-4b3b-83fe-c6f88dd356da","system_id":"levelo_inurba_marseille","lat":43.296277,"lon":5.377108,"is_reserved":false,"is_disabled":false,"rental_uris":{"android":"levelo://app?vid=a2e91bbe-9c27-4b3b-83fe-c6f88dd356da","ios":"levelo://app?vid=a2e91bbe-9c27-4b3b-83fe-c6f88dd356da"},"vehicle_type_id":"4","last_reported":1705745227,"current_range_meters":26000,"station_id":"ce4bgi92rcd13ifvqb90","pricing_plan_id":"free"},{"bike_id":"28d09c60-c6fa-44b6-8171-e682605dfde4","system_id":"levelo_inurba_marseille","lat":43.296277,"lon":5.377108,"is_reserved":false,"is_disabled":false,"rental_uris":{"android":"levelo://app?vid=28d09c60-c6fa-44b6-8171-e682605dfde4","ios":"levelo://app?vid=28d09c60-c6fa-44b6-8171-e682605dfde4"},"vehicle_type_id":"4","last_reported":1705745227,"current_range_meters":31200,"station_id":"ce4bgi92rcd13ifvqb90","pricing_plan_id":"free"},{"bike_id":"44624f3c-3a22-4e98-9cf1-2e97a8e8e406","system_id":"levelo_inurba_marseille","lat":43.2953,"lon":5.37494,"is_reserved":false,"is_disabled":false,"rental_uris":{"android":"levelo://app?vid=44624f3c-3a22-4e98-9cf1-2e97a8e8e406","ios":"levelo://app?vid=44624f3c-3a22-4e98-9cf1-2e97a8e8e406"},"vehicle_type_id":"4","last_reported":1705745227,"current_range_meters":20800,"station_id":"ce4bgkp2rcd13ifvqbmg","pricing_plan_id":"free"},{"bike_id":"0917ecad-0dcd-4d3a-ae43-172962ed04cc","system_id":"levelo_inurba_marseille","lat":43.299774,"lon":5.38489,"is_reserved":false,"is_disabled":false,"rental_uris":{"android":"levelo://app?vid=0917ecad-0dcd-4d3a-ae43-172962ed04cc","ios":"levelo://app?vid=0917ecad-0dcd-4d3a-ae43-172962ed04cc"},"vehicle_type_id":"4","last_reported":1705745227,"current_range_meters":2800,"station_id":"ce4bgj92rcd13ifvqbd0","pricing_plan_id":"free"},{"bike_id":"48cc86b6-8060-49b4-a7ab-16c9eb4afafb","system_id":"levelo_inurba_marseille","lat":43.295279,"lon":5.375048,"is_reserved":false,"is_disabled":false,"rental_uris":{"android":"levelo://app?vid=48cc86b6-8060-49b4-a7ab-16c9eb4afafb","ios":"levelo://app?vid=48cc86b6-8060-49b4-a7ab-16c9eb4afafb"},"vehicle_type_id":"4","last_reported":1705745227,"current_range_meters":30400,"station_id":"ce4bgkp2rcd13ifvqbmg","pricing_plan_id":"free"},{"bike_id":"1e2bebaa-5b2b-4b3d-8de9-9bb1a219005c","system_id":"levelo_inurba_marseille","lat":43.299717,"lon":5.384845,"is_reserved":false,"is_disabled":false,"rental_uris":{"android":"levelo://app?vid=1e2bebaa-5b2b-4b3d-8de9-9bb1a219005c","ios":"levelo://app?vid=1e2bebaa-5b2b-4b3d-8de9-9bb1a219005c"},"vehicle_type_id":"4","last_reported":1705745227,"current_range_meters":21200,"station_id":"ce4bgj92rcd13ifvqbd0","pricing_plan_id":"free"},{"bike_id":"36826f60-4e9d-4c97-97a3-521a85462383","system_id":"levelo_inurba_marseille","lat":43.299724,"lon":5.384848,"is_reserved":false,"is_disabled":false,"rental_uris":{"android":"levelo://app?vid=36826f60-4e9d-4c97-97a3-521a85462383","ios":"levelo://app?vid=36826f60-4e9d-4c97-97a3-521a85462383"},"vehicle_type_id":"4","last_reported":1705745227,"current_range_meters":24800,"station_id":"ce4bgj92rcd13ifvqbd0","pricing_plan_id":"free"},{"bike_id":"0488a15c-5dec-4ef3-a79c-803c01b074d3","system_id":"levelo_inurba_marseille","lat":43.32367,"lon":5.388836,"is_reserved":false,"is_disabled":false,"rental_uris":{"android":"levelo://app?vid=0488a15c-5dec-4ef3-a79c-803c01b074d3","ios":"levelo://app?vid=0488a15c-5dec-4ef3-a79c-803c01b074d3"},"vehicle_type_id":"4","last_reported":1705745227,"current_range_meters":9600,"station_id":"ce4bhqp2rcd13ifvqhog","pricing_plan_id":"free"},{"bike_id":"f447befb-c79c-4267-9489-168af47e8654","system_id":"levelo_inurba_marseille","lat":43.32367,"lon":5.388836,"is_reserved":false,"is_disabled":false,"rental_uris":{"android":"levelo://app?vid=f447befb-c79c-4267-9489-168af47e8654","ios":"levelo://app?vid=f447befb-c79c-4267-9489-168af47e8654"},"vehicle_type_id":"4","last_reported":1705745227,"current_range_meters":2400,"station_id":"ce4bhqp2rcd13ifvqhog","pricing_plan_id":"free"},{"bike_id":"59749826-7bca-4f0e-ba0d-6be12868bdc4","system_id":"levelo_inurba_marseille","lat":43.32367,"lon":5.388836,"is_reserved":false,"is_disabled":false,"rental_uris":{"android":"levelo://app?vid=59749826-7bca-4f0e-ba0d-6be12868bdc4","ios":"levelo://app?vid=59749826-7bca-4f0e-ba0d-6be12868bdc4"},"vehicle_type_id":"4","last_reported":1705745227,"current_range_meters":26400,"station_id":"ce4bhqp2rcd13ifvqhog","pricing_plan_id":"free"},{"bike_id":"e488bc27-b4bd-4ecb-9994-ebd8743b5676","system_id":"levelo_inurba_marseille","lat":43.32367,"lon":5.388836,"is_reserved":false,"is_disabled":false,"rental_uris":{"android":"levelo://app?vid=e488bc27-b4bd-4ecb-9994-ebd8743b5676","ios":"levelo://app?vid=e488bc27-b4bd-4ecb-9994-ebd8743b5676"},"vehicle_type_id":"4","last_reported":1705745227,"current_range_meters":4800,"station_id":"ce4bhqp2rcd13ifvqhog","pricing_plan_id":"free"},{"bike_id":"7a77d777-cbf4-4854-b02f-5892bd6fc69d","system_id":"levelo_inurba_marseille","lat":43.32367,"lon":5.388836,"is_reserved":false,"is_disabled":false,"rental_uris":{"android":"levelo://app?vid=7a77d777-cbf4-4854-b02f-5892bd6fc69d","ios":"levelo://app?vid=7a77d777-cbf4-4854-b02f-5892bd6fc69d"},"vehicle_type_id":"4","last_reported":1705745227,"current_range_meters":18400,"station_id":"ce4bhqp2rcd13ifvqhog","pricing_plan_id":"free"},{"bike_id":"c68b6822-d442-4675-b9d4-8c9cc910fa25","system_id":"levelo_inurba_marseille","lat":43.32367,"lon":5.388836,"is_reserved":false,"is_disabled":false,"rental_uris":{"android":"levelo://app?vid=c68b6822-d442-4675-b9d4-8c9cc910fa25","ios":"levelo://app?vid=c68b6822-d442-4675-b9d4-8c9cc910fa25"},"vehicle_type_id":"4","last_reported":1705745227,"current_range_meters":26800,"station_id":"ce4bhqp2rcd13ifvqhog","pricing_plan_id":"free"},{"bike_id":"f380ca6f-7a3a-4d56-9fcc-106969c567da","system_id":"levelo_inurba_marseille","lat":43.32367,"lon":5.388836,"is_reserved":false,"is_disabled":false,"rental_uris":{"android":"levelo://app?vid=f380ca6f-7a3a-4d56-9fcc-106969c567da","ios":"levelo://app?vid=f380ca6f-7a3a-4d56-9fcc-106969c567da"},"vehicle_type_id":"4","last_reported":1705745227,"current_range_meters":17200,"station_id":"ce4bhqp2rcd13ifvqhog","pricing_plan_id":"free"},{"bike_id":"6d8e3355-7807-464a-9406-213ae2a6f253","system_id":"levelo_inurba_marseille","lat":43.29602,"lon":5.381084,"is_reserved":false,"is_disabled":false,"rental_uris":{"android":"levelo://app?vid=6d8e3355-7807-464a-9406-213ae2a6f253","ios":"levelo://app?vid=6d8e3355-7807-464a-9406-213ae2a6f253"},"vehicle_type_id":"4","last_reported":1705745227,"current_range_meters":30400,"station_id":"ce4bgl12rcd13ifvqbo0","pricing_plan_id":"free"},{"bike_id":"51870f2c-e63f-4dff-ae68-c89b1bde837d","system_id":"levelo_inurba_marseille","lat":43.292749,"lon":5.368398,"is_reserved":false,"is_disabled":false,"rental_uris":{"android":"levelo://app?vid=51870f2c-e63f-4dff-ae68-c89b1bde837d","ios":"levelo://app?vid=51870f2c-e63f-4dff-ae68-c89b1bde837d"},"vehicle_type_id":"4","last_reported":1705745227,"current_range_meters":24400,"station_id":"ce4bhbp2rcd13ifvqesg","pricing_plan_id":"free"},{"bike_id":"c6c8d4a9-35c6-4397-94f2-c8ae36bfc18b","system_id":"levelo_inurba_marseille","lat":43.292749,"lon":5.368402,"is_reserved":false,"is_disabled":false,"rental_uris":{"android":"levelo://app?vid=c6c8d4a9-35c6-4397-94f2-c8ae36bfc18b","ios":"levelo://app?vid=c6c8d4a9-35c6-4397-94f2-c8ae36bfc18b"},"vehicle_type_id":"4","last_reported":1705745227,"current_range_meters":15600,"station_id":"ce4bhbp2rcd13ifvqesg","pricing_plan_id":"free"},{"bike_id":"ecd86a3d-b4ad-4aff-aba8-74936427d574","system_id":"levelo_inurba_marseille","lat":43.292749,"lon":5.368402,"is_reserved":false,"is_disabled":false,"rental_uris":{"android":"levelo://app?vid=ecd86a3d-b4ad-4aff-aba8-74936427d574","ios":"levelo://app?vid=ecd86a3d-b4ad-4aff-aba8-74936427d574"},"vehicle_type_id":"4","last_reported":1705745227,"current_range_meters":400,"station_id":"ce4bhbp2rcd13ifvqesg","pricing_plan_id":"free"},{"bike_id":"b599350a-4205-4dd0-acde-d6546480204d","system_id":"levelo_inurba_marseille","lat":43.292749,"lon":5.368402,"is_reserved":false,"is_disabled":false,"rental_uris":{"android":"levelo://app?vid=b599350a-4205-4dd0-acde-d6546480204d","ios":"levelo://app?vid=b599350a-4205-4dd0-acde-d6546480204d"},"vehicle_type_id":"4","last_reported":1705745227,"current_range_meters":17600,"station_id":"ce4bhbp2rcd13ifvqesg","pricing_plan_id":"free"},{"bike_id":"5dfc6dd0-6e1b-4624-8fc0-de0f82267a61","system_id":"levelo_inurba_marseille","lat":43.292749,"lon":5.368402,"is_reserved":false,"is_disabled":false,"rental_uris":{"android":"levelo://app?vid=5dfc6dd0-6e1b-4624-8fc0-de0f82267a61","ios":"levelo://app?vid=5dfc6dd0-6e1b-4624-8fc0-de0f82267a61"},"vehicle_type_id":"4","last_reported":1705745227,"current_range_meters":18000,"station_id":"ce4bhbp2rcd13ifvqesg","pricing_plan_id":"free"},{"bike_id":"0ee9f1c7-d7db-4b64-8c65-caae4f805fcd","system_id":"levelo_inurba_marseille","lat":43.292749,"lon":5.368402,"is_reserved":false,"is_disabled":false,"rental_uris":{"android":"levelo://app?vid=0ee9f1c7-d7db-4b64-8c65-caae4f805fcd","ios":"levelo://app?vid=0ee9f1c7-d7db-4b64-8c65-caae4f805fcd"},"vehicle_type_id":"4","last_reported":1705745227,"current_range_meters":19600,"station_id":"ce4bhbp2rcd13ifvqesg","pricing_plan_id":"free"},{"bike_id":"f03f45d2-b8ac-4a24-a0b8-d0e47699734d","system_id":"levelo_inurba_marseille","lat":43.292749,"lon":5.368402,"is_reserved":false,"is_disabled":false,"rental_uris":{"android":"levelo://app?vid=f03f45d2-b8ac-4a24-a0b8-d0e47699734d","ios":"levelo://app?vid=f03f45d2-b8ac-4a24-a0b8-d0e47699734d"},"vehicle_type_id":"4","last_reported":1705745227,"current_range_meters":20800,"station_id":"ce4bhbp2rcd13ifvqesg","pricing_plan_id":"free"},{"bike_id":"50d4c0a3-3565-4e34-b087-c183ba27f241","system_id":"levelo_inurba_marseille","lat":43.293259,"lon":5.371586,"is_reserved":false,"is_disabled":false,"rental_uris":{"android":"levelo://app?vid=50d4c0a3-3565-4e34-b087-c183ba27f241","ios":"levelo://app?vid=50d4c0a3-3565-4e34-b087-c183ba27f241"},"vehicle_type_id":"4","last_reported":1705745227,"current_range_meters":13600,"station_id":"ce4bgh92rcd13ifvqb40","pricing_plan_id":"free"},{"bike_id":"6e129ad9-262c-4e8b-94e7-7fcbe3d674a8","system_id":"levelo_inurba_marseille","lat":43.293009,"lon":5.374584,"is_reserved":false,"is_disabled":false,"rental_uris":{"android":"levelo://app?vid=6e129ad9-262c-4e8b-94e7-7fcbe3d674a8","ios":"levelo://app?vid=6e129ad9-262c-4e8b-94e7-7fcbe3d674a8"},"vehicle_type_id":"4","last_reported":1705745227,"current_range_meters":16000,"station_id":"ce4bgi12rcd13ifvqb70","pricing_plan_id":"free"},{"bike_id":"a86cebcc-458f-44cb-9292-9321734dfccd","system_id":"levelo_inurba_marseille","lat":43.293009,"lon":5.374584,"is_reserved":false,"is_disabled":false,"rental_uris":{"android":"levelo://app?vid=a86cebcc-458f-44cb-9292-9321734dfccd","ios":"levelo://app?vid=a86cebcc-458f-44cb-9292-9321734dfccd"},"vehicle_type_id":"4","last_reported":1705745227,"current_range_meters":24800,"station_id":"ce4bgi12rcd13ifvqb70","pricing_plan_id":"free"},{"bike_id":"f4f3ff1f-24d2-4aff-8a96-1993745b522c","system_id":"levelo_inurba_marseille","lat":43.293009,"lon":5.374584,"is_reserved":false,"is_disabled":false,"rental_uris":{"android":"levelo://app?vid=f4f3ff1f-24d2-4aff-8a96-1993745b522c","ios":"levelo://app?vid=f4f3ff1f-24d2-4aff-8a96-1993745b522c"},"vehicle_type_id":"4","last_reported":1705745227,"current_range_meters":16400,"station_id":"ce4bgi12rcd13ifvqb70","pricing_plan_id":"free"},{"bike_id":"ecf2dc14-868a-43ee-9573-b8e1927b48a1","system_id":"levelo_inurba_marseille","lat":43.293009,"lon":5.374584,"is_reserved":false,"is_disabled":false,"rental_uris":{"android":"levelo://app?vid=ecf2dc14-868a-43ee-9573-b8e1927b48a1","ios":"levelo://app?vid=ecf2dc14-868a-43ee-9573-b8e1927b48a1"},"vehicle_type_id":"4","last_reported":1705745227,"current_range_meters":16800,"station_id":"ce4bgi12rcd13ifvqb70","pricing_plan_id":"free"},{"bike_id":"6b2e1ed7-bcc7-40f6-9ec1-4cacd80f2190","system_id":"levelo_inurba_marseille","lat":43.293009,"lon":5.374584,"is_reserved":false,"is_disabled":false,"rental_uris":{"android":"levelo://app?vid=6b2e1ed7-bcc7-40f6-9ec1-4cacd80f2190","ios":"levelo://app?vid=6b2e1ed7-bcc7-40f6-9ec1-4cacd80f2190"},"vehicle_type_id":"4","last_reported":1705745227,"current_range_meters":28400,"station_id":"ce4bgi12rcd13ifvqb70","pricing_plan_id":"free"},{"bike_id":"fb3d786b-8028-45f3-9821-bcc8c72b6056","system_id":"levelo_inurba_marseille","lat":43.293009,"lon":5.374584,"is_reserved":false,"is_disabled":false,"rental_uris":{"android":"levelo://app?vid=fb3d786b-8028-45f3-9821-bcc8c72b6056","ios":"levelo://app?vid=fb3d786b-8028-45f3-9821-bcc8c72b6056"},"vehicle_type_id":"4","last_reported":1705745227,"current_range_meters":28800,"station_id":"ce4bgi12rcd13ifvqb70","pricing_plan_id":"free"},{"bike_id":"8423b2bd-eb57-4b8e-aac3-92f89270a6b3","system_id":"levelo_inurba_marseille","lat":43.293009,"lon":5.374584,"is_reserved":false,"is_disabled":false,"rental_uris":{"android":"levelo://app?vid=8423b2bd-eb57-4b8e-aac3-92f89270a6b3","ios":"levelo://app?vid=8423b2bd-eb57-4b8e-aac3-92f89270a6b3"},"vehicle_type_id":"4","last_reported":1705745227,"current_range_meters":30000,"station_id":"ce4bgi12rcd13ifvqb70","pricing_plan_id":"free"},{"bike_id":"8b65ba66-dcb5-4f48-ae16-46806d67ba7f","system_id":"levelo_inurba_marseille","lat":43.293009,"lon":5.374584,"is_reserved":false,"is_disabled":false,"rental_uris":{"android":"levelo://app?vid=8b65ba66-dcb5-4f48-ae16-46806d67ba7f","ios":"levelo://app?vid=8b65ba66-dcb5-4f48-ae16-46806d67ba7f"},"vehicle_type_id":"4","last_reported":1705745227,"current_range_meters":15600,"station_id":"ce4bgi12rcd13ifvqb70","pricing_plan_id":"free"},{"bike_id":"5651f4e5-a01c-4237-926f-440bfceee6b3","system_id":"levelo_inurba_marseille","lat":43.293009,"lon":5.374584,"is_reserved":false,"is_disabled":false,"rental_uris":{"android":"levelo://app?vid=5651f4e5-a01c-4237-926f-440bfceee6b3","ios":"levelo://app?vid=5651f4e5-a01c-4237-926f-440bfceee6b3"},"vehicle_type_id":"4","last_reported":1705745227,"current_range_meters":12400,"station_id":"ce4bgi12rcd13ifvqb70","pricing_plan_id":"free"},{"bike_id":"ac1a492b-ae80-442c-ba08-1bfdd008278b","system_id":"levelo_inurba_marseille","lat":43.293009,"lon":5.374584,"is_reserved":false,"is_disabled":false,"rental_uris":{"android":"levelo://app?vid=ac1a492b-ae80-442c-ba08-1bfdd008278b","ios":"levelo://app?vid=ac1a492b-ae80-442c-ba08-1bfdd008278b"},"vehicle_type_id":"4","last_reported":1705745227,"current_range_meters":23600,"station_id":"ce4bgi12rcd13ifvqb70","pricing_plan_id":"free"},{"bike_id":"45bcf461-765d-465f-88db-1decbf85da29","system_id":"levelo_inurba_marseille","lat":43.293009,"lon":5.374584,"is_reserved":false,"is_disabled":false,"rental_uris":{"android":"levelo://app?vid=45bcf461-765d-465f-88db-1decbf85da29","ios":"levelo://app?vid=45bcf461-765d-465f-88db-1decbf85da29"},"vehicle_type_id":"4","last_reported":1705745227,"current_range_meters":23200,"station_id":"ce4bgi12rcd13ifvqb70","pricing_plan_id":"free"},{"bike_id":"7e31a0ea-e7ae-4399-af48-6d8152675145","system_id":"levelo_inurba_marseille","lat":43.293009,"lon":5.374584,"is_reserved":false,"is_disabled":false,"rental_uris":{"android":"levelo://app?vid=7e31a0ea-e7ae-4399-af48-6d8152675145","ios":"levelo://app?vid=7e31a0ea-e7ae-4399-af48-6d8152675145"},"vehicle_type_id":"4","last_reported":1705745227,"current_range_meters":27600,"station_id":"ce4bgi12rcd13ifvqb70","pricing_plan_id":"free"},{"bike_id":"24370401-5e3f-4c3a-9c48-1a49f089b023","system_id":"levelo_inurba_marseille","lat":43.293009,"lon":5.374584,"is_reserved":false,"is_disabled":false,"rental_uris":{"android":"levelo://app?vid=24370401-5e3f-4c3a-9c48-1a49f089b023","ios":"levelo://app?vid=24370401-5e3f-4c3a-9c48-1a49f089b023"},"vehicle_type_id":"4","last_reported":1705745227,"current_range_meters":26000,"station_id":"ce4bgi12rcd13ifvqb70","pricing_plan_id":"free"},{"bike_id":"596a1f38-692c-489d-9a17-894f678b8b0a","system_id":"levelo_inurba_marseille","lat":43.2936,"lon":5.37835,"is_reserved":false,"is_disabled":false,"rental_uris":{"android":"levelo://app?vid=596a1f38-692c-489d-9a17-894f678b8b0a","ios":"levelo://app?vid=596a1f38-692c-489d-9a17-894f678b8b0a"},"vehicle_type_id":"4","last_reported":1705745227,"current_range_meters":26800,"station_id":"ce4bgjh2rcd13ifvqbf0","pricing_plan_id":"free"},{"bike_id":"20724b45-a7d9-4e1a-a27d-ec0a3adfe242","system_id":"levelo_inurba_marseille","lat":43.2936,"lon":5.37835,"is_reserved":false,"is_disabled":false,"rental_uris":{"android":"levelo://app?vid=20724b45-a7d9-4e1a-a27d-ec0a3adfe242","ios":"levelo://app?vid=20724b45-a7d9-4e1a-a27d-ec0a3adfe242"},"vehicle_type_id":"4","last_reported":1705745227,"current_range_meters":31200,"station_id":"ce4bgjh2rcd13ifvqbf0","pricing_plan_id":"free"},{"bike_id":"f3df9dd1-411b-46fa-9c59-1710e5c7322e","system_id":"levelo_inurba_marseille","lat":43.2936,"lon":5.37835,"is_reserved":false,"is_disabled":false,"rental_uris":{"android":"levelo://app?vid=f3df9dd1-411b-46fa-9c59-1710e5c7322e","ios":"levelo://app?vid=f3df9dd1-411b-46fa-9c59-1710e5c7322e"},"vehicle_type_id":"4","last_reported":1705745227,"current_range_meters":26000,"station_id":"ce4bgjh2rcd13ifvqbf0","pricing_plan_id":"free"},{"bike_id":"eb3110ed-9807-4b28-9246-7e25fe173d6a","system_id":"levelo_inurba_marseille","lat":43.303002,"lon":5.392142,"is_reserved":false,"is_disabled":false,"rental_uris":{"android":"levelo://app?vid=eb3110ed-9807-4b28-9246-7e25fe173d6a","ios":"levelo://app?vid=eb3110ed-9807-4b28-9246-7e25fe173d6a"},"vehicle_type_id":"4","last_reported":1705745227,"current_range_meters":400,"station_id":"ce4bgkh2rcd13ifvqbk0","pricing_plan_id":"free"},{"bike_id":"3ad99bd0-387b-491f-ba88-5bea5206a3b7","system_id":"levelo_inurba_marseille","lat":43.2936,"lon":5.37835,"is_reserved":false,"is_disabled":false,"rental_uris":{"android":"levelo://app?vid=3ad99bd0-387b-491f-ba88-5bea5206a3b7","ios":"levelo://app?vid=3ad99bd0-387b-491f-ba88-5bea5206a3b7"},"vehicle_type_id":"4","last_reported":1705745227,"current_range_meters":18000,"station_id":"ce4bgjh2rcd13ifvqbf0","pricing_plan_id":"free"},{"bike_id":"b19eba1a-395a-4dd6-a323-c40839649745","system_id":"levelo_inurba_marseille","lat":43.2936,"lon":5.37835,"is_reserved":false,"is_disabled":false,"rental_uris":{"android":"levelo://app?vid=b19eba1a-395a-4dd6-a323-c40839649745","ios":"levelo://app?vid=b19eba1a-395a-4dd6-a323-c40839649745"},"vehicle_type_id":"4","last_reported":1705745227,"current_range_meters":30400,"station_id":"ce4bgjh2rcd13ifvqbf0","pricing_plan_id":"free"},{"bike_id":"a073940e-58d4-48ca-b886-3d12ee8d294b","system_id":"levelo_inurba_marseille","lat":43.292311,"lon":5.360731,"is_reserved":false,"is_disabled":false,"rental_uris":{"android":"levelo://app?vid=a073940e-58d4-48ca-b886-3d12ee8d294b","ios":"levelo://app?vid=a073940e-58d4-48ca-b886-3d12ee8d294b"},"vehicle_type_id":"4","last_reported":1705745227,"current_range_meters":30000,"station_id":"ce4bhbh2rcd13ifvqeqg","pricing_plan_id":"free"},{"bike_id":"9cefcf02-8ea6-4f78-99eb-c5fd73c5b84b","system_id":"levelo_inurba_marseille","lat":43.2936,"lon":5.37835,"is_reserved":false,"is_disabled":false,"rental_uris":{"android":"levelo://app?vid=9cefcf02-8ea6-4f78-99eb-c5fd73c5b84b","ios":"levelo://app?vid=9cefcf02-8ea6-4f78-99eb-c5fd73c5b84b"},"vehicle_type_id":"4","last_reported":1705745227,"current_range_meters":22800,"station_id":"ce4bgjh2rcd13ifvqbf0","pricing_plan_id":"free"},{"bike_id":"7f352ab5-0b82-4fc3-ac0d-e756f7e07515","system_id":"levelo_inurba_marseille","lat":43.292311,"lon":5.360731,"is_reserved":false,"is_disabled":false,"rental_uris":{"android":"levelo://app?vid=7f352ab5-0b82-4fc3-ac0d-e756f7e07515","ios":"levelo://app?vid=7f352ab5-0b82-4fc3-ac0d-e756f7e07515"},"vehicle_type_id":"4","last_reported":1705745227,"current_range_meters":30800,"station_id":"ce4bhbh2rcd13ifvqeqg","pricing_plan_id":"free"},{"bike_id":"39169ca9-0aa7-4d30-b583-6db20c960d09","system_id":"levelo_inurba_marseille","lat":43.292311,"lon":5.360731,"is_reserved":false,"is_disabled":false,"rental_uris":{"android":"levelo://app?vid=39169ca9-0aa7-4d30-b583-6db20c960d09","ios":"levelo://app?vid=39169ca9-0aa7-4d30-b583-6db20c960d09"},"vehicle_type_id":"4","last_reported":1705745227,"current_range_meters":19600,"station_id":"ce4bhbh2rcd13ifvqeqg","pricing_plan_id":"free"},{"bike_id":"6323892a-04f7-4955-b078-9b2cc5af4cc2","system_id":"levelo_inurba_marseille","lat":43.292311,"lon":5.360731,"is_reserved":false,"is_disabled":false,"rental_uris":{"android":"levelo://app?vid=6323892a-04f7-4955-b078-9b2cc5af4cc2","ios":"levelo://app?vid=6323892a-04f7-4955-b078-9b2cc5af4cc2"},"vehicle_type_id":"4","last_reported":1705745227,"current_range_meters":11200,"station_id":"ce4bhbh2rcd13ifvqeqg","pricing_plan_id":"free"},{"bike_id":"774038e0-bf5d-459e-a347-56ae6d00f080","system_id":"levelo_inurba_marseille","lat":43.292311,"lon":5.360731,"is_reserved":false,"is_disabled":false,"rental_uris":{"android":"levelo://app?vid=774038e0-bf5d-459e-a347-56ae6d00f080","ios":"levelo://app?vid=774038e0-bf5d-459e-a347-56ae6d00f080"},"vehicle_type_id":"4","last_reported":1705745227,"current_range_meters":20400,"station_id":"ce4bhbh2rcd13ifvqeqg","pricing_plan_id":"free"},{"bike_id":"57d10f12-dc86-4d07-85e2-cf22a1e830af","system_id":"levelo_inurba_marseille","lat":43.300852,"lon":5.390859,"is_reserved":false,"is_disabled":false,"rental_uris":{"android":"levelo://app?vid=57d10f12-dc86-4d07-85e2-cf22a1e830af","ios":"levelo://app?vid=57d10f12-dc86-4d07-85e2-cf22a1e830af"},"vehicle_type_id":"4","last_reported":1705745227,"current_range_meters":10800,"station_id":"ce4bh192rcd13ifvqdb0","pricing_plan_id":"free"},{"bike_id":"d1e381f9-1012-4e29-abac-a11fc64f4cf7","system_id":"levelo_inurba_marseille","lat":43.2936,"lon":5.37835,"is_reserved":false,"is_disabled":false,"rental_uris":{"android":"levelo://app?vid=d1e381f9-1012-4e29-abac-a11fc64f4cf7","ios":"levelo://app?vid=d1e381f9-1012-4e29-abac-a11fc64f4cf7"},"vehicle_type_id":"4","last_reported":1705745227,"current_range_meters":23200,"station_id":"ce4bgjh2rcd13ifvqbf0","pricing_plan_id":"free"},{"bike_id":"ebd6beb7-46d8-42e0-82a2-0175acd79ef4","system_id":"levelo_inurba_marseille","lat":43.292311,"lon":5.360731,"is_reserved":false,"is_disabled":false,"rental_uris":{"android":"levelo://app?vid=ebd6beb7-46d8-42e0-82a2-0175acd79ef4","ios":"levelo://app?vid=ebd6beb7-46d8-42e0-82a2-0175acd79ef4"},"vehicle_type_id":"4","last_reported":1705745227,"current_range_meters":18800,"station_id":"ce4bhbh2rcd13ifvqeqg","pricing_plan_id":"free"},{"bike_id":"677e2e64-690b-4abb-ba07-3d10b0992b92","system_id":"levelo_inurba_marseille","lat":43.291675,"lon":5.371583,"is_reserved":false,"is_disabled":false,"rental_uris":{"android":"levelo://app?vid=677e2e64-690b-4abb-ba07-3d10b0992b92","ios":"levelo://app?vid=677e2e64-690b-4abb-ba07-3d10b0992b92"},"vehicle_type_id":"4","last_reported":1705745227,"current_range_meters":26800,"station_id":"ce4bha92rcd13ifvqeh0","pricing_plan_id":"free"},{"bike_id":"4132648b-6228-42ad-ba4c-bca1ea116690","system_id":"levelo_inurba_marseille","lat":43.291673,"lon":5.37157,"is_reserved":false,"is_disabled":false,"rental_uris":{"android":"levelo://app?vid=4132648b-6228-42ad-ba4c-bca1ea116690","ios":"levelo://app?vid=4132648b-6228-42ad-ba4c-bca1ea116690"},"vehicle_type_id":"4","last_reported":1705745227,"current_range_meters":15600,"station_id":"ce4bha92rcd13ifvqeh0","pricing_plan_id":"free"},{"bike_id":"d0715bbc-b341-41c4-9c62-6a3490ed07a8","system_id":"levelo_inurba_marseille","lat":43.291901,"lon":5.357987,"is_reserved":false,"is_disabled":false,"rental_uris":{"android":"levelo://app?vid=d0715bbc-b341-41c4-9c62-6a3490ed07a8","ios":"levelo://app?vid=d0715bbc-b341-41c4-9c62-6a3490ed07a8"},"vehicle_type_id":"4","last_reported":1705745227,"current_range_meters":7600,"station_id":"ce4bhb12rcd13ifvqel0","pricing_plan_id":"free"},