{"last_updated":1727719908,"ttl":60,"version":"2.2","data":{"bikes":[{"bike_id":"ddd03992-addc-4b1c-854c-7574d5aadf12","system_id":"levelo_inurba_marseille","lat":43.31884,"lon":5.40738,"is_reserved":false,"is_disabled":false,"rental_uris":{"android":"levelo://app?vid=ddd03992-addc-4b1c-854c-7574d5aadf12","ios":"levelo://app?vid=ddd03992-addc-4b1c-854c-7574d5aadf12"},"vehicle_type_id":"4","last_reported":1727719908,"current_range_meters":36400,"station_id":"ce4bhq12rcd13ifvqhig","pricing_plan_id":"cebpf4jnsgd1na2vs0mg"},{"bike_id":"471bb2e7-4ddb-480b-960e-15ced366e530","system_id":"levelo_inurba_marseille","lat":43.31998,"lon":5.38163,"is_reserved":false,"is_disabled":false,"rental_uris":{"android":"levelo://app?vid=471bb2e7-4ddb-480b-960e-15ced366e530","ios":"levelo://app?vid=471bb2e7-4ddb-480b-960e-15ced366e530"},"vehicle_type_id":"4","last_reported":1727719908,"current_range_meters":2800,"station_id":"ce4bhr92rcd13ifvqhsg","pricing_plan_id":"cebpf4jnsgd1na2vs0mg"},{"bike_id":"f55193fb-6999-4afa-a78a-1e9dd778a73c","system_id":"levelo_inurba_marseille","lat":43.27809,"lon":5.40712,"is_reserved":false,"is_disabled":false,"rental_uris":{"android":"levelo://app?vid=f55193fb-6999-4afa-a78a-1e9dd778a73c","ios":"levelo://app?vid=f55193fb-6999-4afa-a78a-1e9dd778a73c"},"vehicle_type_id":"4","last_reported":1727719908,"current_range_meters":24400,"station_id":"ce4bhnh2rcd13ifvqgtg","pricing_plan_id":"cebpf4jnsgd1na2vs0mg"},{"bike_id":"02df3d53-c32d-4c98-9e25-3d5a716e138c","system_id":"levelo_inurba_marseille","lat":43.28497,"lon":5.38531,"is_reserved":false,"is_disabled":false,"rental_uris":{"android":"levelo://app?vid=02df3d53-c32d-4c98-9e25-3d5a716e138c","ios":"levelo://app?vid=02df3d53-c32d-4c98-9e25-3d5a716e138c"},"vehicle_type_id":"4","last_reported":1727719908,"current_range_meters":35200,"station_id":"ce4bh8p2rcd13ifvqeb0","pricing_plan_id":"cebpf4jnsgd1na2vs0mg"},{"bike_id":"12fde540-48f5-4fb6-b263-f6c0eff8e3c0","system_id":"levelo_inurba_marseille","lat":43.25497,"lon":5.37653,"is_reserved":false,"is_disabled":false,"rental_uris":{"android":"levelo://app?vid=12fde540-48f5-4fb6-b263-f6c0eff8e3c0","ios":"levelo://app?vid=12fde540-48f5-4fb6-b263-f6c0eff8e3c0"},"vehicle_type_id":"4","last_reported":1727719908,"current_range_meters":17200,"station_id":"ce4bhh12rcd13ifvqff0","pricing_plan_id":"cebpf4jnsgd1na2vs0mg"},{"bike_id":"326c9bac-ffe2-456a-acb6-d3ec5a775c54","system_id":"levelo_inurba_marseille","lat":43.25576,"lon":5.38232,"is_reserved":false,"is_disabled":false,"rental_uris":{"android":"levelo://app?vid=326c9bac-ffe2-456a-acb6-d3ec5a775c54","ios":"levelo://app?vid=326c9bac-ffe2-456a-acb6-d3ec5a775c54"},"vehicle_type_id":"4","last_reported":1727719908,"current_range_meters":7200,"station_id":"ce4bhih2rcd13ifvqfs0","pricing_plan_id":"cebpf4jnsgd1na2vs0mg"},{"bike_id":"1a311b53-5ab2-4060-92bc-50e590f31c8a","system_id":"levelo_inurba_marseille","lat":43.27997,"lon":5.41657,"is_reserved":false,"is_disabled":false,"rental_uris":{"android":"levelo://app?vid=1a311b53-5ab2-4060-92bc-50e590f31c8a","ios":"levelo://app?vid=1a311b53-5ab2-4060-92bc-50e590f31c8a"},"vehicle_type_id":"4","last_reported":1727719908,"current_range_meters":6400,"station_id":"ce4bho12rcd13ifvqh1g","pricing_plan_id":"cebpf4jnsgd1na2vs0mg"},{"bike_id":"f17f79ce-44e1-4d1b-9aa2-259f70fbd142","system_id":"levelo_inurba_marseille","lat":43.31762,"lon":5.39014,"is_reserved":false,"is_disabled":false,"rental_uris":{"android":"levelo://app?vid=f17f79ce-44e1-4d1b-9aa2-259f70fbd142","ios":"levelo://app?vid=f17f79ce-44e1-4d1b-9aa2-259f70fbd142"},"vehicle_type_id":"4","last_reported":1727719908,"current_range_meters":36400,"station_id":"ce4bhqp2rcd13ifvqhng","pricing_plan_id":"cebpf4jnsgd1na2vs0mg"},{"bike_id":"43defcf7-27fa-4722-b56f-e45a1dfc2de3","system_id":"levelo_inurba_marseille","lat":43.32397,"lon":5.38348,"is_reserved":false,"is_disabled":false,"rental_uris":{"android":"levelo://app?vid=43defcf7-27fa-4722-b56f-e45a1dfc2de3","ios":"levelo://app?vid=43defcf7-27fa-4722-b56f-e45a1dfc2de3"},"vehicle_type_id":"4","last_reported":1727719908,"current_range_meters":20000,"station_id":"","pricing_plan_id":"cebpf4jnsgd1na2vs0mg"},{"bike_id":"df2b664d-5bac-465f-88e7-ae06dcb5ed98","system_id":"levelo_inurba_marseille","lat":43.24169,"lon":5.36402,"is_reserved":false,"is_disabled":false,"rental_uris":{"android":"levelo://app?vid=df2b664d-5bac-465f-88e7-ae06dcb5ed98","ios":"levelo://app?vid=df2b664d-5bac-465f-88e7-ae06dcb5ed98"},"vehicle_type_id":"4","last_reported":1727719908,"current_range_meters":18800,"station_id":"cpo36qri1sfpv3e86is0","pricing_plan_id":"cebpf4jnsgd1na2vs0mg"},{"bike_id":"a553d76e-03fb-450e-8154-5966d8251efd","system_id":"levelo_inurba_marseille","lat":43.25084,"lon":5.39523,"is_reserved":false,"is_disabled":false,"rental_uris":{"android":"levelo://app?vid=a553d76e-03fb-450e-8154-5966d8251efd","ios":"levelo://app?vid=a553d76e-03fb-450e-8154-5966d8251efd"},"vehicle_type_id":"4","last_reported":1727719908,"current_range_meters":12000,"station_id":"ce4bhm12rcd13ifvqgkg","pricing_plan_id":"cebpf4jnsgd1na2vs0mg"},{"bike_id":"109cdf4a-ae86-49d3-89c7-51fe77f2c54e","system_id":"levelo_inurba_marseille","lat":43.30807,"lon":5.38151,"is_reserved":false,"is_disabled":false,"rental_uris":{"android":"levelo://app?vid=109cdf4a-ae86-49d3-89c7-51fe77f2c54e","ios":"levelo://app?vid=109cdf4a-ae86-49d3-89c7-51fe77f2c54e"},"vehicle_type_id":"4","last_reported":1727719908,"current_range_meters":38800,"station_id":"ce4bgt12rcd13ifvqce0","pricing_plan_id":"cebpf4jnsgd1na2vs0mg"},{"bike_id":"90a7431d-193e-4cea-90a7-c0ec2eef32fd","system_id":"levelo_inurba_marseille","lat":43.30545,"lon":5.38433,"is_reserved":false,"is_disabled":false,"rental_uris":{"android":"levelo://app?vid=90a7431d-193e-4cea-90a7-c0ec2eef32fd","ios":"levelo://app?vid=90a7431d-193e-4cea-90a7-c0ec2eef32fd"},"vehicle_type_id":"4","last_reported":1727719908,"current_range_meters":39200,"station_id":"ce4bgg92rcd13ifvqb30","pricing_plan_id":"cebpf4jnsgd1na2vs0mg"},{"bike_id":"9d124027-6e6c-4d98-9904-c6801b67ff0f","system_id":"levelo_inurba_marseille","lat":43.28446,"lon":5.35893,"is_reserved":false,"is_disabled":false,"rental_uris":{"android":"levelo://app?vid=9d124027-6e6c-4d98-9904-c6801b67ff0f","ios":"levelo://app?vid=9d124027-6e6c-4d98-9904-c6801b67ff0f"},"vehicle_type_id":"4","last_reported":1727719908,"current_range_meters":39200,"station_id":"ce4bhah2rcd13ifvqei0","pricing_plan_id":"cebpf4jnsgd1na2vs0mg"},{"bike_id":"8055f079-6e90-44df-9cfb-27a58383eeaa","system_id":"levelo_inurba_marseille","lat":43.30799,"lon":5.43528,"is_reserved":false,"is_disabled":false,"rental_uris":{"android":"levelo://app?vid=8055f079-6e90-44df-9cfb-27a58383eeaa","ios":"levelo://app?vid=8055f079-6e90-44df-9cfb-27a58383eeaa"},"vehicle_type_id":"4","last_reported":1727719908,"current_range_meters":29600,"station_id":"ce4bhph2rcd13ifvqheg","pricing_plan_id":"cebpf4jnsgd1na2vs0mg"},{"bike_id":"15e16fa1-38e1-457a-a51d-f247a31c45e0","system_id":"levelo_inurba_marseille","lat":43.29061,"lon":5.40004,"is_reserved":false,"is_disabled":false,"rental_uris":{"android":"levelo://app?vid=15e16fa1-38e1-457a-a51d-f247a31c45e0","ios":"levelo://app?vid=15e16fa1-38e1-457a-a51d-f247a31c45e0"},"vehicle_type_id":"4","last_reported":1727719908,"current_range_meters":9600,"station_id":"ce4bh392rcd13ifvqdm0","pricing_plan_id":"cebpf4jnsgd1na2vs0mg"},{"bike_id":"c740655f-f9f7-4107-b19f-75ce5d6dbd94","system_id":"levelo_inurba_marseille","lat":43.27807,"lon":5.4073,"is_reserved":false,"is_disabled":false,"rental_uris":{"android":"levelo://app?vid=c740655f-f9f7-4107-b19f-75ce5d6dbd94","ios":"levelo://app?vid=c740655f-f9f7-4107-b19f-75ce5d6dbd94"},"vehicle_type_id":"4","last_reported":1727719908,"current_range_meters":39200,"station_id":"ce4bhnh2rcd13ifvqgtg","pricing_plan_id":"cebpf4jnsgd1na2vs0mg"},{"bike_id":"380892d5-0c07-4382-989e-ba79e6cba25e","system_id":"levelo_inurba_marseille","lat":43.2802,"lon":5.36088,"is_reserved":false,"is_disabled":false,"rental_uris":{"android":"levelo://app?vid=380892d5-0c07-4382-989e-ba79e6cba25e","ios":"levelo://app?vid=380892d5-0c07-4382-989e-ba79e6cba25e"},"vehicle_type_id":"4","last_reported":1727719908,"current_range_meters":17200,"station_id":"","pricing_plan_id":"cebpf4jnsgd1na2vs0mg"},{"bike_id":"6b9770d3-5f63-4b0a-a378-b3f334bd7422","system_id":"levelo_inurba_marseille","lat":43.31163,"lon":5.3872,"is_reserved":false,"is_disabled":false,"rental_uris":{"android":"levelo://app?vid=6b9770d3-5f63-4b0a-a378-b3f334bd7422","ios":"levelo://app?vid=6b9770d3-5f63-4b0a-a378-b3f334bd7422"},"vehicle_type_id":"4","last_reported":1727719908,"current_range_meters":39200,"station_id":"ce4bgv12rcd13ifvqcp0","pricing_plan_id":"cebpf4jnsgd1na2vs0mg"},{"bike_id":"e437213c-10ec-44d5-b943-f5d787cfbd11","system_id":"levelo_inurba_marseille","lat":43.30808,"lon":5.38136,"is_reserved":false,"is_disabled":false,"rental_uris":{"android":"levelo://app?vid=e437213c-10ec-44d5-b943-f5d787cfbd11","ios":"levelo://app?vid=e437213c-10ec-44d5-b943-f5d787cfbd11"},"vehicle_type_id":"4","last_reported":1727719908,"current_range_meters":27600,"station_id":"ce4bgt12rcd13ifvqce0","pricing_plan_id":"cebpf4jnsgd1na2vs0mg"},{"bike_id":"72fca1cc-2bc3-4821-bb89-ccb731b3a783","system_id":"levelo_inurba_marseille","lat":43.26566,"lon":5.39008,"is_reserved":false,"is_disabled":false,"rental_uris":{"android":"levelo://app?vid=72fca1cc-2bc3-4821-bb89-ccb731b3a783","ios":"levelo://app?vid=72fca1cc-2bc3-4821-bb89-ccb731b3a783"},"vehicle_type_id":"4","last_reported":1727719908,"current_range_meters":36800,"station_id":"ce4bhe12rcd13ifvqf30","pricing_plan_id":"cebpf4jnsgd1na2vs0mg"},{"bike_id":"400e9b56-13d3-4e46-afc1-638683630eff","system_id":"levelo_inurba_marseille","lat":43.28461,"lon":5.35889,"is_reserved":false,"is_disabled":false,"rental_uris":{"android":"levelo://app?vid=400e9b56-13d3-4e46-afc1-638683630eff","ios":"levelo://app?vid=400e9b56-13d3-4e46-afc1-638683630eff"},"vehicle_type_id":"4","last_reported":1727719908,"current_range_meters":8800,"station_id":"ce4bhah2rcd13ifvqei0","pricing_plan_id":"cebpf4jnsgd1na2vs0mg"},{"bike_id":"98fc71de-c664-466a-87f8-8e6ee73fd448","system_id":"levelo_inurba_marseille","lat":43.28942,"lon":5.36636,"is_reserved":false,"is_disabled":false,"rental_uris":{"android":"levelo://app?vid=98fc71de-c664-466a-87f8-8e6ee73fd448","ios":"levelo://app?vid=98fc71de-c664-466a-87f8-8e6ee73fd448"},"vehicle_type_id":"4","last_reported":1727719908,"current_range_meters":16000,"station_id":"ce4bhap2rcd13ifvqek0","pricing_plan_id":"cebpf4jnsgd1na2vs0mg"},{"bike_id":"6b6fe40a-ff65-47c3-bfe5-7beaaf7cfbdf","system_id":"levelo_inurba_marseille","lat":43.2885,"lon":5.35838,"is_reserved":false,"is_disabled":false,"rental_uris":{"android":"levelo://app?vid=6b6fe40a-ff65-47c3-bfe5-7beaaf7cfbdf","ios":"levelo://app?vid=6b6fe40a-ff65-47c3-bfe5-7beaaf7cfbdf"},"vehicle_type_id":"4","last_reported":1727719908,"current_range_meters":25600,"station_id":"ce4bhb12rcd13ifvqem0","pricing_plan_id":"cebpf4jnsgd1na2vs0mg"},{"bike_id":"01cf8401-446e-4c38-b759-1e6e1e9e0419","system_id":"levelo_inurba_marseille","lat":43.31885,"lon":5.40732,"is_reserved":false,"is_disabled":false,"rental_uris":{"android":"levelo://app?vid=01cf8401-446e-4c38-b759-1e6e1e9e0419","ios":"levelo://app?vid=01cf8401-446e-4c38-b759-1e6e1e9e0419"},"vehicle_type_id":"4","last_reported":1727719908,"current_range_meters":28000,"station_id":"ce4bhq12rcd13ifvqhig","pricing_plan_id":"cebpf4jnsgd1na2vs0mg"},{"bike_id":"263f420e-a3ad-41a2-8e77-ee1219262ffe","system_id":"levelo_inurba_marseille","lat":43.28402,"lon":5.37526,"is_reserved":false,"is_disabled":false,"rental_uris":{"android":"levelo://app?vid=263f420e-a3ad-41a2-8e77-ee1219262ffe","ios":"levelo://app?vid=263f420e-a3ad-41a2-8e77-ee1219262ffe"},"vehicle_type_id":"4","last_reported":1727719908,"current_range_meters":4800,"station_id":"ce4bh412rcd13ifvqds0","pricing_plan_id":"cebpf4jnsgd1na2vs0mg"},{"bike_id":"998c72aa-fb85-4de8-be0b-0ceeb731b1f7","system_id":"levelo_inurba_marseille","lat":43.25086,"lon":5.39537,"is_reserved":false,"is_disabled":false,"rental_uris":{"android":"levelo://app?vid=998c72aa-fb85-4de8-be0b-0ceeb731b1f7","ios":"levelo://app?vid=998c72aa-fb85-4de8-be0b-0ceeb731b1f7"},"vehicle_type_id":"4","last_reported":1727719908,"current_range_meters":24000,"station_id":"ce4bhm12rcd13ifvqgkg","pricing_plan_id":"cebpf4jnsgd1na2vs0mg"},{"bike_id":"b25a55c7-65b5-46e1-b5d0-9a079be4acdc","system_id":"levelo_inurba_marseille","lat":43.24391,"lon":5.37062,"is_reserved":false,"is_disabled":false,"rental_uris":{"android":"levelo://app?vid=b25a55c7-65b5-46e1-b5d0-9a079be4acdc","ios":"levelo://app?vid=b25a55c7-65b5-46e1-b5d0-9a079be4acdc"},"vehicle_type_id":"4","last_reported":1727719908,"current_range_meters":39200,"station_id":"ce4bhhh2rcd13ifvqfk0","pricing_plan_id":"cebpf4jnsgd1na2vs0mg"},{"bike_id":"c3b72d04-ea21-4b28-b474-b9b0ab34200e","system_id":"levelo_inurba_marseille","lat":43.23958,"lon":5.36629,"is_reserved":false,"is_disabled":false,"rental_uris":{"android":"levelo://app?vid=c3b72d04-ea21-4b28-b474-b9b0ab34200e","ios":"levelo://app?vid=c3b72d04-ea21-4b28-b474-b9b0ab34200e"},"vehicle_type_id":"4","last_reported":1727719908,"current_range_meters":28400,"station_id":"ce4bhi12rcd13ifvqfp0","pricing_plan_id":"cebpf4jnsgd1na2vs0mg"},{"bike_id":"183d97a1-dcf5-4264-baf2-a403b0407b65","system_id":"levelo_inurba_marseille","lat":43.24549,"lon":5.39524,"is_reserved":false,"is_disabled":false,"rental_uris":{"android":"levelo://app?vid=183d97a1-dcf5-4264-baf2-a403b0407b65","ios":"levelo://app?vid=183d97a1-dcf5-4264-baf2-a403b0407b65"},"vehicle_type_id":"4","last_reported":1727719908,"current_range_meters":5600,"station_id":"ce4bhlp2rcd13ifvqgjg","pricing_plan_id":"cebpf4jnsgd1na2vs0mg"},{"bike_id":"bda3e053-22f3-45c6-aa72-59df065625dd","system_id":"levelo_inurba_marseille","lat":43.3149,"lon":5.37311,"is_reserved":false,"is_disabled":false,"rental_uris":{"android":"levelo://app?vid=bda3e053-22f3-45c6-aa72-59df065625dd","ios":"levelo://app?vid=bda3e053-22f3-45c6-aa72-59df065625dd"},"vehicle_type_id":"4","last_reported":1727719908,"current_range_meters":38800,"station_id":"ce4bgt12rcd13ifvqcd0","pricing_plan_id":"cebpf4jnsgd1na2vs0mg"},{"bike_id":"3955dc2e-8154-4310-883b-b5569a4e35a4","system_id":"levelo_inurba_marseille","lat":43.2952,"lon":5.39396,"is_reserved":false,"is_disabled":false,"rental_uris":{"android":"levelo://app?vid=3955dc2e-8154-4310-883b-b5569a4e35a4","ios":"levelo://app?vid=3955dc2e-8154-4310-883b-b5569a4e35a4"},"vehicle_type_id":"4","last_reported":1727719908,"current_range_meters":16000,"station_id":"ce4bh292rcd13ifvqdf0","pricing_plan_id":"cebpf4jnsgd1na2vs0mg"},{"bike_id":"43c06965-23b9-4d30-b7e8-7a5ba49ffbec","system_id":"levelo_inurba_marseille","lat":43.32317,"lon":5.38291,"is_reserved":false,"is_disabled":false,"rental_uris":{"android":"levelo://app?vid=43c06965-23b9-4d30-b7e8-7a5ba49ffbec","ios":"levelo://app?vid=43c06965-23b9-4d30-b7e8-7a5ba49ffbec"},"vehicle_type_id":"4","last_reported":1727719908,"current_range_meters":32000,"station_id":"ce4bhr12rcd13ifvqhqg","pricing_plan_id":"cebpf4jnsgd1na2vs0mg"},{"bike_id":"a83d78d5-9598-4002-8e36-0fdbc3ae22d7","system_id":"levelo_inurba_marseille","lat":43.29833,"lon":5.38101,"is_reserved":false,"is_disabled":false,"rental_uris":{"android":"levelo://app?vid=a83d78d5-9598-4002-8e36-0fdbc3ae22d7","ios":"levelo://app?vid=a83d78d5-9598-4002-8e36-0fdbc3ae22d7"},"vehicle_type_id":"4","last_reported":1727719908,"current_range_meters":28800,"station_id":"ce4bgip2rcd13ifvqbb0","pricing_plan_id":"cebpf4jnsgd1na2vs0mg"},{"bike_id":"84e17a7f-8e55-468d-b81a-d4f6b9b1c366","system_id":"levelo_inurba_marseille","lat":43.29635,"lon":5.40594,"is_reserved":false,"is_disabled":false,"rental_uris":{"android":"levelo://app?vid=84e17a7f-8e55-468d-b81a-d4f6b9b1c366","ios":"levelo://app?vid=84e17a7f-8e55-468d-b81a-d4f6b9b1c366"},"vehicle_type_id":"4","last_reported":1727719908,"current_range_meters":33200,"station_id":"ce4bh0h2rcd13ifvqd60","pricing_plan_id":"cebpf4jnsgd1na2vs0mg"},{"bike_id":"2109e9e0-cc31-424d-b977-66865dfc9b25","system_id":"levelo_inurba_marseille","lat":43.28726,"lon":5.36099,"is_reserved":false,"is_disabled":false,"rental_uris":{"android":"levelo://app?vid=2109e9e0-cc31-424d-b977-66865dfc9b25","ios":"levelo://app?vid=2109e9e0-cc31-424d-b977-66865dfc9b25"},"vehicle_type_id":"4","last_reported":1727719908,"current_range_meters":38400,"station_id":"cki0cbj6b192h4jlfktg","pricing_plan_id":"cebpf4jnsgd1na2vs0mg"},{"bike_id":"3f7a1d01-f9db-47c8-be85-70cf4e1599d6","system_id":"levelo_inurba_marseille","lat":43.31686,"lon":5.40475,"is_reserved":false,"is_disabled":false,"rental_uris":{"android":"levelo://app?vid=3f7a1d01-f9db-47c8-be85-70cf4e1599d6","ios":"levelo://app?vid=3f7a1d01-f9db-47c8-be85-70cf4e1599d6"},"vehicle_type_id":"4","last_reported":1727719908,"current_range_meters":6000,"station_id":"ce4bh012rcd13ifvqd00","pricing_plan_id":"cebpf4jnsgd1na2vs0mg"},{"bike_id":"1a6e3be2-5c4a-46a0-8364-af3217685d39","system_id":"levelo_inurba_marseille","lat":43.33721,"lon":5.39183,"is_reserved":false,"is_disabled":false,"rental_uris":{"android":"levelo://app?vid=1a6e3be2-5c4a-46a0-8364-af3217685d39","ios":"levelo://app?vid=1a6e3be2-5c4a-46a0-8364-af3217685d39"},"vehicle_type_id":"4","last_reported":1727719908,"current_range_meters":9600,"station_id":"ce4bhr92rcd13ifvqhsg","pricing_plan_id":"cebpf4jnsgd1na2vs0mg"},{"bike_id":"fc919580-6ca2-4674-ad64-4757aa926a59","system_id":"levelo_inurba_marseille","lat":43.27811,"lon":5.4072,"is_reserved":false,"is_disabled":false,"rental_uris":{"android":"levelo://app?vid=fc919580-6ca2-4674-ad64-4757aa926a59","ios":"levelo://app?vid=fc919580-6ca2-4674-ad64-4757aa926a59"},"vehicle_type_id":"4","last_reported":1727719908,"current_range_meters":2800,"station_id":"ce4bhnh2rcd13ifvqgtg","pricing_plan_id":"cebpf4jnsgd1na2vs0mg"},{"bike_id":"4b0e8090-1324-4e5a-a643-139d39d3cfdf","system_id":"levelo_inurba_marseille","lat":43.30814,"lon":5.43524,"is_reserved":false,"is_disabled":false,"rental_uris":{"android":"levelo://app?vid=4b0e8090-1324-4e5a-a643-139d39d3cfdf","ios":"levelo://app?vid=4b0e8090-1324-4e5a-a643-139d39d3cfdf"},"vehicle_type_id":"4","last_reported":1727719908,"current_range_meters":37600,"station_id":"ce4bhph2rcd13ifvqheg","pricing_plan_id":"cebpf4jnsgd1na2vs0mg"},{"bike_id":"b7a07484-59bf-4174-8c41-d7311caa3f69","system_id":"levelo_inurba_marseille","lat":43.298908,"lon":5.381377,"is_reserved":false,"is_disabled":false,"rental_uris":{"android":"levelo://app?vid=b7a07484-59bf-4174-8c41-d7311caa3f69","ios":"levelo://app?vid=b7a07484-59bf-4174-8c41-d7311caa3f69"},"vehicle_type_id":"4","last_reported":1727719908,"current_range_meters":28000,"station_id":"ce4bgj12rcd13ifvqbc0","pricing_plan_id":"cebpf4jnsgd1na2vs0mg"},{"bike_id":"62110c18-ba6e-4a54-8b88-fbfbaf57e32e","system_id":"levelo_inurba_marseille","lat":43.3255,"lon":5.41426,"is_reserved":false,"is_disabled":false,"rental_uris":{"android":"levelo://app?vid=62110c18-ba6e-4a54-8b88-fbfbaf57e32e","ios":"levelo://app?vid=62110c18-ba6e-4a54-8b88-fbfbaf57e32e"},"vehicle_type_id":"4","last_reported":1727719908,"current_range_meters":38800,"station_id":"ce4bhq12rcd13ifvqhhg","pricing_plan_id":"cebpf4jnsgd1na2vs0mg"},{"bike_id":"22bd0959-6555-42ad-9dcf-7e34af080213","system_id":"levelo_inurba_marseille","lat":43.27993,"lon":5.41663,"is_reserved":false,"is_disabled":false,"rental_uris":{"android":"levelo://app?vid=22bd0959-6555-42ad-9dcf-7e34af080213","ios":"levelo://app?vid=22bd0959-6555-42ad-9dcf-7e34af080213"},"vehicle_type_id":"4","last_reported":1727719908,"current_range_meters":35200,"station_id":"ce4bho12rcd13ifvqh1g","pricing_plan_id":"cebpf4jnsgd1na2vs0mg"},{"bike_id":"3ead4679-04ab-47ce-b90f-5c41a6a1749d","system_id":"levelo_inurba_marseille","lat":43.24666,"lon":5.38177,"is_reserved":false,"is_disabled":false,"rental_uris":{"android":"levelo://app?vid=3ead4679-04ab-47ce-b90f-5c41a6a1749d","ios":"levelo://app?vid=3ead4679-04ab-47ce-b90f-5c41a6a1749d"},"vehicle_type_id":"4","last_reported":1727719908,"current_range_meters":9600,"station_id":"ce4bhih2rcd13ifvqfr0","pricing_plan_id":"cebpf4jnsgd1na2vs0mg"},{"bike_id":"e470d7ef-8368-42f5-bec0-f1bcf44519bf","system_id":"levelo_inurba_marseille","lat":43.26557,"lon":5.39021,"is_reserved":false,"is_disabled":false,"rental_uris":{"android":"levelo://app?vid=e470d7ef-8368-42f5-bec0-f1bcf44519bf","ios":"levelo://app?vid=e470d7ef-8368-42f5-bec0-f1bcf44519bf"},"vehicle_type_id":"4","last_reported":1727719908,"current_range_meters":9200,"station_id":"ce4bhe12rcd13ifvqf30","pricing_plan_id":"cebpf4jnsgd1na2vs0mg"},{"bike_id":"12ab46bb-db24-4cfe-9459-074259d032dd","system_id":"levelo_inurba_marseille","lat":43.27556,"lon":5.38425,"is_reserved":false,"is_disabled":false,"rental_uris":{"android":"levelo://app?vid=12ab46bb-db24-4cfe-9459-074259d032dd","ios":"levelo://app?vid=12ab46bb-db24-4cfe-9459-074259d032dd"},"vehicle_type_id":"4","last_reported":1727719908,"current_range_meters":16000,"station_id":"ce4bhh92rcd13ifvqfi0","pricing_plan_id":"cebpf4jnsgd1na2vs0mg"},{"bike_id":"a5949390-4b3d-423e-b04c-b55795aeff1b","system_id":"levelo_inurba_marseille","lat":43.27985,"lon":5.41658,"is_reserved":false,"is_disabled":false,"rental_uris":{"android":"levelo://app?vid=a5949390-4b3d-423e-b04c-b55795aeff1b","ios":"levelo://app?vid=a5949390-4b3d-423e-b04c-b55795aeff1b"},"vehicle_type_id":"4","last_reported":1727719908,"current_range_meters":27600,"station_id":"ce4bho12rcd13ifvqh1g","pricing_plan_id":"cebpf4jnsgd1na2vs0mg"},{"bike_id":"a4a0c8ad-6ed8-4ae0-a45c-0df183ba9d25","system_id":"levelo_inurba_marseille","lat":43.275146,"lon":5.395312,"is_reserved":false,"is_disabled":false,"rental_uris":{"android":"levelo://app?vid=a4a0c8ad-6ed8-4ae0-a45c-0df183ba9d25","ios":"levelo://app?vid=a4a0c8ad-6ed8-4ae0-a45c-0df183ba9d25"},"vehicle_type_id":"4","last_reported":1727719908,"current_range_meters":4800,"station_id":"ce4bho92rcd13ifvqh4g","pricing_plan_id":"cebpf4jnsgd1na2vs0mg"},{"bike_id":"0569ffd9-5d73-439a-979a-a1c88b9a1061","system_id":"levelo_inurba_marseille","lat":43.3291,"lon":5.39078,"is_reserved":false,"is_disabled":false,"rental_uris":{"android":"levelo://app?vid=0569ffd9-5d73-439a-979a-a1c88b9a1061","ios":"levelo://app?vid=0569ffd9-5d73-439a-979a-a1c88b9a1061"},"vehicle_type_id":"4","last_reported":1727719908,"current_range_meters":31200,"station_id":"","pricing_plan_id":"cebpf4jnsgd1na2vs0mg"},{"bike_id":"5989fa13-7723-4f6b-9e69-7ccaedec7d86","system_id":"levelo_inurba_marseille","lat":43.28346,"lon":5.38119,"is_reserved":false,"is_disabled":false,"rental_uris":{"android":"levelo://app?vid=5989fa13-7723-4f6b-9e69-7ccaedec7d86","ios":"levelo://app?vid=5989fa13-7723-4f6b-9e69-7ccaedec7d86"},"vehicle_type_id":"4","last_reported":1727719908,"current_range_meters":7200,"station_id":"ce4bh412rcd13ifvqdr0","pricing_plan_id":"cebpf4jnsgd1na2vs0mg"},{"bike_id":"e9b5e02b-813a-4509-88a5-31daffa06551","system_id":"levelo_inurba_marseille","lat":43.30443,"lon":5.38892,"is_reserved":false,"is_disabled":false,"rental_uris":{"android":"levelo://app?vid=e9b5e02b-813a-4509-88a5-31daffa06551","ios":"levelo://app?vid=e9b5e02b-813a-4509-88a5-31daffa06551"},"vehicle_type_id":"4","last_reported":1727719908,"current_range_meters":39200,"station_id":"ce4bgk12rcd13ifvqbi0","pricing_plan_id":"cebpf4jnsgd1na2vs0mg"},{"bike_id":"8d9562fd-6df7-450c-8585-55f078716a64","system_id":"levelo_inurba_marseille","lat":43.28423,"lon":5.34992,"is_reserved":false,"is_disabled":false,"rental_uris":{"android":"levelo://app?vid=8d9562fd-6df7-450c-8585-55f078716a64","ios":"levelo://app?vid=8d9562fd-6df7-450c-8585-55f078716a64"},"vehicle_type_id":"4","last_reported":1727719908,"current_range_meters":34800,"station_id":"ce4bhbh2rcd13ifvqepg","pricing_plan_id":"cebpf4jnsgd1na2vs0mg"},{"bike_id":"e1e14dde-1c04-4cd1-b1ef-8008dc48713c","system_id":"levelo_inurba_marseille","lat":43.29006,"lon":5.37826,"is_reserved":false,"is_disabled":false,"rental_uris":{"android":"levelo://app?vid=e1e14dde-1c04-4cd1-b1ef-8008dc48713c","ios":"levelo://app?vid=e1e14dde-1c04-4cd1-b1ef-8008dc48713c"},"vehicle_type_id":"4","last_reported":1727719908,"current_range_meters":38800,"station_id":"ce4bh9p2rcd13ifvqed0","pricing_plan_id":"cebpf4jnsgd1na2vs0mg"},{"bike_id":"756dc089-e879-4a7d-89cd-4b28dc5e120d","system_id":"levelo_inurba_marseille","lat":43.3169,"lon":5.40476,"is_reserved":false,"is_disabled":false,"rental_uris":{"android":"levelo://app?vid=756dc089-e879-4a7d-89cd-4b28dc5e120d","ios":"levelo://app?vid=756dc089-e879-4a7d-89cd-4b28dc5e120d"},"vehicle_type_id":"4","last_reported":1727719908,"current_range_meters":16800,"station_id":"ce4bh012rcd13ifvqd00","pricing_plan_id":"cebpf4jnsgd1na2vs0mg"},{"bike_id":"a940444b-517d-494b-987b-0d992c8cf5de","system_id":"levelo_inurba_marseille","lat":43.30784,"lon":5.38163,"is_reserved":false,"is_disabled":false,"rental_uris":{"android":"levelo://app?vid=a940444b-517d-494b-987b-0d992c8cf5de","ios":"levelo://app?vid=a940444b-517d-494b-987b-0d992c8cf5de"},"vehicle_type_id":"4","last_reported":1727719908,"current_range_meters":26800,"station_id":"ce4bgt12rcd13ifvqce0","pricing_plan_id":"cebpf4jnsgd1na2vs0mg"},{"bike_id":"49efb360-bc57-4118-9590-273761ff8a1e","system_id":"levelo_inurba_marseille","lat":43.28456,"lon":5.35894,"is_reserved":false,"is_disabled":false,"rental_uris":{"android":"levelo://app?vid=49efb360-bc57-4118-9590-273761ff8a1e","ios":"levelo://app?vid=49efb360-bc57-4118-9590-273761ff8a1e"},"vehicle_type_id":"4","last_reported":1727719908,"current_range_meters":28800,"station_id":"ce4bhah2rcd13ifvqei0","pricing_plan_id":"cebpf4jnsgd1na2vs0mg"},{"bike_id":"8eab48ee-4fec-4591-a525-c027fd2ab56d","system_id":"levelo_inurba_marseille","lat":43.31708,"lon":5.43701,"is_reserved":false,"is_disabled":false,"rental_uris":{"android":"levelo://app?vid=8eab48ee-4fec-4591-a525-c027fd2ab56d","ios":"levelo://app?vid=8eab48ee-4fec-4591-a525-c027fd2ab56d"},"vehicle_type_id":"4","last_reported":1727719908,"current_range_meters":22800,"station_id":"ce4bhp92rcd13ifvqhcg","pricing_plan_id":"cebpf4jnsgd1na2vs0mg"},{"bike_id":"8e7f72bb-b24c-4023-a2a3-66e43fa5a253","system_id":"levelo_inurba_marseille","lat":43.29524,"lon":5.39046,"is_reserved":false,"is_disabled":false,"rental_uris":{"android":"levelo://app?vid=8e7f72bb-b24c-4023-a2a3-66e43fa5a253","ios":"levelo://app?vid=8e7f72bb-b24c-4023-a2a3-66e43fa5a253"},"vehicle_type_id":"4","last_reported":1727719908,"current_range_meters":8400,"station_id":"ce4bh3p2rcd13ifvqdp0","pricing_plan_id":"cebpf4jnsgd1na2vs0mg"},{"bike_id":"6fd3e29d-b348-4fe7-b3b9-bde4cdf0ec42","system_id":"levelo_inurba_marseille","lat":43.29444,"lon":5.39745,"is_reserved":false,"is_disabled":false,"rental_uris":{"android":"levelo://app?vid=6fd3e29d-b348-4fe7-b3b9-bde4cdf0ec42","ios":"levelo://app?vid=6fd3e29d-b348-4fe7-b3b9-bde4cdf0ec42"},"vehicle_type_id":"4","last_reported":1727719908,"current_range_meters":36400,"station_id":"ce4bh3h2rcd13ifvqdo0","pricing_plan_id":"cebpf4jnsgd1na2vs0mg"},{"bike_id":"298b5260-bd6b-4acd-ab68-75f6f1a419a1","system_id":"levelo_inurba_marseille","lat":43.23188,"lon":5.3999,"is_reserved":false,"is_disabled":false,"rental_uris":{"android":"levelo://app?vid=298b5260-bd6b-4acd-ab68-75f6f1a419a1","ios":"levelo://app?vid=298b5260-bd6b-4acd-ab68-75f6f1a419a1"},"vehicle_type_id":"4","last_reported":1727719908,"current_range_meters":9200,"station_id":"ce4bhn12rcd13ifvqgqg","pricing_plan_id":"cebpf4jnsgd1na2vs0mg"},{"bike_id":"503fd2ff-6360-40c7-81a3-6afe9aa1df6a","system_id":"levelo_inurba_marseille","lat":43.287,"lon":5.40002,"is_reserved":false,"is_disabled":false,"rental_uris":{"android":"levelo://app?vid=503fd2ff-6360-40c7-81a3-6afe9aa1df6a","ios":"levelo://app?vid=503fd2ff-6360-40c7-81a3-6afe9aa1df6a"},"vehicle_type_id":"4","last_reported":1727719908,"current_range_meters":22000,"station_id":"ce4bho92rcd13ifvqh3g","pricing_plan_id":"cebpf4jnsgd1na2vs0mg"},{"bike_id":"6ad79977-c62d-4534-a8ef-6657c8543581","system_id":"levelo_inurba_marseille","lat":43.27971,"lon":5.38736,"is_reserved":false,"is_disabled":false,"rental_uris":{"android":"levelo://app?vid=6ad79977-c62d-4534-a8ef-6657c8543581","ios":"levelo://app?vid=6ad79977-c62d-4534-a8ef-6657c8543581"},"vehicle_type_id":"4","last_reported":1727719908,"current_range_meters":10000,"station_id":"ce4bhg12rcd13ifvqf80","pricing_plan_id":"cebpf4jnsgd1na2vs0mg"},{"bike_id":"0a8595ce-7d39-4630-b173-f67647e18cdd","system_id":"levelo_inurba_marseille","lat":43.23962,"lon":5.36634,"is_reserved":false,"is_disabled":false,"rental_uris":{"android":"levelo://app?vid=0a8595ce-7d39-4630-b173-f67647e18cdd","ios":"levelo://app?vid=0a8595ce-7d39-4630-b173-f67647e18cdd"},"vehicle_type_id":"4","last_reported":1727719908,"current_range_meters":2000,"station_id":"ce4bhi12rcd13ifvqfp0","pricing_plan_id":"cebpf4jnsgd1na2vs0mg"},{"bike_id":"dc2c3b57-d697-49b9-bbef-240461b97309","system_id":"levelo_inurba_marseille","lat":43.28461,"lon":5.35886,"is_reserved":false,"is_disabled":false,"rental_uris":{"android":"levelo://app?vid=dc2c3b57-d697-49b9-bbef-240461b97309","ios":"levelo://app?vid=dc2c3b57-d697-49b9-bbef-240461b97309"},"vehicle_type_id":"4","last_reported":1727719908,"current_range_meters":5600,"station_id":"ce4bhah2rcd13ifvqei0","pricing_plan_id":"cebpf4jnsgd1na2vs0mg"},{"bike_id":"1ae63af3-5035-41f0-9795-bf6ebd31548b","system_id":"levelo_inurba_marseille","lat":43.30417,"lon":5.41284,"is_reserved":false,"is_disabled":false,"rental_uris":{"android":"levelo://app?vid=1ae63af3-5035-41f0-9795-bf6ebd31548b","ios":"levelo://app?vid=1ae63af3-5035-41f0-9795-bf6ebd31548b"},"vehicle_type_id":"4","last_reported":1727719908,"current_range_meters":38800,"station_id":"ce4bhop2rcd13ifvqh8g","pricing_plan_id":"cebpf4jnsgd1na2vs0mg"},{"bike_id":"5ec8394f-cf65-498d-859a-f038bbfec6a3","system_id":"levelo_inurba_marseille","lat":43.292542,"lon":5.409166,"is_reserved":false,"is_disabled":false,"rental_uris":{"android":"levelo://app?vid=5ec8394f-cf65-498d-859a-f038bbfec6a3","ios":"levelo://app?vid=5ec8394f-cf65-498d-859a-f038bbfec6a3"},"vehicle_type_id":"4","last_reported":1727719908,"current_range_meters":12000,"station_id":"ce4bh192rcd13ifvqdc0","pricing_plan_id":"cebpf4jnsgd1na2vs0mg"},{"bike_id":"6db31693-608c-44b8-b1eb-cf7a63da3c54","system_id":"levelo_inurba_marseille","lat":43.29975,"lon":5.37185,"is_reserved":false,"is_disabled":false,"rental_uris":{"android":"levelo://app?vid=6db31693-608c-44b8-b1eb-cf7a63da3c54","ios":"levelo://app?vid=6db31693-608c-44b8-b1eb-cf7a63da3c54"},"vehicle_type_id":"4","last_reported":1727719908,"current_range_meters":6400,"station_id":"ce4bgr92rcd13ifvqc7g","pricing_plan_id":"cebpf4jnsgd1na2vs0mg"},{"bike_id":"1913d7ee-43d9-4aec-adba-fc141784066a","system_id":"levelo_inurba_marseille","lat":43.29511,"lon":5.3939,"is_reserved":false,"is_disabled":false,"rental_uris":{"android":"levelo://app?vid=1913d7ee-43d9-4aec-adba-fc141784066a","ios":"levelo://app?vid=1913d7ee-43d9-4aec-adba-fc141784066a"},"vehicle_type_id":"4","last_reported":1727719908,"current_range_meters":26800,"station_id":"ce4bh292rcd13ifvqdf0","pricing_plan_id":"cebpf4jnsgd1na2vs0mg"},{"bike_id":"0f91d8cb-9bb3-46f8-b261-79a4cec4c2c9","system_id":"levelo_inurba_marseille","lat":43.32002,"lon":5.38155,"is_reserved":false,"is_disabled":false,"rental_uris":{"android":"levelo://app?vid=0f91d8cb-9bb3-46f8-b261-79a4cec4c2c9","ios":"levelo://app?vid=0f91d8cb-9bb3-46f8-b261-79a4cec4c2c9"},"vehicle_type_id":"4","last_reported":1727719908,"current_range_meters":20400,"station_id":"ce4bhr12rcd13ifvqhpg","pricing_plan_id":"cebpf4jnsgd1na2vs0mg"},{"bike_id":"7977a9c9-5512-4fa7-9026-3e7c33952b44","system_id":"levelo_inurba_marseille","lat":43.26717,"lon":5.40144,"is_reserved":false,"is_disabled":false,"rental_uris":{"android":"levelo://app?vid=7977a9c9-5512-4fa7-9026-3e7c33952b44","ios":"levelo://app?vid=7977a9c9-5512-4fa7-9026-3e7c33952b44"},"vehicle_type_id":"4","last_reported":1727719908,"current_range_meters":17600,"station_id":"ce4bhm92rcd13ifvqglg","pricing_plan_id":"cebpf4jnsgd1na2vs0mg"},{"bike_id":"df71e8e5-ecf0-46d0-b0ac-f1fbd75aa098","system_id":"levelo_inurba_marseille","lat":43.26951,"lon":5.38639,"is_reserved":false,"is_disabled":false,"rental_uris":{"android":"levelo://app?vid=df71e8e5-ecf0-46d0-b0ac-f1fbd75aa098","ios":"levelo://app?vid=df71e8e5-ecf0-46d0-b0ac-f1fbd75aa098"},"vehicle_type_id":"4","last_reported":1727719908,"current_range_meters":38800,"station_id":"ce4bhh92rcd13ifvqfh0","pricing_plan_id":"cebpf4jnsgd1na2vs0mg"},{"bike_id":"d05ea0c3-8bb2-4593-9b1a-c7e3acd0f8de","system_id":"levelo_inurba_marseille","lat":43.31758,"lon":5.3901,"is_reserved":false,"is_disabled":false,"rental_uris":{"android":"levelo://app?vid=d05ea0c3-8bb2-4593-9b1a-c7e3acd0f8de","ios":"levelo://app?vid=d05ea0c3-8bb2-4593-9b1a-c7e3acd0f8de"},"vehicle_type_id":"4","last_reported":1727719908,"current_range_meters":39200,"station_id":"ce4bhqp2rcd13ifvqhng","pricing_plan_id":"cebpf4jnsgd1na2vs0mg"},{"bike_id":"74ae7632-167c-4520-a1c6-cbb70062a39b","system_id":"levelo_inurba_marseille","lat":43.25577,"lon":5.38239,"is_reserved":false,"is_disabled":false,"rental_uris":{"android":"levelo://app?vid=74ae7632-167c-4520-a1c6-cbb70062a39b","ios":"levelo://app?vid=74ae7632-167c-4520-a1c6-cbb70062a39b"},"vehicle_type_id":"4","last_reported":1727719908,"current_range_meters":2000,"station_id":"ce4bhih2rcd13ifvqfs0","pricing_plan_id":"cebpf4jnsgd1na2vs0mg"},{"bike_id":"26b37c2d-7728-4ebc-b763-e91d7d022aa0","system_id":"levelo_inurba_marseille","lat":43.2927,"lon":5.36845,"is_reserved":false,"is_disabled":false,"rental_uris":{"android":"levelo://app?vid=26b37c2d-7728-4ebc-b763-e91d7d022aa0","ios":"levelo://app?vid=26b37c2d-7728-4ebc-b763-e91d7d022aa0"},"vehicle_type_id":"4","last_reported":1727719908,"current_range_meters":17600,"station_id":"ce4bhbp2rcd13ifvqesg","pricing_plan_id":"cebpf4jnsgd1na2vs0mg"},{"bike_id":"45f71ded-cd40-422c-98a8-c1a13528c0a8","system_id":"levelo_inurba_marseille","lat":43.24996,"lon":5.38939,"is_reserved":false,"is_disabled":false,"rental_uris":{"android":"levelo://app?vid=45f71ded-cd40-422c-98a8-c1a13528c0a8","ios":"levelo://app?vid=45f71ded-cd40-422c-98a8-c1a13528c0a8"},"vehicle_type_id":"4","last_reported":1727719908,"current_range_meters":10000,"station_id":"ce4bhgp2rcd13ifvqfd0","pricing_plan_id":"cebpf4jnsgd1na2vs0mg"},{"bike_id":"7b6aea48-b804-438d-91f6-6a6abe2022ae","system_id":"levelo_inurba_marseille","lat":43.24479,"lon":5.37256,"is_reserved":false,"is_disabled":false,"rental_uris":{"android":"levelo://app?vid=7b6aea48-b804-438d-91f6-6a6abe2022ae","ios":"levelo://app?vid=7b6aea48-b804-438d-91f6-6a6abe2022ae"},"vehicle_type_id":"4","last_reported":1727719908,"current_range_meters":13600,"station_id":"","pricing_plan_id":"cebpf4jnsgd1na2vs0mg"},{"bike_id":"267dd245-217b-46ab-887e-f166967956f1","system_id":"levelo_inurba_marseille","lat":43.29531,"lon":5.38544,"is_reserved":false,"is_disabled":false,"rental_uris":{"android":"levelo://app?vid=267dd245-217b-46ab-887e-f166967956f1","ios":"levelo://app?vid=267dd245-217b-46ab-887e-f166967956f1"},"vehicle_type_id":"4","last_reported":1727719908,"current_range_meters":22000,"station_id":"ce4bgih2rcd13ifvqba0","pricing_plan_id":"cebpf4jnsgd1na2vs0mg"},{"bike_id":"3aa9cbfe-3632-49fb-be43-c3a5a9f68daa","system_id":"levelo_inurba_marseille","lat":43.29556,"lon":5.42283,"is_reserved":false,"is_disabled":false,"rental_uris":{"android":"levelo://app?vid=3aa9cbfe-3632-49fb-be43-c3a5a9f68daa","ios":"levelo://app?vid=3aa9cbfe-3632-49fb-be43-c3a5a9f68daa"},"vehicle_type_id":"4","last_reported":1727719908,"current_range_meters":2000,"station_id":"ce4bhph2rcd13ifvqhdg","pricing_plan_id":"cebpf4jnsgd1na2vs0mg"},{"bike_id":"56aa5b01-2b12-4ba0-8c43-bbc63c294d48","system_id":"levelo_inurba_marseille","lat":43.27377,"lon":5.42434,"is_reserved":false,"is_disabled":false,"rental_uris":{"android":"levelo://app?vid=56aa5b01-2b12-4ba0-8c43-bbc63c294d48","ios":"levelo://app?vid=56aa5b01-2b12-4ba0-8c43-bbc63c294d48"},"vehicle_type_id":"4","last_reported":1727719908,"current_range_meters":36800,"station_id":"","pricing_plan_id":"cebpf4jnsgd1na2vs0mg"},{"bike_id":"cf33b555-cac1-43f8-89f7-e84b64897cfd","system_id":"levelo_inurba_marseille","lat":43.28376,"lon":5.37303,"is_reserved":false,"is_disabled":false,"rental_uris":{"android":"levelo://app?vid=cf33b555-cac1-43f8-89f7-e84b64897cfd","ios":"levelo://app?vid=cf33b555-cac1-43f8-89f7-e84b64897cfd"},"vehicle_type_id":"4","last_reported":1727719908,"current_range_meters":3600,"station_id":"","pricing_plan_id":"cebpf4jnsgd1na2vs0mg"},{"bike_id":"8f4a9cd8-a33d-438b-bb1f-e5b031dc9998","system_id":"levelo_inurba_marseille","lat":43.28465,"lon":5.35887,"is_reserved":false,"is_disabled":false,"rental_uris":{"android":"levelo://app?vid=8f4a9cd8-a33d-438b-bb1f-e5b031dc9998","ios":"levelo://app?vid=8f4a9cd8-a33d-438b-bb1f-e5b031dc9998"},"vehicle_type_id":"4","last_reported":1727719908,"current_range_meters":38800,"station_id":"ce4bhah2rcd13ifvqei0","pricing_plan_id":"cebpf4jnsgd1na2vs0mg"},{"bike_id":"f41e6ac7-d39b-432c-a205-b5e52984b1b4","system_id":"levelo_inurba_marseille","lat":43.33027,"lon":5.39385,"is_reserved":false,"is_disabled":false,"rental_uris":{"android":"levelo://app?vid=f41e6ac7-d39b-432c-a205-b5e52984b1b4","ios":"levelo://app?vid=f41e6ac7-d39b-432c-a205-b5e52984b1b4"},"vehicle_type_id":"4","last_reported":1727719908,"current_range_meters":35600,"station_id":"","pricing_plan_id":"cebpf4jnsgd1na2vs0mg"},{"bike_id":"113908d5-8511-4f0b-946f-48eee54ac385","system_id":"levelo_inurba_marseille","lat":43.28464,"lon":5.35893,"is_reserved":false,"is_disabled":false,"rental_uris":{"android":"levelo://app?vid=113908d5-8511-4f0b-946f-48eee54ac385","ios":"levelo://app?vid=113908d5-8511-4f0b-946f-48eee54ac385"},"vehicle_type_id":"4","last_reported":1727719908,"current_range_meters":34000,"station_id":"ce4bhah2rcd13ifvqei0","pricing_plan_id":"cebpf4jnsgd1na2vs0mg"},{"bike_id":"3cb0cd76-2c36-4228-93bd-d10902f1451f","system_id":"levelo_inurba_marseille","lat":43.2953,"lon":5.38545,"is_reserved":false,"is_disabled":false,"rental_uris":{"android":"levelo://app?vid=3cb0cd76-2c36-4228-93bd-d10902f1451f","ios":"levelo://app?vid=3cb0cd76-2c36-4228-93bd-d10902f1451f"},"vehicle_type_id":"4","last_reported":1727719908,"current_range_meters":38800,"station_id":"ce4bgih2rcd13ifvqba0","pricing_plan_id":"cebpf4jnsgd1na2vs0mg"},{"bike_id":"dc626c6d-f5b0-4b7e-b512-fcd8de9c325c","system_id":"levelo_inurba_marseille","lat":43.28932,"lon":5.36634,"is_reserved":false,"is_disabled":false,"rental_uris":{"android":"levelo://app?vid=dc626c6d-f5b0-4b7e-b512-fcd8de9c325c","ios":"levelo://app?vid=dc626c6d-f5b0-4b7e-b512-fcd8de9c325c"},"vehicle_type_id":"4","last_reported":1727719908,"current_range_meters":38800,"station_id":"ce4bhap2rcd13ifvqek0","pricing_plan_id":"cebpf4jnsgd1na2vs0mg"},{"bike_id":"77b3a8ed-176c-45a8-a641-60fadd092017","system_id":"levelo_inurba_marseille","lat":43.29798,"lon":5.38099,"is_reserved":false,"is_disabled":false,"rental_uris":{"android":"levelo://app?vid=77b3a8ed-176c-45a8-a641-60fadd092017","ios":"levelo://app?vid=77b3a8ed-176c-45a8-a641-60fadd092017"},"vehicle_type_id":"4","last_reported":1727719908,"current_range_meters":3200,"station_id":"ce4bgip2rcd13ifvqbb0","pricing_plan_id":"cebpf4jnsgd1na2vs0mg"},{"bike_id":"2a233269-7584-4985-acf9-2594c26b379f","system_id":"levelo_inurba_marseille","lat":43.29422,"lon":5.38625,"is_reserved":false,"is_disabled":false,"rental_uris":{"android":"levelo://app?vid=2a233269-7584-4985-acf9-2594c26b379f","ios":"levelo://app?vid=2a233269-7584-4985-acf9-2594c26b379f"},"vehicle_type_id":"4","last_reported":1727719908,"current_range_meters":38400,"station_id":"ce4bh2h2rcd13ifvqdh0","pricing_plan_id":"cebpf4jnsgd1na2vs0mg"},{"bike_id":"c47cf6fd-8aa4-40f9-8b1f-6d1cd3de34ae","system_id":"levelo_inurba_marseille","lat":43.29422,"lon":5.3862,"is_reserved":false,"is_disabled":false,"rental_uris":{"android":"levelo://app?vid=c47cf6fd-8aa4-40f9-8b1f-6d1cd3de34ae","ios":"levelo://app?vid=c47cf6fd-8aa4-40f9-8b1f-6d1cd3de34ae"},"vehicle_type_id":"4","last_reported":1727719908,"current_range_meters":24400,"station_id":"ce4bh2h2rcd13ifvqdh0","pricing_plan_id":"cebpf4jnsgd1na2vs0mg"},{"bike_id":"fe48273f-32e2-435c-8c4c-845ad66de3e7","system_id":"levelo_inurba_marseille","lat":43.29569,"lon":5.39972,"is_reserved":false,"is_disabled":false,"rental_uris":{"android":"levelo://app?vid=fe48273f-32e2-435c-8c4c-845ad66de3e7","ios":"levelo://app?vid=fe48273f-32e2-435c-8c4c-845ad66de3e7"},"vehicle_type_id":"4","last_reported":1727719908,"current_range_meters":18800,"station_id":"ce4bh312rcd13ifvqdj0","pricing_plan_id":"cebpf4jnsgd1na2vs0mg"},{"bike_id":"4edf1e8c-c4f5-4d94-a84a-e85f7eaaf1dc","system_id":"levelo_inurba_marseille","lat":43.2997,"lon":5.37181,"is_reserved":false,"is_disabled":false,"rental_uris":{"android":"levelo://app?vid=4edf1e8c-c4f5-4d94-a84a-e85f7eaaf1dc","ios":"levelo://app?vid=4edf1e8c-c4f5-4d94-a84a-e85f7eaaf1dc"},"vehicle_type_id":"4","last_reported":1727719908,"current_range_meters":17200,"station_id":"ce4bgr92rcd13ifvqc7g","pricing_plan_id":"cebpf4jnsgd1na2vs0mg"},{"bike_id":"e99d2381-bdc0-4097-9d3f-ea1116b0bf8e","system_id":"levelo_inurba_marseille","lat":43.29552,"lon":5.42289,"is_reserved":false,"is_disabled":false,"rental_uris":{"android":"levelo://app?vid=e99d2381-bdc0-4097-9d3f-ea1116b0bf8e","ios":"levelo://app?vid=e99d2381-bdc0-4097-9d3f-ea1116b0bf8e"},"vehicle_type_id":"4","last_reported":1727719908,"current_range_meters":16800,"station_id":"ce4bhph2rcd13ifvqhdg","pricing_plan_id":"cebpf4jnsgd1na2vs0mg"},{"bike_id":"71a1c793-f312-4e41-beac-71760a15e631","system_id":"levelo_inurba_marseille","lat":43.29308,"lon":5.37181,"is_reserved":false,"is_disabled":false,"rental_uris":{"android":"levelo://app?vid=71a1c793-f312-4e41-beac-71760a15e631","ios":"levelo://app?vid=71a1c793-f312-4e41-beac-71760a15e631"},"vehicle_type_id":"4","last_reported":1727719908,"current_range_meters":38800,"station_id":"ce4bgh92rcd13ifvqb40","pricing_plan_id":"cebpf4jnsgd1na2vs0mg"},{"bike_id":"b5eaae83-8693-4c54-a11d-b183693cf9a8","system_id":"levelo_inurba_marseille","lat":43.29915,"lon":5.3746,"is_reserved":false,"is_disabled":false,"rental_uris":{"android":"levelo://app?vid=b5eaae83-8693-4c54-a11d-b183693cf9a8","ios":"levelo://app?vid=b5eaae83-8693-4c54-a11d-b183693cf9a8"},"vehicle_type_id":"4","last_reported":1727719908,"current_range_meters":20000,"station_id":"ce4bgjh2rcd13ifvqbg0","pricing_plan_id":"cebpf4jnsgd1na2vs0mg"},{"bike_id":"457a1474-1340-48cf-893d-6ebde9fe8dc6","system_id":"levelo_inurba_marseille","lat":43.28405,"lon":5.37519,"is_reserved":false,"is_disabled":false,"rental_uris":{"android":"levelo://app?vid=457a1474-1340-48cf-893d-6ebde9fe8dc6","ios":"levelo://app?vid=457a1474-1340-48cf-893d-6ebde9fe8dc6"},"vehicle_type_id":"4","last_reported":1727719908,"current_range_meters":17600,"station_id":"ce4bh412rcd13ifvqds0","pricing_plan_id":"cebpf4jnsgd1na2vs0mg"},{"bike_id":"92a377c1-c83e-4ce0-8033-a37f64060b32","system_id":"levelo_inurba_marseille","lat":43.29896,"lon":5.43668,"is_reserved":false,"is_disabled":false,"rental_uris":{"android":"levelo://app?vid=92a377c1-c83e-4ce0-8033-a37f64060b32","ios":"levelo://app?vid=92a377c1-c83e-4ce0-8033-a37f64060b32"},"vehicle_type_id":"4","last_reported":1727719908,"current_range_meters":20800,"station_id":"ce4bhpp2rcd13ifvqhfg","pricing_plan_id":"cebpf4jnsgd1na2vs0mg"},{"bike_id":"52acfaee-0c4e-4269-8191-ad4e04d13771","system_id":"levelo_inurba_marseille","lat":43.27997,"lon":5.4002,"is_reserved":false,"is_disabled":false,"rental_uris":{"android":"levelo://app?vid=52acfaee-0c4e-4269-8191-ad4e04d13771","ios":"levelo://app?vid=52acfaee-0c4e-4269-8191-ad4e04d13771"},"vehicle_type_id":"4","last_reported":1727719908,"current_range_meters":8800,"station_id":"ce4bho92rcd13ifvqh4g","pricing_plan_id":"cebpf4jnsgd1na2vs0mg"},{"bike_id":"4a1e07f8-f175-438b-9823-720892bb6906","system_id":"levelo_inurba_marseille","lat":43.28411,"lon":5.37511,"is_reserved":false,"is_disabled":false,"rental_uris":{"android":"levelo://app?vid=4a1e07f8-f175-438b-9823-720892bb6906","ios":"levelo://app?vid=4a1e07f8-f175-438b-9823-720892bb6906"},"vehicle_type_id":"4","last_reported":1727719908,"current_range_meters":2000,"station_id":"ce4bh412rcd13ifvqds0","pricing_plan_id":"cebpf4jnsgd1na2vs0mg"},{"bike_id":"ea88f175-1253-4005-ab4b-521849ff489d","system_id":"levelo_inurba_marseille","lat":43.32344,"lon":5.38315,"is_reserved":false,"is_disabled":false,"rental_uris":{"android":"levelo://app?vid=ea88f175-1253-4005-ab4b-521849ff489d","ios":"levelo://app?vid=ea88f175-1253-4005-ab4b-521849ff489d"},"vehicle_type_id":"4","last_reported":1727719908,"current_range_meters":27600,"station_id":"","pricing_plan_id":"cebpf4jnsgd1na2vs0mg"},{"bike_id":"8cb3a3f4-4371-424b-8f5f-84d27395a7b8","system_id":"levelo_inurba_marseille","lat":43.31757,"lon":5.39012,"is_reserved":false,"is_disabled":false,"rental_uris":{"android":"levelo://app?vid=8cb3a3f4-4371-424b-8f5f-84d27395a7b8","ios":"levelo://app?vid=8cb3a3f4-4371-424b-8f5f-84d27395a7b8"},"vehicle_type_id":"4","last_reported":1727719908,"current_range_meters":3600,"station_id":"ce4bhqp2rcd13ifvqhng","pricing_plan_id":"cebpf4jnsgd1na2vs0mg"},{"bike_id":"053c4b48-6b93-4053-bfdf-242ce1d4b1a8","system_id":"levelo_inurba_marseille","lat":43.300408,"lon":5.365988,"is_reserved":false,"is_disabled":false,"rental_uris":{"android":"levelo://app?vid=053c4b48-6b93-4053-bfdf-242ce1d4b1a8","ios":"levelo://app?vid=053c4b48-6b93-4053-bfdf-242ce1d4b1a8"},"vehicle_type_id":"4","last_reported":1727719908,"current_range_meters":16800,"station_id":"ce4bgm92rcd13ifvqbr0","pricing_plan_id":"cebpf4jnsgd1na2vs0mg"},{"bike_id":"c5544116-fc8d-4295-8a7f-1b930ecb9f72","system_id":"levelo_inurba_marseille","lat":43.30139,"lon":5.3878,"is_reserved":false,"is_disabled":false,"rental_uris":{"android":"levelo://app?vid=c5544116-fc8d-4295-8a7f-1b930ecb9f72","ios":"levelo://app?vid=c5544116-fc8d-4295-8a7f-1b930ecb9f72"},"vehicle_type_id":"4","last_reported":1727719908,"current_range_meters":9200,"station_id":"ce4bghh2rcd13ifvqb60","pricing_plan_id":"cebpf4jnsgd1na2vs0mg"},{"bike_id":"1d509edf-06d8-4a06-95b3-92b6a29ad4d8","system_id":"levelo_inurba_marseille","lat":43.30252,"lon":5.40072,"is_reserved":false,"is_disabled":false,"rental_uris":{"android":"levelo://app?vid=1d509edf-06d8-4a06-95b3-92b6a29ad4d8","ios":"levelo://app?vid=1d509edf-06d8-4a06-95b3-92b6a29ad4d8"},"vehicle_type_id":"4","last_reported":1727719908,"current_range_meters":12000,"station_id":"ce4bgvh2rcd13ifvqcs0","pricing_plan_id":"cebpf4jnsgd1na2vs0mg"},{"bike_id":"436f8521-dd3d-4adb-acac-8eeea5c27148","system_id":"levelo_inurba_marseille","lat":43.28418,"lon":5.37501,"is_reserved":false,"is_disabled":false,"rental_uris":{"android":"levelo://app?vid=436f8521-dd3d-4adb-acac-8eeea5c27148","ios":"levelo://app?vid=436f8521-dd3d-4adb-acac-8eeea5c27148"},"vehicle_type_id":"4","last_reported":1727719908,"current_range_meters":8000,"station_id":"ce4bh412rcd13ifvqds0","pricing_plan_id":"cebpf4jnsgd1na2vs0mg"},{"bike_id":"61c7e869-b312-4f42-bd14-26d8634d4d43","system_id":"levelo_inurba_marseille","lat":43.29273,"lon":5.40144,"is_reserved":false,"is_disabled":false,"rental_uris":{"android":"levelo://app?vid=61c7e869-b312-4f42-bd14-26d8634d4d43","ios":"levelo://app?vid=61c7e869-b312-4f42-bd14-26d8634d4d43"},"vehicle_type_id":"4","last_reported":1727719908,"current_range_meters":39200,"station_id":"ce4bh312rcd13ifvqdk0","pricing_plan_id":"cebpf4jnsgd1na2vs0mg"},{"bike_id":"8490e44e-0aff-4d7e-8a96-481d57cd3987","system_id":"levelo_inurba_marseille","lat":43.28511,"lon":5.39127,"is_reserved":false,"is_disabled":false,"rental_uris":{"android":"levelo://app?vid=8490e44e-0aff-4d7e-8a96-481d57cd3987","ios":"levelo://app?vid=8490e44e-0aff-4d7e-8a96-481d57cd3987"},"vehicle_type_id":"4","last_reported":1727719908,"current_range_meters":22400,"station_id":"ce4bh3p2rcd13ifvqdp0","pricing_plan_id":"cebpf4jnsgd1na2vs0mg"},{"bike_id":"65dcc76e-9790-4f4b-a2c2-030038a59057","system_id":"levelo_inurba_marseille","lat":43.28711,"lon":5.37377,"is_reserved":false,"is_disabled":false,"rental_uris":{"android":"levelo://app?vid=65dcc76e-9790-4f4b-a2c2-030038a59057","ios":"levelo://app?vid=65dcc76e-9790-4f4b-a2c2-030038a59057"},"vehicle_type_id":"4","last_reported":1727719908,"current_range_meters":38800,"station_id":"ce4bh3p2rcd13ifvqdq0","pricing_plan_id":"cebpf4jnsgd1na2vs0mg"},{"bike_id":"32f2835b-2b3f-4675-bac6-edfe681bec66","system_id":"levelo_inurba_marseille","lat":43.24191,"lon":5.40563,"is_reserved":false,"is_disabled":false,"rental_uris":{"android":"levelo://app?vid=32f2835b-2b3f-4675-bac6-edfe681bec66","ios":"levelo://app?vid=32f2835b-2b3f-4675-bac6-edfe681bec66"},"vehicle_type_id":"4","last_reported":1727719908,"current_range_meters":32000,"station_id":"","pricing_plan_id":"cebpf4jnsgd1na2vs0mg"},{"bike_id":"f54334eb-2195-4db5-889a-3481da52f9df","system_id":"levelo_inurba_marseille","lat":43.32292,"lon":5.38273,"is_reserved":false,"is_disabled":false,"rental_uris":{"android":"levelo://app?vid=f54334eb-2195-4db5-889a-3481da52f9df","ios":"levelo://app?vid=f54334eb-2195-4db5-889a-3481da52f9df"},"vehicle_type_id":"4","last_reported":1727719908,"current_range_meters":39200,"station_id":"ce4bhr12rcd13ifvqhqg","pricing_plan_id":"cebpf4jnsgd1na2vs0mg"},{"bike_id":"bc1e29b5-c901-4d3b-aab6-d69f6e01fde1","system_id":"levelo_inurba_marseille","lat":43.250926,"lon":5.394902,"is_reserved":false,"is_disabled":false,"rental_uris":{"android":"levelo://app?vid=bc1e29b5-c901-4d3b-aab6-d69f6e01fde1","ios":"levelo://app?vid=bc1e29b5-c901-4d3b-aab6-d69f6e01fde1"},"vehicle_type_id":"4","last_reported":1727719908,"current_range_meters":27200,"station_id":"ce4bhm12rcd13ifvqgkg","pricing_plan_id":"cebpf4jnsgd1na2vs0mg"},{"bike_id":"29b19f54-b2be-4aa6-98a9-eadf403c3b4a","system_id":"levelo_inurba_marseille","lat":43.2511,"lon":5.40321,"is_reserved":false,"is_disabled":false,"rental_uris":{"android":"levelo://app?vid=29b19f54-b2be-4aa6-98a9-eadf403c3b4a","ios":"levelo://app?vid=29b19f54-b2be-4aa6-98a9-eadf403c3b4a"},"vehicle_type_id":"4","last_reported":1727719908,"current_range_meters":38400,"station_id":"ce4bhlh2rcd13ifvqgig","pricing_plan_id":"cebpf4jnsgd1na2vs0mg"},{"bike_id":"c0d874a3-bb7c-4378-af83-74e7141e63e6","system_id":"levelo_inurba_marseille","lat":43.34142,"lon":5.40901,"is_reserved":false,"is_disabled":false,"rental_uris":{"android":"levelo://app?vid=c0d874a3-bb7c-4378-af83-74e7141e63e6","ios":"levelo://app?vid=c0d874a3-bb7c-4378-af83-74e7141e63e6"},"vehicle_type_id":"4","last_reported":1727719908,"current_range_meters":6800,"station_id":"ce4bhqh2rcd13ifvqhlg","pricing_plan_id":"cebpf4jnsgd1na2vs0mg"},{"bike_id":"5dfd9658-fa7f-46fc-b68f-ea8f76487a17","system_id":"levelo_inurba_marseille","lat":43.337444,"lon":5.374475,"is_reserved":false,"is_disabled":false,"rental_uris":{"android":"levelo://app?vid=5dfd9658-fa7f-46fc-b68f-ea8f76487a17","ios":"levelo://app?vid=5dfd9658-fa7f-46fc-b68f-ea8f76487a17"},"vehicle_type_id":"4","last_reported":1727719908,"current_range_meters":20400,"station_id":"","pricing_plan_id":"cebpf4jnsgd1na2vs0mg"},{"bike_id":"54e54f3b-f258-4572-9c08-a7598fa4160a","system_id":"levelo_inurba_marseille","lat":43.29195,"lon":5.3932,"is_reserved":false,"is_disabled":false,"rental_uris":{"android":"levelo://app?vid=54e54f3b-f258-4572-9c08-a7598fa4160a","ios":"levelo://app?vid=54e54f3b-f258-4572-9c08-a7598fa4160a"},"vehicle_type_id":"4","last_reported":1727719908,"current_range_meters":37600,"station_id":"ce4bh192rcd13ifvqdd0","pricing_plan_id":"cebpf4jnsgd1na2vs0mg"},{"bike_id":"eab30390-0c07-449c-a891-cba8bee1096b","system_id":"levelo_inurba_marseille","lat":43.32315,"lon":5.38294,"is_reserved":false,"is_disabled":false,"rental_uris":{"android":"levelo://app?vid=eab30390-0c07-449c-a891-cba8bee1096b","ios":"levelo://app?vid=eab30390-0c07-449c-a891-cba8bee1096b"},"vehicle_type_id":"4","last_reported":1727719908,"current_range_meters":36000,"station_id":"ce4bhr12rcd13ifvqhqg","pricing_plan_id":"cebpf4jnsgd1na2vs0mg"},{"bike_id":"fdef7ae9-ba96-44b0-b95b-7baf90afc649","system_id":"levelo_inurba_marseille","lat":43.23951,"lon":5.36635,"is_reserved":false,"is_disabled":false,"rental_uris":{"android":"levelo://app?vid=fdef7ae9-ba96-44b0-b95b-7baf90afc649","ios":"levelo://app?vid=fdef7ae9-ba96-44b0-b95b-7baf90afc649"},"vehicle_type_id":"4","last_reported":1727719908,"current_range_meters":22800,"station_id":"ce4bhi12rcd13ifvqfp0","pricing_plan_id":"cebpf4jnsgd1na2vs0mg"},{"bike_id":"380ff23b-d92b-414d-8906-be6a95199987","system_id":"levelo_inurba_marseille","lat":43.31995,"lon":5.3817,"is_reserved":false,"is_disabled":false,"rental_uris":{"android":"levelo://app?vid=380ff23b-d92b-414d-8906-be6a95199987","ios":"levelo://app?vid=380ff23b-d92b-414d-8906-be6a95199987"},"vehicle_type_id":"4","last_reported":1727719908,"current_range_meters":17600,"station_id":"ce4bhr12rcd13ifvqhpg","pricing_plan_id":"cebpf4jnsgd1na2vs0mg"},{"bike_id":"1ec97623-961d-42c3-b9c8-7daa08b6c2ee","system_id":"levelo_inurba_marseille","lat":43.29273,"lon":5.36848,"is_reserved":false,"is_disabled":false,"rental_uris":{"android":"levelo://app?vid=1ec97623-961d-42c3-b9c8-7daa08b6c2ee","ios":"levelo://app?vid=1ec97623-961d-42c3-b9c8-7daa08b6c2ee"},"vehicle_type_id":"4","last_reported":1727719908,"current_range_meters":6400,"station_id":"ce4bgop2rcd13ifvqc1g","pricing_plan_id":"cebpf4jnsgd1na2vs0mg"},{"bike_id":"8df38f71-01eb-4e72-a4b6-cd3b5d0edcf2","system_id":"levelo_inurba_marseille","lat":43.29276,"lon":5.3685,"is_reserved":false,"is_disabled":false,"rental_uris":{"android":"levelo://app?vid=8df38f71-01eb-4e72-a4b6-cd3b5d0edcf2","ios":"levelo://app?vid=8df38f71-01eb-4e72-a4b6-cd3b5d0edcf2"},"vehicle_type_id":"4","last_reported":1727719908,"current_range_meters":38800,"station_id":"ce4bhbp2rcd13ifvqesg","pricing_plan_id":"cebpf4jnsgd1na2vs0mg"},{"bike_id":"13c15c75-5f60-4ebf-b9c0-b637374f5f97","system_id":"levelo_inurba_marseille","lat":43.28935,"lon":5.36634,"is_reserved":false,"is_disabled":false,"rental_uris":{"android":"levelo://app?vid=13c15c75-5f60-4ebf-b9c0-b637374f5f97","ios":"levelo://app?vid=13c15c75-5f60-4ebf-b9c0-b637374f5f97"},"vehicle_type_id":"4","last_reported":1727719908,"current_range_meters":3200,"station_id":"ce4bhap2rcd13ifvqek0","pricing_plan_id":"cebpf4jnsgd1na2vs0mg"},{"bike_id":"062eeea2-cfac-431f-b941-207e8ddc0b0f","system_id":"levelo_inurba_marseille","lat":43.30927,"lon":5.36849,"is_reserved":false,"is_disabled":false,"rental_uris":{"android":"levelo://app?vid=062eeea2-cfac-431f-b941-207e8ddc0b0f","ios":"levelo://app?vid=062eeea2-cfac-431f-b941-207e8ddc0b0f"},"vehicle_type_id":"4","last_reported":1727719908,"current_range_meters":4000,"station_id":"ce4bgn92rcd13ifvqbvg","pricing_plan_id":"cebpf4jnsgd1na2vs0mg"},{"bike_id":"8d6626dc-d304-4679-840d-4d4ee9a4e84f","system_id":"levelo_inurba_marseille","lat":43.27811,"lon":5.4072,"is_reserved":false,"is_disabled":false,"rental_uris":{"android":"levelo://app?vid=8d6626dc-d304-4679-840d-4d4ee9a4e84f","ios":"levelo://app?vid=8d6626dc-d304-4679-840d-4d4ee9a4e84f"},"vehicle_type_id":"4","last_reported":1727719908,"current_range_meters":3600,"station_id":"ce4bhnh2rcd13ifvqgtg","pricing_plan_id":"cebpf4jnsgd1na2vs0mg"},{"bike_id":"4d980aa6-70a2-4b6f-9517-d9ed470adbb2","system_id":"levelo_inurba_marseille","lat":43.28407,"lon":5.37518,"is_reserved":false,"is_disabled":false,"rental_uris":{"android":"levelo://app?vid=4d980aa6-70a2-4b6f-9517-d9ed470adbb2","ios":"levelo://app?vid=4d980aa6-70a2-4b6f-9517-d9ed470adbb2"},"vehicle_type_id":"4","last_reported":1727719908,"current_range_meters":38800,"station_id":"ce4bh412rcd13ifvqds0","pricing_plan_id":"cebpf4jnsgd1na2vs0mg"},{"bike_id":"f525079f-2c41-4cbc-b9df-6b7cd28d4243","system_id":"levelo_inurba_marseille","lat":43.28434,"lon":5.39191,"is_reserved":false,"is_disabled":false,"rental_uris":{"android":"levelo://app?vid=f525079f-2c41-4cbc-b9df-6b7cd28d4243","ios":"levelo://app?vid=f525079f-2c41-4cbc-b9df-6b7cd28d4243"},"vehicle_type_id":"4","last_reported":1727719908,"current_range_meters":10000,"station_id":"ce4bhoh2rcd13ifvqh5g","pricing_plan_id":"cebpf4jnsgd1na2vs0mg"},{"bike_id":"ce0a6298-7234-4702-b5b4-87c097f2e621","system_id":"levelo_inurba_marseille","lat":43.22931,"lon":5.35384,"is_reserved":false,"is_disabled":false,"rental_uris":{"android":"levelo://app?vid=ce0a6298-7234-4702-b5b4-87c097f2e621","ios":"levelo://app?vid=ce0a6298-7234-4702-b5b4-87c097f2e621"},"vehicle_type_id":"4","last_reported":1727719908,"current_range_meters":11200,"station_id":"cpo3532slgdg3j2ikp40","pricing_plan_id":"cebpf4jnsgd1na2vs0mg"},{"bike_id":"94a335ac-0965-4655-a8be-f55c15304f15","system_id":"levelo_inurba_marseille","lat":43.31708,"lon":5.37758,"is_reserved":false,"is_disabled":false,"rental_uris":{"android":"levelo://app?vid=94a335ac-0965-4655-a8be-f55c15304f15","ios":"levelo://app?vid=94a335ac-0965-4655-a8be-f55c15304f15"},"vehicle_type_id":"4","last_reported":1727719908,"current_range_meters":23200,"station_id":"ce4bgth2rcd13ifvqch0","pricing_plan_id":"cebpf4jnsgd1na2vs0mg"},{"bike_id":"7fae0be7-c4bb-49ce-a06d-9bee282252b1","system_id":"levelo_inurba_marseille","lat":43.25577,"lon":5.38242,"is_reserved":false,"is_disabled":false,"rental_uris":{"android":"levelo://app?vid=7fae0be7-c4bb-49ce-a06d-9bee282252b1","ios":"levelo://app?vid=7fae0be7-c4bb-49ce-a06d-9bee282252b1"},"vehicle_type_id":"4","last_reported":1727719908,"current_range_meters":39200,"station_id":"ce4bhih2rcd13ifvqfs0","pricing_plan_id":"cebpf4jnsgd1na2vs0mg"},{"bike_id":"2fdd65f4-dc58-4a4c-acc2-561775e1bbc0","system_id":"levelo_inurba_marseille","lat":43.2951,"lon":5.37507,"is_reserved":false,"is_disabled":false,"rental_uris":{"android":"levelo://app?vid=2fdd65f4-dc58-4a4c-acc2-561775e1bbc0","ios":"levelo://app?vid=2fdd65f4-dc58-4a4c-acc2-561775e1bbc0"},"vehicle_type_id":"4","last_reported":1727719908,"current_range_meters":10000,"station_id":"ce4bgkp2rcd13ifvqbmg","pricing_plan_id":"cebpf4jnsgd1na2vs0mg"},{"bike_id":"afe71111-a9a6-4d85-8b59-dc7b6552a81a","system_id":"levelo_inurba_marseille","lat":43.2844,"lon":5.39201,"is_reserved":false,"is_disabled":false,"rental_uris":{"android":"levelo://app?vid=afe71111-a9a6-4d85-8b59-dc7b6552a81a","ios":"levelo://app?vid=afe71111-a9a6-4d85-8b59-dc7b6552a81a"},"vehicle_type_id":"4","last_reported":1727719908,"current_range_meters":29600,"station_id":"ce4bhoh2rcd13ifvqh5g","pricing_plan_id":"cebpf4jnsgd1na2vs0mg"},{"bike_id":"b185cc26-0f43-476b-a35c-18962fe68072","system_id":"levelo_inurba_marseille","lat":43.293013,"lon":5.371705,"is_reserved":false,"is_disabled":false,"rental_uris":{"android":"levelo://app?vid=b185cc26-0f43-476b-a35c-18962fe68072","ios":"levelo://app?vid=b185cc26-0f43-476b-a35c-18962fe68072"},"vehicle_type_id":"4","last_reported":1727719908,"current_range_meters":6800,"station_id":"ce4bgh92rcd13ifvqb40","pricing_plan_id":"cebpf4jnsgd1na2vs0mg"},{"bike_id":"90c1a05c-7555-4cf0-8f75-869f4b419ae4","system_id":"levelo_inurba_marseille","lat":43.296265,"lon":5.372136,"is_reserved":false,"is_disabled":false,"rental_uris":{"android":"levelo://app?vid=90c1a05c-7555-4cf0-8f75-869f4b419ae4","ios":"levelo://app?vid=90c1a05c-7555-4cf0-8f75-869f4b419ae4"},"vehicle_type_id":"4","last_reported":1727719908,"current_range_meters":32400,"station_id":"ce4bgnh2rcd13ifvqc0g","pricing_plan_id":"cebpf4jnsgd1na2vs0mg"},{"bike_id":"3a33c00e-dc41-42cf-a7aa-ad0177a46dc9","system_id":"levelo_inurba_marseille","lat":43.31082,"lon":5.42432,"is_reserved":false,"is_disabled":false,"rental_uris":{"android":"levelo://app?vid=3a33c00e-dc41-42cf-a7aa-ad0177a46dc9","ios":"levelo://app?vid=3a33c00e-dc41-42cf-a7aa-ad0177a46dc9"},"vehicle_type_id":"4","last_reported":1727719908,"current_range_meters":2000,"station_id":"ce4bhp92rcd13ifvqhag","pricing_plan_id":"cebpf4jnsgd1na2vs0mg"},{"bike_id":"2e370cb3-ea38-41f1-a5d6-d19c3ad5bdb5","system_id":"levelo_inurba_marseille","lat":43.249636,"lon":5.389601,"is_reserved":false,"is_disabled":false,"rental_uris":{"android":"levelo://app?vid=2e370cb3-ea38-41f1-a5d6-d19c3ad5bdb5","ios":"levelo://app?vid=2e370cb3-ea38-41f1-a5d6-d19c3ad5bdb5"},"vehicle_type_id":"4","last_reported":1727719908,"current_range_meters":19600,"station_id":"ce4bhgp2rcd13ifvqfd0","pricing_plan_id":"cebpf4jnsgd1na2vs0mg"},{"bike_id":"7449a76c-3496-44a2-afd1-29fe752c2766","system_id":"levelo_inurba_marseille","lat":43.30328,"lon":5.40436,"is_reserved":false,"is_disabled":false,"rental_uris":{"android":"levelo://app?vid=7449a76c-3496-44a2-afd1-29fe752c2766","ios":"levelo://app?vid=7449a76c-3496-44a2-afd1-29fe752c2766"},"vehicle_type_id":"4","last_reported":1727719908,"current_range_meters":8400,"station_id":"ce4bh012rcd13ifvqd10","pricing_plan_id":"cebpf4jnsgd1na2vs0mg"},{"bike_id":"1faa11e0-9c2f-451b-b4d4-46a466604688","system_id":"levelo_inurba_marseille","lat":43.28081,"lon":5.39663,"is_reserved":false,"is_disabled":false,"rental_uris":{"android":"levelo://app?vid=1faa11e0-9c2f-451b-b4d4-46a466604688","ios":"levelo://app?vid=1faa11e0-9c2f-451b-b4d4-46a466604688"},"vehicle_type_id":"4","last_reported":1727719908,"current_range_meters":16400,"station_id":"ce4bho12rcd13ifvqh2g","pricing_plan_id":"cebpf4jnsgd1na2vs0mg"},{"bike_id":"fc8651da-980e-4016-a6a8-9b85b07fb25e","system_id":"levelo_inurba_marseille","lat":43.23182,"lon":5.39987,"is_reserved":false,"is_disabled":false,"rental_uris":{"android":"levelo://app?vid=fc8651da-980e-4016-a6a8-9b85b07fb25e","ios":"levelo://app?vid=fc8651da-980e-4016-a6a8-9b85b07fb25e"},"vehicle_type_id":"4","last_reported":1727719908,"current_range_meters":14800,"station_id":"ce4bhn12rcd13ifvqgqg","pricing_plan_id":"cebpf4jnsgd1na2vs0mg"},{"bike_id":"5f8670b8-a069-47b6-a9c0-00c93816c490","system_id":"levelo_inurba_marseille","lat":43.29032,"lon":5.37567,"is_reserved":false,"is_disabled":false,"rental_uris":{"android":"levelo://app?vid=5f8670b8-a069-47b6-a9c0-00c93816c490","ios":"levelo://app?vid=5f8670b8-a069-47b6-a9c0-00c93816c490"},"vehicle_type_id":"4","last_reported":1727719908,"current_range_meters":38800,"station_id":"ce4bh692rcd13ifvqe90","pricing_plan_id":"cebpf4jnsgd1na2vs0mg"},{"bike_id":"dc5f6c9a-484d-4b50-bac5-b1111c1f94e5","system_id":"levelo_inurba_marseille","lat":43.29415,"lon":5.38627,"is_reserved":false,"is_disabled":false,"rental_uris":{"android":"levelo://app?vid=dc5f6c9a-484d-4b50-bac5-b1111c1f94e5","ios":"levelo://app?vid=dc5f6c9a-484d-4b50-bac5-b1111c1f94e5"},"vehicle_type_id":"4","last_reported":1727719908,"current_range_meters":38800,"station_id":"ce4bh2h2rcd13ifvqdh0","pricing_plan_id":"cebpf4jnsgd1na2vs0mg"},{"bike_id":"64d96b78-fd08-49b3-8c86-064e10657112","system_id":"levelo_inurba_marseille","lat":43.30802,"lon":5.43528,"is_reserved":false,"is_disabled":false,"rental_uris":{"android":"levelo://app?vid=64d96b78-fd08-49b3-8c86-064e10657112","ios":"levelo://app?vid=64d96b78-fd08-49b3-8c86-064e10657112"},"vehicle_type_id":"4","last_reported":1727719908,"current_range_meters":5600,"station_id":"ce4bhph2rcd13ifvqheg","pricing_plan_id":"cebpf4jnsgd1na2vs0mg"},{"bike_id":"f6a17653-60fe-4905-8fcc-171ea7153dd8","system_id":"levelo_inurba_marseille","lat":43.337444,"lon":5.374475,"is_reserved":false,"is_disabled":false,"rental_uris":{"android":"levelo://app?vid=f6a17653-60fe-4905-8fcc-171ea7153dd8","ios":"levelo://app?vid=f6a17653-60fe-4905-8fcc-171ea7153dd8"},"vehicle_type_id":"4","last_reported":1727719908,"current_range_meters":35200,"station_id":"","pricing_plan_id":"cebpf4jnsgd1na2vs0mg"},{"bike_id":"79e3b807-678c-4e9f-bcb7-05c9cb3c6740","system_id":"levelo_inurba_marseille","lat":43.32266,"lon":5.38284,"is_reserved":false,"is_disabled":false,"rental_uris":{"android":"levelo://app?vid=79e3b807-678c-4e9f-bcb7-05c9cb3c6740","ios":"levelo://app?vid=79e3b807-678c-4e9f-bcb7-05c9cb3c6740"},"vehicle_type_id":"4","last_reported":1727719908,"current_range_meters":5600,"station_id":"ce4bhr12rcd13ifvqhqg","pricing_plan_id":"cebpf4jnsgd1na2vs0mg"},{"bike_id":"bade9771-6222-4655-b615-d1972f579be8","system_id":"levelo_inurba_marseille","lat":43.29954,"lon":5.41324,"is_reserved":false,"is_disabled":false,"rental_uris":{"android":"levelo://app?vid=bade9771-6222-4655-b615-d1972f579be8","ios":"levelo://app?vid=bade9771-6222-4655-b615-d1972f579be8"},"vehicle_type_id":"4","last_reported":1727719908,"current_range_meters":20000,"station_id":"ce4bhp12rcd13ifvqh9g","pricing_plan_id":"cebpf4jnsgd1na2vs0mg"},{"bike_id":"28e23b31-a1de-43a5-aa85-c15becbae179","system_id":"levelo_inurba_marseille","lat":43.32292,"lon":5.38274,"is_reserved":false,"is_disabled":false,"rental_uris":{"android":"levelo://app?vid=28e23b31-a1de-43a5-aa85-c15becbae179","ios":"levelo://app?vid=28e23b31-a1de-43a5-aa85-c15becbae179"},"vehicle_type_id":"4","last_reported":1727719908,"current_range_meters":30400,"station_id":"ce4bhr12rcd13ifvqhqg","pricing_plan_id":"cebpf4jnsgd1na2vs0mg"},{"bike_id":"60357e15-b2c0-4771-bf08-a7902fc78171","system_id":"levelo_inurba_marseille","lat":43.33021,"lon":5.39042,"is_reserved":false,"is_disabled":false,"rental_uris":{"android":"levelo://app?vid=60357e15-b2c0-4771-bf08-a7902fc78171","ios":"levelo://app?vid=60357e15-b2c0-4771-bf08-a7902fc78171"},"vehicle_type_id":"4","last_reported":1727719908,"current_range_meters":28800,"station_id":"ce4bhr92rcd13ifvqhrg","pricing_plan_id":"cebpf4jnsgd1na2vs0mg"},{"bike_id":"3835e276-a347-4d68-916b-b153ffcf8e48","system_id":"levelo_inurba_marseille","lat":43.3175,"lon":5.39029,"is_reserved":false,"is_disabled":false,"rental_uris":{"android":"levelo://app?vid=3835e276-a347-4d68-916b-b153ffcf8e48","ios":"levelo://app?vid=3835e276-a347-4d68-916b-b153ffcf8e48"},"vehicle_type_id":"4","last_reported":1727719908,"current_range_meters":16400,"station_id":"ce4bhqp2rcd13ifvqhng","pricing_plan_id":"cebpf4jnsgd1na2vs0mg"},{"bike_id":"930300da-0d97-40c9-b85c-e8374a388e97","system_id":"levelo_inurba_marseille","lat":43.31994,"lon":5.38166,"is_reserved":false,"is_disabled":false,"rental_uris":{"android":"levelo://app?vid=930300da-0d97-40c9-b85c-e8374a388e97","ios":"levelo://app?vid=930300da-0d97-40c9-b85c-e8374a388e97"},"vehicle_type_id":"4","last_reported":1727719908,"current_range_meters":38000,"station_id":"ce4bhr12rcd13ifvqhpg","pricing_plan_id":"cebpf4jnsgd1na2vs0mg"},{"bike_id":"59992c7f-791a-4ca9-9bc8-cab492b77898","system_id":"levelo_inurba_marseille","lat":43.26798,"lon":5.39413,"is_reserved":false,"is_disabled":false,"rental_uris":{"android":"levelo://app?vid=59992c7f-791a-4ca9-9bc8-cab492b77898","ios":"levelo://app?vid=59992c7f-791a-4ca9-9bc8-cab492b77898"},"vehicle_type_id":"4","last_reported":1727719908,"current_range_meters":9600,"station_id":"ce4bhh12rcd13ifvqfg0","pricing_plan_id":"cebpf4jnsgd1na2vs0mg"},{"bike_id":"e1e69afc-963f-40eb-b65e-ed0eed3bf53f","system_id":"levelo_inurba_marseille","lat":43.25575,"lon":5.38233,"is_reserved":false,"is_disabled":false,"rental_uris":{"android":"levelo://app?vid=e1e69afc-963f-40eb-b65e-ed0eed3bf53f","ios":"levelo://app?vid=e1e69afc-963f-40eb-b65e-ed0eed3bf53f"},"vehicle_type_id":"4","last_reported":1727719908,"current_range_meters":32400,"station_id":"ce4bhih2rcd13ifvqfs0","pricing_plan_id":"cebpf4jnsgd1na2vs0mg"},{"bike_id":"7e9f0e62-f3a1-4e36-8080-768496cac4f3","system_id":"levelo_inurba_marseille","lat":43.23196,"lon":5.3998,"is_reserved":false,"is_disabled":false,"rental_uris":{"android":"levelo://app?vid=7e9f0e62-f3a1-4e36-8080-768496cac4f3","ios":"levelo://app?vid=7e9f0e62-f3a1-4e36-8080-768496cac4f3"},"vehicle_type_id":"4","last_reported":1727719908,"current_range_meters":30000,"station_id":"ce4bhn12rcd13ifvqgqg","pricing_plan_id":"cebpf4jnsgd1na2vs0mg"},{"bike_id":"85b61a0c-54d2-404b-99c1-2360fd9424c0","system_id":"levelo_inurba_marseille","lat":43.23183,"lon":5.39995,"is_reserved":false,"is_disabled":false,"rental_uris":{"android":"levelo://app?vid=85b61a0c-54d2-404b-99c1-2360fd9424c0","ios":"levelo://app?vid=85b61a0c-54d2-404b-99c1-2360fd9424c0"},"vehicle_type_id":"4","last_reported":1727719908,"current_range_meters":8800,"station_id":"ce4bhn12rcd13ifvqgqg","pricing_plan_id":"cebpf4jnsgd1na2vs0mg"},{"bike_id":"57a1c879-1005-4257-994d-08dd36c67aeb","system_id":"levelo_inurba_marseille","lat":43.25579,"lon":5.38231,"is_reserved":false,"is_disabled":false,"rental_uris":{"android":"levelo://app?vid=57a1c879-1005-4257-994d-08dd36c67aeb","ios":"levelo://app?vid=57a1c879-1005-4257-994d-08dd36c67aeb"},"vehicle_type_id":"4","last_reported":1727719908,"current_range_meters":8000,"station_id":"ce4bhih2rcd13ifvqfs0","pricing_plan_id":"cebpf4jnsgd1na2vs0mg"},{"bike_id":"9ab0add5-1391-4191-b232-9b6931091512","system_id":"levelo_inurba_marseille","lat":43.2844,"lon":5.39205,"is_reserved":false,"is_disabled":false,"rental_uris":{"android":"levelo://app?vid=9ab0add5-1391-4191-b232-9b6931091512","ios":"levelo://app?vid=9ab0add5-1391-4191-b232-9b6931091512"},"vehicle_type_id":"4","last_reported":1727719908,"current_range_meters":20000,"station_id":"ce4bhoh2rcd13ifvqh5g","pricing_plan_id":"cebpf4jnsgd1na2vs0mg"},{"bike_id":"bbb23734-6aed-4ea8-8851-f38712ae567b","system_id":"levelo_inurba_marseille","lat":43.32416,"lon":5.38967,"is_reserved":false,"is_disabled":false,"rental_uris":{"android":"levelo://app?vid=bbb23734-6aed-4ea8-8851-f38712ae567b","ios":"levelo://app?vid=bbb23734-6aed-4ea8-8851-f38712ae567b"},"vehicle_type_id":"4","last_reported":1727719908,"current_range_meters":24400,"station_id":"","pricing_plan_id":"cebpf4jnsgd1na2vs0mg"},{"bike_id":"adfcd696-d8b4-43a7-8cd5-ea940a508fca","system_id":"levelo_inurba_marseille","lat":43.27424,"lon":5.39427,"is_reserved":false,"is_disabled":false,"rental_uris":{"android":"levelo://app?vid=adfcd696-d8b4-43a7-8cd5-ea940a508fca","ios":"levelo://app?vid=adfcd696-d8b4-43a7-8cd5-ea940a508fca"},"vehicle_type_id":"4","last_reported":1727719908,"current_range_meters":36000,"station_id":"ce4bhdp2rcd13ifvqf20","pricing_plan_id":"cebpf4jnsgd1na2vs0mg"},{"bike_id":"35c8a54d-87e0-45cb-9ca3-c31a1eef1499","system_id":"levelo_inurba_marseille","lat":43.2886,"lon":5.39306,"is_reserved":false,"is_disabled":false,"rental_uris":{"android":"levelo://app?vid=35c8a54d-87e0-45cb-9ca3-c31a1eef1499","ios":"levelo://app?vid=35c8a54d-87e0-45cb-9ca3-c31a1eef1499"},"vehicle_type_id":"4","last_reported":1727719908,"current_range_meters":16000,"station_id":"ce4bh2p2rcd13ifvqdi0","pricing_plan_id":"cebpf4jnsgd1na2vs0mg"},{"bike_id":"2712b844-008d-488f-be02-ae447bdebe3c","system_id":"levelo_inurba_marseille","lat":43.30146,"lon":5.38082,"is_reserved":false,"is_disabled":false,"rental_uris":{"android":"levelo://app?vid=2712b844-008d-488f-be02-ae447bdebe3c","ios":"levelo://app?vid=2712b844-008d-488f-be02-ae447bdebe3c"},"vehicle_type_id":"4","last_reported":1727719908,"current_range_meters":20000,"station_id":"ce4bgjp2rcd13ifvqbh0","pricing_plan_id":"cebpf4jnsgd1na2vs0mg"},{"bike_id":"26f9ab25-50bf-4698-9695-2ff2fbd07232","system_id":"levelo_inurba_marseille","lat":43.31718,"lon":5.42397,"is_reserved":false,"is_disabled":false,"rental_uris":{"android":"levelo://app?vid=26f9ab25-50bf-4698-9695-2ff2fbd07232","ios":"levelo://app?vid=26f9ab25-50bf-4698-9695-2ff2fbd07232"},"vehicle_type_id":"4","last_reported":1727719908,"current_range_meters":6400,"station_id":"ce4bhp92rcd13ifvqhbg","pricing_plan_id":"cebpf4jnsgd1na2vs0mg"},{"bike_id":"c64da153-a562-4f86-9f35-286156edb213","system_id":"levelo_inurba_marseille","lat":43.32273,"lon":5.38681,"is_reserved":false,"is_disabled":false,"rental_uris":{"android":"levelo://app?vid=c64da153-a562-4f86-9f35-286156edb213","ios":"levelo://app?vid=c64da153-a562-4f86-9f35-286156edb213"},"vehicle_type_id":"4","last_reported":1727719908,"current_range_meters":16000,"station_id":"","pricing_plan_id":"cebpf4jnsgd1na2vs0mg"},{"bike_id":"47e74d5d-2bda-4f5f-9f78-adbc9b887608","system_id":"levelo_inurba_marseille","lat":43.28706,"lon":5.39991,"is_reserved":false,"is_disabled":false,"rental_uris":{"android":"levelo://app?vid=47e74d5d-2bda-4f5f-9f78-adbc9b887608","ios":"levelo://app?vid=47e74d5d-2bda-4f5f-9f78-adbc9b887608"},"vehicle_type_id":"4","last_reported":1727719908,"current_range_meters":10800,"station_id":"ce4bho92rcd13ifvqh3g","pricing_plan_id":"cebpf4jnsgd1na2vs0mg"},{"bike_id":"2a95996c-2154-4ca2-9550-045356d96b77","system_id":"levelo_inurba_marseille","lat":43.305911,"lon":5.393632,"is_reserved":false,"is_disabled":false,"rental_uris":{"android":"levelo://app?vid=2a95996c-2154-4ca2-9550-045356d96b77","ios":"levelo://app?vid=2a95996c-2154-4ca2-9550-045356d96b77"},"vehicle_type_id":"4","last_reported":1727719908,"current_range_meters":3200,"station_id":"ce4bhp92rcd13ifvqhbg","pricing_plan_id":"cebpf4jnsgd1na2vs0mg"},{"bike_id":"8d5d2695-848b-453f-8177-5f499c9c11a7","system_id":"levelo_inurba_marseille","lat":43.24387,"lon":5.37067,"is_reserved":false,"is_disabled":false,"rental_uris":{"android":"levelo://app?vid=8d5d2695-848b-453f-8177-5f499c9c11a7","ios":"levelo://app?vid=8d5d2695-848b-453f-8177-5f499c9c11a7"},"vehicle_type_id":"4","last_reported":1727719908,"current_range_meters":24400,"station_id":"ce4bhhh2rcd13ifvqfk0","pricing_plan_id":"cebpf4jnsgd1na2vs0mg"},{"bike_id":"6c58f61c-d7d0-471a-af4c-033e5e2c9121","system_id":"levelo_inurba_marseille","lat":43.29411,"lon":5.38633,"is_reserved":false,"is_disabled":false,"rental_uris":{"android":"levelo://app?vid=6c58f61c-d7d0-471a-af4c-033e5e2c9121","ios":"levelo://app?vid=6c58f61c-d7d0-471a-af4c-033e5e2c9121"},"vehicle_type_id":"4","last_reported":1727719908,"current_range_meters":38800,"station_id":"ce4bh2h2rcd13ifvqdh0","pricing_plan_id":"cebpf4jnsgd1na2vs0mg"},{"bike_id":"7232ff77-bac9-46af-ad46-d7e51e846f2d","system_id":"levelo_inurba_marseille","lat":43.309925,"lon":5.390493,"is_reserved":false,"is_disabled":false,"rental_uris":{"android":"levelo://app?vid=7232ff77-bac9-46af-ad46-d7e51e846f2d","ios":"levelo://app?vid=7232ff77-bac9-46af-ad46-d7e51e846f2d"},"vehicle_type_id":"4","last_reported":1727719908,"current_range_meters":38800,"station_id":"ce4bgup2rcd13ifvqco0","pricing_plan_id":"cebpf4jnsgd1na2vs0mg"},{"bike_id":"a3fb2098-a3d1-439d-95b9-6e4364eb59ec","system_id":"levelo_inurba_marseille","lat":43.24484,"lon":5.37835,"is_reserved":false,"is_disabled":false,"rental_uris":{"android":"levelo://app?vid=a3fb2098-a3d1-439d-95b9-6e4364eb59ec","ios":"levelo://app?vid=a3fb2098-a3d1-439d-95b9-6e4364eb59ec"},"vehicle_type_id":"4","last_reported":1727719908,"current_range_meters":14800,"station_id":"","pricing_plan_id":"cebpf4jnsgd1na2vs0mg"},{"bike_id":"3990e23d-d956-44a1-a05b-e617f4cd7ac4","system_id":"levelo_inurba_marseille","lat":43.29042,"lon":5.37481,"is_reserved":false,"is_disabled":false,"rental_uris":{"android":"levelo://app?vid=3990e23d-d956-44a1-a05b-e617f4cd7ac4","ios":"levelo://app?vid=3990e23d-d956-44a1-a05b-e617f4cd7ac4"},"vehicle_type_id":"4","last_reported":1727719908,"current_range_meters":29600,"station_id":"ce4bh4p2rcd13ifvqe0g","pricing_plan_id":"cebpf4jnsgd1na2vs0mg"},{"bike_id":"c4a9b464-4926-4b7c-b8ad-3831bdfb6cc5","system_id":"levelo_inurba_marseille","lat":43.32289,"lon":5.38272,"is_reserved":false,"is_disabled":false,"rental_uris":{"android":"levelo://app?vid=c4a9b464-4926-4b7c-b8ad-3831bdfb6cc5","ios":"levelo://app?vid=c4a9b464-4926-4b7c-b8ad-3831bdfb6cc5"},"vehicle_type_id":"4","last_reported":1727719908,"current_range_meters":22000,"station_id":"ce4bhr12rcd13ifvqhqg","pricing_plan_id":"cebpf4jnsgd1na2vs0mg"},{"bike_id":"d6b8d43c-2c9b-4207-a13b-9aca5d35203a","system_id":"levelo_inurba_marseille","lat":43.32292,"lon":5.38267,"is_reserved":false,"is_disabled":false,"rental_uris":{"android":"levelo://app?vid=d6b8d43c-2c9b-4207-a13b-9aca5d35203a","ios":"levelo://app?vid=d6b8d43c-2c9b-4207-a13b-9aca5d35203a"},"vehicle_type_id":"4","last_reported":1727719908,"current_range_meters":27200,"station_id":"ce4bhr12rcd13ifvqhqg","pricing_plan_id":"cebpf4jnsgd1na2vs0mg"},{"bike_id":"3e5134fe-1027-4be1-97d7-4ca102c5c1c1","system_id":"levelo_inurba_marseille","lat":43.29274,"lon":5.36848,"is_reserved":false,"is_disabled":false,"rental_uris":{"android":"levelo://app?vid=3e5134fe-1027-4be1-97d7-4ca102c5c1c1","ios":"levelo://app?vid=3e5134fe-1027-4be1-97d7-4ca102c5c1c1"},"vehicle_type_id":"4","last_reported":1727719908,"current_range_meters":38800,"station_id":"ce4bhbp2rcd13ifvqesg","pricing_plan_id":"cebpf4jnsgd1na2vs0mg"},{"bike_id":"23ae8e0b-85b9-4e45-9948-a0f5b8116df8","system_id":"levelo_inurba_marseille","lat":43.32366,"lon":5.38881,"is_reserved":false,"is_disabled":false,"rental_uris":{"android":"levelo://app?vid=23ae8e0b-85b9-4e45-9948-a0f5b8116df8","ios":"levelo://app?vid=23ae8e0b-85b9-4e45-9948-a0f5b8116df8"},"vehicle_type_id":"4","last_reported":1727719908,"current_range_meters":31200,"station_id":"ce4bhqp2rcd13ifvqhog","pricing_plan_id":"cebpf4jnsgd1na2vs0mg"},{"bike_id":"4d10cd27-b3a1-42b1-892c-090ba7b7b7c9","system_id":"levelo_inurba_marseille","lat":43.27892,"lon":5.38004,"is_reserved":false,"is_disabled":false,"rental_uris":{"android":"levelo://app?vid=4d10cd27-b3a1-42b1-892c-090ba7b7b7c9","ios":"levelo://app?vid=4d10cd27-b3a1-42b1-892c-090ba7b7b7c9"},"vehicle_type_id":"4","last_reported":1727719908,"current_range_meters":6800,"station_id":"ce4bhf92rcd13ifvqf50","pricing_plan_id":"cebpf4jnsgd1na2vs0mg"},{"bike_id":"731eb51e-3140-4ab3-a04c-edaaaf3487c5","system_id":"levelo_inurba_marseille","lat":43.29039,"lon":5.37569,"is_reserved":false,"is_disabled":false,"rental_uris":{"android":"levelo://app?vid=731eb51e-3140-4ab3-a04c-edaaaf3487c5","ios":"levelo://app?vid=731eb51e-3140-4ab3-a04c-edaaaf3487c5"},"vehicle_type_id":"4","last_reported":1727719908,"current_range_meters":33200,"station_id":"ce4bh692rcd13ifvqe90","pricing_plan_id":"cebpf4jnsgd1na2vs0mg"},{"bike_id":"7b719a2c-7b1b-42cd-abc4-a6d1a70d35a4","system_id":"levelo_inurba_marseille","lat":43.29944,"lon":5.36556,"is_reserved":false,"is_disabled":false,"rental_uris":{"android":"levelo://app?vid=7b719a2c-7b1b-42cd-abc4-a6d1a70d35a4","ios":"levelo://app?vid=7b719a2c-7b1b-42cd-abc4-a6d1a70d35a4"},"vehicle_type_id":"4","last_reported":1727719908,"current_range_meters":3600,"station_id":"ce4bgm92rcd13ifvqbr0","pricing_plan_id":"cebpf4jnsgd1na2vs0mg"},{"bike_id":"b1d90ff2-fb09-4e78-80d6-d34dad607df4","system_id":"levelo_inurba_marseille","lat":43.27999,"lon":5.40015,"is_reserved":false,"is_disabled":false,"rental_uris":{"android":"levelo://app?vid=b1d90ff2-fb09-4e78-80d6-d34dad607df4","ios":"levelo://app?vid=b1d90ff2-fb09-4e78-80d6-d34dad607df4"},"vehicle_type_id":"4","last_reported":1727719908,"current_range_meters":22000,"station_id":"ce4bho92rcd13ifvqh4g","pricing_plan_id":"cebpf4jnsgd1na2vs0mg"},{"bike_id":"68248463-084d-4168-a750-4de4b727f91c","system_id":"levelo_inurba_marseille","lat":43.25867,"lon":5.39897,"is_reserved":false,"is_disabled":false,"rental_uris":{"android":"levelo://app?vid=68248463-084d-4168-a750-4de4b727f91c","ios":"levelo://app?vid=68248463-084d-4168-a750-4de4b727f91c"},"vehicle_type_id":"4","last_reported":1727719908,"current_range_meters":9600,"station_id":"ce4bhl92rcd13ifvqghg","pricing_plan_id":"cebpf4jnsgd1na2vs0mg"},{"bike_id":"13f5d83a-ebf6-4a37-b4df-174b6d3f248d","system_id":"levelo_inurba_marseille","lat":43.25719,"lon":5.41116,"is_reserved":false,"is_disabled":false,"rental_uris":{"android":"levelo://app?vid=13f5d83a-ebf6-4a37-b4df-174b6d3f248d","ios":"levelo://app?vid=13f5d83a-ebf6-4a37-b4df-174b6d3f248d"},"vehicle_type_id":"4","last_reported":1727719908,"current_range_meters":9600,"station_id":"ce4bhkp2rcd13ifvqgd0","pricing_plan_id":"cebpf4jnsgd1na2vs0mg"},{"bike_id":"39fbf6c5-207c-412e-9fef-aec7f16d22bd","system_id":"levelo_inurba_marseille","lat":43.27961,"lon":5.40805,"is_reserved":false,"is_disabled":false,"rental_uris":{"android":"levelo://app?vid=39fbf6c5-207c-412e-9fef-aec7f16d22bd","ios":"levelo://app?vid=39fbf6c5-207c-412e-9fef-aec7f16d22bd"},"vehicle_type_id":"4","last_reported":1727719908,"current_range_meters":8400,"station_id":"","pricing_plan_id":"cebpf4jnsgd1na2vs0mg"},{"bike_id":"145041c7-adbf-40f3-9343-a07a350baa17","system_id":"levelo_inurba_marseille","lat":43.30727,"lon":5.374,"is_reserved":false,"is_disabled":false,"rental_uris":{"android":"levelo://app?vid=145041c7-adbf-40f3-9343-a07a350baa17","ios":"levelo://app?vid=145041c7-adbf-40f3-9343-a07a350baa17"},"vehicle_type_id":"4","last_reported":1727719908,"current_range_meters":38800,"station_id":"ce4bguh2rcd13ifvqckg","pricing_plan_id":"cebpf4jnsgd1na2vs0mg"},{"bike_id":"3e272f07-5338-45bb-8ec7-ee2566f96113","system_id":"levelo_inurba_marseille","lat":43.29435,"lon":5.41473,"is_reserved":false,"is_disabled":false,"rental_uris":{"android":"levelo://app?vid=3e272f07-5338-45bb-8ec7-ee2566f96113","ios":"levelo://app?vid=3e272f07-5338-45bb-8ec7-ee2566f96113"},"vehicle_type_id":"4","last_reported":1727719908,"current_range_meters":3600,"station_id":"ce4bhph2rcd13ifvqheg","pricing_plan_id":"cebpf4jnsgd1na2vs0mg"},{"bike_id":"ecc28239-fb89-4c24-ba97-410490d784ea","system_id":"levelo_inurba_marseille","lat":43.29418,"lon":5.38628,"is_reserved":false,"is_disabled":false,"rental_uris":{"android":"levelo://app?vid=ecc28239-fb89-4c24-ba97-410490d784ea","ios":"levelo://app?vid=ecc28239-fb89-4c24-ba97-410490d784ea"},"vehicle_type_id":"4","last_reported":1727719908,"current_range_meters":38800,"station_id":"ce4bh2h2rcd13ifvqdh0","pricing_plan_id":"cebpf4jnsgd1na2vs0mg"},{"bike_id":"e0ec798c-1a2e-4db9-a8f7-cd88ce7c2e7b","system_id":"levelo_inurba_marseille","lat":43.30351,"lon":5.41891,"is_reserved":false,"is_disabled":false,"rental_uris":{"android":"levelo://app?vid=e0ec798c-1a2e-4db9-a8f7-cd88ce7c2e7b","ios":"levelo://app?vid=e0ec798c-1a2e-4db9-a8f7-cd88ce7c2e7b"},"vehicle_type_id":"4","last_reported":1727719908,"current_range_meters":38000,"station_id":"ce4bhop2rcd13ifvqh7g","pricing_plan_id":"cebpf4jnsgd1na2vs0mg"},{"bike_id":"635629b1-6cc6-4951-a312-4d040174d6e0","system_id":"levelo_inurba_marseille","lat":43.292542,"lon":5.378632,"is_reserved":false,"is_disabled":false,"rental_uris":{"android":"levelo://app?vid=635629b1-6cc6-4951-a312-4d040174d6e0","ios":"levelo://app?vid=635629b1-6cc6-4951-a312-4d040174d6e0"},"vehicle_type_id":"4","last_reported":1727719908,"current_range_meters":22800,"station_id":"ce4bgjh2rcd13ifvqbf0","pricing_plan_id":"cebpf4jnsgd1na2vs0mg"},{"bike_id":"1619d16a-891e-4245-ad59-b2092400f2ae","system_id":"levelo_inurba_marseille","lat":43.28429,"lon":5.39184,"is_reserved":false,"is_disabled":false,"rental_uris":{"android":"levelo://app?vid=1619d16a-891e-4245-ad59-b2092400f2ae","ios":"levelo://app?vid=1619d16a-891e-4245-ad59-b2092400f2ae"},"vehicle_type_id":"4","last_reported":1727719908,"current_range_meters":38400,"station_id":"ce4bhoh2rcd13ifvqh5g","pricing_plan_id":"cebpf4jnsgd1na2vs0mg"},{"bike_id":"f99da536-9c30-4116-b353-5a88c0d5edf2","system_id":"levelo_inurba_marseille","lat":43.29564,"lon":5.39976,"is_reserved":false,"is_disabled":false,"rental_uris":{"android":"levelo://app?vid=f99da536-9c30-4116-b353-5a88c0d5edf2","ios":"levelo://app?vid=f99da536-9c30-4116-b353-5a88c0d5edf2"},"vehicle_type_id":"4","last_reported":1727719908,"current_range_meters":30000,"station_id":"ce4bh312rcd13ifvqdj0","pricing_plan_id":"cebpf4jnsgd1na2vs0mg"},{"bike_id":"b8d7f790-4682-4ada-819b-b5a08467ab0e","system_id":"levelo_inurba_marseille","lat":43.30921,"lon":5.40144,"is_reserved":false,"is_disabled":false,"rental_uris":{"android":"levelo://app?vid=b8d7f790-4682-4ada-819b-b5a08467ab0e","ios":"levelo://app?vid=b8d7f790-4682-4ada-819b-b5a08467ab0e"},"vehicle_type_id":"4","last_reported":1727719908,"current_range_meters":32400,"station_id":"ce4bgvp2rcd13ifvqct0","pricing_plan_id":"cebpf4jnsgd1na2vs0mg"},{"bike_id":"464d97a4-9185-44d1-a6ac-86b73bd26941","system_id":"levelo_inurba_marseille","lat":43.30316,"lon":5.36915,"is_reserved":false,"is_disabled":false,"rental_uris":{"android":"levelo://app?vid=464d97a4-9185-44d1-a6ac-86b73bd26941","ios":"levelo://app?vid=464d97a4-9185-44d1-a6ac-86b73bd26941"},"vehicle_type_id":"4","last_reported":1727719908,"current_range_meters":38800,"station_id":"ce4bgqh2rcd13ifvqc5g","pricing_plan_id":"cebpf4jnsgd1na2vs0mg"},{"bike_id":"de51155a-25c7-4455-bc76-581835321d68","system_id":"levelo_inurba_marseille","lat":43.28463,"lon":5.35886,"is_reserved":false,"is_disabled":false,"rental_uris":{"android":"levelo://app?vid=de51155a-25c7-4455-bc76-581835321d68","ios":"levelo://app?vid=de51155a-25c7-4455-bc76-581835321d68"},"vehicle_type_id":"4","last_reported":1727719908,"current_range_meters":25600,"station_id":"ce4bhah2rcd13ifvqei0","pricing_plan_id":"cebpf4jnsgd1na2vs0mg"},{"bike_id":"fb753473-3697-49e5-b0c2-e8a31f27ee42","system_id":"levelo_inurba_marseille","lat":43.29025,"lon":5.38645,"is_reserved":false,"is_disabled":false,"rental_uris":{"android":"levelo://app?vid=fb753473-3697-49e5-b0c2-e8a31f27ee42","ios":"levelo://app?vid=fb753473-3697-49e5-b0c2-e8a31f27ee42"},"vehicle_type_id":"4","last_reported":1727719908,"current_range_meters":26800,"station_id":"ce4bh4p2rcd13ifvqe0g","pricing_plan_id":"cebpf4jnsgd1na2vs0mg"},{"bike_id":"aa01ac9b-33fa-417a-a68a-4e6a485b60d0","system_id":"levelo_inurba_marseille","lat":43.29248,"lon":5.384352,"is_reserved":false,"is_disabled":false,"rental_uris":{"android":"levelo://app?vid=aa01ac9b-33fa-417a-a68a-4e6a485b60d0","ios":"levelo://app?vid=aa01ac9b-33fa-417a-a68a-4e6a485b60d0"},"vehicle_type_id":"4","last_reported":1727719908,"current_range_meters":30000,"station_id":"ce4bgrh2rcd13ifvqc8g","pricing_plan_id":"cebpf4jnsgd1na2vs0mg"},{"bike_id":"1df8fdfd-a8b5-4a32-9d0e-a521c116ad7b","system_id":"levelo_inurba_marseille","lat":43.31691,"lon":5.40469,"is_reserved":false,"is_disabled":false,"rental_uris":{"android":"levelo://app?vid=1df8fdfd-a8b5-4a32-9d0e-a521c116ad7b","ios":"levelo://app?vid=1df8fdfd-a8b5-4a32-9d0e-a521c116ad7b"},"vehicle_type_id":"4","last_reported":1727719908,"current_range_meters":5600,"station_id":"ce4bh012rcd13ifvqd00","pricing_plan_id":"cebpf4jnsgd1na2vs0mg"},{"bike_id":"a11ef7f2-836a-42db-8f6f-6b95d6b4aac3","system_id":"levelo_inurba_marseille","lat":43.28957,"lon":5.3785,"is_reserved":false,"is_disabled":false,"rental_uris":{"android":"levelo://app?vid=a11ef7f2-836a-42db-8f6f-6b95d6b4aac3","ios":"levelo://app?vid=a11ef7f2-836a-42db-8f6f-6b95d6b4aac3"},"vehicle_type_id":"4","last_reported":1727719908,"current_range_meters":24400,"station_id":"ce4bh9p2rcd13ifvqed0","pricing_plan_id":"cebpf4jnsgd1na2vs0mg"},{"bike_id":"f70b37ff-3750-49f4-8c8b-d84b46bb375b","system_id":"levelo_inurba_marseille","lat":43.29027,"lon":5.37556,"is_reserved":false,"is_disabled":false,"rental_uris":{"android":"levelo://app?vid=f70b37ff-3750-49f4-8c8b-d84b46bb375b","ios":"levelo://app?vid=f70b37ff-3750-49f4-8c8b-d84b46bb375b"},"vehicle_type_id":"4","last_reported":1727719908,"current_range_meters":17600,"station_id":"ce4bh692rcd13ifvqe90","pricing_plan_id":"cebpf4jnsgd1na2vs0mg"},{"bike_id":"01e8e47e-809b-48c4-81f8-68cad1db8fa8","system_id":"levelo_inurba_marseille","lat":43.29277,"lon":5.40118,"is_reserved":false,"is_disabled":false,"rental_uris":{"android":"levelo://app?vid=01e8e47e-809b-48c4-81f8-68cad1db8fa8","ios":"levelo://app?vid=01e8e47e-809b-48c4-81f8-68cad1db8fa8"},"vehicle_type_id":"4","last_reported":1727719908,"current_range_meters":36000,"station_id":"ce4bh312rcd13ifvqdk0","pricing_plan_id":"cebpf4jnsgd1na2vs0mg"},{"bike_id":"4af9cf6c-9813-46e7-b71b-db9dfe495e50","system_id":"levelo_inurba_marseille","lat":43.22932,"lon":5.35379,"is_reserved":false,"is_disabled":false,"rental_uris":{"android":"levelo://app?vid=4af9cf6c-9813-46e7-b71b-db9dfe495e50","ios":"levelo://app?vid=4af9cf6c-9813-46e7-b71b-db9dfe495e50"},"vehicle_type_id":"4","last_reported":1727719908,"current_range_meters":21600,"station_id":"cpo3532slgdg3j2ikp40","pricing_plan_id":"cebpf4jnsgd1na2vs0mg"},{"bike_id":"3cd38179-be9b-49b4-bbec-0e7ec496f108","system_id":"levelo_inurba_marseille","lat":43.30422,"lon":5.41287,"is_reserved":false,"is_disabled":false,"rental_uris":{"android":"levelo://app?vid=3cd38179-be9b-49b4-bbec-0e7ec496f108","ios":"levelo://app?vid=3cd38179-be9b-49b4-bbec-0e7ec496f108"},"vehicle_type_id":"4","last_reported":1727719908,"current_range_meters":10800,"station_id":"ce4bhop2rcd13ifvqh8g","pricing_plan_id":"cebpf4jnsgd1na2vs0mg"},{"bike_id":"f435bbfb-1763-4e36-8169-0d8aea177776","system_id":"levelo_inurba_marseille","lat":43.31999,"lon":5.38163,"is_reserved":false,"is_disabled":false,"rental_uris":{"android":"levelo://app?vid=f435bbfb-1763-4e36-8169-0d8aea177776","ios":"levelo://app?vid=f435bbfb-1763-4e36-8169-0d8aea177776"},"vehicle_type_id":"4","last_reported":1727719908,"current_range_meters":18000,"station_id":"ce4bhr12rcd13ifvqhpg","pricing_plan_id":"cebpf4jnsgd1na2vs0mg"},{"bike_id":"c999d287-fb6a-49ce-bf87-9473a2d5b293","system_id":"levelo_inurba_marseille","lat":43.32293,"lon":5.38273,"is_reserved":false,"is_disabled":false,"rental_uris":{"android":"levelo://app?vid=c999d287-fb6a-49ce-bf87-9473a2d5b293","ios":"levelo://app?vid=c999d287-fb6a-49ce-bf87-9473a2d5b293"},"vehicle_type_id":"4","last_reported":1727719908,"current_range_meters":24400,"station_id":"ce4bhr12rcd13ifvqhqg","pricing_plan_id":"cebpf4jnsgd1na2vs0mg"},{"bike_id":"dab36256-2030-4adf-ae09-ad63eca56908","system_id":"levelo_inurba_marseille","lat":43.28748,"lon":5.36245,"is_reserved":false,"is_disabled":false,"rental_uris":{"android":"levelo://app?vid=dab36256-2030-4adf-ae09-ad63eca56908","ios":"levelo://app?vid=dab36256-2030-4adf-ae09-ad63eca56908"},"vehicle_type_id":"4","last_reported":1727719908,"current_range_meters":1200,"station_id":"cki0cbj6b192h4jlfktg","pricing_plan_id":"cebpf4jnsgd1na2vs0mg"},{"bike_id":"2c181f31-e8c2-402c-a094-4bc5d546fb5a","system_id":"levelo_inurba_marseille","lat":43.2891,"lon":5.35954,"is_reserved":false,"is_disabled":false,"rental_uris":{"android":"levelo://app?vid=2c181f31-e8c2-402c-a094-4bc5d546fb5a","ios":"levelo://app?vid=2c181f31-e8c2-402c-a094-4bc5d546fb5a"},"vehicle_type_id":"4","last_reported":1727719908,"current_range_meters":24800,"station_id":"","pricing_plan_id":"cebpf4jnsgd1na2vs0mg"},{"bike_id":"629027a8-2385-4196-85fa-beec97fc46ae","system_id":"levelo_inurba_marseille","lat":43.28461,"lon":5.3589,"is_reserved":false,"is_disabled":false,"rental_uris":{"android":"levelo://app?vid=629027a8-2385-4196-85fa-beec97fc46ae","ios":"levelo://app?vid=629027a8-2385-4196-85fa-beec97fc46ae"},"vehicle_type_id":"4","last_reported":1727719908,"current_range_meters":12800,"station_id":"ce4bhah2rcd13ifvqei0","pricing_plan_id":"cebpf4jnsgd1na2vs0mg"},{"bike_id":"62af13f0-48fd-4007-a589-49cb6a2f7bac","system_id":"levelo_inurba_marseille","lat":43.29678,"lon":5.36682,"is_reserved":false,"is_disabled":false,"rental_uris":{"android":"levelo://app?vid=62af13f0-48fd-4007-a589-49cb6a2f7bac","ios":"levelo://app?vid=62af13f0-48fd-4007-a589-49cb6a2f7bac"},"vehicle_type_id":"4","last_reported":1727719908,"current_range_meters":6400,"station_id":"","pricing_plan_id":"cebpf4jnsgd1na2vs0mg"},{"bike_id":"73da4eb6-1542-48d9-99ac-2f708fdbed2a","system_id":"levelo_inurba_marseille","lat":43.30943,"lon":5.40059,"is_reserved":false,"is_disabled":false,"rental_uris":{"android":"levelo://app?vid=73da4eb6-1542-48d9-99ac-2f708fdbed2a","ios":"levelo://app?vid=73da4eb6-1542-48d9-99ac-2f708fdbed2a"},"vehicle_type_id":"4","last_reported":1727719908,"current_range_meters":17200,"station_id":"ce4bh192rcd13ifvqdc0","pricing_plan_id":"cebpf4jnsgd1na2vs0mg"},{"bike_id":"b13074e3-d6bc-4133-ac04-15626838cd67","system_id":"levelo_inurba_marseille","lat":43.27951,"lon":5.41056,"is_reserved":false,"is_disabled":false,"rental_uris":{"android":"levelo://app?vid=b13074e3-d6bc-4133-ac04-15626838cd67","ios":"levelo://app?vid=b13074e3-d6bc-4133-ac04-15626838cd67"},"vehicle_type_id":"4","last_reported":1727719908,"current_range_meters":27200,"station_id":"ce4bhnp2rcd13ifvqh0g","pricing_plan_id":"cebpf4jnsgd1na2vs0mg"},{"bike_id":"057a64f6-bb05-413a-bd71-88750e14a30b","system_id":"levelo_inurba_marseille","lat":43.28853,"lon":5.35865,"is_reserved":false,"is_disabled":false,"rental_uris":{"android":"levelo://app?vid=057a64f6-bb05-413a-bd71-88750e14a30b","ios":"levelo://app?vid=057a64f6-bb05-413a-bd71-88750e14a30b"},"vehicle_type_id":"4","last_reported":1727719908,"current_range_meters":10800,"station_id":"ce4bhb12rcd13ifvqem0","pricing_plan_id":"cebpf4jnsgd1na2vs0mg"},{"bike_id":"2ccc5863-af7a-4d2f-bf37-9b77c2b452ed","system_id":"levelo_inurba_marseille","lat":43.29259,"lon":5.38444,"is_reserved":false,"is_disabled":false,"rental_uris":{"android":"levelo://app?vid=2ccc5863-af7a-4d2f-bf37-9b77c2b452ed","ios":"levelo://app?vid=2ccc5863-af7a-4d2f-bf37-9b77c2b452ed"},"vehicle_type_id":"4","last_reported":1727719908,"current_range_meters":20400,"station_id":"ce4bh692rcd13ifvqea0","pricing_plan_id":"cebpf4jnsgd1na2vs0mg"},{"bike_id":"3f0f9e7e-4569-4bb5-b6c1-7d994179b5aa","system_id":"levelo_inurba_marseille","lat":43.28979,"lon":5.37824,"is_reserved":false,"is_disabled":false,"rental_uris":{"android":"levelo://app?vid=3f0f9e7e-4569-4bb5-b6c1-7d994179b5aa","ios":"levelo://app?vid=3f0f9e7e-4569-4bb5-b6c1-7d994179b5aa"},"vehicle_type_id":"4","last_reported":1727719908,"current_range_meters":24400,"station_id":"ce4bh9p2rcd13ifvqed0","pricing_plan_id":"cebpf4jnsgd1na2vs0mg"},{"bike_id":"bada08e9-c35d-4458-b9ac-670cc1b95308","system_id":"levelo_inurba_marseille","lat":43.31753,"lon":5.3902,"is_reserved":false,"is_disabled":false,"rental_uris":{"android":"levelo://app?vid=bada08e9-c35d-4458-b9ac-670cc1b95308","ios":"levelo://app?vid=bada08e9-c35d-4458-b9ac-670cc1b95308"},"vehicle_type_id":"4","last_reported":1727719908,"current_range_meters":18800,"station_id":"","pricing_plan_id":"cebpf4jnsgd1na2vs0mg"},{"bike_id":"e3eeeebf-06d2-4903-80b6-46bbd2bbe8c6","system_id":"levelo_inurba_marseille","lat":43.31323,"lon":5.39696,"is_reserved":false,"is_disabled":false,"rental_uris":{"android":"levelo://app?vid=e3eeeebf-06d2-4903-80b6-46bbd2bbe8c6","ios":"levelo://app?vid=e3eeeebf-06d2-4903-80b6-46bbd2bbe8c6"},"vehicle_type_id":"4","last_reported":1727719908,"current_range_meters":9200,"station_id":"ce4bgvp2rcd13ifvqcu0","pricing_plan_id":"cebpf4jnsgd1na2vs0mg"},{"bike_id":"3e66f7c3-a1b1-4db1-9aff-44fcabec040c","system_id":"levelo_inurba_marseille","lat":43.292049,"lon":5.357943,"is_reserved":false,"is_disabled":false,"rental_uris":{"android":"levelo://app?vid=3e66f7c3-a1b1-4db1-9aff-44fcabec040c","ios":"levelo://app?vid=3e66f7c3-a1b1-4db1-9aff-44fcabec040c"},"vehicle_type_id":"4","last_reported":1727719908,"current_range_meters":32800,"station_id":"ce4bh312rcd13ifvqdk0","pricing_plan_id":"cebpf4jnsgd1na2vs0mg"},{"bike_id":"9cb5aef1-792e-45d2-80e5-4b8bdf450423","system_id":"levelo_inurba_marseille","lat":43.30344,"lon":5.39401,"is_reserved":false,"is_disabled":false,"rental_uris":{"android":"levelo://app?vid=9cb5aef1-792e-45d2-80e5-4b8bdf450423","ios":"levelo://app?vid=9cb5aef1-792e-45d2-80e5-4b8bdf450423"},"vehicle_type_id":"4","last_reported":1727719908,"current_range_meters":28400,"station_id":"","pricing_plan_id":"cebpf4jnsgd1na2vs0mg"},{"bike_id":"3b5dce78-57fb-426a-8c02-8cc9766263ba","system_id":"levelo_inurba_marseille","lat":43.29299,"lon":5.37161,"is_reserved":false,"is_disabled":false,"rental_uris":{"android":"levelo://app?vid=3b5dce78-57fb-426a-8c02-8cc9766263ba","ios":"levelo://app?vid=3b5dce78-57fb-426a-8c02-8cc9766263ba"},"vehicle_type_id":"4","last_reported":1727719908,"current_range_meters":38800,"station_id":"ce4bgh92rcd13ifvqb40","pricing_plan_id":"cebpf4jnsgd1na2vs0mg"},{"bike_id":"52643007-587f-40c3-a112-ae88738ba519","system_id":"levelo_inurba_marseille","lat":43.29536,"lon":5.39021,"is_reserved":false,"is_disabled":false,"rental_uris":{"android":"levelo://app?vid=52643007-587f-40c3-a112-ae88738ba519","ios":"levelo://app?vid=52643007-587f-40c3-a112-ae88738ba519"},"vehicle_type_id":"4","last_reported":1727719908,"current_range_meters":23200,"station_id":"ce4bh3p2rcd13ifvqdp0","pricing_plan_id":"cebpf4jnsgd1na2vs0mg"},{"bike_id":"4e1d7e36-68ce-44ca-b0e9-1e92bf5d4631","system_id":"levelo_inurba_marseille","lat":43.31119,"lon":5.38339,"is_reserved":false,"is_disabled":false,"rental_uris":{"android":"levelo://app?vid=4e1d7e36-68ce-44ca-b0e9-1e92bf5d4631","ios":"levelo://app?vid=4e1d7e36-68ce-44ca-b0e9-1e92bf5d4631"},"vehicle_type_id":"4","last_reported":1727719908,"current_range_meters":6000,"station_id":"ce4bgv92rcd13ifvqcr0","pricing_plan_id":"cebpf4jnsgd1na2vs0mg"},{"bike_id":"a3b89553-1eb2-4fa0-a73e-28332b8794a7","system_id":"levelo_inurba_marseille","lat":43.28456,"lon":5.35883,"is_reserved":false,"is_disabled":false,"rental_uris":{"android":"levelo://app?vid=a3b89553-1eb2-4fa0-a73e-28332b8794a7","ios":"levelo://app?vid=a3b89553-1eb2-4fa0-a73e-28332b8794a7"},"vehicle_type_id":"4","last_reported":1727719908,"current_range_meters":27600,"station_id":"ce4bhah2rcd13ifvqei0","pricing_plan_id":"cebpf4jnsgd1na2vs0mg"},{"bike_id":"1aff2915-fdec-40e7-8c8a-fc4acec4b25f","system_id":"levelo_inurba_marseille","lat":43.28941,"lon":5.36636,"is_reserved":false,"is_disabled":false,"rental_uris":{"android":"levelo://app?vid=1aff2915-fdec-40e7-8c8a-fc4acec4b25f","ios":"levelo://app?vid=1aff2915-fdec-40e7-8c8a-fc4acec4b25f"},"vehicle_type_id":"4","last_reported":1727719908,"current_range_meters":36800,"station_id":"ce4bhap2rcd13ifvqek0","pricing_plan_id":"cebpf4jnsgd1na2vs0mg"},{"bike_id":"cf804898-9eb3-46eb-aaa0-14e3dafccf8d","system_id":"levelo_inurba_marseille","lat":43.32478,"lon":5.36785,"is_reserved":false,"is_disabled":false,"rental_uris":{"android":"levelo://app?vid=cf804898-9eb3-46eb-aaa0-14e3dafccf8d","ios":"levelo://app?vid=cf804898-9eb3-46eb-aaa0-14e3dafccf8d"},"vehicle_type_id":"4","last_reported":1727719908,"current_range_meters":21600,"station_id":"","pricing_plan_id":"cebpf4jnsgd1na2vs0mg"},{"bike_id":"742aade6-bfb5-4c64-9893-aa92fab41c17","system_id":"levelo_inurba_marseille","lat":43.29275,"lon":5.40136,"is_reserved":false,"is_disabled":false,"rental_uris":{"android":"levelo://app?vid=742aade6-bfb5-4c64-9893-aa92fab41c17","ios":"levelo://app?vid=742aade6-bfb5-4c64-9893-aa92fab41c17"},"vehicle_type_id":"4","last_reported":1727719908,"current_range_meters":38800,"station_id":"ce4bh312rcd13ifvqdk0","pricing_plan_id":"cebpf4jnsgd1na2vs0mg"},{"bike_id":"f64e0391-1c55-4137-b61a-81833535303e","system_id":"levelo_inurba_marseille","lat":43.25006,"lon":5.38916,"is_reserved":false,"is_disabled":false,"rental_uris":{"android":"levelo://app?vid=f64e0391-1c55-4137-b61a-81833535303e","ios":"levelo://app?vid=f64e0391-1c55-4137-b61a-81833535303e"},"vehicle_type_id":"4","last_reported":1727719908,"current_range_meters":30800,"station_id":"ce4bhgp2rcd13ifvqfd0","pricing_plan_id":"cebpf4jnsgd1na2vs0mg"},{"bike_id":"f3c0a5f5-ac62-4630-bb60-2a70a8687d35","system_id":"levelo_inurba_marseille","lat":43.31524,"lon":5.38034,"is_reserved":false,"is_disabled":false,"rental_uris":{"android":"levelo://app?vid=f3c0a5f5-ac62-4630-bb60-2a70a8687d35","ios":"levelo://app?vid=f3c0a5f5-ac62-4630-bb60-2a70a8687d35"},"vehicle_type_id":"4","last_reported":1727719908,"current_range_meters":14000,"station_id":"ce4bhsp2rcd13ifvqi50","pricing_plan_id":"cebpf4jnsgd1na2vs0mg"},{"bike_id":"501d1649-4ab7-4bfd-92b3-63a02aa35856","system_id":"levelo_inurba_marseille","lat":43.295685,"lon":5.399723,"is_reserved":false,"is_disabled":false,"rental_uris":{"android":"levelo://app?vid=501d1649-4ab7-4bfd-92b3-63a02aa35856","ios":"levelo://app?vid=501d1649-4ab7-4bfd-92b3-63a02aa35856"},"vehicle_type_id":"4","last_reported":1727719908,"current_range_meters":25600,"station_id":"ce4bh312rcd13ifvqdj0","pricing_plan_id":"cebpf4jnsgd1na2vs0mg"},{"bike_id":"e07c72ef-6936-4ec6-bdcb-d1f37eed79c3","system_id":"levelo_inurba_marseille","lat":43.26511,"lon":5.4038,"is_reserved":false,"is_disabled":false,"rental_uris":{"android":"levelo://app?vid=e07c72ef-6936-4ec6-bdcb-d1f37eed79c3","ios":"levelo://app?vid=e07c72ef-6936-4ec6-bdcb-d1f37eed79c3"},"vehicle_type_id":"4","last_reported":1727719908,"current_range_meters":17600,"station_id":"ce501612rcd8frsf0b60","pricing_plan_id":"cebpf4jnsgd1na2vs0mg"},{"bike_id":"6d6f2cfc-770a-43e7-a187-4e859df9247b","system_id":"levelo_inurba_marseille","lat":43.30958,"lon":5.3904,"is_reserved":false,"is_disabled":false,"rental_uris":{"android":"levelo://app?vid=6d6f2cfc-770a-43e7-a187-4e859df9247b","ios":"levelo://app?vid=6d6f2cfc-770a-43e7-a187-4e859df9247b"},