{"last_updated":1752520199,"ttl":60,"version":"2.2","data":{"bikes":[{"bike_id":"feb1ed1d-b0db-45cc-9e1b-7311a8d72058","system_id":"levelo_inurba_marseille","lat":43.33747,"lon":5.37463,"is_reserved":false,"is_disabled":false,"rental_uris":{"android":"levelo://app?vid=feb1ed1d-b0db-45cc-9e1b-7311a8d72058","ios":"levelo://app?vid=feb1ed1d-b0db-45cc-9e1b-7311a8d72058"},"vehicle_type_id":"1","last_reported":1752520199,"current_range_meters":36800,"station_id":"","pricing_plan_id":"cebpf4jnsgd1na2vs0mg"},{"bike_id":"a30a03cf-d2c1-4810-9668-e5820860ff2f","system_id":"levelo_inurba_marseille","lat":43.29307,"lon":5.3718,"is_reserved":false,"is_disabled":false,"rental_uris":{"android":"levelo://app?vid=a30a03cf-d2c1-4810-9668-e5820860ff2f","ios":"levelo://app?vid=a30a03cf-d2c1-4810-9668-e5820860ff2f"},"vehicle_type_id":"4","last_reported":1752520199,"current_range_meters":2800,"station_id":"ce4bgh92rcd13ifvqb40","pricing_plan_id":"cebpf4jnsgd1na2vs0mg"},{"bike_id":"f6d8f370-8816-44d3-b29c-93a05dff8234","system_id":"levelo_inurba_marseille","lat":43.314968,"lon":5.373091,"is_reserved":false,"is_disabled":false,"rental_uris":{"android":"levelo://app?vid=f6d8f370-8816-44d3-b29c-93a05dff8234","ios":"levelo://app?vid=f6d8f370-8816-44d3-b29c-93a05dff8234"},"vehicle_type_id":"4","last_reported":1752520199,"current_range_meters":3200,"station_id":"ce4bgt12rcd13ifvqcd0","pricing_plan_id":"cebpf4jnsgd1na2vs0mg"},{"bike_id":"6c90aa64-744d-4bf4-b55d-adbe7ceba098","system_id":"levelo_inurba_marseille","lat":43.2894,"lon":5.36659,"is_reserved":false,"is_disabled":false,"rental_uris":{"android":"levelo://app?vid=6c90aa64-744d-4bf4-b55d-adbe7ceba098","ios":"levelo://app?vid=6c90aa64-744d-4bf4-b55d-adbe7ceba098"},"vehicle_type_id":"4","last_reported":1752520199,"current_range_meters":3200,"station_id":"ce4bhap2rcd13ifvqek0","pricing_plan_id":"cebpf4jnsgd1na2vs0mg"},{"bike_id":"1f89b571-0186-4dca-be0f-f1202c5afb8b","system_id":"levelo_inurba_marseille","lat":43.30313,"lon":5.36902,"is_reserved":false,"is_disabled":false,"rental_uris":{"android":"levelo://app?vid=1f89b571-0186-4dca-be0f-f1202c5afb8b","ios":"levelo://app?vid=1f89b571-0186-4dca-be0f-f1202c5afb8b"},"vehicle_type_id":"4","last_reported":1752520199,"current_range_meters":3200,"station_id":"","pricing_plan_id":"cebpf4jnsgd1na2vs0mg"},{"bike_id":"f30e8bfb-6884-4198-bdc3-040900552614","system_id":"levelo_inurba_marseille","lat":43.2907,"lon":5.36657,"is_reserved":false,"is_disabled":false,"rental_uris":{"android":"levelo://app?vid=f30e8bfb-6884-4198-bdc3-040900552614","ios":"levelo://app?vid=f30e8bfb-6884-4198-bdc3-040900552614"},"vehicle_type_id":"4","last_reported":1752520199,"current_range_meters":3200,"station_id":"ce4bha92rcd13ifvqeh0","pricing_plan_id":"cebpf4jnsgd1na2vs0mg"},{"bike_id":"de0c6279-600b-4343-9395-fbff95f3065f","system_id":"levelo_inurba_marseille","lat":43.27499,"lon":5.396,"is_reserved":false,"is_disabled":false,"rental_uris":{"android":"levelo://app?vid=de0c6279-600b-4343-9395-fbff95f3065f","ios":"levelo://app?vid=de0c6279-600b-4343-9395-fbff95f3065f"},"vehicle_type_id":"4","last_reported":1752520199,"current_range_meters":3600,"station_id":"","pricing_plan_id":"cebpf4jnsgd1na2vs0mg"},{"bike_id":"48445482-3295-4f06-bc65-2357ab74bb08","system_id":"levelo_inurba_marseille","lat":43.29554,"lon":5.42292,"is_reserved":false,"is_disabled":false,"rental_uris":{"android":"levelo://app?vid=48445482-3295-4f06-bc65-2357ab74bb08","ios":"levelo://app?vid=48445482-3295-4f06-bc65-2357ab74bb08"},"vehicle_type_id":"4","last_reported":1752520199,"current_range_meters":3200,"station_id":"ce4bhph2rcd13ifvqhdg","pricing_plan_id":"cebpf4jnsgd1na2vs0mg"},{"bike_id":"95a79975-7b11-4de4-a93d-1094d82e56dc","system_id":"levelo_inurba_marseille","lat":43.29196,"lon":5.35794,"is_reserved":false,"is_disabled":false,"rental_uris":{"android":"levelo://app?vid=95a79975-7b11-4de4-a93d-1094d82e56dc","ios":"levelo://app?vid=95a79975-7b11-4de4-a93d-1094d82e56dc"},"vehicle_type_id":"4","last_reported":1752520199,"current_range_meters":3600,"station_id":"ce4bhb12rcd13ifvqel0","pricing_plan_id":"cebpf4jnsgd1na2vs0mg"},{"bike_id":"97479a65-5c11-44c3-bcde-9b9a09adb8c0","system_id":"levelo_inurba_marseille","lat":43.29679,"lon":5.37294,"is_reserved":false,"is_disabled":false,"rental_uris":{"android":"levelo://app?vid=97479a65-5c11-44c3-bcde-9b9a09adb8c0","ios":"levelo://app?vid=97479a65-5c11-44c3-bcde-9b9a09adb8c0"},"vehicle_type_id":"4","last_reported":1752520199,"current_range_meters":3600,"station_id":"ce4bgk12rcd13ifvqbj0","pricing_plan_id":"cebpf4jnsgd1na2vs0mg"},{"bike_id":"9ece3398-8c64-431c-b3a5-419c19544862","system_id":"levelo_inurba_marseille","lat":43.29849,"lon":5.36299,"is_reserved":false,"is_disabled":false,"rental_uris":{"android":"levelo://app?vid=9ece3398-8c64-431c-b3a5-419c19544862","ios":"levelo://app?vid=9ece3398-8c64-431c-b3a5-419c19544862"},"vehicle_type_id":"4","last_reported":1752520199,"current_range_meters":4000,"station_id":"ce4bgpp2rcd13ifvqc3g","pricing_plan_id":"cebpf4jnsgd1na2vs0mg"},{"bike_id":"66a1bfaa-0df4-4f18-9ae2-badfb2bd8533","system_id":"levelo_inurba_marseille","lat":43.32368,"lon":5.38886,"is_reserved":false,"is_disabled":false,"rental_uris":{"android":"levelo://app?vid=66a1bfaa-0df4-4f18-9ae2-badfb2bd8533","ios":"levelo://app?vid=66a1bfaa-0df4-4f18-9ae2-badfb2bd8533"},"vehicle_type_id":"4","last_reported":1752520199,"current_range_meters":4000,"station_id":"ce4bhqp2rcd13ifvqhog","pricing_plan_id":"cebpf4jnsgd1na2vs0mg"},{"bike_id":"4dfb590d-b881-447d-88e8-5bed7afaed34","system_id":"levelo_inurba_marseille","lat":43.26205,"lon":5.37443,"is_reserved":false,"is_disabled":false,"rental_uris":{"android":"levelo://app?vid=4dfb590d-b881-447d-88e8-5bed7afaed34","ios":"levelo://app?vid=4dfb590d-b881-447d-88e8-5bed7afaed34"},"vehicle_type_id":"4","last_reported":1752520199,"current_range_meters":4000,"station_id":"ce4bhgp2rcd13ifvqfc0","pricing_plan_id":"cebpf4jnsgd1na2vs0mg"},{"bike_id":"056d528c-8d77-4261-901f-27947ba1e342","system_id":"levelo_inurba_marseille","lat":43.293114,"lon":5.371813,"is_reserved":false,"is_disabled":false,"rental_uris":{"android":"levelo://app?vid=056d528c-8d77-4261-901f-27947ba1e342","ios":"levelo://app?vid=056d528c-8d77-4261-901f-27947ba1e342"},"vehicle_type_id":"4","last_reported":1752520199,"current_range_meters":4000,"station_id":"ce4bgh92rcd13ifvqb40","pricing_plan_id":"cebpf4jnsgd1na2vs0mg"},{"bike_id":"c1201d0d-ed65-4bcf-9021-f418c457e17f","system_id":"levelo_inurba_marseille","lat":43.28613,"lon":5.37054,"is_reserved":false,"is_disabled":false,"rental_uris":{"android":"levelo://app?vid=c1201d0d-ed65-4bcf-9021-f418c457e17f","ios":"levelo://app?vid=c1201d0d-ed65-4bcf-9021-f418c457e17f"},"vehicle_type_id":"4","last_reported":1752520199,"current_range_meters":4000,"station_id":"ce4bht12rcd13ifvqi60","pricing_plan_id":"cebpf4jnsgd1na2vs0mg"},{"bike_id":"c349dade-bbfe-4e07-a997-67323dfc9ca7","system_id":"levelo_inurba_marseille","lat":43.25496,"lon":5.37651,"is_reserved":false,"is_disabled":false,"rental_uris":{"android":"levelo://app?vid=c349dade-bbfe-4e07-a997-67323dfc9ca7","ios":"levelo://app?vid=c349dade-bbfe-4e07-a997-67323dfc9ca7"},"vehicle_type_id":"4","last_reported":1752520199,"current_range_meters":4000,"station_id":"ce4bhh12rcd13ifvqff0","pricing_plan_id":"cebpf4jnsgd1na2vs0mg"},{"bike_id":"41f43ba6-0b31-43ee-b6d5-0ea245b38cf2","system_id":"levelo_inurba_marseille","lat":43.30879,"lon":5.39614,"is_reserved":false,"is_disabled":false,"rental_uris":{"android":"levelo://app?vid=41f43ba6-0b31-43ee-b6d5-0ea245b38cf2","ios":"levelo://app?vid=41f43ba6-0b31-43ee-b6d5-0ea245b38cf2"},"vehicle_type_id":"4","last_reported":1752520199,"current_range_meters":4000,"station_id":"ce4bh012rcd13ifvqcv0","pricing_plan_id":"cebpf4jnsgd1na2vs0mg"},{"bike_id":"e33385d4-fe93-4c3f-bf68-0f36fda3ae57","system_id":"levelo_inurba_marseille","lat":43.29071,"lon":5.37166,"is_reserved":false,"is_disabled":false,"rental_uris":{"android":"levelo://app?vid=e33385d4-fe93-4c3f-bf68-0f36fda3ae57","ios":"levelo://app?vid=e33385d4-fe93-4c3f-bf68-0f36fda3ae57"},"vehicle_type_id":"4","last_reported":1752520199,"current_range_meters":4000,"station_id":"ce4bh5p2rcd13ifvqe4g","pricing_plan_id":"cebpf4jnsgd1na2vs0mg"},{"bike_id":"579279e6-3b5a-4ea6-84b9-65cda9ce724c","system_id":"levelo_inurba_marseille","lat":43.28939,"lon":5.36394,"is_reserved":false,"is_disabled":false,"rental_uris":{"android":"levelo://app?vid=579279e6-3b5a-4ea6-84b9-65cda9ce724c","ios":"levelo://app?vid=579279e6-3b5a-4ea6-84b9-65cda9ce724c"},"vehicle_type_id":"4","last_reported":1752520199,"current_range_meters":4000,"station_id":"ce4bhc92rcd13ifvqetg","pricing_plan_id":"cebpf4jnsgd1na2vs0mg"},{"bike_id":"470d1e9d-8c05-40b8-a6b2-039f183b9f6a","system_id":"levelo_inurba_marseille","lat":43.23176,"lon":5.35579,"is_reserved":false,"is_disabled":true,"rental_uris":{"android":"levelo://app?vid=470d1e9d-8c05-40b8-a6b2-039f183b9f6a","ios":"levelo://app?vid=470d1e9d-8c05-40b8-a6b2-039f183b9f6a"},"vehicle_type_id":"4","last_reported":1752520199,"current_range_meters":4000,"station_id":"ce4bhu92rcd13ifvqi70","pricing_plan_id":"cebpf4jnsgd1na2vs0mg"},{"bike_id":"789f1e35-d995-4c32-9ea6-b5a18f1f3262","system_id":"levelo_inurba_marseille","lat":43.29306,"lon":5.37174,"is_reserved":false,"is_disabled":false,"rental_uris":{"android":"levelo://app?vid=789f1e35-d995-4c32-9ea6-b5a18f1f3262","ios":"levelo://app?vid=789f1e35-d995-4c32-9ea6-b5a18f1f3262"},"vehicle_type_id":"4","last_reported":1752520199,"current_range_meters":4000,"station_id":"ce4bgh92rcd13ifvqb40","pricing_plan_id":"cebpf4jnsgd1na2vs0mg"},{"bike_id":"44dd919c-32df-4fe9-8b1c-c9988fb68d5b","system_id":"levelo_inurba_marseille","lat":43.26944,"lon":5.40269,"is_reserved":false,"is_disabled":true,"rental_uris":{"android":"levelo://app?vid=44dd919c-32df-4fe9-8b1c-c9988fb68d5b","ios":"levelo://app?vid=44dd919c-32df-4fe9-8b1c-c9988fb68d5b"},"vehicle_type_id":"4","last_reported":1752520199,"current_range_meters":4400,"station_id":"cjm6bp8fraef2m0cb0m0","pricing_plan_id":"cebpf4jnsgd1na2vs0mg"},{"bike_id":"28190c28-e0b2-4c63-b2bd-801ea6dfbdc1","system_id":"levelo_inurba_marseille","lat":43.28608,"lon":5.37065,"is_reserved":false,"is_disabled":false,"rental_uris":{"android":"levelo://app?vid=28190c28-e0b2-4c63-b2bd-801ea6dfbdc1","ios":"levelo://app?vid=28190c28-e0b2-4c63-b2bd-801ea6dfbdc1"},"vehicle_type_id":"4","last_reported":1752520199,"current_range_meters":4400,"station_id":"ce4bht12rcd13ifvqi60","pricing_plan_id":"cebpf4jnsgd1na2vs0mg"},{"bike_id":"999b9d30-855b-489d-9de1-6a44f83d6385","system_id":"levelo_inurba_marseille","lat":43.21193,"lon":5.35076,"is_reserved":false,"is_disabled":false,"rental_uris":{"android":"levelo://app?vid=999b9d30-855b-489d-9de1-6a44f83d6385","ios":"levelo://app?vid=999b9d30-855b-489d-9de1-6a44f83d6385"},"vehicle_type_id":"4","last_reported":1752520199,"current_range_meters":4400,"station_id":"st_cvj6sg6p6f1abm77japg","pricing_plan_id":"cebpf4jnsgd1na2vs0mg"},{"bike_id":"9efb8360-8563-45b9-96b2-a06e314abdb2","system_id":"levelo_inurba_marseille","lat":43.21201,"lon":5.35071,"is_reserved":false,"is_disabled":false,"rental_uris":{"android":"levelo://app?vid=9efb8360-8563-45b9-96b2-a06e314abdb2","ios":"levelo://app?vid=9efb8360-8563-45b9-96b2-a06e314abdb2"},"vehicle_type_id":"4","last_reported":1752520199,"current_range_meters":4400,"station_id":"st_cvj6sg6p6f1abm77japg","pricing_plan_id":"cebpf4jnsgd1na2vs0mg"},{"bike_id":"a6a894e5-9292-4c95-89f2-b8037416dd14","system_id":"levelo_inurba_marseille","lat":43.2926,"lon":5.38433,"is_reserved":false,"is_disabled":false,"rental_uris":{"android":"levelo://app?vid=a6a894e5-9292-4c95-89f2-b8037416dd14","ios":"levelo://app?vid=a6a894e5-9292-4c95-89f2-b8037416dd14"},"vehicle_type_id":"4","last_reported":1752520199,"current_range_meters":4800,"station_id":"ce4bh692rcd13ifvqea0","pricing_plan_id":"cebpf4jnsgd1na2vs0mg"},{"bike_id":"7f6cb8be-3ba9-4d7d-8fdd-1d4d430f94f0","system_id":"levelo_inurba_marseille","lat":43.301516,"lon":5.380789,"is_reserved":false,"is_disabled":false,"rental_uris":{"android":"levelo://app?vid=7f6cb8be-3ba9-4d7d-8fdd-1d4d430f94f0","ios":"levelo://app?vid=7f6cb8be-3ba9-4d7d-8fdd-1d4d430f94f0"},"vehicle_type_id":"4","last_reported":1752520199,"current_range_meters":4800,"station_id":"ce4bgjp2rcd13ifvqbh0","pricing_plan_id":"cebpf4jnsgd1na2vs0mg"},{"bike_id":"f6c7a5fb-c58e-4e5e-afcb-96acd6c67947","system_id":"levelo_inurba_marseille","lat":43.284045,"lon":5.37511,"is_reserved":false,"is_disabled":false,"rental_uris":{"android":"levelo://app?vid=f6c7a5fb-c58e-4e5e-afcb-96acd6c67947","ios":"levelo://app?vid=f6c7a5fb-c58e-4e5e-afcb-96acd6c67947"},"vehicle_type_id":"4","last_reported":1752520199,"current_range_meters":4800,"station_id":"","pricing_plan_id":"cebpf4jnsgd1na2vs0mg"},{"bike_id":"65266f02-d16d-4faa-ad1f-4c5b7c4626da","system_id":"levelo_inurba_marseille","lat":43.32337,"lon":5.40608,"is_reserved":false,"is_disabled":false,"rental_uris":{"android":"levelo://app?vid=65266f02-d16d-4faa-ad1f-4c5b7c4626da","ios":"levelo://app?vid=65266f02-d16d-4faa-ad1f-4c5b7c4626da"},"vehicle_type_id":"4","last_reported":1752520199,"current_range_meters":4800,"station_id":"ce4bhq92rcd13ifvqhjg","pricing_plan_id":"cebpf4jnsgd1na2vs0mg"},{"bike_id":"f5a5c290-12bb-4646-ab18-b385121f9284","system_id":"levelo_inurba_marseille","lat":43.30825,"lon":5.38147,"is_reserved":false,"is_disabled":true,"rental_uris":{"android":"levelo://app?vid=f5a5c290-12bb-4646-ab18-b385121f9284","ios":"levelo://app?vid=f5a5c290-12bb-4646-ab18-b385121f9284"},"vehicle_type_id":"4","last_reported":1752520199,"current_range_meters":4800,"station_id":"ce4bgt12rcd13ifvqce0","pricing_plan_id":"cebpf4jnsgd1na2vs0mg"},{"bike_id":"8cc6e60b-1645-4c9b-94f9-ee6bfb40c032","system_id":"levelo_inurba_marseille","lat":43.25499,"lon":5.37646,"is_reserved":false,"is_disabled":false,"rental_uris":{"android":"levelo://app?vid=8cc6e60b-1645-4c9b-94f9-ee6bfb40c032","ios":"levelo://app?vid=8cc6e60b-1645-4c9b-94f9-ee6bfb40c032"},"vehicle_type_id":"4","last_reported":1752520199,"current_range_meters":4800,"station_id":"ce4bhh12rcd13ifvqff0","pricing_plan_id":"cebpf4jnsgd1na2vs0mg"},{"bike_id":"c762f939-7ec5-4784-8272-c1190124cce6","system_id":"levelo_inurba_marseille","lat":43.29527,"lon":5.39397,"is_reserved":false,"is_disabled":false,"rental_uris":{"android":"levelo://app?vid=c762f939-7ec5-4784-8272-c1190124cce6","ios":"levelo://app?vid=c762f939-7ec5-4784-8272-c1190124cce6"},"vehicle_type_id":"4","last_reported":1752520199,"current_range_meters":6000,"station_id":"ce4bh292rcd13ifvqdf0","pricing_plan_id":"cebpf4jnsgd1na2vs0mg"},{"bike_id":"0fdebd83-1692-4d2f-b3b3-f2fac392281d","system_id":"levelo_inurba_marseille","lat":43.23186,"lon":5.39987,"is_reserved":false,"is_disabled":false,"rental_uris":{"android":"levelo://app?vid=0fdebd83-1692-4d2f-b3b3-f2fac392281d","ios":"levelo://app?vid=0fdebd83-1692-4d2f-b3b3-f2fac392281d"},"vehicle_type_id":"4","last_reported":1752520199,"current_range_meters":6000,"station_id":"ce4bhn12rcd13ifvqgqg","pricing_plan_id":"cebpf4jnsgd1na2vs0mg"},{"bike_id":"ad861f1f-154d-44b9-9385-8643575a6d6e","system_id":"levelo_inurba_marseille","lat":43.33604,"lon":5.41023,"is_reserved":false,"is_disabled":false,"rental_uris":{"android":"levelo://app?vid=ad861f1f-154d-44b9-9385-8643575a6d6e","ios":"levelo://app?vid=ad861f1f-154d-44b9-9385-8643575a6d6e"},"vehicle_type_id":"4","last_reported":1752520199,"current_range_meters":6000,"station_id":"ce4bhqh2rcd13ifvqhmg","pricing_plan_id":"cebpf4jnsgd1na2vs0mg"},{"bike_id":"f7127d1b-90b6-4c30-abbb-162b5f599e2d","system_id":"levelo_inurba_marseille","lat":43.303237,"lon":5.373982,"is_reserved":false,"is_disabled":false,"rental_uris":{"android":"levelo://app?vid=f7127d1b-90b6-4c30-abbb-162b5f599e2d","ios":"levelo://app?vid=f7127d1b-90b6-4c30-abbb-162b5f599e2d"},"vehicle_type_id":"4","last_reported":1752520199,"current_range_meters":6400,"station_id":"ce4bgqh2rcd13ifvqc4g","pricing_plan_id":"cebpf4jnsgd1na2vs0mg"},{"bike_id":"f255918c-c50c-4927-89ab-434ebb7f685e","system_id":"levelo_inurba_marseille","lat":43.29965,"lon":5.37162,"is_reserved":false,"is_disabled":false,"rental_uris":{"android":"levelo://app?vid=f255918c-c50c-4927-89ab-434ebb7f685e","ios":"levelo://app?vid=f255918c-c50c-4927-89ab-434ebb7f685e"},"vehicle_type_id":"4","last_reported":1752520199,"current_range_meters":6400,"station_id":"ce4bgr92rcd13ifvqc7g","pricing_plan_id":"cebpf4jnsgd1na2vs0mg"},{"bike_id":"e8387f84-477e-43fd-bc3e-81749cf7af18","system_id":"levelo_inurba_marseille","lat":43.29069,"lon":5.37153,"is_reserved":false,"is_disabled":false,"rental_uris":{"android":"levelo://app?vid=e8387f84-477e-43fd-bc3e-81749cf7af18","ios":"levelo://app?vid=e8387f84-477e-43fd-bc3e-81749cf7af18"},"vehicle_type_id":"4","last_reported":1752520199,"current_range_meters":6400,"station_id":"ce4bh5p2rcd13ifvqe4g","pricing_plan_id":"cebpf4jnsgd1na2vs0mg"},{"bike_id":"ae0311d1-b3e2-402e-8c39-888d282f0f58","system_id":"levelo_inurba_marseille","lat":43.2721,"lon":5.39177,"is_reserved":false,"is_disabled":false,"rental_uris":{"android":"levelo://app?vid=ae0311d1-b3e2-402e-8c39-888d282f0f58","ios":"levelo://app?vid=ae0311d1-b3e2-402e-8c39-888d282f0f58"},"vehicle_type_id":"4","last_reported":1752520199,"current_range_meters":6400,"station_id":"ce4bhhp2rcd13ifvqfm0","pricing_plan_id":"cebpf4jnsgd1na2vs0mg"},{"bike_id":"e19cc707-7cb7-4a55-9d92-73d404617018","system_id":"levelo_inurba_marseille","lat":43.29526,"lon":5.37512,"is_reserved":false,"is_disabled":false,"rental_uris":{"android":"levelo://app?vid=e19cc707-7cb7-4a55-9d92-73d404617018","ios":"levelo://app?vid=e19cc707-7cb7-4a55-9d92-73d404617018"},"vehicle_type_id":"4","last_reported":1752520199,"current_range_meters":6800,"station_id":"ce4bgkp2rcd13ifvqbmg","pricing_plan_id":"cebpf4jnsgd1na2vs0mg"},{"bike_id":"f23760ff-ab61-4853-aa67-28aac93822c1","system_id":"levelo_inurba_marseille","lat":43.337444,"lon":5.374475,"is_reserved":false,"is_disabled":false,"rental_uris":{"android":"levelo://app?vid=f23760ff-ab61-4853-aa67-28aac93822c1","ios":"levelo://app?vid=f23760ff-ab61-4853-aa67-28aac93822c1"},"vehicle_type_id":"4","last_reported":1752520199,"current_range_meters":6800,"station_id":"","pricing_plan_id":"cebpf4jnsgd1na2vs0mg"},{"bike_id":"170e79c9-d76b-49f3-82c1-41d8d6c52384","system_id":"levelo_inurba_marseille","lat":43.28618,"lon":5.37083,"is_reserved":false,"is_disabled":false,"rental_uris":{"android":"levelo://app?vid=170e79c9-d76b-49f3-82c1-41d8d6c52384","ios":"levelo://app?vid=170e79c9-d76b-49f3-82c1-41d8d6c52384"},"vehicle_type_id":"4","last_reported":1752520199,"current_range_meters":6800,"station_id":"ce4bht12rcd13ifvqi60","pricing_plan_id":"cebpf4jnsgd1na2vs0mg"},{"bike_id":"7d5159f5-c70c-4ddc-962e-5f702ba5933d","system_id":"levelo_inurba_marseille","lat":43.3014,"lon":5.37422,"is_reserved":false,"is_disabled":false,"rental_uris":{"android":"levelo://app?vid=7d5159f5-c70c-4ddc-962e-5f702ba5933d","ios":"levelo://app?vid=7d5159f5-c70c-4ddc-962e-5f702ba5933d"},"vehicle_type_id":"4","last_reported":1752520199,"current_range_meters":6800,"station_id":"ce4bgs92rcd13ifvqcc0","pricing_plan_id":"cebpf4jnsgd1na2vs0mg"},{"bike_id":"11097d5e-8715-4227-9cc5-17eb9c24aa48","system_id":"levelo_inurba_marseille","lat":43.30424,"lon":5.39748,"is_reserved":false,"is_disabled":false,"rental_uris":{"android":"levelo://app?vid=11097d5e-8715-4227-9cc5-17eb9c24aa48","ios":"levelo://app?vid=11097d5e-8715-4227-9cc5-17eb9c24aa48"},"vehicle_type_id":"4","last_reported":1752520199,"current_range_meters":7200,"station_id":"ce4bh092rcd13ifvqd20","pricing_plan_id":"cebpf4jnsgd1na2vs0mg"},{"bike_id":"4e2cfeab-7980-4810-8c0e-062f723d24a8","system_id":"levelo_inurba_marseille","lat":43.284363,"lon":5.392055,"is_reserved":false,"is_disabled":false,"rental_uris":{"android":"levelo://app?vid=4e2cfeab-7980-4810-8c0e-062f723d24a8","ios":"levelo://app?vid=4e2cfeab-7980-4810-8c0e-062f723d24a8"},"vehicle_type_id":"4","last_reported":1752520199,"current_range_meters":7200,"station_id":"ce4bhoh2rcd13ifvqh5g","pricing_plan_id":"cebpf4jnsgd1na2vs0mg"},{"bike_id":"96117a32-bca7-49cf-a334-fb6e8ea5b723","system_id":"levelo_inurba_marseille","lat":43.28414,"lon":5.3753,"is_reserved":false,"is_disabled":false,"rental_uris":{"android":"levelo://app?vid=96117a32-bca7-49cf-a334-fb6e8ea5b723","ios":"levelo://app?vid=96117a32-bca7-49cf-a334-fb6e8ea5b723"},"vehicle_type_id":"4","last_reported":1752520199,"current_range_meters":7200,"station_id":"ce4bh412rcd13ifvqds0","pricing_plan_id":"cebpf4jnsgd1na2vs0mg"},{"bike_id":"4f188957-3c3c-4987-a2cc-2a0224a297ab","system_id":"levelo_inurba_marseille","lat":43.28099,"lon":5.37835,"is_reserved":false,"is_disabled":false,"rental_uris":{"android":"levelo://app?vid=4f188957-3c3c-4987-a2cc-2a0224a297ab","ios":"levelo://app?vid=4f188957-3c3c-4987-a2cc-2a0224a297ab"},"vehicle_type_id":"4","last_reported":1752520199,"current_range_meters":7200,"station_id":"ce4bha12rcd13ifvqee0","pricing_plan_id":"cebpf4jnsgd1na2vs0mg"},{"bike_id":"f4da7ccf-9342-4e90-87af-9107015ae7b4","system_id":"levelo_inurba_marseille","lat":43.28419,"lon":5.37518,"is_reserved":false,"is_disabled":false,"rental_uris":{"android":"levelo://app?vid=f4da7ccf-9342-4e90-87af-9107015ae7b4","ios":"levelo://app?vid=f4da7ccf-9342-4e90-87af-9107015ae7b4"},"vehicle_type_id":"4","last_reported":1752520199,"current_range_meters":8000,"station_id":"ce4bh412rcd13ifvqds0","pricing_plan_id":"cebpf4jnsgd1na2vs0mg"},{"bike_id":"6bd77d54-8833-4f1c-82f3-65e5026e1c83","system_id":"levelo_inurba_marseille","lat":43.31364,"lon":5.38486,"is_reserved":false,"is_disabled":false,"rental_uris":{"android":"levelo://app?vid=6bd77d54-8833-4f1c-82f3-65e5026e1c83","ios":"levelo://app?vid=6bd77d54-8833-4f1c-82f3-65e5026e1c83"},"vehicle_type_id":"4","last_reported":1752520199,"current_range_meters":8000,"station_id":"ce4bgt92rcd13ifvqcf0","pricing_plan_id":"cebpf4jnsgd1na2vs0mg"},{"bike_id":"d95bffb6-4f83-4aea-b749-56dcb59a7255","system_id":"levelo_inurba_marseille","lat":43.29291,"lon":5.3747,"is_reserved":false,"is_disabled":false,"rental_uris":{"android":"levelo://app?vid=d95bffb6-4f83-4aea-b749-56dcb59a7255","ios":"levelo://app?vid=d95bffb6-4f83-4aea-b749-56dcb59a7255"},"vehicle_type_id":"4","last_reported":1752520199,"current_range_meters":8000,"station_id":"ce4bgi12rcd13ifvqb70","pricing_plan_id":"cebpf4jnsgd1na2vs0mg"},{"bike_id":"f65d1173-e7b9-4699-be5d-abe005099d1d","system_id":"levelo_inurba_marseille","lat":43.22501,"lon":5.34788,"is_reserved":false,"is_disabled":false,"rental_uris":{"android":"levelo://app?vid=f65d1173-e7b9-4699-be5d-abe005099d1d","ios":"levelo://app?vid=f65d1173-e7b9-4699-be5d-abe005099d1d"},"vehicle_type_id":"4","last_reported":1752520199,"current_range_meters":8000,"station_id":"st_cvj5dfep6f1abm77gieg","pricing_plan_id":"cebpf4jnsgd1na2vs0mg"},{"bike_id":"5a1be73e-e4b5-49ef-989f-166496876dfa","system_id":"levelo_inurba_marseille","lat":43.217413,"lon":5.34599,"is_reserved":false,"is_disabled":false,"rental_uris":{"android":"levelo://app?vid=5a1be73e-e4b5-49ef-989f-166496876dfa","ios":"levelo://app?vid=5a1be73e-e4b5-49ef-989f-166496876dfa"},"vehicle_type_id":"4","last_reported":1752520199,"current_range_meters":8000,"station_id":"","pricing_plan_id":"cebpf4jnsgd1na2vs0mg"},{"bike_id":"a7b45308-87ab-4c96-ac8c-9f0510c1748d","system_id":"levelo_inurba_marseille","lat":43.283971,"lon":5.375145,"is_reserved":false,"is_disabled":false,"rental_uris":{"android":"levelo://app?vid=a7b45308-87ab-4c96-ac8c-9f0510c1748d","ios":"levelo://app?vid=a7b45308-87ab-4c96-ac8c-9f0510c1748d"},"vehicle_type_id":"4","last_reported":1752520199,"current_range_meters":8000,"station_id":"ce4bh412rcd13ifvqds0","pricing_plan_id":"cebpf4jnsgd1na2vs0mg"},{"bike_id":"9b20c787-59ed-4b02-961f-1a4e226887a6","system_id":"levelo_inurba_marseille","lat":43.28101,"lon":5.37832,"is_reserved":false,"is_disabled":false,"rental_uris":{"android":"levelo://app?vid=9b20c787-59ed-4b02-961f-1a4e226887a6","ios":"levelo://app?vid=9b20c787-59ed-4b02-961f-1a4e226887a6"},"vehicle_type_id":"4","last_reported":1752520199,"current_range_meters":8000,"station_id":"ce4bha12rcd13ifvqee0","pricing_plan_id":"cebpf4jnsgd1na2vs0mg"},{"bike_id":"7f05d6aa-e0fa-499a-84a1-0a47eadec542","system_id":"levelo_inurba_marseille","lat":43.28266,"lon":5.35062,"is_reserved":false,"is_disabled":false,"rental_uris":{"android":"levelo://app?vid=7f05d6aa-e0fa-499a-84a1-0a47eadec542","ios":"levelo://app?vid=7f05d6aa-e0fa-499a-84a1-0a47eadec542"},"vehicle_type_id":"4","last_reported":1752520199,"current_range_meters":8000,"station_id":"ce4bhbp2rcd13ifvqerg","pricing_plan_id":"cebpf4jnsgd1na2vs0mg"},{"bike_id":"ed666aab-2749-485e-833d-d2b19f9da158","system_id":"levelo_inurba_marseille","lat":43.30899,"lon":5.37188,"is_reserved":false,"is_disabled":false,"rental_uris":{"android":"levelo://app?vid=ed666aab-2749-485e-833d-d2b19f9da158","ios":"levelo://app?vid=ed666aab-2749-485e-833d-d2b19f9da158"},"vehicle_type_id":"4","last_reported":1752520199,"current_range_meters":8400,"station_id":"ce4bguh2rcd13ifvqckg","pricing_plan_id":"cebpf4jnsgd1na2vs0mg"},{"bike_id":"61b8ab30-44c8-420a-9838-4cc8b9aebabc","system_id":"levelo_inurba_marseille","lat":43.29621,"lon":5.37716,"is_reserved":false,"is_disabled":false,"rental_uris":{"android":"levelo://app?vid=61b8ab30-44c8-420a-9838-4cc8b9aebabc","ios":"levelo://app?vid=61b8ab30-44c8-420a-9838-4cc8b9aebabc"},"vehicle_type_id":"4","last_reported":1752520199,"current_range_meters":8800,"station_id":"ce4bgi92rcd13ifvqb90","pricing_plan_id":"cebpf4jnsgd1na2vs0mg"},{"bike_id":"07b80ba8-94f7-4006-b883-d44157aa02a8","system_id":"levelo_inurba_marseille","lat":43.21181,"lon":5.35079,"is_reserved":false,"is_disabled":false,"rental_uris":{"android":"levelo://app?vid=07b80ba8-94f7-4006-b883-d44157aa02a8","ios":"levelo://app?vid=07b80ba8-94f7-4006-b883-d44157aa02a8"},"vehicle_type_id":"4","last_reported":1752520199,"current_range_meters":9600,"station_id":"st_cvj6sg6p6f1abm77japg","pricing_plan_id":"cebpf4jnsgd1na2vs0mg"},{"bike_id":"e3b686d1-f0b1-4887-9c05-4bc370c43021","system_id":"levelo_inurba_marseille","lat":43.27175,"lon":5.40997,"is_reserved":false,"is_disabled":true,"rental_uris":{"android":"levelo://app?vid=e3b686d1-f0b1-4887-9c05-4bc370c43021","ios":"levelo://app?vid=e3b686d1-f0b1-4887-9c05-4bc370c43021"},"vehicle_type_id":"4","last_reported":1752520199,"current_range_meters":9200,"station_id":"ce4bhl12rcd13ifvqgf0","pricing_plan_id":"cebpf4jnsgd1na2vs0mg"},{"bike_id":"66dc43eb-bfa4-40a5-bb08-a86f2205e7bc","system_id":"levelo_inurba_marseille","lat":43.28408,"lon":5.37517,"is_reserved":false,"is_disabled":false,"rental_uris":{"android":"levelo://app?vid=66dc43eb-bfa4-40a5-bb08-a86f2205e7bc","ios":"levelo://app?vid=66dc43eb-bfa4-40a5-bb08-a86f2205e7bc"},"vehicle_type_id":"4","last_reported":1752520199,"current_range_meters":9200,"station_id":"ce4bh412rcd13ifvqds0","pricing_plan_id":"cebpf4jnsgd1na2vs0mg"},{"bike_id":"4d5326e5-1fe6-417d-a95c-7295714e1e6a","system_id":"levelo_inurba_marseille","lat":43.29933,"lon":5.36528,"is_reserved":false,"is_disabled":false,"rental_uris":{"android":"levelo://app?vid=4d5326e5-1fe6-417d-a95c-7295714e1e6a","ios":"levelo://app?vid=4d5326e5-1fe6-417d-a95c-7295714e1e6a"},"vehicle_type_id":"4","last_reported":1752520199,"current_range_meters":9200,"station_id":"ce4bgm92rcd13ifvqbr0","pricing_plan_id":"cebpf4jnsgd1na2vs0mg"},{"bike_id":"dea79f4c-a428-41a6-9d83-c44b5bfcea82","system_id":"levelo_inurba_marseille","lat":43.260303,"lon":5.375485,"is_reserved":false,"is_disabled":false,"rental_uris":{"android":"levelo://app?vid=dea79f4c-a428-41a6-9d83-c44b5bfcea82","ios":"levelo://app?vid=dea79f4c-a428-41a6-9d83-c44b5bfcea82"},"vehicle_type_id":"4","last_reported":1752520199,"current_range_meters":9200,"station_id":"ce4bhgh2rcd13ifvqfa0","pricing_plan_id":"cebpf4jnsgd1na2vs0mg"},{"bike_id":"a2dc1f38-80e0-4f71-b10a-45cbbb725e88","system_id":"levelo_inurba_marseille","lat":43.30048,"lon":5.38938,"is_reserved":false,"is_disabled":false,"rental_uris":{"android":"levelo://app?vid=a2dc1f38-80e0-4f71-b10a-45cbbb725e88","ios":"levelo://app?vid=a2dc1f38-80e0-4f71-b10a-45cbbb725e88"},"vehicle_type_id":"4","last_reported":1752520199,"current_range_meters":9200,"station_id":"","pricing_plan_id":"cebpf4jnsgd1na2vs0mg"},{"bike_id":"294e6ff6-fcf8-46db-84ad-6c0857e6e419","system_id":"levelo_inurba_marseille","lat":43.295265,"lon":5.390369,"is_reserved":false,"is_disabled":false,"rental_uris":{"android":"levelo://app?vid=294e6ff6-fcf8-46db-84ad-6c0857e6e419","ios":"levelo://app?vid=294e6ff6-fcf8-46db-84ad-6c0857e6e419"},"vehicle_type_id":"4","last_reported":1752520199,"current_range_meters":9600,"station_id":"","pricing_plan_id":"cebpf4jnsgd1na2vs0mg"},{"bike_id":"ecf2dc49-d1b8-416e-96e4-6280f9610e23","system_id":"levelo_inurba_marseille","lat":43.29618,"lon":5.37723,"is_reserved":false,"is_disabled":false,"rental_uris":{"android":"levelo://app?vid=ecf2dc49-d1b8-416e-96e4-6280f9610e23","ios":"levelo://app?vid=ecf2dc49-d1b8-416e-96e4-6280f9610e23"},"vehicle_type_id":"4","last_reported":1752520199,"current_range_meters":9600,"station_id":"ce4bgi92rcd13ifvqb90","pricing_plan_id":"cebpf4jnsgd1na2vs0mg"},{"bike_id":"6a46cce0-a3a7-4574-b4cc-2278a9136a0e","system_id":"levelo_inurba_marseille","lat":43.30888,"lon":5.39651,"is_reserved":false,"is_disabled":false,"rental_uris":{"android":"levelo://app?vid=6a46cce0-a3a7-4574-b4cc-2278a9136a0e","ios":"levelo://app?vid=6a46cce0-a3a7-4574-b4cc-2278a9136a0e"},"vehicle_type_id":"4","last_reported":1752520199,"current_range_meters":9600,"station_id":"ce4bh012rcd13ifvqcv0","pricing_plan_id":"cebpf4jnsgd1na2vs0mg"},{"bike_id":"3fb4e3be-8931-47e6-9e83-d7929aa2b24c","system_id":"levelo_inurba_marseille","lat":43.28408,"lon":5.37516,"is_reserved":false,"is_disabled":false,"rental_uris":{"android":"levelo://app?vid=3fb4e3be-8931-47e6-9e83-d7929aa2b24c","ios":"levelo://app?vid=3fb4e3be-8931-47e6-9e83-d7929aa2b24c"},"vehicle_type_id":"4","last_reported":1752520199,"current_range_meters":9600,"station_id":"ce4bh412rcd13ifvqds0","pricing_plan_id":"cebpf4jnsgd1na2vs0mg"},{"bike_id":"a95c6fdc-3c4d-46b1-8a87-d88e273d71b1","system_id":"levelo_inurba_marseille","lat":43.28942,"lon":5.363842,"is_reserved":false,"is_disabled":true,"rental_uris":{"android":"levelo://app?vid=a95c6fdc-3c4d-46b1-8a87-d88e273d71b1","ios":"levelo://app?vid=a95c6fdc-3c4d-46b1-8a87-d88e273d71b1"},"vehicle_type_id":"4","last_reported":1752520199,"current_range_meters":9600,"station_id":"ce4bhc92rcd13ifvqetg","pricing_plan_id":"cebpf4jnsgd1na2vs0mg"},{"bike_id":"58375fde-ca97-4dab-be52-59caf98323d3","system_id":"levelo_inurba_marseille","lat":43.26562,"lon":5.37247,"is_reserved":false,"is_disabled":true,"rental_uris":{"android":"levelo://app?vid=58375fde-ca97-4dab-be52-59caf98323d3","ios":"levelo://app?vid=58375fde-ca97-4dab-be52-59caf98323d3"},"vehicle_type_id":"4","last_reported":1752520199,"current_range_meters":9600,"station_id":"ce4bhg12rcd13ifvqf70","pricing_plan_id":"cebpf4jnsgd1na2vs0mg"},{"bike_id":"7d8c67ad-3e66-42f9-8c6e-098cca666cf3","system_id":"levelo_inurba_marseille","lat":43.32364,"lon":5.36737,"is_reserved":false,"is_disabled":false,"rental_uris":{"android":"levelo://app?vid=7d8c67ad-3e66-42f9-8c6e-098cca666cf3","ios":"levelo://app?vid=7d8c67ad-3e66-42f9-8c6e-098cca666cf3"},"vehicle_type_id":"4","last_reported":1752520199,"current_range_meters":9600,"station_id":"ce4bhsh2rcd13ifvqi2g","pricing_plan_id":"cebpf4jnsgd1na2vs0mg"},{"bike_id":"02960833-be6b-4e14-809e-7df3fa7073ed","system_id":"levelo_inurba_marseille","lat":43.28942,"lon":5.36401,"is_reserved":false,"is_disabled":false,"rental_uris":{"android":"levelo://app?vid=02960833-be6b-4e14-809e-7df3fa7073ed","ios":"levelo://app?vid=02960833-be6b-4e14-809e-7df3fa7073ed"},"vehicle_type_id":"4","last_reported":1752520199,"current_range_meters":9600,"station_id":"ce4bhc92rcd13ifvqetg","pricing_plan_id":"cebpf4jnsgd1na2vs0mg"},{"bike_id":"f4badca5-8f1d-4b3b-805b-a62f11e7a45a","system_id":"levelo_inurba_marseille","lat":43.31173,"lon":5.38726,"is_reserved":false,"is_disabled":false,"rental_uris":{"android":"levelo://app?vid=f4badca5-8f1d-4b3b-805b-a62f11e7a45a","ios":"levelo://app?vid=f4badca5-8f1d-4b3b-805b-a62f11e7a45a"},"vehicle_type_id":"4","last_reported":1752520199,"current_range_meters":10000,"station_id":"ce4bgv12rcd13ifvqcp0","pricing_plan_id":"cebpf4jnsgd1na2vs0mg"},{"bike_id":"a26215aa-9cdf-47e4-a0de-c2e5eb0d8d4c","system_id":"levelo_inurba_marseille","lat":43.284058,"lon":5.37508,"is_reserved":false,"is_disabled":false,"rental_uris":{"android":"levelo://app?vid=a26215aa-9cdf-47e4-a0de-c2e5eb0d8d4c","ios":"levelo://app?vid=a26215aa-9cdf-47e4-a0de-c2e5eb0d8d4c"},"vehicle_type_id":"4","last_reported":1752520199,"current_range_meters":10000,"station_id":"","pricing_plan_id":"cebpf4jnsgd1na2vs0mg"},{"bike_id":"28db6eef-3870-4972-b8a3-30f835ec6cb7","system_id":"levelo_inurba_marseille","lat":43.28613,"lon":5.37064,"is_reserved":false,"is_disabled":false,"rental_uris":{"android":"levelo://app?vid=28db6eef-3870-4972-b8a3-30f835ec6cb7","ios":"levelo://app?vid=28db6eef-3870-4972-b8a3-30f835ec6cb7"},"vehicle_type_id":"4","last_reported":1752520199,"current_range_meters":10000,"station_id":"ce4bht12rcd13ifvqi60","pricing_plan_id":"cebpf4jnsgd1na2vs0mg"},{"bike_id":"44bc411f-9ce0-4759-a9bb-fb7b39dcc314","system_id":"levelo_inurba_marseille","lat":43.29071,"lon":5.37146,"is_reserved":false,"is_disabled":false,"rental_uris":{"android":"levelo://app?vid=44bc411f-9ce0-4759-a9bb-fb7b39dcc314","ios":"levelo://app?vid=44bc411f-9ce0-4759-a9bb-fb7b39dcc314"},"vehicle_type_id":"4","last_reported":1752520199,"current_range_meters":10000,"station_id":"ce4bh5p2rcd13ifvqe4g","pricing_plan_id":"cebpf4jnsgd1na2vs0mg"},{"bike_id":"6d503160-2ba5-41e1-9204-e17dc5af9c5d","system_id":"levelo_inurba_marseille","lat":43.28608,"lon":5.37063,"is_reserved":false,"is_disabled":false,"rental_uris":{"android":"levelo://app?vid=6d503160-2ba5-41e1-9204-e17dc5af9c5d","ios":"levelo://app?vid=6d503160-2ba5-41e1-9204-e17dc5af9c5d"},"vehicle_type_id":"4","last_reported":1752520199,"current_range_meters":10000,"station_id":"ce4bht12rcd13ifvqi60","pricing_plan_id":"cebpf4jnsgd1na2vs0mg"},{"bike_id":"eb97baf6-3859-4dd6-81f1-49dfe0306dd8","system_id":"levelo_inurba_marseille","lat":43.28611,"lon":5.37065,"is_reserved":false,"is_disabled":false,"rental_uris":{"android":"levelo://app?vid=eb97baf6-3859-4dd6-81f1-49dfe0306dd8","ios":"levelo://app?vid=eb97baf6-3859-4dd6-81f1-49dfe0306dd8"},"vehicle_type_id":"4","last_reported":1752520199,"current_range_meters":10000,"station_id":"ce4bht12rcd13ifvqi60","pricing_plan_id":"cebpf4jnsgd1na2vs0mg"},{"bike_id":"65ab6207-45d0-42dc-be17-568c1496126e","system_id":"levelo_inurba_marseille","lat":43.29299,"lon":5.37455,"is_reserved":false,"is_disabled":false,"rental_uris":{"android":"levelo://app?vid=65ab6207-45d0-42dc-be17-568c1496126e","ios":"levelo://app?vid=65ab6207-45d0-42dc-be17-568c1496126e"},"vehicle_type_id":"4","last_reported":1752520199,"current_range_meters":10000,"station_id":"ce4bgi12rcd13ifvqb70","pricing_plan_id":"cebpf4jnsgd1na2vs0mg"},{"bike_id":"16476641-3812-4eab-890b-d42e73628e51","system_id":"levelo_inurba_marseille","lat":43.29983,"lon":5.37167,"is_reserved":false,"is_disabled":false,"rental_uris":{"android":"levelo://app?vid=16476641-3812-4eab-890b-d42e73628e51","ios":"levelo://app?vid=16476641-3812-4eab-890b-d42e73628e51"},"vehicle_type_id":"4","last_reported":1752520199,"current_range_meters":10800,"station_id":"ce4bgr92rcd13ifvqc7g","pricing_plan_id":"cebpf4jnsgd1na2vs0mg"},{"bike_id":"b2464811-ed1c-444d-b5b2-f0f5cb56794f","system_id":"levelo_inurba_marseille","lat":43.28701,"lon":5.35204,"is_reserved":false,"is_disabled":false,"rental_uris":{"android":"levelo://app?vid=b2464811-ed1c-444d-b5b2-f0f5cb56794f","ios":"levelo://app?vid=b2464811-ed1c-444d-b5b2-f0f5cb56794f"},"vehicle_type_id":"4","last_reported":1752520199,"current_range_meters":10800,"station_id":"","pricing_plan_id":"cebpf4jnsgd1na2vs0mg"},{"bike_id":"958afea5-ec41-49c0-b58e-5d64194dffb1","system_id":"levelo_inurba_marseille","lat":43.29616,"lon":5.37718,"is_reserved":false,"is_disabled":false,"rental_uris":{"android":"levelo://app?vid=958afea5-ec41-49c0-b58e-5d64194dffb1","ios":"levelo://app?vid=958afea5-ec41-49c0-b58e-5d64194dffb1"},"vehicle_type_id":"4","last_reported":1752520199,"current_range_meters":10000,"station_id":"ce4bgi92rcd13ifvqb90","pricing_plan_id":"cebpf4jnsgd1na2vs0mg"},{"bike_id":"f3f9d1b1-7ffc-45ef-9137-e6f211c6e122","system_id":"levelo_inurba_marseille","lat":43.2962,"lon":5.37729,"is_reserved":false,"is_disabled":false,"rental_uris":{"android":"levelo://app?vid=f3f9d1b1-7ffc-45ef-9137-e6f211c6e122","ios":"levelo://app?vid=f3f9d1b1-7ffc-45ef-9137-e6f211c6e122"},"vehicle_type_id":"4","last_reported":1752520199,"current_range_meters":10800,"station_id":"ce4bgi92rcd13ifvqb90","pricing_plan_id":"cebpf4jnsgd1na2vs0mg"},{"bike_id":"f28fe990-e73b-4c28-8e8f-42534adf2e52","system_id":"levelo_inurba_marseille","lat":43.28611,"lon":5.37052,"is_reserved":false,"is_disabled":false,"rental_uris":{"android":"levelo://app?vid=f28fe990-e73b-4c28-8e8f-42534adf2e52","ios":"levelo://app?vid=f28fe990-e73b-4c28-8e8f-42534adf2e52"},"vehicle_type_id":"4","last_reported":1752520199,"current_range_meters":10800,"station_id":"ce4bht12rcd13ifvqi60","pricing_plan_id":"cebpf4jnsgd1na2vs0mg"},{"bike_id":"427a1843-5290-4ade-ad39-7199598a25aa","system_id":"levelo_inurba_marseille","lat":43.29534,"lon":5.39386,"is_reserved":false,"is_disabled":false,"rental_uris":{"android":"levelo://app?vid=427a1843-5290-4ade-ad39-7199598a25aa","ios":"levelo://app?vid=427a1843-5290-4ade-ad39-7199598a25aa"},"vehicle_type_id":"4","last_reported":1752520199,"current_range_meters":10000,"station_id":"ce4bh292rcd13ifvqdf0","pricing_plan_id":"cebpf4jnsgd1na2vs0mg"},{"bike_id":"856f2d23-2d4b-4e7d-9b18-dff24c595dd3","system_id":"levelo_inurba_marseille","lat":43.2678,"lon":5.39418,"is_reserved":false,"is_disabled":true,"rental_uris":{"android":"levelo://app?vid=856f2d23-2d4b-4e7d-9b18-dff24c595dd3","ios":"levelo://app?vid=856f2d23-2d4b-4e7d-9b18-dff24c595dd3"},"vehicle_type_id":"4","last_reported":1752520199,"current_range_meters":10800,"station_id":"ce4bhh12rcd13ifvqfg0","pricing_plan_id":"cebpf4jnsgd1na2vs0mg"},{"bike_id":"d916aace-830c-451e-a376-c1312f1fc6af","system_id":"levelo_inurba_marseille","lat":43.22504,"lon":5.34785,"is_reserved":false,"is_disabled":false,"rental_uris":{"android":"levelo://app?vid=d916aace-830c-451e-a376-c1312f1fc6af","ios":"levelo://app?vid=d916aace-830c-451e-a376-c1312f1fc6af"},"vehicle_type_id":"4","last_reported":1752520199,"current_range_meters":10800,"station_id":"","pricing_plan_id":"cebpf4jnsgd1na2vs0mg"},{"bike_id":"233b0475-c828-483b-8f08-1cf18d79cd9e","system_id":"levelo_inurba_marseille","lat":43.29219,"lon":5.36054,"is_reserved":false,"is_disabled":false,"rental_uris":{"android":"levelo://app?vid=233b0475-c828-483b-8f08-1cf18d79cd9e","ios":"levelo://app?vid=233b0475-c828-483b-8f08-1cf18d79cd9e"},"vehicle_type_id":"4","last_reported":1752520199,"current_range_meters":10800,"station_id":"ce4bhbh2rcd13ifvqeqg","pricing_plan_id":"cebpf4jnsgd1na2vs0mg"},{"bike_id":"c14947c2-7b5b-4c03-b04b-d7f22fccfd67","system_id":"levelo_inurba_marseille","lat":43.21211,"lon":5.35086,"is_reserved":false,"is_disabled":false,"rental_uris":{"android":"levelo://app?vid=c14947c2-7b5b-4c03-b04b-d7f22fccfd67","ios":"levelo://app?vid=c14947c2-7b5b-4c03-b04b-d7f22fccfd67"},"vehicle_type_id":"4","last_reported":1752520199,"current_range_meters":11200,"station_id":"st_cvj6sg6p6f1abm77japg","pricing_plan_id":"cebpf4jnsgd1na2vs0mg"},{"bike_id":"35e87afa-6816-468e-ae29-868bc7da8f45","system_id":"levelo_inurba_marseille","lat":43.28937,"lon":5.36635,"is_reserved":false,"is_disabled":false,"rental_uris":{"android":"levelo://app?vid=35e87afa-6816-468e-ae29-868bc7da8f45","ios":"levelo://app?vid=35e87afa-6816-468e-ae29-868bc7da8f45"},"vehicle_type_id":"4","last_reported":1752520199,"current_range_meters":11200,"station_id":"ce4bhap2rcd13ifvqek0","pricing_plan_id":"cebpf4jnsgd1na2vs0mg"},{"bike_id":"f183ea9c-7805-40be-b076-530dac1b5e8c","system_id":"levelo_inurba_marseille","lat":43.26193,"lon":5.37451,"is_reserved":false,"is_disabled":false,"rental_uris":{"android":"levelo://app?vid=f183ea9c-7805-40be-b076-530dac1b5e8c","ios":"levelo://app?vid=f183ea9c-7805-40be-b076-530dac1b5e8c"},"vehicle_type_id":"4","last_reported":1752520199,"current_range_meters":11200,"station_id":"ce4bhgp2rcd13ifvqfc0","pricing_plan_id":"cebpf4jnsgd1na2vs0mg"},{"bike_id":"59a860e9-cc23-49cc-9147-79034be56af1","system_id":"levelo_inurba_marseille","lat":43.29306,"lon":5.37434,"is_reserved":false,"is_disabled":true,"rental_uris":{"android":"levelo://app?vid=59a860e9-cc23-49cc-9147-79034be56af1","ios":"levelo://app?vid=59a860e9-cc23-49cc-9147-79034be56af1"},"vehicle_type_id":"4","last_reported":1752520199,"current_range_meters":11200,"station_id":"ce4bgi12rcd13ifvqb70","pricing_plan_id":"cebpf4jnsgd1na2vs0mg"},{"bike_id":"1fbaf219-67be-45b8-aacc-64d6722df546","system_id":"levelo_inurba_marseille","lat":43.29029,"lon":5.38649,"is_reserved":false,"is_disabled":true,"rental_uris":{"android":"levelo://app?vid=1fbaf219-67be-45b8-aacc-64d6722df546","ios":"levelo://app?vid=1fbaf219-67be-45b8-aacc-64d6722df546"},"vehicle_type_id":"4","last_reported":1752520199,"current_range_meters":11600,"station_id":"ce4bh4p2rcd13ifvqe0g","pricing_plan_id":"cebpf4jnsgd1na2vs0mg"},{"bike_id":"05f30485-dc90-4763-9dd4-c12f63ae43a2","system_id":"levelo_inurba_marseille","lat":43.30326,"lon":5.36892,"is_reserved":false,"is_disabled":true,"rental_uris":{"android":"levelo://app?vid=05f30485-dc90-4763-9dd4-c12f63ae43a2","ios":"levelo://app?vid=05f30485-dc90-4763-9dd4-c12f63ae43a2"},"vehicle_type_id":"4","last_reported":1752520199,"current_range_meters":11600,"station_id":"ce4bgqh2rcd13ifvqc5g","pricing_plan_id":"cebpf4jnsgd1na2vs0mg"},{"bike_id":"d960247e-fcb0-4551-a66f-dd83895a31f6","system_id":"levelo_inurba_marseille","lat":43.32257,"lon":5.38269,"is_reserved":false,"is_disabled":true,"rental_uris":{"android":"levelo://app?vid=d960247e-fcb0-4551-a66f-dd83895a31f6","ios":"levelo://app?vid=d960247e-fcb0-4551-a66f-dd83895a31f6"},"vehicle_type_id":"4","last_reported":1752520199,"current_range_meters":11600,"station_id":"ce4bhr12rcd13ifvqhqg","pricing_plan_id":"cebpf4jnsgd1na2vs0mg"},{"bike_id":"1f38c33e-86b3-414e-b398-f74a41d15f87","system_id":"levelo_inurba_marseille","lat":43.272072,"lon":5.391884,"is_reserved":false,"is_disabled":false,"rental_uris":{"android":"levelo://app?vid=1f38c33e-86b3-414e-b398-f74a41d15f87","ios":"levelo://app?vid=1f38c33e-86b3-414e-b398-f74a41d15f87"},"vehicle_type_id":"4","last_reported":1752520199,"current_range_meters":11600,"station_id":"ce4bhhp2rcd13ifvqfm0","pricing_plan_id":"cebpf4jnsgd1na2vs0mg"},{"bike_id":"e9b3efd3-34f3-4b3e-ba50-8aa3df771f40","system_id":"levelo_inurba_marseille","lat":43.28939,"lon":5.3664,"is_reserved":false,"is_disabled":false,"rental_uris":{"android":"levelo://app?vid=e9b3efd3-34f3-4b3e-ba50-8aa3df771f40","ios":"levelo://app?vid=e9b3efd3-34f3-4b3e-ba50-8aa3df771f40"},"vehicle_type_id":"4","last_reported":1752520199,"current_range_meters":12000,"station_id":"ce4bhap2rcd13ifvqek0","pricing_plan_id":"cebpf4jnsgd1na2vs0mg"},{"bike_id":"f5e53c89-40c3-4a9e-a4f5-8e19a9428267","system_id":"levelo_inurba_marseille","lat":43.28031,"lon":5.36951,"is_reserved":false,"is_disabled":false,"rental_uris":{"android":"levelo://app?vid=f5e53c89-40c3-4a9e-a4f5-8e19a9428267","ios":"levelo://app?vid=f5e53c89-40c3-4a9e-a4f5-8e19a9428267"},"vehicle_type_id":"4","last_reported":1752520199,"current_range_meters":12000,"station_id":"ce4bha12rcd13ifvqef0","pricing_plan_id":"cebpf4jnsgd1na2vs0mg"},{"bike_id":"e91ced2f-2041-4b38-8446-0d5d97adec95","system_id":"levelo_inurba_marseille","lat":43.25604,"lon":5.38219,"is_reserved":false,"is_disabled":true,"rental_uris":{"android":"levelo://app?vid=e91ced2f-2041-4b38-8446-0d5d97adec95","ios":"levelo://app?vid=e91ced2f-2041-4b38-8446-0d5d97adec95"},"vehicle_type_id":"4","last_reported":1752520199,"current_range_meters":12000,"station_id":"ce4bhih2rcd13ifvqfs0","pricing_plan_id":"cebpf4jnsgd1na2vs0mg"},{"bike_id":"ac0f2162-9cb5-42f7-809c-6a795f5ff666","system_id":"levelo_inurba_marseille","lat":43.29797,"lon":5.38108,"is_reserved":false,"is_disabled":false,"rental_uris":{"android":"levelo://app?vid=ac0f2162-9cb5-42f7-809c-6a795f5ff666","ios":"levelo://app?vid=ac0f2162-9cb5-42f7-809c-6a795f5ff666"},"vehicle_type_id":"4","last_reported":1752520199,"current_range_meters":11600,"station_id":"ce4bgip2rcd13ifvqbb0","pricing_plan_id":"cebpf4jnsgd1na2vs0mg"},{"bike_id":"861ee9f9-25a0-4eeb-90d9-4e92f6115b25","system_id":"levelo_inurba_marseille","lat":43.290965,"lon":5.38118,"is_reserved":false,"is_disabled":false,"rental_uris":{"android":"levelo://app?vid=861ee9f9-25a0-4eeb-90d9-4e92f6115b25","ios":"levelo://app?vid=861ee9f9-25a0-4eeb-90d9-4e92f6115b25"},"vehicle_type_id":"4","last_reported":1752520199,"current_range_meters":11600,"station_id":"ce4bh512rcd13ifvqe2g","pricing_plan_id":"cebpf4jnsgd1na2vs0mg"},{"bike_id":"29400291-7884-4009-b922-bede5b7e890f","system_id":"levelo_inurba_marseille","lat":43.27614,"lon":5.36103,"is_reserved":false,"is_disabled":false,"rental_uris":{"android":"levelo://app?vid=29400291-7884-4009-b922-bede5b7e890f","ios":"levelo://app?vid=29400291-7884-4009-b922-bede5b7e890f"},"vehicle_type_id":"4","last_reported":1752520199,"current_range_meters":12000,"station_id":"ce4bgj92rcd13ifvqbe0","pricing_plan_id":"cebpf4jnsgd1na2vs0mg"},{"bike_id":"8a01e88a-8371-4085-9838-47ae11897cd3","system_id":"levelo_inurba_marseille","lat":43.28149,"lon":5.42642,"is_reserved":false,"is_disabled":true,"rental_uris":{"android":"levelo://app?vid=8a01e88a-8371-4085-9838-47ae11897cd3","ios":"levelo://app?vid=8a01e88a-8371-4085-9838-47ae11897cd3"},"vehicle_type_id":"4","last_reported":1752520199,"current_range_meters":12000,"station_id":"ce4bhnh2rcd13ifvqgug","pricing_plan_id":"cebpf4jnsgd1na2vs0mg"},{"bike_id":"c8c4de1a-846f-4f5b-aace-9fb14bf7ad52","system_id":"levelo_inurba_marseille","lat":43.21192,"lon":5.350713,"is_reserved":false,"is_disabled":false,"rental_uris":{"android":"levelo://app?vid=c8c4de1a-846f-4f5b-aace-9fb14bf7ad52","ios":"levelo://app?vid=c8c4de1a-846f-4f5b-aace-9fb14bf7ad52"},"vehicle_type_id":"4","last_reported":1752520199,"current_range_meters":12000,"station_id":"st_cvj6sg6p6f1abm77japg","pricing_plan_id":"cebpf4jnsgd1na2vs0mg"},{"bike_id":"088e6b1d-8a81-47e0-9ad0-36233ed399c0","system_id":"levelo_inurba_marseille","lat":43.27929,"lon":5.39561,"is_reserved":false,"is_disabled":true,"rental_uris":{"android":"levelo://app?vid=088e6b1d-8a81-47e0-9ad0-36233ed399c0","ios":"levelo://app?vid=088e6b1d-8a81-47e0-9ad0-36233ed399c0"},"vehicle_type_id":"4","last_reported":1752520199,"current_range_meters":12000,"station_id":"ce4bhf92rcd13ifvqf40","pricing_plan_id":"cebpf4jnsgd1na2vs0mg"},{"bike_id":"ffa5ccb4-905c-4e50-802b-1c1f9b2cbe03","system_id":"levelo_inurba_marseille","lat":43.21214,"lon":5.35087,"is_reserved":false,"is_disabled":false,"rental_uris":{"android":"levelo://app?vid=ffa5ccb4-905c-4e50-802b-1c1f9b2cbe03","ios":"levelo://app?vid=ffa5ccb4-905c-4e50-802b-1c1f9b2cbe03"},"vehicle_type_id":"4","last_reported":1752520199,"current_range_meters":12400,"station_id":"","pricing_plan_id":"cebpf4jnsgd1na2vs0mg"},{"bike_id":"3d599fff-7480-4e5b-bf0c-187d3164ac05","system_id":"levelo_inurba_marseille","lat":43.295221,"lon":5.390343,"is_reserved":false,"is_disabled":false,"rental_uris":{"android":"levelo://app?vid=3d599fff-7480-4e5b-bf0c-187d3164ac05","ios":"levelo://app?vid=3d599fff-7480-4e5b-bf0c-187d3164ac05"},"vehicle_type_id":"4","last_reported":1752520199,"current_range_meters":12400,"station_id":"ce4bh3p2rcd13ifvqdp0","pricing_plan_id":"cebpf4jnsgd1na2vs0mg"},{"bike_id":"9b1afee0-5d71-42b1-bfb3-0f11fa1e097d","system_id":"levelo_inurba_marseille","lat":43.292534,"lon":5.376396,"is_reserved":false,"is_disabled":false,"rental_uris":{"android":"levelo://app?vid=9b1afee0-5d71-42b1-bfb3-0f11fa1e097d","ios":"levelo://app?vid=9b1afee0-5d71-42b1-bfb3-0f11fa1e097d"},"vehicle_type_id":"4","last_reported":1752520199,"current_range_meters":12400,"station_id":"","pricing_plan_id":"cebpf4jnsgd1na2vs0mg"},{"bike_id":"e621ebbb-dc33-4e76-8e92-d3fd339da2a3","system_id":"levelo_inurba_marseille","lat":43.2738,"lon":5.36252,"is_reserved":false,"is_disabled":false,"rental_uris":{"android":"levelo://app?vid=e621ebbb-dc33-4e76-8e92-d3fd339da2a3","ios":"levelo://app?vid=e621ebbb-dc33-4e76-8e92-d3fd339da2a3"},"vehicle_type_id":"4","last_reported":1752520199,"current_range_meters":12400,"station_id":"ce4bhbh2rcd13ifvqeo0","pricing_plan_id":"cebpf4jnsgd1na2vs0mg"},{"bike_id":"9477b0a5-3f8a-48ce-8d9e-72634d0855a4","system_id":"levelo_inurba_marseille","lat":43.28726,"lon":5.37935,"is_reserved":false,"is_disabled":false,"rental_uris":{"android":"levelo://app?vid=9477b0a5-3f8a-48ce-8d9e-72634d0855a4","ios":"levelo://app?vid=9477b0a5-3f8a-48ce-8d9e-72634d0855a4"},"vehicle_type_id":"4","last_reported":1752520199,"current_range_meters":12000,"station_id":"ce4bh9p2rcd13ifvqec0","pricing_plan_id":"cebpf4jnsgd1na2vs0mg"},{"bike_id":"a4d07f45-19f9-4df9-9728-be6623530a64","system_id":"levelo_inurba_marseille","lat":43.23699,"lon":5.38777,"is_reserved":false,"is_disabled":false,"rental_uris":{"android":"levelo://app?vid=a4d07f45-19f9-4df9-9728-be6623530a64","ios":"levelo://app?vid=a4d07f45-19f9-4df9-9728-be6623530a64"},"vehicle_type_id":"4","last_reported":1752520199,"current_range_meters":12400,"station_id":"","pricing_plan_id":"cebpf4jnsgd1na2vs0mg"},{"bike_id":"6d528302-25c6-470f-a2d4-467f380ff1ff","system_id":"levelo_inurba_marseille","lat":43.28031,"lon":5.36941,"is_reserved":false,"is_disabled":false,"rental_uris":{"android":"levelo://app?vid=6d528302-25c6-470f-a2d4-467f380ff1ff","ios":"levelo://app?vid=6d528302-25c6-470f-a2d4-467f380ff1ff"},"vehicle_type_id":"4","last_reported":1752520199,"current_range_meters":12400,"station_id":"ce4bha12rcd13ifvqef0","pricing_plan_id":"cebpf4jnsgd1na2vs0mg"},{"bike_id":"abbe273c-8ce5-4e34-8da9-10634e0c8545","system_id":"levelo_inurba_marseille","lat":43.30894,"lon":5.37192,"is_reserved":false,"is_disabled":false,"rental_uris":{"android":"levelo://app?vid=abbe273c-8ce5-4e34-8da9-10634e0c8545","ios":"levelo://app?vid=abbe273c-8ce5-4e34-8da9-10634e0c8545"},"vehicle_type_id":"4","last_reported":1752520199,"current_range_meters":12400,"station_id":"ce4bguh2rcd13ifvqckg","pricing_plan_id":"cebpf4jnsgd1na2vs0mg"},{"bike_id":"938b01d6-66e7-473c-aae3-3cdefb317ed3","system_id":"levelo_inurba_marseille","lat":43.29175,"lon":5.371502,"is_reserved":false,"is_disabled":false,"rental_uris":{"android":"levelo://app?vid=938b01d6-66e7-473c-aae3-3cdefb317ed3","ios":"levelo://app?vid=938b01d6-66e7-473c-aae3-3cdefb317ed3"},"vehicle_type_id":"4","last_reported":1752520199,"current_range_meters":12400,"station_id":"ce4bha92rcd13ifvqeh0","pricing_plan_id":"cebpf4jnsgd1na2vs0mg"},{"bike_id":"ca6a6e11-4cc4-4984-9e4d-0ccddd0eab50","system_id":"levelo_inurba_marseille","lat":43.29716,"lon":5.36602,"is_reserved":false,"is_disabled":false,"rental_uris":{"android":"levelo://app?vid=ca6a6e11-4cc4-4984-9e4d-0ccddd0eab50","ios":"levelo://app?vid=ca6a6e11-4cc4-4984-9e4d-0ccddd0eab50"},"vehicle_type_id":"4","last_reported":1752520199,"current_range_meters":12400,"station_id":"ce4bgn12rcd13ifvqbt0","pricing_plan_id":"cebpf4jnsgd1na2vs0mg"},{"bike_id":"eb6a6152-5864-4b21-9034-a9e8b4ece424","system_id":"levelo_inurba_marseille","lat":43.30602,"lon":5.37212,"is_reserved":false,"is_disabled":false,"rental_uris":{"android":"levelo://app?vid=eb6a6152-5864-4b21-9034-a9e8b4ece424","ios":"levelo://app?vid=eb6a6152-5864-4b21-9034-a9e8b4ece424"},"vehicle_type_id":"4","last_reported":1752520199,"current_range_meters":12800,"station_id":"ce4bgqh2rcd13ifvqc4g","pricing_plan_id":"cebpf4jnsgd1na2vs0mg"},{"bike_id":"4a19e4ee-cbbe-4fd8-9e6c-310afa6ee6c9","system_id":"levelo_inurba_marseille","lat":43.232,"lon":5.39952,"is_reserved":false,"is_disabled":true,"rental_uris":{"android":"levelo://app?vid=4a19e4ee-cbbe-4fd8-9e6c-310afa6ee6c9","ios":"levelo://app?vid=4a19e4ee-cbbe-4fd8-9e6c-310afa6ee6c9"},"vehicle_type_id":"4","last_reported":1752520199,"current_range_meters":12800,"station_id":"ce4bhn12rcd13ifvqgqg","pricing_plan_id":"cebpf4jnsgd1na2vs0mg"},{"bike_id":"1a9a75da-d31f-45b6-a9d7-29449db5ad4c","system_id":"levelo_inurba_marseille","lat":43.28719,"lon":5.37936,"is_reserved":false,"is_disabled":true,"rental_uris":{"android":"levelo://app?vid=1a9a75da-d31f-45b6-a9d7-29449db5ad4c","ios":"levelo://app?vid=1a9a75da-d31f-45b6-a9d7-29449db5ad4c"},"vehicle_type_id":"4","last_reported":1752520199,"current_range_meters":12800,"station_id":"ce4bh9p2rcd13ifvqec0","pricing_plan_id":"cebpf4jnsgd1na2vs0mg"},{"bike_id":"f5a47db5-6fb2-46bd-a2de-efa4ad13bf60","system_id":"levelo_inurba_marseille","lat":43.21189,"lon":5.35072,"is_reserved":false,"is_disabled":false,"rental_uris":{"android":"levelo://app?vid=f5a47db5-6fb2-46bd-a2de-efa4ad13bf60","ios":"levelo://app?vid=f5a47db5-6fb2-46bd-a2de-efa4ad13bf60"},"vehicle_type_id":"4","last_reported":1752520199,"current_range_meters":12800,"station_id":"st_cvj6sg6p6f1abm77japg","pricing_plan_id":"cebpf4jnsgd1na2vs0mg"},{"bike_id":"0294512d-ffc8-4ee7-b45a-31ba0450f7d4","system_id":"levelo_inurba_marseille","lat":43.29676,"lon":5.37279,"is_reserved":false,"is_disabled":false,"rental_uris":{"android":"levelo://app?vid=0294512d-ffc8-4ee7-b45a-31ba0450f7d4","ios":"levelo://app?vid=0294512d-ffc8-4ee7-b45a-31ba0450f7d4"},"vehicle_type_id":"4","last_reported":1752520199,"current_range_meters":12400,"station_id":"ce4bgk12rcd13ifvqbj0","pricing_plan_id":"cebpf4jnsgd1na2vs0mg"},{"bike_id":"c7093130-c83f-445b-8157-2f7ad1a1f7eb","system_id":"levelo_inurba_marseille","lat":43.28938,"lon":5.36632,"is_reserved":false,"is_disabled":false,"rental_uris":{"android":"levelo://app?vid=c7093130-c83f-445b-8157-2f7ad1a1f7eb","ios":"levelo://app?vid=c7093130-c83f-445b-8157-2f7ad1a1f7eb"},"vehicle_type_id":"4","last_reported":1752520199,"current_range_meters":12800,"station_id":"ce4bhap2rcd13ifvqek0","pricing_plan_id":"cebpf4jnsgd1na2vs0mg"},{"bike_id":"5f2eb0d0-bf7b-4daf-bca6-ead9755d559f","system_id":"levelo_inurba_marseille","lat":43.28411,"lon":5.37509,"is_reserved":false,"is_disabled":false,"rental_uris":{"android":"levelo://app?vid=5f2eb0d0-bf7b-4daf-bca6-ead9755d559f","ios":"levelo://app?vid=5f2eb0d0-bf7b-4daf-bca6-ead9755d559f"},"vehicle_type_id":"4","last_reported":1752520199,"current_range_meters":12800,"station_id":"ce4bh412rcd13ifvqds0","pricing_plan_id":"cebpf4jnsgd1na2vs0mg"},{"bike_id":"ed892106-7211-488a-b10f-d9b7c9badcdb","system_id":"levelo_inurba_marseille","lat":43.277,"lon":5.35667,"is_reserved":false,"is_disabled":false,"rental_uris":{"android":"levelo://app?vid=ed892106-7211-488a-b10f-d9b7c9badcdb","ios":"levelo://app?vid=ed892106-7211-488a-b10f-d9b7c9badcdb"},"vehicle_type_id":"4","last_reported":1752520199,"current_range_meters":12800,"station_id":"","pricing_plan_id":"cebpf4jnsgd1na2vs0mg"},{"bike_id":"1aedaa42-1f03-48cc-8e38-d983e72f730b","system_id":"levelo_inurba_marseille","lat":43.270668,"lon":5.422602,"is_reserved":false,"is_disabled":false,"rental_uris":{"android":"levelo://app?vid=1aedaa42-1f03-48cc-8e38-d983e72f730b","ios":"levelo://app?vid=1aedaa42-1f03-48cc-8e38-d983e72f730b"},"vehicle_type_id":"4","last_reported":1752520199,"current_range_meters":12800,"station_id":"ce4bhk92rcd13ifvqgb0","pricing_plan_id":"cebpf4jnsgd1na2vs0mg"},{"bike_id":"697d5fc4-b988-4a4e-8323-c1ce5ed61a61","system_id":"levelo_inurba_marseille","lat":43.21191,"lon":5.35068,"is_reserved":false,"is_disabled":false,"rental_uris":{"android":"levelo://app?vid=697d5fc4-b988-4a4e-8323-c1ce5ed61a61","ios":"levelo://app?vid=697d5fc4-b988-4a4e-8323-c1ce5ed61a61"},"vehicle_type_id":"4","last_reported":1752520199,"current_range_meters":13600,"station_id":"st_cvj6sg6p6f1abm77japg","pricing_plan_id":"cebpf4jnsgd1na2vs0mg"},{"bike_id":"e1442ff3-c767-4bb3-901d-e5f60873ad13","system_id":"levelo_inurba_marseille","lat":43.23187,"lon":5.39986,"is_reserved":false,"is_disabled":false,"rental_uris":{"android":"levelo://app?vid=e1442ff3-c767-4bb3-901d-e5f60873ad13","ios":"levelo://app?vid=e1442ff3-c767-4bb3-901d-e5f60873ad13"},"vehicle_type_id":"4","last_reported":1752520199,"current_range_meters":13600,"station_id":"ce4bhn12rcd13ifvqgqg","pricing_plan_id":"cebpf4jnsgd1na2vs0mg"},{"bike_id":"49f088e3-e7ca-435f-ad8e-4ff494f19f3f","system_id":"levelo_inurba_marseille","lat":43.2293,"lon":5.353748,"is_reserved":false,"is_disabled":false,"rental_uris":{"android":"levelo://app?vid=49f088e3-e7ca-435f-ad8e-4ff494f19f3f","ios":"levelo://app?vid=49f088e3-e7ca-435f-ad8e-4ff494f19f3f"},"vehicle_type_id":"4","last_reported":1752520199,"current_range_meters":13600,"station_id":"","pricing_plan_id":"cebpf4jnsgd1na2vs0mg"},{"bike_id":"6dc25fa6-86e1-49d7-b473-0642649e61eb","system_id":"levelo_inurba_marseille","lat":43.28943,"lon":5.36632,"is_reserved":false,"is_disabled":false,"rental_uris":{"android":"levelo://app?vid=6dc25fa6-86e1-49d7-b473-0642649e61eb","ios":"levelo://app?vid=6dc25fa6-86e1-49d7-b473-0642649e61eb"},"vehicle_type_id":"4","last_reported":1752520199,"current_range_meters":13600,"station_id":"ce4bhap2rcd13ifvqek0","pricing_plan_id":"cebpf4jnsgd1na2vs0mg"},{"bike_id":"08dbf31c-b540-4ca6-b57d-3481ea73d97b","system_id":"levelo_inurba_marseille","lat":43.22505,"lon":5.34774,"is_reserved":false,"is_disabled":false,"rental_uris":{"android":"levelo://app?vid=08dbf31c-b540-4ca6-b57d-3481ea73d97b","ios":"levelo://app?vid=08dbf31c-b540-4ca6-b57d-3481ea73d97b"},"vehicle_type_id":"4","last_reported":1752520199,"current_range_meters":13600,"station_id":"st_cvj5dfep6f1abm77gieg","pricing_plan_id":"cebpf4jnsgd1na2vs0mg"},{"bike_id":"31c64fb2-58d1-429b-913c-5825ad0482c9","system_id":"levelo_inurba_marseille","lat":43.25576,"lon":5.38236,"is_reserved":false,"is_disabled":false,"rental_uris":{"android":"levelo://app?vid=31c64fb2-58d1-429b-913c-5825ad0482c9","ios":"levelo://app?vid=31c64fb2-58d1-429b-913c-5825ad0482c9"},"vehicle_type_id":"4","last_reported":1752520199,"current_range_meters":13600,"station_id":"ce4bhih2rcd13ifvqfs0","pricing_plan_id":"cebpf4jnsgd1na2vs0mg"},{"bike_id":"b8cd0d8f-49ce-4a9f-a4c1-863efb2e7fb2","system_id":"levelo_inurba_marseille","lat":43.29726,"lon":5.36601,"is_reserved":false,"is_disabled":false,"rental_uris":{"android":"levelo://app?vid=b8cd0d8f-49ce-4a9f-a4c1-863efb2e7fb2","ios":"levelo://app?vid=b8cd0d8f-49ce-4a9f-a4c1-863efb2e7fb2"},"vehicle_type_id":"4","last_reported":1752520199,"current_range_meters":14000,"station_id":"ce4bgn12rcd13ifvqbt0","pricing_plan_id":"cebpf4jnsgd1na2vs0mg"},{"bike_id":"6ac174d4-75c5-4a9c-9699-97cd631c6e65","system_id":"levelo_inurba_marseille","lat":43.25479,"lon":5.39911,"is_reserved":false,"is_disabled":false,"rental_uris":{"android":"levelo://app?vid=6ac174d4-75c5-4a9c-9699-97cd631c6e65","ios":"levelo://app?vid=6ac174d4-75c5-4a9c-9699-97cd631c6e65"},"vehicle_type_id":"4","last_reported":1752520199,"current_range_meters":14000,"station_id":"","pricing_plan_id":"cebpf4jnsgd1na2vs0mg"},{"bike_id":"8123a459-9049-4fea-8920-1b991ea91f3f","system_id":"levelo_inurba_marseille","lat":43.29614,"lon":5.37724,"is_reserved":false,"is_disabled":false,"rental_uris":{"android":"levelo://app?vid=8123a459-9049-4fea-8920-1b991ea91f3f","ios":"levelo://app?vid=8123a459-9049-4fea-8920-1b991ea91f3f"},"vehicle_type_id":"4","last_reported":1752520199,"current_range_meters":14000,"station_id":"ce4bgi92rcd13ifvqb90","pricing_plan_id":"cebpf4jnsgd1na2vs0mg"},{"bike_id":"a6026e9e-4bdf-4764-90f4-a6c5a5781e9e","system_id":"levelo_inurba_marseille","lat":43.29937,"lon":5.36553,"is_reserved":false,"is_disabled":false,"rental_uris":{"android":"levelo://app?vid=a6026e9e-4bdf-4764-90f4-a6c5a5781e9e","ios":"levelo://app?vid=a6026e9e-4bdf-4764-90f4-a6c5a5781e9e"},"vehicle_type_id":"4","last_reported":1752520199,"current_range_meters":14000,"station_id":"ce4bgm92rcd13ifvqbr0","pricing_plan_id":"cebpf4jnsgd1na2vs0mg"},{"bike_id":"313e876f-e7a7-4666-8de3-100e0cdc4134","system_id":"levelo_inurba_marseille","lat":43.29226,"lon":5.36067,"is_reserved":false,"is_disabled":false,"rental_uris":{"android":"levelo://app?vid=313e876f-e7a7-4666-8de3-100e0cdc4134","ios":"levelo://app?vid=313e876f-e7a7-4666-8de3-100e0cdc4134"},"vehicle_type_id":"4","last_reported":1752520199,"current_range_meters":14000,"station_id":"ce4bhbh2rcd13ifvqeqg","pricing_plan_id":"cebpf4jnsgd1na2vs0mg"},{"bike_id":"ed74f810-226b-4edb-a7d8-2c9a86d071a4","system_id":"levelo_inurba_marseille","lat":43.21216,"lon":5.35036,"is_reserved":false,"is_disabled":false,"rental_uris":{"android":"levelo://app?vid=ed74f810-226b-4edb-a7d8-2c9a86d071a4","ios":"levelo://app?vid=ed74f810-226b-4edb-a7d8-2c9a86d071a4"},"vehicle_type_id":"4","last_reported":1752520199,"current_range_meters":14000,"station_id":"","pricing_plan_id":"cebpf4jnsgd1na2vs0mg"},{"bike_id":"cdeb9f08-1b5a-4604-8b62-a8f5d7bae888","system_id":"levelo_inurba_marseille","lat":43.28942,"lon":5.36621,"is_reserved":false,"is_disabled":false,"rental_uris":{"android":"levelo://app?vid=cdeb9f08-1b5a-4604-8b62-a8f5d7bae888","ios":"levelo://app?vid=cdeb9f08-1b5a-4604-8b62-a8f5d7bae888"},"vehicle_type_id":"4","last_reported":1752520199,"current_range_meters":14000,"station_id":"ce4bhap2rcd13ifvqek0","pricing_plan_id":"cebpf4jnsgd1na2vs0mg"},{"bike_id":"9bb8be77-713d-4eb6-9381-f5ff9ebe964a","system_id":"levelo_inurba_marseille","lat":43.28428,"lon":5.37522,"is_reserved":false,"is_disabled":false,"rental_uris":{"android":"levelo://app?vid=9bb8be77-713d-4eb6-9381-f5ff9ebe964a","ios":"levelo://app?vid=9bb8be77-713d-4eb6-9381-f5ff9ebe964a"},"vehicle_type_id":"4","last_reported":1752520199,"current_range_meters":14400,"station_id":"ce4bh412rcd13ifvqds0","pricing_plan_id":"cebpf4jnsgd1na2vs0mg"},{"bike_id":"03fa0cd0-ce42-4561-808b-cc070f3cac1b","system_id":"levelo_inurba_marseille","lat":43.31757,"lon":5.39015,"is_reserved":false,"is_disabled":false,"rental_uris":{"android":"levelo://app?vid=03fa0cd0-ce42-4561-808b-cc070f3cac1b","ios":"levelo://app?vid=03fa0cd0-ce42-4561-808b-cc070f3cac1b"},"vehicle_type_id":"4","last_reported":1752520199,"current_range_meters":14400,"station_id":"ce4bhqp2rcd13ifvqhng","pricing_plan_id":"cebpf4jnsgd1na2vs0mg"},{"bike_id":"6d6d9622-ba44-4b29-a93e-79a8f7730ec2","system_id":"levelo_inurba_marseille","lat":43.29302,"lon":5.37457,"is_reserved":false,"is_disabled":false,"rental_uris":{"android":"levelo://app?vid=6d6d9622-ba44-4b29-a93e-79a8f7730ec2","ios":"levelo://app?vid=6d6d9622-ba44-4b29-a93e-79a8f7730ec2"},"vehicle_type_id":"4","last_reported":1752520199,"current_range_meters":14400,"station_id":"ce4bgi12rcd13ifvqb70","pricing_plan_id":"cebpf4jnsgd1na2vs0mg"},{"bike_id":"01ed777f-af72-4c0d-8252-e1b087832101","system_id":"levelo_inurba_marseille","lat":43.28612,"lon":5.37063,"is_reserved":false,"is_disabled":false,"rental_uris":{"android":"levelo://app?vid=01ed777f-af72-4c0d-8252-e1b087832101","ios":"levelo://app?vid=01ed777f-af72-4c0d-8252-e1b087832101"},"vehicle_type_id":"4","last_reported":1752520199,"current_range_meters":14800,"station_id":"ce4bht12rcd13ifvqi60","pricing_plan_id":"cebpf4jnsgd1na2vs0mg"},{"bike_id":"a3ec3b7b-cbe5-4b4c-b4a1-6535b4bb722e","system_id":"levelo_inurba_marseille","lat":43.28595,"lon":5.37048,"is_reserved":false,"is_disabled":false,"rental_uris":{"android":"levelo://app?vid=a3ec3b7b-cbe5-4b4c-b4a1-6535b4bb722e","ios":"levelo://app?vid=a3ec3b7b-cbe5-4b4c-b4a1-6535b4bb722e"},"vehicle_type_id":"4","last_reported":1752520199,"current_range_meters":14400,"station_id":"ce4bht12rcd13ifvqi60","pricing_plan_id":"cebpf4jnsgd1na2vs0mg"},{"bike_id":"815ec612-f961-4ad9-a641-531070bd03ab","system_id":"levelo_inurba_marseille","lat":43.24802,"lon":5.37454,"is_reserved":false,"is_disabled":false,"rental_uris":{"android":"levelo://app?vid=815ec612-f961-4ad9-a641-531070bd03ab","ios":"levelo://app?vid=815ec612-f961-4ad9-a641-531070bd03ab"},"vehicle_type_id":"4","last_reported":1752520199,"current_range_meters":14800,"station_id":"ce4bhgh2rcd13ifvqfb0","pricing_plan_id":"cebpf4jnsgd1na2vs0mg"},{"bike_id":"f9a8beb4-2629-4a21-b5a8-85a7348028cb","system_id":"levelo_inurba_marseille","lat":43.2481,"lon":5.37461,"is_reserved":false,"is_disabled":false,"rental_uris":{"android":"levelo://app?vid=f9a8beb4-2629-4a21-b5a8-85a7348028cb","ios":"levelo://app?vid=f9a8beb4-2629-4a21-b5a8-85a7348028cb"},"vehicle_type_id":"4","last_reported":1752520199,"current_range_meters":14800,"station_id":"ce4bhgh2rcd13ifvqfb0","pricing_plan_id":"cebpf4jnsgd1na2vs0mg"},{"bike_id":"2c5a0a8d-b80f-43a1-91ae-93c8cb7cac46","system_id":"levelo_inurba_marseille","lat":43.290249,"lon":5.381227,"is_reserved":false,"is_disabled":false,"rental_uris":{"android":"levelo://app?vid=2c5a0a8d-b80f-43a1-91ae-93c8cb7cac46","ios":"levelo://app?vid=2c5a0a8d-b80f-43a1-91ae-93c8cb7cac46"},"vehicle_type_id":"4","last_reported":1752520199,"current_range_meters":14800,"station_id":"","pricing_plan_id":"cebpf4jnsgd1na2vs0mg"},{"bike_id":"937b6efd-4e36-48ca-bec8-44a0b1646d41","system_id":"levelo_inurba_marseille","lat":43.2558,"lon":5.38227,"is_reserved":false,"is_disabled":false,"rental_uris":{"android":"levelo://app?vid=937b6efd-4e36-48ca-bec8-44a0b1646d41","ios":"levelo://app?vid=937b6efd-4e36-48ca-bec8-44a0b1646d41"},"vehicle_type_id":"4","last_reported":1752520199,"current_range_meters":14800,"station_id":"ce4bhih2rcd13ifvqfs0","pricing_plan_id":"cebpf4jnsgd1na2vs0mg"},{"bike_id":"62c2a42f-6d72-42cd-9bd7-760a20f37939","system_id":"levelo_inurba_marseille","lat":43.29314,"lon":5.37165,"is_reserved":false,"is_disabled":false,"rental_uris":{"android":"levelo://app?vid=62c2a42f-6d72-42cd-9bd7-760a20f37939","ios":"levelo://app?vid=62c2a42f-6d72-42cd-9bd7-760a20f37939"},"vehicle_type_id":"4","last_reported":1752520199,"current_range_meters":14800,"station_id":"ce4bgh92rcd13ifvqb40","pricing_plan_id":"cebpf4jnsgd1na2vs0mg"},{"bike_id":"4afc4454-136a-4e63-8e32-645a3459b4e6","system_id":"levelo_inurba_marseille","lat":43.28944,"lon":5.36639,"is_reserved":false,"is_disabled":false,"rental_uris":{"android":"levelo://app?vid=4afc4454-136a-4e63-8e32-645a3459b4e6","ios":"levelo://app?vid=4afc4454-136a-4e63-8e32-645a3459b4e6"},"vehicle_type_id":"4","last_reported":1752520199,"current_range_meters":15200,"station_id":"","pricing_plan_id":"cebpf4jnsgd1na2vs0mg"},{"bike_id":"90290937-0cce-424e-a291-434004ba99d7","system_id":"levelo_inurba_marseille","lat":43.28401,"lon":5.37518,"is_reserved":false,"is_disabled":false,"rental_uris":{"android":"levelo://app?vid=90290937-0cce-424e-a291-434004ba99d7","ios":"levelo://app?vid=90290937-0cce-424e-a291-434004ba99d7"},"vehicle_type_id":"4","last_reported":1752520199,"current_range_meters":15200,"station_id":"ce4bh412rcd13ifvqds0","pricing_plan_id":"cebpf4jnsgd1na2vs0mg"},{"bike_id":"c4394d8c-8102-4300-bdb5-758262918af2","system_id":"levelo_inurba_marseille","lat":43.3093,"lon":5.40137,"is_reserved":false,"is_disabled":true,"rental_uris":{"android":"levelo://app?vid=c4394d8c-8102-4300-bdb5-758262918af2","ios":"levelo://app?vid=c4394d8c-8102-4300-bdb5-758262918af2"},"vehicle_type_id":"4","last_reported":1752520199,"current_range_meters":15200,"station_id":"ce4bgvp2rcd13ifvqct0","pricing_plan_id":"cebpf4jnsgd1na2vs0mg"},{"bike_id":"bbc1f65a-3036-4b1c-ba15-bda0d1ab43dd","system_id":"levelo_inurba_marseille","lat":43.286099,"lon":5.370611,"is_reserved":false,"is_disabled":false,"rental_uris":{"android":"levelo://app?vid=bbc1f65a-3036-4b1c-ba15-bda0d1ab43dd","ios":"levelo://app?vid=bbc1f65a-3036-4b1c-ba15-bda0d1ab43dd"},"vehicle_type_id":"4","last_reported":1752520199,"current_range_meters":15200,"station_id":"","pricing_plan_id":"cebpf4jnsgd1na2vs0mg"},{"bike_id":"18977eb5-4596-4be8-a6de-d29c04e6f3d1","system_id":"levelo_inurba_marseille","lat":43.28403,"lon":5.37522,"is_reserved":false,"is_disabled":false,"rental_uris":{"android":"levelo://app?vid=18977eb5-4596-4be8-a6de-d29c04e6f3d1","ios":"levelo://app?vid=18977eb5-4596-4be8-a6de-d29c04e6f3d1"},"vehicle_type_id":"4","last_reported":1752520199,"current_range_meters":15200,"station_id":"ce4bh412rcd13ifvqds0","pricing_plan_id":"cebpf4jnsgd1na2vs0mg"},{"bike_id":"edb1306a-3e7f-4b1f-a66f-3b31cf28f000","system_id":"levelo_inurba_marseille","lat":43.27378,"lon":5.36235,"is_reserved":false,"is_disabled":false,"rental_uris":{"android":"levelo://app?vid=edb1306a-3e7f-4b1f-a66f-3b31cf28f000","ios":"levelo://app?vid=edb1306a-3e7f-4b1f-a66f-3b31cf28f000"},"vehicle_type_id":"4","last_reported":1752520199,"current_range_meters":15200,"station_id":"ce4bhbh2rcd13ifvqeo0","pricing_plan_id":"cebpf4jnsgd1na2vs0mg"},{"bike_id":"d737a850-3f4c-4da8-8407-a86938d4122e","system_id":"levelo_inurba_marseille","lat":43.30603,"lon":5.37244,"is_reserved":false,"is_disabled":false,"rental_uris":{"android":"levelo://app?vid=d737a850-3f4c-4da8-8407-a86938d4122e","ios":"levelo://app?vid=d737a850-3f4c-4da8-8407-a86938d4122e"},"vehicle_type_id":"4","last_reported":1752520199,"current_range_meters":15200,"station_id":"ce4bgqh2rcd13ifvqc4g","pricing_plan_id":"cebpf4jnsgd1na2vs0mg"},{"bike_id":"c7487efc-15d7-44b6-a943-c5a2c2e766bb","system_id":"levelo_inurba_marseille","lat":43.330223,"lon":5.39032,"is_reserved":false,"is_disabled":false,"rental_uris":{"android":"levelo://app?vid=c7487efc-15d7-44b6-a943-c5a2c2e766bb","ios":"levelo://app?vid=c7487efc-15d7-44b6-a943-c5a2c2e766bb"},"vehicle_type_id":"4","last_reported":1752520199,"current_range_meters":16000,"station_id":"ce4bhr92rcd13ifvqhrg","pricing_plan_id":"cebpf4jnsgd1na2vs0mg"},{"bike_id":"7055c8e3-9af0-41b1-b039-ed70d9850584","system_id":"levelo_inurba_marseille","lat":43.27905,"lon":5.41219,"is_reserved":false,"is_disabled":false,"rental_uris":{"android":"levelo://app?vid=7055c8e3-9af0-41b1-b039-ed70d9850584","ios":"levelo://app?vid=7055c8e3-9af0-41b1-b039-ed70d9850584"},"vehicle_type_id":"4","last_reported":1752520199,"current_range_meters":16000,"station_id":"","pricing_plan_id":"cebpf4jnsgd1na2vs0mg"},{"bike_id":"fc63a067-9cf2-4c58-bfdd-3270ab1898f2","system_id":"levelo_inurba_marseille","lat":43.22932,"lon":5.35375,"is_reserved":false,"is_disabled":false,"rental_uris":{"android":"levelo://app?vid=fc63a067-9cf2-4c58-bfdd-3270ab1898f2","ios":"levelo://app?vid=fc63a067-9cf2-4c58-bfdd-3270ab1898f2"},"vehicle_type_id":"4","last_reported":1752520199,"current_range_meters":16000,"station_id":"cpo3532slgdg3j2ikp40","pricing_plan_id":"cebpf4jnsgd1na2vs0mg"},{"bike_id":"f11ce3c5-8d14-420a-b6d7-c32e3a73dff3","system_id":"levelo_inurba_marseille","lat":43.3089,"lon":5.39659,"is_reserved":false,"is_disabled":false,"rental_uris":{"android":"levelo://app?vid=f11ce3c5-8d14-420a-b6d7-c32e3a73dff3","ios":"levelo://app?vid=f11ce3c5-8d14-420a-b6d7-c32e3a73dff3"},"vehicle_type_id":"4","last_reported":1752520199,"current_range_meters":15200,"station_id":"ce4bh012rcd13ifvqcv0","pricing_plan_id":"cebpf4jnsgd1na2vs0mg"},{"bike_id":"faea02d1-c32b-48c2-bd11-a25d9db0a7e4","system_id":"levelo_inurba_marseille","lat":43.29187,"lon":5.35793,"is_reserved":false,"is_disabled":true,"rental_uris":{"android":"levelo://app?vid=faea02d1-c32b-48c2-bd11-a25d9db0a7e4","ios":"levelo://app?vid=faea02d1-c32b-48c2-bd11-a25d9db0a7e4"},"vehicle_type_id":"4","last_reported":1752520199,"current_range_meters":16000,"station_id":"ce4bhb12rcd13ifvqel0","pricing_plan_id":"cebpf4jnsgd1na2vs0mg"},{"bike_id":"44e10618-e1b8-4569-bc24-980853c4bf04","system_id":"levelo_inurba_marseille","lat":43.22938,"lon":5.35369,"is_reserved":false,"is_disabled":true,"rental_uris":{"android":"levelo://app?vid=44e10618-e1b8-4569-bc24-980853c4bf04","ios":"levelo://app?vid=44e10618-e1b8-4569-bc24-980853c4bf04"},"vehicle_type_id":"4","last_reported":1752520199,"current_range_meters":16000,"station_id":"cpo3532slgdg3j2ikp40","pricing_plan_id":"cebpf4jnsgd1na2vs0mg"},{"bike_id":"b5e996ed-4145-4f8b-8547-5dd47c4e3bb7","system_id":"levelo_inurba_marseille","lat":43.29448,"lon":5.38637,"is_reserved":false,"is_disabled":false,"rental_uris":{"android":"levelo://app?vid=b5e996ed-4145-4f8b-8547-5dd47c4e3bb7","ios":"levelo://app?vid=b5e996ed-4145-4f8b-8547-5dd47c4e3bb7"},"vehicle_type_id":"4","last_reported":1752520199,"current_range_meters":16000,"station_id":"ce4bh2h2rcd13ifvqdh0","pricing_plan_id":"cebpf4jnsgd1na2vs0mg"},{"bike_id":"d0f90c24-dd03-411b-9731-55305f76b7c8","system_id":"levelo_inurba_marseille","lat":43.21193,"lon":5.35068,"is_reserved":false,"is_disabled":false,"rental_uris":{"android":"levelo://app?vid=d0f90c24-dd03-411b-9731-55305f76b7c8","ios":"levelo://app?vid=d0f90c24-dd03-411b-9731-55305f76b7c8"},"vehicle_type_id":"4","last_reported":1752520199,"current_range_meters":16000,"station_id":"st_cvj6sg6p6f1abm77japg","pricing_plan_id":"cebpf4jnsgd1na2vs0mg"},{"bike_id":"ee32201f-7ea0-4e35-a0c9-ada763541c2a","system_id":"levelo_inurba_marseille","lat":43.29784,"lon":5.37103,"is_reserved":false,"is_disabled":false,"rental_uris":{"android":"levelo://app?vid=ee32201f-7ea0-4e35-a0c9-ada763541c2a","ios":"levelo://app?vid=ee32201f-7ea0-4e35-a0c9-ada763541c2a"},"vehicle_type_id":"4","last_reported":1752520199,"current_range_meters":15200,"station_id":"ce4bgop2rcd13ifvqc1g","pricing_plan_id":"cebpf4jnsgd1na2vs0mg"},{"bike_id":"23bd6792-7a07-47c2-925b-fc5bf8eb0083","system_id":"levelo_inurba_marseille","lat":43.24812,"lon":5.37437,"is_reserved":false,"is_disabled":false,"rental_uris":{"android":"levelo://app?vid=23bd6792-7a07-47c2-925b-fc5bf8eb0083","ios":"levelo://app?vid=23bd6792-7a07-47c2-925b-fc5bf8eb0083"},"vehicle_type_id":"4","last_reported":1752520199,"current_range_meters":16000,"station_id":"ce4bhgh2rcd13ifvqfb0","pricing_plan_id":"cebpf4jnsgd1na2vs0mg"},{"bike_id":"87e63e75-2b3d-4c53-99cc-e71a6a63d1ba","system_id":"levelo_inurba_marseille","lat":43.28614,"lon":5.37062,"is_reserved":false,"is_disabled":false,"rental_uris":{"android":"levelo://app?vid=87e63e75-2b3d-4c53-99cc-e71a6a63d1ba","ios":"levelo://app?vid=87e63e75-2b3d-4c53-99cc-e71a6a63d1ba"},"vehicle_type_id":"4","last_reported":1752520199,"current_range_meters":16000,"station_id":"ce4bht12rcd13ifvqi60","pricing_plan_id":"cebpf4jnsgd1na2vs0mg"},{"bike_id":"ac4aa39f-1fff-4e40-8065-cc1749b612ec","system_id":"levelo_inurba_marseille","lat":43.28603,"lon":5.37056,"is_reserved":false,"is_disabled":false,"rental_uris":{"android":"levelo://app?vid=ac4aa39f-1fff-4e40-8065-cc1749b612ec","ios":"levelo://app?vid=ac4aa39f-1fff-4e40-8065-cc1749b612ec"},"vehicle_type_id":"4","last_reported":1752520199,"current_range_meters":16000,"station_id":"ce4bht12rcd13ifvqi60","pricing_plan_id":"cebpf4jnsgd1na2vs0mg"},{"bike_id":"70dcc206-4dc0-4cb0-8050-3c672a0219c0","system_id":"levelo_inurba_marseille","lat":43.30372,"lon":5.42485,"is_reserved":false,"is_disabled":false,"rental_uris":{"android":"levelo://app?vid=70dcc206-4dc0-4cb0-8050-3c672a0219c0","ios":"levelo://app?vid=70dcc206-4dc0-4cb0-8050-3c672a0219c0"},"vehicle_type_id":"4","last_reported":1752520199,"current_range_meters":16000,"station_id":"ce4bhoh2rcd13ifvqh6g","pricing_plan_id":"cebpf4jnsgd1na2vs0mg"},{"bike_id":"96404d04-512d-4e45-b57c-350a79134d38","system_id":"levelo_inurba_marseille","lat":43.21189,"lon":5.35073,"is_reserved":false,"is_disabled":false,"rental_uris":{"android":"levelo://app?vid=96404d04-512d-4e45-b57c-350a79134d38","ios":"levelo://app?vid=96404d04-512d-4e45-b57c-350a79134d38"},"vehicle_type_id":"4","last_reported":1752520199,"current_range_meters":16000,"station_id":"st_cvj6sg6p6f1abm77japg","pricing_plan_id":"cebpf4jnsgd1na2vs0mg"},{"bike_id":"b48dc607-3943-45ff-a133-41bb5ac642c5","system_id":"levelo_inurba_marseille","lat":43.29039,"lon":5.39962,"is_reserved":false,"is_disabled":false,"rental_uris":{"android":"levelo://app?vid=b48dc607-3943-45ff-a133-41bb5ac642c5","ios":"levelo://app?vid=b48dc607-3943-45ff-a133-41bb5ac642c5"},"vehicle_type_id":"4","last_reported":1752520199,"current_range_meters":15200,"station_id":"ce4bh392rcd13ifvqdm0","pricing_plan_id":"cebpf4jnsgd1na2vs0mg"},{"bike_id":"f7470a6a-13ff-4b2c-89e3-e0ef33ac83fb","system_id":"levelo_inurba_marseille","lat":43.3014,"lon":5.39892,"is_reserved":false,"is_disabled":false,"rental_uris":{"android":"levelo://app?vid=f7470a6a-13ff-4b2c-89e3-e0ef33ac83fb","ios":"levelo://app?vid=f7470a6a-13ff-4b2c-89e3-e0ef33ac83fb"},"vehicle_type_id":"4","last_reported":1752520199,"current_range_meters":16000,"station_id":"ce4bh0h2rcd13ifvqd40","pricing_plan_id":"cebpf4jnsgd1na2vs0mg"},{"bike_id":"9bc1f4d5-a955-42b1-a6e4-741fc138dc97","system_id":"levelo_inurba_marseille","lat":43.28936,"lon":5.36625,"is_reserved":false,"is_disabled":false,"rental_uris":{"android":"levelo://app?vid=9bc1f4d5-a955-42b1-a6e4-741fc138dc97","ios":"levelo://app?vid=9bc1f4d5-a955-42b1-a6e4-741fc138dc97"},"vehicle_type_id":"4","last_reported":1752520199,"current_range_meters":16400,"station_id":"ce4bhap2rcd13ifvqek0","pricing_plan_id":"cebpf4jnsgd1na2vs0mg"},{"bike_id":"c1ff91de-3752-4dd8-9e9e-5140a229c864","system_id":"levelo_inurba_marseille","lat":43.28611,"lon":5.37054,"is_reserved":false,"is_disabled":false,"rental_uris":{"android":"levelo://app?vid=c1ff91de-3752-4dd8-9e9e-5140a229c864","ios":"levelo://app?vid=c1ff91de-3752-4dd8-9e9e-5140a229c864"},"vehicle_type_id":"4","last_reported":1752520199,"current_range_meters":16400,"station_id":"ce4bht12rcd13ifvqi60","pricing_plan_id":"cebpf4jnsgd1na2vs0mg"},{"bike_id":"1f0cce64-f093-4cee-8a81-cdf4f731fc39","system_id":"levelo_inurba_marseille","lat":43.28601,"lon":5.37063,"is_reserved":false,"is_disabled":false,"rental_uris":{"android":"levelo://app?vid=1f0cce64-f093-4cee-8a81-cdf4f731fc39","ios":"levelo://app?vid=1f0cce64-f093-4cee-8a81-cdf4f731fc39"},"vehicle_type_id":"4","last_reported":1752520199,"current_range_meters":16400,"station_id":"ce4bht12rcd13ifvqi60","pricing_plan_id":"cebpf4jnsgd1na2vs0mg"},{"bike_id":"afa32848-33ab-4834-9ab4-4e400e9ae730","system_id":"levelo_inurba_marseille","lat":43.28103,"lon":5.37834,"is_reserved":false,"is_disabled":false,"rental_uris":{"android":"levelo://app?vid=afa32848-33ab-4834-9ab4-4e400e9ae730","ios":"levelo://app?vid=afa32848-33ab-4834-9ab4-4e400e9ae730"},"vehicle_type_id":"4","last_reported":1752520199,"current_range_meters":16400,"station_id":"ce4bha12rcd13ifvqee0","pricing_plan_id":"cebpf4jnsgd1na2vs0mg"},{"bike_id":"fcd528ca-1e9d-451b-bc38-af14e9b77d31","system_id":"levelo_inurba_marseille","lat":43.28941,"lon":5.36647,"is_reserved":false,"is_disabled":false,"rental_uris":{"android":"levelo://app?vid=fcd528ca-1e9d-451b-bc38-af14e9b77d31","ios":"levelo://app?vid=fcd528ca-1e9d-451b-bc38-af14e9b77d31"},"vehicle_type_id":"4","last_reported":1752520199,"current_range_meters":16400,"station_id":"ce4bhap2rcd13ifvqek0","pricing_plan_id":"cebpf4jnsgd1na2vs0mg"},{"bike_id":"ab92067a-f9e5-4421-9910-cd7217ce6155","system_id":"levelo_inurba_marseille","lat":43.29298,"lon":5.37457,"is_reserved":false,"is_disabled":false,"rental_uris":{"android":"levelo://app?vid=ab92067a-f9e5-4421-9910-cd7217ce6155","ios":"levelo://app?vid=ab92067a-f9e5-4421-9910-cd7217ce6155"},"vehicle_type_id":"4","last_reported":1752520199,"current_range_meters":16400,"station_id":"","pricing_plan_id":"cebpf4jnsgd1na2vs0mg"},{"bike_id":"cd8502b2-f311-47cc-bd97-98c30c36628c","system_id":"levelo_inurba_marseille","lat":43.29298,"lon":5.37454,"is_reserved":false,"is_disabled":false,"rental_uris":{"android":"levelo://app?vid=cd8502b2-f311-47cc-bd97-98c30c36628c","ios":"levelo://app?vid=cd8502b2-f311-47cc-bd97-98c30c36628c"},"vehicle_type_id":"4","last_reported":1752520199,"current_range_meters":16400,"station_id":"ce4bgi12rcd13ifvqb70","pricing_plan_id":"cebpf4jnsgd1na2vs0mg"},{"bike_id":"b117bb48-a2b3-40d7-a08e-b32bdeb95a1e","system_id":"levelo_inurba_marseille","lat":43.29186,"lon":5.37129,"is_reserved":false,"is_disabled":false,"rental_uris":{"android":"levelo://app?vid=b117bb48-a2b3-40d7-a08e-b32bdeb95a1e","ios":"levelo://app?vid=b117bb48-a2b3-40d7-a08e-b32bdeb95a1e"},"vehicle_type_id":"4","last_reported":1752520199,"current_range_meters":16000,"station_id":"ce4bha92rcd13ifvqeh0","pricing_plan_id":"cebpf4jnsgd1na2vs0mg"},{"bike_id":"f10941ce-d19a-4475-b0ba-1c38d332727e","system_id":"levelo_inurba_marseille","lat":43.32157,"lon":5.38716,"is_reserved":false,"is_disabled":false,"rental_uris":{"android":"levelo://app?vid=f10941ce-d19a-4475-b0ba-1c38d332727e","ios":"levelo://app?vid=f10941ce-d19a-4475-b0ba-1c38d332727e"},"vehicle_type_id":"4","last_reported":1752520199,"current_range_meters":16400,"station_id":"","pricing_plan_id":"cebpf4jnsgd1na2vs0mg"},{"bike_id":"cad1d8dc-9190-4ec4-9d93-661b53e7b17a","system_id":"levelo_inurba_marseille","lat":43.28412,"lon":5.37522,"is_reserved":false,"is_disabled":false,"rental_uris":{"android":"levelo://app?vid=cad1d8dc-9190-4ec4-9d93-661b53e7b17a","ios":"levelo://app?vid=cad1d8dc-9190-4ec4-9d93-661b53e7b17a"},"vehicle_type_id":"4","last_reported":1752520199,"current_range_meters":16400,"station_id":"ce4bh412rcd13ifvqds0","pricing_plan_id":"cebpf4jnsgd1na2vs0mg"},{"bike_id":"48a72147-d63a-4fad-9403-9184689656c8","system_id":"levelo_inurba_marseille","lat":43.24345,"lon":5.37127,"is_reserved":false,"is_disabled":true,"rental_uris":{"android":"levelo://app?vid=48a72147-d63a-4fad-9403-9184689656c8","ios":"levelo://app?vid=48a72147-d63a-4fad-9403-9184689656c8"},"vehicle_type_id":"4","last_reported":1752520199,"current_range_meters":16400,"station_id":"","pricing_plan_id":"cebpf4jnsgd1na2vs0mg"},{"bike_id":"e604067d-3800-4ac2-9860-8fea46e837e8","system_id":"levelo_inurba_marseille","lat":43.26565,"lon":5.4032,"is_reserved":false,"is_disabled":true,"rental_uris":{"android":"levelo://app?vid=e604067d-3800-4ac2-9860-8fea46e837e8","ios":"levelo://app?vid=e604067d-3800-4ac2-9860-8fea46e837e8"},"vehicle_type_id":"4","last_reported":1752520199,"current_range_meters":16400,"station_id":"","pricing_plan_id":"cebpf4jnsgd1na2vs0mg"},{"bike_id":"2fa3f083-ce52-4dd5-90a2-e4632bc10de5","system_id":"levelo_inurba_marseille","lat":43.29303,"lon":5.3746,"is_reserved":false,"is_disabled":false,"rental_uris":{"android":"levelo://app?vid=2fa3f083-ce52-4dd5-90a2-e4632bc10de5","ios":"levelo://app?vid=2fa3f083-ce52-4dd5-90a2-e4632bc10de5"},"vehicle_type_id":"4","last_reported":1752520199,"current_range_meters":16400,"station_id":"ce4bgi12rcd13ifvqb70","pricing_plan_id":"cebpf4jnsgd1na2vs0mg"},{"bike_id":"1ef4b3fa-fbda-46f4-b7e2-5773d9b802b7","system_id":"levelo_inurba_marseille","lat":43.28612,"lon":5.37062,"is_reserved":false,"is_disabled":false,"rental_uris":{"android":"levelo://app?vid=1ef4b3fa-fbda-46f4-b7e2-5773d9b802b7","ios":"levelo://app?vid=1ef4b3fa-fbda-46f4-b7e2-5773d9b802b7"},"vehicle_type_id":"4","last_reported":1752520199,"current_range_meters":16400,"station_id":"ce4bht12rcd13ifvqi60","pricing_plan_id":"cebpf4jnsgd1na2vs0mg"},{"bike_id":"403880bc-8bea-46f6-8a81-b7f6860118ac","system_id":"levelo_inurba_marseille","lat":43.29266,"lon":5.38446,"is_reserved":false,"is_disabled":true,"rental_uris":{"android":"levelo://app?vid=403880bc-8bea-46f6-8a81-b7f6860118ac","ios":"levelo://app?vid=403880bc-8bea-46f6-8a81-b7f6860118ac"},"vehicle_type_id":"4","last_reported":1752520199,"current_range_meters":16400,"station_id":"ce4bh692rcd13ifvqea0","pricing_plan_id":"cebpf4jnsgd1na2vs0mg"},{"bike_id":"60b7613c-472f-406d-a226-eb073eea5df0","system_id":"levelo_inurba_marseille","lat":43.29301,"lon":5.37166,"is_reserved":false,"is_disabled":false,"rental_uris":{"android":"levelo://app?vid=60b7613c-472f-406d-a226-eb073eea5df0","ios":"levelo://app?vid=60b7613c-472f-406d-a226-eb073eea5df0"},"vehicle_type_id":"4","last_reported":1752520199,"current_range_meters":16800,"station_id":"ce4bgh92rcd13ifvqb40","pricing_plan_id":"cebpf4jnsgd1na2vs0mg"},{"bike_id":"01beb3f2-c54f-4f68-af15-b28ae7c75196","system_id":"levelo_inurba_marseille","lat":43.30153,"lon":5.39889,"is_reserved":false,"is_disabled":true,"rental_uris":{"android":"levelo://app?vid=01beb3f2-c54f-4f68-af15-b28ae7c75196","ios":"levelo://app?vid=01beb3f2-c54f-4f68-af15-b28ae7c75196"},"vehicle_type_id":"4","last_reported":1752520199,"current_range_meters":16800,"station_id":"ce4bh0h2rcd13ifvqd40","pricing_plan_id":"cebpf4jnsgd1na2vs0mg"},{"bike_id":"add845f4-4873-4209-b794-d97f85e6414b","system_id":"levelo_inurba_marseille","lat":43.3302,"lon":5.39036,"is_reserved":false,"is_disabled":false,"rental_uris":{"android":"levelo://app?vid=add845f4-4873-4209-b794-d97f85e6414b","ios":"levelo://app?vid=add845f4-4873-4209-b794-d97f85e6414b"},"vehicle_type_id":"4","last_reported":1752520199,"current_range_meters":16800,"station_id":"ce4bhr92rcd13ifvqhrg","pricing_plan_id":"cebpf4jnsgd1na2vs0mg"},{"bike_id":"8577aaca-7915-49c3-b3eb-bc84fe946baf","system_id":"levelo_inurba_marseille","lat":43.27587,"lon":5.41583,"is_reserved":false,"is_disabled":false,"rental_uris":{"android":"levelo://app?vid=8577aaca-7915-49c3-b3eb-bc84fe946baf","ios":"levelo://app?vid=8577aaca-7915-49c3-b3eb-bc84fe946baf"},"vehicle_type_id":"4","last_reported":1752520199,"current_range_meters":16800,"station_id":"","pricing_plan_id":"cebpf4jnsgd1na2vs0mg"},{"bike_id":"6c6d4d9a-6141-481c-9c1a-8e61054bdc43","system_id":"levelo_inurba_marseille","lat":43.24776,"lon":5.4177,"is_reserved":false,"is_disabled":false,"rental_uris":{"android":"levelo://app?vid=6c6d4d9a-6141-481c-9c1a-8e61054bdc43","ios":"levelo://app?vid=6c6d4d9a-6141-481c-9c1a-8e61054bdc43"},"vehicle_type_id":"4","last_reported":1752520199,"current_range_meters":16800,"station_id":"","pricing_plan_id":"cebpf4jnsgd1na2vs0mg"},{"bike_id":"fae8c062-0b41-4f9e-b2ae-a986003a2b7c","system_id":"levelo_inurba_marseille","lat":43.27419,"lon":5.3941,"is_reserved":false,"is_disabled":false,"rental_uris":{"android":"levelo://app?vid=fae8c062-0b41-4f9e-b2ae-a986003a2b7c","ios":"levelo://app?vid=fae8c062-0b41-4f9e-b2ae-a986003a2b7c"},"vehicle_type_id":"4","last_reported":1752520199,"current_range_meters":16800,"station_id":"ce4bhdp2rcd13ifvqf20","pricing_plan_id":"cebpf4jnsgd1na2vs0mg"},{"bike_id":"c3eb31c9-e106-4cd2-bb91-f2d0ee3e7a6f","system_id":"levelo_inurba_marseille","lat":43.24034,"lon":5.36238,"is_reserved":false,"is_disabled":false,"rental_uris":{"android":"levelo://app?vid=c3eb31c9-e106-4cd2-bb91-f2d0ee3e7a6f","ios":"levelo://app?vid=c3eb31c9-e106-4cd2-bb91-f2d0ee3e7a6f"},"vehicle_type_id":"4","last_reported":1752520199,"current_range_meters":16800,"station_id":"","pricing_plan_id":"cebpf4jnsgd1na2vs0mg"},{"bike_id":"976ce966-362c-449e-811c-29fdef069bc9","system_id":"levelo_inurba_marseille","lat":43.28079,"lon":5.3966,"is_reserved":false,"is_disabled":false,"rental_uris":{"android":"levelo://app?vid=976ce966-362c-449e-811c-29fdef069bc9","ios":"levelo://app?vid=976ce966-362c-449e-811c-29fdef069bc9"},"vehicle_type_id":"4","last_reported":1752520199,"current_range_meters":16400,"station_id":"ce4bho12rcd13ifvqh2g","pricing_plan_id":"cebpf4jnsgd1na2vs0mg"},{"bike_id":"bc7f0fd5-e8fc-4e2b-8b23-1a22f168cfb6","system_id":"levelo_inurba_marseille","lat":43.293121,"lon":5.371711,"is_reserved":false,"is_disabled":false,"rental_uris":{"android":"levelo://app?vid=bc7f0fd5-e8fc-4e2b-8b23-1a22f168cfb6","ios":"levelo://app?vid=bc7f0fd5-e8fc-4e2b-8b23-1a22f168cfb6"},"vehicle_type_id":"4","last_reported":1752520199,"current_range_meters":16800,"station_id":"ce4bgh92rcd13ifvqb40","pricing_plan_id":"cebpf4jnsgd1na2vs0mg"},{"bike_id":"c96515f1-761c-4bb4-9e8e-abfdf1cd4732","system_id":"levelo_inurba_marseille","lat":43.290047,"lon":5.356153,"is_reserved":false,"is_disabled":false,"rental_uris":{"android":"levelo://app?vid=c96515f1-761c-4bb4-9e8e-abfdf1cd4732","ios":"levelo://app?vid=c96515f1-761c-4bb4-9e8e-abfdf1cd4732"},"vehicle_type_id":"4","last_reported":1752520199,"current_range_meters":17200,"station_id":"ce4bgih2rcd13ifvqba0","pricing_plan_id":"cebpf4jnsgd1na2vs0mg"},{"bike_id":"36e26723-1c99-4e78-a118-7e659bf3b478","system_id":"levelo_inurba_marseille","lat":43.29229,"lon":5.36061,"is_reserved":false,"is_disabled":false,"rental_uris":{"android":"levelo://app?vid=36e26723-1c99-4e78-a118-7e659bf3b478","ios":"levelo://app?vid=36e26723-1c99-4e78-a118-7e659bf3b478"},"vehicle_type_id":"4","last_reported":1752520199,"current_range_meters":17200,"station_id":"ce4bhbh2rcd13ifvqeqg","pricing_plan_id":"cebpf4jnsgd1na2vs0mg"},{"bike_id":"7ba271de-de2e-4fa4-bd1e-6dbef01db332","system_id":"levelo_inurba_marseille","lat":43.29375,"lon":5.37851,"is_reserved":false,"is_disabled":false,"rental_uris":{"android":"levelo://app?vid=7ba271de-de2e-4fa4-bd1e-6dbef01db332","ios":"levelo://app?vid=7ba271de-de2e-4fa4-bd1e-6dbef01db332"},"vehicle_type_id":"4","last_reported":1752520199,"current_range_meters":17200,"station_id":"ce4bgjh2rcd13ifvqbf0","pricing_plan_id":"cebpf4jnsgd1na2vs0mg"},{"bike_id":"cb46dc72-2b32-4ccb-9b54-3a73fcbe9c21","system_id":"levelo_inurba_marseille","lat":43.29294,"lon":5.37467,"is_reserved":false,"is_disabled":false,"rental_uris":{"android":"levelo://app?vid=cb46dc72-2b32-4ccb-9b54-3a73fcbe9c21","ios":"levelo://app?vid=cb46dc72-2b32-4ccb-9b54-3a73fcbe9c21"},"vehicle_type_id":"4","last_reported":1752520199,"current_range_meters":17200,"station_id":"ce4bgi12rcd13ifvqb70","pricing_plan_id":"cebpf4jnsgd1na2vs0mg"},{"bike_id":"52f9ae8e-9973-432e-a4c7-93830ab656dc","system_id":"levelo_inurba_marseille","lat":43.28943,"lon":5.36648,"is_reserved":false,"is_disabled":false,"rental_uris":{"android":"levelo://app?vid=52f9ae8e-9973-432e-a4c7-93830ab656dc","ios":"levelo://app?vid=52f9ae8e-9973-432e-a4c7-93830ab656dc"},"vehicle_type_id":"4","last_reported":1752520199,"current_range_meters":17200,"station_id":"ce4bhap2rcd13ifvqek0","pricing_plan_id":"cebpf4jnsgd1na2vs0mg"},{"bike_id":"f66a6880-4a2f-43e3-8a54-d16ca27cfac7","system_id":"levelo_inurba_marseille","lat":43.2988,"lon":5.38879,"is_reserved":false,"is_disabled":false,"rental_uris":{"android":"levelo://app?vid=f66a6880-4a2f-43e3-8a54-d16ca27cfac7","ios":"levelo://app?vid=f66a6880-4a2f-43e3-8a54-d16ca27cfac7"},"vehicle_type_id":"4","last_reported":1752520199,"current_range_meters":17200,"station_id":"ce4bh392rcd13ifvqdl0","pricing_plan_id":"cebpf4jnsgd1na2vs0mg"},{"bike_id":"5b79497d-499a-4c6a-bcb6-275adb49dba6","system_id":"levelo_inurba_marseille","lat":43.293121,"lon":5.371663,"is_reserved":false,"is_disabled":false,"rental_uris":{"android":"levelo://app?vid=5b79497d-499a-4c6a-bcb6-275adb49dba6","ios":"levelo://app?vid=5b79497d-499a-4c6a-bcb6-275adb49dba6"},"vehicle_type_id":"4","last_reported":1752520199,"current_range_meters":17200,"station_id":"ce4bgh92rcd13ifvqb40","pricing_plan_id":"cebpf4jnsgd1na2vs0mg"},{"bike_id":"dc260437-b8ae-4e28-8018-c4027d632c9f","system_id":"levelo_inurba_marseille","lat":43.31164,"lon":5.38722,"is_reserved":false,"is_disabled":false,"rental_uris":{"android":"levelo://app?vid=dc260437-b8ae-4e28-8018-c4027d632c9f","ios":"levelo://app?vid=dc260437-b8ae-4e28-8018-c4027d632c9f"},"vehicle_type_id":"4","last_reported":1752520199,"current_range_meters":17200,"station_id":"ce4bgv12rcd13ifvqcp0","pricing_plan_id":"cebpf4jnsgd1na2vs0mg"},{"bike_id":"2a74c118-5915-42ae-a5b6-acad51f5ceb5","system_id":"levelo_inurba_marseille","lat":43.27557,"lon":5.38439,"is_reserved":false,"is_disabled":true,"rental_uris":{"android":"levelo://app?vid=2a74c118-5915-42ae-a5b6-acad51f5ceb5","ios":"levelo://app?vid=2a74c118-5915-42ae-a5b6-acad51f5ceb5"},"vehicle_type_id":"4","last_reported":1752520199,"current_range_meters":17200,"station_id":"ce4bhh92rcd13ifvqfi0","pricing_plan_id":"cebpf4jnsgd1na2vs0mg"},{"bike_id":"7633c823-f2dc-41dd-b029-cb3884896e43","system_id":"levelo_inurba_marseille","lat":43.292969,"lon":5.374511,"is_reserved":false,"is_disabled":false,"rental_uris":{"android":"levelo://app?vid=7633c823-f2dc-41dd-b029-cb3884896e43","ios":"levelo://app?vid=7633c823-f2dc-41dd-b029-cb3884896e43"},"vehicle_type_id":"4","last_reported":1752520199,"current_range_meters":17200,"station_id":"ce4bgi12rcd13ifvqb70","pricing_plan_id":"cebpf4jnsgd1na2vs0mg"},{"bike_id":"914068e0-a6bf-4eca-a045-04850cb9d96d","system_id":"levelo_inurba_marseille","lat":43.29798,"lon":5.38108,"is_reserved":false,"is_disabled":false,"rental_uris":{"android":"levelo://app?vid=914068e0-a6bf-4eca-a045-04850cb9d96d","ios":"levelo://app?vid=914068e0-a6bf-4eca-a045-04850cb9d96d"},"vehicle_type_id":"4","last_reported":1752520199,"current_range_meters":17200,"station_id":"ce4bgip2rcd13ifvqbb0","pricing_plan_id":"cebpf4jnsgd1na2vs0mg"},{"bike_id":"c10bddf2-fe20-4bdc-9111-e9bfcd62ee23","system_id":"levelo_inurba_marseille","lat":43.28671,"lon":5.38666,"is_reserved":false,"is_disabled":false,"rental_uris":{"android":"levelo://app?vid=c10bddf2-fe20-4bdc-9111-e9bfcd62ee23","ios":"levelo://app?vid=c10bddf2-fe20-4bdc-9111-e9bfcd62ee23"},"vehicle_type_id":"4","last_reported":1752520199,"current_range_meters":17200,"station_id":"ce4bh492rcd13ifvqdug","pricing_plan_id":"cebpf4jnsgd1na2vs0mg"},{"bike_id":"d199b05c-bf49-40ff-8185-8d98f4140722","system_id":"levelo_inurba_marseille","lat":43.33152,"lon":5.38153,"is_reserved":false,"is_disabled":false,"rental_uris":{"android":"levelo://app?vid=d199b05c-bf49-40ff-8185-8d98f4140722","ios":"levelo://app?vid=d199b05c-bf49-40ff-8185-8d98f4140722"},"vehicle_type_id":"4","last_reported":1752520199,"current_range_meters":18000,"station_id":"","pricing_plan_id":"cebpf4jnsgd1na2vs0mg"},{"bike_id":"f2052e77-2392-4735-a8f6-84f745fd6486","system_id":"levelo_inurba_marseille","lat":43.273825,"lon":5.362478,"is_reserved":false,"is_disabled":false,"rental_uris":{"android":"levelo://app?vid=f2052e77-2392-4735-a8f6-84f745fd6486","ios":"levelo://app?vid=f2052e77-2392-4735-a8f6-84f745fd6486"},"vehicle_type_id":"4","last_reported":1752520199,"current_range_meters":17600,"station_id":"ce4bhbh2rcd13ifvqeo0","pricing_plan_id":"cebpf4jnsgd1na2vs0mg"},{"bike_id":"949cac28-1e79-45e2-a946-5e224b739cae","system_id":"levelo_inurba_marseille","lat":43.24164,"lon":5.36394,"is_reserved":false,"is_disabled":false,"rental_uris":{"android":"levelo://app?vid=949cac28-1e79-45e2-a946-5e224b739cae","ios":"levelo://app?vid=949cac28-1e79-45e2-a946-5e224b739cae"},"vehicle_type_id":"4","last_reported":1752520199,"current_range_meters":17600,"station_id":"cpo36qri1sfpv3e86is0","pricing_plan_id":"cebpf4jnsgd1na2vs0mg"},{"bike_id":"a000506a-75cd-4dc4-97a0-215f84d40dca","system_id":"levelo_inurba_marseille","lat":43.29556,"lon":5.42268,"is_reserved":false,"is_disabled":false,"rental_uris":{"android":"levelo://app?vid=a000506a-75cd-4dc4-97a0-215f84d40dca","ios":"levelo://app?vid=a000506a-75cd-4dc4-97a0-215f84d40dca"},"vehicle_type_id":"4","last_reported":1752520199,"current_range_meters":17600,"station_id":"ce4bhph2rcd13ifvqhdg","pricing_plan_id":"cebpf4jnsgd1na2vs0mg"},{"bike_id":"e396f185-6178-4360-9eb2-80afb7412d8a","system_id":"levelo_inurba_marseille","lat":43.304312,"lon":5.397458,"is_reserved":false,"is_disabled":false,"rental_uris":{"android":"levelo://app?vid=e396f185-6178-4360-9eb2-80afb7412d8a","ios":"levelo://app?vid=e396f185-6178-4360-9eb2-80afb7412d8a"},"vehicle_type_id":"4","last_reported":1752520199,"current_range_meters":17600,"station_id":"ce4bh092rcd13ifvqd20","pricing_plan_id":"cebpf4jnsgd1na2vs0mg"},{"bike_id":"8c78ce1e-a4fb-4f06-a601-f5ae54ccc794","system_id":"levelo_inurba_marseille","lat":43.2917,"lon":5.3714,"is_reserved":false,"is_disabled":false,"rental_uris":{"android":"levelo://app?vid=8c78ce1e-a4fb-4f06-a601-f5ae54ccc794","ios":"levelo://app?vid=8c78ce1e-a4fb-4f06-a601-f5ae54ccc794"},"vehicle_type_id":"4","last_reported":1752520199,"current_range_meters":17600,"station_id":"ce4bha92rcd13ifvqeh0","pricing_plan_id":"cebpf4jnsgd1na2vs0mg"},{"bike_id":"43120b77-362f-4d12-a05e-f7519a97d6ce","system_id":"levelo_inurba_marseille","lat":43.2481,"lon":5.37462,"is_reserved":false,"is_disabled":false,"rental_uris":{"android":"levelo://app?vid=43120b77-362f-4d12-a05e-f7519a97d6ce","ios":"levelo://app?vid=43120b77-362f-4d12-a05e-f7519a97d6ce"},"vehicle_type_id":"4","last_reported":1752520199,"current_range_meters":17600,"station_id":"ce4bhgh2rcd13ifvqfb0","pricing_plan_id":"cebpf4jnsgd1na2vs0mg"},{"bike_id":"d7159adf-94a3-498c-948b-458c9b026277","system_id":"levelo_inurba_marseille","lat":43.22541,"lon":5.34769,"is_reserved":false,"is_disabled":false,"rental_uris":{"android":"levelo://app?vid=d7159adf-94a3-498c-948b-458c9b026277","ios":"levelo://app?vid=d7159adf-94a3-498c-948b-458c9b026277"},"vehicle_type_id":"4","last_reported":1752520199,"current_range_meters":17600,"station_id":"","pricing_plan_id":"cebpf4jnsgd1na2vs0mg"},{"bike_id":"782aa239-1bf9-48c7-9101-d41eb0594da3","system_id":"levelo_inurba_marseille","lat":43.2969,"lon":5.37286,"is_reserved":false,"is_disabled":false,"rental_uris":{"android":"levelo://app?vid=782aa239-1bf9-48c7-9101-d41eb0594da3","ios":"levelo://app?vid=782aa239-1bf9-48c7-9101-d41eb0594da3"},"vehicle_type_id":"4","last_reported":1752520199,"current_range_meters":17600,"station_id":"","pricing_plan_id":"cebpf4jnsgd1na2vs0mg"},{"bike_id":"e52a0a0f-9372-4622-adb3-4c3e9a501e61","system_id":"levelo_inurba_marseille","lat":43.28617,"lon":5.37035,"is_reserved":false,"is_disabled":false,"rental_uris":{"android":"levelo://app?vid=e52a0a0f-9372-4622-adb3-4c3e9a501e61","ios":"levelo://app?vid=e52a0a0f-9372-4622-adb3-4c3e9a501e61"},"vehicle_type_id":"4","last_reported":1752520199,"current_range_meters":17600,"station_id":"ce4bht12rcd13ifvqi60","pricing_plan_id":"cebpf4jnsgd1na2vs0mg"},{"bike_id":"59fcd15b-2ca3-4dce-b7a4-d9174e361dc4","system_id":"levelo_inurba_marseille","lat":43.29717,"lon":5.36604,"is_reserved":false,"is_disabled":false,"rental_uris":{"android":"levelo://app?vid=59fcd15b-2ca3-4dce-b7a4-d9174e361dc4","ios":"levelo://app?vid=59fcd15b-2ca3-4dce-b7a4-d9174e361dc4"},"vehicle_type_id":"4","last_reported":1752520199,"current_range_meters":17600,"station_id":"ce4bgn12rcd13ifvqbt0","pricing_plan_id":"cebpf4jnsgd1na2vs0mg"},{"bike_id":"d9055d59-9c68-418c-86fc-7f057e5e2bfa","system_id":"levelo_inurba_marseille","lat":43.28612,"lon":5.37061,"is_reserved":false,"is_disabled":false,"rental_uris":{"android":"levelo://app?vid=d9055d59-9c68-418c-86fc-7f057e5e2bfa","ios":"levelo://app?vid=d9055d59-9c68-418c-86fc-7f057e5e2bfa"},"vehicle_type_id":"4","last_reported":1752520199,"current_range_meters":17600,"station_id":"ce4bht12rcd13ifvqi60","pricing_plan_id":"cebpf4jnsgd1na2vs0mg"},{"bike_id":"de3c7479-ad03-448f-a78e-88898eddd51a","system_id":"levelo_inurba_marseille","lat":43.32966,"lon":5.39731,"is_reserved":false,"is_disabled":false,"rental_uris":{"android":"levelo://app?vid=de3c7479-ad03-448f-a78e-88898eddd51a","ios":"levelo://app?vid=de3c7479-ad03-448f-a78e-88898eddd51a"},"vehicle_type_id":"4","last_reported":1752520199,"current_range_meters":18000,"station_id":"","pricing_plan_id":"cebpf4jnsgd1na2vs0mg"},{"bike_id":"6ebd7937-2139-48b1-8acc-0d8b81361ac5","system_id":"levelo_inurba_marseille","lat":43.29802,"lon":5.38101,"is_reserved":false,"is_disabled":false,"rental_uris":{"android":"levelo://app?vid=6ebd7937-2139-48b1-8acc-0d8b81361ac5","ios":"levelo://app?vid=6ebd7937-2139-48b1-8acc-0d8b81361ac5"},"vehicle_type_id":"4","last_reported":1752520199,"current_range_meters":18000,"station_id":"ce4bgip2rcd13ifvqbb0","pricing_plan_id":"cebpf4jnsgd1na2vs0mg"},{"bike_id":"854a71fd-3981-42d6-9985-55a5fec544cd","system_id":"levelo_inurba_marseille","lat":43.22929,"lon":5.353765,"is_reserved":false,"is_disabled":false,"rental_uris":{"android":"levelo://app?vid=854a71fd-3981-42d6-9985-55a5fec544cd","ios":"levelo://app?vid=854a71fd-3981-42d6-9985-55a5fec544cd"},"vehicle_type_id":"4","last_reported":1752520199,"current_range_meters":18000,"station_id":"cpo3532slgdg3j2ikp40","pricing_plan_id":"cebpf4jnsgd1na2vs0mg"},{"bike_id":"ce9e89bd-1041-4811-8b72-25634c65aa6b","system_id":"levelo_inurba_marseille","lat":43.23193,"lon":5.35543,"is_reserved":false,"is_disabled":false,"rental_uris":{"android":"levelo://app?vid=ce9e89bd-1041-4811-8b72-25634c65aa6b","ios":"levelo://app?vid=ce9e89bd-1041-4811-8b72-25634c65aa6b"},"vehicle_type_id":"4","last_reported":1752520199,"current_range_meters":18000,"station_id":"ce4bhu92rcd13ifvqi70","pricing_plan_id":"cebpf4jnsgd1na2vs0mg"},