{"last_updated":1691093219,"ttl":30,"version":"2.2","data":{"bikes":[{"bike_id":"71cf7896-ca7e-49f3-9e31-4820e1d3fde7","system_id":"levelo_inurba_marseille","lat":43.314811,"lon":5.373103,"is_reserved":false,"is_disabled":false,"rental_uris":{"android":"levelo://app?vid=71cf7896-ca7e-49f3-9e31-4820e1d3fde7","ios":"levelo://app?vid=71cf7896-ca7e-49f3-9e31-4820e1d3fde7"},"vehicle_type_id":"4","last_reported":1691093219,"current_range_meters":22800,"station_id":"ce4bgt12rcd13ifvqcd0","pricing_plan_id":"free"},{"bike_id":"9d97aa94-e692-4512-b44e-7fc86d0a9818","system_id":"levelo_inurba_marseille","lat":43.314811,"lon":5.373103,"is_reserved":false,"is_disabled":false,"rental_uris":{"android":"levelo://app?vid=9d97aa94-e692-4512-b44e-7fc86d0a9818","ios":"levelo://app?vid=9d97aa94-e692-4512-b44e-7fc86d0a9818"},"vehicle_type_id":"4","last_reported":1691093219,"current_range_meters":18400,"station_id":"ce4bgt12rcd13ifvqcd0","pricing_plan_id":"free"},{"bike_id":"caa0c2c8-e47b-405c-8957-788436d6398f","system_id":"levelo_inurba_marseille","lat":43.314811,"lon":5.373103,"is_reserved":false,"is_disabled":false,"rental_uris":{"android":"levelo://app?vid=caa0c2c8-e47b-405c-8957-788436d6398f","ios":"levelo://app?vid=caa0c2c8-e47b-405c-8957-788436d6398f"},"vehicle_type_id":"4","last_reported":1691093219,"current_range_meters":26400,"station_id":"ce4bgt12rcd13ifvqcd0","pricing_plan_id":"free"},{"bike_id":"5f71f073-c70e-4b00-9235-3ed36b57283b","system_id":"levelo_inurba_marseille","lat":43.314811,"lon":5.373103,"is_reserved":false,"is_disabled":false,"rental_uris":{"android":"levelo://app?vid=5f71f073-c70e-4b00-9235-3ed36b57283b","ios":"levelo://app?vid=5f71f073-c70e-4b00-9235-3ed36b57283b"},"vehicle_type_id":"4","last_reported":1691093219,"current_range_meters":11600,"station_id":"ce4bgt12rcd13ifvqcd0","pricing_plan_id":"free"},{"bike_id":"fc996f03-de9d-41a6-943d-6d50a2aa4e96","system_id":"levelo_inurba_marseille","lat":43.314811,"lon":5.373103,"is_reserved":false,"is_disabled":false,"rental_uris":{"android":"levelo://app?vid=fc996f03-de9d-41a6-943d-6d50a2aa4e96","ios":"levelo://app?vid=fc996f03-de9d-41a6-943d-6d50a2aa4e96"},"vehicle_type_id":"4","last_reported":1691093219,"current_range_meters":0,"station_id":"ce4bgt12rcd13ifvqcd0","pricing_plan_id":"free"},{"bike_id":"a09e5bb2-a8f4-4aa8-893c-effbedc110d9","system_id":"levelo_inurba_marseille","lat":43.314811,"lon":5.373104,"is_reserved":false,"is_disabled":false,"rental_uris":{"android":"levelo://app?vid=a09e5bb2-a8f4-4aa8-893c-effbedc110d9","ios":"levelo://app?vid=a09e5bb2-a8f4-4aa8-893c-effbedc110d9"},"vehicle_type_id":"4","last_reported":1691093219,"current_range_meters":11200,"station_id":"ce4bgt12rcd13ifvqcd0","pricing_plan_id":"free"},{"bike_id":"c4156d17-1eed-443c-84b9-c5d05b4bbcd2","system_id":"levelo_inurba_marseille","lat":43.3089,"lon":5.3719,"is_reserved":false,"is_disabled":false,"rental_uris":{"android":"levelo://app?vid=c4156d17-1eed-443c-84b9-c5d05b4bbcd2","ios":"levelo://app?vid=c4156d17-1eed-443c-84b9-c5d05b4bbcd2"},"vehicle_type_id":"4","last_reported":1691093219,"current_range_meters":11600,"station_id":"ce4bguh2rcd13ifvqckg","pricing_plan_id":"free"},{"bike_id":"838ab520-7ba0-4db7-85c9-31230d943ebd","system_id":"levelo_inurba_marseille","lat":43.30893,"lon":5.37198,"is_reserved":false,"is_disabled":false,"rental_uris":{"android":"levelo://app?vid=838ab520-7ba0-4db7-85c9-31230d943ebd","ios":"levelo://app?vid=838ab520-7ba0-4db7-85c9-31230d943ebd"},"vehicle_type_id":"4","last_reported":1691093219,"current_range_meters":29600,"station_id":"ce4bguh2rcd13ifvqckg","pricing_plan_id":"free"},{"bike_id":"6fd05439-eec5-4c60-861e-ff81b9fabcf7","system_id":"levelo_inurba_marseille","lat":43.30883,"lon":5.37192,"is_reserved":false,"is_disabled":false,"rental_uris":{"android":"levelo://app?vid=6fd05439-eec5-4c60-861e-ff81b9fabcf7","ios":"levelo://app?vid=6fd05439-eec5-4c60-861e-ff81b9fabcf7"},"vehicle_type_id":"4","last_reported":1691093219,"current_range_meters":5200,"station_id":"ce4bguh2rcd13ifvqckg","pricing_plan_id":"free"},{"bike_id":"7cfb81a3-fd7f-41d1-987d-c1037b7c6b4a","system_id":"levelo_inurba_marseille","lat":43.31435,"lon":5.37499,"is_reserved":false,"is_disabled":false,"rental_uris":{"android":"levelo://app?vid=7cfb81a3-fd7f-41d1-987d-c1037b7c6b4a","ios":"levelo://app?vid=7cfb81a3-fd7f-41d1-987d-c1037b7c6b4a"},"vehicle_type_id":"4","last_reported":1691093219,"current_range_meters":21200,"station_id":"","pricing_plan_id":"free"},{"bike_id":"f20ea888-8740-440b-bfeb-8eb2a7c1f652","system_id":"levelo_inurba_marseille","lat":43.30596,"lon":5.37219,"is_reserved":false,"is_disabled":false,"rental_uris":{"android":"levelo://app?vid=f20ea888-8740-440b-bfeb-8eb2a7c1f652","ios":"levelo://app?vid=f20ea888-8740-440b-bfeb-8eb2a7c1f652"},"vehicle_type_id":"4","last_reported":1691093219,"current_range_meters":31200,"station_id":"ce4bgqh2rcd13ifvqc4g","pricing_plan_id":"free"},{"bike_id":"b5ce3308-8937-47f1-8138-3c30c50128dc","system_id":"levelo_inurba_marseille","lat":43.311125,"lon":5.377624,"is_reserved":false,"is_disabled":false,"rental_uris":{"android":"levelo://app?vid=b5ce3308-8937-47f1-8138-3c30c50128dc","ios":"levelo://app?vid=b5ce3308-8937-47f1-8138-3c30c50128dc"},"vehicle_type_id":"4","last_reported":1691093219,"current_range_meters":22400,"station_id":"ce4bgt92rcd13ifvqcg0","pricing_plan_id":"free"},{"bike_id":"9e217681-566c-4e88-93b0-69ff2ed16c17","system_id":"levelo_inurba_marseille","lat":43.311131,"lon":5.377651,"is_reserved":false,"is_disabled":false,"rental_uris":{"android":"levelo://app?vid=9e217681-566c-4e88-93b0-69ff2ed16c17","ios":"levelo://app?vid=9e217681-566c-4e88-93b0-69ff2ed16c17"},"vehicle_type_id":"4","last_reported":1691093219,"current_range_meters":15200,"station_id":"ce4bgt92rcd13ifvqcg0","pricing_plan_id":"free"},{"bike_id":"c44dddb3-9b93-4d00-96df-650b067307cd","system_id":"levelo_inurba_marseille","lat":43.287185,"lon":5.379373,"is_reserved":false,"is_disabled":false,"rental_uris":{"android":"levelo://app?vid=c44dddb3-9b93-4d00-96df-650b067307cd","ios":"levelo://app?vid=c44dddb3-9b93-4d00-96df-650b067307cd"},"vehicle_type_id":"4","last_reported":1691093219,"current_range_meters":24000,"station_id":"ce4bh9p2rcd13ifvqec0","pricing_plan_id":"free"},{"bike_id":"6e13717e-9914-4817-b446-8ca53f78e166","system_id":"levelo_inurba_marseille","lat":43.307945,"lon":5.376487,"is_reserved":false,"is_disabled":false,"rental_uris":{"android":"levelo://app?vid=6e13717e-9914-4817-b446-8ca53f78e166","ios":"levelo://app?vid=6e13717e-9914-4817-b446-8ca53f78e166"},"vehicle_type_id":"4","last_reported":1691093219,"current_range_meters":6800,"station_id":"ce4bgv92rcd13ifvqcq0","pricing_plan_id":"free"},{"bike_id":"740acca2-d7a2-4410-aa65-7b7281183141","system_id":"levelo_inurba_marseille","lat":43.30785,"lon":5.37653,"is_reserved":false,"is_disabled":false,"rental_uris":{"android":"levelo://app?vid=740acca2-d7a2-4410-aa65-7b7281183141","ios":"levelo://app?vid=740acca2-d7a2-4410-aa65-7b7281183141"},"vehicle_type_id":"4","last_reported":1691093219,"current_range_meters":30000,"station_id":"ce4bgv92rcd13ifvqcq0","pricing_plan_id":"free"},{"bike_id":"cfac6340-2b0e-4511-9eaa-8d0430840b78","system_id":"levelo_inurba_marseille","lat":43.307945,"lon":5.376487,"is_reserved":false,"is_disabled":false,"rental_uris":{"android":"levelo://app?vid=cfac6340-2b0e-4511-9eaa-8d0430840b78","ios":"levelo://app?vid=cfac6340-2b0e-4511-9eaa-8d0430840b78"},"vehicle_type_id":"4","last_reported":1691093219,"current_range_meters":11200,"station_id":"ce4bgv92rcd13ifvqcq0","pricing_plan_id":"free"},{"bike_id":"84c9ada1-381a-4fb9-941f-7a726aae932b","system_id":"levelo_inurba_marseille","lat":43.317075,"lon":5.377367,"is_reserved":false,"is_disabled":false,"rental_uris":{"android":"levelo://app?vid=84c9ada1-381a-4fb9-941f-7a726aae932b","ios":"levelo://app?vid=84c9ada1-381a-4fb9-941f-7a726aae932b"},"vehicle_type_id":"4","last_reported":1691093219,"current_range_meters":25200,"station_id":"ce4bgth2rcd13ifvqch0","pricing_plan_id":"free"},{"bike_id":"0f2902ef-403c-458f-92a9-dfbe4b28e1b1","system_id":"levelo_inurba_marseille","lat":43.317075,"lon":5.377367,"is_reserved":false,"is_disabled":false,"rental_uris":{"android":"levelo://app?vid=0f2902ef-403c-458f-92a9-dfbe4b28e1b1","ios":"levelo://app?vid=0f2902ef-403c-458f-92a9-dfbe4b28e1b1"},"vehicle_type_id":"4","last_reported":1691093219,"current_range_meters":8800,"station_id":"ce4bgth2rcd13ifvqch0","pricing_plan_id":"free"},{"bike_id":"6ec4bb7e-8606-49b4-a556-2cb681532bba","system_id":"levelo_inurba_marseille","lat":43.317075,"lon":5.377367,"is_reserved":false,"is_disabled":false,"rental_uris":{"android":"levelo://app?vid=6ec4bb7e-8606-49b4-a556-2cb681532bba","ios":"levelo://app?vid=6ec4bb7e-8606-49b4-a556-2cb681532bba"},"vehicle_type_id":"4","last_reported":1691093219,"current_range_meters":31200,"station_id":"ce4bgth2rcd13ifvqch0","pricing_plan_id":"free"},{"bike_id":"ca03c504-734e-402b-8597-fb77a9549039","system_id":"levelo_inurba_marseille","lat":43.31538,"lon":5.38031,"is_reserved":false,"is_disabled":false,"rental_uris":{"android":"levelo://app?vid=ca03c504-734e-402b-8597-fb77a9549039","ios":"levelo://app?vid=ca03c504-734e-402b-8597-fb77a9549039"},"vehicle_type_id":"4","last_reported":1691093219,"current_range_meters":30800,"station_id":"ce4bhsp2rcd13ifvqi50","pricing_plan_id":"free"},{"bike_id":"fbcd4f43-8f23-445d-8d64-548c36cb1d34","system_id":"levelo_inurba_marseille","lat":43.30198,"lon":5.36634,"is_reserved":false,"is_disabled":false,"rental_uris":{"android":"levelo://app?vid=fbcd4f43-8f23-445d-8d64-548c36cb1d34","ios":"levelo://app?vid=fbcd4f43-8f23-445d-8d64-548c36cb1d34"},"vehicle_type_id":"4","last_reported":1691093219,"current_range_meters":400,"station_id":"ce4bgrh2rcd13ifvqc8g","pricing_plan_id":"free"},{"bike_id":"ca9e71d2-d7c5-4590-b0fe-199706b7ec93","system_id":"levelo_inurba_marseille","lat":43.301939,"lon":5.366286,"is_reserved":false,"is_disabled":false,"rental_uris":{"android":"levelo://app?vid=ca9e71d2-d7c5-4590-b0fe-199706b7ec93","ios":"levelo://app?vid=ca9e71d2-d7c5-4590-b0fe-199706b7ec93"},"vehicle_type_id":"4","last_reported":1691093219,"current_range_meters":28400,"station_id":"ce4bgrh2rcd13ifvqc8g","pricing_plan_id":"free"},{"bike_id":"70bf2818-24f1-4b94-baa7-1ae5ee79ed87","system_id":"levelo_inurba_marseille","lat":43.301939,"lon":5.366286,"is_reserved":false,"is_disabled":false,"rental_uris":{"android":"levelo://app?vid=70bf2818-24f1-4b94-baa7-1ae5ee79ed87","ios":"levelo://app?vid=70bf2818-24f1-4b94-baa7-1ae5ee79ed87"},"vehicle_type_id":"4","last_reported":1691093219,"current_range_meters":9200,"station_id":"ce4bgrh2rcd13ifvqc8g","pricing_plan_id":"free"},{"bike_id":"439f6209-5d24-4684-8c56-3148b3af1dfc","system_id":"levelo_inurba_marseille","lat":43.301939,"lon":5.366286,"is_reserved":false,"is_disabled":false,"rental_uris":{"android":"levelo://app?vid=439f6209-5d24-4684-8c56-3148b3af1dfc","ios":"levelo://app?vid=439f6209-5d24-4684-8c56-3148b3af1dfc"},"vehicle_type_id":"4","last_reported":1691093219,"current_range_meters":12800,"station_id":"ce4bgrh2rcd13ifvqc8g","pricing_plan_id":"free"},{"bike_id":"51fb9891-86c5-4d0b-8b1f-fa446de6a5a5","system_id":"levelo_inurba_marseille","lat":43.31681,"lon":5.38188,"is_reserved":false,"is_disabled":false,"rental_uris":{"android":"levelo://app?vid=51fb9891-86c5-4d0b-8b1f-fa446de6a5a5","ios":"levelo://app?vid=51fb9891-86c5-4d0b-8b1f-fa446de6a5a5"},"vehicle_type_id":"4","last_reported":1691093219,"current_range_meters":27600,"station_id":"","pricing_plan_id":"free"},{"bike_id":"fb0f9bc1-4ef7-4281-8516-1e3a8858835a","system_id":"levelo_inurba_marseille","lat":43.31703,"lon":5.38195,"is_reserved":false,"is_disabled":false,"rental_uris":{"android":"levelo://app?vid=fb0f9bc1-4ef7-4281-8516-1e3a8858835a","ios":"levelo://app?vid=fb0f9bc1-4ef7-4281-8516-1e3a8858835a"},"vehicle_type_id":"4","last_reported":1691093219,"current_range_meters":27600,"station_id":"","pricing_plan_id":"free"},{"bike_id":"69efd253-fbbb-4a73-9ba0-16d8244fa080","system_id":"levelo_inurba_marseille","lat":43.30459,"lon":5.379,"is_reserved":false,"is_disabled":false,"rental_uris":{"android":"levelo://app?vid=69efd253-fbbb-4a73-9ba0-16d8244fa080","ios":"levelo://app?vid=69efd253-fbbb-4a73-9ba0-16d8244fa080"},"vehicle_type_id":"4","last_reported":1691093219,"current_range_meters":31200,"station_id":"ce4bgup2rcd13ifvqcn0","pricing_plan_id":"free"},{"bike_id":"791aecf0-48e6-4775-bc04-3b9f8a573be3","system_id":"levelo_inurba_marseille","lat":43.3199,"lon":5.38138,"is_reserved":false,"is_disabled":false,"rental_uris":{"android":"levelo://app?vid=791aecf0-48e6-4775-bc04-3b9f8a573be3","ios":"levelo://app?vid=791aecf0-48e6-4775-bc04-3b9f8a573be3"},"vehicle_type_id":"4","last_reported":1691093219,"current_range_meters":10400,"station_id":"ce4bhr12rcd13ifvqhpg","pricing_plan_id":"free"},{"bike_id":"4d195947-7840-43c6-8ce6-ccb5b609969c","system_id":"levelo_inurba_marseille","lat":43.31998,"lon":5.38164,"is_reserved":false,"is_disabled":false,"rental_uris":{"android":"levelo://app?vid=4d195947-7840-43c6-8ce6-ccb5b609969c","ios":"levelo://app?vid=4d195947-7840-43c6-8ce6-ccb5b609969c"},"vehicle_type_id":"4","last_reported":1691093219,"current_range_meters":11200,"station_id":"ce4bhr12rcd13ifvqhpg","pricing_plan_id":"free"},{"bike_id":"3097454c-215b-480d-9356-8d3755cad264","system_id":"levelo_inurba_marseille","lat":43.313571,"lon":5.384829,"is_reserved":false,"is_disabled":false,"rental_uris":{"android":"levelo://app?vid=3097454c-215b-480d-9356-8d3755cad264","ios":"levelo://app?vid=3097454c-215b-480d-9356-8d3755cad264"},"vehicle_type_id":"4","last_reported":1691093219,"current_range_meters":27600,"station_id":"ce4bgt92rcd13ifvqcf0","pricing_plan_id":"free"},{"bike_id":"1f9201be-b44c-4316-9454-40212873ae7f","system_id":"levelo_inurba_marseille","lat":43.31642,"lon":5.38421,"is_reserved":false,"is_disabled":false,"rental_uris":{"android":"levelo://app?vid=1f9201be-b44c-4316-9454-40212873ae7f","ios":"levelo://app?vid=1f9201be-b44c-4316-9454-40212873ae7f"},"vehicle_type_id":"4","last_reported":1691093219,"current_range_meters":31200,"station_id":"","pricing_plan_id":"free"},{"bike_id":"d92e79c6-8caa-430c-90be-6141442e45a4","system_id":"levelo_inurba_marseille","lat":43.31367,"lon":5.3849,"is_reserved":false,"is_disabled":false,"rental_uris":{"android":"levelo://app?vid=d92e79c6-8caa-430c-90be-6141442e45a4","ios":"levelo://app?vid=d92e79c6-8caa-430c-90be-6141442e45a4"},"vehicle_type_id":"4","last_reported":1691093219,"current_range_meters":16000,"station_id":"ce4bgt92rcd13ifvqcf0","pricing_plan_id":"free"},{"bike_id":"f5b1ceff-a875-4d0b-9e22-6a863bf3e1c1","system_id":"levelo_inurba_marseille","lat":43.31362,"lon":5.385,"is_reserved":false,"is_disabled":false,"rental_uris":{"android":"levelo://app?vid=f5b1ceff-a875-4d0b-9e22-6a863bf3e1c1","ios":"levelo://app?vid=f5b1ceff-a875-4d0b-9e22-6a863bf3e1c1"},"vehicle_type_id":"4","last_reported":1691093219,"current_range_meters":13600,"station_id":"ce4bgt92rcd13ifvqcf0","pricing_plan_id":"free"},{"bike_id":"7ce5d17d-5040-4f4f-82f9-2a811b57edb1","system_id":"levelo_inurba_marseille","lat":43.299724,"lon":5.371829,"is_reserved":false,"is_disabled":false,"rental_uris":{"android":"levelo://app?vid=7ce5d17d-5040-4f4f-82f9-2a811b57edb1","ios":"levelo://app?vid=7ce5d17d-5040-4f4f-82f9-2a811b57edb1"},"vehicle_type_id":"4","last_reported":1691093219,"current_range_meters":8800,"station_id":"ce4bgr92rcd13ifvqc7g","pricing_plan_id":"free"},{"bike_id":"3cb7fd70-121e-4eb5-9a01-ecc8718aa1bb","system_id":"levelo_inurba_marseille","lat":43.29935,"lon":5.36527,"is_reserved":false,"is_disabled":false,"rental_uris":{"android":"levelo://app?vid=3cb7fd70-121e-4eb5-9a01-ecc8718aa1bb","ios":"levelo://app?vid=3cb7fd70-121e-4eb5-9a01-ecc8718aa1bb"},"vehicle_type_id":"4","last_reported":1691093219,"current_range_meters":31600,"station_id":"ce4bgm92rcd13ifvqbr0","pricing_plan_id":"free"},{"bike_id":"1d57a077-b9eb-4fcb-a8c0-f77d0357c7de","system_id":"levelo_inurba_marseille","lat":43.299209,"lon":5.365547,"is_reserved":false,"is_disabled":false,"rental_uris":{"android":"levelo://app?vid=1d57a077-b9eb-4fcb-a8c0-f77d0357c7de","ios":"levelo://app?vid=1d57a077-b9eb-4fcb-a8c0-f77d0357c7de"},"vehicle_type_id":"4","last_reported":1691093219,"current_range_meters":0,"station_id":"ce4bgm92rcd13ifvqbr0","pricing_plan_id":"free"},{"bike_id":"7d0450cc-3554-4433-9a0d-c215e9a2601d","system_id":"levelo_inurba_marseille","lat":43.299679,"lon":5.371794,"is_reserved":false,"is_disabled":false,"rental_uris":{"android":"levelo://app?vid=7d0450cc-3554-4433-9a0d-c215e9a2601d","ios":"levelo://app?vid=7d0450cc-3554-4433-9a0d-c215e9a2601d"},"vehicle_type_id":"4","last_reported":1691093219,"current_range_meters":25600,"station_id":"","pricing_plan_id":"free"},{"bike_id":"c5b11aa6-aed8-4b86-9090-25de1aa8caf2","system_id":"levelo_inurba_marseille","lat":43.29851,"lon":5.36281,"is_reserved":false,"is_disabled":false,"rental_uris":{"android":"levelo://app?vid=c5b11aa6-aed8-4b86-9090-25de1aa8caf2","ios":"levelo://app?vid=c5b11aa6-aed8-4b86-9090-25de1aa8caf2"},"vehicle_type_id":"4","last_reported":1691093219,"current_range_meters":24000,"station_id":"ce4bgpp2rcd13ifvqc3g","pricing_plan_id":"free"},{"bike_id":"2af1a7e1-c7a3-4871-b210-ed23f32f53db","system_id":"levelo_inurba_marseille","lat":43.3054,"lon":5.38426,"is_reserved":false,"is_disabled":false,"rental_uris":{"android":"levelo://app?vid=2af1a7e1-c7a3-4871-b210-ed23f32f53db","ios":"levelo://app?vid=2af1a7e1-c7a3-4871-b210-ed23f32f53db"},"vehicle_type_id":"4","last_reported":1691093219,"current_range_meters":20000,"station_id":"ce4bgg92rcd13ifvqb30","pricing_plan_id":"free"},{"bike_id":"30537d43-af02-4a10-b928-7b9b8cf633d2","system_id":"levelo_inurba_marseille","lat":43.30542,"lon":5.38428,"is_reserved":false,"is_disabled":false,"rental_uris":{"android":"levelo://app?vid=30537d43-af02-4a10-b928-7b9b8cf633d2","ios":"levelo://app?vid=30537d43-af02-4a10-b928-7b9b8cf633d2"},"vehicle_type_id":"4","last_reported":1691093219,"current_range_meters":28400,"station_id":"ce4bgg92rcd13ifvqb30","pricing_plan_id":"free"},{"bike_id":"c8f881e6-fc84-428b-81fe-9dbcb8465a23","system_id":"levelo_inurba_marseille","lat":43.305364,"lon":5.384119,"is_reserved":false,"is_disabled":false,"rental_uris":{"android":"levelo://app?vid=c8f881e6-fc84-428b-81fe-9dbcb8465a23","ios":"levelo://app?vid=c8f881e6-fc84-428b-81fe-9dbcb8465a23"},"vehicle_type_id":"4","last_reported":1691093219,"current_range_meters":9200,"station_id":"ce4bgg92rcd13ifvqb30","pricing_plan_id":"free"},{"bike_id":"e3041c7e-125d-4595-b231-60bb0c656f65","system_id":"levelo_inurba_marseille","lat":43.30537,"lon":5.38426,"is_reserved":false,"is_disabled":false,"rental_uris":{"android":"levelo://app?vid=e3041c7e-125d-4595-b231-60bb0c656f65","ios":"levelo://app?vid=e3041c7e-125d-4595-b231-60bb0c656f65"},"vehicle_type_id":"4","last_reported":1691093219,"current_range_meters":30400,"station_id":"ce4bgg92rcd13ifvqb30","pricing_plan_id":"free"},{"bike_id":"3c9542c8-2a69-45f4-a9a0-64f3d8a1c9ed","system_id":"levelo_inurba_marseille","lat":43.311722,"lon":5.387247,"is_reserved":false,"is_disabled":false,"rental_uris":{"android":"levelo://app?vid=3c9542c8-2a69-45f4-a9a0-64f3d8a1c9ed","ios":"levelo://app?vid=3c9542c8-2a69-45f4-a9a0-64f3d8a1c9ed"},"vehicle_type_id":"4","last_reported":1691093219,"current_range_meters":7600,"station_id":"ce4bgv12rcd13ifvqcp0","pricing_plan_id":"free"},{"bike_id":"6eb6ead0-d563-434e-9d56-3823b1758e32","system_id":"levelo_inurba_marseille","lat":43.311722,"lon":5.387247,"is_reserved":false,"is_disabled":false,"rental_uris":{"android":"levelo://app?vid=6eb6ead0-d563-434e-9d56-3823b1758e32","ios":"levelo://app?vid=6eb6ead0-d563-434e-9d56-3823b1758e32"},"vehicle_type_id":"4","last_reported":1691093219,"current_range_meters":25200,"station_id":"ce4bgv12rcd13ifvqcp0","pricing_plan_id":"free"},{"bike_id":"853b9bc6-f839-4e14-a622-dfa74b9c88d7","system_id":"levelo_inurba_marseille","lat":43.311722,"lon":5.387247,"is_reserved":false,"is_disabled":false,"rental_uris":{"android":"levelo://app?vid=853b9bc6-f839-4e14-a622-dfa74b9c88d7","ios":"levelo://app?vid=853b9bc6-f839-4e14-a622-dfa74b9c88d7"},"vehicle_type_id":"4","last_reported":1691093219,"current_range_meters":16400,"station_id":"ce4bgv12rcd13ifvqcp0","pricing_plan_id":"free"},{"bike_id":"e4cbc37f-a936-4a1a-a335-658aff8c6052","system_id":"levelo_inurba_marseille","lat":43.311722,"lon":5.387247,"is_reserved":false,"is_disabled":false,"rental_uris":{"android":"levelo://app?vid=e4cbc37f-a936-4a1a-a335-658aff8c6052","ios":"levelo://app?vid=e4cbc37f-a936-4a1a-a335-658aff8c6052"},"vehicle_type_id":"4","last_reported":1691093219,"current_range_meters":13200,"station_id":"ce4bgv12rcd13ifvqcp0","pricing_plan_id":"free"},{"bike_id":"4b1e7c26-7b64-4159-8c32-e67f82ce8370","system_id":"levelo_inurba_marseille","lat":43.311722,"lon":5.387247,"is_reserved":false,"is_disabled":false,"rental_uris":{"android":"levelo://app?vid=4b1e7c26-7b64-4159-8c32-e67f82ce8370","ios":"levelo://app?vid=4b1e7c26-7b64-4159-8c32-e67f82ce8370"},"vehicle_type_id":"4","last_reported":1691093219,"current_range_meters":28000,"station_id":"ce4bgv12rcd13ifvqcp0","pricing_plan_id":"free"},{"bike_id":"59d8c8da-c483-444c-ba12-fa1dbd654998","system_id":"levelo_inurba_marseille","lat":43.311722,"lon":5.387247,"is_reserved":false,"is_disabled":false,"rental_uris":{"android":"levelo://app?vid=59d8c8da-c483-444c-ba12-fa1dbd654998","ios":"levelo://app?vid=59d8c8da-c483-444c-ba12-fa1dbd654998"},"vehicle_type_id":"4","last_reported":1691093219,"current_range_meters":24000,"station_id":"ce4bgv12rcd13ifvqcp0","pricing_plan_id":"free"},{"bike_id":"403db595-77c4-46a4-ae65-2b5bac7936b1","system_id":"levelo_inurba_marseille","lat":43.311722,"lon":5.387247,"is_reserved":false,"is_disabled":false,"rental_uris":{"android":"levelo://app?vid=403db595-77c4-46a4-ae65-2b5bac7936b1","ios":"levelo://app?vid=403db595-77c4-46a4-ae65-2b5bac7936b1"},"vehicle_type_id":"4","last_reported":1691093219,"current_range_meters":4800,"station_id":"ce4bgv12rcd13ifvqcp0","pricing_plan_id":"free"},{"bike_id":"d1abd3b0-09d4-47e6-a5bb-148149e76581","system_id":"levelo_inurba_marseille","lat":43.311722,"lon":5.387247,"is_reserved":false,"is_disabled":false,"rental_uris":{"android":"levelo://app?vid=d1abd3b0-09d4-47e6-a5bb-148149e76581","ios":"levelo://app?vid=d1abd3b0-09d4-47e6-a5bb-148149e76581"},"vehicle_type_id":"4","last_reported":1691093219,"current_range_meters":10400,"station_id":"ce4bgv12rcd13ifvqcp0","pricing_plan_id":"free"},{"bike_id":"33905f3e-2ef7-484f-8ea1-52cbb6642ede","system_id":"levelo_inurba_marseille","lat":43.311722,"lon":5.387247,"is_reserved":false,"is_disabled":false,"rental_uris":{"android":"levelo://app?vid=33905f3e-2ef7-484f-8ea1-52cbb6642ede","ios":"levelo://app?vid=33905f3e-2ef7-484f-8ea1-52cbb6642ede"},"vehicle_type_id":"4","last_reported":1691093219,"current_range_meters":28400,"station_id":"ce4bgv12rcd13ifvqcp0","pricing_plan_id":"free"},{"bike_id":"1a227ceb-fd43-4efb-ba59-203d67fe2810","system_id":"levelo_inurba_marseille","lat":43.311722,"lon":5.387247,"is_reserved":false,"is_disabled":false,"rental_uris":{"android":"levelo://app?vid=1a227ceb-fd43-4efb-ba59-203d67fe2810","ios":"levelo://app?vid=1a227ceb-fd43-4efb-ba59-203d67fe2810"},"vehicle_type_id":"4","last_reported":1691093219,"current_range_meters":6800,"station_id":"ce4bgv12rcd13ifvqcp0","pricing_plan_id":"free"},{"bike_id":"7cf1aab8-38a1-47db-af16-2123c0ca6e97","system_id":"levelo_inurba_marseille","lat":43.322872,"lon":5.382756,"is_reserved":false,"is_disabled":false,"rental_uris":{"android":"levelo://app?vid=7cf1aab8-38a1-47db-af16-2123c0ca6e97","ios":"levelo://app?vid=7cf1aab8-38a1-47db-af16-2123c0ca6e97"},"vehicle_type_id":"4","last_reported":1691093219,"current_range_meters":19600,"station_id":"ce4bhr12rcd13ifvqhqg","pricing_plan_id":"free"},{"bike_id":"fb4f6003-5761-4aa1-83e7-9bec0069ec17","system_id":"levelo_inurba_marseille","lat":43.32822,"lon":5.3669,"is_reserved":false,"is_disabled":false,"rental_uris":{"android":"levelo://app?vid=fb4f6003-5761-4aa1-83e7-9bec0069ec17","ios":"levelo://app?vid=fb4f6003-5761-4aa1-83e7-9bec0069ec17"},"vehicle_type_id":"4","last_reported":1691093219,"current_range_meters":4400,"station_id":"ce4bhs92rcd13ifvqi0g","pricing_plan_id":"free"},{"bike_id":"81467de6-2847-473e-9e69-32a4899f3166","system_id":"levelo_inurba_marseille","lat":43.3283,"lon":5.36682,"is_reserved":false,"is_disabled":false,"rental_uris":{"android":"levelo://app?vid=81467de6-2847-473e-9e69-32a4899f3166","ios":"levelo://app?vid=81467de6-2847-473e-9e69-32a4899f3166"},"vehicle_type_id":"4","last_reported":1691093219,"current_range_meters":12000,"station_id":"ce4bhs92rcd13ifvqi0g","pricing_plan_id":"free"},{"bike_id":"ca641f54-3d5a-4364-a5e2-fb3efce404d3","system_id":"levelo_inurba_marseille","lat":43.328309,"lon":5.366991,"is_reserved":false,"is_disabled":false,"rental_uris":{"android":"levelo://app?vid=ca641f54-3d5a-4364-a5e2-fb3efce404d3","ios":"levelo://app?vid=ca641f54-3d5a-4364-a5e2-fb3efce404d3"},"vehicle_type_id":"4","last_reported":1691093219,"current_range_meters":4800,"station_id":"ce4bhs92rcd13ifvqi0g","pricing_plan_id":"free"},{"bike_id":"dd789220-e7b5-42c1-b9dc-dc4243148021","system_id":"levelo_inurba_marseille","lat":43.297163,"lon":5.365866,"is_reserved":false,"is_disabled":false,"rental_uris":{"android":"levelo://app?vid=dd789220-e7b5-42c1-b9dc-dc4243148021","ios":"levelo://app?vid=dd789220-e7b5-42c1-b9dc-dc4243148021"},"vehicle_type_id":"4","last_reported":1691093219,"current_range_meters":31200,"station_id":"ce4bgn12rcd13ifvqbt0","pricing_plan_id":"free"},{"bike_id":"f6198eea-596f-43bd-8d44-fe02429ed013","system_id":"levelo_inurba_marseille","lat":43.31487,"lon":5.38904,"is_reserved":false,"is_disabled":false,"rental_uris":{"android":"levelo://app?vid=f6198eea-596f-43bd-8d44-fe02429ed013","ios":"levelo://app?vid=f6198eea-596f-43bd-8d44-fe02429ed013"},"vehicle_type_id":"4","last_reported":1691093219,"current_range_meters":13200,"station_id":"","pricing_plan_id":"free"},{"bike_id":"77b0097d-8056-43c1-a002-c8934ef569ad","system_id":"levelo_inurba_marseille","lat":43.2968,"lon":5.37291,"is_reserved":false,"is_disabled":false,"rental_uris":{"android":"levelo://app?vid=77b0097d-8056-43c1-a002-c8934ef569ad","ios":"levelo://app?vid=77b0097d-8056-43c1-a002-c8934ef569ad"},"vehicle_type_id":"4","last_reported":1691093219,"current_range_meters":400,"station_id":"ce4bgk12rcd13ifvqbj0","pricing_plan_id":"free"},{"bike_id":"f5d5175a-aff8-4a38-b359-8f25f16a199f","system_id":"levelo_inurba_marseille","lat":43.29685,"lon":5.37293,"is_reserved":false,"is_disabled":false,"rental_uris":{"android":"levelo://app?vid=f5d5175a-aff8-4a38-b359-8f25f16a199f","ios":"levelo://app?vid=f5d5175a-aff8-4a38-b359-8f25f16a199f"},"vehicle_type_id":"4","last_reported":1691093219,"current_range_meters":8800,"station_id":"","pricing_plan_id":"free"},{"bike_id":"b137f449-519e-4a56-8127-cc6d79e2fc13","system_id":"levelo_inurba_marseille","lat":43.2968,"lon":5.37291,"is_reserved":false,"is_disabled":false,"rental_uris":{"android":"levelo://app?vid=b137f449-519e-4a56-8127-cc6d79e2fc13","ios":"levelo://app?vid=b137f449-519e-4a56-8127-cc6d79e2fc13"},"vehicle_type_id":"4","last_reported":1691093219,"current_range_meters":22800,"station_id":"ce4bgk12rcd13ifvqbj0","pricing_plan_id":"free"},{"bike_id":"24846077-0001-441c-9749-bab6e5c3174f","system_id":"levelo_inurba_marseille","lat":43.2968,"lon":5.37291,"is_reserved":false,"is_disabled":false,"rental_uris":{"android":"levelo://app?vid=24846077-0001-441c-9749-bab6e5c3174f","ios":"levelo://app?vid=24846077-0001-441c-9749-bab6e5c3174f"},"vehicle_type_id":"4","last_reported":1691093219,"current_range_meters":22000,"station_id":"ce4bgk12rcd13ifvqbj0","pricing_plan_id":"free"},{"bike_id":"d5c92bb0-4c88-4b56-811f-dc1bb411dd69","system_id":"levelo_inurba_marseille","lat":43.2968,"lon":5.37291,"is_reserved":false,"is_disabled":false,"rental_uris":{"android":"levelo://app?vid=d5c92bb0-4c88-4b56-811f-dc1bb411dd69","ios":"levelo://app?vid=d5c92bb0-4c88-4b56-811f-dc1bb411dd69"},"vehicle_type_id":"4","last_reported":1691093219,"current_range_meters":1600,"station_id":"ce4bgk12rcd13ifvqbj0","pricing_plan_id":"free"},{"bike_id":"7a002659-ab2b-4f26-ae82-13bbad32ff62","system_id":"levelo_inurba_marseille","lat":43.296131,"lon":5.370791,"is_reserved":false,"is_disabled":false,"rental_uris":{"android":"levelo://app?vid=7a002659-ab2b-4f26-ae82-13bbad32ff62","ios":"levelo://app?vid=7a002659-ab2b-4f26-ae82-13bbad32ff62"},"vehicle_type_id":"4","last_reported":1691093219,"current_range_meters":20000,"station_id":"ce4bgnh2rcd13ifvqc0g","pricing_plan_id":"free"},{"bike_id":"4138eeb3-a6a3-445a-ace4-b46fe41329e6","system_id":"levelo_inurba_marseille","lat":43.29573,"lon":5.367355,"is_reserved":false,"is_disabled":false,"rental_uris":{"android":"levelo://app?vid=4138eeb3-a6a3-445a-ace4-b46fe41329e6","ios":"levelo://app?vid=4138eeb3-a6a3-445a-ace4-b46fe41329e6"},"vehicle_type_id":"4","last_reported":1691093219,"current_range_meters":16400,"station_id":"ce4bgph2rcd13ifvqc2g","pricing_plan_id":"free"},{"bike_id":"646f7bc5-7e9c-4c44-87e8-bea2b699fd90","system_id":"levelo_inurba_marseille","lat":43.2973,"lon":5.37689,"is_reserved":false,"is_disabled":false,"rental_uris":{"android":"levelo://app?vid=646f7bc5-7e9c-4c44-87e8-bea2b699fd90","ios":"levelo://app?vid=646f7bc5-7e9c-4c44-87e8-bea2b699fd90"},"vehicle_type_id":"4","last_reported":1691093219,"current_range_meters":0,"station_id":"ce4bgkh2rcd13ifvqbl0","pricing_plan_id":"free"},{"bike_id":"53832865-99a1-4ee1-8e79-cb3bb56424ab","system_id":"levelo_inurba_marseille","lat":43.299028,"lon":5.381509,"is_reserved":false,"is_disabled":false,"rental_uris":{"android":"levelo://app?vid=53832865-99a1-4ee1-8e79-cb3bb56424ab","ios":"levelo://app?vid=53832865-99a1-4ee1-8e79-cb3bb56424ab"},"vehicle_type_id":"4","last_reported":1691093219,"current_range_meters":16000,"station_id":"ce4bgj12rcd13ifvqbc0","pricing_plan_id":"free"},{"bike_id":"cfd1f911-22ec-4564-a874-db11276c2391","system_id":"levelo_inurba_marseille","lat":43.296921,"lon":5.376579,"is_reserved":false,"is_disabled":false,"rental_uris":{"android":"levelo://app?vid=cfd1f911-22ec-4564-a874-db11276c2391","ios":"levelo://app?vid=cfd1f911-22ec-4564-a874-db11276c2391"},"vehicle_type_id":"4","last_reported":1691093219,"current_range_meters":0,"station_id":"ce4bgkh2rcd13ifvqbl0","pricing_plan_id":"free"},{"bike_id":"885720b5-462e-45c4-b3b3-ed6e31dd2349","system_id":"levelo_inurba_marseille","lat":43.299028,"lon":5.381509,"is_reserved":false,"is_disabled":false,"rental_uris":{"android":"levelo://app?vid=885720b5-462e-45c4-b3b3-ed6e31dd2349","ios":"levelo://app?vid=885720b5-462e-45c4-b3b3-ed6e31dd2349"},"vehicle_type_id":"4","last_reported":1691093219,"current_range_meters":0,"station_id":"ce4bgj12rcd13ifvqbc0","pricing_plan_id":"free"},{"bike_id":"6234c6c3-465a-4430-bdaa-cffd9cdd1164","system_id":"levelo_inurba_marseille","lat":43.299028,"lon":5.381509,"is_reserved":false,"is_disabled":false,"rental_uris":{"android":"levelo://app?vid=6234c6c3-465a-4430-bdaa-cffd9cdd1164","ios":"levelo://app?vid=6234c6c3-465a-4430-bdaa-cffd9cdd1164"},"vehicle_type_id":"4","last_reported":1691093219,"current_range_meters":30400,"station_id":"ce4bgj12rcd13ifvqbc0","pricing_plan_id":"free"},{"bike_id":"6e55e1a6-795a-4e76-93ee-65764b04b1bf","system_id":"levelo_inurba_marseille","lat":43.3095,"lon":5.39029,"is_reserved":false,"is_disabled":false,"rental_uris":{"android":"levelo://app?vid=6e55e1a6-795a-4e76-93ee-65764b04b1bf","ios":"levelo://app?vid=6e55e1a6-795a-4e76-93ee-65764b04b1bf"},"vehicle_type_id":"4","last_reported":1691093219,"current_range_meters":27200,"station_id":"ce4bgup2rcd13ifvqco0","pricing_plan_id":"free"},{"bike_id":"f0b1921d-8fc5-42f6-8214-26455e772ce5","system_id":"levelo_inurba_marseille","lat":43.309589,"lon":5.390258,"is_reserved":false,"is_disabled":false,"rental_uris":{"android":"levelo://app?vid=f0b1921d-8fc5-42f6-8214-26455e772ce5","ios":"levelo://app?vid=f0b1921d-8fc5-42f6-8214-26455e772ce5"},"vehicle_type_id":"4","last_reported":1691093219,"current_range_meters":26400,"station_id":"ce4bgup2rcd13ifvqco0","pricing_plan_id":"free"},{"bike_id":"0100a760-a385-410b-bab6-5e8ca4176928","system_id":"levelo_inurba_marseille","lat":43.30957,"lon":5.39039,"is_reserved":false,"is_disabled":false,"rental_uris":{"android":"levelo://app?vid=0100a760-a385-410b-bab6-5e8ca4176928","ios":"levelo://app?vid=0100a760-a385-410b-bab6-5e8ca4176928"},"vehicle_type_id":"4","last_reported":1691093219,"current_range_meters":5600,"station_id":"ce4bgup2rcd13ifvqco0","pricing_plan_id":"free"},{"bike_id":"1056c3a1-74f5-4926-be69-e4bc0d68c190","system_id":"levelo_inurba_marseille","lat":43.31506,"lon":5.39061,"is_reserved":false,"is_disabled":false,"rental_uris":{"android":"levelo://app?vid=1056c3a1-74f5-4926-be69-e4bc0d68c190","ios":"levelo://app?vid=1056c3a1-74f5-4926-be69-e4bc0d68c190"},"vehicle_type_id":"4","last_reported":1691093219,"current_range_meters":30400,"station_id":"ce4bh112rcd13ifvqda0","pricing_plan_id":"free"},{"bike_id":"59585ab3-ab81-4ac9-b75f-8c42b3af0eb9","system_id":"levelo_inurba_marseille","lat":43.317557,"lon":5.390173,"is_reserved":false,"is_disabled":false,"rental_uris":{"android":"levelo://app?vid=59585ab3-ab81-4ac9-b75f-8c42b3af0eb9","ios":"levelo://app?vid=59585ab3-ab81-4ac9-b75f-8c42b3af0eb9"},"vehicle_type_id":"4","last_reported":1691093219,"current_range_meters":18800,"station_id":"ce4bhqp2rcd13ifvqhng","pricing_plan_id":"free"},{"bike_id":"c1066db3-31fa-407b-a45f-eec66168b11e","system_id":"levelo_inurba_marseille","lat":43.31759,"lon":5.39011,"is_reserved":false,"is_disabled":false,"rental_uris":{"android":"levelo://app?vid=c1066db3-31fa-407b-a45f-eec66168b11e","ios":"levelo://app?vid=c1066db3-31fa-407b-a45f-eec66168b11e"},"vehicle_type_id":"4","last_reported":1691093219,"current_range_meters":4000,"station_id":"ce4bhqp2rcd13ifvqhng","pricing_plan_id":"free"},{"bike_id":"33e2c390-800e-493e-b560-bc238e79e704","system_id":"levelo_inurba_marseille","lat":43.317557,"lon":5.390173,"is_reserved":false,"is_disabled":false,"rental_uris":{"android":"levelo://app?vid=33e2c390-800e-493e-b560-bc238e79e704","ios":"levelo://app?vid=33e2c390-800e-493e-b560-bc238e79e704"},"vehicle_type_id":"4","last_reported":1691093219,"current_range_meters":14400,"station_id":"ce4bhqp2rcd13ifvqhng","pricing_plan_id":"free"},{"bike_id":"a2732b9d-f669-48a3-9640-a486c2759fce","system_id":"levelo_inurba_marseille","lat":43.317557,"lon":5.390173,"is_reserved":false,"is_disabled":false,"rental_uris":{"android":"levelo://app?vid=a2732b9d-f669-48a3-9640-a486c2759fce","ios":"levelo://app?vid=a2732b9d-f669-48a3-9640-a486c2759fce"},"vehicle_type_id":"4","last_reported":1691093219,"current_range_meters":28400,"station_id":"ce4bhqp2rcd13ifvqhng","pricing_plan_id":"free"},{"bike_id":"d40f1646-0d47-4e78-a6a7-c218afec7bec","system_id":"levelo_inurba_marseille","lat":43.298037,"lon":5.381066,"is_reserved":false,"is_disabled":false,"rental_uris":{"android":"levelo://app?vid=d40f1646-0d47-4e78-a6a7-c218afec7bec","ios":"levelo://app?vid=d40f1646-0d47-4e78-a6a7-c218afec7bec"},"vehicle_type_id":"4","last_reported":1691093219,"current_range_meters":4800,"station_id":"ce4bgip2rcd13ifvqbb0","pricing_plan_id":"free"},{"bike_id":"8c45ca54-657a-4cef-94a7-745c971cd93c","system_id":"levelo_inurba_marseille","lat":43.298037,"lon":5.381066,"is_reserved":false,"is_disabled":false,"rental_uris":{"android":"levelo://app?vid=8c45ca54-657a-4cef-94a7-745c971cd93c","ios":"levelo://app?vid=8c45ca54-657a-4cef-94a7-745c971cd93c"},"vehicle_type_id":"4","last_reported":1691093219,"current_range_meters":4400,"station_id":"ce4bgip2rcd13ifvqbb0","pricing_plan_id":"free"},{"bike_id":"e4ea2e6a-6944-4b16-bf72-80a126493f49","system_id":"levelo_inurba_marseille","lat":43.298037,"lon":5.381066,"is_reserved":false,"is_disabled":false,"rental_uris":{"android":"levelo://app?vid=e4ea2e6a-6944-4b16-bf72-80a126493f49","ios":"levelo://app?vid=e4ea2e6a-6944-4b16-bf72-80a126493f49"},"vehicle_type_id":"4","last_reported":1691093219,"current_range_meters":7600,"station_id":"ce4bgip2rcd13ifvqbb0","pricing_plan_id":"free"},{"bike_id":"2ab24d27-4c93-4a9b-b53d-00bd8147d826","system_id":"levelo_inurba_marseille","lat":43.3043,"lon":5.3888,"is_reserved":false,"is_disabled":false,"rental_uris":{"android":"levelo://app?vid=2ab24d27-4c93-4a9b-b53d-00bd8147d826","ios":"levelo://app?vid=2ab24d27-4c93-4a9b-b53d-00bd8147d826"},"vehicle_type_id":"4","last_reported":1691093219,"current_range_meters":6000,"station_id":"ce4bgk12rcd13ifvqbi0","pricing_plan_id":"free"},{"bike_id":"4a301641-e7e7-4916-9718-b2287e18cfe6","system_id":"levelo_inurba_marseille","lat":43.30433,"lon":5.38893,"is_reserved":false,"is_disabled":false,"rental_uris":{"android":"levelo://app?vid=4a301641-e7e7-4916-9718-b2287e18cfe6","ios":"levelo://app?vid=4a301641-e7e7-4916-9718-b2287e18cfe6"},"vehicle_type_id":"4","last_reported":1691093219,"current_range_meters":28400,"station_id":"ce4bgk12rcd13ifvqbi0","pricing_plan_id":"free"},{"bike_id":"4598ab54-9529-4650-9146-85aeb3f555b6","system_id":"levelo_inurba_marseille","lat":43.30428,"lon":5.38891,"is_reserved":false,"is_disabled":false,"rental_uris":{"android":"levelo://app?vid=4598ab54-9529-4650-9146-85aeb3f555b6","ios":"levelo://app?vid=4598ab54-9529-4650-9146-85aeb3f555b6"},"vehicle_type_id":"4","last_reported":1691093219,"current_range_meters":1200,"station_id":"ce4bgk12rcd13ifvqbi0","pricing_plan_id":"free"},{"bike_id":"fbb4d08f-7e48-404d-9e7e-d4b03cb75520","system_id":"levelo_inurba_marseille","lat":43.304274,"lon":5.388873,"is_reserved":false,"is_disabled":false,"rental_uris":{"android":"levelo://app?vid=fbb4d08f-7e48-404d-9e7e-d4b03cb75520","ios":"levelo://app?vid=fbb4d08f-7e48-404d-9e7e-d4b03cb75520"},"vehicle_type_id":"4","last_reported":1691093219,"current_range_meters":0,"station_id":"ce4bgk12rcd13ifvqbi0","pricing_plan_id":"free"},{"bike_id":"2bb606fe-80b2-4ce2-bb55-c061e382958f","system_id":"levelo_inurba_marseille","lat":43.295713,"lon":5.399639,"is_reserved":false,"is_disabled":false,"rental_uris":{"android":"levelo://app?vid=2bb606fe-80b2-4ce2-bb55-c061e382958f","ios":"levelo://app?vid=2bb606fe-80b2-4ce2-bb55-c061e382958f"},"vehicle_type_id":"4","last_reported":1691093219,"current_range_meters":8400,"station_id":"ce4bh312rcd13ifvqdj0","pricing_plan_id":"free"},{"bike_id":"8e258f1b-6b8b-45a4-b652-e6b561efd19e","system_id":"levelo_inurba_marseille","lat":43.29977,"lon":5.38487,"is_reserved":false,"is_disabled":false,"rental_uris":{"android":"levelo://app?vid=8e258f1b-6b8b-45a4-b652-e6b561efd19e","ios":"levelo://app?vid=8e258f1b-6b8b-45a4-b652-e6b561efd19e"},"vehicle_type_id":"4","last_reported":1691093219,"current_range_meters":12800,"station_id":"ce4bgj92rcd13ifvqbd0","pricing_plan_id":"free"},{"bike_id":"ee373f4b-d04e-43ef-92b8-3105e264ba5d","system_id":"levelo_inurba_marseille","lat":43.32362,"lon":5.38878,"is_reserved":false,"is_disabled":false,"rental_uris":{"android":"levelo://app?vid=ee373f4b-d04e-43ef-92b8-3105e264ba5d","ios":"levelo://app?vid=ee373f4b-d04e-43ef-92b8-3105e264ba5d"},"vehicle_type_id":"4","last_reported":1691093219,"current_range_meters":31200,"station_id":"ce4bhqp2rcd13ifvqhog","pricing_plan_id":"free"},{"bike_id":"153806a9-c106-4acb-8efe-f81ba29b58d3","system_id":"levelo_inurba_marseille","lat":43.32368,"lon":5.38875,"is_reserved":false,"is_disabled":false,"rental_uris":{"android":"levelo://app?vid=153806a9-c106-4acb-8efe-f81ba29b58d3","ios":"levelo://app?vid=153806a9-c106-4acb-8efe-f81ba29b58d3"},"vehicle_type_id":"4","last_reported":1691093219,"current_range_meters":31200,"station_id":"ce4bhqp2rcd13ifvqhog","pricing_plan_id":"free"},{"bike_id":"e7413cb7-8520-4af3-81db-d2b3ba5a040f","system_id":"levelo_inurba_marseille","lat":43.32365,"lon":5.38878,"is_reserved":false,"is_disabled":false,"rental_uris":{"android":"levelo://app?vid=e7413cb7-8520-4af3-81db-d2b3ba5a040f","ios":"levelo://app?vid=e7413cb7-8520-4af3-81db-d2b3ba5a040f"},"vehicle_type_id":"4","last_reported":1691093219,"current_range_meters":1200,"station_id":"ce4bhqp2rcd13ifvqhog","pricing_plan_id":"free"},{"bike_id":"b0c7ca86-ee56-4d5b-8ef5-0c1132701ee5","system_id":"levelo_inurba_marseille","lat":43.323655,"lon":5.388789,"is_reserved":false,"is_disabled":false,"rental_uris":{"android":"levelo://app?vid=b0c7ca86-ee56-4d5b-8ef5-0c1132701ee5","ios":"levelo://app?vid=b0c7ca86-ee56-4d5b-8ef5-0c1132701ee5"},"vehicle_type_id":"4","last_reported":1691093219,"current_range_meters":30000,"station_id":"ce4bhqp2rcd13ifvqhog","pricing_plan_id":"free"},{"bike_id":"3205d0e9-dc07-44ba-8cfe-0b5a882e32d0","system_id":"levelo_inurba_marseille","lat":43.32367,"lon":5.388836,"is_reserved":false,"is_disabled":false,"rental_uris":{"android":"levelo://app?vid=3205d0e9-dc07-44ba-8cfe-0b5a882e32d0","ios":"levelo://app?vid=3205d0e9-dc07-44ba-8cfe-0b5a882e32d0"},"vehicle_type_id":"4","last_reported":1691093219,"current_range_meters":30400,"station_id":"ce4bhqp2rcd13ifvqhog","pricing_plan_id":"free"},{"bike_id":"5f1c231d-5549-420b-a974-1b1406435a60","system_id":"levelo_inurba_marseille","lat":43.32367,"lon":5.388836,"is_reserved":false,"is_disabled":false,"rental_uris":{"android":"levelo://app?vid=5f1c231d-5549-420b-a974-1b1406435a60","ios":"levelo://app?vid=5f1c231d-5549-420b-a974-1b1406435a60"},"vehicle_type_id":"4","last_reported":1691093219,"current_range_meters":30800,"station_id":"ce4bhqp2rcd13ifvqhog","pricing_plan_id":"free"},{"bike_id":"83cbeb62-988f-4ba1-ad60-d05472bccfe3","system_id":"levelo_inurba_marseille","lat":43.32365,"lon":5.38884,"is_reserved":false,"is_disabled":false,"rental_uris":{"android":"levelo://app?vid=83cbeb62-988f-4ba1-ad60-d05472bccfe3","ios":"levelo://app?vid=83cbeb62-988f-4ba1-ad60-d05472bccfe3"},"vehicle_type_id":"4","last_reported":1691093219,"current_range_meters":1200,"station_id":"ce4bhqp2rcd13ifvqhog","pricing_plan_id":"free"},{"bike_id":"07531f33-29bc-4432-9204-831fa945154d","system_id":"levelo_inurba_marseille","lat":43.32367,"lon":5.388836,"is_reserved":false,"is_disabled":false,"rental_uris":{"android":"levelo://app?vid=07531f33-29bc-4432-9204-831fa945154d","ios":"levelo://app?vid=07531f33-29bc-4432-9204-831fa945154d"},"vehicle_type_id":"4","last_reported":1691093219,"current_range_meters":31200,"station_id":"ce4bhqp2rcd13ifvqhog","pricing_plan_id":"free"},{"bike_id":"83e40035-5ae5-4bb2-89ae-adf2ef147026","system_id":"levelo_inurba_marseille","lat":43.323676,"lon":5.388816,"is_reserved":false,"is_disabled":false,"rental_uris":{"android":"levelo://app?vid=83e40035-5ae5-4bb2-89ae-adf2ef147026","ios":"levelo://app?vid=83e40035-5ae5-4bb2-89ae-adf2ef147026"},"vehicle_type_id":"4","last_reported":1691093219,"current_range_meters":14000,"station_id":"","pricing_plan_id":"free"},{"bike_id":"be3b9c7a-ef73-47f2-8a40-38431e709cbe","system_id":"levelo_inurba_marseille","lat":43.32369,"lon":5.38883,"is_reserved":false,"is_disabled":false,"rental_uris":{"android":"levelo://app?vid=be3b9c7a-ef73-47f2-8a40-38431e709cbe","ios":"levelo://app?vid=be3b9c7a-ef73-47f2-8a40-38431e709cbe"},"vehicle_type_id":"4","last_reported":1691093219,"current_range_meters":30800,"station_id":"ce4bhqp2rcd13ifvqhog","pricing_plan_id":"free"},{"bike_id":"3d2edb57-516f-41bc-985e-42a721904578","system_id":"levelo_inurba_marseille","lat":43.32367,"lon":5.388836,"is_reserved":false,"is_disabled":false,"rental_uris":{"android":"levelo://app?vid=3d2edb57-516f-41bc-985e-42a721904578","ios":"levelo://app?vid=3d2edb57-516f-41bc-985e-42a721904578"},"vehicle_type_id":"4","last_reported":1691093219,"current_range_meters":29600,"station_id":"ce4bhqp2rcd13ifvqhog","pricing_plan_id":"free"},{"bike_id":"0096218a-32f1-4ad1-a7f6-a83210e4e020","system_id":"levelo_inurba_marseille","lat":43.32373,"lon":5.38882,"is_reserved":false,"is_disabled":false,"rental_uris":{"android":"levelo://app?vid=0096218a-32f1-4ad1-a7f6-a83210e4e020","ios":"levelo://app?vid=0096218a-32f1-4ad1-a7f6-a83210e4e020"},"vehicle_type_id":"4","last_reported":1691093219,"current_range_meters":31200,"station_id":"ce4bhqp2rcd13ifvqhog","pricing_plan_id":"free"},{"bike_id":"660de016-7b00-4735-9d75-3ae99d5de62d","system_id":"levelo_inurba_marseille","lat":43.32364,"lon":5.38891,"is_reserved":false,"is_disabled":false,"rental_uris":{"android":"levelo://app?vid=660de016-7b00-4735-9d75-3ae99d5de62d","ios":"levelo://app?vid=660de016-7b00-4735-9d75-3ae99d5de62d"},"vehicle_type_id":"4","last_reported":1691093219,"current_range_meters":30000,"station_id":"ce4bhqp2rcd13ifvqhog","pricing_plan_id":"free"},{"bike_id":"6be534a9-96c6-4989-b3bb-e9dea76376c4","system_id":"levelo_inurba_marseille","lat":43.32367,"lon":5.388836,"is_reserved":false,"is_disabled":false,"rental_uris":{"android":"levelo://app?vid=6be534a9-96c6-4989-b3bb-e9dea76376c4","ios":"levelo://app?vid=6be534a9-96c6-4989-b3bb-e9dea76376c4"},"vehicle_type_id":"4","last_reported":1691093219,"current_range_meters":15200,"station_id":"ce4bhqp2rcd13ifvqhog","pricing_plan_id":"free"},{"bike_id":"ea8035d1-28fe-43e1-9f00-12a102f9e97f","system_id":"levelo_inurba_marseille","lat":43.32367,"lon":5.388836,"is_reserved":false,"is_disabled":false,"rental_uris":{"android":"levelo://app?vid=ea8035d1-28fe-43e1-9f00-12a102f9e97f","ios":"levelo://app?vid=ea8035d1-28fe-43e1-9f00-12a102f9e97f"},"vehicle_type_id":"4","last_reported":1691093219,"current_range_meters":27600,"station_id":"ce4bhqp2rcd13ifvqhog","pricing_plan_id":"free"},{"bike_id":"8302eeba-1a7c-4b0b-af87-29f1cf9b8a06","system_id":"levelo_inurba_marseille","lat":43.32367,"lon":5.388836,"is_reserved":false,"is_disabled":false,"rental_uris":{"android":"levelo://app?vid=8302eeba-1a7c-4b0b-af87-29f1cf9b8a06","ios":"levelo://app?vid=8302eeba-1a7c-4b0b-af87-29f1cf9b8a06"},"vehicle_type_id":"4","last_reported":1691093219,"current_range_meters":30800,"station_id":"ce4bhqp2rcd13ifvqhog","pricing_plan_id":"free"},{"bike_id":"6889019c-cbc2-41d8-95c1-d20e72bb20c4","system_id":"levelo_inurba_marseille","lat":43.29601,"lon":5.381084,"is_reserved":false,"is_disabled":false,"rental_uris":{"android":"levelo://app?vid=6889019c-cbc2-41d8-95c1-d20e72bb20c4","ios":"levelo://app?vid=6889019c-cbc2-41d8-95c1-d20e72bb20c4"},"vehicle_type_id":"4","last_reported":1691093219,"current_range_meters":8800,"station_id":"ce4bgl12rcd13ifvqbo0","pricing_plan_id":"free"},{"bike_id":"8726dd29-053e-4f78-9c47-2df4e02b2b6b","system_id":"levelo_inurba_marseille","lat":43.29601,"lon":5.381084,"is_reserved":false,"is_disabled":false,"rental_uris":{"android":"levelo://app?vid=8726dd29-053e-4f78-9c47-2df4e02b2b6b","ios":"levelo://app?vid=8726dd29-053e-4f78-9c47-2df4e02b2b6b"},"vehicle_type_id":"4","last_reported":1691093219,"current_range_meters":22400,"station_id":"ce4bgl12rcd13ifvqbo0","pricing_plan_id":"free"},{"bike_id":"5374fd9a-8006-4581-a076-ccad5fc04478","system_id":"levelo_inurba_marseille","lat":43.29601,"lon":5.381084,"is_reserved":false,"is_disabled":false,"rental_uris":{"android":"levelo://app?vid=5374fd9a-8006-4581-a076-ccad5fc04478","ios":"levelo://app?vid=5374fd9a-8006-4581-a076-ccad5fc04478"},"vehicle_type_id":"4","last_reported":1691093219,"current_range_meters":14800,"station_id":"ce4bgl12rcd13ifvqbo0","pricing_plan_id":"free"},{"bike_id":"59d9fa74-7ac7-49ac-ba9d-37ce01c48dda","system_id":"levelo_inurba_marseille","lat":43.29601,"lon":5.381084,"is_reserved":false,"is_disabled":false,"rental_uris":{"android":"levelo://app?vid=59d9fa74-7ac7-49ac-ba9d-37ce01c48dda","ios":"levelo://app?vid=59d9fa74-7ac7-49ac-ba9d-37ce01c48dda"},"vehicle_type_id":"4","last_reported":1691093219,"current_range_meters":22800,"station_id":"ce4bgl12rcd13ifvqbo0","pricing_plan_id":"free"},{"bike_id":"5766c337-6c33-456f-922f-0667fea1f7f5","system_id":"levelo_inurba_marseille","lat":43.29598,"lon":5.38102,"is_reserved":false,"is_disabled":false,"rental_uris":{"android":"levelo://app?vid=5766c337-6c33-456f-922f-0667fea1f7f5","ios":"levelo://app?vid=5766c337-6c33-456f-922f-0667fea1f7f5"},"vehicle_type_id":"4","last_reported":1691093219,"current_range_meters":6400,"station_id":"","pricing_plan_id":"free"},{"bike_id":"60c1bc45-963d-4129-95c0-34ab4f250c13","system_id":"levelo_inurba_marseille","lat":43.29602,"lon":5.381084,"is_reserved":false,"is_disabled":false,"rental_uris":{"android":"levelo://app?vid=60c1bc45-963d-4129-95c0-34ab4f250c13","ios":"levelo://app?vid=60c1bc45-963d-4129-95c0-34ab4f250c13"},"vehicle_type_id":"4","last_reported":1691093219,"current_range_meters":24000,"station_id":"ce4bgl12rcd13ifvqbo0","pricing_plan_id":"free"},{"bike_id":"dedef24d-e63e-4527-bc89-3ae0e6953e76","system_id":"levelo_inurba_marseille","lat":43.293249,"lon":5.371578,"is_reserved":false,"is_disabled":false,"rental_uris":{"android":"levelo://app?vid=dedef24d-e63e-4527-bc89-3ae0e6953e76","ios":"levelo://app?vid=dedef24d-e63e-4527-bc89-3ae0e6953e76"},"vehicle_type_id":"4","last_reported":1691093219,"current_range_meters":30400,"station_id":"ce4bgh92rcd13ifvqb40","pricing_plan_id":"free"},{"bike_id":"2ceabdef-4d0d-4276-950a-9c6f418a1d8e","system_id":"levelo_inurba_marseille","lat":43.29302,"lon":5.37179,"is_reserved":false,"is_disabled":false,"rental_uris":{"android":"levelo://app?vid=2ceabdef-4d0d-4276-950a-9c6f418a1d8e","ios":"levelo://app?vid=2ceabdef-4d0d-4276-950a-9c6f418a1d8e"},"vehicle_type_id":"4","last_reported":1691093219,"current_range_meters":24800,"station_id":"ce4bgh92rcd13ifvqb40","pricing_plan_id":"free"},{"bike_id":"13de83cf-7d9e-48a0-9521-85916fc8dc4c","system_id":"levelo_inurba_marseille","lat":43.30276,"lon":5.39128,"is_reserved":false,"is_disabled":false,"rental_uris":{"android":"levelo://app?vid=13de83cf-7d9e-48a0-9521-85916fc8dc4c","ios":"levelo://app?vid=13de83cf-7d9e-48a0-9521-85916fc8dc4c"},"vehicle_type_id":"4","last_reported":1691093219,"current_range_meters":8400,"station_id":"ce4bgkh2rcd13ifvqbk0","pricing_plan_id":"free"},{"bike_id":"d8d52925-8f93-4f0c-97d2-d992dacbd12b","system_id":"levelo_inurba_marseille","lat":43.293009,"lon":5.374584,"is_reserved":false,"is_disabled":false,"rental_uris":{"android":"levelo://app?vid=d8d52925-8f93-4f0c-97d2-d992dacbd12b","ios":"levelo://app?vid=d8d52925-8f93-4f0c-97d2-d992dacbd12b"},"vehicle_type_id":"4","last_reported":1691093219,"current_range_meters":6000,"station_id":"ce4bgi12rcd13ifvqb70","pricing_plan_id":"free"},{"bike_id":"865d94af-a8d5-4bc8-aacc-66a0c1a6cc38","system_id":"levelo_inurba_marseille","lat":43.305994,"lon":5.393687,"is_reserved":false,"is_disabled":false,"rental_uris":{"android":"levelo://app?vid=865d94af-a8d5-4bc8-aacc-66a0c1a6cc38","ios":"levelo://app?vid=865d94af-a8d5-4bc8-aacc-66a0c1a6cc38"},"vehicle_type_id":"4","last_reported":1691093219,"current_range_meters":17200,"station_id":"ce4bh0p2rcd13ifvqd80","pricing_plan_id":"free"},{"bike_id":"18bfeed2-d689-49be-a3d6-7e7708ec2b59","system_id":"levelo_inurba_marseille","lat":43.305994,"lon":5.393687,"is_reserved":false,"is_disabled":false,"rental_uris":{"android":"levelo://app?vid=18bfeed2-d689-49be-a3d6-7e7708ec2b59","ios":"levelo://app?vid=18bfeed2-d689-49be-a3d6-7e7708ec2b59"},"vehicle_type_id":"4","last_reported":1691093219,"current_range_meters":22800,"station_id":"ce4bh0p2rcd13ifvqd80","pricing_plan_id":"free"},{"bike_id":"80fc1ae6-8d90-4379-8187-1226764cbfe9","system_id":"levelo_inurba_marseille","lat":43.292663,"lon":5.376394,"is_reserved":false,"is_disabled":false,"rental_uris":{"android":"levelo://app?vid=80fc1ae6-8d90-4379-8187-1226764cbfe9","ios":"levelo://app?vid=80fc1ae6-8d90-4379-8187-1226764cbfe9"},"vehicle_type_id":"4","last_reported":1691093219,"current_range_meters":26000,"station_id":"ce4bgi12rcd13ifvqb80","pricing_plan_id":"free"},{"bike_id":"dfeb04db-12cf-48bc-b5fc-2fda8cd448f6","system_id":"levelo_inurba_marseille","lat":43.298857,"lon":5.389091,"is_reserved":false,"is_disabled":false,"rental_uris":{"android":"levelo://app?vid=dfeb04db-12cf-48bc-b5fc-2fda8cd448f6","ios":"levelo://app?vid=dfeb04db-12cf-48bc-b5fc-2fda8cd448f6"},"vehicle_type_id":"4","last_reported":1691093219,"current_range_meters":15600,"station_id":"ce4bh392rcd13ifvqdl0","pricing_plan_id":"free"},{"bike_id":"32fda799-4d18-481b-adab-af168b3bf6a3","system_id":"levelo_inurba_marseille","lat":43.29882,"lon":5.38908,"is_reserved":false,"is_disabled":false,"rental_uris":{"android":"levelo://app?vid=32fda799-4d18-481b-adab-af168b3bf6a3","ios":"levelo://app?vid=32fda799-4d18-481b-adab-af168b3bf6a3"},"vehicle_type_id":"4","last_reported":1691093219,"current_range_meters":0,"station_id":"ce4bh392rcd13ifvqdl0","pricing_plan_id":"free"},{"bike_id":"c6d51ee1-15e1-46de-8313-32d3220fe0bb","system_id":"levelo_inurba_marseille","lat":43.31325,"lon":5.39691,"is_reserved":false,"is_disabled":false,"rental_uris":{"android":"levelo://app?vid=c6d51ee1-15e1-46de-8313-32d3220fe0bb","ios":"levelo://app?vid=c6d51ee1-15e1-46de-8313-32d3220fe0bb"},"vehicle_type_id":"4","last_reported":1691093219,"current_range_meters":14400,"station_id":"ce4bgvp2rcd13ifvqcu0","pricing_plan_id":"free"},{"bike_id":"6892b0b6-a11f-494e-89c9-02e8f6fb3c65","system_id":"levelo_inurba_marseille","lat":43.31321,"lon":5.39696,"is_reserved":false,"is_disabled":false,"rental_uris":{"android":"levelo://app?vid=6892b0b6-a11f-494e-89c9-02e8f6fb3c65","ios":"levelo://app?vid=6892b0b6-a11f-494e-89c9-02e8f6fb3c65"},"vehicle_type_id":"4","last_reported":1691093219,"current_range_meters":15600,"station_id":"ce4bgvp2rcd13ifvqcu0","pricing_plan_id":"free"},{"bike_id":"9f062d7c-9fb9-4e46-91a6-a92e0ed2bd9a","system_id":"levelo_inurba_marseille","lat":43.29185,"lon":5.35803,"is_reserved":false,"is_disabled":false,"rental_uris":{"android":"levelo://app?vid=9f062d7c-9fb9-4e46-91a6-a92e0ed2bd9a","ios":"levelo://app?vid=9f062d7c-9fb9-4e46-91a6-a92e0ed2bd9a"},"vehicle_type_id":"4","last_reported":1691093219,"current_range_meters":31200,"station_id":"ce4bhb12rcd13ifvqel0","pricing_plan_id":"free"},{"bike_id":"431cca29-48cb-4753-a29a-9eaadf5356d0","system_id":"levelo_inurba_marseille","lat":43.30886,"lon":5.39652,"is_reserved":false,"is_disabled":false,"rental_uris":{"android":"levelo://app?vid=431cca29-48cb-4753-a29a-9eaadf5356d0","ios":"levelo://app?vid=431cca29-48cb-4753-a29a-9eaadf5356d0"},"vehicle_type_id":"4","last_reported":1691093219,"current_range_meters":800,"station_id":"ce4bh012rcd13ifvqcv0","pricing_plan_id":"free"},{"bike_id":"5b5402ce-4599-4279-9483-2e1c700faf39","system_id":"levelo_inurba_marseille","lat":43.29184,"lon":5.35799,"is_reserved":false,"is_disabled":false,"rental_uris":{"android":"levelo://app?vid=5b5402ce-4599-4279-9483-2e1c700faf39","ios":"levelo://app?vid=5b5402ce-4599-4279-9483-2e1c700faf39"},"vehicle_type_id":"4","last_reported":1691093219,"current_range_meters":31200,"station_id":"ce4bhb12rcd13ifvqel0","pricing_plan_id":"free"},{"bike_id":"fae66b79-7bca-4865-9024-bf8b1e33c1ab","system_id":"levelo_inurba_marseille","lat":43.29176,"lon":5.35809,"is_reserved":false,"is_disabled":false,"rental_uris":{"android":"levelo://app?vid=fae66b79-7bca-4865-9024-bf8b1e33c1ab","ios":"levelo://app?vid=fae66b79-7bca-4865-9024-bf8b1e33c1ab"},"vehicle_type_id":"4","last_reported":1691093219,"current_range_meters":31200,"station_id":"ce4bhb12rcd13ifvqel0","pricing_plan_id":"free"},{"bike_id":"02ac20eb-a4fe-47d8-a4b9-2bf13574753a","system_id":"levelo_inurba_marseille","lat":43.29532,"lon":5.3854,"is_reserved":false,"is_disabled":false,"rental_uris":{"android":"levelo://app?vid=02ac20eb-a4fe-47d8-a4b9-2bf13574753a","ios":"levelo://app?vid=02ac20eb-a4fe-47d8-a4b9-2bf13574753a"},"vehicle_type_id":"4","last_reported":1691093219,"current_range_meters":29200,"station_id":"ce4bgih2rcd13ifvqba0","pricing_plan_id":"free"},{"bike_id":"597a6575-a390-464d-85df-524ac39db09a","system_id":"levelo_inurba_marseille","lat":43.29529,"lon":5.385581,"is_reserved":false,"is_disabled":false,"rental_uris":{"android":"levelo://app?vid=597a6575-a390-464d-85df-524ac39db09a","ios":"levelo://app?vid=597a6575-a390-464d-85df-524ac39db09a"},"vehicle_type_id":"4","last_reported":1691093219,"current_range_meters":23600,"station_id":"ce4bgih2rcd13ifvqba0","pricing_plan_id":"free"},{"bike_id":"74283971-371e-4925-91e3-0dcf8316883b","system_id":"levelo_inurba_marseille","lat":43.29529,"lon":5.385581,"is_reserved":false,"is_disabled":false,"rental_uris":{"android":"levelo://app?vid=74283971-371e-4925-91e3-0dcf8316883b","ios":"levelo://app?vid=74283971-371e-4925-91e3-0dcf8316883b"},"vehicle_type_id":"4","last_reported":1691093219,"current_range_meters":31600,"station_id":"ce4bgih2rcd13ifvqba0","pricing_plan_id":"free"},{"bike_id":"792bed91-2879-435e-b610-31bcf9230f66","system_id":"levelo_inurba_marseille","lat":43.29528,"lon":5.38543,"is_reserved":false,"is_disabled":false,"rental_uris":{"android":"levelo://app?vid=792bed91-2879-435e-b610-31bcf9230f66","ios":"levelo://app?vid=792bed91-2879-435e-b610-31bcf9230f66"},"vehicle_type_id":"4","last_reported":1691093219,"current_range_meters":0,"station_id":"ce4bgih2rcd13ifvqba0","pricing_plan_id":"free"},{"bike_id":"a703022b-ae62-4aac-813d-45859feec2cf","system_id":"levelo_inurba_marseille","lat":43.29529,"lon":5.38554,"is_reserved":false,"is_disabled":false,"rental_uris":{"android":"levelo://app?vid=a703022b-ae62-4aac-813d-45859feec2cf","ios":"levelo://app?vid=a703022b-ae62-4aac-813d-45859feec2cf"},"vehicle_type_id":"4","last_reported":1691093219,"current_range_meters":27200,"station_id":"ce4bgih2rcd13ifvqba0","pricing_plan_id":"free"},{"bike_id":"dcc0d122-574b-4243-8ddc-eaa71284139d","system_id":"levelo_inurba_marseille","lat":43.290779,"lon":5.371482,"is_reserved":false,"is_disabled":false,"rental_uris":{"android":"levelo://app?vid=dcc0d122-574b-4243-8ddc-eaa71284139d","ios":"levelo://app?vid=dcc0d122-574b-4243-8ddc-eaa71284139d"},"vehicle_type_id":"4","last_reported":1691093219,"current_range_meters":1200,"station_id":"ce4bh5p2rcd13ifvqe4g","pricing_plan_id":"free"},{"bike_id":"1d958b84-696a-4eef-9b47-3f1cc309b7dd","system_id":"levelo_inurba_marseille","lat":43.290779,"lon":5.371482,"is_reserved":false,"is_disabled":false,"rental_uris":{"android":"levelo://app?vid=1d958b84-696a-4eef-9b47-3f1cc309b7dd","ios":"levelo://app?vid=1d958b84-696a-4eef-9b47-3f1cc309b7dd"},"vehicle_type_id":"4","last_reported":1691093219,"current_range_meters":10800,"station_id":"ce4bh5p2rcd13ifvqe4g","pricing_plan_id":"free"},{"bike_id":"6909e1d1-fba5-487b-a32b-461a90c8a3bf","system_id":"levelo_inurba_marseille","lat":43.3021,"lon":5.39466,"is_reserved":false,"is_disabled":false,"rental_uris":{"android":"levelo://app?vid=6909e1d1-fba5-487b-a32b-461a90c8a3bf","ios":"levelo://app?vid=6909e1d1-fba5-487b-a32b-461a90c8a3bf"},"vehicle_type_id":"4","last_reported":1691093219,"current_range_meters":0,"station_id":"ce4bh0p2rcd13ifvqd70","pricing_plan_id":"free"},{"bike_id":"d3208826-00c8-45f1-a98f-c04197a20686","system_id":"levelo_inurba_marseille","lat":43.302008,"lon":5.394694,"is_reserved":false,"is_disabled":false,"rental_uris":{"android":"levelo://app?vid=d3208826-00c8-45f1-a98f-c04197a20686","ios":"levelo://app?vid=d3208826-00c8-45f1-a98f-c04197a20686"},"vehicle_type_id":"4","last_reported":1691093219,"current_range_meters":6800,"station_id":"ce4bh0p2rcd13ifvqd70","pricing_plan_id":"free"},{"bike_id":"f6799d4e-6c6a-4b6c-9e94-d320af8b3d1f","system_id":"levelo_inurba_marseille","lat":43.290631,"lon":5.359244,"is_reserved":false,"is_disabled":false,"rental_uris":{"android":"levelo://app?vid=f6799d4e-6c6a-4b6c-9e94-d320af8b3d1f","ios":"levelo://app?vid=f6799d4e-6c6a-4b6c-9e94-d320af8b3d1f"},"vehicle_type_id":"4","last_reported":1691093219,"current_range_meters":9200,"station_id":"ce4bha92rcd13ifvqeg0","pricing_plan_id":"free"},{"bike_id":"a33011f4-2ab1-47c6-b9e3-dbe888450061","system_id":"levelo_inurba_marseille","lat":43.29037,"lon":5.37572,"is_reserved":false,"is_disabled":false,"rental_uris":{"android":"levelo://app?vid=a33011f4-2ab1-47c6-b9e3-dbe888450061","ios":"levelo://app?vid=a33011f4-2ab1-47c6-b9e3-dbe888450061"},"vehicle_type_id":"4","last_reported":1691093219,"current_range_meters":22400,"station_id":"ce4bh692rcd13ifvqe90","pricing_plan_id":"free"},{"bike_id":"e62d5601-90fe-4f4a-a95f-8d2ffc760b01","system_id":"levelo_inurba_marseille","lat":43.28934,"lon":5.36638,"is_reserved":false,"is_disabled":false,"rental_uris":{"android":"levelo://app?vid=e62d5601-90fe-4f4a-a95f-8d2ffc760b01","ios":"levelo://app?vid=e62d5601-90fe-4f4a-a95f-8d2ffc760b01"},"vehicle_type_id":"4","last_reported":1691093219,"current_range_meters":30800,"station_id":"ce4bhap2rcd13ifvqek0","pricing_plan_id":"free"},{"bike_id":"74dda22b-24dc-4794-b31f-1412cac9f629","system_id":"levelo_inurba_marseille","lat":43.304274,"lon":5.397513,"is_reserved":false,"is_disabled":false,"rental_uris":{"android":"levelo://app?vid=74dda22b-24dc-4794-b31f-1412cac9f629","ios":"levelo://app?vid=74dda22b-24dc-4794-b31f-1412cac9f629"},"vehicle_type_id":"4","last_reported":1691093219,"current_range_meters":0,"station_id":"ce4bh092rcd13ifvqd20","pricing_plan_id":"free"},{"bike_id":"4bee3a3b-33ff-412d-af3c-38e4d959688a","system_id":"levelo_inurba_marseille","lat":43.292642,"lon":5.384254,"is_reserved":false,"is_disabled":false,"rental_uris":{"android":"levelo://app?vid=4bee3a3b-33ff-412d-af3c-38e4d959688a","ios":"levelo://app?vid=4bee3a3b-33ff-412d-af3c-38e4d959688a"},"vehicle_type_id":"4","last_reported":1691093219,"current_range_meters":20000,"station_id":"ce4bh692rcd13ifvqea0","pricing_plan_id":"free"},{"bike_id":"d6c5ea6f-a2cc-4622-9a50-3dbf4b249bb1","system_id":"levelo_inurba_marseille","lat":43.304296,"lon":5.397513,"is_reserved":false,"is_disabled":false,"rental_uris":{"android":"levelo://app?vid=d6c5ea6f-a2cc-4622-9a50-3dbf4b249bb1","ios":"levelo://app?vid=d6c5ea6f-a2cc-4622-9a50-3dbf4b249bb1"},"vehicle_type_id":"4","last_reported":1691093219,"current_range_meters":5600,"station_id":"ce4bh092rcd13ifvqd20","pricing_plan_id":"free"},{"bike_id":"3533d38f-a3e5-4a35-9c5d-06ae3dbaa5d7","system_id":"levelo_inurba_marseille","lat":43.292644,"lon":5.384257,"is_reserved":false,"is_disabled":false,"rental_uris":{"android":"levelo://app?vid=3533d38f-a3e5-4a35-9c5d-06ae3dbaa5d7","ios":"levelo://app?vid=3533d38f-a3e5-4a35-9c5d-06ae3dbaa5d7"},"vehicle_type_id":"4","last_reported":1691093219,"current_range_meters":28000,"station_id":"ce4bh692rcd13ifvqea0","pricing_plan_id":"free"},{"bike_id":"374a2f11-748b-4402-a5b6-4f63bc984c9b","system_id":"levelo_inurba_marseille","lat":43.292644,"lon":5.384257,"is_reserved":false,"is_disabled":false,"rental_uris":{"android":"levelo://app?vid=374a2f11-748b-4402-a5b6-4f63bc984c9b","ios":"levelo://app?vid=374a2f11-748b-4402-a5b6-4f63bc984c9b"},"vehicle_type_id":"4","last_reported":1691093219,"current_range_meters":18800,"station_id":"ce4bh692rcd13ifvqea0","pricing_plan_id":"free"},{"bike_id":"90f0cf27-6e55-4d35-ab9f-39cb6fee87fb","system_id":"levelo_inurba_marseille","lat":43.29268,"lon":5.3845,"is_reserved":false,"is_disabled":false,"rental_uris":{"android":"levelo://app?vid=90f0cf27-6e55-4d35-ab9f-39cb6fee87fb","ios":"levelo://app?vid=90f0cf27-6e55-4d35-ab9f-39cb6fee87fb"},"vehicle_type_id":"4","last_reported":1691093219,"current_range_meters":11600,"station_id":"ce4bh692rcd13ifvqea0","pricing_plan_id":"free"},{"bike_id":"fd2a29f1-043b-488f-9a38-b8045212e551","system_id":"levelo_inurba_marseille","lat":43.292644,"lon":5.384257,"is_reserved":false,"is_disabled":false,"rental_uris":{"android":"levelo://app?vid=fd2a29f1-043b-488f-9a38-b8045212e551","ios":"levelo://app?vid=fd2a29f1-043b-488f-9a38-b8045212e551"},"vehicle_type_id":"4","last_reported":1691093219,"current_range_meters":27200,"station_id":"ce4bh692rcd13ifvqea0","pricing_plan_id":"free"},{"bike_id":"73be5fff-ef58-4dd7-9c96-0fac6cf85922","system_id":"levelo_inurba_marseille","lat":43.292642,"lon":5.384254,"is_reserved":false,"is_disabled":false,"rental_uris":{"android":"levelo://app?vid=73be5fff-ef58-4dd7-9c96-0fac6cf85922","ios":"levelo://app?vid=73be5fff-ef58-4dd7-9c96-0fac6cf85922"},"vehicle_type_id":"4","last_reported":1691093219,"current_range_meters":10800,"station_id":"ce4bh692rcd13ifvqea0","pricing_plan_id":"free"},{"bike_id":"98507e41-4069-4f12-aa99-7fdb8992fc23","system_id":"levelo_inurba_marseille","lat":43.292644,"lon":5.384257,"is_reserved":false,"is_disabled":false,"rental_uris":{"android":"levelo://app?vid=98507e41-4069-4f12-aa99-7fdb8992fc23","ios":"levelo://app?vid=98507e41-4069-4f12-aa99-7fdb8992fc23"},"vehicle_type_id":"4","last_reported":1691093219,"current_range_meters":15600,"station_id":"ce4bh692rcd13ifvqea0","pricing_plan_id":"free"},{"bike_id":"ae4b9ec7-ef3b-4ea7-8e13-3c20b90dc675","system_id":"levelo_inurba_marseille","lat":43.292644,"lon":5.384257,"is_reserved":false,"is_disabled":false,"rental_uris":{"android":"levelo://app?vid=ae4b9ec7-ef3b-4ea7-8e13-3c20b90dc675","ios":"levelo://app?vid=ae4b9ec7-ef3b-4ea7-8e13-3c20b90dc675"},"vehicle_type_id":"4","last_reported":1691093219,"current_range_meters":18800,"station_id":"ce4bh692rcd13ifvqea0","pricing_plan_id":"free"},{"bike_id":"00b2dcdc-2882-40a1-9132-89c3ec15cf18","system_id":"levelo_inurba_marseille","lat":43.33039,"lon":5.38916,"is_reserved":false,"is_disabled":false,"rental_uris":{"android":"levelo://app?vid=00b2dcdc-2882-40a1-9132-89c3ec15cf18","ios":"levelo://app?vid=00b2dcdc-2882-40a1-9132-89c3ec15cf18"},"vehicle_type_id":"4","last_reported":1691093219,"current_range_meters":22800,"station_id":"ce4bhr92rcd13ifvqhrg","pricing_plan_id":"free"},{"bike_id":"f67edc25-bcc7-41fb-8431-1add679b0933","system_id":"levelo_inurba_marseille","lat":43.33042,"lon":5.38915,"is_reserved":false,"is_disabled":false,"rental_uris":{"android":"levelo://app?vid=f67edc25-bcc7-41fb-8431-1add679b0933","ios":"levelo://app?vid=f67edc25-bcc7-41fb-8431-1add679b0933"},"vehicle_type_id":"4","last_reported":1691093219,"current_range_meters":24000,"station_id":"ce4bhr92rcd13ifvqhrg","pricing_plan_id":"free"},{"bike_id":"976f718a-bfdb-4480-a757-e5b9a5d1a5d6","system_id":"levelo_inurba_marseille","lat":43.33045,"lon":5.38912,"is_reserved":false,"is_disabled":false,"rental_uris":{"android":"levelo://app?vid=976f718a-bfdb-4480-a757-e5b9a5d1a5d6","ios":"levelo://app?vid=976f718a-bfdb-4480-a757-e5b9a5d1a5d6"},"vehicle_type_id":"4","last_reported":1691093219,"current_range_meters":16800,"station_id":"ce4bhr92rcd13ifvqhrg","pricing_plan_id":"free"},{"bike_id":"2f2d42a2-8de0-405f-9429-d3eae654394c","system_id":"levelo_inurba_marseille","lat":43.33047,"lon":5.3891,"is_reserved":false,"is_disabled":false,"rental_uris":{"android":"levelo://app?vid=2f2d42a2-8de0-405f-9429-d3eae654394c","ios":"levelo://app?vid=2f2d42a2-8de0-405f-9429-d3eae654394c"},"vehicle_type_id":"4","last_reported":1691093219,"current_range_meters":25200,"station_id":"ce4bhr92rcd13ifvqhrg","pricing_plan_id":"free"},{"bike_id":"d95dc9dd-ff49-4f48-87e9-afc5718a4625","system_id":"levelo_inurba_marseille","lat":43.29008,"lon":5.35618,"is_reserved":false,"is_disabled":false,"rental_uris":{"android":"levelo://app?vid=d95dc9dd-ff49-4f48-87e9-afc5718a4625","ios":"levelo://app?vid=d95dc9dd-ff49-4f48-87e9-afc5718a4625"},"vehicle_type_id":"4","last_reported":1691093219,"current_range_meters":23200,"station_id":"ce4bhb92rcd13ifvqen0","pricing_plan_id":"free"},{"bike_id":"039f4aac-8bde-443f-b143-aa80644b8634","system_id":"levelo_inurba_marseille","lat":43.33043,"lon":5.38918,"is_reserved":false,"is_disabled":false,"rental_uris":{"android":"levelo://app?vid=039f4aac-8bde-443f-b143-aa80644b8634","ios":"levelo://app?vid=039f4aac-8bde-443f-b143-aa80644b8634"},"vehicle_type_id":"4","last_reported":1691093219,"current_range_meters":6800,"station_id":"ce4bhr92rcd13ifvqhrg","pricing_plan_id":"free"},{"bike_id":"20cf3f6d-acf4-4653-bf24-baa04253f77a","system_id":"levelo_inurba_marseille","lat":43.33043,"lon":5.38918,"is_reserved":false,"is_disabled":false,"rental_uris":{"android":"levelo://app?vid=20cf3f6d-acf4-4653-bf24-baa04253f77a","ios":"levelo://app?vid=20cf3f6d-acf4-4653-bf24-baa04253f77a"},"vehicle_type_id":"4","last_reported":1691093219,"current_range_meters":22400,"station_id":"ce4bhr92rcd13ifvqhrg","pricing_plan_id":"free"},{"bike_id":"05bf2cc0-c80b-4d3b-9303-5cea93148e89","system_id":"levelo_inurba_marseille","lat":43.290995,"lon":5.381361,"is_reserved":false,"is_disabled":false,"rental_uris":{"android":"levelo://app?vid=05bf2cc0-c80b-4d3b-9303-5cea93148e89","ios":"levelo://app?vid=05bf2cc0-c80b-4d3b-9303-5cea93148e89"},"vehicle_type_id":"4","last_reported":1691093219,"current_range_meters":31200,"station_id":"ce4bh512rcd13ifvqe2g","pricing_plan_id":"free"},{"bike_id":"89ecde7f-eef5-4221-b5fb-5062e5a9fb53","system_id":"levelo_inurba_marseille","lat":43.297815,"lon":5.393548,"is_reserved":false,"is_disabled":false,"rental_uris":{"android":"levelo://app?vid=89ecde7f-eef5-4221-b5fb-5062e5a9fb53","ios":"levelo://app?vid=89ecde7f-eef5-4221-b5fb-5062e5a9fb53"},"vehicle_type_id":"4","last_reported":1691093219,"current_range_meters":8000,"station_id":"chh1huq6cuj3fo74tm60","pricing_plan_id":"free"},{"bike_id":"59e25e42-197b-4bf0-98e5-6ba627c6ac13","system_id":"levelo_inurba_marseille","lat":43.297815,"lon":5.393548,"is_reserved":false,"is_disabled":false,"rental_uris":{"android":"levelo://app?vid=59e25e42-197b-4bf0-98e5-6ba627c6ac13","ios":"levelo://app?vid=59e25e42-197b-4bf0-98e5-6ba627c6ac13"},"vehicle_type_id":"4","last_reported":1691093219,"current_range_meters":7600,"station_id":"chh1huq6cuj3fo74tm60","pricing_plan_id":"free"},{"bike_id":"26150fa2-9f61-47a9-b55f-ba8a281b8991","system_id":"levelo_inurba_marseille","lat":43.289741,"lon":5.378306,"is_reserved":false,"is_disabled":false,"rental_uris":{"android":"levelo://app?vid=26150fa2-9f61-47a9-b55f-ba8a281b8991","ios":"levelo://app?vid=26150fa2-9f61-47a9-b55f-ba8a281b8991"},"vehicle_type_id":"4","last_reported":1691093219,"current_range_meters":31200,"station_id":"ce4bh9p2rcd13ifvqed0","pricing_plan_id":"free"},{"bike_id":"4a7fc4d7-54a3-4474-be2d-818eeab1eea6","system_id":"levelo_inurba_marseille","lat":43.28979,"lon":5.37842,"is_reserved":false,"is_disabled":false,"rental_uris":{"android":"levelo://app?vid=4a7fc4d7-54a3-4474-be2d-818eeab1eea6","ios":"levelo://app?vid=4a7fc4d7-54a3-4474-be2d-818eeab1eea6"},"vehicle_type_id":"4","last_reported":1691093219,"current_range_meters":31600,"station_id":"ce4bh9p2rcd13ifvqed0","pricing_plan_id":"free"},{"bike_id":"c63c4e07-1e26-40b6-b3f8-878cbcdc32c9","system_id":"levelo_inurba_marseille","lat":43.290311,"lon":5.381226,"is_reserved":false,"is_disabled":false,"rental_uris":{"android":"levelo://app?vid=c63c4e07-1e26-40b6-b3f8-878cbcdc32c9","ios":"levelo://app?vid=c63c4e07-1e26-40b6-b3f8-878cbcdc32c9"},"vehicle_type_id":"4","last_reported":1691093219,"current_range_meters":9600,"station_id":"ce4bh4p2rcd13ifvqe1g","pricing_plan_id":"free"},{"bike_id":"ba8e9f30-3d33-42ae-adce-41813b43c675","system_id":"levelo_inurba_marseille","lat":43.29027,"lon":5.38118,"is_reserved":false,"is_disabled":false,"rental_uris":{"android":"levelo://app?vid=ba8e9f30-3d33-42ae-adce-41813b43c675","ios":"levelo://app?vid=ba8e9f30-3d33-42ae-adce-41813b43c675"},"vehicle_type_id":"4","last_reported":1691093219,"current_range_meters":5200,"station_id":"ce4bh4p2rcd13ifvqe1g","pricing_plan_id":"free"},{"bike_id":"f1227849-d0d8-48dc-9ee8-b8b6e108920c","system_id":"levelo_inurba_marseille","lat":43.33772,"lon":5.3741,"is_reserved":false,"is_disabled":false,"rental_uris":{"android":"levelo://app?vid=f1227849-d0d8-48dc-9ee8-b8b6e108920c","ios":"levelo://app?vid=f1227849-d0d8-48dc-9ee8-b8b6e108920c"},"vehicle_type_id":"4","last_reported":1691093219,"current_range_meters":31200,"station_id":"","pricing_plan_id":"free"},{"bike_id":"c4d8e5e8-5beb-4015-bd61-1b838c13e7f4","system_id":"levelo_inurba_marseille","lat":43.29176,"lon":5.38837,"is_reserved":false,"is_disabled":false,"rental_uris":{"android":"levelo://app?vid=c4d8e5e8-5beb-4015-bd61-1b838c13e7f4","ios":"levelo://app?vid=c4d8e5e8-5beb-4015-bd61-1b838c13e7f4"},"vehicle_type_id":"4","last_reported":1691093219,"current_range_meters":24000,"station_id":"","pricing_plan_id":"free"},{"bike_id":"5e49c031-c5fe-4ed3-b31f-6998eccdd588","system_id":"levelo_inurba_marseille","lat":43.298681,"lon":5.397225,"is_reserved":false,"is_disabled":false,"rental_uris":{"android":"levelo://app?vid=5e49c031-c5fe-4ed3-b31f-6998eccdd588","ios":"levelo://app?vid=5e49c031-c5fe-4ed3-b31f-6998eccdd588"},"vehicle_type_id":"4","last_reported":1691093219,"current_range_meters":0,"station_id":"ce4bh0h2rcd13ifvqd50","pricing_plan_id":"free"},{"bike_id":"cbcbd585-e4f7-4572-abb0-6ff33efc2f91","system_id":"levelo_inurba_marseille","lat":43.286961,"lon":5.373785,"is_reserved":false,"is_disabled":false,"rental_uris":{"android":"levelo://app?vid=cbcbd585-e4f7-4572-abb0-6ff33efc2f91","ios":"levelo://app?vid=cbcbd585-e4f7-4572-abb0-6ff33efc2f91"},"vehicle_type_id":"4","last_reported":1691093219,"current_range_meters":8400,"station_id":"ce4bh3p2rcd13ifvqdq0","pricing_plan_id":"free"},{"bike_id":"893d59a8-596a-4617-a72c-23874817ec33","system_id":"levelo_inurba_marseille","lat":43.286961,"lon":5.373785,"is_reserved":false,"is_disabled":false,"rental_uris":{"android":"levelo://app?vid=893d59a8-596a-4617-a72c-23874817ec33","ios":"levelo://app?vid=893d59a8-596a-4617-a72c-23874817ec33"},"vehicle_type_id":"4","last_reported":1691093219,"current_range_meters":29600,"station_id":"ce4bh3p2rcd13ifvqdq0","pricing_plan_id":"free"},{"bike_id":"75199276-b705-4ad7-b6a9-49aeaa84628a","system_id":"levelo_inurba_marseille","lat":43.286591,"lon":5.363346,"is_reserved":false,"is_disabled":false,"rental_uris":{"android":"levelo://app?vid=75199276-b705-4ad7-b6a9-49aeaa84628a","ios":"levelo://app?vid=75199276-b705-4ad7-b6a9-49aeaa84628a"},"vehicle_type_id":"4","last_reported":1691093219,"current_range_meters":31600,"station_id":"ce4bhah2rcd13ifvqej0","pricing_plan_id":"free"},{"bike_id":"d2fc9eb3-4a1d-488d-b03d-8e34d5428896","system_id":"levelo_inurba_marseille","lat":43.295196,"lon":5.39397,"is_reserved":false,"is_disabled":false,"rental_uris":{"android":"levelo://app?vid=d2fc9eb3-4a1d-488d-b03d-8e34d5428896","ios":"levelo://app?vid=d2fc9eb3-4a1d-488d-b03d-8e34d5428896"},"vehicle_type_id":"4","last_reported":1691093219,"current_range_meters":26800,"station_id":"ce4bh292rcd13ifvqdf0","pricing_plan_id":"free"},{"bike_id":"883ced4e-3720-4d37-be89-4468d7d697b6","system_id":"levelo_inurba_marseille","lat":43.286591,"lon":5.363346,"is_reserved":false,"is_disabled":false,"rental_uris":{"android":"levelo://app?vid=883ced4e-3720-4d37-be89-4468d7d697b6","ios":"levelo://app?vid=883ced4e-3720-4d37-be89-4468d7d697b6"},"vehicle_type_id":"4","last_reported":1691093219,"current_range_meters":10800,"station_id":"ce4bhah2rcd13ifvqej0","pricing_plan_id":"free"},{"bike_id":"e512daf6-ca25-4c1d-b741-f785bb3d4f90","system_id":"levelo_inurba_marseille","lat":43.286961,"lon":5.373785,"is_reserved":false,"is_disabled":false,"rental_uris":{"android":"levelo://app?vid=e512daf6-ca25-4c1d-b741-f785bb3d4f90","ios":"levelo://app?vid=e512daf6-ca25-4c1d-b741-f785bb3d4f90"},"vehicle_type_id":"4","last_reported":1691093219,"current_range_meters":24400,"station_id":"ce4bh3p2rcd13ifvqdq0","pricing_plan_id":"free"},{"bike_id":"c500cd12-9960-4664-a4e7-4a2e60593b32","system_id":"levelo_inurba_marseille","lat":43.2866,"lon":5.36348,"is_reserved":false,"is_disabled":false,"rental_uris":{"android":"levelo://app?vid=c500cd12-9960-4664-a4e7-4a2e60593b32","ios":"levelo://app?vid=c500cd12-9960-4664-a4e7-4a2e60593b32"},"vehicle_type_id":"4","last_reported":1691093219,"current_range_meters":31200,"station_id":"ce4bhah2rcd13ifvqej0","pricing_plan_id":"free"},{"bike_id":"d02e6528-1cf6-4429-a793-c9b3a2478b1d","system_id":"levelo_inurba_marseille","lat":43.295196,"lon":5.39397,"is_reserved":false,"is_disabled":false,"rental_uris":{"android":"levelo://app?vid=d02e6528-1cf6-4429-a793-c9b3a2478b1d","ios":"levelo://app?vid=d02e6528-1cf6-4429-a793-c9b3a2478b1d"},"vehicle_type_id":"4","last_reported":1691093219,"current_range_meters":3600,"station_id":"ce4bh292rcd13ifvqdf0","pricing_plan_id":"free"},{"bike_id":"df859d0c-bc9a-4c9c-9f4a-3f465d1bae89","system_id":"levelo_inurba_marseille","lat":43.302759,"lon":5.400793,"is_reserved":false,"is_disabled":false,"rental_uris":{"android":"levelo://app?vid=df859d0c-bc9a-4c9c-9f4a-3f465d1bae89","ios":"levelo://app?vid=df859d0c-bc9a-4c9c-9f4a-3f465d1bae89"},"vehicle_type_id":"4","last_reported":1691093219,"current_range_meters":11600,"station_id":"ce4bgvh2rcd13ifvqcs0","pricing_plan_id":"free"},{"bike_id":"38a08816-ad38-41bb-825e-35e21ab1f214","system_id":"levelo_inurba_marseille","lat":43.302759,"lon":5.400793,"is_reserved":false,"is_disabled":false,"rental_uris":{"android":"levelo://app?vid=38a08816-ad38-41bb-825e-35e21ab1f214","ios":"levelo://app?vid=38a08816-ad38-41bb-825e-35e21ab1f214"},"vehicle_type_id":"4","last_reported":1691093219,"current_range_meters":22000,"station_id":"ce4bgvh2rcd13ifvqcs0","pricing_plan_id":"free"},{"bike_id":"375033c6-1484-4608-bd6f-532f806067fc","system_id":"levelo_inurba_marseille","lat":43.295196,"lon":5.39397,"is_reserved":false,"is_disabled":false,"rental_uris":{"android":"levelo://app?vid=375033c6-1484-4608-bd6f-532f806067fc","ios":"levelo://app?vid=375033c6-1484-4608-bd6f-532f806067fc"},"vehicle_type_id":"4","last_reported":1691093219,"current_range_meters":17200,"station_id":"ce4bh292rcd13ifvqdf0","pricing_plan_id":"free"},{"bike_id":"d4a154b4-2ad7-470c-ba3b-9b351dd25496","system_id":"levelo_inurba_marseille","lat":43.295196,"lon":5.39397,"is_reserved":false,"is_disabled":false,"rental_uris":{"android":"levelo://app?vid=d4a154b4-2ad7-470c-ba3b-9b351dd25496","ios":"levelo://app?vid=d4a154b4-2ad7-470c-ba3b-9b351dd25496"},"vehicle_type_id":"4","last_reported":1691093219,"current_range_meters":2800,"station_id":"ce4bh292rcd13ifvqdf0","pricing_plan_id":"free"},{"bike_id":"850fdc32-3aee-42a2-bf86-499dc7646f02","system_id":"levelo_inurba_marseille","lat":43.30913,"lon":5.40283,"is_reserved":false,"is_disabled":false,"rental_uris":{"android":"levelo://app?vid=850fdc32-3aee-42a2-bf86-499dc7646f02","ios":"levelo://app?vid=850fdc32-3aee-42a2-bf86-499dc7646f02"},"vehicle_type_id":"4","last_reported":1691093219,"current_range_meters":19200,"station_id":"ce4bgvh2rcd13ifvqcs0","pricing_plan_id":"free"},{"bike_id":"55cc83aa-3557-4ce5-a56a-0ff78e49a96d","system_id":"levelo_inurba_marseille","lat":43.295196,"lon":5.39397,"is_reserved":false,"is_disabled":false,"rental_uris":{"android":"levelo://app?vid=55cc83aa-3557-4ce5-a56a-0ff78e49a96d","ios":"levelo://app?vid=55cc83aa-3557-4ce5-a56a-0ff78e49a96d"},"vehicle_type_id":"4","last_reported":1691093219,"current_range_meters":18400,"station_id":"ce4bh292rcd13ifvqdf0","pricing_plan_id":"free"},{"bike_id":"7b9e2d57-7c2f-4652-8ec0-ee4d147afe24","system_id":"levelo_inurba_marseille","lat":43.302548,"lon":5.400568,"is_reserved":false,"is_disabled":false,"rental_uris":{"android":"levelo://app?vid=7b9e2d57-7c2f-4652-8ec0-ee4d147afe24","ios":"levelo://app?vid=7b9e2d57-7c2f-4652-8ec0-ee4d147afe24"},"vehicle_type_id":"4","last_reported":1691093219,"current_range_meters":17600,"station_id":"","pricing_plan_id":"free"},{"bike_id":"2099e322-c294-4481-ba6f-79b5c1f2446a","system_id":"levelo_inurba_marseille","lat":43.290336,"lon":5.386425,"is_reserved":false,"is_disabled":false,"rental_uris":{"android":"levelo://app?vid=2099e322-c294-4481-ba6f-79b5c1f2446a","ios":"levelo://app?vid=2099e322-c294-4481-ba6f-79b5c1f2446a"},"vehicle_type_id":"4","last_reported":1691093219,"current_range_meters":1200,"station_id":"ce4bh4p2rcd13ifvqe0g","pricing_plan_id":"free"},{"bike_id":"fe7375a8-95f5-4969-90b3-f80799ea16a7","system_id":"levelo_inurba_marseille","lat":43.302759,"lon":5.400793,"is_reserved":false,"is_disabled":false,"rental_uris":{"android":"levelo://app?vid=fe7375a8-95f5-4969-90b3-f80799ea16a7","ios":"levelo://app?vid=fe7375a8-95f5-4969-90b3-f80799ea16a7"},"vehicle_type_id":"4","last_reported":1691093219,"current_range_meters":22000,"station_id":"ce4bgvh2rcd13ifvqcs0","pricing_plan_id":"free"},{"bike_id":"2f94e159-a909-4ce8-a7df-bf33d5e0ace8","system_id":"levelo_inurba_marseille","lat":43.294153,"lon":5.386305,"is_reserved":false,"is_disabled":false,"rental_uris":{"android":"levelo://app?vid=2f94e159-a909-4ce8-a7df-bf33d5e0ace8","ios":"levelo://app?vid=2f94e159-a909-4ce8-a7df-bf33d5e0ace8"},"vehicle_type_id":"4","last_reported":1691093219,"current_range_meters":19200,"station_id":"ce4bh2h2rcd13ifvqdh0","pricing_plan_id":"free"},{"bike_id":"67bba68f-9c40-4d92-9673-9a6ef72be5e8","system_id":"levelo_inurba_marseille","lat":43.316517,"lon":5.404375,"is_reserved":false,"is_disabled":false,"rental_uris":{"android":"levelo://app?vid=67bba68f-9c40-4d92-9673-9a6ef72be5e8","ios":"levelo://app?vid=67bba68f-9c40-4d92-9673-9a6ef72be5e8"},"vehicle_type_id":"4","last_reported":1691093219,"current_range_meters":22800,"station_id":"ce4bh012rcd13ifvqd00","pricing_plan_id":"free"},{"bike_id":"48ad477d-1b86-462a-a335-912be81d5676","system_id":"levelo_inurba_marseille","lat":43.316517,"lon":5.404375,"is_reserved":false,"is_disabled":false,"rental_uris":{"android":"levelo://app?vid=48ad477d-1b86-462a-a335-912be81d5676","ios":"levelo://app?vid=48ad477d-1b86-462a-a335-912be81d5676"},"vehicle_type_id":"4","last_reported":1691093219,"current_range_meters":25200,"station_id":"ce4bh012rcd13ifvqd00","pricing_plan_id":"free"},{"bike_id":"dd64ce83-b8c1-4ba9-bbd0-6d959221921c","system_id":"levelo_inurba_marseille","lat":43.316517,"lon":5.404375,"is_reserved":false,"is_disabled":false,"rental_uris":{"android":"levelo://app?vid=dd64ce83-b8c1-4ba9-bbd0-6d959221921c","ios":"levelo://app?vid=dd64ce83-b8c1-4ba9-bbd0-6d959221921c"},"vehicle_type_id":"4","last_reported":1691093219,"current_range_meters":0,"station_id":"ce4bh012rcd13ifvqd00","pricing_plan_id":"free"},{"bike_id":"505579c6-72ba-4c58-83d0-fb23fcb3bfdd","system_id":"levelo_inurba_marseille","lat":43.31643,"lon":5.40436,"is_reserved":false,"is_disabled":false,"rental_uris":{"android":"levelo://app?vid=505579c6-72ba-4c58-83d0-fb23fcb3bfdd","ios":"levelo://app?vid=505579c6-72ba-4c58-83d0-fb23fcb3bfdd"},"vehicle_type_id":"4","last_reported":1691093219,"current_range_meters":26800,"station_id":"ce4bh012rcd13ifvqd00","pricing_plan_id":"free"},{"bike_id":"99ef77c8-5f24-48f8-b499-d5f3fc911ee4","system_id":"levelo_inurba_marseille","lat":43.29239,"lon":5.39414,"is_reserved":false,"is_disabled":false,"rental_uris":{"android":"levelo://app?vid=99ef77c8-5f24-48f8-b499-d5f3fc911ee4","ios":"levelo://app?vid=99ef77c8-5f24-48f8-b499-d5f3fc911ee4"},"vehicle_type_id":"4","last_reported":1691093219,"current_range_meters":18000,"station_id":"","pricing_plan_id":"free"},{"bike_id":"0fad56f5-1e54-4911-bffb-4fd9d9294521","system_id":"levelo_inurba_marseille","lat":43.29198,"lon":5.39415,"is_reserved":false,"is_disabled":false,"rental_uris":{"android":"levelo://app?vid=0fad56f5-1e54-4911-bffb-4fd9d9294521","ios":"levelo://app?vid=0fad56f5-1e54-4911-bffb-4fd9d9294521"},"vehicle_type_id":"4","last_reported":1691093219,"current_range_meters":7200,"station_id":"","pricing_plan_id":"free"},{"bike_id":"f12af228-1f0c-463c-a0a9-0511a4652467","system_id":"levelo_inurba_marseille","lat":43.28462,"lon":5.35896,"is_reserved":false,"is_disabled":false,"rental_uris":{"android":"levelo://app?vid=f12af228-1f0c-463c-a0a9-0511a4652467","ios":"levelo://app?vid=f12af228-1f0c-463c-a0a9-0511a4652467"},"vehicle_type_id":"4","last_reported":1691093219,"current_range_meters":24000,"station_id":"ce4bhah2rcd13ifvqei0","pricing_plan_id":"free"},{"bike_id":"ffc7537c-5df0-4de0-b29c-d5979f7b6bdf","system_id":"levelo_inurba_marseille","lat":43.284534,"lon":5.358662,"is_reserved":false,"is_disabled":false,"rental_uris":{"android":"levelo://app?vid=ffc7537c-5df0-4de0-b29c-d5979f7b6bdf","ios":"levelo://app?vid=ffc7537c-5df0-4de0-b29c-d5979f7b6bdf"},"vehicle_type_id":"4","last_reported":1691093219,"current_range_meters":4800,"station_id":"ce4bhah2rcd13ifvqei0","pricing_plan_id":"free"},{"bike_id":"78e6b93a-f73c-4c8e-bf9f-320dd6abb80a","system_id":"levelo_inurba_marseille","lat":43.28457,"lon":5.35889,"is_reserved":false,"is_disabled":false,"rental_uris":{"android":"levelo://app?vid=78e6b93a-f73c-4c8e-bf9f-320dd6abb80a","ios":"levelo://app?vid=78e6b93a-f73c-4c8e-bf9f-320dd6abb80a"},"vehicle_type_id":"4","last_reported":1691093219,"current_range_meters":30000,"station_id":"ce4bhah2rcd13ifvqei0","pricing_plan_id":"free"},{"bike_id":"f3f30c8c-1414-4558-9ffc-2374753c31eb","system_id":"levelo_inurba_marseille","lat":43.28455,"lon":5.35892,"is_reserved":false,"is_disabled":false,"rental_uris":{"android":"levelo://app?vid=f3f30c8c-1414-4558-9ffc-2374753c31eb","ios":"levelo://app?vid=f3f30c8c-1414-4558-9ffc-2374753c31eb"},"vehicle_type_id":"4","last_reported":1691093219,"current_range_meters":21200,"station_id":"ce4bhah2rcd13ifvqei0","pricing_plan_id":"free"},{"bike_id":"23ab9a18-9ed3-4267-8d82-b838ea023682","system_id":"levelo_inurba_marseille","lat":43.284534,"lon":5.358662,"is_reserved":false,"is_disabled":false,"rental_uris":{"android":"levelo://app?vid=23ab9a18-9ed3-4267-8d82-b838ea023682","ios":"levelo://app?vid=23ab9a18-9ed3-4267-8d82-b838ea023682"},"vehicle_type_id":"4","last_reported":1691093219,"current_range_meters":13200,"station_id":"ce4bhah2rcd13ifvqei0","pricing_plan_id":"free"},{"bike_id":"197d01fd-c9f2-46bf-956b-c406fa1aef55","system_id":"levelo_inurba_marseille","lat":43.294314,"lon":5.397498,"is_reserved":false,"is_disabled":false,"rental_uris":{"android":"levelo://app?vid=197d01fd-c9f2-46bf-956b-c406fa1aef55","ios":"levelo://app?vid=197d01fd-c9f2-46bf-956b-c406fa1aef55"},"vehicle_type_id":"4","last_reported":1691093219,"current_range_meters":12800,"station_id":"ce4bh3h2rcd13ifvqdo0","pricing_plan_id":"free"},{"bike_id":"987769ff-e35a-4f55-9404-ed495884a65f","system_id":"levelo_inurba_marseille","lat":43.286133,"lon":5.351042,"is_reserved":false,"is_disabled":false,"rental_uris":{"android":"levelo://app?vid=987769ff-e35a-4f55-9404-ed495884a65f","ios":"levelo://app?vid=987769ff-e35a-4f55-9404-ed495884a65f"},"vehicle_type_id":"4","last_reported":1691093219,"current_range_meters":31200,"station_id":"ce4bhch2rcd13ifvqeug","pricing_plan_id":"free"},{"bike_id":"3918a1dc-e097-479d-8499-1fba8b9a23b8","system_id":"levelo_inurba_marseille","lat":43.28613,"lon":5.35104,"is_reserved":false,"is_disabled":false,"rental_uris":{"android":"levelo://app?vid=3918a1dc-e097-479d-8499-1fba8b9a23b8","ios":"levelo://app?vid=3918a1dc-e097-479d-8499-1fba8b9a23b8"},"vehicle_type_id":"4","last_reported":1691093219,"current_range_meters":31200,"station_id":"ce4bhch2rcd13ifvqeug","pricing_plan_id":"free"},{"bike_id":"d228927c-7842-44f7-aa9e-2b0ec0788c4c","system_id":"levelo_inurba_marseille","lat":43.294314,"lon":5.397498,"is_reserved":false,"is_disabled":false,"rental_uris":{"android":"levelo://app?vid=d228927c-7842-44f7-aa9e-2b0ec0788c4c","ios":"levelo://app?vid=d228927c-7842-44f7-aa9e-2b0ec0788c4c"},"vehicle_type_id":"4","last_reported":1691093219,"current_range_meters":22400,"station_id":"ce4bh3h2rcd13ifvqdo0","pricing_plan_id":"free"},{"bike_id":"4095c83b-d7b4-4f61-8ec7-9909567f2450","system_id":"levelo_inurba_marseille","lat":43.286117,"lon":5.351049,"is_reserved":false,"is_disabled":false,"rental_uris":{"android":"levelo://app?vid=4095c83b-d7b4-4f61-8ec7-9909567f2450","ios":"levelo://app?vid=4095c83b-d7b4-4f61-8ec7-9909567f2450"},"vehicle_type_id":"4","last_reported":1691093219,"current_range_meters":31200,"station_id":"ce4bhch2rcd13ifvqeug","pricing_plan_id":"free"},{"bike_id":"aea62c68-a825-41c5-8df1-1b4a68f2c1bd","system_id":"levelo_inurba_marseille","lat":43.28413,"lon":5.37506,"is_reserved":false,"is_disabled":false,"rental_uris":{"android":"levelo://app?vid=aea62c68-a825-41c5-8df1-1b4a68f2c1bd","ios":"levelo://app?vid=aea62c68-a825-41c5-8df1-1b4a68f2c1bd"},"vehicle_type_id":"4","last_reported":1691093219,"current_range_meters":0,"station_id":"ce4bh412rcd13ifvqds0","pricing_plan_id":"free"},{"bike_id":"11411fcf-6eae-4cf1-9982-aa47c40f2516","system_id":"levelo_inurba_marseille","lat":43.295713,"lon":5.399639,"is_reserved":false,"is_disabled":false,"rental_uris":{"android":"levelo://app?vid=11411fcf-6eae-4cf1-9982-aa47c40f2516","ios":"levelo://app?vid=11411fcf-6eae-4cf1-9982-aa47c40f2516"},"vehicle_type_id":"4","last_reported":1691093219,"current_range_meters":13200,"station_id":"ce4bh312rcd13ifvqdj0","pricing_plan_id":"free"},{"bike_id":"08e61131-ed5a-4503-99f4-10a87afc7eb0","system_id":"levelo_inurba_marseille","lat":43.295713,"lon":5.399639,"is_reserved":false,"is_disabled":false,"rental_uris":{"android":"levelo://app?vid=08e61131-ed5a-4503-99f4-10a87afc7eb0","ios":"levelo://app?vid=08e61131-ed5a-4503-99f4-10a87afc7eb0"},"vehicle_type_id":"4","last_reported":1691093219,"current_range_meters":13200,"station_id":"ce4bh312rcd13ifvqdj0","pricing_plan_id":"free"},{"bike_id":"8acdbe64-3306-4539-9227-595f7abfea40","system_id":"levelo_inurba_marseille","lat":43.28572,"lon":5.35069,"is_reserved":false,"is_disabled":false,"rental_uris":{"android":"levelo://app?vid=8acdbe64-3306-4539-9227-595f7abfea40","ios":"levelo://app?vid=8acdbe64-3306-4539-9227-595f7abfea40"},"vehicle_type_id":"4","last_reported":1691093219,"current_range_meters":6800,"station_id":"","pricing_plan_id":"free"},{"bike_id":"eacbd7e4-3413-4bc3-993f-0c7fe6e10d9f","system_id":"levelo_inurba_marseille","lat":43.286595,"lon":5.386795,"is_reserved":false,"is_disabled":false,"rental_uris":{"android":"levelo://app?vid=eacbd7e4-3413-4bc3-993f-0c7fe6e10d9f","ios":"levelo://app?vid=eacbd7e4-3413-4bc3-993f-0c7fe6e10d9f"},"vehicle_type_id":"4","last_reported":1691093219,"current_range_meters":21600,"station_id":"ce4bh492rcd13ifvqdug","pricing_plan_id":"free"},{"bike_id":"558a5247-dd20-4dc2-8abf-30ad1026506a","system_id":"levelo_inurba_marseille","lat":43.286595,"lon":5.386795,"is_reserved":false,"is_disabled":false,"rental_uris":{"android":"levelo://app?vid=558a5247-dd20-4dc2-8abf-30ad1026506a","ios":"levelo://app?vid=558a5247-dd20-4dc2-8abf-30ad1026506a"},"vehicle_type_id":"4","last_reported":1691093219,"current_range_meters":0,"station_id":"ce4bh492rcd13ifvqdug","pricing_plan_id":"free"},{"bike_id":"3e563380-a985-451c-801d-2783d7714294","system_id":"levelo_inurba_marseille","lat":43.33718,"lon":5.39181,"is_reserved":false,"is_disabled":false,"rental_uris":{"android":"levelo://app?vid=3e563380-a985-451c-801d-2783d7714294","ios":"levelo://app?vid=3e563380-a985-451c-801d-2783d7714294"},"vehicle_type_id":"4","last_reported":1691093219,"current_range_meters":20000,"station_id":"ce4bhr92rcd13ifvqhsg","pricing_plan_id":"free"},{"bike_id":"c59f30af-b7c9-4762-b544-56156d6a8a97","system_id":"levelo_inurba_marseille","lat":43.33717,"lon":5.39183,"is_reserved":false,"is_disabled":false,"rental_uris":{"android":"levelo://app?vid=c59f30af-b7c9-4762-b544-56156d6a8a97","ios":"levelo://app?vid=c59f30af-b7c9-4762-b544-56156d6a8a97"},"vehicle_type_id":"4","last_reported":1691093219,"current_range_meters":23200,"station_id":"ce4bhr92rcd13ifvqhsg","pricing_plan_id":"free"},{"bike_id":"df82d2f9-f688-4670-ac84-3e543122cedb","system_id":"levelo_inurba_marseille","lat":43.33717,"lon":5.391857,"is_reserved":false,"is_disabled":false,"rental_uris":{"android":"levelo://app?vid=df82d2f9-f688-4670-ac84-3e543122cedb","ios":"levelo://app?vid=df82d2f9-f688-4670-ac84-3e543122cedb"},"vehicle_type_id":"4","last_reported":1691093219,"current_range_meters":18000,"station_id":"ce4bhr92rcd13ifvqhsg","pricing_plan_id":"free"},{"bike_id":"23dafe58-bc58-41ce-843c-2b5e651c84c2","system_id":"levelo_inurba_marseille","lat":43.323464,"lon":5.406297,"is_reserved":false,"is_disabled":false,"rental_uris":{"android":"levelo://app?vid=23dafe58-bc58-41ce-843c-2b5e651c84c2","ios":"levelo://app?vid=23dafe58-bc58-41ce-843c-2b5e651c84c2"},"vehicle_type_id":"4","last_reported":1691093219,"current_range_meters":8000,"station_id":"ce4bhq92rcd13ifvqhjg","pricing_plan_id":"free"},{"bike_id":"1f5722b0-5667-43f6-9dad-3a3b818c5a69","system_id":"levelo_inurba_marseille","lat":43.3372,"lon":5.39183,"is_reserved":false,"is_disabled":false,"rental_uris":{"android":"levelo://app?vid=1f5722b0-5667-43f6-9dad-3a3b818c5a69","ios":"levelo://app?vid=1f5722b0-5667-43f6-9dad-3a3b818c5a69"},"vehicle_type_id":"4","last_reported":1691093219,"current_range_meters":6800,"station_id":"ce4bhr92rcd13ifvqhsg","pricing_plan_id":"free"},{"bike_id":"9ed5c8cd-5716-467d-9a0b-e5002dcb5a2c","system_id":"levelo_inurba_marseille","lat":43.3372,"lon":5.39185,"is_reserved":false,"is_disabled":false,"rental_uris":{"android":"levelo://app?vid=9ed5c8cd-5716-467d-9a0b-e5002dcb5a2c","ios":"levelo://app?vid=9ed5c8cd-5716-467d-9a0b-e5002dcb5a2c"},"vehicle_type_id":"4","last_reported":1691093219,"current_range_meters":4800,"station_id":"ce4bhr92rcd13ifvqhsg","pricing_plan_id":"free"},{"bike_id":"65e7209e-43de-4472-85bf-edccad84c81f","system_id":"levelo_inurba_marseille","lat":43.33717,"lon":5.391857,"is_reserved":false,"is_disabled":false,"rental_uris":{"android":"levelo://app?vid=65e7209e-43de-4472-85bf-edccad84c81f","ios":"levelo://app?vid=65e7209e-43de-4472-85bf-edccad84c81f"},"vehicle_type_id":"4","last_reported":1691093219,"current_range_meters":30400,"station_id":"ce4bhr92rcd13ifvqhsg","pricing_plan_id":"free"},{"bike_id":"9be39f6c-974f-4a4e-90c3-357a4d8fdcc8","system_id":"levelo_inurba_marseille","lat":43.323464,"lon":5.406297,"is_reserved":false,"is_disabled":false,"rental_uris":{"android":"levelo://app?vid=9be39f6c-974f-4a4e-90c3-357a4d8fdcc8","ios":"levelo://app?vid=9be39f6c-974f-4a4e-90c3-357a4d8fdcc8"},"vehicle_type_id":"4","last_reported":1691093219,"current_range_meters":0,"station_id":"ce4bhq92rcd13ifvqhjg","pricing_plan_id":"free"},{"bike_id":"9d8dc018-8295-487e-aae9-79ce0f469cdf","system_id":"levelo_inurba_marseille","lat":43.33726,"lon":5.39185,"is_reserved":false,"is_disabled":false,"rental_uris":{"android":"levelo://app?vid=9d8dc018-8295-487e-aae9-79ce0f469cdf","ios":"levelo://app?vid=9d8dc018-8295-487e-aae9-79ce0f469cdf"},"vehicle_type_id":"4","last_reported":1691093219,"current_range_meters":29200,"station_id":"ce4bhr92rcd13ifvqhsg","pricing_plan_id":"free"},{"bike_id":"3a1d0e1a-cf7b-4b1e-8bd5-6fc799344919","system_id":"levelo_inurba_marseille","lat":43.28494,"lon":5.38419,"is_reserved":false,"is_disabled":false,"rental_uris":{"android":"levelo://app?vid=3a1d0e1a-cf7b-4b1e-8bd5-6fc799344919","ios":"levelo://app?vid=3a1d0e1a-cf7b-4b1e-8bd5-6fc799344919"},"vehicle_type_id":"4","last_reported":1691093219,"current_range_meters":31200,"station_id":"ce4bh512rcd13ifvqe3g","pricing_plan_id":"free"},{"bike_id":"939edbe6-adcc-4f97-ad69-99748df4073d","system_id":"levelo_inurba_marseille","lat":43.33727,"lon":5.39186,"is_reserved":false,"is_disabled":false,"rental_uris":{"android":"levelo://app?vid=939edbe6-adcc-4f97-ad69-99748df4073d","ios":"levelo://app?vid=939edbe6-adcc-4f97-ad69-99748df4073d"},"vehicle_type_id":"4","last_reported":1691093219,"current_range_meters":29600,"station_id":"ce4bhr92rcd13ifvqhsg","pricing_plan_id":"free"},{"bike_id":"5fd6a347-0a02-4efa-ab4a-06802493ed56","system_id":"levelo_inurba_marseille","lat":43.3373,"lon":5.39187,"is_reserved":false,"is_disabled":false,"rental_uris":{"android":"levelo://app?vid=5fd6a347-0a02-4efa-ab4a-06802493ed56","ios":"levelo://app?vid=5fd6a347-0a02-4efa-ab4a-06802493ed56"},"vehicle_type_id":"4","last_reported":1691093219,"current_range_meters":19600,"station_id":"ce4bhr92rcd13ifvqhsg","pricing_plan_id":"free"},{"bike_id":"0e7f5613-9ab6-47ae-9352-274c5d529685","system_id":"levelo_inurba_marseille","lat":43.284793,"lon":5.384113,"is_reserved":false,"is_disabled":false,"rental_uris":{"android":"levelo://app?vid=0e7f5613-9ab6-47ae-9352-274c5d529685","ios":"levelo://app?vid=0e7f5613-9ab6-47ae-9352-274c5d529685"},"vehicle_type_id":"4","last_reported":1691093219,"current_range_meters":0,"station_id":"ce4bh512rcd13ifvqe3g","pricing_plan_id":"free"},{"bike_id":"041087eb-839e-446c-b04b-47410f0ba3df","system_id":"levelo_inurba_marseille","lat":43.2849,"lon":5.38427,"is_reserved":false,"is_disabled":false,"rental_uris":{"android":"levelo://app?vid=041087eb-839e-446c-b04b-47410f0ba3df","ios":"levelo://app?vid=041087eb-839e-446c-b04b-47410f0ba3df"},"vehicle_type_id":"4","last_reported":1691093219,"current_range_meters":31200,"station_id":"ce4bh512rcd13ifvqe3g","pricing_plan_id":"free"},{"bike_id":"a7da466d-3215-4108-b566-9d864ba3aef6","system_id":"levelo_inurba_marseille","lat":43.28485,"lon":5.38424,"is_reserved":false,"is_disabled":false,"rental_uris":{"android":"levelo://app?vid=a7da466d-3215-4108-b566-9d864ba3aef6","ios":"levelo://app?vid=a7da466d-3215-4108-b566-9d864ba3aef6"},"vehicle_type_id":"4","last_reported":1691093219,"current_range_meters":31200,"station_id":"ce4bh512rcd13ifvqe3g","pricing_plan_id":"free"},{"bike_id":"8a39448c-be1e-44a8-804c-df67d9000af9","system_id":"levelo_inurba_marseille","lat":43.284787,"lon":5.384116,"is_reserved":false,"is_disabled":false,"rental_uris":{"android":"levelo://app?vid=8a39448c-be1e-44a8-804c-df67d9000af9","ios":"levelo://app?vid=8a39448c-be1e-44a8-804c-df67d9000af9"},"vehicle_type_id":"4","last_reported":1691093219,"current_range_meters":9600,"station_id":"ce4bh512rcd13ifvqe3g","pricing_plan_id":"free"},{"bike_id":"278a1458-c0ee-43bb-8e3d-782cc4a4dabb","system_id":"levelo_inurba_marseille","lat":43.284787,"lon":5.384116,"is_reserved":false,"is_disabled":false,"rental_uris":{"android":"levelo://app?vid=278a1458-c0ee-43bb-8e3d-782cc4a4dabb","ios":"levelo://app?vid=278a1458-c0ee-43bb-8e3d-782cc4a4dabb"},"vehicle_type_id":"4","last_reported":1691093219,"current_range_meters":3600,"station_id":"ce4bh512rcd13ifvqe3g","pricing_plan_id":"free"},{"bike_id":"6903ea43-fb05-46b8-a766-149570fa343e","system_id":"levelo_inurba_marseille","lat":43.284793,"lon":5.384113,"is_reserved":false,"is_disabled":false,"rental_uris":{"android":"levelo://app?vid=6903ea43-fb05-46b8-a766-149570fa343e","ios":"levelo://app?vid=6903ea43-fb05-46b8-a766-149570fa343e"},"vehicle_type_id":"4","last_reported":1691093219,"current_range_meters":4400,"station_id":"ce4bh512rcd13ifvqe3g","pricing_plan_id":"free"},{"bike_id":"47d6994e-e26c-4ed9-8ea7-c3a4d8405f7d","system_id":"levelo_inurba_marseille","lat":43.284793,"lon":5.384113,"is_reserved":false,"is_disabled":false,"rental_uris":{"android":"levelo://app?vid=47d6994e-e26c-4ed9-8ea7-c3a4d8405f7d","ios":"levelo://app?vid=47d6994e-e26c-4ed9-8ea7-c3a4d8405f7d"},"vehicle_type_id":"4","last_reported":1691093219,"current_range_meters":27200,"station_id":"ce4bh512rcd13ifvqe3g","pricing_plan_id":"free"},{"bike_id":"4a813fc5-c161-41c8-8748-eeb6daa7f955","system_id":"levelo_inurba_marseille","lat":43.284793,"lon":5.384119,"is_reserved":false,"is_disabled":false,"rental_uris":{"android":"levelo://app?vid=4a813fc5-c161-41c8-8748-eeb6daa7f955","ios":"levelo://app?vid=4a813fc5-c161-41c8-8748-eeb6daa7f955"},"vehicle_type_id":"4","last_reported":1691093219,"current_range_meters":25200,"station_id":"ce4bh512rcd13ifvqe3g","pricing_plan_id":"free"},{"bike_id":"b67ba100-3a26-4f7c-b55f-ea69aa93ffb5","system_id":"levelo_inurba_marseille","lat":43.284793,"lon":5.384119,"is_reserved":false,"is_disabled":false,"rental_uris":{"android":"levelo://app?vid=b67ba100-3a26-4f7c-b55f-ea69aa93ffb5","ios":"levelo://app?vid=b67ba100-3a26-4f7c-b55f-ea69aa93ffb5"},"vehicle_type_id":"4","last_reported":1691093219,"current_range_meters":15200,"station_id":"ce4bh512rcd13ifvqe3g","pricing_plan_id":"free"},{"bike_id":"dbada9f9-e33c-4a7d-ab43-1cac4e571e70","system_id":"levelo_inurba_marseille","lat":43.284787,"lon":5.384116,"is_reserved":false,"is_disabled":false,"rental_uris":{"android":"levelo://app?vid=dbada9f9-e33c-4a7d-ab43-1cac4e571e70","ios":"levelo://app?vid=dbada9f9-e33c-4a7d-ab43-1cac4e571e70"},"vehicle_type_id":"4","last_reported":1691093219,"current_range_meters":30000,"station_id":"ce4bh512rcd13ifvqe3g","pricing_plan_id":"free"},{"bike_id":"82fdb82b-6b88-4c2e-b86c-57a3eb82d5d2","system_id":"levelo_inurba_marseille","lat":43.283494,"lon":5.380945,"is_reserved":false,"is_disabled":false,"rental_uris":{"android":"levelo://app?vid=82fdb82b-6b88-4c2e-b86c-57a3eb82d5d2","ios":"levelo://app?vid=82fdb82b-6b88-4c2e-b86c-57a3eb82d5d2"},"vehicle_type_id":"4","last_reported":1691093219,"current_range_meters":21200,"station_id":"ce4bh412rcd13ifvqdr0","pricing_plan_id":"free"},