{"last_updated":1690474094,"ttl":30,"version":"2.2","data":{"bikes":[{"bike_id":"e526d4e2-849c-44ae-a0d7-5572a62df909","system_id":"levelo_inurba_marseille","lat":43.312239,"lon":5.368562,"is_reserved":false,"is_disabled":false,"rental_uris":{"android":"levelo://app?vid=e526d4e2-849c-44ae-a0d7-5572a62df909","ios":"levelo://app?vid=e526d4e2-849c-44ae-a0d7-5572a62df909"},"vehicle_type_id":"4","last_reported":1690474099,"current_range_meters":31200,"station_id":"ce4bgl92rcd13ifvqbq0","pricing_plan_id":"free"},{"bike_id":"2862720a-4667-4ebd-9a4a-d4b49b150245","system_id":"levelo_inurba_marseille","lat":43.309076,"lon":5.368465,"is_reserved":false,"is_disabled":false,"rental_uris":{"android":"levelo://app?vid=2862720a-4667-4ebd-9a4a-d4b49b150245","ios":"levelo://app?vid=2862720a-4667-4ebd-9a4a-d4b49b150245"},"vehicle_type_id":"4","last_reported":1690474099,"current_range_meters":21200,"station_id":"ce4bgn92rcd13ifvqbvg","pricing_plan_id":"free"},{"bike_id":"39702187-7f8a-414a-8ad6-98284e3e60a7","system_id":"levelo_inurba_marseille","lat":43.314811,"lon":5.373103,"is_reserved":false,"is_disabled":false,"rental_uris":{"android":"levelo://app?vid=39702187-7f8a-414a-8ad6-98284e3e60a7","ios":"levelo://app?vid=39702187-7f8a-414a-8ad6-98284e3e60a7"},"vehicle_type_id":"4","last_reported":1690474099,"current_range_meters":17200,"station_id":"ce4bgt12rcd13ifvqcd0","pricing_plan_id":"free"},{"bike_id":"084e784a-ff4c-4532-88e7-17301b87dff1","system_id":"levelo_inurba_marseille","lat":43.314811,"lon":5.373103,"is_reserved":false,"is_disabled":false,"rental_uris":{"android":"levelo://app?vid=084e784a-ff4c-4532-88e7-17301b87dff1","ios":"levelo://app?vid=084e784a-ff4c-4532-88e7-17301b87dff1"},"vehicle_type_id":"4","last_reported":1690474099,"current_range_meters":25200,"station_id":"ce4bgt12rcd13ifvqcd0","pricing_plan_id":"free"},{"bike_id":"ac5d292c-7677-4b7e-9832-0074971b5c99","system_id":"levelo_inurba_marseille","lat":43.314811,"lon":5.373104,"is_reserved":false,"is_disabled":false,"rental_uris":{"android":"levelo://app?vid=ac5d292c-7677-4b7e-9832-0074971b5c99","ios":"levelo://app?vid=ac5d292c-7677-4b7e-9832-0074971b5c99"},"vehicle_type_id":"4","last_reported":1690474099,"current_range_meters":17600,"station_id":"ce4bgt12rcd13ifvqcd0","pricing_plan_id":"free"},{"bike_id":"a649257c-d2db-488c-93cd-c174ccec3652","system_id":"levelo_inurba_marseille","lat":43.309039,"lon":5.371797,"is_reserved":false,"is_disabled":false,"rental_uris":{"android":"levelo://app?vid=a649257c-d2db-488c-93cd-c174ccec3652","ios":"levelo://app?vid=a649257c-d2db-488c-93cd-c174ccec3652"},"vehicle_type_id":"4","last_reported":1690474099,"current_range_meters":31200,"station_id":"ce4bguh2rcd13ifvqckg","pricing_plan_id":"free"},{"bike_id":"9970cd6e-91ac-45f4-a1f7-c2176fb4bae2","system_id":"levelo_inurba_marseille","lat":43.309039,"lon":5.371797,"is_reserved":false,"is_disabled":false,"rental_uris":{"android":"levelo://app?vid=9970cd6e-91ac-45f4-a1f7-c2176fb4bae2","ios":"levelo://app?vid=9970cd6e-91ac-45f4-a1f7-c2176fb4bae2"},"vehicle_type_id":"4","last_reported":1690474099,"current_range_meters":31200,"station_id":"ce4bguh2rcd13ifvqckg","pricing_plan_id":"free"},{"bike_id":"737e36f8-b3bd-4e07-8acd-81d5a4bc85a0","system_id":"levelo_inurba_marseille","lat":43.30697,"lon":5.3655,"is_reserved":false,"is_disabled":false,"rental_uris":{"android":"levelo://app?vid=737e36f8-b3bd-4e07-8acd-81d5a4bc85a0","ios":"levelo://app?vid=737e36f8-b3bd-4e07-8acd-81d5a4bc85a0"},"vehicle_type_id":"4","last_reported":1690474099,"current_range_meters":12400,"station_id":"","pricing_plan_id":"free"},{"bike_id":"2e747ab1-9375-49b8-b32f-4c26c53c7ae2","system_id":"levelo_inurba_marseille","lat":43.30552,"lon":5.36708,"is_reserved":false,"is_disabled":false,"rental_uris":{"android":"levelo://app?vid=2e747ab1-9375-49b8-b32f-4c26c53c7ae2","ios":"levelo://app?vid=2e747ab1-9375-49b8-b32f-4c26c53c7ae2"},"vehicle_type_id":"4","last_reported":1690474099,"current_range_meters":30000,"station_id":"ce4bgrp2rcd13ifvqc9g","pricing_plan_id":"free"},{"bike_id":"7b970703-ac4b-46a3-bfd4-2a11c842dc26","system_id":"levelo_inurba_marseille","lat":43.305989,"lon":5.37225,"is_reserved":false,"is_disabled":false,"rental_uris":{"android":"levelo://app?vid=7b970703-ac4b-46a3-bfd4-2a11c842dc26","ios":"levelo://app?vid=7b970703-ac4b-46a3-bfd4-2a11c842dc26"},"vehicle_type_id":"4","last_reported":1690474099,"current_range_meters":31200,"station_id":"ce4bgqh2rcd13ifvqc4g","pricing_plan_id":"free"},{"bike_id":"7551e7f5-470a-4125-98d0-b1c25bc3c6b9","system_id":"levelo_inurba_marseille","lat":43.305989,"lon":5.37225,"is_reserved":false,"is_disabled":false,"rental_uris":{"android":"levelo://app?vid=7551e7f5-470a-4125-98d0-b1c25bc3c6b9","ios":"levelo://app?vid=7551e7f5-470a-4125-98d0-b1c25bc3c6b9"},"vehicle_type_id":"4","last_reported":1690474099,"current_range_meters":5200,"station_id":"ce4bgqh2rcd13ifvqc4g","pricing_plan_id":"free"},{"bike_id":"f55d889b-b484-46f2-8836-9db322671834","system_id":"levelo_inurba_marseille","lat":43.30795,"lon":5.37643,"is_reserved":false,"is_disabled":false,"rental_uris":{"android":"levelo://app?vid=f55d889b-b484-46f2-8836-9db322671834","ios":"levelo://app?vid=f55d889b-b484-46f2-8836-9db322671834"},"vehicle_type_id":"4","last_reported":1690474099,"current_range_meters":20800,"station_id":"ce4bgv92rcd13ifvqcq0","pricing_plan_id":"free"},{"bike_id":"787637a1-5fec-4694-b5bb-cd293e6cf8c5","system_id":"levelo_inurba_marseille","lat":43.30777,"lon":5.37652,"is_reserved":false,"is_disabled":false,"rental_uris":{"android":"levelo://app?vid=787637a1-5fec-4694-b5bb-cd293e6cf8c5","ios":"levelo://app?vid=787637a1-5fec-4694-b5bb-cd293e6cf8c5"},"vehicle_type_id":"4","last_reported":1690474099,"current_range_meters":23600,"station_id":"ce4bgv92rcd13ifvqcq0","pricing_plan_id":"free"},{"bike_id":"5fd3a1b7-932c-47f2-b4b3-852a80ad0aea","system_id":"levelo_inurba_marseille","lat":43.30778,"lon":5.37653,"is_reserved":false,"is_disabled":false,"rental_uris":{"android":"levelo://app?vid=5fd3a1b7-932c-47f2-b4b3-852a80ad0aea","ios":"levelo://app?vid=5fd3a1b7-932c-47f2-b4b3-852a80ad0aea"},"vehicle_type_id":"4","last_reported":1690474099,"current_range_meters":16400,"station_id":"ce4bgv92rcd13ifvqcq0","pricing_plan_id":"free"},{"bike_id":"96ef69c9-9ccc-4ebb-b2d1-21d327b2ff63","system_id":"levelo_inurba_marseille","lat":43.30777,"lon":5.37659,"is_reserved":false,"is_disabled":false,"rental_uris":{"android":"levelo://app?vid=96ef69c9-9ccc-4ebb-b2d1-21d327b2ff63","ios":"levelo://app?vid=96ef69c9-9ccc-4ebb-b2d1-21d327b2ff63"},"vehicle_type_id":"4","last_reported":1690474099,"current_range_meters":12000,"station_id":"ce4bgv92rcd13ifvqcq0","pricing_plan_id":"free"},{"bike_id":"3ac409f9-64e9-400d-9ba9-f8f84f84294a","system_id":"levelo_inurba_marseille","lat":43.30308,"lon":5.36883,"is_reserved":false,"is_disabled":false,"rental_uris":{"android":"levelo://app?vid=3ac409f9-64e9-400d-9ba9-f8f84f84294a","ios":"levelo://app?vid=3ac409f9-64e9-400d-9ba9-f8f84f84294a"},"vehicle_type_id":"4","last_reported":1690474099,"current_range_meters":27200,"station_id":"ce4bgqh2rcd13ifvqc5g","pricing_plan_id":"free"},{"bike_id":"84f9ba70-0ed8-4570-8e6e-d314620f9b3f","system_id":"levelo_inurba_marseille","lat":43.31991,"lon":5.38148,"is_reserved":false,"is_disabled":false,"rental_uris":{"android":"levelo://app?vid=84f9ba70-0ed8-4570-8e6e-d314620f9b3f","ios":"levelo://app?vid=84f9ba70-0ed8-4570-8e6e-d314620f9b3f"},"vehicle_type_id":"4","last_reported":1690474099,"current_range_meters":1200,"station_id":"ce4bhr12rcd13ifvqhpg","pricing_plan_id":"free"},{"bike_id":"f0986254-f0cf-472e-922d-4c2727425da2","system_id":"levelo_inurba_marseille","lat":43.313571,"lon":5.384829,"is_reserved":false,"is_disabled":false,"rental_uris":{"android":"levelo://app?vid=f0986254-f0cf-472e-922d-4c2727425da2","ios":"levelo://app?vid=f0986254-f0cf-472e-922d-4c2727425da2"},"vehicle_type_id":"4","last_reported":1690474099,"current_range_meters":27600,"station_id":"ce4bgt92rcd13ifvqcf0","pricing_plan_id":"free"},{"bike_id":"4db78d49-3357-480d-a680-27c36ce8644f","system_id":"levelo_inurba_marseille","lat":43.313571,"lon":5.384829,"is_reserved":false,"is_disabled":false,"rental_uris":{"android":"levelo://app?vid=4db78d49-3357-480d-a680-27c36ce8644f","ios":"levelo://app?vid=4db78d49-3357-480d-a680-27c36ce8644f"},"vehicle_type_id":"4","last_reported":1690474099,"current_range_meters":25600,"station_id":"ce4bgt92rcd13ifvqcf0","pricing_plan_id":"free"},{"bike_id":"13ffe16a-8047-4ad0-8b62-08cdc798f91e","system_id":"levelo_inurba_marseille","lat":43.313571,"lon":5.384829,"is_reserved":false,"is_disabled":false,"rental_uris":{"android":"levelo://app?vid=13ffe16a-8047-4ad0-8b62-08cdc798f91e","ios":"levelo://app?vid=13ffe16a-8047-4ad0-8b62-08cdc798f91e"},"vehicle_type_id":"4","last_reported":1690474099,"current_range_meters":14000,"station_id":"ce4bgt92rcd13ifvqcf0","pricing_plan_id":"free"},{"bike_id":"529efb5f-2141-44bb-895c-caccb583a0f2","system_id":"levelo_inurba_marseille","lat":43.298433,"lon":5.362774,"is_reserved":false,"is_disabled":false,"rental_uris":{"android":"levelo://app?vid=529efb5f-2141-44bb-895c-caccb583a0f2","ios":"levelo://app?vid=529efb5f-2141-44bb-895c-caccb583a0f2"},"vehicle_type_id":"4","last_reported":1690474099,"current_range_meters":14000,"station_id":"ce4bgpp2rcd13ifvqc3g","pricing_plan_id":"free"},{"bike_id":"43b52d23-5434-4840-a3e9-090f18b3ca75","system_id":"levelo_inurba_marseille","lat":43.298433,"lon":5.362774,"is_reserved":false,"is_disabled":false,"rental_uris":{"android":"levelo://app?vid=43b52d23-5434-4840-a3e9-090f18b3ca75","ios":"levelo://app?vid=43b52d23-5434-4840-a3e9-090f18b3ca75"},"vehicle_type_id":"4","last_reported":1690474099,"current_range_meters":19600,"station_id":"ce4bgpp2rcd13ifvqc3g","pricing_plan_id":"free"},{"bike_id":"9b1cbaca-5739-43c2-a69a-73a10fa43815","system_id":"levelo_inurba_marseille","lat":43.29782,"lon":5.3712,"is_reserved":false,"is_disabled":false,"rental_uris":{"android":"levelo://app?vid=9b1cbaca-5739-43c2-a69a-73a10fa43815","ios":"levelo://app?vid=9b1cbaca-5739-43c2-a69a-73a10fa43815"},"vehicle_type_id":"4","last_reported":1690474099,"current_range_meters":22400,"station_id":"ce4bgop2rcd13ifvqc1g","pricing_plan_id":"free"},{"bike_id":"2f4b42df-a3df-4439-a001-cfde16dcbf2c","system_id":"levelo_inurba_marseille","lat":43.328371,"lon":5.366909,"is_reserved":false,"is_disabled":false,"rental_uris":{"android":"levelo://app?vid=2f4b42df-a3df-4439-a001-cfde16dcbf2c","ios":"levelo://app?vid=2f4b42df-a3df-4439-a001-cfde16dcbf2c"},"vehicle_type_id":"4","last_reported":1690474099,"current_range_meters":29600,"station_id":"ce4bhs92rcd13ifvqi0g","pricing_plan_id":"free"},{"bike_id":"2bbd79c2-353b-4118-91fc-2efd54ae6c44","system_id":"levelo_inurba_marseille","lat":43.328371,"lon":5.366909,"is_reserved":false,"is_disabled":false,"rental_uris":{"android":"levelo://app?vid=2bbd79c2-353b-4118-91fc-2efd54ae6c44","ios":"levelo://app?vid=2bbd79c2-353b-4118-91fc-2efd54ae6c44"},"vehicle_type_id":"4","last_reported":1690474099,"current_range_meters":29200,"station_id":"ce4bhs92rcd13ifvqi0g","pricing_plan_id":"free"},{"bike_id":"1ddfe248-918b-4110-9c81-ca8a913d4717","system_id":"levelo_inurba_marseille","lat":43.32823,"lon":5.36667,"is_reserved":false,"is_disabled":false,"rental_uris":{"android":"levelo://app?vid=1ddfe248-918b-4110-9c81-ca8a913d4717","ios":"levelo://app?vid=1ddfe248-918b-4110-9c81-ca8a913d4717"},"vehicle_type_id":"4","last_reported":1690474099,"current_range_meters":26000,"station_id":"ce4bhs92rcd13ifvqi0g","pricing_plan_id":"free"},{"bike_id":"dd789220-e7b5-42c1-b9dc-dc4243148021","system_id":"levelo_inurba_marseille","lat":43.297163,"lon":5.365866,"is_reserved":false,"is_disabled":false,"rental_uris":{"android":"levelo://app?vid=dd789220-e7b5-42c1-b9dc-dc4243148021","ios":"levelo://app?vid=dd789220-e7b5-42c1-b9dc-dc4243148021"},"vehicle_type_id":"4","last_reported":1690474099,"current_range_meters":31200,"station_id":"ce4bgn12rcd13ifvqbt0","pricing_plan_id":"free"},{"bike_id":"0c8b7f2a-2a08-404c-8e19-5d56ae418da4","system_id":"levelo_inurba_marseille","lat":43.32828,"lon":5.36692,"is_reserved":false,"is_disabled":false,"rental_uris":{"android":"levelo://app?vid=0c8b7f2a-2a08-404c-8e19-5d56ae418da4","ios":"levelo://app?vid=0c8b7f2a-2a08-404c-8e19-5d56ae418da4"},"vehicle_type_id":"4","last_reported":1690474099,"current_range_meters":27200,"station_id":"ce4bhs92rcd13ifvqi0g","pricing_plan_id":"free"},{"bike_id":"c8f6d41a-c553-4562-98a9-85488af92a6a","system_id":"levelo_inurba_marseille","lat":43.32828,"lon":5.36694,"is_reserved":false,"is_disabled":false,"rental_uris":{"android":"levelo://app?vid=c8f6d41a-c553-4562-98a9-85488af92a6a","ios":"levelo://app?vid=c8f6d41a-c553-4562-98a9-85488af92a6a"},"vehicle_type_id":"4","last_reported":1690474099,"current_range_meters":28800,"station_id":"ce4bhs92rcd13ifvqi0g","pricing_plan_id":"free"},{"bike_id":"5c735875-dde5-4084-b0d2-809261704a86","system_id":"levelo_inurba_marseille","lat":43.3283,"lon":5.36678,"is_reserved":false,"is_disabled":false,"rental_uris":{"android":"levelo://app?vid=5c735875-dde5-4084-b0d2-809261704a86","ios":"levelo://app?vid=5c735875-dde5-4084-b0d2-809261704a86"},"vehicle_type_id":"4","last_reported":1690474099,"current_range_meters":14400,"station_id":"ce4bhs92rcd13ifvqi0g","pricing_plan_id":"free"},{"bike_id":"4d1edb0c-2931-4e40-b5d3-304c14847680","system_id":"levelo_inurba_marseille","lat":43.32833,"lon":5.36683,"is_reserved":false,"is_disabled":false,"rental_uris":{"android":"levelo://app?vid=4d1edb0c-2931-4e40-b5d3-304c14847680","ios":"levelo://app?vid=4d1edb0c-2931-4e40-b5d3-304c14847680"},"vehicle_type_id":"4","last_reported":1690474099,"current_range_meters":18000,"station_id":"ce4bhs92rcd13ifvqi0g","pricing_plan_id":"free"},{"bike_id":"6bc369f5-6da9-4ef5-a152-12f11b99da4b","system_id":"levelo_inurba_marseille","lat":43.31432,"lon":5.3901,"is_reserved":false,"is_disabled":false,"rental_uris":{"android":"levelo://app?vid=6bc369f5-6da9-4ef5-a152-12f11b99da4b","ios":"levelo://app?vid=6bc369f5-6da9-4ef5-a152-12f11b99da4b"},"vehicle_type_id":"4","last_reported":1690474099,"current_range_meters":23600,"station_id":"","pricing_plan_id":"free"},{"bike_id":"be3ac29d-12a4-4229-afd0-e12f49567890","system_id":"levelo_inurba_marseille","lat":43.297138,"lon":5.37688,"is_reserved":false,"is_disabled":false,"rental_uris":{"android":"levelo://app?vid=be3ac29d-12a4-4229-afd0-e12f49567890","ios":"levelo://app?vid=be3ac29d-12a4-4229-afd0-e12f49567890"},"vehicle_type_id":"4","last_reported":1690474099,"current_range_meters":0,"station_id":"ce4bgkh2rcd13ifvqbl0","pricing_plan_id":"free"},{"bike_id":"80996baf-8597-4552-b66a-a0139bedf903","system_id":"levelo_inurba_marseille","lat":43.309502,"lon":5.390365,"is_reserved":false,"is_disabled":false,"rental_uris":{"android":"levelo://app?vid=80996baf-8597-4552-b66a-a0139bedf903","ios":"levelo://app?vid=80996baf-8597-4552-b66a-a0139bedf903"},"vehicle_type_id":"4","last_reported":1690474099,"current_range_meters":9600,"station_id":"","pricing_plan_id":"free"},{"bike_id":"f0b1921d-8fc5-42f6-8214-26455e772ce5","system_id":"levelo_inurba_marseille","lat":43.309589,"lon":5.390258,"is_reserved":false,"is_disabled":false,"rental_uris":{"android":"levelo://app?vid=f0b1921d-8fc5-42f6-8214-26455e772ce5","ios":"levelo://app?vid=f0b1921d-8fc5-42f6-8214-26455e772ce5"},"vehicle_type_id":"4","last_reported":1690474099,"current_range_meters":28400,"station_id":"ce4bgup2rcd13ifvqco0","pricing_plan_id":"free"},{"bike_id":"33ae7d49-162c-4566-82bc-1b4c9e1c338e","system_id":"levelo_inurba_marseille","lat":43.317557,"lon":5.390173,"is_reserved":false,"is_disabled":false,"rental_uris":{"android":"levelo://app?vid=33ae7d49-162c-4566-82bc-1b4c9e1c338e","ios":"levelo://app?vid=33ae7d49-162c-4566-82bc-1b4c9e1c338e"},"vehicle_type_id":"4","last_reported":1690474099,"current_range_meters":21200,"station_id":"ce4bhqp2rcd13ifvqhng","pricing_plan_id":"free"},{"bike_id":"c810b192-2662-4b00-8b60-6233c75d5316","system_id":"levelo_inurba_marseille","lat":43.298037,"lon":5.381066,"is_reserved":false,"is_disabled":false,"rental_uris":{"android":"levelo://app?vid=c810b192-2662-4b00-8b60-6233c75d5316","ios":"levelo://app?vid=c810b192-2662-4b00-8b60-6233c75d5316"},"vehicle_type_id":"4","last_reported":1690474099,"current_range_meters":30400,"station_id":"ce4bgip2rcd13ifvqbb0","pricing_plan_id":"free"},{"bike_id":"3acfc948-35eb-4026-940a-a95c80cf42c1","system_id":"levelo_inurba_marseille","lat":43.295748,"lon":5.37522,"is_reserved":false,"is_disabled":false,"rental_uris":{"android":"levelo://app?vid=3acfc948-35eb-4026-940a-a95c80cf42c1","ios":"levelo://app?vid=3acfc948-35eb-4026-940a-a95c80cf42c1"},"vehicle_type_id":"4","last_reported":1690474099,"current_range_meters":31200,"station_id":"ce4bgh92rcd13ifvqb50","pricing_plan_id":"free"},{"bike_id":"6688cd9b-cdbd-4e4b-92f7-bceb9318de28","system_id":"levelo_inurba_marseille","lat":43.29573,"lon":5.37504,"is_reserved":false,"is_disabled":false,"rental_uris":{"android":"levelo://app?vid=6688cd9b-cdbd-4e4b-92f7-bceb9318de28","ios":"levelo://app?vid=6688cd9b-cdbd-4e4b-92f7-bceb9318de28"},"vehicle_type_id":"4","last_reported":1690474099,"current_range_meters":24800,"station_id":"ce4bgh92rcd13ifvqb50","pricing_plan_id":"free"},{"bike_id":"dc8cd540-cdd9-4980-bceb-39cbccd697d5","system_id":"levelo_inurba_marseille","lat":43.30421,"lon":5.38879,"is_reserved":false,"is_disabled":false,"rental_uris":{"android":"levelo://app?vid=dc8cd540-cdd9-4980-bceb-39cbccd697d5","ios":"levelo://app?vid=dc8cd540-cdd9-4980-bceb-39cbccd697d5"},"vehicle_type_id":"4","last_reported":1690474099,"current_range_meters":22000,"station_id":"ce4bgk12rcd13ifvqbi0","pricing_plan_id":"free"},{"bike_id":"895d0665-ba5e-469f-b5b0-588f5b5ec8a4","system_id":"levelo_inurba_marseille","lat":43.29617,"lon":5.377203,"is_reserved":false,"is_disabled":false,"rental_uris":{"android":"levelo://app?vid=895d0665-ba5e-469f-b5b0-588f5b5ec8a4","ios":"levelo://app?vid=895d0665-ba5e-469f-b5b0-588f5b5ec8a4"},"vehicle_type_id":"4","last_reported":1690474099,"current_range_meters":1200,"station_id":"ce4bgi92rcd13ifvqb90","pricing_plan_id":"free"},{"bike_id":"dbb8c28a-434c-43cd-9535-b12eab3ee5d9","system_id":"levelo_inurba_marseille","lat":43.294162,"lon":5.386292,"is_reserved":false,"is_disabled":false,"rental_uris":{"android":"levelo://app?vid=dbb8c28a-434c-43cd-9535-b12eab3ee5d9","ios":"levelo://app?vid=dbb8c28a-434c-43cd-9535-b12eab3ee5d9"},"vehicle_type_id":"4","last_reported":1690474099,"current_range_meters":2800,"station_id":"ce4bh2h2rcd13ifvqdh0","pricing_plan_id":"free"},{"bike_id":"35271d95-c494-40dd-8da7-2203a22c9da1","system_id":"levelo_inurba_marseille","lat":43.32366,"lon":5.38884,"is_reserved":false,"is_disabled":false,"rental_uris":{"android":"levelo://app?vid=35271d95-c494-40dd-8da7-2203a22c9da1","ios":"levelo://app?vid=35271d95-c494-40dd-8da7-2203a22c9da1"},"vehicle_type_id":"4","last_reported":1690474099,"current_range_meters":28800,"station_id":"ce4bhqp2rcd13ifvqhog","pricing_plan_id":"free"},{"bike_id":"8cb10aff-5b12-4429-89af-bc8f5ed79456","system_id":"levelo_inurba_marseille","lat":43.32363,"lon":5.38887,"is_reserved":false,"is_disabled":false,"rental_uris":{"android":"levelo://app?vid=8cb10aff-5b12-4429-89af-bc8f5ed79456","ios":"levelo://app?vid=8cb10aff-5b12-4429-89af-bc8f5ed79456"},"vehicle_type_id":"4","last_reported":1690474099,"current_range_meters":26000,"station_id":"ce4bhqp2rcd13ifvqhog","pricing_plan_id":"free"},{"bike_id":"917e3f20-d339-4a66-b480-e756fa2fcd94","system_id":"levelo_inurba_marseille","lat":43.32367,"lon":5.388836,"is_reserved":false,"is_disabled":false,"rental_uris":{"android":"levelo://app?vid=917e3f20-d339-4a66-b480-e756fa2fcd94","ios":"levelo://app?vid=917e3f20-d339-4a66-b480-e756fa2fcd94"},"vehicle_type_id":"4","last_reported":1690474099,"current_range_meters":23600,"station_id":"ce4bhqp2rcd13ifvqhog","pricing_plan_id":"free"},{"bike_id":"891b7811-82bc-4d9d-86a0-8954d423b097","system_id":"levelo_inurba_marseille","lat":43.32364,"lon":5.38897,"is_reserved":false,"is_disabled":false,"rental_uris":{"android":"levelo://app?vid=891b7811-82bc-4d9d-86a0-8954d423b097","ios":"levelo://app?vid=891b7811-82bc-4d9d-86a0-8954d423b097"},"vehicle_type_id":"4","last_reported":1690474099,"current_range_meters":30000,"station_id":"ce4bhqp2rcd13ifvqhog","pricing_plan_id":"free"},{"bike_id":"b3e7b434-a392-438e-841e-3ffe6c232f0c","system_id":"levelo_inurba_marseille","lat":43.29602,"lon":5.381084,"is_reserved":false,"is_disabled":false,"rental_uris":{"android":"levelo://app?vid=b3e7b434-a392-438e-841e-3ffe6c232f0c","ios":"levelo://app?vid=b3e7b434-a392-438e-841e-3ffe6c232f0c"},"vehicle_type_id":"4","last_reported":1690474099,"current_range_meters":30000,"station_id":"ce4bgl12rcd13ifvqbo0","pricing_plan_id":"free"},{"bike_id":"574b554f-183e-4df3-b842-130874b7b107","system_id":"levelo_inurba_marseille","lat":43.292749,"lon":5.368402,"is_reserved":false,"is_disabled":false,"rental_uris":{"android":"levelo://app?vid=574b554f-183e-4df3-b842-130874b7b107","ios":"levelo://app?vid=574b554f-183e-4df3-b842-130874b7b107"},"vehicle_type_id":"4","last_reported":1690474099,"current_range_meters":26000,"station_id":"ce4bhbp2rcd13ifvqesg","pricing_plan_id":"free"},{"bike_id":"d23a203f-b758-4f38-8d19-22bdfcce7c59","system_id":"levelo_inurba_marseille","lat":43.305994,"lon":5.393687,"is_reserved":false,"is_disabled":false,"rental_uris":{"android":"levelo://app?vid=d23a203f-b758-4f38-8d19-22bdfcce7c59","ios":"levelo://app?vid=d23a203f-b758-4f38-8d19-22bdfcce7c59"},"vehicle_type_id":"4","last_reported":1690474099,"current_range_meters":19200,"station_id":"ce4bh0p2rcd13ifvqd80","pricing_plan_id":"free"},{"bike_id":"f81eb29c-dd20-4377-82d2-59f329884a6b","system_id":"levelo_inurba_marseille","lat":43.303099,"lon":5.39207,"is_reserved":false,"is_disabled":false,"rental_uris":{"android":"levelo://app?vid=f81eb29c-dd20-4377-82d2-59f329884a6b","ios":"levelo://app?vid=f81eb29c-dd20-4377-82d2-59f329884a6b"},"vehicle_type_id":"4","last_reported":1690474099,"current_range_meters":29200,"station_id":"ce4bgkh2rcd13ifvqbk0","pricing_plan_id":"free"},{"bike_id":"231a4be4-e982-4079-af27-c3d577513074","system_id":"levelo_inurba_marseille","lat":43.29265,"lon":5.35988,"is_reserved":false,"is_disabled":false,"rental_uris":{"android":"levelo://app?vid=231a4be4-e982-4079-af27-c3d577513074","ios":"levelo://app?vid=231a4be4-e982-4079-af27-c3d577513074"},"vehicle_type_id":"4","last_reported":1690474099,"current_range_meters":23200,"station_id":"","pricing_plan_id":"free"},{"bike_id":"fb8877b6-cc81-47b6-8ce8-d6a492c3b26b","system_id":"levelo_inurba_marseille","lat":43.302992,"lon":5.392136,"is_reserved":false,"is_disabled":false,"rental_uris":{"android":"levelo://app?vid=fb8877b6-cc81-47b6-8ce8-d6a492c3b26b","ios":"levelo://app?vid=fb8877b6-cc81-47b6-8ce8-d6a492c3b26b"},"vehicle_type_id":"4","last_reported":1690474099,"current_range_meters":13600,"station_id":"ce4bgkh2rcd13ifvqbk0","pricing_plan_id":"free"},{"bike_id":"1717e7c0-d2fa-4c87-9a5a-0a1c7bca0e04","system_id":"levelo_inurba_marseille","lat":43.303002,"lon":5.392142,"is_reserved":false,"is_disabled":false,"rental_uris":{"android":"levelo://app?vid=1717e7c0-d2fa-4c87-9a5a-0a1c7bca0e04","ios":"levelo://app?vid=1717e7c0-d2fa-4c87-9a5a-0a1c7bca0e04"},"vehicle_type_id":"4","last_reported":1690474099,"current_range_meters":27600,"station_id":"ce4bgkh2rcd13ifvqbk0","pricing_plan_id":"free"},{"bike_id":"222aac2d-c356-4cf3-b57d-a38e92f12370","system_id":"levelo_inurba_marseille","lat":43.2936,"lon":5.37835,"is_reserved":false,"is_disabled":false,"rental_uris":{"android":"levelo://app?vid=222aac2d-c356-4cf3-b57d-a38e92f12370","ios":"levelo://app?vid=222aac2d-c356-4cf3-b57d-a38e92f12370"},"vehicle_type_id":"4","last_reported":1690474099,"current_range_meters":0,"station_id":"ce4bgjh2rcd13ifvqbf0","pricing_plan_id":"free"},{"bike_id":"32c63e89-a616-44ad-a90b-c0c027488b6d","system_id":"levelo_inurba_marseille","lat":43.302992,"lon":5.392136,"is_reserved":false,"is_disabled":false,"rental_uris":{"android":"levelo://app?vid=32c63e89-a616-44ad-a90b-c0c027488b6d","ios":"levelo://app?vid=32c63e89-a616-44ad-a90b-c0c027488b6d"},"vehicle_type_id":"4","last_reported":1690474099,"current_range_meters":12400,"station_id":"ce4bgkh2rcd13ifvqbk0","pricing_plan_id":"free"},{"bike_id":"4d835193-ad33-46a7-9b09-75c644c67af8","system_id":"levelo_inurba_marseille","lat":43.292311,"lon":5.360731,"is_reserved":false,"is_disabled":false,"rental_uris":{"android":"levelo://app?vid=4d835193-ad33-46a7-9b09-75c644c67af8","ios":"levelo://app?vid=4d835193-ad33-46a7-9b09-75c644c67af8"},"vehicle_type_id":"4","last_reported":1690474099,"current_range_meters":0,"station_id":"ce4bhbh2rcd13ifvqeqg","pricing_plan_id":"free"},{"bike_id":"efc45fa6-15a2-4e45-8b62-75aa4a89e577","system_id":"levelo_inurba_marseille","lat":43.292311,"lon":5.360731,"is_reserved":false,"is_disabled":false,"rental_uris":{"android":"levelo://app?vid=efc45fa6-15a2-4e45-8b62-75aa4a89e577","ios":"levelo://app?vid=efc45fa6-15a2-4e45-8b62-75aa4a89e577"},"vehicle_type_id":"4","last_reported":1690474099,"current_range_meters":12800,"station_id":"ce4bhbh2rcd13ifvqeqg","pricing_plan_id":"free"},{"bike_id":"4e8a610a-d089-4f68-83a1-c93d2dc74e20","system_id":"levelo_inurba_marseille","lat":43.300852,"lon":5.390859,"is_reserved":false,"is_disabled":false,"rental_uris":{"android":"levelo://app?vid=4e8a610a-d089-4f68-83a1-c93d2dc74e20","ios":"levelo://app?vid=4e8a610a-d089-4f68-83a1-c93d2dc74e20"},"vehicle_type_id":"4","last_reported":1690474099,"current_range_meters":22400,"station_id":"ce4bh192rcd13ifvqdb0","pricing_plan_id":"free"},{"bike_id":"db28e87e-5463-43f4-84a5-bbb098f6881a","system_id":"levelo_inurba_marseille","lat":43.29195,"lon":5.35802,"is_reserved":false,"is_disabled":false,"rental_uris":{"android":"levelo://app?vid=db28e87e-5463-43f4-84a5-bbb098f6881a","ios":"levelo://app?vid=db28e87e-5463-43f4-84a5-bbb098f6881a"},"vehicle_type_id":"4","last_reported":1690474099,"current_range_meters":26400,"station_id":"ce4bhb12rcd13ifvqel0","pricing_plan_id":"free"},{"bike_id":"b74a5d23-460d-4a43-a293-e7f7dbfe0195","system_id":"levelo_inurba_marseille","lat":43.291994,"lon":5.357886,"is_reserved":false,"is_disabled":false,"rental_uris":{"android":"levelo://app?vid=b74a5d23-460d-4a43-a293-e7f7dbfe0195","ios":"levelo://app?vid=b74a5d23-460d-4a43-a293-e7f7dbfe0195"},"vehicle_type_id":"4","last_reported":1690474099,"current_range_meters":22800,"station_id":"ce4bhb12rcd13ifvqel0","pricing_plan_id":"free"},{"bike_id":"c81a0ef3-4570-4671-bc16-cfc3652fbcd6","system_id":"levelo_inurba_marseille","lat":43.29191,"lon":5.35805,"is_reserved":false,"is_disabled":false,"rental_uris":{"android":"levelo://app?vid=c81a0ef3-4570-4671-bc16-cfc3652fbcd6","ios":"levelo://app?vid=c81a0ef3-4570-4671-bc16-cfc3652fbcd6"},"vehicle_type_id":"4","last_reported":1690474099,"current_range_meters":23200,"station_id":"ce4bhb12rcd13ifvqel0","pricing_plan_id":"free"},{"bike_id":"b06b840d-9f32-4c78-962b-7be232b23045","system_id":"levelo_inurba_marseille","lat":43.29192,"lon":5.35798,"is_reserved":false,"is_disabled":false,"rental_uris":{"android":"levelo://app?vid=b06b840d-9f32-4c78-962b-7be232b23045","ios":"levelo://app?vid=b06b840d-9f32-4c78-962b-7be232b23045"},"vehicle_type_id":"4","last_reported":1690474099,"current_range_meters":20000,"station_id":"ce4bhb12rcd13ifvqel0","pricing_plan_id":"free"},{"bike_id":"5d00b98a-9b8d-437f-90ca-fda530ca4a82","system_id":"levelo_inurba_marseille","lat":43.291994,"lon":5.357886,"is_reserved":false,"is_disabled":false,"rental_uris":{"android":"levelo://app?vid=5d00b98a-9b8d-437f-90ca-fda530ca4a82","ios":"levelo://app?vid=5d00b98a-9b8d-437f-90ca-fda530ca4a82"},"vehicle_type_id":"4","last_reported":1690474099,"current_range_meters":7200,"station_id":"ce4bhb12rcd13ifvqel0","pricing_plan_id":"free"},{"bike_id":"b55664cd-abc6-41cd-a556-589f1c63f26f","system_id":"levelo_inurba_marseille","lat":43.29189,"lon":5.35808,"is_reserved":false,"is_disabled":false,"rental_uris":{"android":"levelo://app?vid=b55664cd-abc6-41cd-a556-589f1c63f26f","ios":"levelo://app?vid=b55664cd-abc6-41cd-a556-589f1c63f26f"},"vehicle_type_id":"4","last_reported":1690474099,"current_range_meters":5600,"station_id":"ce4bhb12rcd13ifvqel0","pricing_plan_id":"free"},{"bike_id":"19babfca-a278-4f27-811d-fe030f24ed11","system_id":"levelo_inurba_marseille","lat":43.30883,"lon":5.39647,"is_reserved":false,"is_disabled":false,"rental_uris":{"android":"levelo://app?vid=19babfca-a278-4f27-811d-fe030f24ed11","ios":"levelo://app?vid=19babfca-a278-4f27-811d-fe030f24ed11"},"vehicle_type_id":"4","last_reported":1690474099,"current_range_meters":25200,"station_id":"ce4bh012rcd13ifvqcv0","pricing_plan_id":"free"},{"bike_id":"8a2ed2f6-6df8-4bcf-9105-8e7ba9132f4f","system_id":"levelo_inurba_marseille","lat":43.30879,"lon":5.39646,"is_reserved":false,"is_disabled":false,"rental_uris":{"android":"levelo://app?vid=8a2ed2f6-6df8-4bcf-9105-8e7ba9132f4f","ios":"levelo://app?vid=8a2ed2f6-6df8-4bcf-9105-8e7ba9132f4f"},"vehicle_type_id":"4","last_reported":1690474099,"current_range_meters":2800,"station_id":"ce4bh012rcd13ifvqcv0","pricing_plan_id":"free"},{"bike_id":"04bfead0-bd48-496f-85ae-ae10b80287ac","system_id":"levelo_inurba_marseille","lat":43.313291,"lon":5.396838,"is_reserved":false,"is_disabled":false,"rental_uris":{"android":"levelo://app?vid=04bfead0-bd48-496f-85ae-ae10b80287ac","ios":"levelo://app?vid=04bfead0-bd48-496f-85ae-ae10b80287ac"},"vehicle_type_id":"4","last_reported":1690474099,"current_range_meters":26000,"station_id":"ce4bgvp2rcd13ifvqcu0","pricing_plan_id":"free"},{"bike_id":"1ee21326-1866-416c-9a60-241214c93c3c","system_id":"levelo_inurba_marseille","lat":43.309038,"lon":5.396546,"is_reserved":false,"is_disabled":false,"rental_uris":{"android":"levelo://app?vid=1ee21326-1866-416c-9a60-241214c93c3c","ios":"levelo://app?vid=1ee21326-1866-416c-9a60-241214c93c3c"},"vehicle_type_id":"4","last_reported":1690474099,"current_range_meters":18000,"station_id":"ce4bh012rcd13ifvqcv0","pricing_plan_id":"free"},{"bike_id":"7f1ef828-0ee6-4358-8000-712c49b87902","system_id":"levelo_inurba_marseille","lat":43.30895,"lon":5.39658,"is_reserved":false,"is_disabled":false,"rental_uris":{"android":"levelo://app?vid=7f1ef828-0ee6-4358-8000-712c49b87902","ios":"levelo://app?vid=7f1ef828-0ee6-4358-8000-712c49b87902"},"vehicle_type_id":"4","last_reported":1690474099,"current_range_meters":18400,"station_id":"ce4bh012rcd13ifvqcv0","pricing_plan_id":"free"},{"bike_id":"77b4db7b-fe49-4f4e-a582-0ac80534ed97","system_id":"levelo_inurba_marseille","lat":43.30887,"lon":5.39658,"is_reserved":false,"is_disabled":false,"rental_uris":{"android":"levelo://app?vid=77b4db7b-fe49-4f4e-a582-0ac80534ed97","ios":"levelo://app?vid=77b4db7b-fe49-4f4e-a582-0ac80534ed97"},"vehicle_type_id":"4","last_reported":1690474099,"current_range_meters":14000,"station_id":"ce4bh012rcd13ifvqcv0","pricing_plan_id":"free"},{"bike_id":"19db133c-dcf2-45f3-823e-0372aa9231b3","system_id":"levelo_inurba_marseille","lat":43.29529,"lon":5.385581,"is_reserved":false,"is_disabled":false,"rental_uris":{"android":"levelo://app?vid=19db133c-dcf2-45f3-823e-0372aa9231b3","ios":"levelo://app?vid=19db133c-dcf2-45f3-823e-0372aa9231b3"},"vehicle_type_id":"4","last_reported":1690474099,"current_range_meters":12800,"station_id":"ce4bgih2rcd13ifvqba0","pricing_plan_id":"free"},{"bike_id":"2d18d1c3-1bda-4794-b634-139a24b2d410","system_id":"levelo_inurba_marseille","lat":43.313291,"lon":5.396838,"is_reserved":false,"is_disabled":false,"rental_uris":{"android":"levelo://app?vid=2d18d1c3-1bda-4794-b634-139a24b2d410","ios":"levelo://app?vid=2d18d1c3-1bda-4794-b634-139a24b2d410"},"vehicle_type_id":"4","last_reported":1690474099,"current_range_meters":0,"station_id":"ce4bgvp2rcd13ifvqcu0","pricing_plan_id":"free"},{"bike_id":"98edbc6c-a492-4f85-92f1-c88863f707bc","system_id":"levelo_inurba_marseille","lat":43.290779,"lon":5.371482,"is_reserved":false,"is_disabled":false,"rental_uris":{"android":"levelo://app?vid=98edbc6c-a492-4f85-92f1-c88863f707bc","ios":"levelo://app?vid=98edbc6c-a492-4f85-92f1-c88863f707bc"},"vehicle_type_id":"4","last_reported":1690474099,"current_range_meters":9600,"station_id":"ce4bh5p2rcd13ifvqe4g","pricing_plan_id":"free"},{"bike_id":"4dc39162-ed18-4417-a965-e638be1b91f3","system_id":"levelo_inurba_marseille","lat":43.290779,"lon":5.371482,"is_reserved":false,"is_disabled":false,"rental_uris":{"android":"levelo://app?vid=4dc39162-ed18-4417-a965-e638be1b91f3","ios":"levelo://app?vid=4dc39162-ed18-4417-a965-e638be1b91f3"},"vehicle_type_id":"4","last_reported":1690474099,"current_range_meters":12400,"station_id":"ce4bh5p2rcd13ifvqe4g","pricing_plan_id":"free"},{"bike_id":"ed2c0e1d-0c50-48dd-bb83-8fc618630251","system_id":"levelo_inurba_marseille","lat":43.290624,"lon":5.359245,"is_reserved":false,"is_disabled":false,"rental_uris":{"android":"levelo://app?vid=ed2c0e1d-0c50-48dd-bb83-8fc618630251","ios":"levelo://app?vid=ed2c0e1d-0c50-48dd-bb83-8fc618630251"},"vehicle_type_id":"4","last_reported":1690474099,"current_range_meters":15600,"station_id":"ce4bha92rcd13ifvqeg0","pricing_plan_id":"free"},{"bike_id":"05fb517a-0827-49c0-8059-bd4e004c0e08","system_id":"levelo_inurba_marseille","lat":43.290631,"lon":5.359244,"is_reserved":false,"is_disabled":false,"rental_uris":{"android":"levelo://app?vid=05fb517a-0827-49c0-8059-bd4e004c0e08","ios":"levelo://app?vid=05fb517a-0827-49c0-8059-bd4e004c0e08"},"vehicle_type_id":"4","last_reported":1690474099,"current_range_meters":9200,"station_id":"ce4bha92rcd13ifvqeg0","pricing_plan_id":"free"},{"bike_id":"f0fa4aec-f16d-4edb-9839-91bc1abc05bd","system_id":"levelo_inurba_marseille","lat":43.290631,"lon":5.359244,"is_reserved":false,"is_disabled":false,"rental_uris":{"android":"levelo://app?vid=f0fa4aec-f16d-4edb-9839-91bc1abc05bd","ios":"levelo://app?vid=f0fa4aec-f16d-4edb-9839-91bc1abc05bd"},"vehicle_type_id":"4","last_reported":1690474099,"current_range_meters":25200,"station_id":"ce4bha92rcd13ifvqeg0","pricing_plan_id":"free"},{"bike_id":"4513f7c9-47b8-4cbd-8615-8832f9be58bb","system_id":"levelo_inurba_marseille","lat":43.29045,"lon":5.35901,"is_reserved":false,"is_disabled":false,"rental_uris":{"android":"levelo://app?vid=4513f7c9-47b8-4cbd-8615-8832f9be58bb","ios":"levelo://app?vid=4513f7c9-47b8-4cbd-8615-8832f9be58bb"},"vehicle_type_id":"4","last_reported":1690474099,"current_range_meters":27200,"station_id":"","pricing_plan_id":"free"},{"bike_id":"a2c83f28-9e90-4e6f-9a4f-73b8f04c518a","system_id":"levelo_inurba_marseille","lat":43.289184,"lon":5.366408,"is_reserved":false,"is_disabled":false,"rental_uris":{"android":"levelo://app?vid=a2c83f28-9e90-4e6f-9a4f-73b8f04c518a","ios":"levelo://app?vid=a2c83f28-9e90-4e6f-9a4f-73b8f04c518a"},"vehicle_type_id":"4","last_reported":1690474099,"current_range_meters":31200,"station_id":"ce4bhap2rcd13ifvqek0","pricing_plan_id":"free"},{"bike_id":"9cc56cde-0c6c-496a-94e0-16bd71de7cb4","system_id":"levelo_inurba_marseille","lat":43.294162,"lon":5.386292,"is_reserved":false,"is_disabled":false,"rental_uris":{"android":"levelo://app?vid=9cc56cde-0c6c-496a-94e0-16bd71de7cb4","ios":"levelo://app?vid=9cc56cde-0c6c-496a-94e0-16bd71de7cb4"},"vehicle_type_id":"4","last_reported":1690474099,"current_range_meters":24400,"station_id":"ce4bh2h2rcd13ifvqdh0","pricing_plan_id":"free"},{"bike_id":"018baec5-8c98-42ec-9cb8-6360acf00884","system_id":"levelo_inurba_marseille","lat":43.289184,"lon":5.366408,"is_reserved":false,"is_disabled":false,"rental_uris":{"android":"levelo://app?vid=018baec5-8c98-42ec-9cb8-6360acf00884","ios":"levelo://app?vid=018baec5-8c98-42ec-9cb8-6360acf00884"},"vehicle_type_id":"4","last_reported":1690474099,"current_range_meters":16000,"station_id":"ce4bhap2rcd13ifvqek0","pricing_plan_id":"free"},{"bike_id":"333cae22-9ae4-4c38-86b1-266aba06c5e8","system_id":"levelo_inurba_marseille","lat":43.289468,"lon":5.363719,"is_reserved":false,"is_disabled":false,"rental_uris":{"android":"levelo://app?vid=333cae22-9ae4-4c38-86b1-266aba06c5e8","ios":"levelo://app?vid=333cae22-9ae4-4c38-86b1-266aba06c5e8"},"vehicle_type_id":"4","last_reported":1690474099,"current_range_meters":26800,"station_id":"ce4bhc92rcd13ifvqetg","pricing_plan_id":"free"},{"bike_id":"e45672da-e0c7-4538-977d-3418aa30218f","system_id":"levelo_inurba_marseille","lat":43.289184,"lon":5.366408,"is_reserved":false,"is_disabled":false,"rental_uris":{"android":"levelo://app?vid=e45672da-e0c7-4538-977d-3418aa30218f","ios":"levelo://app?vid=e45672da-e0c7-4538-977d-3418aa30218f"},"vehicle_type_id":"4","last_reported":1690474099,"current_range_meters":28000,"station_id":"ce4bhap2rcd13ifvqek0","pricing_plan_id":"free"},{"bike_id":"5f75021c-386f-4a6c-aac1-a3b16df576a9","system_id":"levelo_inurba_marseille","lat":43.289184,"lon":5.366408,"is_reserved":false,"is_disabled":false,"rental_uris":{"android":"levelo://app?vid=5f75021c-386f-4a6c-aac1-a3b16df576a9","ios":"levelo://app?vid=5f75021c-386f-4a6c-aac1-a3b16df576a9"},"vehicle_type_id":"4","last_reported":1690474099,"current_range_meters":24400,"station_id":"ce4bhap2rcd13ifvqek0","pricing_plan_id":"free"},{"bike_id":"c479f09c-6454-45c1-b2cc-6eb7f76e3a25","system_id":"levelo_inurba_marseille","lat":43.289184,"lon":5.366408,"is_reserved":false,"is_disabled":false,"rental_uris":{"android":"levelo://app?vid=c479f09c-6454-45c1-b2cc-6eb7f76e3a25","ios":"levelo://app?vid=c479f09c-6454-45c1-b2cc-6eb7f76e3a25"},"vehicle_type_id":"4","last_reported":1690474099,"current_range_meters":30000,"station_id":"ce4bhap2rcd13ifvqek0","pricing_plan_id":"free"},{"bike_id":"0aa6134f-56b8-4654-ad59-eff92cb43add","system_id":"levelo_inurba_marseille","lat":43.289184,"lon":5.366408,"is_reserved":false,"is_disabled":false,"rental_uris":{"android":"levelo://app?vid=0aa6134f-56b8-4654-ad59-eff92cb43add","ios":"levelo://app?vid=0aa6134f-56b8-4654-ad59-eff92cb43add"},"vehicle_type_id":"4","last_reported":1690474099,"current_range_meters":31200,"station_id":"ce4bhap2rcd13ifvqek0","pricing_plan_id":"free"},{"bike_id":"1dceb564-ffc4-4481-83d6-6b573eb62e0a","system_id":"levelo_inurba_marseille","lat":43.330442,"lon":5.389148,"is_reserved":false,"is_disabled":false,"rental_uris":{"android":"levelo://app?vid=1dceb564-ffc4-4481-83d6-6b573eb62e0a","ios":"levelo://app?vid=1dceb564-ffc4-4481-83d6-6b573eb62e0a"},"vehicle_type_id":"4","last_reported":1690474099,"current_range_meters":3600,"station_id":"ce4bhr92rcd13ifvqhrg","pricing_plan_id":"free"},{"bike_id":"ecf7e4e0-2688-4fdc-8c9d-62125189c0ee","system_id":"levelo_inurba_marseille","lat":43.279087,"lon":5.380114,"is_reserved":false,"is_disabled":false,"rental_uris":{"android":"levelo://app?vid=ecf7e4e0-2688-4fdc-8c9d-62125189c0ee","ios":"levelo://app?vid=ecf7e4e0-2688-4fdc-8c9d-62125189c0ee"},"vehicle_type_id":"4","last_reported":1690474099,"current_range_meters":25200,"station_id":"ce4bhf92rcd13ifvqf50","pricing_plan_id":"free"},{"bike_id":"05dfbe9a-b423-43a9-84a2-018e3b6eafb7","system_id":"levelo_inurba_marseille","lat":43.29258,"lon":5.38445,"is_reserved":false,"is_disabled":false,"rental_uris":{"android":"levelo://app?vid=05dfbe9a-b423-43a9-84a2-018e3b6eafb7","ios":"levelo://app?vid=05dfbe9a-b423-43a9-84a2-018e3b6eafb7"},"vehicle_type_id":"4","last_reported":1690474099,"current_range_meters":23200,"station_id":"ce4bh692rcd13ifvqea0","pricing_plan_id":"free"},{"bike_id":"2c914af5-3f76-4c26-ae2e-a98cca55902c","system_id":"levelo_inurba_marseille","lat":43.33041,"lon":5.38919,"is_reserved":false,"is_disabled":false,"rental_uris":{"android":"levelo://app?vid=2c914af5-3f76-4c26-ae2e-a98cca55902c","ios":"levelo://app?vid=2c914af5-3f76-4c26-ae2e-a98cca55902c"},"vehicle_type_id":"4","last_reported":1690474099,"current_range_meters":17200,"station_id":"ce4bhr92rcd13ifvqhrg","pricing_plan_id":"free"},{"bike_id":"e3864eaf-c340-421b-9a6c-8ae3ba98b2de","system_id":"levelo_inurba_marseille","lat":43.330442,"lon":5.389148,"is_reserved":false,"is_disabled":false,"rental_uris":{"android":"levelo://app?vid=e3864eaf-c340-421b-9a6c-8ae3ba98b2de","ios":"levelo://app?vid=e3864eaf-c340-421b-9a6c-8ae3ba98b2de"},"vehicle_type_id":"4","last_reported":1690474099,"current_range_meters":14000,"station_id":"ce4bhr92rcd13ifvqhrg","pricing_plan_id":"free"},{"bike_id":"198a91cd-f90e-44b9-b124-d15f43d9259d","system_id":"levelo_inurba_marseille","lat":43.3304,"lon":5.38922,"is_reserved":false,"is_disabled":false,"rental_uris":{"android":"levelo://app?vid=198a91cd-f90e-44b9-b124-d15f43d9259d","ios":"levelo://app?vid=198a91cd-f90e-44b9-b124-d15f43d9259d"},"vehicle_type_id":"4","last_reported":1690474099,"current_range_meters":22000,"station_id":"ce4bhr92rcd13ifvqhrg","pricing_plan_id":"free"},{"bike_id":"82087fa7-45ea-4904-8467-939c0b4fa50c","system_id":"levelo_inurba_marseille","lat":43.3304,"lon":5.38923,"is_reserved":false,"is_disabled":false,"rental_uris":{"android":"levelo://app?vid=82087fa7-45ea-4904-8467-939c0b4fa50c","ios":"levelo://app?vid=82087fa7-45ea-4904-8467-939c0b4fa50c"},"vehicle_type_id":"4","last_reported":1690474099,"current_range_meters":12400,"station_id":"ce4bhr92rcd13ifvqhrg","pricing_plan_id":"free"},{"bike_id":"ce9f2bcb-5b9e-488e-8169-585bcb1cff8b","system_id":"levelo_inurba_marseille","lat":43.33043,"lon":5.38919,"is_reserved":false,"is_disabled":false,"rental_uris":{"android":"levelo://app?vid=ce9f2bcb-5b9e-488e-8169-585bcb1cff8b","ios":"levelo://app?vid=ce9f2bcb-5b9e-488e-8169-585bcb1cff8b"},"vehicle_type_id":"4","last_reported":1690474099,"current_range_meters":14000,"station_id":"ce4bhr92rcd13ifvqhrg","pricing_plan_id":"free"},{"bike_id":"766cd11b-923c-4640-ae67-2dfbbb18b931","system_id":"levelo_inurba_marseille","lat":43.330442,"lon":5.389148,"is_reserved":false,"is_disabled":false,"rental_uris":{"android":"levelo://app?vid=766cd11b-923c-4640-ae67-2dfbbb18b931","ios":"levelo://app?vid=766cd11b-923c-4640-ae67-2dfbbb18b931"},"vehicle_type_id":"4","last_reported":1690474099,"current_range_meters":19200,"station_id":"ce4bhr92rcd13ifvqhrg","pricing_plan_id":"free"},{"bike_id":"a846516f-cf51-4ac4-8674-44addcbde20b","system_id":"levelo_inurba_marseille","lat":43.33042,"lon":5.38921,"is_reserved":false,"is_disabled":false,"rental_uris":{"android":"levelo://app?vid=a846516f-cf51-4ac4-8674-44addcbde20b","ios":"levelo://app?vid=a846516f-cf51-4ac4-8674-44addcbde20b"},"vehicle_type_id":"4","last_reported":1690474099,"current_range_meters":31200,"station_id":"ce4bhr92rcd13ifvqhrg","pricing_plan_id":"free"},{"bike_id":"f7fd202c-4779-4194-8092-12076a8f8ef2","system_id":"levelo_inurba_marseille","lat":43.33044,"lon":5.38918,"is_reserved":false,"is_disabled":false,"rental_uris":{"android":"levelo://app?vid=f7fd202c-4779-4194-8092-12076a8f8ef2","ios":"levelo://app?vid=f7fd202c-4779-4194-8092-12076a8f8ef2"},"vehicle_type_id":"4","last_reported":1690474099,"current_range_meters":29200,"station_id":"ce4bhr92rcd13ifvqhrg","pricing_plan_id":"free"},{"bike_id":"3de86ded-9b62-4349-a0ea-9d49e3d4b71c","system_id":"levelo_inurba_marseille","lat":43.33043,"lon":5.38921,"is_reserved":false,"is_disabled":false,"rental_uris":{"android":"levelo://app?vid=3de86ded-9b62-4349-a0ea-9d49e3d4b71c","ios":"levelo://app?vid=3de86ded-9b62-4349-a0ea-9d49e3d4b71c"},"vehicle_type_id":"4","last_reported":1690474099,"current_range_meters":11600,"station_id":"ce4bhr92rcd13ifvqhrg","pricing_plan_id":"free"},{"bike_id":"91fec792-a5a5-4820-af7d-3c6be3109af2","system_id":"levelo_inurba_marseille","lat":43.290104,"lon":5.356111,"is_reserved":false,"is_disabled":false,"rental_uris":{"android":"levelo://app?vid=91fec792-a5a5-4820-af7d-3c6be3109af2","ios":"levelo://app?vid=91fec792-a5a5-4820-af7d-3c6be3109af2"},"vehicle_type_id":"4","last_reported":1690474099,"current_range_meters":31600,"station_id":"ce4bhb92rcd13ifvqen0","pricing_plan_id":"free"},{"bike_id":"f67daf4a-c229-44bd-a215-7a1effe10626","system_id":"levelo_inurba_marseille","lat":43.330442,"lon":5.389148,"is_reserved":false,"is_disabled":false,"rental_uris":{"android":"levelo://app?vid=f67daf4a-c229-44bd-a215-7a1effe10626","ios":"levelo://app?vid=f67daf4a-c229-44bd-a215-7a1effe10626"},"vehicle_type_id":"4","last_reported":1690474099,"current_range_meters":6800,"station_id":"ce4bhr92rcd13ifvqhrg","pricing_plan_id":"free"},{"bike_id":"91968ac7-8a8f-40b0-b07b-8508661b31de","system_id":"levelo_inurba_marseille","lat":43.33044,"lon":5.38921,"is_reserved":false,"is_disabled":false,"rental_uris":{"android":"levelo://app?vid=91968ac7-8a8f-40b0-b07b-8508661b31de","ios":"levelo://app?vid=91968ac7-8a8f-40b0-b07b-8508661b31de"},"vehicle_type_id":"4","last_reported":1690474099,"current_range_meters":25200,"station_id":"ce4bhr92rcd13ifvqhrg","pricing_plan_id":"free"},{"bike_id":"16880114-3450-4386-9ff9-e164417dbcba","system_id":"levelo_inurba_marseille","lat":43.33044,"lon":5.38922,"is_reserved":false,"is_disabled":false,"rental_uris":{"android":"levelo://app?vid=16880114-3450-4386-9ff9-e164417dbcba","ios":"levelo://app?vid=16880114-3450-4386-9ff9-e164417dbcba"},"vehicle_type_id":"4","last_reported":1690474099,"current_range_meters":29600,"station_id":"ce4bhr92rcd13ifvqhrg","pricing_plan_id":"free"},{"bike_id":"2ac260b5-0d30-49a5-a492-300428141dd4","system_id":"levelo_inurba_marseille","lat":43.290103,"lon":5.356114,"is_reserved":false,"is_disabled":false,"rental_uris":{"android":"levelo://app?vid=2ac260b5-0d30-49a5-a492-300428141dd4","ios":"levelo://app?vid=2ac260b5-0d30-49a5-a492-300428141dd4"},"vehicle_type_id":"4","last_reported":1690474099,"current_range_meters":26800,"station_id":"ce4bhb92rcd13ifvqen0","pricing_plan_id":"free"},{"bike_id":"ec98037c-952f-4552-ae06-3a2d7177ac23","system_id":"levelo_inurba_marseille","lat":43.29006,"lon":5.35608,"is_reserved":false,"is_disabled":false,"rental_uris":{"android":"levelo://app?vid=ec98037c-952f-4552-ae06-3a2d7177ac23","ios":"levelo://app?vid=ec98037c-952f-4552-ae06-3a2d7177ac23"},"vehicle_type_id":"4","last_reported":1690474099,"current_range_meters":20800,"station_id":"","pricing_plan_id":"free"},{"bike_id":"599b8f0f-35c7-422b-8bd3-f10c9564da37","system_id":"levelo_inurba_marseille","lat":43.290104,"lon":5.356111,"is_reserved":false,"is_disabled":false,"rental_uris":{"android":"levelo://app?vid=599b8f0f-35c7-422b-8bd3-f10c9564da37","ios":"levelo://app?vid=599b8f0f-35c7-422b-8bd3-f10c9564da37"},"vehicle_type_id":"4","last_reported":1690474099,"current_range_meters":21600,"station_id":"ce4bhb92rcd13ifvqen0","pricing_plan_id":"free"},{"bike_id":"8a582a15-1732-4a39-8e18-6468c2289444","system_id":"levelo_inurba_marseille","lat":43.29,"lon":5.35617,"is_reserved":false,"is_disabled":false,"rental_uris":{"android":"levelo://app?vid=8a582a15-1732-4a39-8e18-6468c2289444","ios":"levelo://app?vid=8a582a15-1732-4a39-8e18-6468c2289444"},"vehicle_type_id":"4","last_reported":1690474099,"current_range_meters":29600,"station_id":"ce4bhb92rcd13ifvqen0","pricing_plan_id":"free"},{"bike_id":"6c48410c-a11d-4ea1-b1af-21f4f368495b","system_id":"levelo_inurba_marseille","lat":43.295169,"lon":5.390426,"is_reserved":false,"is_disabled":false,"rental_uris":{"android":"levelo://app?vid=6c48410c-a11d-4ea1-b1af-21f4f368495b","ios":"levelo://app?vid=6c48410c-a11d-4ea1-b1af-21f4f368495b"},"vehicle_type_id":"4","last_reported":1690474099,"current_range_meters":29600,"station_id":"ce4bh3p2rcd13ifvqdp0","pricing_plan_id":"free"},{"bike_id":"c39fc212-fba2-487a-81f0-cae70d20876b","system_id":"levelo_inurba_marseille","lat":43.29773,"lon":5.39334,"is_reserved":false,"is_disabled":false,"rental_uris":{"android":"levelo://app?vid=c39fc212-fba2-487a-81f0-cae70d20876b","ios":"levelo://app?vid=c39fc212-fba2-487a-81f0-cae70d20876b"},"vehicle_type_id":"4","last_reported":1690474099,"current_range_meters":26000,"station_id":"chh1huq6cuj3fo74tm60","pricing_plan_id":"free"},{"bike_id":"0a9d1652-dd5e-425b-bd73-1a6f4f978a65","system_id":"levelo_inurba_marseille","lat":43.29521,"lon":5.39054,"is_reserved":false,"is_disabled":false,"rental_uris":{"android":"levelo://app?vid=0a9d1652-dd5e-425b-bd73-1a6f4f978a65","ios":"levelo://app?vid=0a9d1652-dd5e-425b-bd73-1a6f4f978a65"},"vehicle_type_id":"4","last_reported":1690474099,"current_range_meters":0,"station_id":"","pricing_plan_id":"free"},{"bike_id":"887b4fac-9a38-4bb1-b7c4-3dc61d7c3a4a","system_id":"levelo_inurba_marseille","lat":43.31263,"lon":5.40164,"is_reserved":false,"is_disabled":false,"rental_uris":{"android":"levelo://app?vid=887b4fac-9a38-4bb1-b7c4-3dc61d7c3a4a","ios":"levelo://app?vid=887b4fac-9a38-4bb1-b7c4-3dc61d7c3a4a"},"vehicle_type_id":"4","last_reported":1690474099,"current_range_meters":1200,"station_id":"ce4bh092rcd13ifvqd30","pricing_plan_id":"free"},{"bike_id":"d01026d9-0b24-4901-892b-d85f4f77c50b","system_id":"levelo_inurba_marseille","lat":43.312773,"lon":5.401726,"is_reserved":false,"is_disabled":false,"rental_uris":{"android":"levelo://app?vid=d01026d9-0b24-4901-892b-d85f4f77c50b","ios":"levelo://app?vid=d01026d9-0b24-4901-892b-d85f4f77c50b"},"vehicle_type_id":"4","last_reported":1690474099,"current_range_meters":8000,"station_id":"ce4bh092rcd13ifvqd30","pricing_plan_id":"free"},{"bike_id":"18b352c8-8d8b-4cca-9d09-dcd08b12aec6","system_id":"levelo_inurba_marseille","lat":43.301117,"lon":5.398795,"is_reserved":false,"is_disabled":false,"rental_uris":{"android":"levelo://app?vid=18b352c8-8d8b-4cca-9d09-dcd08b12aec6","ios":"levelo://app?vid=18b352c8-8d8b-4cca-9d09-dcd08b12aec6"},"vehicle_type_id":"4","last_reported":1690474099,"current_range_meters":6000,"station_id":"ce4bh0h2rcd13ifvqd40","pricing_plan_id":"free"},{"bike_id":"2c8d55f6-e0c2-4f98-8c22-5b5e4f558224","system_id":"levelo_inurba_marseille","lat":43.30146,"lon":5.39866,"is_reserved":false,"is_disabled":false,"rental_uris":{"android":"levelo://app?vid=2c8d55f6-e0c2-4f98-8c22-5b5e4f558224","ios":"levelo://app?vid=2c8d55f6-e0c2-4f98-8c22-5b5e4f558224"},"vehicle_type_id":"4","last_reported":1690474099,"current_range_meters":13600,"station_id":"ce4bh0h2rcd13ifvqd40","pricing_plan_id":"free"},{"bike_id":"a75d2ef2-f681-4862-a542-2077bb7b5d2b","system_id":"levelo_inurba_marseille","lat":43.301262,"lon":5.398571,"is_reserved":false,"is_disabled":false,"rental_uris":{"android":"levelo://app?vid=a75d2ef2-f681-4862-a542-2077bb7b5d2b","ios":"levelo://app?vid=a75d2ef2-f681-4862-a542-2077bb7b5d2b"},"vehicle_type_id":"4","last_reported":1690474099,"current_range_meters":13600,"station_id":"ce4bh0h2rcd13ifvqd40","pricing_plan_id":"free"},{"bike_id":"462a84e0-f063-4097-9097-cc05f6d1e3f3","system_id":"levelo_inurba_marseille","lat":43.286593,"lon":5.363346,"is_reserved":false,"is_disabled":false,"rental_uris":{"android":"levelo://app?vid=462a84e0-f063-4097-9097-cc05f6d1e3f3","ios":"levelo://app?vid=462a84e0-f063-4097-9097-cc05f6d1e3f3"},"vehicle_type_id":"4","last_reported":1690474099,"current_range_meters":19600,"station_id":"ce4bhah2rcd13ifvqej0","pricing_plan_id":"free"},{"bike_id":"75199276-b705-4ad7-b6a9-49aeaa84628a","system_id":"levelo_inurba_marseille","lat":43.286591,"lon":5.363346,"is_reserved":false,"is_disabled":false,"rental_uris":{"android":"levelo://app?vid=75199276-b705-4ad7-b6a9-49aeaa84628a","ios":"levelo://app?vid=75199276-b705-4ad7-b6a9-49aeaa84628a"},"vehicle_type_id":"4","last_reported":1690474099,"current_range_meters":31600,"station_id":"ce4bhah2rcd13ifvqej0","pricing_plan_id":"free"},{"bike_id":"6c3468c7-6467-4b94-9311-b81b70fa4579","system_id":"levelo_inurba_marseille","lat":43.286593,"lon":5.363346,"is_reserved":false,"is_disabled":false,"rental_uris":{"android":"levelo://app?vid=6c3468c7-6467-4b94-9311-b81b70fa4579","ios":"levelo://app?vid=6c3468c7-6467-4b94-9311-b81b70fa4579"},"vehicle_type_id":"4","last_reported":1690474099,"current_range_meters":17200,"station_id":"ce4bhah2rcd13ifvqej0","pricing_plan_id":"free"},{"bike_id":"7de5e295-61e8-4501-a432-d14093319769","system_id":"levelo_inurba_marseille","lat":43.286593,"lon":5.363346,"is_reserved":false,"is_disabled":false,"rental_uris":{"android":"levelo://app?vid=7de5e295-61e8-4501-a432-d14093319769","ios":"levelo://app?vid=7de5e295-61e8-4501-a432-d14093319769"},"vehicle_type_id":"4","last_reported":1690474099,"current_range_meters":20400,"station_id":"ce4bhah2rcd13ifvqej0","pricing_plan_id":"free"},{"bike_id":"ceffd482-ae52-4595-a3b9-806458bbc413","system_id":"levelo_inurba_marseille","lat":43.295194,"lon":5.39397,"is_reserved":false,"is_disabled":false,"rental_uris":{"android":"levelo://app?vid=ceffd482-ae52-4595-a3b9-806458bbc413","ios":"levelo://app?vid=ceffd482-ae52-4595-a3b9-806458bbc413"},"vehicle_type_id":"4","last_reported":1690474099,"current_range_meters":10400,"station_id":"ce4bh292rcd13ifvqdf0","pricing_plan_id":"free"},{"bike_id":"83b359df-d257-4bd0-8a58-56026e2f0a9d","system_id":"levelo_inurba_marseille","lat":43.286961,"lon":5.373785,"is_reserved":false,"is_disabled":false,"rental_uris":{"android":"levelo://app?vid=83b359df-d257-4bd0-8a58-56026e2f0a9d","ios":"levelo://app?vid=83b359df-d257-4bd0-8a58-56026e2f0a9d"},"vehicle_type_id":"4","last_reported":1690474099,"current_range_meters":13600,"station_id":"ce4bh3p2rcd13ifvqdq0","pricing_plan_id":"free"},{"bike_id":"4c19a545-2ade-407c-8ab7-8ff441aba4d0","system_id":"levelo_inurba_marseille","lat":43.295196,"lon":5.39397,"is_reserved":false,"is_disabled":false,"rental_uris":{"android":"levelo://app?vid=4c19a545-2ade-407c-8ab7-8ff441aba4d0","ios":"levelo://app?vid=4c19a545-2ade-407c-8ab7-8ff441aba4d0"},"vehicle_type_id":"4","last_reported":1690474099,"current_range_meters":17200,"station_id":"ce4bh292rcd13ifvqdf0","pricing_plan_id":"free"},{"bike_id":"c3c59ac1-3743-48c4-84dd-e2e0cfd60918","system_id":"levelo_inurba_marseille","lat":43.295196,"lon":5.39397,"is_reserved":false,"is_disabled":false,"rental_uris":{"android":"levelo://app?vid=c3c59ac1-3743-48c4-84dd-e2e0cfd60918","ios":"levelo://app?vid=c3c59ac1-3743-48c4-84dd-e2e0cfd60918"},"vehicle_type_id":"4","last_reported":1690474099,"current_range_meters":27200,"station_id":"ce4bh292rcd13ifvqdf0","pricing_plan_id":"free"},{"bike_id":"dad65d6c-521c-47bd-9c04-35804a573e64","system_id":"levelo_inurba_marseille","lat":43.290336,"lon":5.386425,"is_reserved":false,"is_disabled":false,"rental_uris":{"android":"levelo://app?vid=dad65d6c-521c-47bd-9c04-35804a573e64","ios":"levelo://app?vid=dad65d6c-521c-47bd-9c04-35804a573e64"},"vehicle_type_id":"4","last_reported":1690474099,"current_range_meters":14800,"station_id":"ce4bh4p2rcd13ifvqe0g","pricing_plan_id":"free"},{"bike_id":"788b72ce-32a4-4415-9f82-32e6de6bdc3e","system_id":"levelo_inurba_marseille","lat":43.286039,"lon":5.370679,"is_reserved":false,"is_disabled":false,"rental_uris":{"android":"levelo://app?vid=788b72ce-32a4-4415-9f82-32e6de6bdc3e","ios":"levelo://app?vid=788b72ce-32a4-4415-9f82-32e6de6bdc3e"},"vehicle_type_id":"4","last_reported":1690474099,"current_range_meters":28400,"station_id":"ce4bht12rcd13ifvqi60","pricing_plan_id":"free"},{"bike_id":"d557becd-b1f0-4838-b1eb-741c0d1ba752","system_id":"levelo_inurba_marseille","lat":43.290336,"lon":5.386425,"is_reserved":false,"is_disabled":false,"rental_uris":{"android":"levelo://app?vid=d557becd-b1f0-4838-b1eb-741c0d1ba752","ios":"levelo://app?vid=d557becd-b1f0-4838-b1eb-741c0d1ba752"},"vehicle_type_id":"4","last_reported":1690474099,"current_range_meters":28400,"station_id":"ce4bh4p2rcd13ifvqe0g","pricing_plan_id":"free"},{"bike_id":"aa6b5648-5cb5-4222-abcb-a25e4de66823","system_id":"levelo_inurba_marseille","lat":43.28605,"lon":5.37067,"is_reserved":false,"is_disabled":false,"rental_uris":{"android":"levelo://app?vid=aa6b5648-5cb5-4222-abcb-a25e4de66823","ios":"levelo://app?vid=aa6b5648-5cb5-4222-abcb-a25e4de66823"},"vehicle_type_id":"4","last_reported":1690474099,"current_range_meters":26400,"station_id":"ce4bht12rcd13ifvqi60","pricing_plan_id":"free"},{"bike_id":"abe8998e-94fa-4e42-a506-f17103e30d06","system_id":"levelo_inurba_marseille","lat":43.287185,"lon":5.379373,"is_reserved":false,"is_disabled":false,"rental_uris":{"android":"levelo://app?vid=abe8998e-94fa-4e42-a506-f17103e30d06","ios":"levelo://app?vid=abe8998e-94fa-4e42-a506-f17103e30d06"},"vehicle_type_id":"4","last_reported":1690474099,"current_range_meters":13600,"station_id":"ce4bh9p2rcd13ifvqec0","pricing_plan_id":"free"},{"bike_id":"8968aacd-beed-487e-9fb6-82be579f20bf","system_id":"levelo_inurba_marseille","lat":43.316517,"lon":5.404375,"is_reserved":false,"is_disabled":false,"rental_uris":{"android":"levelo://app?vid=8968aacd-beed-487e-9fb6-82be579f20bf","ios":"levelo://app?vid=8968aacd-beed-487e-9fb6-82be579f20bf"},"vehicle_type_id":"4","last_reported":1690474099,"current_range_meters":14400,"station_id":"ce4bh012rcd13ifvqd00","pricing_plan_id":"free"},{"bike_id":"495db090-6522-45b0-9c15-b09a933ed4fb","system_id":"levelo_inurba_marseille","lat":43.3165,"lon":5.40438,"is_reserved":false,"is_disabled":false,"rental_uris":{"android":"levelo://app?vid=495db090-6522-45b0-9c15-b09a933ed4fb","ios":"levelo://app?vid=495db090-6522-45b0-9c15-b09a933ed4fb"},"vehicle_type_id":"4","last_reported":1690474099,"current_range_meters":31200,"station_id":"ce4bh012rcd13ifvqd00","pricing_plan_id":"free"},{"bike_id":"9978c5c6-44e3-4137-a61f-b9816fee1c92","system_id":"levelo_inurba_marseille","lat":43.31648,"lon":5.4044,"is_reserved":false,"is_disabled":false,"rental_uris":{"android":"levelo://app?vid=9978c5c6-44e3-4137-a61f-b9816fee1c92","ios":"levelo://app?vid=9978c5c6-44e3-4137-a61f-b9816fee1c92"},"vehicle_type_id":"4","last_reported":1690474099,"current_range_meters":22400,"station_id":"ce4bh012rcd13ifvqd00","pricing_plan_id":"free"},{"bike_id":"a580aa92-853f-45c5-aeb1-73e0ef813713","system_id":"levelo_inurba_marseille","lat":43.291994,"lon":5.392907,"is_reserved":false,"is_disabled":false,"rental_uris":{"android":"levelo://app?vid=a580aa92-853f-45c5-aeb1-73e0ef813713","ios":"levelo://app?vid=a580aa92-853f-45c5-aeb1-73e0ef813713"},"vehicle_type_id":"4","last_reported":1690474099,"current_range_meters":28800,"station_id":"ce4bh192rcd13ifvqdd0","pricing_plan_id":"free"},{"bike_id":"eefa57f0-3357-4bdf-878b-5ddec2186c68","system_id":"levelo_inurba_marseille","lat":43.292032,"lon":5.3932,"is_reserved":false,"is_disabled":false,"rental_uris":{"android":"levelo://app?vid=eefa57f0-3357-4bdf-878b-5ddec2186c68","ios":"levelo://app?vid=eefa57f0-3357-4bdf-878b-5ddec2186c68"},"vehicle_type_id":"4","last_reported":1690474099,"current_range_meters":21600,"station_id":"","pricing_plan_id":"free"},{"bike_id":"b53f7515-44b1-4605-a94f-9b555a947218","system_id":"levelo_inurba_marseille","lat":43.284534,"lon":5.358662,"is_reserved":false,"is_disabled":false,"rental_uris":{"android":"levelo://app?vid=b53f7515-44b1-4605-a94f-9b555a947218","ios":"levelo://app?vid=b53f7515-44b1-4605-a94f-9b555a947218"},"vehicle_type_id":"4","last_reported":1690474099,"current_range_meters":13200,"station_id":"ce4bhah2rcd13ifvqei0","pricing_plan_id":"free"},{"bike_id":"5582c3b7-9e22-4dab-824d-ecf6b6343281","system_id":"levelo_inurba_marseille","lat":43.294314,"lon":5.397498,"is_reserved":false,"is_disabled":false,"rental_uris":{"android":"levelo://app?vid=5582c3b7-9e22-4dab-824d-ecf6b6343281","ios":"levelo://app?vid=5582c3b7-9e22-4dab-824d-ecf6b6343281"},"vehicle_type_id":"4","last_reported":1690474099,"current_range_meters":14400,"station_id":"ce4bh3h2rcd13ifvqdo0","pricing_plan_id":"free"},{"bike_id":"05c4f64c-c1ca-4ee1-8fe4-857adf9d358a","system_id":"levelo_inurba_marseille","lat":43.284538,"lon":5.358657,"is_reserved":false,"is_disabled":false,"rental_uris":{"android":"levelo://app?vid=05c4f64c-c1ca-4ee1-8fe4-857adf9d358a","ios":"levelo://app?vid=05c4f64c-c1ca-4ee1-8fe4-857adf9d358a"},"vehicle_type_id":"4","last_reported":1690474099,"current_range_meters":18400,"station_id":"ce4bhah2rcd13ifvqei0","pricing_plan_id":"free"},{"bike_id":"67f3d604-4c78-43e0-8464-7b6ed2e7f2fc","system_id":"levelo_inurba_marseille","lat":43.284538,"lon":5.358657,"is_reserved":false,"is_disabled":false,"rental_uris":{"android":"levelo://app?vid=67f3d604-4c78-43e0-8464-7b6ed2e7f2fc","ios":"levelo://app?vid=67f3d604-4c78-43e0-8464-7b6ed2e7f2fc"},"vehicle_type_id":"4","last_reported":1690474099,"current_range_meters":2000,"station_id":"ce4bhah2rcd13ifvqei0","pricing_plan_id":"free"},{"bike_id":"551686de-bea2-49b4-9eb2-9c0964ce0c79","system_id":"levelo_inurba_marseille","lat":43.284538,"lon":5.358657,"is_reserved":false,"is_disabled":false,"rental_uris":{"android":"levelo://app?vid=551686de-bea2-49b4-9eb2-9c0964ce0c79","ios":"levelo://app?vid=551686de-bea2-49b4-9eb2-9c0964ce0c79"},"vehicle_type_id":"4","last_reported":1690474099,"current_range_meters":31200,"station_id":"ce4bhah2rcd13ifvqei0","pricing_plan_id":"free"},{"bike_id":"30ee76a0-29d1-42ed-b99f-6f73e7e8bfbb","system_id":"levelo_inurba_marseille","lat":43.284534,"lon":5.358662,"is_reserved":false,"is_disabled":false,"rental_uris":{"android":"levelo://app?vid=30ee76a0-29d1-42ed-b99f-6f73e7e8bfbb","ios":"levelo://app?vid=30ee76a0-29d1-42ed-b99f-6f73e7e8bfbb"},"vehicle_type_id":"4","last_reported":1690474099,"current_range_meters":14000,"station_id":"ce4bhah2rcd13ifvqei0","pricing_plan_id":"free"},{"bike_id":"fc352aa5-8516-44cc-b6b5-1f56c28a553b","system_id":"levelo_inurba_marseille","lat":43.284534,"lon":5.358662,"is_reserved":false,"is_disabled":false,"rental_uris":{"android":"levelo://app?vid=fc352aa5-8516-44cc-b6b5-1f56c28a553b","ios":"levelo://app?vid=fc352aa5-8516-44cc-b6b5-1f56c28a553b"},"vehicle_type_id":"4","last_reported":1690474099,"current_range_meters":31600,"station_id":"ce4bhah2rcd13ifvqei0","pricing_plan_id":"free"},{"bike_id":"84c4c4de-abeb-4ff2-9ef0-93c86ea6e145","system_id":"levelo_inurba_marseille","lat":43.29444,"lon":5.39746,"is_reserved":false,"is_disabled":false,"rental_uris":{"android":"levelo://app?vid=84c4c4de-abeb-4ff2-9ef0-93c86ea6e145","ios":"levelo://app?vid=84c4c4de-abeb-4ff2-9ef0-93c86ea6e145"},"vehicle_type_id":"4","last_reported":1690474099,"current_range_meters":28000,"station_id":"ce4bh3h2rcd13ifvqdo0","pricing_plan_id":"free"},{"bike_id":"75e50321-0c90-4635-a633-fc7ddd6407e8","system_id":"levelo_inurba_marseille","lat":43.29448,"lon":5.39754,"is_reserved":false,"is_disabled":false,"rental_uris":{"android":"levelo://app?vid=75e50321-0c90-4635-a633-fc7ddd6407e8","ios":"levelo://app?vid=75e50321-0c90-4635-a633-fc7ddd6407e8"},"vehicle_type_id":"4","last_reported":1690474099,"current_range_meters":23200,"station_id":"ce4bh3h2rcd13ifvqdo0","pricing_plan_id":"free"},{"bike_id":"5b38dc61-ae29-421c-987c-ab197533ac1b","system_id":"levelo_inurba_marseille","lat":43.286166,"lon":5.351118,"is_reserved":false,"is_disabled":false,"rental_uris":{"android":"levelo://app?vid=5b38dc61-ae29-421c-987c-ab197533ac1b","ios":"levelo://app?vid=5b38dc61-ae29-421c-987c-ab197533ac1b"},"vehicle_type_id":"4","last_reported":1690474099,"current_range_meters":30400,"station_id":"ce4bhch2rcd13ifvqeug","pricing_plan_id":"free"},{"bike_id":"a00ebea1-d5b3-4e76-8d91-b145b1c99a4c","system_id":"levelo_inurba_marseille","lat":43.286124,"lon":5.351169,"is_reserved":false,"is_disabled":false,"rental_uris":{"android":"levelo://app?vid=a00ebea1-d5b3-4e76-8d91-b145b1c99a4c","ios":"levelo://app?vid=a00ebea1-d5b3-4e76-8d91-b145b1c99a4c"},"vehicle_type_id":"4","last_reported":1690474099,"current_range_meters":31200,"station_id":"ce4bhch2rcd13ifvqeug","pricing_plan_id":"free"},{"bike_id":"339cdf6e-a9e5-43b9-bd00-6a4c805a5e3c","system_id":"levelo_inurba_marseille","lat":43.28615,"lon":5.35108,"is_reserved":false,"is_disabled":false,"rental_uris":{"android":"levelo://app?vid=339cdf6e-a9e5-43b9-bd00-6a4c805a5e3c","ios":"levelo://app?vid=339cdf6e-a9e5-43b9-bd00-6a4c805a5e3c"},"vehicle_type_id":"4","last_reported":1690474099,"current_range_meters":31200,"station_id":"ce4bhch2rcd13ifvqeug","pricing_plan_id":"free"},{"bike_id":"d7374f7e-2ddd-4f78-917c-54ac5dd7554a","system_id":"levelo_inurba_marseille","lat":43.28616,"lon":5.35101,"is_reserved":false,"is_disabled":false,"rental_uris":{"android":"levelo://app?vid=d7374f7e-2ddd-4f78-917c-54ac5dd7554a","ios":"levelo://app?vid=d7374f7e-2ddd-4f78-917c-54ac5dd7554a"},"vehicle_type_id":"4","last_reported":1690474099,"current_range_meters":26000,"station_id":"ce4bhch2rcd13ifvqeug","pricing_plan_id":"free"},{"bike_id":"0f6a8e1e-9217-49cb-ab5d-6c3e3c8f919a","system_id":"levelo_inurba_marseille","lat":43.28612,"lon":5.35106,"is_reserved":false,"is_disabled":false,"rental_uris":{"android":"levelo://app?vid=0f6a8e1e-9217-49cb-ab5d-6c3e3c8f919a","ios":"levelo://app?vid=0f6a8e1e-9217-49cb-ab5d-6c3e3c8f919a"},"vehicle_type_id":"4","last_reported":1690474099,"current_range_meters":17200,"station_id":"ce4bhch2rcd13ifvqeug","pricing_plan_id":"free"},{"bike_id":"a9347166-2149-46db-8a52-471ee405941c","system_id":"levelo_inurba_marseille","lat":43.286122,"lon":5.350989,"is_reserved":false,"is_disabled":false,"rental_uris":{"android":"levelo://app?vid=a9347166-2149-46db-8a52-471ee405941c","ios":"levelo://app?vid=a9347166-2149-46db-8a52-471ee405941c"},"vehicle_type_id":"4","last_reported":1690474099,"current_range_meters":16000,"station_id":"ce4bhch2rcd13ifvqeug","pricing_plan_id":"free"},{"bike_id":"25686988-8eac-4da0-b1eb-ec86ae16d754","system_id":"levelo_inurba_marseille","lat":43.28611,"lon":5.35101,"is_reserved":false,"is_disabled":false,"rental_uris":{"android":"levelo://app?vid=25686988-8eac-4da0-b1eb-ec86ae16d754","ios":"levelo://app?vid=25686988-8eac-4da0-b1eb-ec86ae16d754"},"vehicle_type_id":"4","last_reported":1690474099,"current_range_meters":14000,"station_id":"ce4bhch2rcd13ifvqeug","pricing_plan_id":"free"},{"bike_id":"0344f77f-3539-4e8a-aa23-441ec55b348c","system_id":"levelo_inurba_marseille","lat":43.28608,"lon":5.35099,"is_reserved":false,"is_disabled":false,"rental_uris":{"android":"levelo://app?vid=0344f77f-3539-4e8a-aa23-441ec55b348c","ios":"levelo://app?vid=0344f77f-3539-4e8a-aa23-441ec55b348c"},"vehicle_type_id":"4","last_reported":1690474099,"current_range_meters":26800,"station_id":"ce4bhch2rcd13ifvqeug","pricing_plan_id":"free"},{"bike_id":"614a7e0f-88af-492c-b6fd-cc24f336c627","system_id":"levelo_inurba_marseille","lat":43.283998,"lon":5.375062,"is_reserved":false,"is_disabled":false,"rental_uris":{"android":"levelo://app?vid=614a7e0f-88af-492c-b6fd-cc24f336c627","ios":"levelo://app?vid=614a7e0f-88af-492c-b6fd-cc24f336c627"},"vehicle_type_id":"4","last_reported":1690474099,"current_range_meters":18800,"station_id":"ce4bh412rcd13ifvqds0","pricing_plan_id":"free"},{"bike_id":"869bf804-0a45-4a73-aeb7-398b1768731b","system_id":"levelo_inurba_marseille","lat":43.283998,"lon":5.375062,"is_reserved":false,"is_disabled":false,"rental_uris":{"android":"levelo://app?vid=869bf804-0a45-4a73-aeb7-398b1768731b","ios":"levelo://app?vid=869bf804-0a45-4a73-aeb7-398b1768731b"},"vehicle_type_id":"4","last_reported":1690474099,"current_range_meters":9600,"station_id":"ce4bh412rcd13ifvqds0","pricing_plan_id":"free"},{"bike_id":"0a407db7-c57b-4b5e-bfab-80db5b2216b2","system_id":"levelo_inurba_marseille","lat":43.295713,"lon":5.399639,"is_reserved":false,"is_disabled":false,"rental_uris":{"android":"levelo://app?vid=0a407db7-c57b-4b5e-bfab-80db5b2216b2","ios":"levelo://app?vid=0a407db7-c57b-4b5e-bfab-80db5b2216b2"},"vehicle_type_id":"4","last_reported":1690474099,"current_range_meters":18400,"station_id":"ce4bh312rcd13ifvqdj0","pricing_plan_id":"free"},{"bike_id":"309ef4c6-8422-437f-81ef-42df28ff1da5","system_id":"levelo_inurba_marseille","lat":43.295713,"lon":5.399639,"is_reserved":false,"is_disabled":false,"rental_uris":{"android":"levelo://app?vid=309ef4c6-8422-437f-81ef-42df28ff1da5","ios":"levelo://app?vid=309ef4c6-8422-437f-81ef-42df28ff1da5"},"vehicle_type_id":"4","last_reported":1690474099,"current_range_meters":31200,"station_id":"ce4bh312rcd13ifvqdj0","pricing_plan_id":"free"},{"bike_id":"352a8628-7a93-416a-9539-70ce35c2f4bf","system_id":"levelo_inurba_marseille","lat":43.283998,"lon":5.375062,"is_reserved":false,"is_disabled":false,"rental_uris":{"android":"levelo://app?vid=352a8628-7a93-416a-9539-70ce35c2f4bf","ios":"levelo://app?vid=352a8628-7a93-416a-9539-70ce35c2f4bf"},"vehicle_type_id":"4","last_reported":1690474099,"current_range_meters":22800,"station_id":"ce4bh412rcd13ifvqds0","pricing_plan_id":"free"},{"bike_id":"aa4d7693-f7f0-4421-a178-945fa4f4c4c0","system_id":"levelo_inurba_marseille","lat":43.286595,"lon":5.386795,"is_reserved":false,"is_disabled":false,"rental_uris":{"android":"levelo://app?vid=aa4d7693-f7f0-4421-a178-945fa4f4c4c0","ios":"levelo://app?vid=aa4d7693-f7f0-4421-a178-945fa4f4c4c0"},"vehicle_type_id":"4","last_reported":1690474099,"current_range_meters":4000,"station_id":"ce4bh492rcd13ifvqdug","pricing_plan_id":"free"},{"bike_id":"5a84961b-43f6-48ca-9ca2-8512e9156ccd","system_id":"levelo_inurba_marseille","lat":43.31884,"lon":5.40738,"is_reserved":false,"is_disabled":false,"rental_uris":{"android":"levelo://app?vid=5a84961b-43f6-48ca-9ca2-8512e9156ccd","ios":"levelo://app?vid=5a84961b-43f6-48ca-9ca2-8512e9156ccd"},"vehicle_type_id":"4","last_reported":1690474099,"current_range_meters":800,"station_id":"ce4bhq12rcd13ifvqhig","pricing_plan_id":"free"},{"bike_id":"6ac90703-4ccd-42fa-93d1-05fccfeee41a","system_id":"levelo_inurba_marseille","lat":43.319179,"lon":5.407725,"is_reserved":false,"is_disabled":false,"rental_uris":{"android":"levelo://app?vid=6ac90703-4ccd-42fa-93d1-05fccfeee41a","ios":"levelo://app?vid=6ac90703-4ccd-42fa-93d1-05fccfeee41a"},"vehicle_type_id":"4","last_reported":1690474099,"current_range_meters":31200,"station_id":"ce4bhq12rcd13ifvqhig","pricing_plan_id":"free"},{"bike_id":"c0c8e2fd-0464-4388-9acf-19c0edc181ad","system_id":"levelo_inurba_marseille","lat":43.31892,"lon":5.40742,"is_reserved":false,"is_disabled":false,"rental_uris":{"android":"levelo://app?vid=c0c8e2fd-0464-4388-9acf-19c0edc181ad","ios":"levelo://app?vid=c0c8e2fd-0464-4388-9acf-19c0edc181ad"},"vehicle_type_id":"4","last_reported":1690474099,"current_range_meters":31200,"station_id":"ce4bhq12rcd13ifvqhig","pricing_plan_id":"free"},{"bike_id":"838a4aae-6542-4395-bd1f-0c01c6ad5d93","system_id":"levelo_inurba_marseille","lat":43.33723,"lon":5.39176,"is_reserved":false,"is_disabled":false,"rental_uris":{"android":"levelo://app?vid=838a4aae-6542-4395-bd1f-0c01c6ad5d93","ios":"levelo://app?vid=838a4aae-6542-4395-bd1f-0c01c6ad5d93"},"vehicle_type_id":"4","last_reported":1690474099,"current_range_meters":17200,"station_id":"ce4bhr92rcd13ifvqhsg","pricing_plan_id":"free"},{"bike_id":"bfba1d51-c352-4de8-b042-a36245d6322f","system_id":"levelo_inurba_marseille","lat":43.33722,"lon":5.39179,"is_reserved":false,"is_disabled":false,"rental_uris":{"android":"levelo://app?vid=bfba1d51-c352-4de8-b042-a36245d6322f","ios":"levelo://app?vid=bfba1d51-c352-4de8-b042-a36245d6322f"},"vehicle_type_id":"4","last_reported":1690474099,"current_range_meters":30400,"station_id":"ce4bhr92rcd13ifvqhsg","pricing_plan_id":"free"},{"bike_id":"196b3f00-7f14-43ae-bd6a-23f143c9bc08","system_id":"levelo_inurba_marseille","lat":43.33721,"lon":5.39181,"is_reserved":false,"is_disabled":false,"rental_uris":{"android":"levelo://app?vid=196b3f00-7f14-43ae-bd6a-23f143c9bc08","ios":"levelo://app?vid=196b3f00-7f14-43ae-bd6a-23f143c9bc08"},"vehicle_type_id":"4","last_reported":1690474099,"current_range_meters":15600,"station_id":"ce4bhr92rcd13ifvqhsg","pricing_plan_id":"free"},{"bike_id":"fa201935-bc88-4796-b35e-043bd94a47de","system_id":"levelo_inurba_marseille","lat":43.3372,"lon":5.39185,"is_reserved":false,"is_disabled":false,"rental_uris":{"android":"levelo://app?vid=fa201935-bc88-4796-b35e-043bd94a47de","ios":"levelo://app?vid=fa201935-bc88-4796-b35e-043bd94a47de"},"vehicle_type_id":"4","last_reported":1690474099,"current_range_meters":30400,"station_id":"ce4bhr92rcd13ifvqhsg","pricing_plan_id":"free"},{"bike_id":"1856c755-8b17-40bc-9f60-4a1c7e127976","system_id":"levelo_inurba_marseille","lat":43.323464,"lon":5.406297,"is_reserved":false,"is_disabled":false,"rental_uris":{"android":"levelo://app?vid=1856c755-8b17-40bc-9f60-4a1c7e127976","ios":"levelo://app?vid=1856c755-8b17-40bc-9f60-4a1c7e127976"},"vehicle_type_id":"4","last_reported":1690474099,"current_range_meters":31200,"station_id":"ce4bhq92rcd13ifvqhjg","pricing_plan_id":"free"},{"bike_id":"82eea2a7-ee61-4e0b-9974-6f0dcf4765a9","system_id":"levelo_inurba_marseille","lat":43.323464,"lon":5.406297,"is_reserved":false,"is_disabled":false,"rental_uris":{"android":"levelo://app?vid=82eea2a7-ee61-4e0b-9974-6f0dcf4765a9","ios":"levelo://app?vid=82eea2a7-ee61-4e0b-9974-6f0dcf4765a9"},"vehicle_type_id":"4","last_reported":1690474099,"current_range_meters":31200,"station_id":"ce4bhq92rcd13ifvqhjg","pricing_plan_id":"free"},{"bike_id":"07355913-3475-48df-8d84-3e45dbf0e07b","system_id":"levelo_inurba_marseille","lat":43.33721,"lon":5.39186,"is_reserved":false,"is_disabled":false,"rental_uris":{"android":"levelo://app?vid=07355913-3475-48df-8d84-3e45dbf0e07b","ios":"levelo://app?vid=07355913-3475-48df-8d84-3e45dbf0e07b"},"vehicle_type_id":"4","last_reported":1690474099,"current_range_meters":29600,"station_id":"ce4bhr92rcd13ifvqhsg","pricing_plan_id":"free"},{"bike_id":"b4201f45-72fc-4952-aba8-c29b26b5cb66","system_id":"levelo_inurba_marseille","lat":43.33727,"lon":5.39176,"is_reserved":false,"is_disabled":false,"rental_uris":{"android":"levelo://app?vid=b4201f45-72fc-4952-aba8-c29b26b5cb66","ios":"levelo://app?vid=b4201f45-72fc-4952-aba8-c29b26b5cb66"},"vehicle_type_id":"4","last_reported":1690474099,"current_range_meters":30400,"station_id":"ce4bhr92rcd13ifvqhsg","pricing_plan_id":"free"},{"bike_id":"a2c1a841-d1f9-400b-92eb-b47f93c74a3b","system_id":"levelo_inurba_marseille","lat":43.33726,"lon":5.39181,"is_reserved":false,"is_disabled":false,"rental_uris":{"android":"levelo://app?vid=a2c1a841-d1f9-400b-92eb-b47f93c74a3b","ios":"levelo://app?vid=a2c1a841-d1f9-400b-92eb-b47f93c74a3b"},"vehicle_type_id":"4","last_reported":1690474099,"current_range_meters":28800,"station_id":"ce4bhr92rcd13ifvqhsg","pricing_plan_id":"free"},{"bike_id":"7e209f61-3c45-427c-ae4d-e4269e2dda66","system_id":"levelo_inurba_marseille","lat":43.33723,"lon":5.39187,"is_reserved":false,"is_disabled":false,"rental_uris":{"android":"levelo://app?vid=7e209f61-3c45-427c-ae4d-e4269e2dda66","ios":"levelo://app?vid=7e209f61-3c45-427c-ae4d-e4269e2dda66"},"vehicle_type_id":"4","last_reported":1690474099,"current_range_meters":23600,"station_id":"ce4bhr92rcd13ifvqhsg","pricing_plan_id":"free"},{"bike_id":"ee2e399c-5d81-4618-b3b6-2e52257eac7c","system_id":"levelo_inurba_marseille","lat":43.33725,"lon":5.39186,"is_reserved":false,"is_disabled":false,"rental_uris":{"android":"levelo://app?vid=ee2e399c-5d81-4618-b3b6-2e52257eac7c","ios":"levelo://app?vid=ee2e399c-5d81-4618-b3b6-2e52257eac7c"},"vehicle_type_id":"4","last_reported":1690474099,"current_range_meters":30800,"station_id":"ce4bhr92rcd13ifvqhsg","pricing_plan_id":"free"},{"bike_id":"cc3eab38-9c21-4228-b321-5f66510d7666","system_id":"levelo_inurba_marseille","lat":43.323464,"lon":5.406297,"is_reserved":false,"is_disabled":false,"rental_uris":{"android":"levelo://app?vid=cc3eab38-9c21-4228-b321-5f66510d7666","ios":"levelo://app?vid=cc3eab38-9c21-4228-b321-5f66510d7666"},"vehicle_type_id":"4","last_reported":1690474099,"current_range_meters":31200,"station_id":"ce4bhq92rcd13ifvqhjg","pricing_plan_id":"free"},{"bike_id":"f2197b32-1790-4499-9acb-48b384ecc478","system_id":"levelo_inurba_marseille","lat":43.337168,"lon":5.391825,"is_reserved":false,"is_disabled":false,"rental_uris":{"android":"levelo://app?vid=f2197b32-1790-4499-9acb-48b384ecc478","ios":"levelo://app?vid=f2197b32-1790-4499-9acb-48b384ecc478"},"vehicle_type_id":"4","last_reported":1690474099,"current_range_meters":29600,"station_id":"ce4bhr92rcd13ifvqhsg","pricing_plan_id":"free"},{"bike_id":"6896450c-6f9c-4528-82c0-15a24fdbd73e","system_id":"levelo_inurba_marseille","lat":43.284787,"lon":5.384116,"is_reserved":false,"is_disabled":false,"rental_uris":{"android":"levelo://app?vid=6896450c-6f9c-4528-82c0-15a24fdbd73e","ios":"levelo://app?vid=6896450c-6f9c-4528-82c0-15a24fdbd73e"},"vehicle_type_id":"4","last_reported":1690474099,"current_range_meters":26000,"station_id":"ce4bh512rcd13ifvqe3g","pricing_plan_id":"free"},{"bike_id":"ec45af5f-36b5-4db2-b2a8-9f37b6d276bb","system_id":"levelo_inurba_marseille","lat":43.284787,"lon":5.384116,"is_reserved":false,"is_disabled":false,"rental_uris":{"android":"levelo://app?vid=ec45af5f-36b5-4db2-b2a8-9f37b6d276bb","ios":"levelo://app?vid=ec45af5f-36b5-4db2-b2a8-9f37b6d276bb"},"vehicle_type_id":"4","last_reported":1690474099,"current_range_meters":21200,"station_id":"ce4bh512rcd13ifvqe3g","pricing_plan_id":"free"},{"bike_id":"e67c85b8-4fbf-466b-a994-1a8674897a2f","system_id":"levelo_inurba_marseille","lat":43.29799,"lon":5.40396,"is_reserved":false,"is_disabled":false,"rental_uris":{"android":"levelo://app?vid=e67c85b8-4fbf-466b-a994-1a8674897a2f","ios":"levelo://app?vid=e67c85b8-4fbf-466b-a994-1a8674897a2f"},"vehicle_type_id":"4","last_reported":1690474099,"current_range_meters":13200,"station_id":"","pricing_plan_id":"free"},{"bike_id":"62685dac-fced-4476-9af3-d0de92615c48","system_id":"levelo_inurba_marseille","lat":43.29794,"lon":5.40394,"is_reserved":false,"is_disabled":false,"rental_uris":{"android":"levelo://app?vid=62685dac-fced-4476-9af3-d0de92615c48","ios":"levelo://app?vid=62685dac-fced-4476-9af3-d0de92615c48"},"vehicle_type_id":"4","last_reported":1690474099,"current_range_meters":26800,"station_id":"","pricing_plan_id":"free"},{"bike_id":"7421378b-614f-4138-9f2b-f1284c7c6bd0","system_id":"levelo_inurba_marseille","lat":43.288497,"lon":5.393089,"is_reserved":false,"is_disabled":false,"rental_uris":{"android":"levelo://app?vid=7421378b-614f-4138-9f2b-f1284c7c6bd0","ios":"levelo://app?vid=7421378b-614f-4138-9f2b-f1284c7c6bd0"},"vehicle_type_id":"4","last_reported":1690474099,"current_range_meters":17200,"station_id":"ce4bh2p2rcd13ifvqdi0","pricing_plan_id":"free"},{"bike_id":"d814444e-2db9-42a3-9b5e-4c7863564547","system_id":"levelo_inurba_marseille","lat":43.28441,"lon":5.34984,"is_reserved":false,"is_disabled":false,"rental_uris":{"android":"levelo://app?vid=d814444e-2db9-42a3-9b5e-4c7863564547","ios":"levelo://app?vid=d814444e-2db9-42a3-9b5e-4c7863564547"},"vehicle_type_id":"4","last_reported":1690474099,"current_range_meters":13600,"station_id":"ce4bhbh2rcd13ifvqepg","pricing_plan_id":"free"},{"bike_id":"ec766210-24ee-44eb-bafd-d798d4ff0795","system_id":"levelo_inurba_marseille","lat":43.283494,"lon":5.380945,"is_reserved":false,"is_disabled":false,"rental_uris":{"android":"levelo://app?vid=ec766210-24ee-44eb-bafd-d798d4ff0795","ios":"levelo://app?vid=ec766210-24ee-44eb-bafd-d798d4ff0795"},"vehicle_type_id":"4","last_reported":1690474099,"current_range_meters":29200,"station_id":"ce4bh412rcd13ifvqdr0","pricing_plan_id":"free"},{"bike_id":"c1b2f475-90e8-4ee2-8dd0-5f100d8a7fdd","system_id":"levelo_inurba_marseille","lat":43.283494,"lon":5.380945,"is_reserved":false,"is_disabled":false,"rental_uris":{"android":"levelo://app?vid=c1b2f475-90e8-4ee2-8dd0-5f100d8a7fdd","ios":"levelo://app?vid=c1b2f475-90e8-4ee2-8dd0-5f100d8a7fdd"},"vehicle_type_id":"4","last_reported":1690474099,"current_range_meters":20400,"station_id":"ce4bh412rcd13ifvqdr0","pricing_plan_id":"free"},{"bike_id":"5a3bbe80-28d3-44c5-aee8-78cbf021a0e6","system_id":"levelo_inurba_marseille","lat":43.284219,"lon":5.3497,"is_reserved":false,"is_disabled":false,"rental_uris":{"android":"levelo://app?vid=5a3bbe80-28d3-44c5-aee8-78cbf021a0e6","ios":"levelo://app?vid=5a3bbe80-28d3-44c5-aee8-78cbf021a0e6"},"vehicle_type_id":"4","last_reported":1690474099,"current_range_meters":14000,"station_id":"ce4bhbh2rcd13ifvqepg","pricing_plan_id":"free"},{"bike_id":"6b92fd6b-b098-4aa9-a45e-cfc6b4bf464b","system_id":"levelo_inurba_marseille","lat":43.284219,"lon":5.3497,"is_reserved":false,"is_disabled":false,"rental_uris":{"android":"levelo://app?vid=6b92fd6b-b098-4aa9-a45e-cfc6b4bf464b","ios":"levelo://app?vid=6b92fd6b-b098-4aa9-a45e-cfc6b4bf464b"},"vehicle_type_id":"4","last_reported":1690474099,"current_range_meters":2400,"station_id":"ce4bhbh2rcd13ifvqepg","pricing_plan_id":"free"},{"bike_id":"9413f83f-df18-4e08-91d1-94121b1295b5","system_id":"levelo_inurba_marseille","lat":43.284219,"lon":5.3497,"is_reserved":false,"is_disabled":false,"rental_uris":{"android":"levelo://app?vid=9413f83f-df18-4e08-91d1-94121b1295b5","ios":"levelo://app?vid=9413f83f-df18-4e08-91d1-94121b1295b5"},"vehicle_type_id":"4","last_reported":1690474099,"current_range_meters":20000,"station_id":"ce4bhbh2rcd13ifvqepg","pricing_plan_id":"free"},{"bike_id":"780ecd19-14c4-47b9-a3e4-2dc2f1be4001","system_id":"levelo_inurba_marseille","lat":43.284219,"lon":5.3497,"is_reserved":false,"is_disabled":false,"rental_uris":{"android":"levelo://app?vid=780ecd19-14c4-47b9-a3e4-2dc2f1be4001","ios":"levelo://app?vid=780ecd19-14c4-47b9-a3e4-2dc2f1be4001"},"vehicle_type_id":"4","last_reported":1690474099,"current_range_meters":31200,"station_id":"ce4bhbh2rcd13ifvqepg","pricing_plan_id":"free"},{"bike_id":"06a8df85-6417-408b-acaa-89171825ad5f","system_id":"levelo_inurba_marseille","lat":43.28425,"lon":5.34976,"is_reserved":false,"is_disabled":false,"rental_uris":{"android":"levelo://app?vid=06a8df85-6417-408b-acaa-89171825ad5f","ios":"levelo://app?vid=06a8df85-6417-408b-acaa-89171825ad5f"},"vehicle_type_id":"4","last_reported":1690474099,"current_range_meters":5200,"station_id":"ce4bhbh2rcd13ifvqepg","pricing_plan_id":"free"},{"bike_id":"d36ef8ef-f002-4a40-bf77-581bc57a09f1","system_id":"levelo_inurba_marseille","lat":43.284219,"lon":5.3497,"is_reserved":false,"is_disabled":false,"rental_uris":{"android":"levelo://app?vid=d36ef8ef-f002-4a40-bf77-581bc57a09f1","ios":"levelo://app?vid=d36ef8ef-f002-4a40-bf77-581bc57a09f1"},"vehicle_type_id":"4","last_reported":1690474099,"current_range_meters":30000,"station_id":"ce4bhbh2rcd13ifvqepg","pricing_plan_id":"free"},{"bike_id":"6bd0a873-a837-424a-a16e-71bbd9bc5739","system_id":"levelo_inurba_marseille","lat":43.284219,"lon":5.3497,"is_reserved":false,"is_disabled":false,"rental_uris":{"android":"levelo://app?vid=6bd0a873-a837-424a-a16e-71bbd9bc5739","ios":"levelo://app?vid=6bd0a873-a837-424a-a16e-71bbd9bc5739"},"vehicle_type_id":"4","last_reported":1690474099,"current_range_meters":31600,"station_id":"ce4bhbh2rcd13ifvqepg","pricing_plan_id":"free"},{"bike_id":"31525f12-9353-4c7f-863a-3a3c06186121","system_id":"levelo_inurba_marseille","lat":43.284219,"lon":5.3497,"is_reserved":false,"is_disabled":false,"rental_uris":{"android":"levelo://app?vid=31525f12-9353-4c7f-863a-3a3c06186121","ios":"levelo://app?vid=31525f12-9353-4c7f-863a-3a3c06186121"},"vehicle_type_id":"4","last_reported":1690474099,"current_range_meters":24000,"station_id":"ce4bhbh2rcd13ifvqepg","pricing_plan_id":"free"},{"bike_id":"38610f2e-6d70-4b62-9a40-6791c046e211","system_id":"levelo_inurba_marseille","lat":43.28417,"lon":5.34993,"is_reserved":false,"is_disabled":false,"rental_uris":{"android":"levelo://app?vid=38610f2e-6d70-4b62-9a40-6791c046e211","ios":"levelo://app?vid=38610f2e-6d70-4b62-9a40-6791c046e211"},"vehicle_type_id":"4","last_reported":1690474099,"current_range_meters":29200,"station_id":"ce4bhbh2rcd13ifvqepg","pricing_plan_id":"free"},{"bike_id":"bb2dd584-905a-4d3f-9564-c8bf083c8370","system_id":"levelo_inurba_marseille","lat":43.28419,"lon":5.34986,"is_reserved":false,"is_disabled":false,"rental_uris":{"android":"levelo://app?vid=bb2dd584-905a-4d3f-9564-c8bf083c8370","ios":"levelo://app?vid=bb2dd584-905a-4d3f-9564-c8bf083c8370"},"vehicle_type_id":"4","last_reported":1690474099,"current_range_meters":29600,"station_id":"ce4bhbh2rcd13ifvqepg","pricing_plan_id":"free"},{"bike_id":"5141be95-64ad-4c5e-9e88-2b061d060e6e","system_id":"levelo_inurba_marseille","lat":43.284219,"lon":5.3497,"is_reserved":false,"is_disabled":false,"rental_uris":{"android":"levelo://app?vid=5141be95-64ad-4c5e-9e88-2b061d060e6e","ios":"levelo://app?vid=5141be95-64ad-4c5e-9e88-2b061d060e6e"},"vehicle_type_id":"4","last_reported":1690474099,"current_range_meters":23200,"station_id":"ce4bhbh2rcd13ifvqepg","pricing_plan_id":"free"},{"bike_id":"5e862a7b-d187-4a44-a42f-8c099b7409a5","system_id":"levelo_inurba_marseille","lat":43.284217,"lon":5.349697,"is_reserved":false,"is_disabled":false,"rental_uris":{"android":"levelo://app?vid=5e862a7b-d187-4a44-a42f-8c099b7409a5","ios":"levelo://app?vid=5e862a7b-d187-4a44-a42f-8c099b7409a5"},"vehicle_type_id":"4","last_reported":1690474099,"current_range_meters":31200,"station_id":"ce4bhbh2rcd13ifvqepg","pricing_plan_id":"free"},{"bike_id":"8bc00dfd-88eb-4f40-b9fb-a1d912e5a420","system_id":"levelo_inurba_marseille","lat":43.284217,"lon":5.349697,"is_reserved":false,"is_disabled":false,"rental_uris":{"android":"levelo://app?vid=8bc00dfd-88eb-4f40-b9fb-a1d912e5a420","ios":"levelo://app?vid=8bc00dfd-88eb-4f40-b9fb-a1d912e5a420"},"vehicle_type_id":"4","last_reported":1690474099,"current_range_meters":31600,"station_id":"ce4bhbh2rcd13ifvqepg","pricing_plan_id":"free"},{"bike_id":"3b7e7192-93c3-4071-a161-96fb617c7c67","system_id":"levelo_inurba_marseille","lat":43.284217,"lon":5.349697,"is_reserved":false,"is_disabled":false,"rental_uris":{"android":"levelo://app?vid=3b7e7192-93c3-4071-a161-96fb617c7c67","ios":"levelo://app?vid=3b7e7192-93c3-4071-a161-96fb617c7c67"},"vehicle_type_id":"4","last_reported":1690474099,"current_range_meters":24000,"station_id":"ce4bhbh2rcd13ifvqepg","pricing_plan_id":"free"},{"bike_id":"72eb6618-c9a8-485a-8581-97ee4f938749","system_id":"levelo_inurba_marseille","lat":43.284217,"lon":5.349697,"is_reserved":false,"is_disabled":false,"rental_uris":{"android":"levelo://app?vid=72eb6618-c9a8-485a-8581-97ee4f938749","ios":"levelo://app?vid=72eb6618-c9a8-485a-8581-97ee4f938749"},"vehicle_type_id":"4","last_reported":1690474099,"current_range_meters":16400,"station_id":"ce4bhbh2rcd13ifvqepg","pricing_plan_id":"free"},{"bike_id":"0855e5de-1522-4c16-bc75-4e52f8d90636","system_id":"levelo_inurba_marseille","lat":43.284219,"lon":5.3497,"is_reserved":false,"is_disabled":false,"rental_uris":{"android":"levelo://app?vid=0855e5de-1522-4c16-bc75-4e52f8d90636","ios":"levelo://app?vid=0855e5de-1522-4c16-bc75-4e52f8d90636"},"vehicle_type_id":"4","last_reported":1690474099,"current_range_meters":23200,"station_id":"ce4bhbh2rcd13ifvqepg","pricing_plan_id":"free"},{"bike_id":"4e67a6d4-f26d-4eb1-aa26-82e34dbd3f35","system_id":"levelo_inurba_marseille","lat":43.284219,"lon":5.3497,"is_reserved":false,"is_disabled":false,"rental_uris":{"android":"levelo://app?vid=4e67a6d4-f26d-4eb1-aa26-82e34dbd3f35","ios":"levelo://app?vid=4e67a6d4-f26d-4eb1-aa26-82e34dbd3f35"},"vehicle_type_id":"4","last_reported":1690474099,"current_range_meters":2000,"station_id":"ce4bhbh2rcd13ifvqepg","pricing_plan_id":"free"},{"bike_id":"18e0acb5-fd91-4d5e-a7fd-390c1d54987b","system_id":"levelo_inurba_marseille","lat":43.284217,"lon":5.349697,"is_reserved":false,"is_disabled":false,"rental_uris":{"android":"levelo://app?vid=18e0acb5-fd91-4d5e-a7fd-390c1d54987b","ios":"levelo://app?vid=18e0acb5-fd91-4d5e-a7fd-390c1d54987b"},"vehicle_type_id":"4","last_reported":1690474099,"current_range_meters":23200,"station_id":"ce4bhbh2rcd13ifvqepg","pricing_plan_id":"free"},{"bike_id":"23ca0172-d76b-4afc-b79a-d4629a4189c7","system_id":"levelo_inurba_marseille","lat":43.284219,"lon":5.3497,"is_reserved":false,"is_disabled":false,"rental_uris":{"android":"levelo://app?vid=23ca0172-d76b-4afc-b79a-d4629a4189c7","ios":"levelo://app?vid=23ca0172-d76b-4afc-b79a-d4629a4189c7"},"vehicle_type_id":"4","last_reported":1690474099,"current_range_meters":6800,"station_id":"ce4bhbh2rcd13ifvqepg","pricing_plan_id":"free"},{"bike_id":"20ddbd41-13af-4e43-90e6-31f710baf595","system_id":"levelo_inurba_marseille","lat":43.284217,"lon":5.349697,"is_reserved":false,"is_disabled":false,"rental_uris":{"android":"levelo://app?vid=20ddbd41-13af-4e43-90e6-31f710baf595","ios":"levelo://app?vid=20ddbd41-13af-4e43-90e6-31f710baf595"},"vehicle_type_id":"4","last_reported":1690474099,"current_range_meters":21600,"station_id":"ce4bhbh2rcd13ifvqepg","pricing_plan_id":"free"},{"bike_id":"87fce8ad-2cf5-4a39-9607-8d9b5de15cc0","system_id":"levelo_inurba_marseille","lat":43.284217,"lon":5.349697,"is_reserved":false,"is_disabled":false,"rental_uris":{"android":"levelo://app?vid=87fce8ad-2cf5-4a39-9607-8d9b5de15cc0","ios":"levelo://app?vid=87fce8ad-2cf5-4a39-9607-8d9b5de15cc0"},"vehicle_type_id":"4","last_reported":1690474099,"current_range_meters":31600,"station_id":"ce4bhbh2rcd13ifvqepg","pricing_plan_id":"free"},{"bike_id":"67177917-3938-4b49-bc9a-7f575e69541e","system_id":"levelo_inurba_marseille","lat":43.284217,"lon":5.349697,"is_reserved":false,"is_disabled":false,"rental_uris":{"android":"levelo://app?vid=67177917-3938-4b49-bc9a-7f575e69541e","ios":"levelo://app?vid=67177917-3938-4b49-bc9a-7f575e69541e"},"vehicle_type_id":"4","last_reported":1690474099,"current_range_meters":31200,"station_id":"ce4bhbh2rcd13ifvqepg","pricing_plan_id":"free"},{"bike_id":"7dd920fa-e6db-4185-875f-93c25bf843b9","system_id":"levelo_inurba_marseille","lat":43.284219,"lon":5.3497,"is_reserved":false,"is_disabled":false,"rental_uris":{"android":"levelo://app?vid=7dd920fa-e6db-4185-875f-93c25bf843b9","ios":"levelo://app?vid=7dd920fa-e6db-4185-875f-93c25bf843b9"},"vehicle_type_id":"4","last_reported":1690474099,"current_range_meters":26000,"station_id":"ce4bhbh2rcd13ifvqepg","pricing_plan_id":"free"},{"bike_id":"fa9a5697-da33-43cd-90cd-b0eb01edb676","system_id":"levelo_inurba_marseille","lat":43.283494,"lon":5.380945,"is_reserved":false,"is_disabled":false,"rental_uris":{"android":"levelo://app?vid=fa9a5697-da33-43cd-90cd-b0eb01edb676","ios":"levelo://app?vid=fa9a5697-da33-43cd-90cd-b0eb01edb676"},"vehicle_type_id":"4","last_reported":1690474099,"current_range_meters":16400,"station_id":"ce4bh412rcd13ifvqdr0","pricing_plan_id":"free"},{"bike_id":"e9aafd6c-7c44-4575-bfa1-60a6d051d9d2","system_id":"levelo_inurba_marseille","lat":43.284217,"lon":5.349697,"is_reserved":false,"is_disabled":false,"rental_uris":{"android":"levelo://app?vid=e9aafd6c-7c44-4575-bfa1-60a6d051d9d2","ios":"levelo://app?vid=e9aafd6c-7c44-4575-bfa1-60a6d051d9d2"},"vehicle_type_id":"4","last_reported":1690474099,"current_range_meters":14400,"station_id":"ce4bhbh2rcd13ifvqepg","pricing_plan_id":"free"},{"bike_id":"2c4d3a40-b6bb-4f2f-a969-630578b4d301","system_id":"levelo_inurba_marseille","lat":43.284217,"lon":5.349697,"is_reserved":false,"is_disabled":false,"rental_uris":{"android":"levelo://app?vid=2c4d3a40-b6bb-4f2f-a969-630578b4d301","ios":"levelo://app?vid=2c4d3a40-b6bb-4f2f-a969-630578b4d301"},"vehicle_type_id":"4","last_reported":1690474099,"current_range_meters":18400,"station_id":"ce4bhbh2rcd13ifvqepg","pricing_plan_id":"free"},{"bike_id":"21823bac-9975-45ab-bb49-b1e2eb42dbe4","system_id":"levelo_inurba_marseille","lat":43.284217,"lon":5.349697,"is_reserved":false,"is_disabled":false,"rental_uris":{"android":"levelo://app?vid=21823bac-9975-45ab-bb49-b1e2eb42dbe4","ios":"levelo://app?vid=21823bac-9975-45ab-bb49-b1e2eb42dbe4"},"vehicle_type_id":"4","last_reported":1690474099,"current_range_meters":19600,"station_id":"ce4bhbh2rcd13ifvqepg","pricing_plan_id":"free"},{"bike_id":"b8069eea-3e23-4386-88c0-807491d6d531","system_id":"levelo_inurba_marseille","lat":43.284217,"lon":5.349697,"is_reserved":false,"is_disabled":false,"rental_uris":{"android":"levelo://app?vid=b8069eea-3e23-4386-88c0-807491d6d531","ios":"levelo://app?vid=b8069eea-3e23-4386-88c0-807491d6d531"},"vehicle_type_id":"4","last_reported":1690474099,"current_range_meters":19200,"station_id":"ce4bhbh2rcd13ifvqepg","pricing_plan_id":"free"},{"bike_id":"f3b2972a-66ef-4a5f-86c0-b8541894ed72","system_id":"levelo_inurba_marseille","lat":43.284219,"lon":5.3497,"is_reserved":false,"is_disabled":false,"rental_uris":{"android":"levelo://app?vid=f3b2972a-66ef-4a5f-86c0-b8541894ed72","ios":"levelo://app?vid=f3b2972a-66ef-4a5f-86c0-b8541894ed72"},"vehicle_type_id":"4","last_reported":1690474099,"current_range_meters":21200,"station_id":"ce4bhbh2rcd13ifvqepg","pricing_plan_id":"free"},{"bike_id":"60751061-edaa-4064-aaf8-58a86a476805","system_id":"levelo_inurba_marseille","lat":43.292724,"lon":5.401131,"is_reserved":false,"is_disabled":false,"rental_uris":{"android":"levelo://app?vid=60751061-edaa-4064-aaf8-58a86a476805","ios":"levelo://app?vid=60751061-edaa-4064-aaf8-58a86a476805"},"vehicle_type_id":"4","last_reported":1690474099,"current_range_meters":19600,"station_id":"ce4bh312rcd13ifvqdk0","pricing_plan_id":"free"},{"bike_id":"02f4479f-8f86-40c0-aee3-e4f704c015a1","system_id":"levelo_inurba_marseille","lat":43.292724,"lon":5.401131,"is_reserved":false,"is_disabled":false,"rental_uris":{"android":"levelo://app?vid=02f4479f-8f86-40c0-aee3-e4f704c015a1","ios":"levelo://app?vid=02f4479f-8f86-40c0-aee3-e4f704c015a1"},"vehicle_type_id":"4","last_reported":1690474099,"current_range_meters":11200,"station_id":"ce4bh312rcd13ifvqdk0","pricing_plan_id":"free"},{"bike_id":"2ac8b92e-75cc-40ab-a32d-0692203f8825","system_id":"levelo_inurba_marseille","lat":43.292724,"lon":5.401131,"is_reserved":false,"is_disabled":false,"rental_uris":{"android":"levelo://app?vid=2ac8b92e-75cc-40ab-a32d-0692203f8825","ios":"levelo://app?vid=2ac8b92e-75cc-40ab-a32d-0692203f8825"},"vehicle_type_id":"4","last_reported":1690474099,"current_range_meters":26000,"station_id":"ce4bh312rcd13ifvqdk0","pricing_plan_id":"free"},{"bike_id":"39448ebe-d4d8-45d9-aa25-b5c7b3b3dd76","system_id":"levelo_inurba_marseille","lat":43.292724,"lon":5.401131,"is_reserved":false,"is_disabled":false,"rental_uris":{"android":"levelo://app?vid=39448ebe-d4d8-45d9-aa25-b5c7b3b3dd76","ios":"levelo://app?vid=39448ebe-d4d8-45d9-aa25-b5c7b3b3dd76"},"vehicle_type_id":"4","last_reported":1690474099,"current_range_meters":23600,"station_id":"ce4bh312rcd13ifvqdk0","pricing_plan_id":"free"},{"bike_id":"155ee1dd-49fa-4244-b4ec-77e8a80f855a","system_id":"levelo_inurba_marseille","lat":43.28294,"lon":5.35076,"is_reserved":false,"is_disabled":false,"rental_uris":{"android":"levelo://app?vid=155ee1dd-49fa-4244-b4ec-77e8a80f855a","ios":"levelo://app?vid=155ee1dd-49fa-4244-b4ec-77e8a80f855a"},"vehicle_type_id":"4","last_reported":1690474099,"current_range_meters":31200,"station_id":"ce4bhbp2rcd13ifvqerg","pricing_plan_id":"free"},{"bike_id":"025c7fdd-0cdd-4460-a82b-f50caa006ecc","system_id":"levelo_inurba_marseille","lat":43.28287,"lon":5.35088,"is_reserved":false,"is_disabled":false,"rental_uris":{"android":"levelo://app?vid=025c7fdd-0cdd-4460-a82b-f50caa006ecc","ios":"levelo://app?vid=025c7fdd-0cdd-4460-a82b-f50caa006ecc"},"vehicle_type_id":"4","last_reported":1690474099,"current_range_meters":13600,"station_id":"ce4bhbp2rcd13ifvqerg","pricing_plan_id":"free"},{"bike_id":"24e3fa09-4530-469b-bc15-cc8175326529","system_id":"levelo_inurba_marseille","lat":43.28281,"lon":5.35085,"is_reserved":false,"is_disabled":false,"rental_uris":{"android":"levelo://app?vid=24e3fa09-4530-469b-bc15-cc8175326529","ios":"levelo://app?vid=24e3fa09-4530-469b-bc15-cc8175326529"},"vehicle_type_id":"4","last_reported":1690474099,"current_range_meters":28400,"station_id":"ce4bhbp2rcd13ifvqerg","pricing_plan_id":"free"},{"bike_id":"5d4b9c27-0692-4e0a-9b6d-cd4841f90ef2","system_id":"levelo_inurba_marseille","lat":43.2828,"lon":5.35077,"is_reserved":false,"is_disabled":false,"rental_uris":{"android":"levelo://app?vid=5d4b9c27-0692-4e0a-9b6d-cd4841f90ef2","ios":"levelo://app?vid=5d4b9c27-0692-4e0a-9b6d-cd4841f90ef2"},"vehicle_type_id":"4","last_reported":1690474099,"current_range_meters":31200,"station_id":"ce4bhbp2rcd13ifvqerg","pricing_plan_id":"free"},{"bike_id":"0fa7137f-0675-4629-a000-cc3318a5e004","system_id":"levelo_inurba_marseille","lat":43.2828,"lon":5.35073,"is_reserved":false,"is_disabled":false,"rental_uris":{"android":"levelo://app?vid=0fa7137f-0675-4629-a000-cc3318a5e004","ios":"levelo://app?vid=0fa7137f-0675-4629-a000-cc3318a5e004"},"vehicle_type_id":"4","last_reported":1690474099,"current_range_meters":25200,"station_id":"ce4bhbp2rcd13ifvqerg","pricing_plan_id":"free"},{"bike_id":"64b23e5e-996b-4743-8838-50e472344c6a","system_id":"levelo_inurba_marseille","lat":43.28277,"lon":5.35078,"is_reserved":false,"is_disabled":false,"rental_uris":{"android":"levelo://app?vid=64b23e5e-996b-4743-8838-50e472344c6a","ios":"levelo://app?vid=64b23e5e-996b-4743-8838-50e472344c6a"},"vehicle_type_id":"4","last_reported":1690474099,"current_range_meters":17200,"station_id":"ce4bhbp2rcd13ifvqerg","pricing_plan_id":"free"},{"bike_id":"56b8958c-6253-4b82-845b-d1731b249340","system_id":"levelo_inurba_marseille","lat":43.29041,"lon":5.399634,"is_reserved":false,"is_disabled":false,"rental_uris":{"android":"levelo://app?vid=56b8958c-6253-4b82-845b-d1731b249340","ios":"levelo://app?vid=56b8958c-6253-4b82-845b-d1731b249340"},"vehicle_type_id":"4","last_reported":1690474099,"current_range_meters":27600,"station_id":"ce4bh392rcd13ifvqdm0","pricing_plan_id":"free"},{"bike_id":"494a8799-486a-4069-a218-55971a503595","system_id":"levelo_inurba_marseille","lat":43.28276,"lon":5.35081,"is_reserved":false,"is_disabled":false,"rental_uris":{"android":"levelo://app?vid=494a8799-486a-4069-a218-55971a503595","ios":"levelo://app?vid=494a8799-486a-4069-a218-55971a503595"},"vehicle_type_id":"4","last_reported":1690474099,"current_range_meters":17600,"station_id":"ce4bhbp2rcd13ifvqerg","pricing_plan_id":"free"},{"bike_id":"b296cd73-0610-4d2b-afc1-4d97cece2132","system_id":"levelo_inurba_marseille","lat":43.282744,"lon":5.350533,"is_reserved":false,"is_disabled":false,"rental_uris":{"android":"levelo://app?vid=b296cd73-0610-4d2b-afc1-4d97cece2132","ios":"levelo://app?vid=b296cd73-0610-4d2b-afc1-4d97cece2132"},"vehicle_type_id":"4","last_reported":1690474099,"current_range_meters":31200,"station_id":"ce4bhbp2rcd13ifvqerg","pricing_plan_id":"free"},{"bike_id":"6290b58b-6bdc-4004-a988-c949adb72df5","system_id":"levelo_inurba_marseille","lat":43.28277,"lon":5.35071,"is_reserved":false,"is_disabled":false,"rental_uris":{"android":"levelo://app?vid=6290b58b-6bdc-4004-a988-c949adb72df5","ios":"levelo://app?vid=6290b58b-6bdc-4004-a988-c949adb72df5"},"vehicle_type_id":"4","last_reported":1690474099,"current_range_meters":24000,"station_id":"ce4bhbp2rcd13ifvqerg","pricing_plan_id":"free"},{"bike_id":"f0cac3bb-84be-4024-9722-398c74361751","system_id":"levelo_inurba_marseille","lat":43.282744,"lon":5.350533,"is_reserved":false,"is_disabled":false,"rental_uris":{"android":"levelo://app?vid=f0cac3bb-84be-4024-9722-398c74361751","ios":"levelo://app?vid=f0cac3bb-84be-4024-9722-398c74361751"},"vehicle_type_id":"4","last_reported":1690474099,"current_range_meters":18400,"station_id":"ce4bhbp2rcd13ifvqerg","pricing_plan_id":"free"},{"bike_id":"ee6a5f58-70fb-4d20-af54-483ef541a1fb","system_id":"levelo_inurba_marseille","lat":43.28274,"lon":5.35075,"is_reserved":false,"is_disabled":false,"rental_uris":{"android":"levelo://app?vid=ee6a5f58-70fb-4d20-af54-483ef541a1fb","ios":"levelo://app?vid=ee6a5f58-70fb-4d20-af54-483ef541a1fb"},"vehicle_type_id":"4","last_reported":1690474099,"current_range_meters":22800,"station_id":"ce4bhbp2rcd13ifvqerg","pricing_plan_id":"free"},{"bike_id":"226ef08b-497b-4f27-93ad-1f84bd2a2982","system_id":"levelo_inurba_marseille","lat":43.28273,"lon":5.35077,"is_reserved":false,"is_disabled":false,"rental_uris":{"android":"levelo://app?vid=226ef08b-497b-4f27-93ad-1f84bd2a2982","ios":"levelo://app?vid=226ef08b-497b-4f27-93ad-1f84bd2a2982"},"vehicle_type_id":"4","last_reported":1690474099,"current_range_meters":14800,"station_id":"ce4bhbp2rcd13ifvqerg","pricing_plan_id":"free"},{"bike_id":"4ece55c6-55d2-45c5-9fd2-7daf9ec39206","system_id":"levelo_inurba_marseille","lat":43.28272,"lon":5.35078,"is_reserved":false,"is_disabled":false,"rental_uris":{"android":"levelo://app?vid=4ece55c6-55d2-45c5-9fd2-7daf9ec39206","ios":"levelo://app?vid=4ece55c6-55d2-45c5-9fd2-7daf9ec39206"},"vehicle_type_id":"4","last_reported":1690474099,"current_range_meters":20000,"station_id":"ce4bhbp2rcd13ifvqerg","pricing_plan_id":"free"},