{"last_updated":1718125688,"ttl":30,"version":"2.2","data":{"bikes":[{"bike_id":"6453e501-d46c-49f4-9c11-34c2eb0a8ae8","system_id":"levelo_inurba_marseille","lat":43.313576,"lon":5.367108,"is_reserved":false,"is_disabled":false,"rental_uris":{"android":"levelo://app?vid=6453e501-d46c-49f4-9c11-34c2eb0a8ae8","ios":"levelo://app?vid=6453e501-d46c-49f4-9c11-34c2eb0a8ae8"},"vehicle_type_id":"4","last_reported":1718125688,"current_range_meters":0,"station_id":"ce4bgr92rcd13ifvqc6g","pricing_plan_id":"cebpf4jnsgd1na2vs0mg"},{"bike_id":"8c9bee8a-97a1-4979-80c5-02db692c1c9e","system_id":"levelo_inurba_marseille","lat":43.312239,"lon":5.368562,"is_reserved":false,"is_disabled":false,"rental_uris":{"android":"levelo://app?vid=8c9bee8a-97a1-4979-80c5-02db692c1c9e","ios":"levelo://app?vid=8c9bee8a-97a1-4979-80c5-02db692c1c9e"},"vehicle_type_id":"4","last_reported":1718125688,"current_range_meters":0,"station_id":"ce4bgl92rcd13ifvqbq0","pricing_plan_id":"cebpf4jnsgd1na2vs0mg"},{"bike_id":"6ec88076-783d-41d2-ac65-03d3592b5ce9","system_id":"levelo_inurba_marseille","lat":43.314811,"lon":5.373104,"is_reserved":false,"is_disabled":false,"rental_uris":{"android":"levelo://app?vid=6ec88076-783d-41d2-ac65-03d3592b5ce9","ios":"levelo://app?vid=6ec88076-783d-41d2-ac65-03d3592b5ce9"},"vehicle_type_id":"4","last_reported":1718125688,"current_range_meters":30400,"station_id":"ce4bgt12rcd13ifvqcd0","pricing_plan_id":"cebpf4jnsgd1na2vs0mg"},{"bike_id":"06b54e15-b6da-4be6-9dbd-ef25e3fef7ce","system_id":"levelo_inurba_marseille","lat":43.309034,"lon":5.371783,"is_reserved":false,"is_disabled":false,"rental_uris":{"android":"levelo://app?vid=06b54e15-b6da-4be6-9dbd-ef25e3fef7ce","ios":"levelo://app?vid=06b54e15-b6da-4be6-9dbd-ef25e3fef7ce"},"vehicle_type_id":"4","last_reported":1718125688,"current_range_meters":800,"station_id":"ce4bguh2rcd13ifvqckg","pricing_plan_id":"cebpf4jnsgd1na2vs0mg"},{"bike_id":"172ff654-cc67-4388-b0f4-5ab080126d1e","system_id":"levelo_inurba_marseille","lat":43.305401,"lon":5.367023,"is_reserved":false,"is_disabled":false,"rental_uris":{"android":"levelo://app?vid=172ff654-cc67-4388-b0f4-5ab080126d1e","ios":"levelo://app?vid=172ff654-cc67-4388-b0f4-5ab080126d1e"},"vehicle_type_id":"4","last_reported":1718125688,"current_range_meters":0,"station_id":"ce4bgrp2rcd13ifvqc9g","pricing_plan_id":"cebpf4jnsgd1na2vs0mg"},{"bike_id":"73fb54fa-9e6e-434f-bf27-c3b3c460f82b","system_id":"levelo_inurba_marseille","lat":43.311125,"lon":5.377624,"is_reserved":false,"is_disabled":false,"rental_uris":{"android":"levelo://app?vid=73fb54fa-9e6e-434f-bf27-c3b3c460f82b","ios":"levelo://app?vid=73fb54fa-9e6e-434f-bf27-c3b3c460f82b"},"vehicle_type_id":"4","last_reported":1718125688,"current_range_meters":23600,"station_id":"ce4bgt92rcd13ifvqcg0","pricing_plan_id":"cebpf4jnsgd1na2vs0mg"},{"bike_id":"599d5fde-279e-42b1-94fe-f11e2c3744d9","system_id":"levelo_inurba_marseille","lat":43.311177,"lon":5.377783,"is_reserved":false,"is_disabled":false,"rental_uris":{"android":"levelo://app?vid=599d5fde-279e-42b1-94fe-f11e2c3744d9","ios":"levelo://app?vid=599d5fde-279e-42b1-94fe-f11e2c3744d9"},"vehicle_type_id":"4","last_reported":1718125688,"current_range_meters":0,"station_id":"ce4bgt92rcd13ifvqcg0","pricing_plan_id":"cebpf4jnsgd1na2vs0mg"},{"bike_id":"a9a4d47e-ed8a-42c6-b203-9cf6a4eb0f47","system_id":"levelo_inurba_marseille","lat":43.307945,"lon":5.376487,"is_reserved":false,"is_disabled":false,"rental_uris":{"android":"levelo://app?vid=a9a4d47e-ed8a-42c6-b203-9cf6a4eb0f47","ios":"levelo://app?vid=a9a4d47e-ed8a-42c6-b203-9cf6a4eb0f47"},"vehicle_type_id":"4","last_reported":1718125688,"current_range_meters":1600,"station_id":"ce4bgv92rcd13ifvqcq0","pricing_plan_id":"cebpf4jnsgd1na2vs0mg"},{"bike_id":"de2b7518-9f21-4880-aac0-9839ac6e565e","system_id":"levelo_inurba_marseille","lat":43.307945,"lon":5.376487,"is_reserved":false,"is_disabled":false,"rental_uris":{"android":"levelo://app?vid=de2b7518-9f21-4880-aac0-9839ac6e565e","ios":"levelo://app?vid=de2b7518-9f21-4880-aac0-9839ac6e565e"},"vehicle_type_id":"4","last_reported":1718125688,"current_range_meters":16000,"station_id":"ce4bgv92rcd13ifvqcq0","pricing_plan_id":"cebpf4jnsgd1na2vs0mg"},{"bike_id":"d2ec8f15-6e7d-4b38-86a3-e4024a637d1f","system_id":"levelo_inurba_marseille","lat":43.317056,"lon":5.377589,"is_reserved":false,"is_disabled":false,"rental_uris":{"android":"levelo://app?vid=d2ec8f15-6e7d-4b38-86a3-e4024a637d1f","ios":"levelo://app?vid=d2ec8f15-6e7d-4b38-86a3-e4024a637d1f"},"vehicle_type_id":"4","last_reported":1718125688,"current_range_meters":0,"station_id":"ce4bgth2rcd13ifvqch0","pricing_plan_id":"cebpf4jnsgd1na2vs0mg"},{"bike_id":"7709c6da-f1e7-48cf-b1ab-ab9284a807ef","system_id":"levelo_inurba_marseille","lat":43.303046,"lon":5.368981,"is_reserved":false,"is_disabled":false,"rental_uris":{"android":"levelo://app?vid=7709c6da-f1e7-48cf-b1ab-ab9284a807ef","ios":"levelo://app?vid=7709c6da-f1e7-48cf-b1ab-ab9284a807ef"},"vehicle_type_id":"4","last_reported":1718125688,"current_range_meters":4800,"station_id":"ce4bgqh2rcd13ifvqc5g","pricing_plan_id":"cebpf4jnsgd1na2vs0mg"},{"bike_id":"f689b6d8-584a-45dd-bd32-d50ab88ca91f","system_id":"levelo_inurba_marseille","lat":43.315289,"lon":5.380349,"is_reserved":false,"is_disabled":false,"rental_uris":{"android":"levelo://app?vid=f689b6d8-584a-45dd-bd32-d50ab88ca91f","ios":"levelo://app?vid=f689b6d8-584a-45dd-bd32-d50ab88ca91f"},"vehicle_type_id":"4","last_reported":1718125688,"current_range_meters":10800,"station_id":"ce4bhsp2rcd13ifvqi50","pricing_plan_id":"cebpf4jnsgd1na2vs0mg"},{"bike_id":"7c5ef050-95fb-483d-9536-9911e6e75497","system_id":"levelo_inurba_marseille","lat":43.322872,"lon":5.382756,"is_reserved":false,"is_disabled":false,"rental_uris":{"android":"levelo://app?vid=7c5ef050-95fb-483d-9536-9911e6e75497","ios":"levelo://app?vid=7c5ef050-95fb-483d-9536-9911e6e75497"},"vehicle_type_id":"4","last_reported":1718125688,"current_range_meters":0,"station_id":"ce4bhr12rcd13ifvqhqg","pricing_plan_id":"cebpf4jnsgd1na2vs0mg"},{"bike_id":"5e948987-e62f-4415-833f-3039c8bf58ec","system_id":"levelo_inurba_marseille","lat":43.31429,"lon":5.38345,"is_reserved":false,"is_disabled":false,"rental_uris":{"android":"levelo://app?vid=5e948987-e62f-4415-833f-3039c8bf58ec","ios":"levelo://app?vid=5e948987-e62f-4415-833f-3039c8bf58ec"},"vehicle_type_id":"4","last_reported":1718125688,"current_range_meters":14000,"station_id":"","pricing_plan_id":"cebpf4jnsgd1na2vs0mg"},{"bike_id":"f444f805-a1e9-45f8-ade1-e3d918b8a80b","system_id":"levelo_inurba_marseille","lat":43.31076,"lon":5.38365,"is_reserved":false,"is_disabled":false,"rental_uris":{"android":"levelo://app?vid=f444f805-a1e9-45f8-ade1-e3d918b8a80b","ios":"levelo://app?vid=f444f805-a1e9-45f8-ade1-e3d918b8a80b"},"vehicle_type_id":"4","last_reported":1718125688,"current_range_meters":0,"station_id":"ce4bgv92rcd13ifvqcr0","pricing_plan_id":"cebpf4jnsgd1na2vs0mg"},{"bike_id":"c7d3b741-38f9-4ea9-bcae-a9fc53686980","system_id":"levelo_inurba_marseille","lat":43.319935,"lon":5.381699,"is_reserved":false,"is_disabled":false,"rental_uris":{"android":"levelo://app?vid=c7d3b741-38f9-4ea9-bcae-a9fc53686980","ios":"levelo://app?vid=c7d3b741-38f9-4ea9-bcae-a9fc53686980"},"vehicle_type_id":"4","last_reported":1718125688,"current_range_meters":0,"station_id":"ce4bhr12rcd13ifvqhpg","pricing_plan_id":"cebpf4jnsgd1na2vs0mg"},{"bike_id":"92f1daf7-b542-430f-9bec-4be8d25b5aba","system_id":"levelo_inurba_marseille","lat":43.313571,"lon":5.384829,"is_reserved":false,"is_disabled":false,"rental_uris":{"android":"levelo://app?vid=92f1daf7-b542-430f-9bec-4be8d25b5aba","ios":"levelo://app?vid=92f1daf7-b542-430f-9bec-4be8d25b5aba"},"vehicle_type_id":"4","last_reported":1718125688,"current_range_meters":0,"station_id":"ce4bgt92rcd13ifvqcf0","pricing_plan_id":"cebpf4jnsgd1na2vs0mg"},{"bike_id":"d66b73b5-2a8a-4810-a902-8ec8b3879ce5","system_id":"levelo_inurba_marseille","lat":43.313571,"lon":5.384829,"is_reserved":false,"is_disabled":false,"rental_uris":{"android":"levelo://app?vid=d66b73b5-2a8a-4810-a902-8ec8b3879ce5","ios":"levelo://app?vid=d66b73b5-2a8a-4810-a902-8ec8b3879ce5"},"vehicle_type_id":"4","last_reported":1718125688,"current_range_meters":26400,"station_id":"ce4bgt92rcd13ifvqcf0","pricing_plan_id":"cebpf4jnsgd1na2vs0mg"},{"bike_id":"f01170b2-701e-4755-9077-7b0f9bf49418","system_id":"levelo_inurba_marseille","lat":43.299222,"lon":5.365554,"is_reserved":false,"is_disabled":false,"rental_uris":{"android":"levelo://app?vid=f01170b2-701e-4755-9077-7b0f9bf49418","ios":"levelo://app?vid=f01170b2-701e-4755-9077-7b0f9bf49418"},"vehicle_type_id":"4","last_reported":1718125688,"current_range_meters":4400,"station_id":"ce4bgm92rcd13ifvqbr0","pricing_plan_id":"cebpf4jnsgd1na2vs0mg"},{"bike_id":"0003bf72-c1ad-4572-9628-b5c162383299","system_id":"levelo_inurba_marseille","lat":43.299724,"lon":5.371829,"is_reserved":false,"is_disabled":false,"rental_uris":{"android":"levelo://app?vid=0003bf72-c1ad-4572-9628-b5c162383299","ios":"levelo://app?vid=0003bf72-c1ad-4572-9628-b5c162383299"},"vehicle_type_id":"4","last_reported":1718125688,"current_range_meters":19200,"station_id":"ce4bgr92rcd13ifvqc7g","pricing_plan_id":"cebpf4jnsgd1na2vs0mg"},{"bike_id":"bb2036b7-87c2-4d34-a8b7-256ca41947ce","system_id":"levelo_inurba_marseille","lat":43.299724,"lon":5.371829,"is_reserved":false,"is_disabled":false,"rental_uris":{"android":"levelo://app?vid=bb2036b7-87c2-4d34-a8b7-256ca41947ce","ios":"levelo://app?vid=bb2036b7-87c2-4d34-a8b7-256ca41947ce"},"vehicle_type_id":"4","last_reported":1718125688,"current_range_meters":31200,"station_id":"ce4bgr92rcd13ifvqc7g","pricing_plan_id":"cebpf4jnsgd1na2vs0mg"},{"bike_id":"37ad93b2-7d96-4b72-af24-b1adbd1707b7","system_id":"levelo_inurba_marseille","lat":43.299222,"lon":5.365554,"is_reserved":false,"is_disabled":false,"rental_uris":{"android":"levelo://app?vid=37ad93b2-7d96-4b72-af24-b1adbd1707b7","ios":"levelo://app?vid=37ad93b2-7d96-4b72-af24-b1adbd1707b7"},"vehicle_type_id":"4","last_reported":1718125688,"current_range_meters":13200,"station_id":"ce4bgm92rcd13ifvqbr0","pricing_plan_id":"cebpf4jnsgd1na2vs0mg"},{"bike_id":"63a6bf20-6c85-46c9-9b6f-8a1a2261c2b5","system_id":"levelo_inurba_marseille","lat":43.299385,"lon":5.371295,"is_reserved":false,"is_disabled":false,"rental_uris":{"android":"levelo://app?vid=63a6bf20-6c85-46c9-9b6f-8a1a2261c2b5","ios":"levelo://app?vid=63a6bf20-6c85-46c9-9b6f-8a1a2261c2b5"},"vehicle_type_id":"4","last_reported":1718125688,"current_range_meters":0,"station_id":"","pricing_plan_id":"cebpf4jnsgd1na2vs0mg"},{"bike_id":"01ca70b6-4e2c-42cb-9aed-a8b80d5ea29c","system_id":"levelo_inurba_marseille","lat":43.30529,"lon":5.38367,"is_reserved":false,"is_disabled":false,"rental_uris":{"android":"levelo://app?vid=01ca70b6-4e2c-42cb-9aed-a8b80d5ea29c","ios":"levelo://app?vid=01ca70b6-4e2c-42cb-9aed-a8b80d5ea29c"},"vehicle_type_id":"4","last_reported":1718125688,"current_range_meters":7200,"station_id":"ce4bgg92rcd13ifvqb30","pricing_plan_id":"cebpf4jnsgd1na2vs0mg"},{"bike_id":"07674da2-4a57-451b-a095-9cfefc66c154","system_id":"levelo_inurba_marseille","lat":43.29852,"lon":5.36292,"is_reserved":false,"is_disabled":false,"rental_uris":{"android":"levelo://app?vid=07674da2-4a57-451b-a095-9cfefc66c154","ios":"levelo://app?vid=07674da2-4a57-451b-a095-9cfefc66c154"},"vehicle_type_id":"4","last_reported":1718125688,"current_range_meters":0,"station_id":"ce4bgpp2rcd13ifvqc3g","pricing_plan_id":"cebpf4jnsgd1na2vs0mg"},{"bike_id":"44633568-3934-497b-8674-62af8ef7d3fb","system_id":"levelo_inurba_marseille","lat":43.307843,"lon":5.385835,"is_reserved":false,"is_disabled":false,"rental_uris":{"android":"levelo://app?vid=44633568-3934-497b-8674-62af8ef7d3fb","ios":"levelo://app?vid=44633568-3934-497b-8674-62af8ef7d3fb"},"vehicle_type_id":"4","last_reported":1718125688,"current_range_meters":20000,"station_id":"","pricing_plan_id":"cebpf4jnsgd1na2vs0mg"},{"bike_id":"d3da32e0-bc0a-43c6-a0fc-2625564dac71","system_id":"levelo_inurba_marseille","lat":43.299243,"lon":5.374807,"is_reserved":false,"is_disabled":false,"rental_uris":{"android":"levelo://app?vid=d3da32e0-bc0a-43c6-a0fc-2625564dac71","ios":"levelo://app?vid=d3da32e0-bc0a-43c6-a0fc-2625564dac71"},"vehicle_type_id":"4","last_reported":1718125688,"current_range_meters":14800,"station_id":"ce4bgjh2rcd13ifvqbg0","pricing_plan_id":"cebpf4jnsgd1na2vs0mg"},{"bike_id":"e064325f-4d66-46f4-afa1-dbba5ef1549f","system_id":"levelo_inurba_marseille","lat":43.311712,"lon":5.387162,"is_reserved":false,"is_disabled":false,"rental_uris":{"android":"levelo://app?vid=e064325f-4d66-46f4-afa1-dbba5ef1549f","ios":"levelo://app?vid=e064325f-4d66-46f4-afa1-dbba5ef1549f"},"vehicle_type_id":"4","last_reported":1718125688,"current_range_meters":0,"station_id":"ce4bgv12rcd13ifvqcp0","pricing_plan_id":"cebpf4jnsgd1na2vs0mg"},{"bike_id":"599b6b50-e579-486a-bbb7-a0ad9773bb9d","system_id":"levelo_inurba_marseille","lat":43.322872,"lon":5.382756,"is_reserved":false,"is_disabled":false,"rental_uris":{"android":"levelo://app?vid=599b6b50-e579-486a-bbb7-a0ad9773bb9d","ios":"levelo://app?vid=599b6b50-e579-486a-bbb7-a0ad9773bb9d"},"vehicle_type_id":"4","last_reported":1718125688,"current_range_meters":4800,"station_id":"ce4bhr12rcd13ifvqhqg","pricing_plan_id":"cebpf4jnsgd1na2vs0mg"},{"bike_id":"3bcdabb7-edf0-4e3b-9fb8-d1c81f1497cc","system_id":"levelo_inurba_marseille","lat":43.322743,"lon":5.38218,"is_reserved":false,"is_disabled":false,"rental_uris":{"android":"levelo://app?vid=3bcdabb7-edf0-4e3b-9fb8-d1c81f1497cc","ios":"levelo://app?vid=3bcdabb7-edf0-4e3b-9fb8-d1c81f1497cc"},"vehicle_type_id":"4","last_reported":1718125688,"current_range_meters":0,"station_id":"ce4bhr12rcd13ifvqhqg","pricing_plan_id":"cebpf4jnsgd1na2vs0mg"},{"bike_id":"1f20f7aa-8dfc-4e05-aea2-c6745104d408","system_id":"levelo_inurba_marseille","lat":43.299243,"lon":5.374807,"is_reserved":false,"is_disabled":false,"rental_uris":{"android":"levelo://app?vid=1f20f7aa-8dfc-4e05-aea2-c6745104d408","ios":"levelo://app?vid=1f20f7aa-8dfc-4e05-aea2-c6745104d408"},"vehicle_type_id":"4","last_reported":1718125688,"current_range_meters":18000,"station_id":"ce4bgjh2rcd13ifvqbg0","pricing_plan_id":"cebpf4jnsgd1na2vs0mg"},{"bike_id":"096d163b-4652-45f9-b5a2-da511246fd40","system_id":"levelo_inurba_marseille","lat":43.297794,"lon":5.370888,"is_reserved":false,"is_disabled":false,"rental_uris":{"android":"levelo://app?vid=096d163b-4652-45f9-b5a2-da511246fd40","ios":"levelo://app?vid=096d163b-4652-45f9-b5a2-da511246fd40"},"vehicle_type_id":"4","last_reported":1718125688,"current_range_meters":2400,"station_id":"ce4bgop2rcd13ifvqc1g","pricing_plan_id":"cebpf4jnsgd1na2vs0mg"},{"bike_id":"c0268528-dfc0-4cba-b70f-fd686046bd76","system_id":"levelo_inurba_marseille","lat":43.297774,"lon":5.370875,"is_reserved":false,"is_disabled":false,"rental_uris":{"android":"levelo://app?vid=c0268528-dfc0-4cba-b70f-fd686046bd76","ios":"levelo://app?vid=c0268528-dfc0-4cba-b70f-fd686046bd76"},"vehicle_type_id":"4","last_reported":1718125688,"current_range_meters":6000,"station_id":"ce4bgop2rcd13ifvqc1g","pricing_plan_id":"cebpf4jnsgd1na2vs0mg"},{"bike_id":"9fee91fd-e8fc-4966-9e81-b78c4ef93030","system_id":"levelo_inurba_marseille","lat":43.322872,"lon":5.382756,"is_reserved":false,"is_disabled":false,"rental_uris":{"android":"levelo://app?vid=9fee91fd-e8fc-4966-9e81-b78c4ef93030","ios":"levelo://app?vid=9fee91fd-e8fc-4966-9e81-b78c4ef93030"},"vehicle_type_id":"4","last_reported":1718125688,"current_range_meters":15600,"station_id":"ce4bhr12rcd13ifvqhqg","pricing_plan_id":"cebpf4jnsgd1na2vs0mg"},{"bike_id":"92555f54-0797-4550-838f-0f17d1254d07","system_id":"levelo_inurba_marseille","lat":43.322872,"lon":5.382756,"is_reserved":false,"is_disabled":false,"rental_uris":{"android":"levelo://app?vid=92555f54-0797-4550-838f-0f17d1254d07","ios":"levelo://app?vid=92555f54-0797-4550-838f-0f17d1254d07"},"vehicle_type_id":"4","last_reported":1718125688,"current_range_meters":24800,"station_id":"ce4bhr12rcd13ifvqhqg","pricing_plan_id":"cebpf4jnsgd1na2vs0mg"},{"bike_id":"68d140ca-e192-4b7e-8348-a3928714c2c0","system_id":"levelo_inurba_marseille","lat":43.322872,"lon":5.382756,"is_reserved":false,"is_disabled":false,"rental_uris":{"android":"levelo://app?vid=68d140ca-e192-4b7e-8348-a3928714c2c0","ios":"levelo://app?vid=68d140ca-e192-4b7e-8348-a3928714c2c0"},"vehicle_type_id":"4","last_reported":1718125688,"current_range_meters":5200,"station_id":"ce4bhr12rcd13ifvqhqg","pricing_plan_id":"cebpf4jnsgd1na2vs0mg"},{"bike_id":"250d427b-c2a7-4111-b1b7-28ea78e035c1","system_id":"levelo_inurba_marseille","lat":43.297163,"lon":5.365866,"is_reserved":false,"is_disabled":false,"rental_uris":{"android":"levelo://app?vid=250d427b-c2a7-4111-b1b7-28ea78e035c1","ios":"levelo://app?vid=250d427b-c2a7-4111-b1b7-28ea78e035c1"},"vehicle_type_id":"4","last_reported":1718125688,"current_range_meters":1600,"station_id":"ce4bgn12rcd13ifvqbt0","pricing_plan_id":"cebpf4jnsgd1na2vs0mg"},{"bike_id":"151e9eab-3498-4ecd-83ca-5d5d043407f8","system_id":"levelo_inurba_marseille","lat":43.297163,"lon":5.365866,"is_reserved":false,"is_disabled":false,"rental_uris":{"android":"levelo://app?vid=151e9eab-3498-4ecd-83ca-5d5d043407f8","ios":"levelo://app?vid=151e9eab-3498-4ecd-83ca-5d5d043407f8"},"vehicle_type_id":"4","last_reported":1718125688,"current_range_meters":13600,"station_id":"ce4bgn12rcd13ifvqbt0","pricing_plan_id":"cebpf4jnsgd1na2vs0mg"},{"bike_id":"a136c0bb-c665-49cd-b6b5-b291b7c1d5d8","system_id":"levelo_inurba_marseille","lat":43.297163,"lon":5.365866,"is_reserved":false,"is_disabled":false,"rental_uris":{"android":"levelo://app?vid=a136c0bb-c665-49cd-b6b5-b291b7c1d5d8","ios":"levelo://app?vid=a136c0bb-c665-49cd-b6b5-b291b7c1d5d8"},"vehicle_type_id":"4","last_reported":1718125688,"current_range_meters":2400,"station_id":"ce4bgn12rcd13ifvqbt0","pricing_plan_id":"cebpf4jnsgd1na2vs0mg"},{"bike_id":"ae9cb153-c2ca-4a3c-aba1-651087d0d695","system_id":"levelo_inurba_marseille","lat":43.296131,"lon":5.370791,"is_reserved":false,"is_disabled":false,"rental_uris":{"android":"levelo://app?vid=ae9cb153-c2ca-4a3c-aba1-651087d0d695","ios":"levelo://app?vid=ae9cb153-c2ca-4a3c-aba1-651087d0d695"},"vehicle_type_id":"4","last_reported":1718125688,"current_range_meters":0,"station_id":"ce4bgnh2rcd13ifvqc0g","pricing_plan_id":"cebpf4jnsgd1na2vs0mg"},{"bike_id":"4b2a39b5-b3e6-468a-a33a-0495497656b3","system_id":"levelo_inurba_marseille","lat":43.29573,"lon":5.367355,"is_reserved":false,"is_disabled":false,"rental_uris":{"android":"levelo://app?vid=4b2a39b5-b3e6-468a-a33a-0495497656b3","ios":"levelo://app?vid=4b2a39b5-b3e6-468a-a33a-0495497656b3"},"vehicle_type_id":"4","last_reported":1718125688,"current_range_meters":30000,"station_id":"ce4bgph2rcd13ifvqc2g","pricing_plan_id":"cebpf4jnsgd1na2vs0mg"},{"bike_id":"ebb8d542-b5ef-438f-b0b9-4ad2111aeee2","system_id":"levelo_inurba_marseille","lat":43.29573,"lon":5.367355,"is_reserved":false,"is_disabled":false,"rental_uris":{"android":"levelo://app?vid=ebb8d542-b5ef-438f-b0b9-4ad2111aeee2","ios":"levelo://app?vid=ebb8d542-b5ef-438f-b0b9-4ad2111aeee2"},"vehicle_type_id":"4","last_reported":1718125688,"current_range_meters":30400,"station_id":"ce4bgph2rcd13ifvqc2g","pricing_plan_id":"cebpf4jnsgd1na2vs0mg"},{"bike_id":"0cfab895-613d-4593-9a62-f27bcea7a08d","system_id":"levelo_inurba_marseille","lat":43.296935,"lon":5.376544,"is_reserved":false,"is_disabled":false,"rental_uris":{"android":"levelo://app?vid=0cfab895-613d-4593-9a62-f27bcea7a08d","ios":"levelo://app?vid=0cfab895-613d-4593-9a62-f27bcea7a08d"},"vehicle_type_id":"4","last_reported":1718125688,"current_range_meters":12800,"station_id":"ce4bgkh2rcd13ifvqbl0","pricing_plan_id":"cebpf4jnsgd1na2vs0mg"},{"bike_id":"ed2c5571-99a7-4e57-a4c1-af1a1b8022d0","system_id":"levelo_inurba_marseille","lat":43.2966,"lon":5.37471,"is_reserved":false,"is_disabled":false,"rental_uris":{"android":"levelo://app?vid=ed2c5571-99a7-4e57-a4c1-af1a1b8022d0","ios":"levelo://app?vid=ed2c5571-99a7-4e57-a4c1-af1a1b8022d0"},"vehicle_type_id":"4","last_reported":1718125688,"current_range_meters":10800,"station_id":"","pricing_plan_id":"cebpf4jnsgd1na2vs0mg"},{"bike_id":"8f52c631-2724-498e-9962-f7ca5a617e68","system_id":"levelo_inurba_marseille","lat":43.3096,"lon":5.39032,"is_reserved":false,"is_disabled":false,"rental_uris":{"android":"levelo://app?vid=8f52c631-2724-498e-9962-f7ca5a617e68","ios":"levelo://app?vid=8f52c631-2724-498e-9962-f7ca5a617e68"},"vehicle_type_id":"4","last_reported":1718125688,"current_range_meters":0,"station_id":"ce4bgup2rcd13ifvqco0","pricing_plan_id":"cebpf4jnsgd1na2vs0mg"},{"bike_id":"9a5dd210-5014-429a-8c15-e054faf81518","system_id":"levelo_inurba_marseille","lat":43.30948,"lon":5.390363,"is_reserved":false,"is_disabled":false,"rental_uris":{"android":"levelo://app?vid=9a5dd210-5014-429a-8c15-e054faf81518","ios":"levelo://app?vid=9a5dd210-5014-429a-8c15-e054faf81518"},"vehicle_type_id":"4","last_reported":1718125688,"current_range_meters":0,"station_id":"ce4bgup2rcd13ifvqco0","pricing_plan_id":"cebpf4jnsgd1na2vs0mg"},{"bike_id":"8c0d88ae-024c-49d8-81d8-b1c692c8a209","system_id":"levelo_inurba_marseille","lat":43.31757,"lon":5.39004,"is_reserved":false,"is_disabled":false,"rental_uris":{"android":"levelo://app?vid=8c0d88ae-024c-49d8-81d8-b1c692c8a209","ios":"levelo://app?vid=8c0d88ae-024c-49d8-81d8-b1c692c8a209"},"vehicle_type_id":"4","last_reported":1718125688,"current_range_meters":11200,"station_id":"ce4bhqp2rcd13ifvqhng","pricing_plan_id":"cebpf4jnsgd1na2vs0mg"},{"bike_id":"3f243d6c-53aa-4722-921c-654d3bc015a1","system_id":"levelo_inurba_marseille","lat":43.317557,"lon":5.390173,"is_reserved":false,"is_disabled":false,"rental_uris":{"android":"levelo://app?vid=3f243d6c-53aa-4722-921c-654d3bc015a1","ios":"levelo://app?vid=3f243d6c-53aa-4722-921c-654d3bc015a1"},"vehicle_type_id":"4","last_reported":1718125688,"current_range_meters":4400,"station_id":"ce4bhqp2rcd13ifvqhng","pricing_plan_id":"cebpf4jnsgd1na2vs0mg"},{"bike_id":"e4a058d9-2120-47a0-a4cc-22f769292073","system_id":"levelo_inurba_marseille","lat":43.317557,"lon":5.390173,"is_reserved":false,"is_disabled":false,"rental_uris":{"android":"levelo://app?vid=e4a058d9-2120-47a0-a4cc-22f769292073","ios":"levelo://app?vid=e4a058d9-2120-47a0-a4cc-22f769292073"},"vehicle_type_id":"4","last_reported":1718125688,"current_range_meters":8000,"station_id":"ce4bhqp2rcd13ifvqhng","pricing_plan_id":"cebpf4jnsgd1na2vs0mg"},{"bike_id":"e908b364-deaa-44ae-8f0a-61c9ad64de4f","system_id":"levelo_inurba_marseille","lat":43.317557,"lon":5.390173,"is_reserved":false,"is_disabled":false,"rental_uris":{"android":"levelo://app?vid=e908b364-deaa-44ae-8f0a-61c9ad64de4f","ios":"levelo://app?vid=e908b364-deaa-44ae-8f0a-61c9ad64de4f"},"vehicle_type_id":"4","last_reported":1718125688,"current_range_meters":15200,"station_id":"ce4bhqp2rcd13ifvqhng","pricing_plan_id":"cebpf4jnsgd1na2vs0mg"},{"bike_id":"cfcad1a4-be68-4f7f-84ce-e27131c10992","system_id":"levelo_inurba_marseille","lat":43.2968,"lon":5.37291,"is_reserved":false,"is_disabled":false,"rental_uris":{"android":"levelo://app?vid=cfcad1a4-be68-4f7f-84ce-e27131c10992","ios":"levelo://app?vid=cfcad1a4-be68-4f7f-84ce-e27131c10992"},"vehicle_type_id":"4","last_reported":1718125688,"current_range_meters":30800,"station_id":"ce4bgk12rcd13ifvqbj0","pricing_plan_id":"cebpf4jnsgd1na2vs0mg"},{"bike_id":"d93a6830-88e0-4959-8ca2-dc326cccd889","system_id":"levelo_inurba_marseille","lat":43.29578,"lon":5.37497,"is_reserved":false,"is_disabled":false,"rental_uris":{"android":"levelo://app?vid=d93a6830-88e0-4959-8ca2-dc326cccd889","ios":"levelo://app?vid=d93a6830-88e0-4959-8ca2-dc326cccd889"},"vehicle_type_id":"4","last_reported":1718125688,"current_range_meters":0,"station_id":"ce4bgh92rcd13ifvqb50","pricing_plan_id":"cebpf4jnsgd1na2vs0mg"},{"bike_id":"5b3bfd82-f1e0-4cde-b391-654f66a180fc","system_id":"levelo_inurba_marseille","lat":43.29579,"lon":5.37508,"is_reserved":false,"is_disabled":false,"rental_uris":{"android":"levelo://app?vid=5b3bfd82-f1e0-4cde-b391-654f66a180fc","ios":"levelo://app?vid=5b3bfd82-f1e0-4cde-b391-654f66a180fc"},"vehicle_type_id":"4","last_reported":1718125688,"current_range_meters":0,"station_id":"ce4bgh92rcd13ifvqb50","pricing_plan_id":"cebpf4jnsgd1na2vs0mg"},{"bike_id":"7e0adb6e-69e8-4c1f-b9c8-8056ae74aa5d","system_id":"levelo_inurba_marseille","lat":43.296263,"lon":5.377094,"is_reserved":false,"is_disabled":false,"rental_uris":{"android":"levelo://app?vid=7e0adb6e-69e8-4c1f-b9c8-8056ae74aa5d","ios":"levelo://app?vid=7e0adb6e-69e8-4c1f-b9c8-8056ae74aa5d"},"vehicle_type_id":"4","last_reported":1718125688,"current_range_meters":11200,"station_id":"ce4bgi92rcd13ifvqb90","pricing_plan_id":"cebpf4jnsgd1na2vs0mg"},{"bike_id":"a7d66ea4-4630-40b0-92ad-75a43acce1fc","system_id":"levelo_inurba_marseille","lat":43.30435,"lon":5.38892,"is_reserved":false,"is_disabled":false,"rental_uris":{"android":"levelo://app?vid=a7d66ea4-4630-40b0-92ad-75a43acce1fc","ios":"levelo://app?vid=a7d66ea4-4630-40b0-92ad-75a43acce1fc"},"vehicle_type_id":"4","last_reported":1718125688,"current_range_meters":0,"station_id":"ce4bgk12rcd13ifvqbi0","pricing_plan_id":"cebpf4jnsgd1na2vs0mg"},{"bike_id":"49384954-5b0c-4c9c-9107-dcf2304c3917","system_id":"levelo_inurba_marseille","lat":43.296263,"lon":5.377094,"is_reserved":false,"is_disabled":false,"rental_uris":{"android":"levelo://app?vid=49384954-5b0c-4c9c-9107-dcf2304c3917","ios":"levelo://app?vid=49384954-5b0c-4c9c-9107-dcf2304c3917"},"vehicle_type_id":"4","last_reported":1718125688,"current_range_meters":4400,"station_id":"ce4bgi92rcd13ifvqb90","pricing_plan_id":"cebpf4jnsgd1na2vs0mg"},{"bike_id":"0eac9a47-e775-430f-859f-ebb465779e4a","system_id":"levelo_inurba_marseille","lat":43.296263,"lon":5.377094,"is_reserved":false,"is_disabled":false,"rental_uris":{"android":"levelo://app?vid=0eac9a47-e775-430f-859f-ebb465779e4a","ios":"levelo://app?vid=0eac9a47-e775-430f-859f-ebb465779e4a"},"vehicle_type_id":"4","last_reported":1718125688,"current_range_meters":1200,"station_id":"ce4bgi92rcd13ifvqb90","pricing_plan_id":"cebpf4jnsgd1na2vs0mg"},{"bike_id":"e9e71f52-949f-48c8-a2a8-4f6158a45375","system_id":"levelo_inurba_marseille","lat":43.296263,"lon":5.377094,"is_reserved":false,"is_disabled":false,"rental_uris":{"android":"levelo://app?vid=e9e71f52-949f-48c8-a2a8-4f6158a45375","ios":"levelo://app?vid=e9e71f52-949f-48c8-a2a8-4f6158a45375"},"vehicle_type_id":"4","last_reported":1718125688,"current_range_meters":0,"station_id":"ce4bgi92rcd13ifvqb90","pricing_plan_id":"cebpf4jnsgd1na2vs0mg"},{"bike_id":"2c4d933d-b6fd-4eaf-a435-dc8bab8c79fd","system_id":"levelo_inurba_marseille","lat":43.296263,"lon":5.377094,"is_reserved":false,"is_disabled":false,"rental_uris":{"android":"levelo://app?vid=2c4d933d-b6fd-4eaf-a435-dc8bab8c79fd","ios":"levelo://app?vid=2c4d933d-b6fd-4eaf-a435-dc8bab8c79fd"},"vehicle_type_id":"4","last_reported":1718125688,"current_range_meters":0,"station_id":"ce4bgi92rcd13ifvqb90","pricing_plan_id":"cebpf4jnsgd1na2vs0mg"},{"bike_id":"ca1b0fc2-f859-4206-97f6-dc7e26dc7e32","system_id":"levelo_inurba_marseille","lat":43.296263,"lon":5.377094,"is_reserved":false,"is_disabled":false,"rental_uris":{"android":"levelo://app?vid=ca1b0fc2-f859-4206-97f6-dc7e26dc7e32","ios":"levelo://app?vid=ca1b0fc2-f859-4206-97f6-dc7e26dc7e32"},"vehicle_type_id":"4","last_reported":1718125688,"current_range_meters":6400,"station_id":"ce4bgi92rcd13ifvqb90","pricing_plan_id":"cebpf4jnsgd1na2vs0mg"},{"bike_id":"d3069b23-5a02-4911-912b-f9ab2f816067","system_id":"levelo_inurba_marseille","lat":43.296277,"lon":5.377108,"is_reserved":false,"is_disabled":false,"rental_uris":{"android":"levelo://app?vid=d3069b23-5a02-4911-912b-f9ab2f816067","ios":"levelo://app?vid=d3069b23-5a02-4911-912b-f9ab2f816067"},"vehicle_type_id":"4","last_reported":1718125688,"current_range_meters":0,"station_id":"ce4bgi92rcd13ifvqb90","pricing_plan_id":"cebpf4jnsgd1na2vs0mg"},{"bike_id":"49c615a2-32aa-4a0c-8ee0-b17a740c5412","system_id":"levelo_inurba_marseille","lat":43.296277,"lon":5.377108,"is_reserved":false,"is_disabled":false,"rental_uris":{"android":"levelo://app?vid=49c615a2-32aa-4a0c-8ee0-b17a740c5412","ios":"levelo://app?vid=49c615a2-32aa-4a0c-8ee0-b17a740c5412"},"vehicle_type_id":"4","last_reported":1718125688,"current_range_meters":0,"station_id":"ce4bgi92rcd13ifvqb90","pricing_plan_id":"cebpf4jnsgd1na2vs0mg"},{"bike_id":"8a89b3df-fa4f-4857-bfaa-631477823719","system_id":"levelo_inurba_marseille","lat":43.29602,"lon":5.37721,"is_reserved":false,"is_disabled":false,"rental_uris":{"android":"levelo://app?vid=8a89b3df-fa4f-4857-bfaa-631477823719","ios":"levelo://app?vid=8a89b3df-fa4f-4857-bfaa-631477823719"},"vehicle_type_id":"4","last_reported":1718125688,"current_range_meters":0,"station_id":"ce4bgi92rcd13ifvqb90","pricing_plan_id":"cebpf4jnsgd1na2vs0mg"},{"bike_id":"f7bf83eb-3775-4619-ae46-df21c0a44986","system_id":"levelo_inurba_marseille","lat":43.29968,"lon":5.38499,"is_reserved":false,"is_disabled":false,"rental_uris":{"android":"levelo://app?vid=f7bf83eb-3775-4619-ae46-df21c0a44986","ios":"levelo://app?vid=f7bf83eb-3775-4619-ae46-df21c0a44986"},"vehicle_type_id":"4","last_reported":1718125688,"current_range_meters":20000,"station_id":"ce4bgj92rcd13ifvqbd0","pricing_plan_id":"cebpf4jnsgd1na2vs0mg"},{"bike_id":"ae1be84c-598f-4496-9854-af2daeca184f","system_id":"levelo_inurba_marseille","lat":43.299724,"lon":5.384848,"is_reserved":false,"is_disabled":false,"rental_uris":{"android":"levelo://app?vid=ae1be84c-598f-4496-9854-af2daeca184f","ios":"levelo://app?vid=ae1be84c-598f-4496-9854-af2daeca184f"},"vehicle_type_id":"4","last_reported":1718125688,"current_range_meters":2800,"station_id":"ce4bgj92rcd13ifvqbd0","pricing_plan_id":"cebpf4jnsgd1na2vs0mg"},{"bike_id":"cd7b6ab4-5b0d-4a9b-8512-5afc63501f03","system_id":"levelo_inurba_marseille","lat":43.299724,"lon":5.384848,"is_reserved":false,"is_disabled":false,"rental_uris":{"android":"levelo://app?vid=cd7b6ab4-5b0d-4a9b-8512-5afc63501f03","ios":"levelo://app?vid=cd7b6ab4-5b0d-4a9b-8512-5afc63501f03"},"vehicle_type_id":"4","last_reported":1718125688,"current_range_meters":19600,"station_id":"ce4bgj92rcd13ifvqbd0","pricing_plan_id":"cebpf4jnsgd1na2vs0mg"},{"bike_id":"179bc9e5-2bc3-4163-9cff-57286dd9d1e3","system_id":"levelo_inurba_marseille","lat":43.292644,"lon":5.384257,"is_reserved":false,"is_disabled":false,"rental_uris":{"android":"levelo://app?vid=179bc9e5-2bc3-4163-9cff-57286dd9d1e3","ios":"levelo://app?vid=179bc9e5-2bc3-4163-9cff-57286dd9d1e3"},"vehicle_type_id":"4","last_reported":1718125688,"current_range_meters":9200,"station_id":"ce4bh692rcd13ifvqea0","pricing_plan_id":"cebpf4jnsgd1na2vs0mg"},{"bike_id":"88b1e8a3-afb8-4639-8b01-9250b817527b","system_id":"levelo_inurba_marseille","lat":43.32367,"lon":5.388836,"is_reserved":false,"is_disabled":false,"rental_uris":{"android":"levelo://app?vid=88b1e8a3-afb8-4639-8b01-9250b817527b","ios":"levelo://app?vid=88b1e8a3-afb8-4639-8b01-9250b817527b"},"vehicle_type_id":"4","last_reported":1718125688,"current_range_meters":3600,"station_id":"ce4bhqp2rcd13ifvqhog","pricing_plan_id":"cebpf4jnsgd1na2vs0mg"},{"bike_id":"7f2774b4-9a1c-4397-b8fb-7337f556ec60","system_id":"levelo_inurba_marseille","lat":43.32367,"lon":5.388836,"is_reserved":false,"is_disabled":false,"rental_uris":{"android":"levelo://app?vid=7f2774b4-9a1c-4397-b8fb-7337f556ec60","ios":"levelo://app?vid=7f2774b4-9a1c-4397-b8fb-7337f556ec60"},"vehicle_type_id":"4","last_reported":1718125688,"current_range_meters":1200,"station_id":"ce4bhqp2rcd13ifvqhog","pricing_plan_id":"cebpf4jnsgd1na2vs0mg"},{"bike_id":"b1e4131e-41df-40f3-910e-9309568ac42b","system_id":"levelo_inurba_marseille","lat":43.32367,"lon":5.388836,"is_reserved":false,"is_disabled":false,"rental_uris":{"android":"levelo://app?vid=b1e4131e-41df-40f3-910e-9309568ac42b","ios":"levelo://app?vid=b1e4131e-41df-40f3-910e-9309568ac42b"},"vehicle_type_id":"4","last_reported":1718125688,"current_range_meters":14000,"station_id":"ce4bhqp2rcd13ifvqhog","pricing_plan_id":"cebpf4jnsgd1na2vs0mg"},{"bike_id":"83483c8c-e9aa-4df0-a418-5f9c1209a757","system_id":"levelo_inurba_marseille","lat":43.32367,"lon":5.388836,"is_reserved":false,"is_disabled":false,"rental_uris":{"android":"levelo://app?vid=83483c8c-e9aa-4df0-a418-5f9c1209a757","ios":"levelo://app?vid=83483c8c-e9aa-4df0-a418-5f9c1209a757"},"vehicle_type_id":"4","last_reported":1718125688,"current_range_meters":5200,"station_id":"ce4bhqp2rcd13ifvqhog","pricing_plan_id":"cebpf4jnsgd1na2vs0mg"},{"bike_id":"18b3ea4b-34af-40e2-9510-872ccae93027","system_id":"levelo_inurba_marseille","lat":43.29602,"lon":5.381084,"is_reserved":false,"is_disabled":false,"rental_uris":{"android":"levelo://app?vid=18b3ea4b-34af-40e2-9510-872ccae93027","ios":"levelo://app?vid=18b3ea4b-34af-40e2-9510-872ccae93027"},"vehicle_type_id":"4","last_reported":1718125688,"current_range_meters":13600,"station_id":"ce4bgl12rcd13ifvqbo0","pricing_plan_id":"cebpf4jnsgd1na2vs0mg"},{"bike_id":"8c2cad62-2723-4c94-a7f2-d6188befc3d1","system_id":"levelo_inurba_marseille","lat":43.231919,"lon":5.355532,"is_reserved":false,"is_disabled":false,"rental_uris":{"android":"levelo://app?vid=8c2cad62-2723-4c94-a7f2-d6188befc3d1","ios":"levelo://app?vid=8c2cad62-2723-4c94-a7f2-d6188befc3d1"},"vehicle_type_id":"4","last_reported":1718125688,"current_range_meters":19600,"station_id":"ce4bhu92rcd13ifvqi70","pricing_plan_id":"cebpf4jnsgd1na2vs0mg"},{"bike_id":"091d0760-44da-4d52-91d5-c81ebd757699","system_id":"levelo_inurba_marseille","lat":43.289184,"lon":5.366408,"is_reserved":false,"is_disabled":false,"rental_uris":{"android":"levelo://app?vid=091d0760-44da-4d52-91d5-c81ebd757699","ios":"levelo://app?vid=091d0760-44da-4d52-91d5-c81ebd757699"},"vehicle_type_id":"4","last_reported":1718125688,"current_range_meters":8000,"station_id":"ce4bhap2rcd13ifvqek0","pricing_plan_id":"cebpf4jnsgd1na2vs0mg"},{"bike_id":"b2b3cc4d-b45d-4e7f-8aa6-1783c81849a5","system_id":"levelo_inurba_marseille","lat":43.292898,"lon":5.369126,"is_reserved":false,"is_disabled":false,"rental_uris":{"android":"levelo://app?vid=b2b3cc4d-b45d-4e7f-8aa6-1783c81849a5","ios":"levelo://app?vid=b2b3cc4d-b45d-4e7f-8aa6-1783c81849a5"},"vehicle_type_id":"4","last_reported":1718125688,"current_range_meters":0,"station_id":"ce4bhbp2rcd13ifvqesg","pricing_plan_id":"cebpf4jnsgd1na2vs0mg"},{"bike_id":"3d0d02a0-aa1d-478e-8e15-0a038f0495fe","system_id":"levelo_inurba_marseille","lat":43.29602,"lon":5.381084,"is_reserved":false,"is_disabled":false,"rental_uris":{"android":"levelo://app?vid=3d0d02a0-aa1d-478e-8e15-0a038f0495fe","ios":"levelo://app?vid=3d0d02a0-aa1d-478e-8e15-0a038f0495fe"},"vehicle_type_id":"4","last_reported":1718125688,"current_range_meters":3600,"station_id":"ce4bgl12rcd13ifvqbo0","pricing_plan_id":"cebpf4jnsgd1na2vs0mg"},{"bike_id":"bf9700bf-3c2f-4b22-8643-bab27ec29599","system_id":"levelo_inurba_marseille","lat":43.292749,"lon":5.368398,"is_reserved":false,"is_disabled":false,"rental_uris":{"android":"levelo://app?vid=bf9700bf-3c2f-4b22-8643-bab27ec29599","ios":"levelo://app?vid=bf9700bf-3c2f-4b22-8643-bab27ec29599"},"vehicle_type_id":"4","last_reported":1718125688,"current_range_meters":0,"station_id":"ce4bhbp2rcd13ifvqesg","pricing_plan_id":"cebpf4jnsgd1na2vs0mg"},{"bike_id":"92d0cf6c-7ac0-4384-a89c-46db4d941251","system_id":"levelo_inurba_marseille","lat":43.292749,"lon":5.368402,"is_reserved":false,"is_disabled":false,"rental_uris":{"android":"levelo://app?vid=92d0cf6c-7ac0-4384-a89c-46db4d941251","ios":"levelo://app?vid=92d0cf6c-7ac0-4384-a89c-46db4d941251"},"vehicle_type_id":"4","last_reported":1718125688,"current_range_meters":28400,"station_id":"ce4bhbp2rcd13ifvqesg","pricing_plan_id":"cebpf4jnsgd1na2vs0mg"},{"bike_id":"a19fb7db-8043-41b7-b483-54c8085b4ef3","system_id":"levelo_inurba_marseille","lat":43.302008,"lon":5.394694,"is_reserved":false,"is_disabled":false,"rental_uris":{"android":"levelo://app?vid=a19fb7db-8043-41b7-b483-54c8085b4ef3","ios":"levelo://app?vid=a19fb7db-8043-41b7-b483-54c8085b4ef3"},"vehicle_type_id":"4","last_reported":1718125688,"current_range_meters":8400,"station_id":"ce4bh0p2rcd13ifvqd70","pricing_plan_id":"cebpf4jnsgd1na2vs0mg"},{"bike_id":"5433c9a2-7592-42f9-bbb9-542f0c1abbea","system_id":"levelo_inurba_marseille","lat":43.293038,"lon":5.374626,"is_reserved":false,"is_disabled":false,"rental_uris":{"android":"levelo://app?vid=5433c9a2-7592-42f9-bbb9-542f0c1abbea","ios":"levelo://app?vid=5433c9a2-7592-42f9-bbb9-542f0c1abbea"},"vehicle_type_id":"4","last_reported":1718125688,"current_range_meters":0,"station_id":"ce4bgi12rcd13ifvqb70","pricing_plan_id":"cebpf4jnsgd1na2vs0mg"},{"bike_id":"d588266a-bfb8-464b-954f-36010c2ae0f5","system_id":"levelo_inurba_marseille","lat":43.302992,"lon":5.392136,"is_reserved":false,"is_disabled":false,"rental_uris":{"android":"levelo://app?vid=d588266a-bfb8-464b-954f-36010c2ae0f5","ios":"levelo://app?vid=d588266a-bfb8-464b-954f-36010c2ae0f5"},"vehicle_type_id":"4","last_reported":1718125688,"current_range_meters":0,"station_id":"ce4bgkh2rcd13ifvqbk0","pricing_plan_id":"cebpf4jnsgd1na2vs0mg"},{"bike_id":"79f74f63-20c5-48fe-82f8-2dd96b7781c0","system_id":"levelo_inurba_marseille","lat":43.29375,"lon":5.37842,"is_reserved":false,"is_disabled":false,"rental_uris":{"android":"levelo://app?vid=79f74f63-20c5-48fe-82f8-2dd96b7781c0","ios":"levelo://app?vid=79f74f63-20c5-48fe-82f8-2dd96b7781c0"},"vehicle_type_id":"4","last_reported":1718125688,"current_range_meters":18400,"station_id":"","pricing_plan_id":"cebpf4jnsgd1na2vs0mg"},{"bike_id":"cf2c4278-5d75-4634-a201-b748794cb4ff","system_id":"levelo_inurba_marseille","lat":43.303002,"lon":5.392142,"is_reserved":false,"is_disabled":false,"rental_uris":{"android":"levelo://app?vid=cf2c4278-5d75-4634-a201-b748794cb4ff","ios":"levelo://app?vid=cf2c4278-5d75-4634-a201-b748794cb4ff"},"vehicle_type_id":"4","last_reported":1718125688,"current_range_meters":31200,"station_id":"ce4bgkh2rcd13ifvqbk0","pricing_plan_id":"cebpf4jnsgd1na2vs0mg"},{"bike_id":"28f8a092-2475-4fc8-aba4-25321cd7c5fa","system_id":"levelo_inurba_marseille","lat":43.29368,"lon":5.37849,"is_reserved":false,"is_disabled":false,"rental_uris":{"android":"levelo://app?vid=28f8a092-2475-4fc8-aba4-25321cd7c5fa","ios":"levelo://app?vid=28f8a092-2475-4fc8-aba4-25321cd7c5fa"},"vehicle_type_id":"4","last_reported":1718125688,"current_range_meters":0,"station_id":"","pricing_plan_id":"cebpf4jnsgd1na2vs0mg"},{"bike_id":"a8453ef9-350c-4df8-a4b2-d6bf55216e6a","system_id":"levelo_inurba_marseille","lat":43.292311,"lon":5.360731,"is_reserved":false,"is_disabled":false,"rental_uris":{"android":"levelo://app?vid=a8453ef9-350c-4df8-a4b2-d6bf55216e6a","ios":"levelo://app?vid=a8453ef9-350c-4df8-a4b2-d6bf55216e6a"},"vehicle_type_id":"4","last_reported":1718125688,"current_range_meters":3200,"station_id":"ce4bhbh2rcd13ifvqeqg","pricing_plan_id":"cebpf4jnsgd1na2vs0mg"},{"bike_id":"26942c56-6858-45a4-8d70-ccd03ce4876d","system_id":"levelo_inurba_marseille","lat":43.292311,"lon":5.360731,"is_reserved":false,"is_disabled":false,"rental_uris":{"android":"levelo://app?vid=26942c56-6858-45a4-8d70-ccd03ce4876d","ios":"levelo://app?vid=26942c56-6858-45a4-8d70-ccd03ce4876d"},"vehicle_type_id":"4","last_reported":1718125688,"current_range_meters":3600,"station_id":"ce4bhbh2rcd13ifvqeqg","pricing_plan_id":"cebpf4jnsgd1na2vs0mg"},{"bike_id":"66ee6e76-1991-4c7e-9e60-314442bb7dad","system_id":"levelo_inurba_marseille","lat":43.2936,"lon":5.37835,"is_reserved":false,"is_disabled":false,"rental_uris":{"android":"levelo://app?vid=66ee6e76-1991-4c7e-9e60-314442bb7dad","ios":"levelo://app?vid=66ee6e76-1991-4c7e-9e60-314442bb7dad"},"vehicle_type_id":"4","last_reported":1718125688,"current_range_meters":0,"station_id":"ce4bgjh2rcd13ifvqbf0","pricing_plan_id":"cebpf4jnsgd1na2vs0mg"},{"bike_id":"a280b9e0-f0a3-40fa-b81e-65de7bed0ca6","system_id":"levelo_inurba_marseille","lat":43.292311,"lon":5.360731,"is_reserved":false,"is_disabled":false,"rental_uris":{"android":"levelo://app?vid=a280b9e0-f0a3-40fa-b81e-65de7bed0ca6","ios":"levelo://app?vid=a280b9e0-f0a3-40fa-b81e-65de7bed0ca6"},"vehicle_type_id":"4","last_reported":1718125688,"current_range_meters":0,"station_id":"ce4bhbh2rcd13ifvqeqg","pricing_plan_id":"cebpf4jnsgd1na2vs0mg"},{"bike_id":"5bfd34e6-6f46-4a3e-8ac3-ce356b120f64","system_id":"levelo_inurba_marseille","lat":43.292311,"lon":5.360731,"is_reserved":false,"is_disabled":false,"rental_uris":{"android":"levelo://app?vid=5bfd34e6-6f46-4a3e-8ac3-ce356b120f64","ios":"levelo://app?vid=5bfd34e6-6f46-4a3e-8ac3-ce356b120f64"},"vehicle_type_id":"4","last_reported":1718125688,"current_range_meters":0,"station_id":"ce4bhbh2rcd13ifvqeqg","pricing_plan_id":"cebpf4jnsgd1na2vs0mg"},{"bike_id":"f1f2bbf3-f00a-46e8-9864-a4a6f3b59e93","system_id":"levelo_inurba_marseille","lat":43.292311,"lon":5.360731,"is_reserved":false,"is_disabled":false,"rental_uris":{"android":"levelo://app?vid=f1f2bbf3-f00a-46e8-9864-a4a6f3b59e93","ios":"levelo://app?vid=f1f2bbf3-f00a-46e8-9864-a4a6f3b59e93"},"vehicle_type_id":"4","last_reported":1718125688,"current_range_meters":21600,"station_id":"ce4bhbh2rcd13ifvqeqg","pricing_plan_id":"cebpf4jnsgd1na2vs0mg"},{"bike_id":"bbfbce49-09a5-486d-9519-394aa3600268","system_id":"levelo_inurba_marseille","lat":43.298764,"lon":5.388973,"is_reserved":false,"is_disabled":false,"rental_uris":{"android":"levelo://app?vid=bbfbce49-09a5-486d-9519-394aa3600268","ios":"levelo://app?vid=bbfbce49-09a5-486d-9519-394aa3600268"},"vehicle_type_id":"4","last_reported":1718125688,"current_range_meters":21600,"station_id":"ce4bh392rcd13ifvqdl0","pricing_plan_id":"cebpf4jnsgd1na2vs0mg"},{"bike_id":"bae33a97-0d3c-4a69-b2fe-3248a67804d6","system_id":"levelo_inurba_marseille","lat":43.298764,"lon":5.388973,"is_reserved":false,"is_disabled":false,"rental_uris":{"android":"levelo://app?vid=bae33a97-0d3c-4a69-b2fe-3248a67804d6","ios":"levelo://app?vid=bae33a97-0d3c-4a69-b2fe-3248a67804d6"},"vehicle_type_id":"4","last_reported":1718125688,"current_range_meters":14800,"station_id":"ce4bh392rcd13ifvqdl0","pricing_plan_id":"cebpf4jnsgd1na2vs0mg"},{"bike_id":"3ac818e2-e486-4295-a7c4-39a196abc3d2","system_id":"levelo_inurba_marseille","lat":43.298764,"lon":5.388973,"is_reserved":false,"is_disabled":false,"rental_uris":{"android":"levelo://app?vid=3ac818e2-e486-4295-a7c4-39a196abc3d2","ios":"levelo://app?vid=3ac818e2-e486-4295-a7c4-39a196abc3d2"},"vehicle_type_id":"4","last_reported":1718125688,"current_range_meters":0,"station_id":"ce4bh392rcd13ifvqdl0","pricing_plan_id":"cebpf4jnsgd1na2vs0mg"},{"bike_id":"bc124d96-4b59-4227-ac88-5cb5dd4155d3","system_id":"levelo_inurba_marseille","lat":43.298764,"lon":5.388973,"is_reserved":false,"is_disabled":false,"rental_uris":{"android":"levelo://app?vid=bc124d96-4b59-4227-ac88-5cb5dd4155d3","ios":"levelo://app?vid=bc124d96-4b59-4227-ac88-5cb5dd4155d3"},"vehicle_type_id":"4","last_reported":1718125688,"current_range_meters":20000,"station_id":"ce4bh392rcd13ifvqdl0","pricing_plan_id":"cebpf4jnsgd1na2vs0mg"},{"bike_id":"45b3c0e5-1111-4325-a729-79a9a126c25a","system_id":"levelo_inurba_marseille","lat":43.298764,"lon":5.388973,"is_reserved":false,"is_disabled":false,"rental_uris":{"android":"levelo://app?vid=45b3c0e5-1111-4325-a729-79a9a126c25a","ios":"levelo://app?vid=45b3c0e5-1111-4325-a729-79a9a126c25a"},"vehicle_type_id":"4","last_reported":1718125688,"current_range_meters":2400,"station_id":"ce4bh392rcd13ifvqdl0","pricing_plan_id":"cebpf4jnsgd1na2vs0mg"},{"bike_id":"6b0b8237-382e-4381-8d44-436854f74d1f","system_id":"levelo_inurba_marseille","lat":43.29136,"lon":5.370105,"is_reserved":false,"is_disabled":false,"rental_uris":{"android":"levelo://app?vid=6b0b8237-382e-4381-8d44-436854f74d1f","ios":"levelo://app?vid=6b0b8237-382e-4381-8d44-436854f74d1f"},"vehicle_type_id":"4","last_reported":1718125688,"current_range_meters":23200,"station_id":"","pricing_plan_id":"cebpf4jnsgd1na2vs0mg"},{"bike_id":"173e7fe1-d860-4925-9790-971df05c3959","system_id":"levelo_inurba_marseille","lat":43.28856,"lon":5.358371,"is_reserved":false,"is_disabled":false,"rental_uris":{"android":"levelo://app?vid=173e7fe1-d860-4925-9790-971df05c3959","ios":"levelo://app?vid=173e7fe1-d860-4925-9790-971df05c3959"},"vehicle_type_id":"4","last_reported":1718125688,"current_range_meters":15200,"station_id":"ce4bhb12rcd13ifvqem0","pricing_plan_id":"cebpf4jnsgd1na2vs0mg"},{"bike_id":"9f91a4ec-879a-4c5a-a414-c8ab001f9bd0","system_id":"levelo_inurba_marseille","lat":43.291994,"lon":5.357886,"is_reserved":false,"is_disabled":false,"rental_uris":{"android":"levelo://app?vid=9f91a4ec-879a-4c5a-a414-c8ab001f9bd0","ios":"levelo://app?vid=9f91a4ec-879a-4c5a-a414-c8ab001f9bd0"},"vehicle_type_id":"4","last_reported":1718125688,"current_range_meters":27200,"station_id":"ce4bhb12rcd13ifvqel0","pricing_plan_id":"cebpf4jnsgd1na2vs0mg"},{"bike_id":"07d2477c-acb3-4e13-9add-ac373ee0fe83","system_id":"levelo_inurba_marseille","lat":43.291994,"lon":5.357886,"is_reserved":false,"is_disabled":false,"rental_uris":{"android":"levelo://app?vid=07d2477c-acb3-4e13-9add-ac373ee0fe83","ios":"levelo://app?vid=07d2477c-acb3-4e13-9add-ac373ee0fe83"},"vehicle_type_id":"4","last_reported":1718125688,"current_range_meters":19600,"station_id":"ce4bhb12rcd13ifvqel0","pricing_plan_id":"cebpf4jnsgd1na2vs0mg"},{"bike_id":"ce0f731e-1a4a-4dc8-a09e-c05a3f19a88f","system_id":"levelo_inurba_marseille","lat":43.291994,"lon":5.357886,"is_reserved":false,"is_disabled":false,"rental_uris":{"android":"levelo://app?vid=ce0f731e-1a4a-4dc8-a09e-c05a3f19a88f","ios":"levelo://app?vid=ce0f731e-1a4a-4dc8-a09e-c05a3f19a88f"},"vehicle_type_id":"4","last_reported":1718125688,"current_range_meters":18000,"station_id":"ce4bhb12rcd13ifvqel0","pricing_plan_id":"cebpf4jnsgd1na2vs0mg"},{"bike_id":"4c1a1bd1-b7d9-418b-9a20-3108dacf79ec","system_id":"levelo_inurba_marseille","lat":43.313291,"lon":5.396838,"is_reserved":false,"is_disabled":false,"rental_uris":{"android":"levelo://app?vid=4c1a1bd1-b7d9-418b-9a20-3108dacf79ec","ios":"levelo://app?vid=4c1a1bd1-b7d9-418b-9a20-3108dacf79ec"},"vehicle_type_id":"4","last_reported":1718125688,"current_range_meters":0,"station_id":"ce4bgvp2rcd13ifvqcu0","pricing_plan_id":"cebpf4jnsgd1na2vs0mg"},{"bike_id":"58912c00-1f3c-4b0d-90cd-9be0503ba43f","system_id":"levelo_inurba_marseille","lat":43.291896,"lon":5.357959,"is_reserved":false,"is_disabled":false,"rental_uris":{"android":"levelo://app?vid=58912c00-1f3c-4b0d-90cd-9be0503ba43f","ios":"levelo://app?vid=58912c00-1f3c-4b0d-90cd-9be0503ba43f"},"vehicle_type_id":"4","last_reported":1718125688,"current_range_meters":10800,"station_id":"","pricing_plan_id":"cebpf4jnsgd1na2vs0mg"},{"bike_id":"4118b2b7-78df-4fdb-b955-7a4c16c63943","system_id":"levelo_inurba_marseille","lat":43.309047,"lon":5.396551,"is_reserved":false,"is_disabled":false,"rental_uris":{"android":"levelo://app?vid=4118b2b7-78df-4fdb-b955-7a4c16c63943","ios":"levelo://app?vid=4118b2b7-78df-4fdb-b955-7a4c16c63943"},"vehicle_type_id":"4","last_reported":1718125688,"current_range_meters":0,"station_id":"ce4bh012rcd13ifvqcv0","pricing_plan_id":"cebpf4jnsgd1na2vs0mg"},{"bike_id":"29cbd84a-e705-4e0c-a26a-f359b8fd84ac","system_id":"levelo_inurba_marseille","lat":43.31333,"lon":5.39698,"is_reserved":false,"is_disabled":false,"rental_uris":{"android":"levelo://app?vid=29cbd84a-e705-4e0c-a26a-f359b8fd84ac","ios":"levelo://app?vid=29cbd84a-e705-4e0c-a26a-f359b8fd84ac"},"vehicle_type_id":"4","last_reported":1718125688,"current_range_meters":0,"station_id":"ce4bgvp2rcd13ifvqcu0","pricing_plan_id":"cebpf4jnsgd1na2vs0mg"},{"bike_id":"cc5fe1e9-8566-4668-9b2a-5a26fad1216a","system_id":"levelo_inurba_marseille","lat":43.29529,"lon":5.385581,"is_reserved":false,"is_disabled":false,"rental_uris":{"android":"levelo://app?vid=cc5fe1e9-8566-4668-9b2a-5a26fad1216a","ios":"levelo://app?vid=cc5fe1e9-8566-4668-9b2a-5a26fad1216a"},"vehicle_type_id":"4","last_reported":1718125688,"current_range_meters":19200,"station_id":"ce4bgih2rcd13ifvqba0","pricing_plan_id":"cebpf4jnsgd1na2vs0mg"},{"bike_id":"e221102d-cfa8-40c0-93a3-233a4e816954","system_id":"levelo_inurba_marseille","lat":43.29529,"lon":5.385581,"is_reserved":false,"is_disabled":false,"rental_uris":{"android":"levelo://app?vid=e221102d-cfa8-40c0-93a3-233a4e816954","ios":"levelo://app?vid=e221102d-cfa8-40c0-93a3-233a4e816954"},"vehicle_type_id":"4","last_reported":1718125688,"current_range_meters":28800,"station_id":"ce4bgih2rcd13ifvqba0","pricing_plan_id":"cebpf4jnsgd1na2vs0mg"},{"bike_id":"cf6abd42-4c0a-4e07-9af4-33cbb5d8e765","system_id":"levelo_inurba_marseille","lat":43.295322,"lon":5.385473,"is_reserved":false,"is_disabled":false,"rental_uris":{"android":"levelo://app?vid=cf6abd42-4c0a-4e07-9af4-33cbb5d8e765","ios":"levelo://app?vid=cf6abd42-4c0a-4e07-9af4-33cbb5d8e765"},"vehicle_type_id":"4","last_reported":1718125688,"current_range_meters":5200,"station_id":"ce4bgih2rcd13ifvqba0","pricing_plan_id":"cebpf4jnsgd1na2vs0mg"},{"bike_id":"1c24019c-b659-4d82-b88b-07c4d354914f","system_id":"levelo_inurba_marseille","lat":43.29529,"lon":5.385581,"is_reserved":false,"is_disabled":false,"rental_uris":{"android":"levelo://app?vid=1c24019c-b659-4d82-b88b-07c4d354914f","ios":"levelo://app?vid=1c24019c-b659-4d82-b88b-07c4d354914f"},"vehicle_type_id":"4","last_reported":1718125688,"current_range_meters":8000,"station_id":"ce4bgih2rcd13ifvqba0","pricing_plan_id":"cebpf4jnsgd1na2vs0mg"},{"bike_id":"50b8b86a-0496-45c0-ae09-eeebec1cc24b","system_id":"levelo_inurba_marseille","lat":43.29529,"lon":5.38542,"is_reserved":false,"is_disabled":false,"rental_uris":{"android":"levelo://app?vid=50b8b86a-0496-45c0-ae09-eeebec1cc24b","ios":"levelo://app?vid=50b8b86a-0496-45c0-ae09-eeebec1cc24b"},"vehicle_type_id":"4","last_reported":1718125688,"current_range_meters":0,"station_id":"ce4bgih2rcd13ifvqba0","pricing_plan_id":"cebpf4jnsgd1na2vs0mg"},{"bike_id":"14743a07-ad65-412d-a36e-7ce25bdb0e2c","system_id":"levelo_inurba_marseille","lat":43.290779,"lon":5.371482,"is_reserved":false,"is_disabled":false,"rental_uris":{"android":"levelo://app?vid=14743a07-ad65-412d-a36e-7ce25bdb0e2c","ios":"levelo://app?vid=14743a07-ad65-412d-a36e-7ce25bdb0e2c"},"vehicle_type_id":"4","last_reported":1718125688,"current_range_meters":19600,"station_id":"ce4bh5p2rcd13ifvqe4g","pricing_plan_id":"cebpf4jnsgd1na2vs0mg"},{"bike_id":"7fc6fe20-6c40-453e-b8ad-2671a86aea76","system_id":"levelo_inurba_marseille","lat":43.330442,"lon":5.389148,"is_reserved":false,"is_disabled":false,"rental_uris":{"android":"levelo://app?vid=7fc6fe20-6c40-453e-b8ad-2671a86aea76","ios":"levelo://app?vid=7fc6fe20-6c40-453e-b8ad-2671a86aea76"},"vehicle_type_id":"4","last_reported":1718125688,"current_range_meters":4000,"station_id":"ce4bhr92rcd13ifvqhrg","pricing_plan_id":"cebpf4jnsgd1na2vs0mg"},{"bike_id":"c323454f-c567-4801-9707-66b6516f462c","system_id":"levelo_inurba_marseille","lat":43.302008,"lon":5.394694,"is_reserved":false,"is_disabled":false,"rental_uris":{"android":"levelo://app?vid=c323454f-c567-4801-9707-66b6516f462c","ios":"levelo://app?vid=c323454f-c567-4801-9707-66b6516f462c"},"vehicle_type_id":"4","last_reported":1718125688,"current_range_meters":10400,"station_id":"ce4bh0p2rcd13ifvqd70","pricing_plan_id":"cebpf4jnsgd1na2vs0mg"},{"bike_id":"20eddb05-b426-4a38-aa78-2e1a03395b71","system_id":"levelo_inurba_marseille","lat":43.302008,"lon":5.394694,"is_reserved":false,"is_disabled":false,"rental_uris":{"android":"levelo://app?vid=20eddb05-b426-4a38-aa78-2e1a03395b71","ios":"levelo://app?vid=20eddb05-b426-4a38-aa78-2e1a03395b71"},"vehicle_type_id":"4","last_reported":1718125688,"current_range_meters":20800,"station_id":"ce4bh0p2rcd13ifvqd70","pricing_plan_id":"cebpf4jnsgd1na2vs0mg"},{"bike_id":"1ff5ba55-3758-4807-9491-3608c43c535e","system_id":"levelo_inurba_marseille","lat":43.290624,"lon":5.359245,"is_reserved":false,"is_disabled":false,"rental_uris":{"android":"levelo://app?vid=1ff5ba55-3758-4807-9491-3608c43c535e","ios":"levelo://app?vid=1ff5ba55-3758-4807-9491-3608c43c535e"},"vehicle_type_id":"4","last_reported":1718125688,"current_range_meters":23600,"station_id":"ce4bha92rcd13ifvqeg0","pricing_plan_id":"cebpf4jnsgd1na2vs0mg"},{"bike_id":"2d740187-26e4-41f0-a4c4-471abc8ec1ab","system_id":"levelo_inurba_marseille","lat":43.290631,"lon":5.359244,"is_reserved":false,"is_disabled":false,"rental_uris":{"android":"levelo://app?vid=2d740187-26e4-41f0-a4c4-471abc8ec1ab","ios":"levelo://app?vid=2d740187-26e4-41f0-a4c4-471abc8ec1ab"},"vehicle_type_id":"4","last_reported":1718125688,"current_range_meters":29600,"station_id":"ce4bha92rcd13ifvqeg0","pricing_plan_id":"cebpf4jnsgd1na2vs0mg"},{"bike_id":"5ff0231b-02fb-446c-913e-18814484ee45","system_id":"levelo_inurba_marseille","lat":43.290624,"lon":5.359245,"is_reserved":false,"is_disabled":false,"rental_uris":{"android":"levelo://app?vid=5ff0231b-02fb-446c-913e-18814484ee45","ios":"levelo://app?vid=5ff0231b-02fb-446c-913e-18814484ee45"},"vehicle_type_id":"4","last_reported":1718125688,"current_range_meters":20800,"station_id":"ce4bha92rcd13ifvqeg0","pricing_plan_id":"cebpf4jnsgd1na2vs0mg"},{"bike_id":"905d9812-b1a5-4bac-87fc-199c0f8a58c4","system_id":"levelo_inurba_marseille","lat":43.290273,"lon":5.359294,"is_reserved":false,"is_disabled":false,"rental_uris":{"android":"levelo://app?vid=905d9812-b1a5-4bac-87fc-199c0f8a58c4","ios":"levelo://app?vid=905d9812-b1a5-4bac-87fc-199c0f8a58c4"},"vehicle_type_id":"4","last_reported":1718125688,"current_range_meters":0,"station_id":"ce4bha92rcd13ifvqeg0","pricing_plan_id":"cebpf4jnsgd1na2vs0mg"},{"bike_id":"c1df5a5b-75ab-44ab-a35f-2467f7d765b9","system_id":"levelo_inurba_marseille","lat":43.294153,"lon":5.386305,"is_reserved":false,"is_disabled":false,"rental_uris":{"android":"levelo://app?vid=c1df5a5b-75ab-44ab-a35f-2467f7d765b9","ios":"levelo://app?vid=c1df5a5b-75ab-44ab-a35f-2467f7d765b9"},"vehicle_type_id":"4","last_reported":1718125688,"current_range_meters":25200,"station_id":"ce4bh2h2rcd13ifvqdh0","pricing_plan_id":"cebpf4jnsgd1na2vs0mg"},{"bike_id":"752e3238-b45d-4c69-9e05-0810bb324cf7","system_id":"levelo_inurba_marseille","lat":43.29418,"lon":5.38624,"is_reserved":false,"is_disabled":false,"rental_uris":{"android":"levelo://app?vid=752e3238-b45d-4c69-9e05-0810bb324cf7","ios":"levelo://app?vid=752e3238-b45d-4c69-9e05-0810bb324cf7"},"vehicle_type_id":"4","last_reported":1718125688,"current_range_meters":6800,"station_id":"ce4bh2h2rcd13ifvqdh0","pricing_plan_id":"cebpf4jnsgd1na2vs0mg"},{"bike_id":"716920cc-123b-4056-9e86-ac5a17f09c54","system_id":"levelo_inurba_marseille","lat":43.294201,"lon":5.38629,"is_reserved":false,"is_disabled":false,"rental_uris":{"android":"levelo://app?vid=716920cc-123b-4056-9e86-ac5a17f09c54","ios":"levelo://app?vid=716920cc-123b-4056-9e86-ac5a17f09c54"},"vehicle_type_id":"4","last_reported":1718125688,"current_range_meters":4400,"station_id":"ce4bh2h2rcd13ifvqdh0","pricing_plan_id":"cebpf4jnsgd1na2vs0mg"},{"bike_id":"654a7a83-bba2-473f-9b87-248a7a85f837","system_id":"levelo_inurba_marseille","lat":43.290319,"lon":5.375732,"is_reserved":false,"is_disabled":false,"rental_uris":{"android":"levelo://app?vid=654a7a83-bba2-473f-9b87-248a7a85f837","ios":"levelo://app?vid=654a7a83-bba2-473f-9b87-248a7a85f837"},"vehicle_type_id":"4","last_reported":1718125688,"current_range_meters":17600,"station_id":"ce4bh692rcd13ifvqe90","pricing_plan_id":"cebpf4jnsgd1na2vs0mg"},{"bike_id":"f05b0954-317e-4a35-9163-ed223cde8273","system_id":"levelo_inurba_marseille","lat":43.29419,"lon":5.38628,"is_reserved":false,"is_disabled":false,"rental_uris":{"android":"levelo://app?vid=f05b0954-317e-4a35-9163-ed223cde8273","ios":"levelo://app?vid=f05b0954-317e-4a35-9163-ed223cde8273"},"vehicle_type_id":"4","last_reported":1718125688,"current_range_meters":30000,"station_id":"ce4bh2h2rcd13ifvqdh0","pricing_plan_id":"cebpf4jnsgd1na2vs0mg"},{"bike_id":"79eff8f1-f24a-41fd-8071-0e3be3ca48f0","system_id":"levelo_inurba_marseille","lat":43.29416,"lon":5.38628,"is_reserved":false,"is_disabled":false,"rental_uris":{"android":"levelo://app?vid=79eff8f1-f24a-41fd-8071-0e3be3ca48f0","ios":"levelo://app?vid=79eff8f1-f24a-41fd-8071-0e3be3ca48f0"},"vehicle_type_id":"4","last_reported":1718125688,"current_range_meters":30000,"station_id":"ce4bh2h2rcd13ifvqdh0","pricing_plan_id":"cebpf4jnsgd1na2vs0mg"},{"bike_id":"3e3948ba-7f53-45bb-9dab-9f301283ce2f","system_id":"levelo_inurba_marseille","lat":43.289408,"lon":5.366258,"is_reserved":false,"is_disabled":false,"rental_uris":{"android":"levelo://app?vid=3e3948ba-7f53-45bb-9dab-9f301283ce2f","ios":"levelo://app?vid=3e3948ba-7f53-45bb-9dab-9f301283ce2f"},"vehicle_type_id":"4","last_reported":1718125688,"current_range_meters":0,"station_id":"ce4bhap2rcd13ifvqek0","pricing_plan_id":"cebpf4jnsgd1na2vs0mg"},{"bike_id":"946bded6-efc7-441a-9dd3-b2fa96715f4c","system_id":"levelo_inurba_marseille","lat":43.28937,"lon":5.36634,"is_reserved":false,"is_disabled":false,"rental_uris":{"android":"levelo://app?vid=946bded6-efc7-441a-9dd3-b2fa96715f4c","ios":"levelo://app?vid=946bded6-efc7-441a-9dd3-b2fa96715f4c"},"vehicle_type_id":"4","last_reported":1718125688,"current_range_meters":0,"station_id":"ce4bhap2rcd13ifvqek0","pricing_plan_id":"cebpf4jnsgd1na2vs0mg"},{"bike_id":"21f59648-d87e-48f9-b2f8-900851efbc97","system_id":"levelo_inurba_marseille","lat":43.290631,"lon":5.359244,"is_reserved":false,"is_disabled":false,"rental_uris":{"android":"levelo://app?vid=21f59648-d87e-48f9-b2f8-900851efbc97","ios":"levelo://app?vid=21f59648-d87e-48f9-b2f8-900851efbc97"},"vehicle_type_id":"4","last_reported":1718125688,"current_range_meters":18000,"station_id":"ce4bha92rcd13ifvqeg0","pricing_plan_id":"cebpf4jnsgd1na2vs0mg"},{"bike_id":"234aa0cc-c0ad-435d-b26b-a5ac0aa963b0","system_id":"levelo_inurba_marseille","lat":43.294003,"lon":5.386459,"is_reserved":false,"is_disabled":false,"rental_uris":{"android":"levelo://app?vid=234aa0cc-c0ad-435d-b26b-a5ac0aa963b0","ios":"levelo://app?vid=234aa0cc-c0ad-435d-b26b-a5ac0aa963b0"},"vehicle_type_id":"4","last_reported":1718125688,"current_range_meters":26000,"station_id":"ce4bh2h2rcd13ifvqdh0","pricing_plan_id":"cebpf4jnsgd1na2vs0mg"},{"bike_id":"56f52a67-7a6d-4669-b1b8-f8d6b4c7e77f","system_id":"levelo_inurba_marseille","lat":43.28931,"lon":5.36402,"is_reserved":false,"is_disabled":false,"rental_uris":{"android":"levelo://app?vid=56f52a67-7a6d-4669-b1b8-f8d6b4c7e77f","ios":"levelo://app?vid=56f52a67-7a6d-4669-b1b8-f8d6b4c7e77f"},"vehicle_type_id":"4","last_reported":1718125688,"current_range_meters":0,"station_id":"ce4bhc92rcd13ifvqetg","pricing_plan_id":"cebpf4jnsgd1na2vs0mg"},{"bike_id":"0ae082bb-9dd5-4ebd-80c8-0d39e244fd14","system_id":"levelo_inurba_marseille","lat":43.289298,"lon":5.363868,"is_reserved":false,"is_disabled":false,"rental_uris":{"android":"levelo://app?vid=0ae082bb-9dd5-4ebd-80c8-0d39e244fd14","ios":"levelo://app?vid=0ae082bb-9dd5-4ebd-80c8-0d39e244fd14"},"vehicle_type_id":"4","last_reported":1718125688,"current_range_meters":0,"station_id":"ce4bhc92rcd13ifvqetg","pricing_plan_id":"cebpf4jnsgd1na2vs0mg"},{"bike_id":"4e8c1ce8-0182-4b56-950d-a76b1a215677","system_id":"levelo_inurba_marseille","lat":43.289468,"lon":5.363719,"is_reserved":false,"is_disabled":false,"rental_uris":{"android":"levelo://app?vid=4e8c1ce8-0182-4b56-950d-a76b1a215677","ios":"levelo://app?vid=4e8c1ce8-0182-4b56-950d-a76b1a215677"},"vehicle_type_id":"4","last_reported":1718125688,"current_range_meters":3600,"station_id":"ce4bhc92rcd13ifvqetg","pricing_plan_id":"cebpf4jnsgd1na2vs0mg"},{"bike_id":"0c86ce87-7880-4eaf-81fa-00fa07305b8b","system_id":"levelo_inurba_marseille","lat":43.292644,"lon":5.384257,"is_reserved":false,"is_disabled":false,"rental_uris":{"android":"levelo://app?vid=0c86ce87-7880-4eaf-81fa-00fa07305b8b","ios":"levelo://app?vid=0c86ce87-7880-4eaf-81fa-00fa07305b8b"},"vehicle_type_id":"4","last_reported":1718125688,"current_range_meters":1200,"station_id":"ce4bh692rcd13ifvqea0","pricing_plan_id":"cebpf4jnsgd1na2vs0mg"},{"bike_id":"63dd917a-3be0-4319-86d4-77483dfbcaa4","system_id":"levelo_inurba_marseille","lat":43.292644,"lon":5.384257,"is_reserved":false,"is_disabled":false,"rental_uris":{"android":"levelo://app?vid=63dd917a-3be0-4319-86d4-77483dfbcaa4","ios":"levelo://app?vid=63dd917a-3be0-4319-86d4-77483dfbcaa4"},"vehicle_type_id":"4","last_reported":1718125688,"current_range_meters":0,"station_id":"ce4bh692rcd13ifvqea0","pricing_plan_id":"cebpf4jnsgd1na2vs0mg"},{"bike_id":"842be301-7ea8-45bd-8ebb-2daead472158","system_id":"levelo_inurba_marseille","lat":43.29264,"lon":5.38429,"is_reserved":false,"is_disabled":false,"rental_uris":{"android":"levelo://app?vid=842be301-7ea8-45bd-8ebb-2daead472158","ios":"levelo://app?vid=842be301-7ea8-45bd-8ebb-2daead472158"},"vehicle_type_id":"4","last_reported":1718125688,"current_range_meters":16800,"station_id":"ce4bh692rcd13ifvqea0","pricing_plan_id":"cebpf4jnsgd1na2vs0mg"},{"bike_id":"f4569028-4e3b-42b4-90bb-901b54314c07","system_id":"levelo_inurba_marseille","lat":43.29264,"lon":5.38439,"is_reserved":false,"is_disabled":false,"rental_uris":{"android":"levelo://app?vid=f4569028-4e3b-42b4-90bb-901b54314c07","ios":"levelo://app?vid=f4569028-4e3b-42b4-90bb-901b54314c07"},"vehicle_type_id":"4","last_reported":1718125688,"current_range_meters":6800,"station_id":"ce4bh692rcd13ifvqea0","pricing_plan_id":"cebpf4jnsgd1na2vs0mg"},{"bike_id":"78da8543-a551-4474-95a6-d68950ab81c1","system_id":"levelo_inurba_marseille","lat":43.292662,"lon":5.384442,"is_reserved":false,"is_disabled":false,"rental_uris":{"android":"levelo://app?vid=78da8543-a551-4474-95a6-d68950ab81c1","ios":"levelo://app?vid=78da8543-a551-4474-95a6-d68950ab81c1"},"vehicle_type_id":"4","last_reported":1718125688,"current_range_meters":12400,"station_id":"","pricing_plan_id":"cebpf4jnsgd1na2vs0mg"},{"bike_id":"de6c4caf-57c1-4a1e-8d5a-7b6539fa2acf","system_id":"levelo_inurba_marseille","lat":43.292644,"lon":5.384257,"is_reserved":false,"is_disabled":false,"rental_uris":{"android":"levelo://app?vid=de6c4caf-57c1-4a1e-8d5a-7b6539fa2acf","ios":"levelo://app?vid=de6c4caf-57c1-4a1e-8d5a-7b6539fa2acf"},"vehicle_type_id":"4","last_reported":1718125688,"current_range_meters":8000,"station_id":"ce4bh692rcd13ifvqea0","pricing_plan_id":"cebpf4jnsgd1na2vs0mg"},{"bike_id":"d4ff5543-2eba-439c-a242-b2e203114024","system_id":"levelo_inurba_marseille","lat":43.292644,"lon":5.384257,"is_reserved":false,"is_disabled":false,"rental_uris":{"android":"levelo://app?vid=d4ff5543-2eba-439c-a242-b2e203114024","ios":"levelo://app?vid=d4ff5543-2eba-439c-a242-b2e203114024"},"vehicle_type_id":"4","last_reported":1718125688,"current_range_meters":800,"station_id":"ce4bh692rcd13ifvqea0","pricing_plan_id":"cebpf4jnsgd1na2vs0mg"},{"bike_id":"b4540c23-9c70-4d12-b7a1-a7ae36988fc7","system_id":"levelo_inurba_marseille","lat":43.292642,"lon":5.384254,"is_reserved":false,"is_disabled":false,"rental_uris":{"android":"levelo://app?vid=b4540c23-9c70-4d12-b7a1-a7ae36988fc7","ios":"levelo://app?vid=b4540c23-9c70-4d12-b7a1-a7ae36988fc7"},"vehicle_type_id":"4","last_reported":1718125688,"current_range_meters":24800,"station_id":"ce4bh692rcd13ifvqea0","pricing_plan_id":"cebpf4jnsgd1na2vs0mg"},{"bike_id":"b7f1accf-2124-41d2-b884-834b6783fe5d","system_id":"levelo_inurba_marseille","lat":43.292642,"lon":5.384254,"is_reserved":false,"is_disabled":false,"rental_uris":{"android":"levelo://app?vid=b7f1accf-2124-41d2-b884-834b6783fe5d","ios":"levelo://app?vid=b7f1accf-2124-41d2-b884-834b6783fe5d"},"vehicle_type_id":"4","last_reported":1718125688,"current_range_meters":3600,"station_id":"ce4bh692rcd13ifvqea0","pricing_plan_id":"cebpf4jnsgd1na2vs0mg"},{"bike_id":"409a36c5-d808-4ef5-8559-a5f4dda7ca08","system_id":"levelo_inurba_marseille","lat":43.292642,"lon":5.384254,"is_reserved":false,"is_disabled":false,"rental_uris":{"android":"levelo://app?vid=409a36c5-d808-4ef5-8559-a5f4dda7ca08","ios":"levelo://app?vid=409a36c5-d808-4ef5-8559-a5f4dda7ca08"},"vehicle_type_id":"4","last_reported":1718125688,"current_range_meters":5600,"station_id":"ce4bh692rcd13ifvqea0","pricing_plan_id":"cebpf4jnsgd1na2vs0mg"},{"bike_id":"8ad9dc44-4de3-4e74-a9eb-631076b133cd","system_id":"levelo_inurba_marseille","lat":43.301117,"lon":5.398795,"is_reserved":false,"is_disabled":false,"rental_uris":{"android":"levelo://app?vid=8ad9dc44-4de3-4e74-a9eb-631076b133cd","ios":"levelo://app?vid=8ad9dc44-4de3-4e74-a9eb-631076b133cd"},"vehicle_type_id":"4","last_reported":1718125688,"current_range_meters":27200,"station_id":"ce4bh0h2rcd13ifvqd40","pricing_plan_id":"cebpf4jnsgd1na2vs0mg"},{"bike_id":"552e7e42-0823-4c13-9ab8-0ada4ae8aeeb","system_id":"levelo_inurba_marseille","lat":43.290104,"lon":5.356111,"is_reserved":false,"is_disabled":false,"rental_uris":{"android":"levelo://app?vid=552e7e42-0823-4c13-9ab8-0ada4ae8aeeb","ios":"levelo://app?vid=552e7e42-0823-4c13-9ab8-0ada4ae8aeeb"},"vehicle_type_id":"4","last_reported":1718125688,"current_range_meters":21200,"station_id":"ce4bhb92rcd13ifvqen0","pricing_plan_id":"cebpf4jnsgd1na2vs0mg"},{"bike_id":"8812dc54-c133-41b2-a2bf-1a5665661d56","system_id":"levelo_inurba_marseille","lat":43.290104,"lon":5.356111,"is_reserved":false,"is_disabled":false,"rental_uris":{"android":"levelo://app?vid=8812dc54-c133-41b2-a2bf-1a5665661d56","ios":"levelo://app?vid=8812dc54-c133-41b2-a2bf-1a5665661d56"},"vehicle_type_id":"4","last_reported":1718125688,"current_range_meters":14000,"station_id":"ce4bhb92rcd13ifvqen0","pricing_plan_id":"cebpf4jnsgd1na2vs0mg"},{"bike_id":"c2417870-b8b2-46cc-af08-d40c20a1d331","system_id":"levelo_inurba_marseille","lat":43.290103,"lon":5.356114,"is_reserved":false,"is_disabled":false,"rental_uris":{"android":"levelo://app?vid=c2417870-b8b2-46cc-af08-d40c20a1d331","ios":"levelo://app?vid=c2417870-b8b2-46cc-af08-d40c20a1d331"},"vehicle_type_id":"4","last_reported":1718125688,"current_range_meters":28400,"station_id":"ce4bhb92rcd13ifvqen0","pricing_plan_id":"cebpf4jnsgd1na2vs0mg"},{"bike_id":"3b3b907b-114a-4c05-af60-0f4af0c3c2a0","system_id":"levelo_inurba_marseille","lat":43.290104,"lon":5.356111,"is_reserved":false,"is_disabled":false,"rental_uris":{"android":"levelo://app?vid=3b3b907b-114a-4c05-af60-0f4af0c3c2a0","ios":"levelo://app?vid=3b3b907b-114a-4c05-af60-0f4af0c3c2a0"},"vehicle_type_id":"4","last_reported":1718125688,"current_range_meters":2400,"station_id":"ce4bhb92rcd13ifvqen0","pricing_plan_id":"cebpf4jnsgd1na2vs0mg"},{"bike_id":"2ceb1038-0aa3-4621-95be-d173bdcda3a4","system_id":"levelo_inurba_marseille","lat":43.29003,"lon":5.356141,"is_reserved":false,"is_disabled":false,"rental_uris":{"android":"levelo://app?vid=2ceb1038-0aa3-4621-95be-d173bdcda3a4","ios":"levelo://app?vid=2ceb1038-0aa3-4621-95be-d173bdcda3a4"},"vehicle_type_id":"4","last_reported":1718125688,"current_range_meters":13600,"station_id":"ce4bhb92rcd13ifvqen0","pricing_plan_id":"cebpf4jnsgd1na2vs0mg"},{"bike_id":"cca4777b-fc80-4973-a70c-3cb2978207bb","system_id":"levelo_inurba_marseille","lat":43.290104,"lon":5.356111,"is_reserved":false,"is_disabled":false,"rental_uris":{"android":"levelo://app?vid=cca4777b-fc80-4973-a70c-3cb2978207bb","ios":"levelo://app?vid=cca4777b-fc80-4973-a70c-3cb2978207bb"},"vehicle_type_id":"4","last_reported":1718125688,"current_range_meters":8400,"station_id":"ce4bhb92rcd13ifvqen0","pricing_plan_id":"cebpf4jnsgd1na2vs0mg"},{"bike_id":"edf39203-0369-4cab-b682-f64a48b85531","system_id":"levelo_inurba_marseille","lat":43.290104,"lon":5.356111,"is_reserved":false,"is_disabled":false,"rental_uris":{"android":"levelo://app?vid=edf39203-0369-4cab-b682-f64a48b85531","ios":"levelo://app?vid=edf39203-0369-4cab-b682-f64a48b85531"},"vehicle_type_id":"4","last_reported":1718125688,"current_range_meters":18000,"station_id":"ce4bhb92rcd13ifvqen0","pricing_plan_id":"cebpf4jnsgd1na2vs0mg"},{"bike_id":"b2e435c5-682f-4ea8-b89f-cb93fe8bca8a","system_id":"levelo_inurba_marseille","lat":43.290103,"lon":5.356114,"is_reserved":false,"is_disabled":false,"rental_uris":{"android":"levelo://app?vid=b2e435c5-682f-4ea8-b89f-cb93fe8bca8a","ios":"levelo://app?vid=b2e435c5-682f-4ea8-b89f-cb93fe8bca8a"},"vehicle_type_id":"4","last_reported":1718125688,"current_range_meters":4800,"station_id":"ce4bhb92rcd13ifvqen0","pricing_plan_id":"cebpf4jnsgd1na2vs0mg"},{"bike_id":"d0ce9d1e-f83c-418d-aedd-ca1d92b9e967","system_id":"levelo_inurba_marseille","lat":43.286039,"lon":5.370679,"is_reserved":false,"is_disabled":false,"rental_uris":{"android":"levelo://app?vid=d0ce9d1e-f83c-418d-aedd-ca1d92b9e967","ios":"levelo://app?vid=d0ce9d1e-f83c-418d-aedd-ca1d92b9e967"},"vehicle_type_id":"4","last_reported":1718125688,"current_range_meters":7600,"station_id":"ce4bht12rcd13ifvqi60","pricing_plan_id":"cebpf4jnsgd1na2vs0mg"},{"bike_id":"1db5db05-45bf-4046-89b3-8dccad4a82fa","system_id":"levelo_inurba_marseille","lat":43.330442,"lon":5.389148,"is_reserved":false,"is_disabled":false,"rental_uris":{"android":"levelo://app?vid=1db5db05-45bf-4046-89b3-8dccad4a82fa","ios":"levelo://app?vid=1db5db05-45bf-4046-89b3-8dccad4a82fa"},"vehicle_type_id":"4","last_reported":1718125688,"current_range_meters":11200,"station_id":"ce4bhr92rcd13ifvqhrg","pricing_plan_id":"cebpf4jnsgd1na2vs0mg"},{"bike_id":"738afea8-ee70-40fc-954f-6602db1a4a6c","system_id":"levelo_inurba_marseille","lat":43.295169,"lon":5.390426,"is_reserved":false,"is_disabled":false,"rental_uris":{"android":"levelo://app?vid=738afea8-ee70-40fc-954f-6602db1a4a6c","ios":"levelo://app?vid=738afea8-ee70-40fc-954f-6602db1a4a6c"},"vehicle_type_id":"4","last_reported":1718125688,"current_range_meters":3600,"station_id":"ce4bh3p2rcd13ifvqdp0","pricing_plan_id":"cebpf4jnsgd1na2vs0mg"},{"bike_id":"cfd9320b-129b-4eaf-b592-c8894d656b0e","system_id":"levelo_inurba_marseille","lat":43.29788,"lon":5.39358,"is_reserved":false,"is_disabled":false,"rental_uris":{"android":"levelo://app?vid=cfd9320b-129b-4eaf-b592-c8894d656b0e","ios":"levelo://app?vid=cfd9320b-129b-4eaf-b592-c8894d656b0e"},"vehicle_type_id":"4","last_reported":1718125688,"current_range_meters":2800,"station_id":"chh1huq6cuj3fo74tm60","pricing_plan_id":"cebpf4jnsgd1na2vs0mg"},{"bike_id":"eadd4fb0-4c48-415c-904b-967e848f5491","system_id":"levelo_inurba_marseille","lat":43.330442,"lon":5.389148,"is_reserved":false,"is_disabled":false,"rental_uris":{"android":"levelo://app?vid=eadd4fb0-4c48-415c-904b-967e848f5491","ios":"levelo://app?vid=eadd4fb0-4c48-415c-904b-967e848f5491"},"vehicle_type_id":"4","last_reported":1718125688,"current_range_meters":22800,"station_id":"ce4bhr92rcd13ifvqhrg","pricing_plan_id":"cebpf4jnsgd1na2vs0mg"},{"bike_id":"e32601c7-350d-4106-9f62-e95bbffca447","system_id":"levelo_inurba_marseille","lat":43.330442,"lon":5.389148,"is_reserved":false,"is_disabled":false,"rental_uris":{"android":"levelo://app?vid=e32601c7-350d-4106-9f62-e95bbffca447","ios":"levelo://app?vid=e32601c7-350d-4106-9f62-e95bbffca447"},"vehicle_type_id":"4","last_reported":1718125688,"current_range_meters":400,"station_id":"ce4bhr92rcd13ifvqhrg","pricing_plan_id":"cebpf4jnsgd1na2vs0mg"},{"bike_id":"6eb7879f-4d6f-474a-beba-5dd2c8e955b7","system_id":"levelo_inurba_marseille","lat":43.330442,"lon":5.389148,"is_reserved":false,"is_disabled":false,"rental_uris":{"android":"levelo://app?vid=6eb7879f-4d6f-474a-beba-5dd2c8e955b7","ios":"levelo://app?vid=6eb7879f-4d6f-474a-beba-5dd2c8e955b7"},"vehicle_type_id":"4","last_reported":1718125688,"current_range_meters":0,"station_id":"ce4bhr92rcd13ifvqhrg","pricing_plan_id":"cebpf4jnsgd1na2vs0mg"},{"bike_id":"ad0b6c66-18cb-4684-8f83-1fe235244d8c","system_id":"levelo_inurba_marseille","lat":43.330442,"lon":5.389148,"is_reserved":false,"is_disabled":false,"rental_uris":{"android":"levelo://app?vid=ad0b6c66-18cb-4684-8f83-1fe235244d8c","ios":"levelo://app?vid=ad0b6c66-18cb-4684-8f83-1fe235244d8c"},"vehicle_type_id":"4","last_reported":1718125688,"current_range_meters":22800,"station_id":"ce4bhr92rcd13ifvqhrg","pricing_plan_id":"cebpf4jnsgd1na2vs0mg"},{"bike_id":"bc99d714-582e-46c6-8e62-41f942e360a7","system_id":"levelo_inurba_marseille","lat":43.295169,"lon":5.390426,"is_reserved":false,"is_disabled":false,"rental_uris":{"android":"levelo://app?vid=bc99d714-582e-46c6-8e62-41f942e360a7","ios":"levelo://app?vid=bc99d714-582e-46c6-8e62-41f942e360a7"},"vehicle_type_id":"4","last_reported":1718125688,"current_range_meters":0,"station_id":"ce4bh3p2rcd13ifvqdp0","pricing_plan_id":"cebpf4jnsgd1na2vs0mg"},{"bike_id":"41621179-5893-41c1-987e-ab2160d284fe","system_id":"levelo_inurba_marseille","lat":43.2901,"lon":5.381269,"is_reserved":false,"is_disabled":false,"rental_uris":{"android":"levelo://app?vid=41621179-5893-41c1-987e-ab2160d284fe","ios":"levelo://app?vid=41621179-5893-41c1-987e-ab2160d284fe"},"vehicle_type_id":"4","last_reported":1718125688,"current_range_meters":23600,"station_id":"ce4bh4p2rcd13ifvqe1g","pricing_plan_id":"cebpf4jnsgd1na2vs0mg"},{"bike_id":"089ed7b7-67a6-4f35-9fb1-54f3b13bcd82","system_id":"levelo_inurba_marseille","lat":43.2901,"lon":5.381269,"is_reserved":false,"is_disabled":false,"rental_uris":{"android":"levelo://app?vid=089ed7b7-67a6-4f35-9fb1-54f3b13bcd82","ios":"levelo://app?vid=089ed7b7-67a6-4f35-9fb1-54f3b13bcd82"},"vehicle_type_id":"4","last_reported":1718125688,"current_range_meters":29200,"station_id":"ce4bh4p2rcd13ifvqe1g","pricing_plan_id":"cebpf4jnsgd1na2vs0mg"},{"bike_id":"6fefcfbd-ab2f-4ca5-aee6-ad59d94886fe","system_id":"levelo_inurba_marseille","lat":43.28856,"lon":5.358371,"is_reserved":false,"is_disabled":false,"rental_uris":{"android":"levelo://app?vid=6fefcfbd-ab2f-4ca5-aee6-ad59d94886fe","ios":"levelo://app?vid=6fefcfbd-ab2f-4ca5-aee6-ad59d94886fe"},"vehicle_type_id":"4","last_reported":1718125688,"current_range_meters":2400,"station_id":"ce4bhb12rcd13ifvqem0","pricing_plan_id":"cebpf4jnsgd1na2vs0mg"},{"bike_id":"0e8b96e7-ab0c-462d-90a9-9aa68476b78f","system_id":"levelo_inurba_marseille","lat":43.2901,"lon":5.381269,"is_reserved":false,"is_disabled":false,"rental_uris":{"android":"levelo://app?vid=0e8b96e7-ab0c-462d-90a9-9aa68476b78f","ios":"levelo://app?vid=0e8b96e7-ab0c-462d-90a9-9aa68476b78f"},"vehicle_type_id":"4","last_reported":1718125688,"current_range_meters":6000,"station_id":"ce4bh4p2rcd13ifvqe1g","pricing_plan_id":"cebpf4jnsgd1na2vs0mg"},{"bike_id":"9bab871a-4bb8-4f67-b594-15781ff45bdc","system_id":"levelo_inurba_marseille","lat":43.28856,"lon":5.358371,"is_reserved":false,"is_disabled":false,"rental_uris":{"android":"levelo://app?vid=9bab871a-4bb8-4f67-b594-15781ff45bdc","ios":"levelo://app?vid=9bab871a-4bb8-4f67-b594-15781ff45bdc"},"vehicle_type_id":"4","last_reported":1718125688,"current_range_meters":8000,"station_id":"ce4bhb12rcd13ifvqem0","pricing_plan_id":"cebpf4jnsgd1na2vs0mg"},{"bike_id":"c6c063e4-c97e-4879-ac3f-87586ec1e139","system_id":"levelo_inurba_marseille","lat":43.28862,"lon":5.358156,"is_reserved":false,"is_disabled":false,"rental_uris":{"android":"levelo://app?vid=c6c063e4-c97e-4879-ac3f-87586ec1e139","ios":"levelo://app?vid=c6c063e4-c97e-4879-ac3f-87586ec1e139"},"vehicle_type_id":"4","last_reported":1718125688,"current_range_meters":0,"station_id":"ce4bhb12rcd13ifvqem0","pricing_plan_id":"cebpf4jnsgd1na2vs0mg"},{"bike_id":"112a5b3e-37ba-45fa-9408-9e85c518b3ad","system_id":"levelo_inurba_marseille","lat":43.28856,"lon":5.358371,"is_reserved":false,"is_disabled":false,"rental_uris":{"android":"levelo://app?vid=112a5b3e-37ba-45fa-9408-9e85c518b3ad","ios":"levelo://app?vid=112a5b3e-37ba-45fa-9408-9e85c518b3ad"},"vehicle_type_id":"4","last_reported":1718125688,"current_range_meters":4000,"station_id":"ce4bhb12rcd13ifvqem0","pricing_plan_id":"cebpf4jnsgd1na2vs0mg"},{"bike_id":"0ee851db-9b03-411a-86f1-ec0dcc8fe656","system_id":"levelo_inurba_marseille","lat":43.28856,"lon":5.358371,"is_reserved":false,"is_disabled":false,"rental_uris":{"android":"levelo://app?vid=0ee851db-9b03-411a-86f1-ec0dcc8fe656","ios":"levelo://app?vid=0ee851db-9b03-411a-86f1-ec0dcc8fe656"},"vehicle_type_id":"4","last_reported":1718125688,"current_range_meters":8000,"station_id":"ce4bhb12rcd13ifvqem0","pricing_plan_id":"cebpf4jnsgd1na2vs0mg"},{"bike_id":"0f518c42-e52d-4b74-b7b5-2cfc75f6c3ae","system_id":"levelo_inurba_marseille","lat":43.2901,"lon":5.381269,"is_reserved":false,"is_disabled":false,"rental_uris":{"android":"levelo://app?vid=0f518c42-e52d-4b74-b7b5-2cfc75f6c3ae","ios":"levelo://app?vid=0f518c42-e52d-4b74-b7b5-2cfc75f6c3ae"},"vehicle_type_id":"4","last_reported":1718125688,"current_range_meters":30000,"station_id":"ce4bh4p2rcd13ifvqe1g","pricing_plan_id":"cebpf4jnsgd1na2vs0mg"},{"bike_id":"c40cc727-169d-463d-8405-0af29106c25e","system_id":"levelo_inurba_marseille","lat":43.28856,"lon":5.358371,"is_reserved":false,"is_disabled":false,"rental_uris":{"android":"levelo://app?vid=c40cc727-169d-463d-8405-0af29106c25e","ios":"levelo://app?vid=c40cc727-169d-463d-8405-0af29106c25e"},"vehicle_type_id":"4","last_reported":1718125688,"current_range_meters":0,"station_id":"ce4bhb12rcd13ifvqem0","pricing_plan_id":"cebpf4jnsgd1na2vs0mg"},{"bike_id":"accafe0b-fdab-4235-b99e-e4f79aba8cef","system_id":"levelo_inurba_marseille","lat":43.319179,"lon":5.407725,"is_reserved":false,"is_disabled":false,"rental_uris":{"android":"levelo://app?vid=accafe0b-fdab-4235-b99e-e4f79aba8cef","ios":"levelo://app?vid=accafe0b-fdab-4235-b99e-e4f79aba8cef"},"vehicle_type_id":"4","last_reported":1718125688,"current_range_meters":15600,"station_id":"ce4bhq12rcd13ifvqhig","pricing_plan_id":"cebpf4jnsgd1na2vs0mg"},{"bike_id":"3c0324c5-c393-43fa-8dcd-aa986d88a712","system_id":"levelo_inurba_marseille","lat":43.29165,"lon":5.3861,"is_reserved":false,"is_disabled":false,"rental_uris":{"android":"levelo://app?vid=3c0324c5-c393-43fa-8dcd-aa986d88a712","ios":"levelo://app?vid=3c0324c5-c393-43fa-8dcd-aa986d88a712"},"vehicle_type_id":"4","last_reported":1718125688,"current_range_meters":12000,"station_id":"","pricing_plan_id":"cebpf4jnsgd1na2vs0mg"},{"bike_id":"e6240483-6a48-4b6a-9ca5-ba4cae5a8685","system_id":"levelo_inurba_marseille","lat":43.312609,"lon":5.401662,"is_reserved":false,"is_disabled":false,"rental_uris":{"android":"levelo://app?vid=e6240483-6a48-4b6a-9ca5-ba4cae5a8685","ios":"levelo://app?vid=e6240483-6a48-4b6a-9ca5-ba4cae5a8685"},"vehicle_type_id":"4","last_reported":1718125688,"current_range_meters":9200,"station_id":"ce4bh092rcd13ifvqd30","pricing_plan_id":"cebpf4jnsgd1na2vs0mg"},{"bike_id":"ca315f73-b160-4165-a7bb-b69e7aa42bcd","system_id":"levelo_inurba_marseille","lat":43.312609,"lon":5.401662,"is_reserved":false,"is_disabled":false,"rental_uris":{"android":"levelo://app?vid=ca315f73-b160-4165-a7bb-b69e7aa42bcd","ios":"levelo://app?vid=ca315f73-b160-4165-a7bb-b69e7aa42bcd"},"vehicle_type_id":"4","last_reported":1718125688,"current_range_meters":1200,"station_id":"ce4bh092rcd13ifvqd30","pricing_plan_id":"cebpf4jnsgd1na2vs0mg"},{"bike_id":"1969922b-2a4e-451f-aba8-7e053bc0c68e","system_id":"levelo_inurba_marseille","lat":43.3092,"lon":5.40141,"is_reserved":false,"is_disabled":false,"rental_uris":{"android":"levelo://app?vid=1969922b-2a4e-451f-aba8-7e053bc0c68e","ios":"levelo://app?vid=1969922b-2a4e-451f-aba8-7e053bc0c68e"},"vehicle_type_id":"4","last_reported":1718125688,"current_range_meters":0,"station_id":"ce4bgvp2rcd13ifvqct0","pricing_plan_id":"cebpf4jnsgd1na2vs0mg"},{"bike_id":"ad66a201-6efe-4d73-836a-976caef4a30e","system_id":"levelo_inurba_marseille","lat":43.337539,"lon":5.374568,"is_reserved":false,"is_disabled":false,"rental_uris":{"android":"levelo://app?vid=ad66a201-6efe-4d73-836a-976caef4a30e","ios":"levelo://app?vid=ad66a201-6efe-4d73-836a-976caef4a30e"},"vehicle_type_id":"4","last_reported":1718125688,"current_range_meters":26800,"station_id":"","pricing_plan_id":"cebpf4jnsgd1na2vs0mg"},{"bike_id":"86a27a08-ce72-4f4b-aca9-9dcfbf309216","system_id":"levelo_inurba_marseille","lat":43.337562,"lon":5.374545,"is_reserved":false,"is_disabled":false,"rental_uris":{"android":"levelo://app?vid=86a27a08-ce72-4f4b-aca9-9dcfbf309216","ios":"levelo://app?vid=86a27a08-ce72-4f4b-aca9-9dcfbf309216"},"vehicle_type_id":"4","last_reported":1718125688,"current_range_meters":30000,"station_id":"","pricing_plan_id":"cebpf4jnsgd1na2vs0mg"},{"bike_id":"92f145c6-e585-40f9-8c53-a9a1ff9b8878","system_id":"levelo_inurba_marseille","lat":43.285848,"lon":5.350787,"is_reserved":false,"is_disabled":false,"rental_uris":{"android":"levelo://app?vid=92f145c6-e585-40f9-8c53-a9a1ff9b8878","ios":"levelo://app?vid=92f145c6-e585-40f9-8c53-a9a1ff9b8878"},"vehicle_type_id":"4","last_reported":1718125688,"current_range_meters":4800,"station_id":"ce4bhch2rcd13ifvqeug","pricing_plan_id":"cebpf4jnsgd1na2vs0mg"},{"bike_id":"4c204a05-19eb-4d3d-aceb-a280a0c8b22c","system_id":"levelo_inurba_marseille","lat":43.301117,"lon":5.398795,"is_reserved":false,"is_disabled":false,"rental_uris":{"android":"levelo://app?vid=4c204a05-19eb-4d3d-aceb-a280a0c8b22c","ios":"levelo://app?vid=4c204a05-19eb-4d3d-aceb-a280a0c8b22c"},"vehicle_type_id":"4","last_reported":1718125688,"current_range_meters":10800,"station_id":"ce4bh0h2rcd13ifvqd40","pricing_plan_id":"cebpf4jnsgd1na2vs0mg"},{"bike_id":"0fce355c-31c0-4e32-a4b8-9b35688b8f6d","system_id":"levelo_inurba_marseille","lat":43.30144,"lon":5.39846,"is_reserved":false,"is_disabled":false,"rental_uris":{"android":"levelo://app?vid=0fce355c-31c0-4e32-a4b8-9b35688b8f6d","ios":"levelo://app?vid=0fce355c-31c0-4e32-a4b8-9b35688b8f6d"},"vehicle_type_id":"4","last_reported":1718125688,"current_range_meters":26800,"station_id":"ce4bh0h2rcd13ifvqd40","pricing_plan_id":"cebpf4jnsgd1na2vs0mg"},{"bike_id":"fc0a311a-b514-450c-97c4-df72f4df371d","system_id":"levelo_inurba_marseille","lat":43.313244,"lon":5.402227,"is_reserved":false,"is_disabled":false,"rental_uris":{"android":"levelo://app?vid=fc0a311a-b514-450c-97c4-df72f4df371d","ios":"levelo://app?vid=fc0a311a-b514-450c-97c4-df72f4df371d"},"vehicle_type_id":"4","last_reported":1718125688,"current_range_meters":0,"station_id":"ce4bh092rcd13ifvqd30","pricing_plan_id":"cebpf4jnsgd1na2vs0mg"},{"bike_id":"8a2ceb4c-9c07-46be-b8ec-7ee982f137d9","system_id":"levelo_inurba_marseille","lat":43.298681,"lon":5.397225,"is_reserved":false,"is_disabled":false,"rental_uris":{"android":"levelo://app?vid=8a2ceb4c-9c07-46be-b8ec-7ee982f137d9","ios":"levelo://app?vid=8a2ceb4c-9c07-46be-b8ec-7ee982f137d9"},"vehicle_type_id":"4","last_reported":1718125688,"current_range_meters":8400,"station_id":"ce4bh0h2rcd13ifvqd50","pricing_plan_id":"cebpf4jnsgd1na2vs0mg"},{"bike_id":"90ce6a41-06fe-4225-97cf-89a8b64f6468","system_id":"levelo_inurba_marseille","lat":43.286591,"lon":5.363346,"is_reserved":false,"is_disabled":false,"rental_uris":{"android":"levelo://app?vid=90ce6a41-06fe-4225-97cf-89a8b64f6468","ios":"levelo://app?vid=90ce6a41-06fe-4225-97cf-89a8b64f6468"},"vehicle_type_id":"4","last_reported":1718125688,"current_range_meters":4000,"station_id":"ce4bhah2rcd13ifvqej0","pricing_plan_id":"cebpf4jnsgd1na2vs0mg"},{"bike_id":"5df20f7a-5b2b-435a-b5ec-4eb2350f17a1","system_id":"levelo_inurba_marseille","lat":43.298681,"lon":5.397225,"is_reserved":false,"is_disabled":false,"rental_uris":{"android":"levelo://app?vid=5df20f7a-5b2b-435a-b5ec-4eb2350f17a1","ios":"levelo://app?vid=5df20f7a-5b2b-435a-b5ec-4eb2350f17a1"},"vehicle_type_id":"4","last_reported":1718125688,"current_range_meters":17200,"station_id":"ce4bh0h2rcd13ifvqd50","pricing_plan_id":"cebpf4jnsgd1na2vs0mg"},{"bike_id":"01339112-e9b0-4b02-80a5-7b93012f8cab","system_id":"levelo_inurba_marseille","lat":43.298681,"lon":5.397225,"is_reserved":false,"is_disabled":false,"rental_uris":{"android":"levelo://app?vid=01339112-e9b0-4b02-80a5-7b93012f8cab","ios":"levelo://app?vid=01339112-e9b0-4b02-80a5-7b93012f8cab"},"vehicle_type_id":"4","last_reported":1718125688,"current_range_meters":4400,"station_id":"ce4bh0h2rcd13ifvqd50","pricing_plan_id":"cebpf4jnsgd1na2vs0mg"},{"bike_id":"75cb302f-73a5-46f5-b5f2-9bcf5ab5d973","system_id":"levelo_inurba_marseille","lat":43.298681,"lon":5.397225,"is_reserved":false,"is_disabled":false,"rental_uris":{"android":"levelo://app?vid=75cb302f-73a5-46f5-b5f2-9bcf5ab5d973","ios":"levelo://app?vid=75cb302f-73a5-46f5-b5f2-9bcf5ab5d973"},"vehicle_type_id":"4","last_reported":1718125688,"current_range_meters":800,"station_id":"ce4bh0h2rcd13ifvqd50","pricing_plan_id":"cebpf4jnsgd1na2vs0mg"},{"bike_id":"fe35e4eb-2553-4ed8-97f2-c71e55107c64","system_id":"levelo_inurba_marseille","lat":43.295196,"lon":5.39397,"is_reserved":false,"is_disabled":false,"rental_uris":{"android":"levelo://app?vid=fe35e4eb-2553-4ed8-97f2-c71e55107c64","ios":"levelo://app?vid=fe35e4eb-2553-4ed8-97f2-c71e55107c64"},"vehicle_type_id":"4","last_reported":1718125688,"current_range_meters":12400,"station_id":"ce4bh292rcd13ifvqdf0","pricing_plan_id":"cebpf4jnsgd1na2vs0mg"},{"bike_id":"2ea0a176-3105-486f-b7d4-82d15a1e51e2","system_id":"levelo_inurba_marseille","lat":43.295196,"lon":5.39397,"is_reserved":false,"is_disabled":false,"rental_uris":{"android":"levelo://app?vid=2ea0a176-3105-486f-b7d4-82d15a1e51e2","ios":"levelo://app?vid=2ea0a176-3105-486f-b7d4-82d15a1e51e2"},"vehicle_type_id":"4","last_reported":1718125688,"current_range_meters":0,"station_id":"ce4bh292rcd13ifvqdf0","pricing_plan_id":"cebpf4jnsgd1na2vs0mg"},{"bike_id":"1f7ed2f3-913f-4c34-bd2a-5a084652f05c","system_id":"levelo_inurba_marseille","lat":43.30424,"lon":5.40133,"is_reserved":false,"is_disabled":false,"rental_uris":{"android":"levelo://app?vid=1f7ed2f3-913f-4c34-bd2a-5a084652f05c","ios":"levelo://app?vid=1f7ed2f3-913f-4c34-bd2a-5a084652f05c"},"vehicle_type_id":"4","last_reported":1718125688,"current_range_meters":21600,"station_id":"","pricing_plan_id":"cebpf4jnsgd1na2vs0mg"},{"bike_id":"8b16d9dc-bd32-4e2e-801a-3f2e510b3844","system_id":"levelo_inurba_marseille","lat":43.288297,"lon":5.35305,"is_reserved":false,"is_disabled":false,"rental_uris":{"android":"levelo://app?vid=8b16d9dc-bd32-4e2e-801a-3f2e510b3844","ios":"levelo://app?vid=8b16d9dc-bd32-4e2e-801a-3f2e510b3844"},"vehicle_type_id":"4","last_reported":1718125688,"current_range_meters":24000,"station_id":"ce4bhbh2rcd13ifvqepg","pricing_plan_id":"cebpf4jnsgd1na2vs0mg"},{"bike_id":"0657b8f4-8df2-49b3-9e34-a3d61a4a7f06","system_id":"levelo_inurba_marseille","lat":43.28932,"lon":5.38385,"is_reserved":false,"is_disabled":false,"rental_uris":{"android":"levelo://app?vid=0657b8f4-8df2-49b3-9e34-a3d61a4a7f06","ios":"levelo://app?vid=0657b8f4-8df2-49b3-9e34-a3d61a4a7f06"},"vehicle_type_id":"4","last_reported":1718125688,"current_range_meters":0,"station_id":"ce4bh612rcd13ifvqe6g","pricing_plan_id":"cebpf4jnsgd1na2vs0mg"},{"bike_id":"96349921-21f4-4f7b-8500-1c4e4c72b3e4","system_id":"levelo_inurba_marseille","lat":43.290345,"lon":5.38646,"is_reserved":false,"is_disabled":false,"rental_uris":{"android":"levelo://app?vid=96349921-21f4-4f7b-8500-1c4e4c72b3e4","ios":"levelo://app?vid=96349921-21f4-4f7b-8500-1c4e4c72b3e4"},"vehicle_type_id":"4","last_reported":1718125688,"current_range_meters":2000,"station_id":"ce4bh4p2rcd13ifvqe0g","pricing_plan_id":"cebpf4jnsgd1na2vs0mg"},{"bike_id":"3b40509b-96a9-4985-9fee-9b765b5a1c04","system_id":"levelo_inurba_marseille","lat":43.289279,"lon":5.383896,"is_reserved":false,"is_disabled":false,"rental_uris":{"android":"levelo://app?vid=3b40509b-96a9-4985-9fee-9b765b5a1c04","ios":"levelo://app?vid=3b40509b-96a9-4985-9fee-9b765b5a1c04"},"vehicle_type_id":"4","last_reported":1718125688,"current_range_meters":0,"station_id":"ce4bh612rcd13ifvqe6g","pricing_plan_id":"cebpf4jnsgd1na2vs0mg"},{"bike_id":"cacba431-46af-4bdd-8523-6d48e3b3b60a","system_id":"levelo_inurba_marseille","lat":43.295194,"lon":5.39397,"is_reserved":false,"is_disabled":false,"rental_uris":{"android":"levelo://app?vid=cacba431-46af-4bdd-8523-6d48e3b3b60a","ios":"levelo://app?vid=cacba431-46af-4bdd-8523-6d48e3b3b60a"},"vehicle_type_id":"4","last_reported":1718125688,"current_range_meters":0,"station_id":"ce4bh292rcd13ifvqdf0","pricing_plan_id":"cebpf4jnsgd1na2vs0mg"},{"bike_id":"66a5933a-ac6c-42a2-b697-e188895aa4bb","system_id":"levelo_inurba_marseille","lat":43.28933,"lon":5.38408,"is_reserved":false,"is_disabled":false,"rental_uris":{"android":"levelo://app?vid=66a5933a-ac6c-42a2-b697-e188895aa4bb","ios":"levelo://app?vid=66a5933a-ac6c-42a2-b697-e188895aa4bb"},"vehicle_type_id":"4","last_reported":1718125688,"current_range_meters":800,"station_id":"ce4bh612rcd13ifvqe6g","pricing_plan_id":"cebpf4jnsgd1na2vs0mg"},{"bike_id":"6ee78912-8dd5-47e2-a2f1-9363eccdf366","system_id":"levelo_inurba_marseille","lat":43.290345,"lon":5.38646,"is_reserved":false,"is_disabled":false,"rental_uris":{"android":"levelo://app?vid=6ee78912-8dd5-47e2-a2f1-9363eccdf366","ios":"levelo://app?vid=6ee78912-8dd5-47e2-a2f1-9363eccdf366"},"vehicle_type_id":"4","last_reported":1718125688,"current_range_meters":13600,"station_id":"ce4bh4p2rcd13ifvqe0g","pricing_plan_id":"cebpf4jnsgd1na2vs0mg"},{"bike_id":"3eee0cce-bcd5-4dd5-b7eb-e6f0e891fb67","system_id":"levelo_inurba_marseille","lat":43.290345,"lon":5.38646,"is_reserved":false,"is_disabled":false,"rental_uris":{"android":"levelo://app?vid=3eee0cce-bcd5-4dd5-b7eb-e6f0e891fb67","ios":"levelo://app?vid=3eee0cce-bcd5-4dd5-b7eb-e6f0e891fb67"},"vehicle_type_id":"4","last_reported":1718125688,"current_range_meters":3600,"station_id":"ce4bh4p2rcd13ifvqe0g","pricing_plan_id":"cebpf4jnsgd1na2vs0mg"},{"bike_id":"dcebea53-c2cc-45a2-b133-9f401d77ff0d","system_id":"levelo_inurba_marseille","lat":43.330442,"lon":5.389148,"is_reserved":false,"is_disabled":false,"rental_uris":{"android":"levelo://app?vid=dcebea53-c2cc-45a2-b133-9f401d77ff0d","ios":"levelo://app?vid=dcebea53-c2cc-45a2-b133-9f401d77ff0d"},"vehicle_type_id":"4","last_reported":1718125688,"current_range_meters":12000,"station_id":"ce4bhr92rcd13ifvqhrg","pricing_plan_id":"cebpf4jnsgd1na2vs0mg"},{"bike_id":"40502173-ecce-4035-aea7-ca8c7a475b49","system_id":"levelo_inurba_marseille","lat":43.290345,"lon":5.38646,"is_reserved":false,"is_disabled":false,"rental_uris":{"android":"levelo://app?vid=40502173-ecce-4035-aea7-ca8c7a475b49","ios":"levelo://app?vid=40502173-ecce-4035-aea7-ca8c7a475b49"},"vehicle_type_id":"4","last_reported":1718125688,"current_range_meters":12800,"station_id":"ce4bh4p2rcd13ifvqe0g","pricing_plan_id":"cebpf4jnsgd1na2vs0mg"},{"bike_id":"9898d72e-598e-46a8-bca4-85d08c437df2","system_id":"levelo_inurba_marseille","lat":43.288258,"lon":5.352702,"is_reserved":false,"is_disabled":false,"rental_uris":{"android":"levelo://app?vid=9898d72e-598e-46a8-bca4-85d08c437df2","ios":"levelo://app?vid=9898d72e-598e-46a8-bca4-85d08c437df2"},"vehicle_type_id":"4","last_reported":1718125688,"current_range_meters":16800,"station_id":"","pricing_plan_id":"cebpf4jnsgd1na2vs0mg"},{"bike_id":"bc762fcb-dfc1-44b8-9f32-3f0a1ace75f7","system_id":"levelo_inurba_marseille","lat":43.290305,"lon":5.386516,"is_reserved":false,"is_disabled":false,"rental_uris":{"android":"levelo://app?vid=bc762fcb-dfc1-44b8-9f32-3f0a1ace75f7","ios":"levelo://app?vid=bc762fcb-dfc1-44b8-9f32-3f0a1ace75f7"},"vehicle_type_id":"4","last_reported":1718125688,"current_range_meters":0,"station_id":"ce4bh4p2rcd13ifvqe0g","pricing_plan_id":"cebpf4jnsgd1na2vs0mg"},{"bike_id":"61d64095-6f45-4426-ae7d-c500183af21d","system_id":"levelo_inurba_marseille","lat":43.28927,"lon":5.3841,"is_reserved":false,"is_disabled":false,"rental_uris":{"android":"levelo://app?vid=61d64095-6f45-4426-ae7d-c500183af21d","ios":"levelo://app?vid=61d64095-6f45-4426-ae7d-c500183af21d"},"vehicle_type_id":"4","last_reported":1718125688,"current_range_meters":0,"station_id":"ce4bh612rcd13ifvqe6g","pricing_plan_id":"cebpf4jnsgd1na2vs0mg"},{"bike_id":"c7eb285b-0745-4403-a7ca-784c418294e4","system_id":"levelo_inurba_marseille","lat":43.290336,"lon":5.386425,"is_reserved":false,"is_disabled":false,"rental_uris":{"android":"levelo://app?vid=c7eb285b-0745-4403-a7ca-784c418294e4","ios":"levelo://app?vid=c7eb285b-0745-4403-a7ca-784c418294e4"},"vehicle_type_id":"4","last_reported":1718125688,"current_range_meters":11200,"station_id":"ce4bh4p2rcd13ifvqe0g","pricing_plan_id":"cebpf4jnsgd1na2vs0mg"},{"bike_id":"9aa4b691-c1bf-4573-9716-575adc37c0e8","system_id":"levelo_inurba_marseille","lat":43.302759,"lon":5.400793,"is_reserved":false,"is_disabled":false,"rental_uris":{"android":"levelo://app?vid=9aa4b691-c1bf-4573-9716-575adc37c0e8","ios":"levelo://app?vid=9aa4b691-c1bf-4573-9716-575adc37c0e8"},"vehicle_type_id":"4","last_reported":1718125688,"current_range_meters":28400,"station_id":"ce4bgvh2rcd13ifvqcs0","pricing_plan_id":"cebpf4jnsgd1na2vs0mg"},{"bike_id":"8d088d64-ae13-4654-a037-436d768ad9d1","system_id":"levelo_inurba_marseille","lat":43.302759,"lon":5.400793,"is_reserved":false,"is_disabled":false,"rental_uris":{"android":"levelo://app?vid=8d088d64-ae13-4654-a037-436d768ad9d1","ios":"levelo://app?vid=8d088d64-ae13-4654-a037-436d768ad9d1"},"vehicle_type_id":"4","last_reported":1718125688,"current_range_meters":8000,"station_id":"ce4bgvh2rcd13ifvqcs0","pricing_plan_id":"cebpf4jnsgd1na2vs0mg"},{"bike_id":"25d38fe1-2eee-4f5c-acc4-8ccdeec09519","system_id":"levelo_inurba_marseille","lat":43.302759,"lon":5.400793,"is_reserved":false,"is_disabled":false,"rental_uris":{"android":"levelo://app?vid=25d38fe1-2eee-4f5c-acc4-8ccdeec09519","ios":"levelo://app?vid=25d38fe1-2eee-4f5c-acc4-8ccdeec09519"},"vehicle_type_id":"4","last_reported":1718125688,"current_range_meters":12400,"station_id":"ce4bgvh2rcd13ifvqcs0","pricing_plan_id":"cebpf4jnsgd1na2vs0mg"},{"bike_id":"41eb6cf1-405e-4c57-8aba-8e0307701aa8","system_id":"levelo_inurba_marseille","lat":43.289958,"lon":5.386794,"is_reserved":false,"is_disabled":false,"rental_uris":{"android":"levelo://app?vid=41eb6cf1-405e-4c57-8aba-8e0307701aa8","ios":"levelo://app?vid=41eb6cf1-405e-4c57-8aba-8e0307701aa8"},"vehicle_type_id":"4","last_reported":1718125688,"current_range_meters":0,"station_id":"ce4bh4p2rcd13ifvqe0g","pricing_plan_id":"cebpf4jnsgd1na2vs0mg"},{"bike_id":"9c56f2fb-60b4-4fe3-908c-a351fcd8fab5","system_id":"levelo_inurba_marseille","lat":43.31687,"lon":5.40469,"is_reserved":false,"is_disabled":false,"rental_uris":{"android":"levelo://app?vid=9c56f2fb-60b4-4fe3-908c-a351fcd8fab5","ios":"levelo://app?vid=9c56f2fb-60b4-4fe3-908c-a351fcd8fab5"},"vehicle_type_id":"4","last_reported":1718125688,"current_range_meters":13200,"station_id":"ce4bh012rcd13ifvqd00","pricing_plan_id":"cebpf4jnsgd1na2vs0mg"},{"bike_id":"85a799dd-c33a-4ceb-938c-3bf3fbe117e6","system_id":"levelo_inurba_marseille","lat":43.316999,"lon":5.404708,"is_reserved":false,"is_disabled":false,"rental_uris":{"android":"levelo://app?vid=85a799dd-c33a-4ceb-938c-3bf3fbe117e6","ios":"levelo://app?vid=85a799dd-c33a-4ceb-938c-3bf3fbe117e6"},"vehicle_type_id":"4","last_reported":1718125688,"current_range_meters":27200,"station_id":"ce4bh012rcd13ifvqd00","pricing_plan_id":"cebpf4jnsgd1na2vs0mg"},{"bike_id":"25b857eb-ba2b-446c-8d26-8292d43a075a","system_id":"levelo_inurba_marseille","lat":43.291994,"lon":5.392907,"is_reserved":false,"is_disabled":false,"rental_uris":{"android":"levelo://app?vid=25b857eb-ba2b-446c-8d26-8292d43a075a","ios":"levelo://app?vid=25b857eb-ba2b-446c-8d26-8292d43a075a"},"vehicle_type_id":"4","last_reported":1718125688,"current_range_meters":0,"station_id":"ce4bh192rcd13ifvqdd0","pricing_plan_id":"cebpf4jnsgd1na2vs0mg"},{"bike_id":"688634d9-ce1e-4362-a687-1d125481cd2c","system_id":"levelo_inurba_marseille","lat":43.284538,"lon":5.358657,"is_reserved":false,"is_disabled":false,"rental_uris":{"android":"levelo://app?vid=688634d9-ce1e-4362-a687-1d125481cd2c","ios":"levelo://app?vid=688634d9-ce1e-4362-a687-1d125481cd2c"},"vehicle_type_id":"4","last_reported":1718125688,"current_range_meters":19200,"station_id":"ce4bhah2rcd13ifvqei0","pricing_plan_id":"cebpf4jnsgd1na2vs0mg"},{"bike_id":"d785ad48-11ca-4e85-a913-7aeb9d91e357","system_id":"levelo_inurba_marseille","lat":43.294314,"lon":5.397498,"is_reserved":false,"is_disabled":false,"rental_uris":{"android":"levelo://app?vid=d785ad48-11ca-4e85-a913-7aeb9d91e357","ios":"levelo://app?vid=d785ad48-11ca-4e85-a913-7aeb9d91e357"},"vehicle_type_id":"4","last_reported":1718125688,"current_range_meters":17200,"station_id":"ce4bh3h2rcd13ifvqdo0","pricing_plan_id":"cebpf4jnsgd1na2vs0mg"},{"bike_id":"18379b9d-639e-4189-984d-a74cf59b2669","system_id":"levelo_inurba_marseille","lat":43.284538,"lon":5.358657,"is_reserved":false,"is_disabled":false,"rental_uris":{"android":"levelo://app?vid=18379b9d-639e-4189-984d-a74cf59b2669","ios":"levelo://app?vid=18379b9d-639e-4189-984d-a74cf59b2669"},"vehicle_type_id":"4","last_reported":1718125688,"current_range_meters":9200,"station_id":"ce4bhah2rcd13ifvqei0","pricing_plan_id":"cebpf4jnsgd1na2vs0mg"},{"bike_id":"180ecf59-ee35-48ae-85e5-384b16c3b888","system_id":"levelo_inurba_marseille","lat":43.284625,"lon":5.358843,"is_reserved":false,"is_disabled":false,"rental_uris":{"android":"levelo://app?vid=180ecf59-ee35-48ae-85e5-384b16c3b888","ios":"levelo://app?vid=180ecf59-ee35-48ae-85e5-384b16c3b888"},"vehicle_type_id":"4","last_reported":1718125688,"current_range_meters":17600,"station_id":"ce4bhah2rcd13ifvqei0","pricing_plan_id":"cebpf4jnsgd1na2vs0mg"},{"bike_id":"fb1435c2-44b5-45d4-9520-dbf4cee3b66b","system_id":"levelo_inurba_marseille","lat":43.294314,"lon":5.397498,"is_reserved":false,"is_disabled":false,"rental_uris":{"android":"levelo://app?vid=fb1435c2-44b5-45d4-9520-dbf4cee3b66b","ios":"levelo://app?vid=fb1435c2-44b5-45d4-9520-dbf4cee3b66b"},"vehicle_type_id":"4","last_reported":1718125688,"current_range_meters":3200,"station_id":"ce4bh3h2rcd13ifvqdo0","pricing_plan_id":"cebpf4jnsgd1na2vs0mg"},{"bike_id":"24943be4-2fe2-4f13-a9f3-f5175ddb5ce0","system_id":"levelo_inurba_marseille","lat":43.284562,"lon":5.358871,"is_reserved":false,"is_disabled":false,"rental_uris":{"android":"levelo://app?vid=24943be4-2fe2-4f13-a9f3-f5175ddb5ce0","ios":"levelo://app?vid=24943be4-2fe2-4f13-a9f3-f5175ddb5ce0"},"vehicle_type_id":"4","last_reported":1718125688,"current_range_meters":31200,"station_id":"ce4bhah2rcd13ifvqei0","pricing_plan_id":"cebpf4jnsgd1na2vs0mg"},{"bike_id":"9ff5bce5-7957-4ee9-8b98-f9790ef700bd","system_id":"levelo_inurba_marseille","lat":43.28632,"lon":5.35123,"is_reserved":false,"is_disabled":false,"rental_uris":{"android":"levelo://app?vid=9ff5bce5-7957-4ee9-8b98-f9790ef700bd","ios":"levelo://app?vid=9ff5bce5-7957-4ee9-8b98-f9790ef700bd"},"vehicle_type_id":"4","last_reported":1718125688,"current_range_meters":2000,"station_id":"ce4bhch2rcd13ifvqeug","pricing_plan_id":"cebpf4jnsgd1na2vs0mg"},{"bike_id":"27c06580-a715-4d00-bdb5-48e0e49f8c73","system_id":"levelo_inurba_marseille","lat":43.28714,"lon":5.38523,"is_reserved":false,"is_disabled":false,"rental_uris":{"android":"levelo://app?vid=27c06580-a715-4d00-bdb5-48e0e49f8c73","ios":"levelo://app?vid=27c06580-a715-4d00-bdb5-48e0e49f8c73"},"vehicle_type_id":"4","last_reported":1718125688,"current_range_meters":0,"station_id":"","pricing_plan_id":"cebpf4jnsgd1na2vs0mg"},{"bike_id":"19988bb0-b68d-4161-b2f2-85cb5bfb5aae","system_id":"levelo_inurba_marseille","lat":43.294314,"lon":5.397498,"is_reserved":false,"is_disabled":false,"rental_uris":{"android":"levelo://app?vid=19988bb0-b68d-4161-b2f2-85cb5bfb5aae","ios":"levelo://app?vid=19988bb0-b68d-4161-b2f2-85cb5bfb5aae"},"vehicle_type_id":"4","last_reported":1718125688,"current_range_meters":400,"station_id":"ce4bh3h2rcd13ifvqdo0","pricing_plan_id":"cebpf4jnsgd1na2vs0mg"},{"bike_id":"6d586428-3c6a-4293-9035-67545ad0df4e","system_id":"levelo_inurba_marseille","lat":43.286246,"lon":5.351109,"is_reserved":false,"is_disabled":false,"rental_uris":{"android":"levelo://app?vid=6d586428-3c6a-4293-9035-67545ad0df4e","ios":"levelo://app?vid=6d586428-3c6a-4293-9035-67545ad0df4e"},"vehicle_type_id":"4","last_reported":1718125688,"current_range_meters":1600,"station_id":"ce4bhch2rcd13ifvqeug","pricing_plan_id":"cebpf4jnsgd1na2vs0mg"},{"bike_id":"5958aaea-c281-4359-ac3a-f33fa28cd975","system_id":"levelo_inurba_marseille","lat":43.285848,"lon":5.350787,"is_reserved":false,"is_disabled":false,"rental_uris":{"android":"levelo://app?vid=5958aaea-c281-4359-ac3a-f33fa28cd975","ios":"levelo://app?vid=5958aaea-c281-4359-ac3a-f33fa28cd975"},"vehicle_type_id":"4","last_reported":1718125688,"current_range_meters":5600,"station_id":"ce4bhch2rcd13ifvqeug","pricing_plan_id":"cebpf4jnsgd1na2vs0mg"},