{"last_updated":1735333686,"ttl":60,"version":"2.2","data":{"bikes":[{"bike_id":"a9b5fd0e-1baf-45fb-bc8f-7ad95357031b","system_id":"levelo_inurba_marseille","lat":43.29931,"lon":5.37471,"is_reserved":false,"is_disabled":false,"rental_uris":{"android":"levelo://app?vid=a9b5fd0e-1baf-45fb-bc8f-7ad95357031b","ios":"levelo://app?vid=a9b5fd0e-1baf-45fb-bc8f-7ad95357031b"},"vehicle_type_id":"4","last_reported":1735333686,"current_range_meters":11600,"station_id":"ce4bgjh2rcd13ifvqbg0","pricing_plan_id":"cebpf4jnsgd1na2vs0mg"},{"bike_id":"5dfcc53f-a494-4b90-a978-9fd0de924f9a","system_id":"levelo_inurba_marseille","lat":43.28852,"lon":5.3585,"is_reserved":false,"is_disabled":false,"rental_uris":{"android":"levelo://app?vid=5dfcc53f-a494-4b90-a978-9fd0de924f9a","ios":"levelo://app?vid=5dfcc53f-a494-4b90-a978-9fd0de924f9a"},"vehicle_type_id":"4","last_reported":1735333686,"current_range_meters":30000,"station_id":"ce4bhb12rcd13ifvqem0","pricing_plan_id":"cebpf4jnsgd1na2vs0mg"},{"bike_id":"556af4d8-2146-4b94-a7be-a9b39bd4549b","system_id":"levelo_inurba_marseille","lat":43.28103,"lon":5.37855,"is_reserved":false,"is_disabled":false,"rental_uris":{"android":"levelo://app?vid=556af4d8-2146-4b94-a7be-a9b39bd4549b","ios":"levelo://app?vid=556af4d8-2146-4b94-a7be-a9b39bd4549b"},"vehicle_type_id":"4","last_reported":1735333686,"current_range_meters":31200,"station_id":"ce4bha12rcd13ifvqee0","pricing_plan_id":"cebpf4jnsgd1na2vs0mg"},{"bike_id":"123965bc-dfee-43e5-bf4c-485719347629","system_id":"levelo_inurba_marseille","lat":43.23961,"lon":5.36626,"is_reserved":false,"is_disabled":false,"rental_uris":{"android":"levelo://app?vid=123965bc-dfee-43e5-bf4c-485719347629","ios":"levelo://app?vid=123965bc-dfee-43e5-bf4c-485719347629"},"vehicle_type_id":"4","last_reported":1735333686,"current_range_meters":32000,"station_id":"ce4bhi12rcd13ifvqfp0","pricing_plan_id":"cebpf4jnsgd1na2vs0mg"},{"bike_id":"43018bbb-f5df-4f0b-b23d-13d1a6852495","system_id":"levelo_inurba_marseille","lat":43.28944,"lon":5.36621,"is_reserved":false,"is_disabled":false,"rental_uris":{"android":"levelo://app?vid=43018bbb-f5df-4f0b-b23d-13d1a6852495","ios":"levelo://app?vid=43018bbb-f5df-4f0b-b23d-13d1a6852495"},"vehicle_type_id":"4","last_reported":1735333686,"current_range_meters":38800,"station_id":"ce4bhap2rcd13ifvqek0","pricing_plan_id":"cebpf4jnsgd1na2vs0mg"},{"bike_id":"4def4882-e804-4c7f-ad72-1d6041f29fab","system_id":"levelo_inurba_marseille","lat":43.289481,"lon":5.366403,"is_reserved":false,"is_disabled":false,"rental_uris":{"android":"levelo://app?vid=4def4882-e804-4c7f-ad72-1d6041f29fab","ios":"levelo://app?vid=4def4882-e804-4c7f-ad72-1d6041f29fab"},"vehicle_type_id":"4","last_reported":1735333686,"current_range_meters":24800,"station_id":"ce4bhap2rcd13ifvqek0","pricing_plan_id":"cebpf4jnsgd1na2vs0mg"},{"bike_id":"17467958-a151-40f2-98e4-bb65ea00e49d","system_id":"levelo_inurba_marseille","lat":43.27952,"lon":5.41049,"is_reserved":false,"is_disabled":false,"rental_uris":{"android":"levelo://app?vid=17467958-a151-40f2-98e4-bb65ea00e49d","ios":"levelo://app?vid=17467958-a151-40f2-98e4-bb65ea00e49d"},"vehicle_type_id":"4","last_reported":1735333686,"current_range_meters":38800,"station_id":"ce4bhnp2rcd13ifvqh0g","pricing_plan_id":"cebpf4jnsgd1na2vs0mg"},{"bike_id":"7db7c03c-b4e3-4ed1-83ef-2ed91eff7f64","system_id":"levelo_inurba_marseille","lat":43.32365,"lon":5.38884,"is_reserved":false,"is_disabled":false,"rental_uris":{"android":"levelo://app?vid=7db7c03c-b4e3-4ed1-83ef-2ed91eff7f64","ios":"levelo://app?vid=7db7c03c-b4e3-4ed1-83ef-2ed91eff7f64"},"vehicle_type_id":"4","last_reported":1735333686,"current_range_meters":27200,"station_id":"ce4bhqp2rcd13ifvqhog","pricing_plan_id":"cebpf4jnsgd1na2vs0mg"},{"bike_id":"3991aac2-ec7f-43c8-801f-23e11845f2d6","system_id":"levelo_inurba_marseille","lat":43.28161,"lon":5.42628,"is_reserved":false,"is_disabled":false,"rental_uris":{"android":"levelo://app?vid=3991aac2-ec7f-43c8-801f-23e11845f2d6","ios":"levelo://app?vid=3991aac2-ec7f-43c8-801f-23e11845f2d6"},"vehicle_type_id":"4","last_reported":1735333686,"current_range_meters":38800,"station_id":"ce4bhnh2rcd13ifvqgug","pricing_plan_id":"cebpf4jnsgd1na2vs0mg"},{"bike_id":"272b0992-bef6-4667-99ce-688fba969443","system_id":"levelo_inurba_marseille","lat":43.25937,"lon":5.4091,"is_reserved":false,"is_disabled":false,"rental_uris":{"android":"levelo://app?vid=272b0992-bef6-4667-99ce-688fba969443","ios":"levelo://app?vid=272b0992-bef6-4667-99ce-688fba969443"},"vehicle_type_id":"4","last_reported":1735333686,"current_range_meters":32800,"station_id":"ce4bhm92rcd13ifvqglg","pricing_plan_id":"cebpf4jnsgd1na2vs0mg"},{"bike_id":"aa910906-3ca2-4107-80e1-4fe46d1472a6","system_id":"levelo_inurba_marseille","lat":43.32023,"lon":5.41563,"is_reserved":false,"is_disabled":false,"rental_uris":{"android":"levelo://app?vid=aa910906-3ca2-4107-80e1-4fe46d1472a6","ios":"levelo://app?vid=aa910906-3ca2-4107-80e1-4fe46d1472a6"},"vehicle_type_id":"4","last_reported":1735333686,"current_range_meters":33600,"station_id":"ce4bhq92rcd13ifvqhkg","pricing_plan_id":"cebpf4jnsgd1na2vs0mg"},{"bike_id":"4b806c16-fd23-4838-bb41-faefc00cf51e","system_id":"levelo_inurba_marseille","lat":43.29309,"lon":5.37182,"is_reserved":false,"is_disabled":false,"rental_uris":{"android":"levelo://app?vid=4b806c16-fd23-4838-bb41-faefc00cf51e","ios":"levelo://app?vid=4b806c16-fd23-4838-bb41-faefc00cf51e"},"vehicle_type_id":"4","last_reported":1735333686,"current_range_meters":24000,"station_id":"ce4bgh92rcd13ifvqb40","pricing_plan_id":"cebpf4jnsgd1na2vs0mg"},{"bike_id":"0cca2495-d1f9-4e9d-9070-865090e49b53","system_id":"levelo_inurba_marseille","lat":43.293,"lon":5.37446,"is_reserved":false,"is_disabled":false,"rental_uris":{"android":"levelo://app?vid=0cca2495-d1f9-4e9d-9070-865090e49b53","ios":"levelo://app?vid=0cca2495-d1f9-4e9d-9070-865090e49b53"},"vehicle_type_id":"4","last_reported":1735333686,"current_range_meters":31200,"station_id":"ce4bgi12rcd13ifvqb70","pricing_plan_id":"cebpf4jnsgd1na2vs0mg"},{"bike_id":"cb35f7d8-c204-4a7f-801e-8a8f1f547ed7","system_id":"levelo_inurba_marseille","lat":43.27209,"lon":5.39191,"is_reserved":false,"is_disabled":false,"rental_uris":{"android":"levelo://app?vid=cb35f7d8-c204-4a7f-801e-8a8f1f547ed7","ios":"levelo://app?vid=cb35f7d8-c204-4a7f-801e-8a8f1f547ed7"},"vehicle_type_id":"4","last_reported":1735333686,"current_range_meters":38800,"station_id":"ce4bhhp2rcd13ifvqfm0","pricing_plan_id":"cebpf4jnsgd1na2vs0mg"},{"bike_id":"1d47302b-4de5-4654-a89f-a5df5ae3ab86","system_id":"levelo_inurba_marseille","lat":43.29537,"lon":5.38542,"is_reserved":false,"is_disabled":false,"rental_uris":{"android":"levelo://app?vid=1d47302b-4de5-4654-a89f-a5df5ae3ab86","ios":"levelo://app?vid=1d47302b-4de5-4654-a89f-a5df5ae3ab86"},"vehicle_type_id":"4","last_reported":1735333686,"current_range_meters":36400,"station_id":"ce4bgih2rcd13ifvqba0","pricing_plan_id":"cebpf4jnsgd1na2vs0mg"},{"bike_id":"4b0fd93f-ab44-4d17-9609-4abb396d054c","system_id":"levelo_inurba_marseille","lat":43.2319,"lon":5.35549,"is_reserved":false,"is_disabled":false,"rental_uris":{"android":"levelo://app?vid=4b0fd93f-ab44-4d17-9609-4abb396d054c","ios":"levelo://app?vid=4b0fd93f-ab44-4d17-9609-4abb396d054c"},"vehicle_type_id":"4","last_reported":1735333686,"current_range_meters":38400,"station_id":"ce4bhu92rcd13ifvqi70","pricing_plan_id":"cebpf4jnsgd1na2vs0mg"},{"bike_id":"15e428a4-dc06-46cf-93cd-31f975a6ed67","system_id":"levelo_inurba_marseille","lat":43.24648,"lon":5.38899,"is_reserved":false,"is_disabled":false,"rental_uris":{"android":"levelo://app?vid=15e428a4-dc06-46cf-93cd-31f975a6ed67","ios":"levelo://app?vid=15e428a4-dc06-46cf-93cd-31f975a6ed67"},"vehicle_type_id":"4","last_reported":1735333686,"current_range_meters":37600,"station_id":"ce4bhg12rcd13ifvqf60","pricing_plan_id":"cebpf4jnsgd1na2vs0mg"},{"bike_id":"7f7c7719-a620-482d-8e3b-d8406506e1e8","system_id":"levelo_inurba_marseille","lat":43.29619,"lon":5.37721,"is_reserved":false,"is_disabled":false,"rental_uris":{"android":"levelo://app?vid=7f7c7719-a620-482d-8e3b-d8406506e1e8","ios":"levelo://app?vid=7f7c7719-a620-482d-8e3b-d8406506e1e8"},"vehicle_type_id":"4","last_reported":1735333686,"current_range_meters":32000,"station_id":"ce4bgi92rcd13ifvqb90","pricing_plan_id":"cebpf4jnsgd1na2vs0mg"},{"bike_id":"25e0f3da-f062-4c04-aa97-3f61720746ca","system_id":"levelo_inurba_marseille","lat":43.29537,"lon":5.38535,"is_reserved":false,"is_disabled":false,"rental_uris":{"android":"levelo://app?vid=25e0f3da-f062-4c04-aa97-3f61720746ca","ios":"levelo://app?vid=25e0f3da-f062-4c04-aa97-3f61720746ca"},"vehicle_type_id":"4","last_reported":1735333686,"current_range_meters":39200,"station_id":"ce4bgih2rcd13ifvqba0","pricing_plan_id":"cebpf4jnsgd1na2vs0mg"},{"bike_id":"ac17fd9e-9de7-4b0c-9b44-8e3d7d1323a2","system_id":"levelo_inurba_marseille","lat":43.29263,"lon":5.3844,"is_reserved":false,"is_disabled":false,"rental_uris":{"android":"levelo://app?vid=ac17fd9e-9de7-4b0c-9b44-8e3d7d1323a2","ios":"levelo://app?vid=ac17fd9e-9de7-4b0c-9b44-8e3d7d1323a2"},"vehicle_type_id":"4","last_reported":1735333686,"current_range_meters":38800,"station_id":"ce4bh692rcd13ifvqea0","pricing_plan_id":"cebpf4jnsgd1na2vs0mg"},{"bike_id":"3fcb2f6f-39f4-445d-a829-8626c3812c7e","system_id":"levelo_inurba_marseille","lat":43.27674,"lon":5.38892,"is_reserved":false,"is_disabled":false,"rental_uris":{"android":"levelo://app?vid=3fcb2f6f-39f4-445d-a829-8626c3812c7e","ios":"levelo://app?vid=3fcb2f6f-39f4-445d-a829-8626c3812c7e"},"vehicle_type_id":"4","last_reported":1735333686,"current_range_meters":24800,"station_id":"ce4bhi12rcd13ifvqfo0","pricing_plan_id":"cebpf4jnsgd1na2vs0mg"},{"bike_id":"54e82adf-653a-40bc-8212-b0e67d34d16f","system_id":"levelo_inurba_marseille","lat":43.29934,"lon":5.36549,"is_reserved":false,"is_disabled":false,"rental_uris":{"android":"levelo://app?vid=54e82adf-653a-40bc-8212-b0e67d34d16f","ios":"levelo://app?vid=54e82adf-653a-40bc-8212-b0e67d34d16f"},"vehicle_type_id":"4","last_reported":1735333686,"current_range_meters":38800,"station_id":"ce4bgm92rcd13ifvqbr0","pricing_plan_id":"cebpf4jnsgd1na2vs0mg"},{"bike_id":"e57872dc-3b17-4aba-8463-fda82454acee","system_id":"levelo_inurba_marseille","lat":43.31067,"lon":5.38352,"is_reserved":false,"is_disabled":false,"rental_uris":{"android":"levelo://app?vid=e57872dc-3b17-4aba-8463-fda82454acee","ios":"levelo://app?vid=e57872dc-3b17-4aba-8463-fda82454acee"},"vehicle_type_id":"4","last_reported":1735333686,"current_range_meters":22000,"station_id":"ce4bgv92rcd13ifvqcr0","pricing_plan_id":"cebpf4jnsgd1na2vs0mg"},{"bike_id":"857344dd-6be1-4d34-90e7-6f62afbbef2e","system_id":"levelo_inurba_marseille","lat":43.32104,"lon":5.3678,"is_reserved":false,"is_disabled":false,"rental_uris":{"android":"levelo://app?vid=857344dd-6be1-4d34-90e7-6f62afbbef2e","ios":"levelo://app?vid=857344dd-6be1-4d34-90e7-6f62afbbef2e"},"vehicle_type_id":"4","last_reported":1735333686,"current_range_meters":36400,"station_id":"ce4bhrh2rcd13ifvqhug","pricing_plan_id":"cebpf4jnsgd1na2vs0mg"},{"bike_id":"dbcb7936-38df-4994-a253-29b424e6f6e1","system_id":"levelo_inurba_marseille","lat":43.29523,"lon":5.37513,"is_reserved":false,"is_disabled":false,"rental_uris":{"android":"levelo://app?vid=dbcb7936-38df-4994-a253-29b424e6f6e1","ios":"levelo://app?vid=dbcb7936-38df-4994-a253-29b424e6f6e1"},"vehicle_type_id":"4","last_reported":1735333686,"current_range_meters":29600,"station_id":"ce4bgkp2rcd13ifvqbmg","pricing_plan_id":"cebpf4jnsgd1na2vs0mg"},{"bike_id":"b03b300c-c4c3-4b60-abf6-39270c6eb042","system_id":"levelo_inurba_marseille","lat":43.29602,"lon":5.37716,"is_reserved":false,"is_disabled":false,"rental_uris":{"android":"levelo://app?vid=b03b300c-c4c3-4b60-abf6-39270c6eb042","ios":"levelo://app?vid=b03b300c-c4c3-4b60-abf6-39270c6eb042"},"vehicle_type_id":"4","last_reported":1735333686,"current_range_meters":28000,"station_id":"ce4bgi92rcd13ifvqb90","pricing_plan_id":"cebpf4jnsgd1na2vs0mg"},{"bike_id":"982e21d4-e971-4b77-a19a-00bb26b68082","system_id":"levelo_inurba_marseille","lat":43.29261,"lon":5.38448,"is_reserved":false,"is_disabled":false,"rental_uris":{"android":"levelo://app?vid=982e21d4-e971-4b77-a19a-00bb26b68082","ios":"levelo://app?vid=982e21d4-e971-4b77-a19a-00bb26b68082"},"vehicle_type_id":"4","last_reported":1735333686,"current_range_meters":38800,"station_id":"ce4bh692rcd13ifvqea0","pricing_plan_id":"cebpf4jnsgd1na2vs0mg"},{"bike_id":"1bd5c776-e736-424a-ba1d-5e52ff178c32","system_id":"levelo_inurba_marseille","lat":43.30645,"lon":5.40092,"is_reserved":false,"is_disabled":false,"rental_uris":{"android":"levelo://app?vid=1bd5c776-e736-424a-ba1d-5e52ff178c32","ios":"levelo://app?vid=1bd5c776-e736-424a-ba1d-5e52ff178c32"},"vehicle_type_id":"4","last_reported":1735333686,"current_range_meters":24000,"station_id":"ce4bh112rcd13ifvqda0","pricing_plan_id":"cebpf4jnsgd1na2vs0mg"},{"bike_id":"f211b7a7-4ea2-43fa-9335-360ff6ef2067","system_id":"levelo_inurba_marseille","lat":43.24077,"lon":5.37748,"is_reserved":false,"is_disabled":false,"rental_uris":{"android":"levelo://app?vid=f211b7a7-4ea2-43fa-9335-360ff6ef2067","ios":"levelo://app?vid=f211b7a7-4ea2-43fa-9335-360ff6ef2067"},"vehicle_type_id":"4","last_reported":1735333686,"current_range_meters":29600,"station_id":"ce4bhnp2rcd13ifvqgvg","pricing_plan_id":"cebpf4jnsgd1na2vs0mg"},{"bike_id":"46f48fbb-7af4-4590-9b7a-994204b296e1","system_id":"levelo_inurba_marseille","lat":43.28151,"lon":5.42641,"is_reserved":false,"is_disabled":false,"rental_uris":{"android":"levelo://app?vid=46f48fbb-7af4-4590-9b7a-994204b296e1","ios":"levelo://app?vid=46f48fbb-7af4-4590-9b7a-994204b296e1"},"vehicle_type_id":"4","last_reported":1735333686,"current_range_meters":32800,"station_id":"ce4bhnh2rcd13ifvqgug","pricing_plan_id":"cebpf4jnsgd1na2vs0mg"},{"bike_id":"ad66ce9d-e2b2-4064-ae7f-fe87403c632b","system_id":"levelo_inurba_marseille","lat":43.23065,"lon":5.354928,"is_reserved":false,"is_disabled":false,"rental_uris":{"android":"levelo://app?vid=ad66ce9d-e2b2-4064-ae7f-fe87403c632b","ios":"levelo://app?vid=ad66ce9d-e2b2-4064-ae7f-fe87403c632b"},"vehicle_type_id":"4","last_reported":1735333686,"current_range_meters":24400,"station_id":"cpo3342slgdg3j2ifvpg","pricing_plan_id":"cebpf4jnsgd1na2vs0mg"},{"bike_id":"5de9296d-ee9d-4943-a676-ae96016a6d44","system_id":"levelo_inurba_marseille","lat":43.29418,"lon":5.38631,"is_reserved":false,"is_disabled":false,"rental_uris":{"android":"levelo://app?vid=5de9296d-ee9d-4943-a676-ae96016a6d44","ios":"levelo://app?vid=5de9296d-ee9d-4943-a676-ae96016a6d44"},"vehicle_type_id":"4","last_reported":1735333686,"current_range_meters":36400,"station_id":"ce4bh2h2rcd13ifvqdh0","pricing_plan_id":"cebpf4jnsgd1na2vs0mg"},{"bike_id":"0b87cffb-9537-402f-8efe-cb3f054c3cf8","system_id":"levelo_inurba_marseille","lat":43.2406,"lon":5.37764,"is_reserved":false,"is_disabled":false,"rental_uris":{"android":"levelo://app?vid=0b87cffb-9537-402f-8efe-cb3f054c3cf8","ios":"levelo://app?vid=0b87cffb-9537-402f-8efe-cb3f054c3cf8"},"vehicle_type_id":"4","last_reported":1735333686,"current_range_meters":39200,"station_id":"ce4bhnp2rcd13ifvqgvg","pricing_plan_id":"cebpf4jnsgd1na2vs0mg"},{"bike_id":"413174f7-a006-4633-8028-e6d101a01991","system_id":"levelo_inurba_marseille","lat":43.29528,"lon":5.37501,"is_reserved":false,"is_disabled":false,"rental_uris":{"android":"levelo://app?vid=413174f7-a006-4633-8028-e6d101a01991","ios":"levelo://app?vid=413174f7-a006-4633-8028-e6d101a01991"},"vehicle_type_id":"4","last_reported":1735333686,"current_range_meters":38000,"station_id":"ce4bgkp2rcd13ifvqbmg","pricing_plan_id":"cebpf4jnsgd1na2vs0mg"},{"bike_id":"a47bb2d0-a9f2-4b9e-a94e-439a072d8494","system_id":"levelo_inurba_marseille","lat":43.30815,"lon":5.38167,"is_reserved":false,"is_disabled":false,"rental_uris":{"android":"levelo://app?vid=a47bb2d0-a9f2-4b9e-a94e-439a072d8494","ios":"levelo://app?vid=a47bb2d0-a9f2-4b9e-a94e-439a072d8494"},"vehicle_type_id":"4","last_reported":1735333686,"current_range_meters":34800,"station_id":"ce4bgt12rcd13ifvqce0","pricing_plan_id":"cebpf4jnsgd1na2vs0mg"},{"bike_id":"d0533ccb-11ce-46dc-9cca-daa9f7a4985a","system_id":"levelo_inurba_marseille","lat":43.29544,"lon":5.42269,"is_reserved":false,"is_disabled":false,"rental_uris":{"android":"levelo://app?vid=d0533ccb-11ce-46dc-9cca-daa9f7a4985a","ios":"levelo://app?vid=d0533ccb-11ce-46dc-9cca-daa9f7a4985a"},"vehicle_type_id":"4","last_reported":1735333686,"current_range_meters":38800,"station_id":"ce4bhph2rcd13ifvqhdg","pricing_plan_id":"cebpf4jnsgd1na2vs0mg"},{"bike_id":"00c39578-5e8e-4d22-bfbd-68ac83c64178","system_id":"levelo_inurba_marseille","lat":43.29541,"lon":5.38533,"is_reserved":false,"is_disabled":false,"rental_uris":{"android":"levelo://app?vid=00c39578-5e8e-4d22-bfbd-68ac83c64178","ios":"levelo://app?vid=00c39578-5e8e-4d22-bfbd-68ac83c64178"},"vehicle_type_id":"4","last_reported":1735333686,"current_range_meters":37600,"station_id":"ce4bgih2rcd13ifvqba0","pricing_plan_id":"cebpf4jnsgd1na2vs0mg"},{"bike_id":"9df6a86e-973a-4959-9331-7febd711fb7d","system_id":"levelo_inurba_marseille","lat":43.28936,"lon":5.36631,"is_reserved":false,"is_disabled":false,"rental_uris":{"android":"levelo://app?vid=9df6a86e-973a-4959-9331-7febd711fb7d","ios":"levelo://app?vid=9df6a86e-973a-4959-9331-7febd711fb7d"},"vehicle_type_id":"4","last_reported":1735333686,"current_range_meters":38800,"station_id":"ce4bhap2rcd13ifvqek0","pricing_plan_id":"cebpf4jnsgd1na2vs0mg"},{"bike_id":"d91f1d8d-66ec-4a8f-b241-0944dbc60775","system_id":"levelo_inurba_marseille","lat":43.2772,"lon":5.38902,"is_reserved":false,"is_disabled":false,"rental_uris":{"android":"levelo://app?vid=d91f1d8d-66ec-4a8f-b241-0944dbc60775","ios":"levelo://app?vid=d91f1d8d-66ec-4a8f-b241-0944dbc60775"},"vehicle_type_id":"4","last_reported":1735333686,"current_range_meters":20400,"station_id":"","pricing_plan_id":"cebpf4jnsgd1na2vs0mg"},{"bike_id":"b32fb18a-c8a8-4404-98aa-9a585746a89d","system_id":"levelo_inurba_marseille","lat":43.31771,"lon":5.40576,"is_reserved":false,"is_disabled":false,"rental_uris":{"android":"levelo://app?vid=b32fb18a-c8a8-4404-98aa-9a585746a89d","ios":"levelo://app?vid=b32fb18a-c8a8-4404-98aa-9a585746a89d"},"vehicle_type_id":"4","last_reported":1735333686,"current_range_meters":28000,"station_id":"","pricing_plan_id":"cebpf4jnsgd1na2vs0mg"},{"bike_id":"fb65f68e-01b9-464f-abae-a60e8b871ed3","system_id":"levelo_inurba_marseille","lat":43.27912,"lon":5.39579,"is_reserved":false,"is_disabled":false,"rental_uris":{"android":"levelo://app?vid=fb65f68e-01b9-464f-abae-a60e8b871ed3","ios":"levelo://app?vid=fb65f68e-01b9-464f-abae-a60e8b871ed3"},"vehicle_type_id":"4","last_reported":1735333686,"current_range_meters":26800,"station_id":"ce4bhf92rcd13ifvqf40","pricing_plan_id":"cebpf4jnsgd1na2vs0mg"},{"bike_id":"a61dabe4-d07f-47b2-966a-ed2cf66e5fa9","system_id":"levelo_inurba_marseille","lat":43.27982,"lon":5.41664,"is_reserved":false,"is_disabled":false,"rental_uris":{"android":"levelo://app?vid=a61dabe4-d07f-47b2-966a-ed2cf66e5fa9","ios":"levelo://app?vid=a61dabe4-d07f-47b2-966a-ed2cf66e5fa9"},"vehicle_type_id":"4","last_reported":1735333686,"current_range_meters":28800,"station_id":"ce4bho12rcd13ifvqh1g","pricing_plan_id":"cebpf4jnsgd1na2vs0mg"},{"bike_id":"caab34a4-5264-4b72-a12f-e55159fe93b6","system_id":"levelo_inurba_marseille","lat":43.2709,"lon":5.42282,"is_reserved":false,"is_disabled":false,"rental_uris":{"android":"levelo://app?vid=caab34a4-5264-4b72-a12f-e55159fe93b6","ios":"levelo://app?vid=caab34a4-5264-4b72-a12f-e55159fe93b6"},"vehicle_type_id":"4","last_reported":1735333686,"current_range_meters":32800,"station_id":"ce4bhk92rcd13ifvqgb0","pricing_plan_id":"cebpf4jnsgd1na2vs0mg"},{"bike_id":"8945d0ae-de7c-47f8-bcb0-1536c9716097","system_id":"levelo_inurba_marseille","lat":43.29524,"lon":5.39025,"is_reserved":false,"is_disabled":true,"rental_uris":{"android":"levelo://app?vid=8945d0ae-de7c-47f8-bcb0-1536c9716097","ios":"levelo://app?vid=8945d0ae-de7c-47f8-bcb0-1536c9716097"},"vehicle_type_id":"4","last_reported":1735333686,"current_range_meters":32800,"station_id":"ce4bh3p2rcd13ifvqdp0","pricing_plan_id":"cebpf4jnsgd1na2vs0mg"},{"bike_id":"fe50a5ce-c05b-410c-af59-7143f0371395","system_id":"levelo_inurba_marseille","lat":43.301428,"lon":5.398575,"is_reserved":false,"is_disabled":false,"rental_uris":{"android":"levelo://app?vid=fe50a5ce-c05b-410c-af59-7143f0371395","ios":"levelo://app?vid=fe50a5ce-c05b-410c-af59-7143f0371395"},"vehicle_type_id":"4","last_reported":1735333686,"current_range_meters":38800,"station_id":"ce4bh0h2rcd13ifvqd40","pricing_plan_id":"cebpf4jnsgd1na2vs0mg"},{"bike_id":"b0e348d3-d161-4c39-87b2-6ac56e202178","system_id":"levelo_inurba_marseille","lat":43.28078,"lon":5.39652,"is_reserved":false,"is_disabled":false,"rental_uris":{"android":"levelo://app?vid=b0e348d3-d161-4c39-87b2-6ac56e202178","ios":"levelo://app?vid=b0e348d3-d161-4c39-87b2-6ac56e202178"},"vehicle_type_id":"4","last_reported":1735333686,"current_range_meters":38800,"station_id":"ce4bho12rcd13ifvqh2g","pricing_plan_id":"cebpf4jnsgd1na2vs0mg"},{"bike_id":"2b08ca99-c6f3-4395-ab2d-aeebc3305aa4","system_id":"levelo_inurba_marseille","lat":43.3376,"lon":5.37445,"is_reserved":false,"is_disabled":false,"rental_uris":{"android":"levelo://app?vid=2b08ca99-c6f3-4395-ab2d-aeebc3305aa4","ios":"levelo://app?vid=2b08ca99-c6f3-4395-ab2d-aeebc3305aa4"},"vehicle_type_id":"4","last_reported":1735333686,"current_range_meters":36800,"station_id":"","pricing_plan_id":"cebpf4jnsgd1na2vs0mg"},{"bike_id":"54512a6c-6aa0-4c70-b645-05855cc084ea","system_id":"levelo_inurba_marseille","lat":43.32364,"lon":5.38879,"is_reserved":false,"is_disabled":false,"rental_uris":{"android":"levelo://app?vid=54512a6c-6aa0-4c70-b645-05855cc084ea","ios":"levelo://app?vid=54512a6c-6aa0-4c70-b645-05855cc084ea"},"vehicle_type_id":"4","last_reported":1735333686,"current_range_meters":31200,"station_id":"ce4bhqp2rcd13ifvqhog","pricing_plan_id":"cebpf4jnsgd1na2vs0mg"},{"bike_id":"efdc8661-a0f3-4d19-90da-c58f06d18d3a","system_id":"levelo_inurba_marseille","lat":43.30892,"lon":5.3721,"is_reserved":false,"is_disabled":false,"rental_uris":{"android":"levelo://app?vid=efdc8661-a0f3-4d19-90da-c58f06d18d3a","ios":"levelo://app?vid=efdc8661-a0f3-4d19-90da-c58f06d18d3a"},"vehicle_type_id":"4","last_reported":1735333686,"current_range_meters":27600,"station_id":"ce4bguh2rcd13ifvqckg","pricing_plan_id":"cebpf4jnsgd1na2vs0mg"},{"bike_id":"6c1477e2-60e1-4b1a-8b31-5fd2d3b266f3","system_id":"levelo_inurba_marseille","lat":43.29301,"lon":5.37461,"is_reserved":false,"is_disabled":true,"rental_uris":{"android":"levelo://app?vid=6c1477e2-60e1-4b1a-8b31-5fd2d3b266f3","ios":"levelo://app?vid=6c1477e2-60e1-4b1a-8b31-5fd2d3b266f3"},"vehicle_type_id":"4","last_reported":1735333686,"current_range_meters":18000,"station_id":"ce4bgi12rcd13ifvqb70","pricing_plan_id":"cebpf4jnsgd1na2vs0mg"},{"bike_id":"4a3d99ff-6de0-4078-b5aa-e8b02edbed66","system_id":"levelo_inurba_marseille","lat":43.26215,"lon":5.37444,"is_reserved":false,"is_disabled":false,"rental_uris":{"android":"levelo://app?vid=4a3d99ff-6de0-4078-b5aa-e8b02edbed66","ios":"levelo://app?vid=4a3d99ff-6de0-4078-b5aa-e8b02edbed66"},"vehicle_type_id":"4","last_reported":1735333686,"current_range_meters":26000,"station_id":"ce4bhgp2rcd13ifvqfc0","pricing_plan_id":"cebpf4jnsgd1na2vs0mg"},{"bike_id":"33e4c278-497a-4992-9269-3f4bd7a2ca60","system_id":"levelo_inurba_marseille","lat":43.29903,"lon":5.37472,"is_reserved":false,"is_disabled":false,"rental_uris":{"android":"levelo://app?vid=33e4c278-497a-4992-9269-3f4bd7a2ca60","ios":"levelo://app?vid=33e4c278-497a-4992-9269-3f4bd7a2ca60"},"vehicle_type_id":"4","last_reported":1735333686,"current_range_meters":38800,"station_id":"ce4bgjh2rcd13ifvqbg0","pricing_plan_id":"cebpf4jnsgd1na2vs0mg"},{"bike_id":"454d0344-486e-4331-bc83-caa2fc8d4a5e","system_id":"levelo_inurba_marseille","lat":43.25089,"lon":5.39512,"is_reserved":false,"is_disabled":false,"rental_uris":{"android":"levelo://app?vid=454d0344-486e-4331-bc83-caa2fc8d4a5e","ios":"levelo://app?vid=454d0344-486e-4331-bc83-caa2fc8d4a5e"},"vehicle_type_id":"4","last_reported":1735333686,"current_range_meters":6000,"station_id":"ce4bhm12rcd13ifvqgkg","pricing_plan_id":"cebpf4jnsgd1na2vs0mg"},{"bike_id":"4e1b440e-dc87-47f0-92e1-32a898eeb09a","system_id":"levelo_inurba_marseille","lat":43.32037,"lon":5.41564,"is_reserved":false,"is_disabled":false,"rental_uris":{"android":"levelo://app?vid=4e1b440e-dc87-47f0-92e1-32a898eeb09a","ios":"levelo://app?vid=4e1b440e-dc87-47f0-92e1-32a898eeb09a"},"vehicle_type_id":"4","last_reported":1735333686,"current_range_meters":38800,"station_id":"ce4bhq92rcd13ifvqhkg","pricing_plan_id":"cebpf4jnsgd1na2vs0mg"},{"bike_id":"019ad2ba-6b86-4d43-b9a0-039428f6ef1c","system_id":"levelo_inurba_marseille","lat":43.28504,"lon":5.38441,"is_reserved":false,"is_disabled":false,"rental_uris":{"android":"levelo://app?vid=019ad2ba-6b86-4d43-b9a0-039428f6ef1c","ios":"levelo://app?vid=019ad2ba-6b86-4d43-b9a0-039428f6ef1c"},"vehicle_type_id":"4","last_reported":1735333686,"current_range_meters":24400,"station_id":"ce4bh512rcd13ifvqe3g","pricing_plan_id":"cebpf4jnsgd1na2vs0mg"},{"bike_id":"c0c3e5c6-edc3-41c4-8feb-85aaa21b750a","system_id":"levelo_inurba_marseille","lat":43.32011,"lon":5.41582,"is_reserved":false,"is_disabled":false,"rental_uris":{"android":"levelo://app?vid=c0c3e5c6-edc3-41c4-8feb-85aaa21b750a","ios":"levelo://app?vid=c0c3e5c6-edc3-41c4-8feb-85aaa21b750a"},"vehicle_type_id":"4","last_reported":1735333686,"current_range_meters":38400,"station_id":"ce4bhq92rcd13ifvqhkg","pricing_plan_id":"cebpf4jnsgd1na2vs0mg"},{"bike_id":"605592f2-8f83-428f-ba95-760461a15d79","system_id":"levelo_inurba_marseille","lat":43.27375,"lon":5.36252,"is_reserved":false,"is_disabled":false,"rental_uris":{"android":"levelo://app?vid=605592f2-8f83-428f-ba95-760461a15d79","ios":"levelo://app?vid=605592f2-8f83-428f-ba95-760461a15d79"},"vehicle_type_id":"4","last_reported":1735333686,"current_range_meters":5600,"station_id":"ce4bhbh2rcd13ifvqeo0","pricing_plan_id":"cebpf4jnsgd1na2vs0mg"},{"bike_id":"37e166dd-489b-4768-96d6-f8210cddb7c4","system_id":"levelo_inurba_marseille","lat":43.29253,"lon":5.40897,"is_reserved":false,"is_disabled":false,"rental_uris":{"android":"levelo://app?vid=37e166dd-489b-4768-96d6-f8210cddb7c4","ios":"levelo://app?vid=37e166dd-489b-4768-96d6-f8210cddb7c4"},"vehicle_type_id":"4","last_reported":1735333686,"current_range_meters":28800,"station_id":"ce4bh192rcd13ifvqdc0","pricing_plan_id":"cebpf4jnsgd1na2vs0mg"},{"bike_id":"38416082-aa24-4a7b-a713-0ccc2500657d","system_id":"levelo_inurba_marseille","lat":43.29531,"lon":5.38534,"is_reserved":false,"is_disabled":false,"rental_uris":{"android":"levelo://app?vid=38416082-aa24-4a7b-a713-0ccc2500657d","ios":"levelo://app?vid=38416082-aa24-4a7b-a713-0ccc2500657d"},"vehicle_type_id":"4","last_reported":1735333686,"current_range_meters":36400,"station_id":"ce4bgih2rcd13ifvqba0","pricing_plan_id":"cebpf4jnsgd1na2vs0mg"},{"bike_id":"4791d69e-ff77-4bc4-84e2-f1fd8a2b9fb8","system_id":"levelo_inurba_marseille","lat":43.290227,"lon":5.386393,"is_reserved":false,"is_disabled":false,"rental_uris":{"android":"levelo://app?vid=4791d69e-ff77-4bc4-84e2-f1fd8a2b9fb8","ios":"levelo://app?vid=4791d69e-ff77-4bc4-84e2-f1fd8a2b9fb8"},"vehicle_type_id":"4","last_reported":1735333686,"current_range_meters":16000,"station_id":"ce4bh4p2rcd13ifvqe0g","pricing_plan_id":"cebpf4jnsgd1na2vs0mg"},{"bike_id":"94337c97-3bfb-4838-96de-c17ad1a373ba","system_id":"levelo_inurba_marseille","lat":43.28473,"lon":5.38402,"is_reserved":false,"is_disabled":false,"rental_uris":{"android":"levelo://app?vid=94337c97-3bfb-4838-96de-c17ad1a373ba","ios":"levelo://app?vid=94337c97-3bfb-4838-96de-c17ad1a373ba"},"vehicle_type_id":"4","last_reported":1735333686,"current_range_meters":38800,"station_id":"ce4bh512rcd13ifvqe3g","pricing_plan_id":"cebpf4jnsgd1na2vs0mg"},{"bike_id":"ff7ce7d1-b458-4b9d-aeb2-15025e7b1f16","system_id":"levelo_inurba_marseille","lat":43.294273,"lon":5.38617,"is_reserved":false,"is_disabled":false,"rental_uris":{"android":"levelo://app?vid=ff7ce7d1-b458-4b9d-aeb2-15025e7b1f16","ios":"levelo://app?vid=ff7ce7d1-b458-4b9d-aeb2-15025e7b1f16"},"vehicle_type_id":"4","last_reported":1735333686,"current_range_meters":32400,"station_id":"ce4bh2h2rcd13ifvqdh0","pricing_plan_id":"cebpf4jnsgd1na2vs0mg"},{"bike_id":"178d7b9a-2623-43df-a53d-e546e435ffc2","system_id":"levelo_inurba_marseille","lat":43.30277,"lon":5.37702,"is_reserved":false,"is_disabled":false,"rental_uris":{"android":"levelo://app?vid=178d7b9a-2623-43df-a53d-e546e435ffc2","ios":"levelo://app?vid=178d7b9a-2623-43df-a53d-e546e435ffc2"},"vehicle_type_id":"4","last_reported":1735333686,"current_range_meters":38800,"station_id":"ce4bguh2rcd13ifvqcj0","pricing_plan_id":"cebpf4jnsgd1na2vs0mg"},{"bike_id":"849d3f14-a99a-4c5f-8374-42a543d43e8e","system_id":"levelo_inurba_marseille","lat":43.2717,"lon":5.40988,"is_reserved":false,"is_disabled":false,"rental_uris":{"android":"levelo://app?vid=849d3f14-a99a-4c5f-8374-42a543d43e8e","ios":"levelo://app?vid=849d3f14-a99a-4c5f-8374-42a543d43e8e"},"vehicle_type_id":"4","last_reported":1735333686,"current_range_meters":9600,"station_id":"ce4bhl12rcd13ifvqgf0","pricing_plan_id":"cebpf4jnsgd1na2vs0mg"},{"bike_id":"9b83e637-25ab-4699-b65e-c8b51be08733","system_id":"levelo_inurba_marseille","lat":43.2794,"lon":5.41048,"is_reserved":false,"is_disabled":false,"rental_uris":{"android":"levelo://app?vid=9b83e637-25ab-4699-b65e-c8b51be08733","ios":"levelo://app?vid=9b83e637-25ab-4699-b65e-c8b51be08733"},"vehicle_type_id":"4","last_reported":1735333686,"current_range_meters":38800,"station_id":"ce4bhnp2rcd13ifvqh0g","pricing_plan_id":"cebpf4jnsgd1na2vs0mg"},{"bike_id":"fc8f1da3-b1e2-4b23-8e38-b05bd9cb00eb","system_id":"levelo_inurba_marseille","lat":43.296825,"lon":5.372924,"is_reserved":false,"is_disabled":false,"rental_uris":{"android":"levelo://app?vid=fc8f1da3-b1e2-4b23-8e38-b05bd9cb00eb","ios":"levelo://app?vid=fc8f1da3-b1e2-4b23-8e38-b05bd9cb00eb"},"vehicle_type_id":"4","last_reported":1735333686,"current_range_meters":34000,"station_id":"ce4bgk12rcd13ifvqbj0","pricing_plan_id":"cebpf4jnsgd1na2vs0mg"},{"bike_id":"fb86dc07-2dc6-4bfa-b85e-9957685650ab","system_id":"levelo_inurba_marseille","lat":43.23062,"lon":5.35492,"is_reserved":false,"is_disabled":false,"rental_uris":{"android":"levelo://app?vid=fb86dc07-2dc6-4bfa-b85e-9957685650ab","ios":"levelo://app?vid=fb86dc07-2dc6-4bfa-b85e-9957685650ab"},"vehicle_type_id":"4","last_reported":1735333686,"current_range_meters":20400,"station_id":"cpo3342slgdg3j2ifvpg","pricing_plan_id":"cebpf4jnsgd1na2vs0mg"},{"bike_id":"d177b97f-9cb5-44b2-b733-700a96a10b48","system_id":"levelo_inurba_marseille","lat":43.3014,"lon":5.37409,"is_reserved":false,"is_disabled":false,"rental_uris":{"android":"levelo://app?vid=d177b97f-9cb5-44b2-b733-700a96a10b48","ios":"levelo://app?vid=d177b97f-9cb5-44b2-b733-700a96a10b48"},"vehicle_type_id":"4","last_reported":1735333686,"current_range_meters":20000,"station_id":"ce4bgs92rcd13ifvqcc0","pricing_plan_id":"cebpf4jnsgd1na2vs0mg"},{"bike_id":"3e339b28-ed5b-4cec-ba7e-37c849b1d4c9","system_id":"levelo_inurba_marseille","lat":43.2572,"lon":5.41081,"is_reserved":false,"is_disabled":false,"rental_uris":{"android":"levelo://app?vid=3e339b28-ed5b-4cec-ba7e-37c849b1d4c9","ios":"levelo://app?vid=3e339b28-ed5b-4cec-ba7e-37c849b1d4c9"},"vehicle_type_id":"4","last_reported":1735333686,"current_range_meters":38800,"station_id":"ce4bhkp2rcd13ifvqgd0","pricing_plan_id":"cebpf4jnsgd1na2vs0mg"},{"bike_id":"f0549b3c-bc5f-44d4-9a0d-bd6d39136135","system_id":"levelo_inurba_marseille","lat":43.291,"lon":5.38133,"is_reserved":false,"is_disabled":false,"rental_uris":{"android":"levelo://app?vid=f0549b3c-bc5f-44d4-9a0d-bd6d39136135","ios":"levelo://app?vid=f0549b3c-bc5f-44d4-9a0d-bd6d39136135"},"vehicle_type_id":"4","last_reported":1735333686,"current_range_meters":38800,"station_id":"ce4bh512rcd13ifvqe2g","pricing_plan_id":"cebpf4jnsgd1na2vs0mg"},{"bike_id":"e98a805c-e650-49ec-ba9e-8011c6752253","system_id":"levelo_inurba_marseille","lat":43.29297,"lon":5.3745,"is_reserved":false,"is_disabled":false,"rental_uris":{"android":"levelo://app?vid=e98a805c-e650-49ec-ba9e-8011c6752253","ios":"levelo://app?vid=e98a805c-e650-49ec-ba9e-8011c6752253"},"vehicle_type_id":"4","last_reported":1735333686,"current_range_meters":35600,"station_id":"ce4bgi12rcd13ifvqb70","pricing_plan_id":"cebpf4jnsgd1na2vs0mg"},{"bike_id":"91d76c11-af09-42d8-abc1-06bf470fe467","system_id":"levelo_inurba_marseille","lat":43.29169,"lon":5.37151,"is_reserved":false,"is_disabled":false,"rental_uris":{"android":"levelo://app?vid=91d76c11-af09-42d8-abc1-06bf470fe467","ios":"levelo://app?vid=91d76c11-af09-42d8-abc1-06bf470fe467"},"vehicle_type_id":"4","last_reported":1735333686,"current_range_meters":37600,"station_id":"ce4bha92rcd13ifvqeh0","pricing_plan_id":"cebpf4jnsgd1na2vs0mg"},{"bike_id":"81b8b35c-6f41-4e06-8e66-834af18b13a1","system_id":"levelo_inurba_marseille","lat":43.29052,"lon":5.37566,"is_reserved":false,"is_disabled":false,"rental_uris":{"android":"levelo://app?vid=81b8b35c-6f41-4e06-8e66-834af18b13a1","ios":"levelo://app?vid=81b8b35c-6f41-4e06-8e66-834af18b13a1"},"vehicle_type_id":"4","last_reported":1735333686,"current_range_meters":39200,"station_id":"ce4bh692rcd13ifvqe90","pricing_plan_id":"cebpf4jnsgd1na2vs0mg"},{"bike_id":"09898dd2-84ad-4911-a21d-d1f0823964b3","system_id":"levelo_inurba_marseille","lat":43.29624,"lon":5.37714,"is_reserved":false,"is_disabled":false,"rental_uris":{"android":"levelo://app?vid=09898dd2-84ad-4911-a21d-d1f0823964b3","ios":"levelo://app?vid=09898dd2-84ad-4911-a21d-d1f0823964b3"},"vehicle_type_id":"4","last_reported":1735333686,"current_range_meters":39200,"station_id":"ce4bgi92rcd13ifvqb90","pricing_plan_id":"cebpf4jnsgd1na2vs0mg"},{"bike_id":"38586c78-44bf-4329-aaf2-b57f1e0985c6","system_id":"levelo_inurba_marseille","lat":43.29788,"lon":5.39357,"is_reserved":false,"is_disabled":false,"rental_uris":{"android":"levelo://app?vid=38586c78-44bf-4329-aaf2-b57f1e0985c6","ios":"levelo://app?vid=38586c78-44bf-4329-aaf2-b57f1e0985c6"},"vehicle_type_id":"4","last_reported":1735333686,"current_range_meters":37600,"station_id":"chh1huq6cuj3fo74tm60","pricing_plan_id":"cebpf4jnsgd1na2vs0mg"},{"bike_id":"40eee063-b95d-4d32-aca8-c581cf8477cf","system_id":"levelo_inurba_marseille","lat":43.25006,"lon":5.3892,"is_reserved":false,"is_disabled":false,"rental_uris":{"android":"levelo://app?vid=40eee063-b95d-4d32-aca8-c581cf8477cf","ios":"levelo://app?vid=40eee063-b95d-4d32-aca8-c581cf8477cf"},"vehicle_type_id":"4","last_reported":1735333686,"current_range_meters":27600,"station_id":"ce4bhgp2rcd13ifvqfd0","pricing_plan_id":"cebpf4jnsgd1na2vs0mg"},{"bike_id":"e27c1739-0eef-4015-9690-b38ad843f4c0","system_id":"levelo_inurba_marseille","lat":43.29259,"lon":5.38457,"is_reserved":false,"is_disabled":false,"rental_uris":{"android":"levelo://app?vid=e27c1739-0eef-4015-9690-b38ad843f4c0","ios":"levelo://app?vid=e27c1739-0eef-4015-9690-b38ad843f4c0"},"vehicle_type_id":"4","last_reported":1735333686,"current_range_meters":38800,"station_id":"ce4bh692rcd13ifvqea0","pricing_plan_id":"cebpf4jnsgd1na2vs0mg"},{"bike_id":"a8120482-3d86-42c9-9814-b9b7ad735659","system_id":"levelo_inurba_marseille","lat":43.30792,"lon":5.38158,"is_reserved":false,"is_disabled":false,"rental_uris":{"android":"levelo://app?vid=a8120482-3d86-42c9-9814-b9b7ad735659","ios":"levelo://app?vid=a8120482-3d86-42c9-9814-b9b7ad735659"},"vehicle_type_id":"4","last_reported":1735333686,"current_range_meters":10800,"station_id":"ce4bgt12rcd13ifvqce0","pricing_plan_id":"cebpf4jnsgd1na2vs0mg"},{"bike_id":"e23f0746-c9e0-42fb-821e-a43f737e9cb7","system_id":"levelo_inurba_marseille","lat":43.27857,"lon":5.39195,"is_reserved":false,"is_disabled":false,"rental_uris":{"android":"levelo://app?vid=e23f0746-c9e0-42fb-821e-a43f737e9cb7","ios":"levelo://app?vid=e23f0746-c9e0-42fb-821e-a43f737e9cb7"},"vehicle_type_id":"4","last_reported":1735333686,"current_range_meters":36800,"station_id":"ce4bhjp2rcd13ifvqga0","pricing_plan_id":"cebpf4jnsgd1na2vs0mg"},{"bike_id":"6fc39219-982d-4feb-9b3b-e1ba4db40afe","system_id":"levelo_inurba_marseille","lat":43.29593,"lon":5.3808,"is_reserved":false,"is_disabled":false,"rental_uris":{"android":"levelo://app?vid=6fc39219-982d-4feb-9b3b-e1ba4db40afe","ios":"levelo://app?vid=6fc39219-982d-4feb-9b3b-e1ba4db40afe"},"vehicle_type_id":"4","last_reported":1735333686,"current_range_meters":38800,"station_id":"ce4bgl12rcd13ifvqbo0","pricing_plan_id":"cebpf4jnsgd1na2vs0mg"},{"bike_id":"e73e6057-e6e9-407b-a17e-f4e119a96aba","system_id":"levelo_inurba_marseille","lat":43.32114,"lon":5.36781,"is_reserved":false,"is_disabled":false,"rental_uris":{"android":"levelo://app?vid=e73e6057-e6e9-407b-a17e-f4e119a96aba","ios":"levelo://app?vid=e73e6057-e6e9-407b-a17e-f4e119a96aba"},"vehicle_type_id":"4","last_reported":1735333686,"current_range_meters":19600,"station_id":"ce4bhrh2rcd13ifvqhug","pricing_plan_id":"cebpf4jnsgd1na2vs0mg"},{"bike_id":"2c1008e7-b023-405c-b620-815ccd28390b","system_id":"levelo_inurba_marseille","lat":43.28424,"lon":5.37512,"is_reserved":false,"is_disabled":false,"rental_uris":{"android":"levelo://app?vid=2c1008e7-b023-405c-b620-815ccd28390b","ios":"levelo://app?vid=2c1008e7-b023-405c-b620-815ccd28390b"},"vehicle_type_id":"4","last_reported":1735333686,"current_range_meters":25200,"station_id":"ce4bh412rcd13ifvqds0","pricing_plan_id":"cebpf4jnsgd1na2vs0mg"},{"bike_id":"a58354e8-5533-4e9e-8cf4-927edb8b7508","system_id":"levelo_inurba_marseille","lat":43.3061,"lon":5.37229,"is_reserved":false,"is_disabled":false,"rental_uris":{"android":"levelo://app?vid=a58354e8-5533-4e9e-8cf4-927edb8b7508","ios":"levelo://app?vid=a58354e8-5533-4e9e-8cf4-927edb8b7508"},"vehicle_type_id":"4","last_reported":1735333686,"current_range_meters":38800,"station_id":"ce4bgqh2rcd13ifvqc4g","pricing_plan_id":"cebpf4jnsgd1na2vs0mg"},{"bike_id":"062008cc-a7ec-41fc-ab0a-02aee794153b","system_id":"levelo_inurba_marseille","lat":43.27074,"lon":5.4228,"is_reserved":false,"is_disabled":false,"rental_uris":{"android":"levelo://app?vid=062008cc-a7ec-41fc-ab0a-02aee794153b","ios":"levelo://app?vid=062008cc-a7ec-41fc-ab0a-02aee794153b"},"vehicle_type_id":"4","last_reported":1735333686,"current_range_meters":38800,"station_id":"ce4bhk92rcd13ifvqgb0","pricing_plan_id":"cebpf4jnsgd1na2vs0mg"},{"bike_id":"57103b12-06fc-494b-9a1a-1903f8f245d5","system_id":"levelo_inurba_marseille","lat":43.2799,"lon":5.41653,"is_reserved":false,"is_disabled":false,"rental_uris":{"android":"levelo://app?vid=57103b12-06fc-494b-9a1a-1903f8f245d5","ios":"levelo://app?vid=57103b12-06fc-494b-9a1a-1903f8f245d5"},"vehicle_type_id":"4","last_reported":1735333686,"current_range_meters":25600,"station_id":"ce4bho12rcd13ifvqh1g","pricing_plan_id":"cebpf4jnsgd1na2vs0mg"},{"bike_id":"3cf1dd15-744f-4ef0-9415-449ce776ba35","system_id":"levelo_inurba_marseille","lat":43.27381,"lon":5.36256,"is_reserved":false,"is_disabled":false,"rental_uris":{"android":"levelo://app?vid=3cf1dd15-744f-4ef0-9415-449ce776ba35","ios":"levelo://app?vid=3cf1dd15-744f-4ef0-9415-449ce776ba35"},"vehicle_type_id":"4","last_reported":1735333686,"current_range_meters":9200,"station_id":"ce4bhbh2rcd13ifvqeo0","pricing_plan_id":"cebpf4jnsgd1na2vs0mg"},{"bike_id":"3aa7a4ce-0a49-45ec-98ae-1db0045de0fb","system_id":"levelo_inurba_marseille","lat":43.29094,"lon":5.38145,"is_reserved":false,"is_disabled":false,"rental_uris":{"android":"levelo://app?vid=3aa7a4ce-0a49-45ec-98ae-1db0045de0fb","ios":"levelo://app?vid=3aa7a4ce-0a49-45ec-98ae-1db0045de0fb"},"vehicle_type_id":"4","last_reported":1735333686,"current_range_meters":32400,"station_id":"ce4bh512rcd13ifvqe2g","pricing_plan_id":"cebpf4jnsgd1na2vs0mg"},{"bike_id":"b8bac6c6-9e07-4fc2-afde-2ef91687068a","system_id":"levelo_inurba_marseille","lat":43.28407,"lon":5.37516,"is_reserved":false,"is_disabled":true,"rental_uris":{"android":"levelo://app?vid=b8bac6c6-9e07-4fc2-afde-2ef91687068a","ios":"levelo://app?vid=b8bac6c6-9e07-4fc2-afde-2ef91687068a"},"vehicle_type_id":"4","last_reported":1735333686,"current_range_meters":24000,"station_id":"ce4bh412rcd13ifvqds0","pricing_plan_id":"cebpf4jnsgd1na2vs0mg"},{"bike_id":"731ba9de-00dd-4cec-ab12-769c3978dcf6","system_id":"levelo_inurba_marseille","lat":43.32026,"lon":5.4157,"is_reserved":false,"is_disabled":false,"rental_uris":{"android":"levelo://app?vid=731ba9de-00dd-4cec-ab12-769c3978dcf6","ios":"levelo://app?vid=731ba9de-00dd-4cec-ab12-769c3978dcf6"},"vehicle_type_id":"4","last_reported":1735333686,"current_range_meters":36400,"station_id":"ce4bhq92rcd13ifvqhkg","pricing_plan_id":"cebpf4jnsgd1na2vs0mg"},{"bike_id":"9a6e3a7e-5a38-4778-8569-c4a718bdad09","system_id":"levelo_inurba_marseille","lat":43.28713,"lon":5.37951,"is_reserved":false,"is_disabled":false,"rental_uris":{"android":"levelo://app?vid=9a6e3a7e-5a38-4778-8569-c4a718bdad09","ios":"levelo://app?vid=9a6e3a7e-5a38-4778-8569-c4a718bdad09"},"vehicle_type_id":"4","last_reported":1735333686,"current_range_meters":11200,"station_id":"ce4bh9p2rcd13ifvqec0","pricing_plan_id":"cebpf4jnsgd1na2vs0mg"},{"bike_id":"7059694c-ceb6-4cf4-b978-87fb264323e2","system_id":"levelo_inurba_marseille","lat":43.29565,"lon":5.37514,"is_reserved":false,"is_disabled":false,"rental_uris":{"android":"levelo://app?vid=7059694c-ceb6-4cf4-b978-87fb264323e2","ios":"levelo://app?vid=7059694c-ceb6-4cf4-b978-87fb264323e2"},"vehicle_type_id":"4","last_reported":1735333686,"current_range_meters":25200,"station_id":"ce4bgh92rcd13ifvqb50","pricing_plan_id":"cebpf4jnsgd1na2vs0mg"},{"bike_id":"b398f9ec-3d69-4e65-8657-4986194d6615","system_id":"levelo_inurba_marseille","lat":43.30142,"lon":5.39884,"is_reserved":false,"is_disabled":false,"rental_uris":{"android":"levelo://app?vid=b398f9ec-3d69-4e65-8657-4986194d6615","ios":"levelo://app?vid=b398f9ec-3d69-4e65-8657-4986194d6615"},"vehicle_type_id":"4","last_reported":1735333686,"current_range_meters":30000,"station_id":"ce4bh0h2rcd13ifvqd40","pricing_plan_id":"cebpf4jnsgd1na2vs0mg"},{"bike_id":"bf075035-d901-41db-ae8f-dfcc1aedb23e","system_id":"levelo_inurba_marseille","lat":43.2408,"lon":5.37759,"is_reserved":false,"is_disabled":false,"rental_uris":{"android":"levelo://app?vid=bf075035-d901-41db-ae8f-dfcc1aedb23e","ios":"levelo://app?vid=bf075035-d901-41db-ae8f-dfcc1aedb23e"},"vehicle_type_id":"4","last_reported":1735333686,"current_range_meters":21600,"station_id":"ce4bhnp2rcd13ifvqgvg","pricing_plan_id":"cebpf4jnsgd1na2vs0mg"},{"bike_id":"f523f994-10cd-4740-b49c-26b69297a317","system_id":"levelo_inurba_marseille","lat":43.2558,"lon":5.38246,"is_reserved":false,"is_disabled":false,"rental_uris":{"android":"levelo://app?vid=f523f994-10cd-4740-b49c-26b69297a317","ios":"levelo://app?vid=f523f994-10cd-4740-b49c-26b69297a317"},"vehicle_type_id":"4","last_reported":1735333686,"current_range_meters":35200,"station_id":"ce4bhih2rcd13ifvqfs0","pricing_plan_id":"cebpf4jnsgd1na2vs0mg"},{"bike_id":"06ec3c24-883e-4431-ad6b-b93d58aeae88","system_id":"levelo_inurba_marseille","lat":43.31099,"lon":5.36774,"is_reserved":false,"is_disabled":false,"rental_uris":{"android":"levelo://app?vid=06ec3c24-883e-4431-ad6b-b93d58aeae88","ios":"levelo://app?vid=06ec3c24-883e-4431-ad6b-b93d58aeae88"},"vehicle_type_id":"4","last_reported":1735333686,"current_range_meters":24800,"station_id":"","pricing_plan_id":"cebpf4jnsgd1na2vs0mg"},{"bike_id":"db2c549d-e98a-4769-95fa-52946ad4fb3d","system_id":"levelo_inurba_marseille","lat":43.30967,"lon":5.37253,"is_reserved":false,"is_disabled":true,"rental_uris":{"android":"levelo://app?vid=db2c549d-e98a-4769-95fa-52946ad4fb3d","ios":"levelo://app?vid=db2c549d-e98a-4769-95fa-52946ad4fb3d"},"vehicle_type_id":"4","last_reported":1735333686,"current_range_meters":800,"station_id":"","pricing_plan_id":"cebpf4jnsgd1na2vs0mg"},{"bike_id":"06cb9db3-5173-4e30-b394-f221ce1c8457","system_id":"levelo_inurba_marseille","lat":43.30139,"lon":5.3987,"is_reserved":false,"is_disabled":false,"rental_uris":{"android":"levelo://app?vid=06cb9db3-5173-4e30-b394-f221ce1c8457","ios":"levelo://app?vid=06cb9db3-5173-4e30-b394-f221ce1c8457"},"vehicle_type_id":"4","last_reported":1735333686,"current_range_meters":26000,"station_id":"ce4bh0h2rcd13ifvqd40","pricing_plan_id":"cebpf4jnsgd1na2vs0mg"},{"bike_id":"71e6eecc-482e-4ed8-b40b-efc6ef9e702a","system_id":"levelo_inurba_marseille","lat":43.274973,"lon":5.42442,"is_reserved":false,"is_disabled":false,"rental_uris":{"android":"levelo://app?vid=71e6eecc-482e-4ed8-b40b-efc6ef9e702a","ios":"levelo://app?vid=71e6eecc-482e-4ed8-b40b-efc6ef9e702a"},"vehicle_type_id":"4","last_reported":1735333686,"current_range_meters":38800,"station_id":"ce4bhn92rcd13ifvqgrg","pricing_plan_id":"cebpf4jnsgd1na2vs0mg"},{"bike_id":"e2d02283-b127-48cd-86f1-5f160651ede8","system_id":"levelo_inurba_marseille","lat":43.2894,"lon":5.36385,"is_reserved":false,"is_disabled":false,"rental_uris":{"android":"levelo://app?vid=e2d02283-b127-48cd-86f1-5f160651ede8","ios":"levelo://app?vid=e2d02283-b127-48cd-86f1-5f160651ede8"},"vehicle_type_id":"4","last_reported":1735333686,"current_range_meters":29600,"station_id":"ce4bhc92rcd13ifvqetg","pricing_plan_id":"cebpf4jnsgd1na2vs0mg"},{"bike_id":"a3b5e29c-4425-483d-9fe4-2d25fea7803f","system_id":"levelo_inurba_marseille","lat":43.250147,"lon":5.389185,"is_reserved":false,"is_disabled":true,"rental_uris":{"android":"levelo://app?vid=a3b5e29c-4425-483d-9fe4-2d25fea7803f","ios":"levelo://app?vid=a3b5e29c-4425-483d-9fe4-2d25fea7803f"},"vehicle_type_id":"4","last_reported":1735333686,"current_range_meters":30400,"station_id":"ce4bhgp2rcd13ifvqfd0","pricing_plan_id":"cebpf4jnsgd1na2vs0mg"},{"bike_id":"6164b460-c3c8-4dbd-9cc2-9b33b9e9bb2d","system_id":"levelo_inurba_marseille","lat":43.30886,"lon":5.39645,"is_reserved":false,"is_disabled":false,"rental_uris":{"android":"levelo://app?vid=6164b460-c3c8-4dbd-9cc2-9b33b9e9bb2d","ios":"levelo://app?vid=6164b460-c3c8-4dbd-9cc2-9b33b9e9bb2d"},"vehicle_type_id":"4","last_reported":1735333686,"current_range_meters":38800,"station_id":"ce4bh012rcd13ifvqcv0","pricing_plan_id":"cebpf4jnsgd1na2vs0mg"},{"bike_id":"d0cef3d1-3f81-4332-9c0f-316831ad2551","system_id":"levelo_inurba_marseille","lat":43.29098,"lon":5.3813,"is_reserved":false,"is_disabled":false,"rental_uris":{"android":"levelo://app?vid=d0cef3d1-3f81-4332-9c0f-316831ad2551","ios":"levelo://app?vid=d0cef3d1-3f81-4332-9c0f-316831ad2551"},"vehicle_type_id":"4","last_reported":1735333686,"current_range_meters":27200,"station_id":"ce4bh512rcd13ifvqe2g","pricing_plan_id":"cebpf4jnsgd1na2vs0mg"},{"bike_id":"a4116148-5949-4a4e-a470-3f07e82f513c","system_id":"levelo_inurba_marseille","lat":43.29617,"lon":5.37718,"is_reserved":false,"is_disabled":false,"rental_uris":{"android":"levelo://app?vid=a4116148-5949-4a4e-a470-3f07e82f513c","ios":"levelo://app?vid=a4116148-5949-4a4e-a470-3f07e82f513c"},"vehicle_type_id":"4","last_reported":1735333686,"current_range_meters":30000,"station_id":"ce4bgi92rcd13ifvqb90","pricing_plan_id":"cebpf4jnsgd1na2vs0mg"},{"bike_id":"ced151f5-4c79-4a37-9365-9728a8712301","system_id":"levelo_inurba_marseille","lat":43.284615,"lon":5.358829,"is_reserved":false,"is_disabled":false,"rental_uris":{"android":"levelo://app?vid=ced151f5-4c79-4a37-9365-9728a8712301","ios":"levelo://app?vid=ced151f5-4c79-4a37-9365-9728a8712301"},"vehicle_type_id":"4","last_reported":1735333686,"current_range_meters":27600,"station_id":"ce4bhah2rcd13ifvqei0","pricing_plan_id":"cebpf4jnsgd1na2vs0mg"},{"bike_id":"2ef3cadb-4938-410b-af4c-81b56131356d","system_id":"levelo_inurba_marseille","lat":43.24801,"lon":5.37506,"is_reserved":false,"is_disabled":false,"rental_uris":{"android":"levelo://app?vid=2ef3cadb-4938-410b-af4c-81b56131356d","ios":"levelo://app?vid=2ef3cadb-4938-410b-af4c-81b56131356d"},"vehicle_type_id":"4","last_reported":1735333686,"current_range_meters":17600,"station_id":"","pricing_plan_id":"cebpf4jnsgd1na2vs0mg"},{"bike_id":"f3d181d2-be7a-432e-b602-2eac2c046295","system_id":"levelo_inurba_marseille","lat":43.28276,"lon":5.35062,"is_reserved":false,"is_disabled":true,"rental_uris":{"android":"levelo://app?vid=f3d181d2-be7a-432e-b602-2eac2c046295","ios":"levelo://app?vid=f3d181d2-be7a-432e-b602-2eac2c046295"},"vehicle_type_id":"4","last_reported":1735333686,"current_range_meters":32800,"station_id":"ce4bhbp2rcd13ifvqerg","pricing_plan_id":"cebpf4jnsgd1na2vs0mg"},{"bike_id":"7bd44d09-e872-4291-b548-1cbe40f16cac","system_id":"levelo_inurba_marseille","lat":43.281563,"lon":5.426292,"is_reserved":false,"is_disabled":false,"rental_uris":{"android":"levelo://app?vid=7bd44d09-e872-4291-b548-1cbe40f16cac","ios":"levelo://app?vid=7bd44d09-e872-4291-b548-1cbe40f16cac"},"vehicle_type_id":"4","last_reported":1735333686,"current_range_meters":30800,"station_id":"ce4bhnh2rcd13ifvqgug","pricing_plan_id":"cebpf4jnsgd1na2vs0mg"},{"bike_id":"060398a9-6334-44ac-a6c5-5c43fde1b04d","system_id":"levelo_inurba_marseille","lat":43.27377,"lon":5.3625,"is_reserved":false,"is_disabled":false,"rental_uris":{"android":"levelo://app?vid=060398a9-6334-44ac-a6c5-5c43fde1b04d","ios":"levelo://app?vid=060398a9-6334-44ac-a6c5-5c43fde1b04d"},"vehicle_type_id":"4","last_reported":1735333686,"current_range_meters":38400,"station_id":"ce4bhbh2rcd13ifvqeo0","pricing_plan_id":"cebpf4jnsgd1na2vs0mg"},{"bike_id":"e06232ef-caaf-4238-9d2b-ccce6dfdbe4b","system_id":"levelo_inurba_marseille","lat":43.30609,"lon":5.37225,"is_reserved":false,"is_disabled":false,"rental_uris":{"android":"levelo://app?vid=e06232ef-caaf-4238-9d2b-ccce6dfdbe4b","ios":"levelo://app?vid=e06232ef-caaf-4238-9d2b-ccce6dfdbe4b"},"vehicle_type_id":"4","last_reported":1735333686,"current_range_meters":30000,"station_id":"ce4bgqh2rcd13ifvqc4g","pricing_plan_id":"cebpf4jnsgd1na2vs0mg"},{"bike_id":"d9a42308-8071-4e6f-b937-51b6b1403c3d","system_id":"levelo_inurba_marseille","lat":43.29256,"lon":5.38434,"is_reserved":false,"is_disabled":false,"rental_uris":{"android":"levelo://app?vid=d9a42308-8071-4e6f-b937-51b6b1403c3d","ios":"levelo://app?vid=d9a42308-8071-4e6f-b937-51b6b1403c3d"},"vehicle_type_id":"4","last_reported":1735333686,"current_range_meters":39200,"station_id":"ce4bh692rcd13ifvqea0","pricing_plan_id":"cebpf4jnsgd1na2vs0mg"},{"bike_id":"048f6d5f-28d1-4838-a319-20e23af36c3c","system_id":"levelo_inurba_marseille","lat":43.30415,"lon":5.41287,"is_reserved":false,"is_disabled":true,"rental_uris":{"android":"levelo://app?vid=048f6d5f-28d1-4838-a319-20e23af36c3c","ios":"levelo://app?vid=048f6d5f-28d1-4838-a319-20e23af36c3c"},"vehicle_type_id":"4","last_reported":1735333686,"current_range_meters":35200,"station_id":"ce4bhop2rcd13ifvqh8g","pricing_plan_id":"cebpf4jnsgd1na2vs0mg"},{"bike_id":"1f03e07b-50b0-4a9e-bd03-dc766534a5b3","system_id":"levelo_inurba_marseille","lat":43.25584,"lon":5.38233,"is_reserved":false,"is_disabled":false,"rental_uris":{"android":"levelo://app?vid=1f03e07b-50b0-4a9e-bd03-dc766534a5b3","ios":"levelo://app?vid=1f03e07b-50b0-4a9e-bd03-dc766534a5b3"},"vehicle_type_id":"4","last_reported":1735333686,"current_range_meters":39200,"station_id":"ce4bhih2rcd13ifvqfs0","pricing_plan_id":"cebpf4jnsgd1na2vs0mg"},{"bike_id":"d07f067e-1574-44e7-bb84-4c02908e4e0d","system_id":"levelo_inurba_marseille","lat":43.28573,"lon":5.39497,"is_reserved":false,"is_disabled":false,"rental_uris":{"android":"levelo://app?vid=d07f067e-1574-44e7-bb84-4c02908e4e0d","ios":"levelo://app?vid=d07f067e-1574-44e7-bb84-4c02908e4e0d"},"vehicle_type_id":"4","last_reported":1735333686,"current_range_meters":38000,"station_id":"ce4bh292rcd13ifvqdg0","pricing_plan_id":"cebpf4jnsgd1na2vs0mg"},{"bike_id":"c6834b76-82f1-466a-8b2d-118839d142cc","system_id":"levelo_inurba_marseille","lat":43.29896,"lon":5.43667,"is_reserved":false,"is_disabled":false,"rental_uris":{"android":"levelo://app?vid=c6834b76-82f1-466a-8b2d-118839d142cc","ios":"levelo://app?vid=c6834b76-82f1-466a-8b2d-118839d142cc"},"vehicle_type_id":"4","last_reported":1735333686,"current_range_meters":37600,"station_id":"ce4bhpp2rcd13ifvqhfg","pricing_plan_id":"cebpf4jnsgd1na2vs0mg"},{"bike_id":"359ddae0-5d3f-4b29-8d32-daa2bb9138da","system_id":"levelo_inurba_marseille","lat":43.29722,"lon":5.37693,"is_reserved":false,"is_disabled":false,"rental_uris":{"android":"levelo://app?vid=359ddae0-5d3f-4b29-8d32-daa2bb9138da","ios":"levelo://app?vid=359ddae0-5d3f-4b29-8d32-daa2bb9138da"},"vehicle_type_id":"4","last_reported":1735333686,"current_range_meters":36800,"station_id":"ce4bgkh2rcd13ifvqbl0","pricing_plan_id":"cebpf4jnsgd1na2vs0mg"},{"bike_id":"1107b56a-98a5-4a01-8449-9eba086fee5a","system_id":"levelo_inurba_marseille","lat":43.29073,"lon":5.39883,"is_reserved":false,"is_disabled":false,"rental_uris":{"android":"levelo://app?vid=1107b56a-98a5-4a01-8449-9eba086fee5a","ios":"levelo://app?vid=1107b56a-98a5-4a01-8449-9eba086fee5a"},"vehicle_type_id":"4","last_reported":1735333686,"current_range_meters":23200,"station_id":"","pricing_plan_id":"cebpf4jnsgd1na2vs0mg"},{"bike_id":"405bfedd-0933-47e8-a4d4-6e6e87e5f32e","system_id":"levelo_inurba_marseille","lat":43.29304,"lon":5.37171,"is_reserved":false,"is_disabled":false,"rental_uris":{"android":"levelo://app?vid=405bfedd-0933-47e8-a4d4-6e6e87e5f32e","ios":"levelo://app?vid=405bfedd-0933-47e8-a4d4-6e6e87e5f32e"},"vehicle_type_id":"4","last_reported":1735333686,"current_range_meters":38800,"station_id":"ce4bgh92rcd13ifvqb40","pricing_plan_id":"cebpf4jnsgd1na2vs0mg"},{"bike_id":"11a0ffca-220f-4915-8ee5-56db1deea1c4","system_id":"levelo_inurba_marseille","lat":43.295623,"lon":5.375203,"is_reserved":false,"is_disabled":false,"rental_uris":{"android":"levelo://app?vid=11a0ffca-220f-4915-8ee5-56db1deea1c4","ios":"levelo://app?vid=11a0ffca-220f-4915-8ee5-56db1deea1c4"},"vehicle_type_id":"4","last_reported":1735333686,"current_range_meters":32800,"station_id":"ce4bgh92rcd13ifvqb50","pricing_plan_id":"cebpf4jnsgd1na2vs0mg"},{"bike_id":"dc4f15fa-6d05-4205-b4be-fba68cc03616","system_id":"levelo_inurba_marseille","lat":43.29589,"lon":5.38087,"is_reserved":false,"is_disabled":false,"rental_uris":{"android":"levelo://app?vid=dc4f15fa-6d05-4205-b4be-fba68cc03616","ios":"levelo://app?vid=dc4f15fa-6d05-4205-b4be-fba68cc03616"},"vehicle_type_id":"4","last_reported":1735333686,"current_range_meters":38800,"station_id":"ce4bgl12rcd13ifvqbo0","pricing_plan_id":"cebpf4jnsgd1na2vs0mg"},{"bike_id":"c9b97fb7-b709-4c26-ae01-dabf637bc152","system_id":"levelo_inurba_marseille","lat":43.27817,"lon":5.40712,"is_reserved":false,"is_disabled":false,"rental_uris":{"android":"levelo://app?vid=c9b97fb7-b709-4c26-ae01-dabf637bc152","ios":"levelo://app?vid=c9b97fb7-b709-4c26-ae01-dabf637bc152"},"vehicle_type_id":"4","last_reported":1735333686,"current_range_meters":30800,"station_id":"ce4bhnh2rcd13ifvqgtg","pricing_plan_id":"cebpf4jnsgd1na2vs0mg"},{"bike_id":"4485f98a-c081-40ff-aeab-5967b9ceab6a","system_id":"levelo_inurba_marseille","lat":43.30678,"lon":5.38183,"is_reserved":false,"is_disabled":false,"rental_uris":{"android":"levelo://app?vid=4485f98a-c081-40ff-aeab-5967b9ceab6a","ios":"levelo://app?vid=4485f98a-c081-40ff-aeab-5967b9ceab6a"},"vehicle_type_id":"4","last_reported":1735333686,"current_range_meters":28000,"station_id":"","pricing_plan_id":"cebpf4jnsgd1na2vs0mg"},{"bike_id":"5608df94-b66e-460e-9f45-682a8f36b500","system_id":"levelo_inurba_marseille","lat":43.269448,"lon":5.389117,"is_reserved":false,"is_disabled":false,"rental_uris":{"android":"levelo://app?vid=5608df94-b66e-460e-9f45-682a8f36b500","ios":"levelo://app?vid=5608df94-b66e-460e-9f45-682a8f36b500"},"vehicle_type_id":"4","last_reported":1735333686,"current_range_meters":36800,"station_id":"ce4bhhh2rcd13ifvqfl0","pricing_plan_id":"cebpf4jnsgd1na2vs0mg"},{"bike_id":"3fbbac4e-077e-476b-9b1a-9cc6e989ecb0","system_id":"levelo_inurba_marseille","lat":43.25009,"lon":5.38927,"is_reserved":false,"is_disabled":false,"rental_uris":{"android":"levelo://app?vid=3fbbac4e-077e-476b-9b1a-9cc6e989ecb0","ios":"levelo://app?vid=3fbbac4e-077e-476b-9b1a-9cc6e989ecb0"},"vehicle_type_id":"4","last_reported":1735333686,"current_range_meters":37600,"station_id":"ce4bhgp2rcd13ifvqfd0","pricing_plan_id":"cebpf4jnsgd1na2vs0mg"},{"bike_id":"43e9c8e5-d9c1-4a37-9bc0-1d2d3194ee53","system_id":"levelo_inurba_marseille","lat":43.27633,"lon":5.36102,"is_reserved":false,"is_disabled":false,"rental_uris":{"android":"levelo://app?vid=43e9c8e5-d9c1-4a37-9bc0-1d2d3194ee53","ios":"levelo://app?vid=43e9c8e5-d9c1-4a37-9bc0-1d2d3194ee53"},"vehicle_type_id":"4","last_reported":1735333686,"current_range_meters":14000,"station_id":"ce4bgj92rcd13ifvqbe0","pricing_plan_id":"cebpf4jnsgd1na2vs0mg"},{"bike_id":"854a3e48-c4e4-4baf-a49e-cf8a057b5738","system_id":"levelo_inurba_marseille","lat":43.24807,"lon":5.37453,"is_reserved":false,"is_disabled":false,"rental_uris":{"android":"levelo://app?vid=854a3e48-c4e4-4baf-a49e-cf8a057b5738","ios":"levelo://app?vid=854a3e48-c4e4-4baf-a49e-cf8a057b5738"},"vehicle_type_id":"4","last_reported":1735333686,"current_range_meters":14800,"station_id":"ce4bhgh2rcd13ifvqfb0","pricing_plan_id":"cebpf4jnsgd1na2vs0mg"},{"bike_id":"380fafec-14d9-490c-87d5-3e23b6e19c8c","system_id":"levelo_inurba_marseille","lat":43.25108,"lon":5.4032,"is_reserved":false,"is_disabled":false,"rental_uris":{"android":"levelo://app?vid=380fafec-14d9-490c-87d5-3e23b6e19c8c","ios":"levelo://app?vid=380fafec-14d9-490c-87d5-3e23b6e19c8c"},"vehicle_type_id":"4","last_reported":1735333686,"current_range_meters":38800,"station_id":"ce4bhlh2rcd13ifvqgig","pricing_plan_id":"cebpf4jnsgd1na2vs0mg"},{"bike_id":"e203eede-93d4-4367-be9a-c6d93cdc799f","system_id":"levelo_inurba_marseille","lat":43.29935,"lon":5.36547,"is_reserved":false,"is_disabled":false,"rental_uris":{"android":"levelo://app?vid=e203eede-93d4-4367-be9a-c6d93cdc799f","ios":"levelo://app?vid=e203eede-93d4-4367-be9a-c6d93cdc799f"},"vehicle_type_id":"4","last_reported":1735333686,"current_range_meters":19200,"station_id":"ce4bgm92rcd13ifvqbr0","pricing_plan_id":"cebpf4jnsgd1na2vs0mg"},{"bike_id":"7bf52d63-2aa8-479d-a80d-358abe7b935a","system_id":"levelo_inurba_marseille","lat":43.29264,"lon":5.38445,"is_reserved":false,"is_disabled":false,"rental_uris":{"android":"levelo://app?vid=7bf52d63-2aa8-479d-a80d-358abe7b935a","ios":"levelo://app?vid=7bf52d63-2aa8-479d-a80d-358abe7b935a"},"vehicle_type_id":"4","last_reported":1735333686,"current_range_meters":39200,"station_id":"ce4bh692rcd13ifvqea0","pricing_plan_id":"cebpf4jnsgd1na2vs0mg"},{"bike_id":"ca61230a-fcf3-4e69-aec9-098bfbc065a8","system_id":"levelo_inurba_marseille","lat":43.297328,"lon":5.376871,"is_reserved":false,"is_disabled":false,"rental_uris":{"android":"levelo://app?vid=ca61230a-fcf3-4e69-aec9-098bfbc065a8","ios":"levelo://app?vid=ca61230a-fcf3-4e69-aec9-098bfbc065a8"},"vehicle_type_id":"4","last_reported":1735333686,"current_range_meters":24800,"station_id":"ce4bgkh2rcd13ifvqbl0","pricing_plan_id":"cebpf4jnsgd1na2vs0mg"},{"bike_id":"41e441a8-4ad2-4bf0-81ba-96c35feaf6d8","system_id":"levelo_inurba_marseille","lat":43.28156,"lon":5.42642,"is_reserved":false,"is_disabled":false,"rental_uris":{"android":"levelo://app?vid=41e441a8-4ad2-4bf0-81ba-96c35feaf6d8","ios":"levelo://app?vid=41e441a8-4ad2-4bf0-81ba-96c35feaf6d8"},"vehicle_type_id":"4","last_reported":1735333686,"current_range_meters":36800,"station_id":"ce4bhnh2rcd13ifvqgug","pricing_plan_id":"cebpf4jnsgd1na2vs0mg"},{"bike_id":"a25819d3-be17-4947-b999-ef13378a38e4","system_id":"levelo_inurba_marseille","lat":43.29918,"lon":5.37449,"is_reserved":false,"is_disabled":false,"rental_uris":{"android":"levelo://app?vid=a25819d3-be17-4947-b999-ef13378a38e4","ios":"levelo://app?vid=a25819d3-be17-4947-b999-ef13378a38e4"},"vehicle_type_id":"4","last_reported":1735333686,"current_range_meters":28800,"station_id":"ce4bgjh2rcd13ifvqbg0","pricing_plan_id":"cebpf4jnsgd1na2vs0mg"},{"bike_id":"ad954c5e-731b-466c-b7a3-d28bedadb5f9","system_id":"levelo_inurba_marseille","lat":43.27371,"lon":5.36259,"is_reserved":false,"is_disabled":false,"rental_uris":{"android":"levelo://app?vid=ad954c5e-731b-466c-b7a3-d28bedadb5f9","ios":"levelo://app?vid=ad954c5e-731b-466c-b7a3-d28bedadb5f9"},"vehicle_type_id":"4","last_reported":1735333686,"current_range_meters":35200,"station_id":"ce4bhbh2rcd13ifvqeo0","pricing_plan_id":"cebpf4jnsgd1na2vs0mg"},{"bike_id":"ca6420db-70b8-41b0-8d3d-5846a4552aa5","system_id":"levelo_inurba_marseille","lat":43.29034,"lon":5.35898,"is_reserved":false,"is_disabled":false,"rental_uris":{"android":"levelo://app?vid=ca6420db-70b8-41b0-8d3d-5846a4552aa5","ios":"levelo://app?vid=ca6420db-70b8-41b0-8d3d-5846a4552aa5"},"vehicle_type_id":"4","last_reported":1735333686,"current_range_meters":38400,"station_id":"ce4bha92rcd13ifvqeg0","pricing_plan_id":"cebpf4jnsgd1na2vs0mg"},{"bike_id":"0040c17c-e92e-44b5-a6fb-3621bcac561f","system_id":"levelo_inurba_marseille","lat":43.27063,"lon":5.42277,"is_reserved":false,"is_disabled":false,"rental_uris":{"android":"levelo://app?vid=0040c17c-e92e-44b5-a6fb-3621bcac561f","ios":"levelo://app?vid=0040c17c-e92e-44b5-a6fb-3621bcac561f"},"vehicle_type_id":"4","last_reported":1735333686,"current_range_meters":28400,"station_id":"ce4bhk92rcd13ifvqgb0","pricing_plan_id":"cebpf4jnsgd1na2vs0mg"},{"bike_id":"705ab4c6-e818-4d06-b513-caca4e703da9","system_id":"levelo_inurba_marseille","lat":43.30645,"lon":5.4007,"is_reserved":false,"is_disabled":false,"rental_uris":{"android":"levelo://app?vid=705ab4c6-e818-4d06-b513-caca4e703da9","ios":"levelo://app?vid=705ab4c6-e818-4d06-b513-caca4e703da9"},"vehicle_type_id":"4","last_reported":1735333686,"current_range_meters":39200,"station_id":"ce4bh112rcd13ifvqda0","pricing_plan_id":"cebpf4jnsgd1na2vs0mg"},{"bike_id":"d1b5d535-3e09-45cc-9f65-1e48c42ea888","system_id":"levelo_inurba_marseille","lat":43.3054,"lon":5.36535,"is_reserved":false,"is_disabled":false,"rental_uris":{"android":"levelo://app?vid=d1b5d535-3e09-45cc-9f65-1e48c42ea888","ios":"levelo://app?vid=d1b5d535-3e09-45cc-9f65-1e48c42ea888"},"vehicle_type_id":"4","last_reported":1735333686,"current_range_meters":38800,"station_id":"ce4bgs12rcd13ifvqcag","pricing_plan_id":"cebpf4jnsgd1na2vs0mg"},{"bike_id":"416ab53b-279a-422e-99c8-cc6e97f84422","system_id":"levelo_inurba_marseille","lat":43.29575,"lon":5.37499,"is_reserved":false,"is_disabled":false,"rental_uris":{"android":"levelo://app?vid=416ab53b-279a-422e-99c8-cc6e97f84422","ios":"levelo://app?vid=416ab53b-279a-422e-99c8-cc6e97f84422"},"vehicle_type_id":"4","last_reported":1735333686,"current_range_meters":38800,"station_id":"ce4bgh92rcd13ifvqb50","pricing_plan_id":"cebpf4jnsgd1na2vs0mg"},{"bike_id":"9abd8a5d-5472-480b-98a2-09e9d24f416d","system_id":"levelo_inurba_marseille","lat":43.28351,"lon":5.38112,"is_reserved":false,"is_disabled":false,"rental_uris":{"android":"levelo://app?vid=9abd8a5d-5472-480b-98a2-09e9d24f416d","ios":"levelo://app?vid=9abd8a5d-5472-480b-98a2-09e9d24f416d"},"vehicle_type_id":"4","last_reported":1735333686,"current_range_meters":33600,"station_id":"ce4bh412rcd13ifvqdr0","pricing_plan_id":"cebpf4jnsgd1na2vs0mg"},{"bike_id":"9729fc41-f9c3-49f6-b29a-3e005f0daeb5","system_id":"levelo_inurba_marseille","lat":43.23061,"lon":5.35491,"is_reserved":false,"is_disabled":false,"rental_uris":{"android":"levelo://app?vid=9729fc41-f9c3-49f6-b29a-3e005f0daeb5","ios":"levelo://app?vid=9729fc41-f9c3-49f6-b29a-3e005f0daeb5"},"vehicle_type_id":"4","last_reported":1735333686,"current_range_meters":22800,"station_id":"cpo3342slgdg3j2ifvpg","pricing_plan_id":"cebpf4jnsgd1na2vs0mg"},{"bike_id":"01db7d1c-3388-47d9-8d30-2ae8980fde05","system_id":"levelo_inurba_marseille","lat":43.29608,"lon":5.37711,"is_reserved":false,"is_disabled":false,"rental_uris":{"android":"levelo://app?vid=01db7d1c-3388-47d9-8d30-2ae8980fde05","ios":"levelo://app?vid=01db7d1c-3388-47d9-8d30-2ae8980fde05"},"vehicle_type_id":"4","last_reported":1735333686,"current_range_meters":27600,"station_id":"ce4bgi92rcd13ifvqb90","pricing_plan_id":"cebpf4jnsgd1na2vs0mg"},{"bike_id":"790bcdbc-58a4-48d8-b411-c2f10b50baec","system_id":"levelo_inurba_marseille","lat":43.28617,"lon":5.35099,"is_reserved":false,"is_disabled":false,"rental_uris":{"android":"levelo://app?vid=790bcdbc-58a4-48d8-b411-c2f10b50baec","ios":"levelo://app?vid=790bcdbc-58a4-48d8-b411-c2f10b50baec"},"vehicle_type_id":"4","last_reported":1735333686,"current_range_meters":24000,"station_id":"ce4bhch2rcd13ifvqeug","pricing_plan_id":"cebpf4jnsgd1na2vs0mg"},{"bike_id":"356fd92d-e963-40e6-b40e-58fc72ac9553","system_id":"levelo_inurba_marseille","lat":43.32106,"lon":5.36769,"is_reserved":false,"is_disabled":false,"rental_uris":{"android":"levelo://app?vid=356fd92d-e963-40e6-b40e-58fc72ac9553","ios":"levelo://app?vid=356fd92d-e963-40e6-b40e-58fc72ac9553"},"vehicle_type_id":"4","last_reported":1735333686,"current_range_meters":18000,"station_id":"ce4bhrh2rcd13ifvqhug","pricing_plan_id":"cebpf4jnsgd1na2vs0mg"},{"bike_id":"a769a234-a55f-4af0-8775-90820960d82e","system_id":"levelo_inurba_marseille","lat":43.31085,"lon":5.4243,"is_reserved":false,"is_disabled":false,"rental_uris":{"android":"levelo://app?vid=a769a234-a55f-4af0-8775-90820960d82e","ios":"levelo://app?vid=a769a234-a55f-4af0-8775-90820960d82e"},"vehicle_type_id":"4","last_reported":1735333686,"current_range_meters":38800,"station_id":"ce4bhp92rcd13ifvqhag","pricing_plan_id":"cebpf4jnsgd1na2vs0mg"},{"bike_id":"90c942c7-cc9f-4ca0-a4bf-cccb4ac71e6f","system_id":"levelo_inurba_marseille","lat":43.25722,"lon":5.41107,"is_reserved":false,"is_disabled":false,"rental_uris":{"android":"levelo://app?vid=90c942c7-cc9f-4ca0-a4bf-cccb4ac71e6f","ios":"levelo://app?vid=90c942c7-cc9f-4ca0-a4bf-cccb4ac71e6f"},"vehicle_type_id":"4","last_reported":1735333686,"current_range_meters":36400,"station_id":"ce4bhkp2rcd13ifvqgd0","pricing_plan_id":"cebpf4jnsgd1na2vs0mg"},{"bike_id":"434e53ac-625c-4c63-a65b-88219d0a27b3","system_id":"levelo_inurba_marseille","lat":43.24808,"lon":5.37453,"is_reserved":false,"is_disabled":false,"rental_uris":{"android":"levelo://app?vid=434e53ac-625c-4c63-a65b-88219d0a27b3","ios":"levelo://app?vid=434e53ac-625c-4c63-a65b-88219d0a27b3"},"vehicle_type_id":"4","last_reported":1735333686,"current_range_meters":20000,"station_id":"ce4bhgh2rcd13ifvqfb0","pricing_plan_id":"cebpf4jnsgd1na2vs0mg"},{"bike_id":"fb63c9bf-9a35-43cd-88bd-664e9c45236c","system_id":"levelo_inurba_marseille","lat":43.29423,"lon":5.38622,"is_reserved":false,"is_disabled":false,"rental_uris":{"android":"levelo://app?vid=fb63c9bf-9a35-43cd-88bd-664e9c45236c","ios":"levelo://app?vid=fb63c9bf-9a35-43cd-88bd-664e9c45236c"},"vehicle_type_id":"4","last_reported":1735333686,"current_range_meters":24800,"station_id":"ce4bh2h2rcd13ifvqdh0","pricing_plan_id":"cebpf4jnsgd1na2vs0mg"},{"bike_id":"1a5fe85f-21f2-4c67-968f-111947a6581f","system_id":"levelo_inurba_marseille","lat":43.30643,"lon":5.40057,"is_reserved":false,"is_disabled":false,"rental_uris":{"android":"levelo://app?vid=1a5fe85f-21f2-4c67-968f-111947a6581f","ios":"levelo://app?vid=1a5fe85f-21f2-4c67-968f-111947a6581f"},"vehicle_type_id":"4","last_reported":1735333686,"current_range_meters":38400,"station_id":"ce4bh112rcd13ifvqda0","pricing_plan_id":"cebpf4jnsgd1na2vs0mg"},{"bike_id":"f0b82fa8-79c4-4a14-b077-6b9517f2ef3f","system_id":"levelo_inurba_marseille","lat":43.29649,"lon":5.37155,"is_reserved":false,"is_disabled":false,"rental_uris":{"android":"levelo://app?vid=f0b82fa8-79c4-4a14-b077-6b9517f2ef3f","ios":"levelo://app?vid=f0b82fa8-79c4-4a14-b077-6b9517f2ef3f"},"vehicle_type_id":"4","last_reported":1735333686,"current_range_meters":16000,"station_id":"ce4bgnh2rcd13ifvqc0g","pricing_plan_id":"cebpf4jnsgd1na2vs0mg"},{"bike_id":"42c474d7-8688-4230-aaba-b69b82de3b92","system_id":"levelo_inurba_marseille","lat":43.2952,"lon":5.37514,"is_reserved":false,"is_disabled":false,"rental_uris":{"android":"levelo://app?vid=42c474d7-8688-4230-aaba-b69b82de3b92","ios":"levelo://app?vid=42c474d7-8688-4230-aaba-b69b82de3b92"},"vehicle_type_id":"4","last_reported":1735333686,"current_range_meters":23200,"station_id":"ce4bgkp2rcd13ifvqbmg","pricing_plan_id":"cebpf4jnsgd1na2vs0mg"},{"bike_id":"9ad04e8c-6104-421d-9b0a-a34fdd8770ba","system_id":"levelo_inurba_marseille","lat":43.29523,"lon":5.3941,"is_reserved":false,"is_disabled":false,"rental_uris":{"android":"levelo://app?vid=9ad04e8c-6104-421d-9b0a-a34fdd8770ba","ios":"levelo://app?vid=9ad04e8c-6104-421d-9b0a-a34fdd8770ba"},"vehicle_type_id":"4","last_reported":1735333686,"current_range_meters":27600,"station_id":"ce4bh292rcd13ifvqdf0","pricing_plan_id":"cebpf4jnsgd1na2vs0mg"},{"bike_id":"673ed0fe-3027-4e1f-9efc-2804b0e32190","system_id":"levelo_inurba_marseille","lat":43.26689,"lon":5.38273,"is_reserved":false,"is_disabled":false,"rental_uris":{"android":"levelo://app?vid=673ed0fe-3027-4e1f-9efc-2804b0e32190","ios":"levelo://app?vid=673ed0fe-3027-4e1f-9efc-2804b0e32190"},"vehicle_type_id":"4","last_reported":1735333686,"current_range_meters":16800,"station_id":"ce4bhg92rcd13ifvqf90","pricing_plan_id":"cebpf4jnsgd1na2vs0mg"},{"bike_id":"d867ab7d-c5ed-4841-b9e5-8e2221fa856c","system_id":"levelo_inurba_marseille","lat":43.28721,"lon":5.37928,"is_reserved":false,"is_disabled":false,"rental_uris":{"android":"levelo://app?vid=d867ab7d-c5ed-4841-b9e5-8e2221fa856c","ios":"levelo://app?vid=d867ab7d-c5ed-4841-b9e5-8e2221fa856c"},"vehicle_type_id":"4","last_reported":1735333686,"current_range_meters":34800,"station_id":"ce4bh9p2rcd13ifvqec0","pricing_plan_id":"cebpf4jnsgd1na2vs0mg"},{"bike_id":"c44d4815-52d6-43ee-9db8-9a0a06fa22bf","system_id":"levelo_inurba_marseille","lat":43.30906,"lon":5.36837,"is_reserved":false,"is_disabled":false,"rental_uris":{"android":"levelo://app?vid=c44d4815-52d6-43ee-9db8-9a0a06fa22bf","ios":"levelo://app?vid=c44d4815-52d6-43ee-9db8-9a0a06fa22bf"},"vehicle_type_id":"4","last_reported":1735333686,"current_range_meters":38800,"station_id":"ce4bgn92rcd13ifvqbvg","pricing_plan_id":"cebpf4jnsgd1na2vs0mg"},{"bike_id":"e83bf817-e113-4a27-a0b8-e9a1539c6d1d","system_id":"levelo_inurba_marseille","lat":43.28493,"lon":5.3856,"is_reserved":false,"is_disabled":false,"rental_uris":{"android":"levelo://app?vid=e83bf817-e113-4a27-a0b8-e9a1539c6d1d","ios":"levelo://app?vid=e83bf817-e113-4a27-a0b8-e9a1539c6d1d"},"vehicle_type_id":"4","last_reported":1735333686,"current_range_meters":38800,"station_id":"ce4bh8p2rcd13ifvqeb0","pricing_plan_id":"cebpf4jnsgd1na2vs0mg"},{"bike_id":"d9577eba-83d9-455f-9a83-d14b0714869a","system_id":"levelo_inurba_marseille","lat":43.30299,"lon":5.39228,"is_reserved":false,"is_disabled":false,"rental_uris":{"android":"levelo://app?vid=d9577eba-83d9-455f-9a83-d14b0714869a","ios":"levelo://app?vid=d9577eba-83d9-455f-9a83-d14b0714869a"},"vehicle_type_id":"4","last_reported":1735333686,"current_range_meters":28800,"station_id":"ce4bgkh2rcd13ifvqbk0","pricing_plan_id":"cebpf4jnsgd1na2vs0mg"},{"bike_id":"4edf1a42-d1cb-4e42-a8d9-af12f276347c","system_id":"levelo_inurba_marseille","lat":43.26935,"lon":5.40259,"is_reserved":false,"is_disabled":false,"rental_uris":{"android":"levelo://app?vid=4edf1a42-d1cb-4e42-a8d9-af12f276347c","ios":"levelo://app?vid=4edf1a42-d1cb-4e42-a8d9-af12f276347c"},"vehicle_type_id":"4","last_reported":1735333686,"current_range_meters":37600,"station_id":"cjm6bp8fraef2m0cb0m0","pricing_plan_id":"cebpf4jnsgd1na2vs0mg"},{"bike_id":"e251fbdc-aee1-4174-a904-a67fb7c0b1da","system_id":"levelo_inurba_marseille","lat":43.31762,"lon":5.39014,"is_reserved":false,"is_disabled":false,"rental_uris":{"android":"levelo://app?vid=e251fbdc-aee1-4174-a904-a67fb7c0b1da","ios":"levelo://app?vid=e251fbdc-aee1-4174-a904-a67fb7c0b1da"},"vehicle_type_id":"4","last_reported":1735333686,"current_range_meters":27200,"station_id":"ce4bhqp2rcd13ifvqhng","pricing_plan_id":"cebpf4jnsgd1na2vs0mg"},{"bike_id":"e4c477c2-7de5-4221-8c03-48f7497fb7c9","system_id":"levelo_inurba_marseille","lat":43.30785,"lon":5.3766,"is_reserved":false,"is_disabled":false,"rental_uris":{"android":"levelo://app?vid=e4c477c2-7de5-4221-8c03-48f7497fb7c9","ios":"levelo://app?vid=e4c477c2-7de5-4221-8c03-48f7497fb7c9"},"vehicle_type_id":"4","last_reported":1735333686,"current_range_meters":37600,"station_id":"ce4bgv92rcd13ifvqcq0","pricing_plan_id":"cebpf4jnsgd1na2vs0mg"},{"bike_id":"14c4604c-5ab5-43ed-a312-d8d8b861e5cf","system_id":"levelo_inurba_marseille","lat":43.3149,"lon":5.373,"is_reserved":false,"is_disabled":false,"rental_uris":{"android":"levelo://app?vid=14c4604c-5ab5-43ed-a312-d8d8b861e5cf","ios":"levelo://app?vid=14c4604c-5ab5-43ed-a312-d8d8b861e5cf"},"vehicle_type_id":"4","last_reported":1735333686,"current_range_meters":38800,"station_id":"ce4bgt12rcd13ifvqcd0","pricing_plan_id":"cebpf4jnsgd1na2vs0mg"},{"bike_id":"d4b0a7a3-1f08-45d8-97d5-129a1711b5cc","system_id":"levelo_inurba_marseille","lat":43.30128,"lon":5.39871,"is_reserved":false,"is_disabled":false,"rental_uris":{"android":"levelo://app?vid=d4b0a7a3-1f08-45d8-97d5-129a1711b5cc","ios":"levelo://app?vid=d4b0a7a3-1f08-45d8-97d5-129a1711b5cc"},"vehicle_type_id":"4","last_reported":1735333686,"current_range_meters":32400,"station_id":"ce4bh0h2rcd13ifvqd40","pricing_plan_id":"cebpf4jnsgd1na2vs0mg"},{"bike_id":"eeb83d24-5872-44d9-a391-06f4c40457da","system_id":"levelo_inurba_marseille","lat":43.30133,"lon":5.38781,"is_reserved":false,"is_disabled":false,"rental_uris":{"android":"levelo://app?vid=eeb83d24-5872-44d9-a391-06f4c40457da","ios":"levelo://app?vid=eeb83d24-5872-44d9-a391-06f4c40457da"},"vehicle_type_id":"4","last_reported":1735333686,"current_range_meters":38800,"station_id":"ce4bghh2rcd13ifvqb60","pricing_plan_id":"cebpf4jnsgd1na2vs0mg"},{"bike_id":"e07f17cb-27ad-4f87-ba7c-7a4bd3b83819","system_id":"levelo_inurba_marseille","lat":43.32489,"lon":5.36568,"is_reserved":false,"is_disabled":false,"rental_uris":{"android":"levelo://app?vid=e07f17cb-27ad-4f87-ba7c-7a4bd3b83819","ios":"levelo://app?vid=e07f17cb-27ad-4f87-ba7c-7a4bd3b83819"},"vehicle_type_id":"4","last_reported":1735333686,"current_range_meters":37600,"station_id":"ce4bhs12rcd13ifvqhvg","pricing_plan_id":"cebpf4jnsgd1na2vs0mg"},{"bike_id":"4142761d-2812-41dc-8f23-3a923462f285","system_id":"levelo_inurba_marseille","lat":43.25577,"lon":5.38222,"is_reserved":false,"is_disabled":false,"rental_uris":{"android":"levelo://app?vid=4142761d-2812-41dc-8f23-3a923462f285","ios":"levelo://app?vid=4142761d-2812-41dc-8f23-3a923462f285"},"vehicle_type_id":"4","last_reported":1735333686,"current_range_meters":17200,"station_id":"ce4bhih2rcd13ifvqfs0","pricing_plan_id":"cebpf4jnsgd1na2vs0mg"},{"bike_id":"f32d7991-830c-4d27-bfe2-ab40279fd6de","system_id":"levelo_inurba_marseille","lat":43.2835,"lon":5.38101,"is_reserved":false,"is_disabled":false,"rental_uris":{"android":"levelo://app?vid=f32d7991-830c-4d27-bfe2-ab40279fd6de","ios":"levelo://app?vid=f32d7991-830c-4d27-bfe2-ab40279fd6de"},"vehicle_type_id":"4","last_reported":1735333686,"current_range_meters":19600,"station_id":"ce4bh412rcd13ifvqdr0","pricing_plan_id":"cebpf4jnsgd1na2vs0mg"},{"bike_id":"7890a301-a88f-4909-b599-1892e02f226c","system_id":"levelo_inurba_marseille","lat":43.29541,"lon":5.37491,"is_reserved":false,"is_disabled":false,"rental_uris":{"android":"levelo://app?vid=7890a301-a88f-4909-b599-1892e02f226c","ios":"levelo://app?vid=7890a301-a88f-4909-b599-1892e02f226c"},"vehicle_type_id":"4","last_reported":1735333686,"current_range_meters":28400,"station_id":"ce4bgkp2rcd13ifvqbmg","pricing_plan_id":"cebpf4jnsgd1na2vs0mg"},{"bike_id":"f9bf07a3-d52a-4e29-a667-bb52a902ba73","system_id":"levelo_inurba_marseille","lat":43.337444,"lon":5.374475,"is_reserved":false,"is_disabled":true,"rental_uris":{"android":"levelo://app?vid=f9bf07a3-d52a-4e29-a667-bb52a902ba73","ios":"levelo://app?vid=f9bf07a3-d52a-4e29-a667-bb52a902ba73"},"vehicle_type_id":"4","last_reported":1735333686,"current_range_meters":4000,"station_id":"","pricing_plan_id":"cebpf4jnsgd1na2vs0mg"},{"bike_id":"2f5e8391-d1c8-441b-95f4-b62c597259d2","system_id":"levelo_inurba_marseille","lat":43.29806,"lon":5.38093,"is_reserved":false,"is_disabled":false,"rental_uris":{"android":"levelo://app?vid=2f5e8391-d1c8-441b-95f4-b62c597259d2","ios":"levelo://app?vid=2f5e8391-d1c8-441b-95f4-b62c597259d2"},"vehicle_type_id":"4","last_reported":1735333686,"current_range_meters":28800,"station_id":"ce4bgip2rcd13ifvqbb0","pricing_plan_id":"cebpf4jnsgd1na2vs0mg"},{"bike_id":"6ba8a39e-74f8-4784-8126-9d6269b4d95a","system_id":"levelo_inurba_marseille","lat":43.30544,"lon":5.38441,"is_reserved":false,"is_disabled":false,"rental_uris":{"android":"levelo://app?vid=6ba8a39e-74f8-4784-8126-9d6269b4d95a","ios":"levelo://app?vid=6ba8a39e-74f8-4784-8126-9d6269b4d95a"},"vehicle_type_id":"4","last_reported":1735333686,"current_range_meters":38800,"station_id":"ce4bgg92rcd13ifvqb30","pricing_plan_id":"cebpf4jnsgd1na2vs0mg"},{"bike_id":"d5ddbfd8-c695-45c7-8f75-3f1b7776c13d","system_id":"levelo_inurba_marseille","lat":43.22933,"lon":5.35374,"is_reserved":false,"is_disabled":false,"rental_uris":{"android":"levelo://app?vid=d5ddbfd8-c695-45c7-8f75-3f1b7776c13d","ios":"levelo://app?vid=d5ddbfd8-c695-45c7-8f75-3f1b7776c13d"},"vehicle_type_id":"4","last_reported":1735333686,"current_range_meters":27600,"station_id":"cpo3532slgdg3j2ikp40","pricing_plan_id":"cebpf4jnsgd1na2vs0mg"},{"bike_id":"eeb0d433-3c14-490c-a1c3-e6268649a012","system_id":"levelo_inurba_marseille","lat":43.27068,"lon":5.42277,"is_reserved":false,"is_disabled":false,"rental_uris":{"android":"levelo://app?vid=eeb0d433-3c14-490c-a1c3-e6268649a012","ios":"levelo://app?vid=eeb0d433-3c14-490c-a1c3-e6268649a012"},"vehicle_type_id":"4","last_reported":1735333686,"current_range_meters":38800,"station_id":"ce4bhk92rcd13ifvqgb0","pricing_plan_id":"cebpf4jnsgd1na2vs0mg"},{"bike_id":"b6c22b8d-7b41-43c7-8f8c-df4853d52a2c","system_id":"levelo_inurba_marseille","lat":43.30319,"lon":5.40442,"is_reserved":false,"is_disabled":true,"rental_uris":{"android":"levelo://app?vid=b6c22b8d-7b41-43c7-8f8c-df4853d52a2c","ios":"levelo://app?vid=b6c22b8d-7b41-43c7-8f8c-df4853d52a2c"},"vehicle_type_id":"4","last_reported":1735333686,"current_range_meters":12000,"station_id":"ce4bh012rcd13ifvqd10","pricing_plan_id":"cebpf4jnsgd1na2vs0mg"},{"bike_id":"e02da87a-3787-4845-b595-90c97adb691a","system_id":"levelo_inurba_marseille","lat":43.28404,"lon":5.37522,"is_reserved":false,"is_disabled":false,"rental_uris":{"android":"levelo://app?vid=e02da87a-3787-4845-b595-90c97adb691a","ios":"levelo://app?vid=e02da87a-3787-4845-b595-90c97adb691a"},"vehicle_type_id":"4","last_reported":1735333686,"current_range_meters":37600,"station_id":"ce4bh412rcd13ifvqds0","pricing_plan_id":"cebpf4jnsgd1na2vs0mg"},{"bike_id":"5477d212-35e2-4622-b27a-bfe5ff434d03","system_id":"levelo_inurba_marseille","lat":43.337603,"lon":5.374424,"is_reserved":false,"is_disabled":false,"rental_uris":{"android":"levelo://app?vid=5477d212-35e2-4622-b27a-bfe5ff434d03","ios":"levelo://app?vid=5477d212-35e2-4622-b27a-bfe5ff434d03"},"vehicle_type_id":"4","last_reported":1735333686,"current_range_meters":28400,"station_id":"","pricing_plan_id":"cebpf4jnsgd1na2vs0mg"},{"bike_id":"cde3f170-06b0-4e91-aa69-fb37991af807","system_id":"levelo_inurba_marseille","lat":43.28685,"lon":5.38657,"is_reserved":false,"is_disabled":false,"rental_uris":{"android":"levelo://app?vid=cde3f170-06b0-4e91-aa69-fb37991af807","ios":"levelo://app?vid=cde3f170-06b0-4e91-aa69-fb37991af807"},"vehicle_type_id":"4","last_reported":1735333686,"current_range_meters":38800,"station_id":"ce4bh492rcd13ifvqdug","pricing_plan_id":"cebpf4jnsgd1na2vs0mg"},{"bike_id":"5a802484-205f-4162-92e9-78b9392c2155","system_id":"levelo_inurba_marseille","lat":43.2938,"lon":5.37834,"is_reserved":false,"is_disabled":false,"rental_uris":{"android":"levelo://app?vid=5a802484-205f-4162-92e9-78b9392c2155","ios":"levelo://app?vid=5a802484-205f-4162-92e9-78b9392c2155"},"vehicle_type_id":"4","last_reported":1735333686,"current_range_meters":28800,"station_id":"ce4bgjh2rcd13ifvqbf0","pricing_plan_id":"cebpf4jnsgd1na2vs0mg"},{"bike_id":"32df82ce-6219-4736-8eb8-fc8999cbfd21","system_id":"levelo_inurba_marseille","lat":43.261962,"lon":5.37924,"is_reserved":false,"is_disabled":false,"rental_uris":{"android":"levelo://app?vid=32df82ce-6219-4736-8eb8-fc8999cbfd21","ios":"levelo://app?vid=32df82ce-6219-4736-8eb8-fc8999cbfd21"},"vehicle_type_id":"4","last_reported":1735333686,"current_range_meters":38800,"station_id":"ce4bhjp2rcd13ifvqg90","pricing_plan_id":"cebpf4jnsgd1na2vs0mg"},{"bike_id":"5976d56c-5844-4f84-97ab-5a8ffce2a323","system_id":"levelo_inurba_marseille","lat":43.29812,"lon":5.38055,"is_reserved":false,"is_disabled":false,"rental_uris":{"android":"levelo://app?vid=5976d56c-5844-4f84-97ab-5a8ffce2a323","ios":"levelo://app?vid=5976d56c-5844-4f84-97ab-5a8ffce2a323"},"vehicle_type_id":"4","last_reported":1735333686,"current_range_meters":36400,"station_id":"ce4bgip2rcd13ifvqbb0","pricing_plan_id":"cebpf4jnsgd1na2vs0mg"},{"bike_id":"025fb461-f907-4224-9cf1-5f047543e8ef","system_id":"levelo_inurba_marseille","lat":43.29989,"lon":5.38475,"is_reserved":false,"is_disabled":false,"rental_uris":{"android":"levelo://app?vid=025fb461-f907-4224-9cf1-5f047543e8ef","ios":"levelo://app?vid=025fb461-f907-4224-9cf1-5f047543e8ef"},"vehicle_type_id":"4","last_reported":1735333686,"current_range_meters":18000,"station_id":"ce4bgj92rcd13ifvqbd0","pricing_plan_id":"cebpf4jnsgd1na2vs0mg"},{"bike_id":"e68b5ff2-7b9b-4e19-bea2-9f7a94928da6","system_id":"levelo_inurba_marseille","lat":43.32658,"lon":5.40994,"is_reserved":false,"is_disabled":false,"rental_uris":{"android":"levelo://app?vid=e68b5ff2-7b9b-4e19-bea2-9f7a94928da6","ios":"levelo://app?vid=e68b5ff2-7b9b-4e19-bea2-9f7a94928da6"},"vehicle_type_id":"4","last_reported":1735333686,"current_range_meters":20800,"station_id":"ce4bhpp2rcd13ifvqhgg","pricing_plan_id":"cebpf4jnsgd1na2vs0mg"},{"bike_id":"1ae1f4c6-b685-4cec-8ee1-c0fd77539391","system_id":"levelo_inurba_marseille","lat":43.31491,"lon":5.37295,"is_reserved":false,"is_disabled":false,"rental_uris":{"android":"levelo://app?vid=1ae1f4c6-b685-4cec-8ee1-c0fd77539391","ios":"levelo://app?vid=1ae1f4c6-b685-4cec-8ee1-c0fd77539391"},"vehicle_type_id":"4","last_reported":1735333686,"current_range_meters":38800,"station_id":"ce4bgt12rcd13ifvqcd0","pricing_plan_id":"cebpf4jnsgd1na2vs0mg"},{"bike_id":"4d6a057b-d552-4b8a-a7f3-d62231426375","system_id":"levelo_inurba_marseille","lat":43.306,"lon":5.37226,"is_reserved":false,"is_disabled":false,"rental_uris":{"android":"levelo://app?vid=4d6a057b-d552-4b8a-a7f3-d62231426375","ios":"levelo://app?vid=4d6a057b-d552-4b8a-a7f3-d62231426375"},"vehicle_type_id":"4","last_reported":1735333686,"current_range_meters":16000,"station_id":"ce4bgqh2rcd13ifvqc4g","pricing_plan_id":"cebpf4jnsgd1na2vs0mg"},{"bike_id":"3deeb153-8183-495f-a95d-408ac615dcde","system_id":"levelo_inurba_marseille","lat":43.28001,"lon":5.39996,"is_reserved":false,"is_disabled":false,"rental_uris":{"android":"levelo://app?vid=3deeb153-8183-495f-a95d-408ac615dcde","ios":"levelo://app?vid=3deeb153-8183-495f-a95d-408ac615dcde"},"vehicle_type_id":"4","last_reported":1735333686,"current_range_meters":39200,"station_id":"ce4bho92rcd13ifvqh4g","pricing_plan_id":"cebpf4jnsgd1na2vs0mg"},{"bike_id":"702cbc40-d3b5-4a26-82d0-d8f16a07dada","system_id":"levelo_inurba_marseille","lat":43.30433,"lon":5.38893,"is_reserved":false,"is_disabled":false,"rental_uris":{"android":"levelo://app?vid=702cbc40-d3b5-4a26-82d0-d8f16a07dada","ios":"levelo://app?vid=702cbc40-d3b5-4a26-82d0-d8f16a07dada"},"vehicle_type_id":"4","last_reported":1735333686,"current_range_meters":26000,"station_id":"ce4bgk12rcd13ifvqbi0","pricing_plan_id":"cebpf4jnsgd1na2vs0mg"},{"bike_id":"fac2d89a-31ba-4cef-b338-26a3a62f7d71","system_id":"levelo_inurba_marseille","lat":43.30746,"lon":5.37647,"is_reserved":false,"is_disabled":false,"rental_uris":{"android":"levelo://app?vid=fac2d89a-31ba-4cef-b338-26a3a62f7d71","ios":"levelo://app?vid=fac2d89a-31ba-4cef-b338-26a3a62f7d71"},"vehicle_type_id":"4","last_reported":1735333686,"current_range_meters":36800,"station_id":"","pricing_plan_id":"cebpf4jnsgd1na2vs0mg"},{"bike_id":"28bd3904-ffcb-4595-8c51-c947161caafc","system_id":"levelo_inurba_marseille","lat":43.29619,"lon":5.37714,"is_reserved":false,"is_disabled":false,"rental_uris":{"android":"levelo://app?vid=28bd3904-ffcb-4595-8c51-c947161caafc","ios":"levelo://app?vid=28bd3904-ffcb-4595-8c51-c947161caafc"},"vehicle_type_id":"4","last_reported":1735333686,"current_range_meters":19600,"station_id":"ce4bgi92rcd13ifvqb90","pricing_plan_id":"cebpf4jnsgd1na2vs0mg"},{"bike_id":"3a904e51-1268-4daa-a559-3224cbaee71f","system_id":"levelo_inurba_marseille","lat":43.29264,"lon":5.38441,"is_reserved":false,"is_disabled":false,"rental_uris":{"android":"levelo://app?vid=3a904e51-1268-4daa-a559-3224cbaee71f","ios":"levelo://app?vid=3a904e51-1268-4daa-a559-3224cbaee71f"},"vehicle_type_id":"4","last_reported":1735333686,"current_range_meters":17200,"station_id":"ce4bh692rcd13ifvqea0","pricing_plan_id":"cebpf4jnsgd1na2vs0mg"},{"bike_id":"dbbf4e6b-3175-422b-b8a2-f2ced45cf483","system_id":"levelo_inurba_marseille","lat":43.25115,"lon":5.40329,"is_reserved":false,"is_disabled":false,"rental_uris":{"android":"levelo://app?vid=dbbf4e6b-3175-422b-b8a2-f2ced45cf483","ios":"levelo://app?vid=dbbf4e6b-3175-422b-b8a2-f2ced45cf483"},"vehicle_type_id":"4","last_reported":1735333686,"current_range_meters":39200,"station_id":"ce4bhlh2rcd13ifvqgig","pricing_plan_id":"cebpf4jnsgd1na2vs0mg"},{"bike_id":"96f82544-6c3e-4621-a694-fba76dde99dd","system_id":"levelo_inurba_marseille","lat":43.29198,"lon":5.39267,"is_reserved":false,"is_disabled":false,"rental_uris":{"android":"levelo://app?vid=96f82544-6c3e-4621-a694-fba76dde99dd","ios":"levelo://app?vid=96f82544-6c3e-4621-a694-fba76dde99dd"},"vehicle_type_id":"4","last_reported":1735333686,"current_range_meters":22000,"station_id":"ce4bh192rcd13ifvqdd0","pricing_plan_id":"cebpf4jnsgd1na2vs0mg"},{"bike_id":"c0addf0e-4fa3-4fe6-81e5-8b091181cb13","system_id":"levelo_inurba_marseille","lat":43.28944,"lon":5.36392,"is_reserved":false,"is_disabled":false,"rental_uris":{"android":"levelo://app?vid=c0addf0e-4fa3-4fe6-81e5-8b091181cb13","ios":"levelo://app?vid=c0addf0e-4fa3-4fe6-81e5-8b091181cb13"},"vehicle_type_id":"4","last_reported":1735333686,"current_range_meters":28800,"station_id":"ce4bhc92rcd13ifvqetg","pricing_plan_id":"cebpf4jnsgd1na2vs0mg"},{"bike_id":"8f2a6914-bba4-4ace-a8cf-6c59b4633c74","system_id":"levelo_inurba_marseille","lat":43.27626,"lon":5.36097,"is_reserved":false,"is_disabled":true,"rental_uris":{"android":"levelo://app?vid=8f2a6914-bba4-4ace-a8cf-6c59b4633c74","ios":"levelo://app?vid=8f2a6914-bba4-4ace-a8cf-6c59b4633c74"},"vehicle_type_id":"4","last_reported":1735333686,"current_range_meters":16400,"station_id":"ce4bgj92rcd13ifvqbe0","pricing_plan_id":"cebpf4jnsgd1na2vs0mg"},{"bike_id":"5e1218c5-04fb-4a69-b12c-727f66aad766","system_id":"levelo_inurba_marseille","lat":43.26212,"lon":5.37456,"is_reserved":false,"is_disabled":false,"rental_uris":{"android":"levelo://app?vid=5e1218c5-04fb-4a69-b12c-727f66aad766","ios":"levelo://app?vid=5e1218c5-04fb-4a69-b12c-727f66aad766"},"vehicle_type_id":"4","last_reported":1735333686,"current_range_meters":38000,"station_id":"ce4bhgp2rcd13ifvqfc0","pricing_plan_id":"cebpf4jnsgd1na2vs0mg"},{"bike_id":"421c6551-132c-4015-aab8-f2eccc5315e9","system_id":"levelo_inurba_marseille","lat":43.32598,"lon":5.41199,"is_reserved":false,"is_disabled":true,"rental_uris":{"android":"levelo://app?vid=421c6551-132c-4015-aab8-f2eccc5315e9","ios":"levelo://app?vid=421c6551-132c-4015-aab8-f2eccc5315e9"},"vehicle_type_id":"4","last_reported":1735333686,"current_range_meters":0,"station_id":"ce4bhq12rcd13ifvqhig","pricing_plan_id":"cebpf4jnsgd1na2vs0mg"},{"bike_id":"043a9fa1-4e99-4458-b21f-79e4b7e6d16a","system_id":"levelo_inurba_marseille","lat":43.29533,"lon":5.38545,"is_reserved":false,"is_disabled":false,"rental_uris":{"android":"levelo://app?vid=043a9fa1-4e99-4458-b21f-79e4b7e6d16a","ios":"levelo://app?vid=043a9fa1-4e99-4458-b21f-79e4b7e6d16a"},"vehicle_type_id":"4","last_reported":1735333686,"current_range_meters":32800,"station_id":"ce4bgih2rcd13ifvqba0","pricing_plan_id":"cebpf4jnsgd1na2vs0mg"},{"bike_id":"00590e98-5f93-4f69-afed-59f5ef82e997","system_id":"levelo_inurba_marseille","lat":43.29223,"lon":5.36064,"is_reserved":false,"is_disabled":false,"rental_uris":{"android":"levelo://app?vid=00590e98-5f93-4f69-afed-59f5ef82e997","ios":"levelo://app?vid=00590e98-5f93-4f69-afed-59f5ef82e997"},"vehicle_type_id":"4","last_reported":1735333686,"current_range_meters":32800,"station_id":"ce4bhbh2rcd13ifvqeqg","pricing_plan_id":"cebpf4jnsgd1na2vs0mg"},{"bike_id":"9b033979-22fb-4fbe-862b-12b59af70025","system_id":"levelo_inurba_marseille","lat":43.23063,"lon":5.35495,"is_reserved":false,"is_disabled":false,"rental_uris":{"android":"levelo://app?vid=9b033979-22fb-4fbe-862b-12b59af70025","ios":"levelo://app?vid=9b033979-22fb-4fbe-862b-12b59af70025"},"vehicle_type_id":"4","last_reported":1735333686,"current_range_meters":32000,"station_id":"cpo3342slgdg3j2ifvpg","pricing_plan_id":"cebpf4jnsgd1na2vs0mg"},{"bike_id":"2ac2fb8a-e82c-4ab9-8218-39957727b53a","system_id":"levelo_inurba_marseille","lat":43.29895,"lon":5.38146,"is_reserved":false,"is_disabled":false,"rental_uris":{"android":"levelo://app?vid=2ac2fb8a-e82c-4ab9-8218-39957727b53a","ios":"levelo://app?vid=2ac2fb8a-e82c-4ab9-8218-39957727b53a"},"vehicle_type_id":"4","last_reported":1735333686,"current_range_meters":37600,"station_id":"ce4bgj12rcd13ifvqbc0","pricing_plan_id":"cebpf4jnsgd1na2vs0mg"},{"bike_id":"406e9721-c5a6-423a-bcb7-0c45a1e0f1c4","system_id":"levelo_inurba_marseille","lat":43.29022,"lon":5.38128,"is_reserved":false,"is_disabled":false,"rental_uris":{"android":"levelo://app?vid=406e9721-c5a6-423a-bcb7-0c45a1e0f1c4","ios":"levelo://app?vid=406e9721-c5a6-423a-bcb7-0c45a1e0f1c4"},"vehicle_type_id":"4","last_reported":1735333686,"current_range_meters":33600,"station_id":"ce4bh4p2rcd13ifvqe1g","pricing_plan_id":"cebpf4jnsgd1na2vs0mg"},{"bike_id":"f64196d8-ebfb-4a4d-901e-f48e97e0fa65","system_id":"levelo_inurba_marseille","lat":43.25577,"lon":5.38236,"is_reserved":false,"is_disabled":false,"rental_uris":{"android":"levelo://app?vid=f64196d8-ebfb-4a4d-901e-f48e97e0fa65","ios":"levelo://app?vid=f64196d8-ebfb-4a4d-901e-f48e97e0fa65"},"vehicle_type_id":"4","last_reported":1735333686,"current_range_meters":37600,"station_id":"ce4bhih2rcd13ifvqfs0","pricing_plan_id":"cebpf4jnsgd1na2vs0mg"},{"bike_id":"7ed14772-43fd-4e91-9682-602d4d8bddbc","system_id":"levelo_inurba_marseille","lat":43.24648,"lon":5.38894,"is_reserved":false,"is_disabled":false,"rental_uris":{"android":"levelo://app?vid=7ed14772-43fd-4e91-9682-602d4d8bddbc","ios":"levelo://app?vid=7ed14772-43fd-4e91-9682-602d4d8bddbc"},"vehicle_type_id":"4","last_reported":1735333686,"current_range_meters":38800,"station_id":"ce4bhg12rcd13ifvqf60","pricing_plan_id":"cebpf4jnsgd1na2vs0mg"},{"bike_id":"3fd0ce8b-62e5-482c-86d5-ed88c92ffef8","system_id":"levelo_inurba_marseille","lat":43.27444,"lon":5.39425,"is_reserved":false,"is_disabled":false,"rental_uris":{"android":"levelo://app?vid=3fd0ce8b-62e5-482c-86d5-ed88c92ffef8","ios":"levelo://app?vid=3fd0ce8b-62e5-482c-86d5-ed88c92ffef8"},"vehicle_type_id":"4","last_reported":1735333686,"current_range_meters":15200,"station_id":"ce4bhdp2rcd13ifvqf20","pricing_plan_id":"cebpf4jnsgd1na2vs0mg"},{"bike_id":"c9e5d6c6-5601-4769-be5c-20fef93ca121","system_id":"levelo_inurba_marseille","lat":43.2417,"lon":5.36391,"is_reserved":false,"is_disabled":false,"rental_uris":{"android":"levelo://app?vid=c9e5d6c6-5601-4769-be5c-20fef93ca121","ios":"levelo://app?vid=c9e5d6c6-5601-4769-be5c-20fef93ca121"},"vehicle_type_id":"4","last_reported":1735333686,"current_range_meters":21600,"station_id":"cpo36qri1sfpv3e86is0","pricing_plan_id":"cebpf4jnsgd1na2vs0mg"},{"bike_id":"c5b62650-0d93-4727-8499-3b56b3ba151d","system_id":"levelo_inurba_marseille","lat":43.27945,"lon":5.41049,"is_reserved":false,"is_disabled":false,"rental_uris":{"android":"levelo://app?vid=c5b62650-0d93-4727-8499-3b56b3ba151d","ios":"levelo://app?vid=c5b62650-0d93-4727-8499-3b56b3ba151d"},"vehicle_type_id":"4","last_reported":1735333686,"current_range_meters":38000,"station_id":"ce4bhnp2rcd13ifvqh0g","pricing_plan_id":"cebpf4jnsgd1na2vs0mg"},{"bike_id":"548b2d79-54d6-4c1e-abdd-d982c42234dd","system_id":"levelo_inurba_marseille","lat":43.28015,"lon":5.38757,"is_reserved":false,"is_disabled":false,"rental_uris":{"android":"levelo://app?vid=548b2d79-54d6-4c1e-abdd-d982c42234dd","ios":"levelo://app?vid=548b2d79-54d6-4c1e-abdd-d982c42234dd"},"vehicle_type_id":"4","last_reported":1735333686,"current_range_meters":38800,"station_id":"ce4bhg12rcd13ifvqf80","pricing_plan_id":"cebpf4jnsgd1na2vs0mg"},{"bike_id":"8dc0edca-2d83-43db-b2b6-d78e1244e192","system_id":"levelo_inurba_marseille","lat":43.23072,"lon":5.35494,"is_reserved":false,"is_disabled":false,"rental_uris":{"android":"levelo://app?vid=8dc0edca-2d83-43db-b2b6-d78e1244e192","ios":"levelo://app?vid=8dc0edca-2d83-43db-b2b6-d78e1244e192"},"vehicle_type_id":"4","last_reported":1735333686,"current_range_meters":6800,"station_id":"cpo3342slgdg3j2ifvpg","pricing_plan_id":"cebpf4jnsgd1na2vs0mg"},{"bike_id":"a4286d8e-d962-4876-9851-92516426fa45","system_id":"levelo_inurba_marseille","lat":43.30323,"lon":5.40447,"is_reserved":false,"is_disabled":false,"rental_uris":{"android":"levelo://app?vid=a4286d8e-d962-4876-9851-92516426fa45","ios":"levelo://app?vid=a4286d8e-d962-4876-9851-92516426fa45"},"vehicle_type_id":"4","last_reported":1735333686,"current_range_meters":10800,"station_id":"ce4bh012rcd13ifvqd10","pricing_plan_id":"cebpf4jnsgd1na2vs0mg"},{"bike_id":"cb194da0-3794-4ab2-9ff3-033ee8f9925e","system_id":"levelo_inurba_marseille","lat":43.29552,"lon":5.39419,"is_reserved":false,"is_disabled":false,"rental_uris":{"android":"levelo://app?vid=cb194da0-3794-4ab2-9ff3-033ee8f9925e","ios":"levelo://app?vid=cb194da0-3794-4ab2-9ff3-033ee8f9925e"},"vehicle_type_id":"4","last_reported":1735333686,"current_range_meters":38400,"station_id":"ce4bh292rcd13ifvqdf0","pricing_plan_id":"cebpf4jnsgd1na2vs0mg"},{"bike_id":"fbec4ea5-65d3-402f-907b-b448d00dedaa","system_id":"levelo_inurba_marseille","lat":43.26204,"lon":5.37932,"is_reserved":false,"is_disabled":false,"rental_uris":{"android":"levelo://app?vid=fbec4ea5-65d3-402f-907b-b448d00dedaa","ios":"levelo://app?vid=fbec4ea5-65d3-402f-907b-b448d00dedaa"},"vehicle_type_id":"4","last_reported":1735333686,"current_range_meters":11600,"station_id":"ce4bhjp2rcd13ifvqg90","pricing_plan_id":"cebpf4jnsgd1na2vs0mg"},{"bike_id":"f569136e-b7ad-4860-846a-38d6a27a9bc2","system_id":"levelo_inurba_marseille","lat":43.29606,"lon":5.38102,"is_reserved":false,"is_disabled":false,"rental_uris":{"android":"levelo://app?vid=f569136e-b7ad-4860-846a-38d6a27a9bc2","ios":"levelo://app?vid=f569136e-b7ad-4860-846a-38d6a27a9bc2"},"vehicle_type_id":"4","last_reported":1735333686,"current_range_meters":23200,"station_id":"ce4bgl12rcd13ifvqbo0","pricing_plan_id":"cebpf4jnsgd1na2vs0mg"},{"bike_id":"6e7c4e85-2f3c-411e-bfdc-bedf1d21cd94","system_id":"levelo_inurba_marseille","lat":43.28697,"lon":5.37392,"is_reserved":false,"is_disabled":false,"rental_uris":{"android":"levelo://app?vid=6e7c4e85-2f3c-411e-bfdc-bedf1d21cd94","ios":"levelo://app?vid=6e7c4e85-2f3c-411e-bfdc-bedf1d21cd94"},"vehicle_type_id":"4","last_reported":1735333686,"current_range_meters":26000,"station_id":"ce4bh3p2rcd13ifvqdq0","pricing_plan_id":"cebpf4jnsgd1na2vs0mg"},{"bike_id":"172a0707-4cf3-49f8-8561-2e329baaf0d2","system_id":"levelo_inurba_marseille","lat":43.29573,"lon":5.37495,"is_reserved":false,"is_disabled":false,"rental_uris":{"android":"levelo://app?vid=172a0707-4cf3-49f8-8561-2e329baaf0d2","ios":"levelo://app?vid=172a0707-4cf3-49f8-8561-2e329baaf0d2"},"vehicle_type_id":"4","last_reported":1735333686,"current_range_meters":33600,"station_id":"ce4bgh92rcd13ifvqb50","pricing_plan_id":"cebpf4jnsgd1na2vs0mg"},{"bike_id":"a25f11fe-5b0b-482e-9d27-0ec3363e05ba","system_id":"levelo_inurba_marseille","lat":43.29378,"lon":5.37836,"is_reserved":false,"is_disabled":false,"rental_uris":{"android":"levelo://app?vid=a25f11fe-5b0b-482e-9d27-0ec3363e05ba","ios":"levelo://app?vid=a25f11fe-5b0b-482e-9d27-0ec3363e05ba"},"vehicle_type_id":"4","last_reported":1735333686,"current_range_meters":38800,"station_id":"ce4bgjh2rcd13ifvqbf0","pricing_plan_id":"cebpf4jnsgd1na2vs0mg"},{"bike_id":"f2ad4d11-b3dd-49d2-8288-70bcaf129e1d","system_id":"levelo_inurba_marseille","lat":43.2811,"lon":5.37825,"is_reserved":false,"is_disabled":false,"rental_uris":{"android":"levelo://app?vid=f2ad4d11-b3dd-49d2-8288-70bcaf129e1d","ios":"levelo://app?vid=f2ad4d11-b3dd-49d2-8288-70bcaf129e1d"},"vehicle_type_id":"4","last_reported":1735333686,"current_range_meters":16400,"station_id":"ce4bha12rcd13ifvqee0","pricing_plan_id":"cebpf4jnsgd1na2vs0mg"},{"bike_id":"deb74dd6-caed-4958-9dd1-d5f6f39c849d","system_id":"levelo_inurba_marseille","lat":43.29919,"lon":5.36366,"is_reserved":false,"is_disabled":false,"rental_uris":{"android":"levelo://app?vid=deb74dd6-caed-4958-9dd1-d5f6f39c849d","ios":"levelo://app?vid=deb74dd6-caed-4958-9dd1-d5f6f39c849d"},"vehicle_type_id":"4","last_reported":1735333686,"current_range_meters":28800,"station_id":"","pricing_plan_id":"cebpf4jnsgd1na2vs0mg"},{"bike_id":"ba404663-03aa-4372-856c-b90d34ca71b4","system_id":"levelo_inurba_marseille","lat":43.30431,"lon":5.38838,"is_reserved":false,"is_disabled":false,"rental_uris":{"android":"levelo://app?vid=ba404663-03aa-4372-856c-b90d34ca71b4","ios":"levelo://app?vid=ba404663-03aa-4372-856c-b90d34ca71b4"},"vehicle_type_id":"4","last_reported":1735333686,"current_range_meters":14000,"station_id":"ce4bgk12rcd13ifvqbi0","pricing_plan_id":"cebpf4jnsgd1na2vs0mg"},{"bike_id":"41becbe0-31ce-4941-828d-b4e44498a200","system_id":"levelo_inurba_marseille","lat":43.3031,"lon":5.36884,"is_reserved":false,"is_disabled":true,"rental_uris":{"android":"levelo://app?vid=41becbe0-31ce-4941-828d-b4e44498a200","ios":"levelo://app?vid=41becbe0-31ce-4941-828d-b4e44498a200"},"vehicle_type_id":"4","last_reported":1735333686,"current_range_meters":38800,"station_id":"ce4bgqh2rcd13ifvqc5g","pricing_plan_id":"cebpf4jnsgd1na2vs0mg"},{"bike_id":"95ebf2e3-60a5-4ae5-bac4-c285ab1d22e9","system_id":"levelo_inurba_marseille","lat":43.24663,"lon":5.38162,"is_reserved":false,"is_disabled":false,"rental_uris":{"android":"levelo://app?vid=95ebf2e3-60a5-4ae5-bac4-c285ab1d22e9","ios":"levelo://app?vid=95ebf2e3-60a5-4ae5-bac4-c285ab1d22e9"},"vehicle_type_id":"4","last_reported":1735333686,"current_range_meters":11200,"station_id":"ce4bhih2rcd13ifvqfr0","pricing_plan_id":"cebpf4jnsgd1na2vs0mg"},{"bike_id":"99e85278-265b-4035-ba73-9bf63e27e16e","system_id":"levelo_inurba_marseille","lat":43.30439,"lon":5.38888,"is_reserved":false,"is_disabled":false,"rental_uris":{"android":"levelo://app?vid=99e85278-265b-4035-ba73-9bf63e27e16e","ios":"levelo://app?vid=99e85278-265b-4035-ba73-9bf63e27e16e"},"vehicle_type_id":"4","last_reported":1735333686,"current_range_meters":37600,"station_id":"ce4bgk12rcd13ifvqbi0","pricing_plan_id":"cebpf4jnsgd1na2vs0mg"},{"bike_id":"cecd8a9f-6ce6-4ae6-a2ea-1df7846549f2","system_id":"levelo_inurba_marseille","lat":43.29782,"lon":5.3811,"is_reserved":false,"is_disabled":false,"rental_uris":{"android":"levelo://app?vid=cecd8a9f-6ce6-4ae6-a2ea-1df7846549f2","ios":"levelo://app?vid=cecd8a9f-6ce6-4ae6-a2ea-1df7846549f2"},"vehicle_type_id":"4","last_reported":1735333686,"current_range_meters":30400,"station_id":"ce4bgip2rcd13ifvqbb0","pricing_plan_id":"cebpf4jnsgd1na2vs0mg"},{"bike_id":"293671a8-67e1-4d08-a7c6-ed1760e6dded","system_id":"levelo_inurba_marseille","lat":43.31757,"lon":5.39018,"is_reserved":false,"is_disabled":false,"rental_uris":{"android":"levelo://app?vid=293671a8-67e1-4d08-a7c6-ed1760e6dded","ios":"levelo://app?vid=293671a8-67e1-4d08-a7c6-ed1760e6dded"},"vehicle_type_id":"4","last_reported":1735333686,"current_range_meters":38400,"station_id":"ce4bhqp2rcd13ifvqhng","pricing_plan_id":"cebpf4jnsgd1na2vs0mg"},