{"last_updated":1776807531,"ttl":60,"version":"2.2","data":{"bikes":[{"bike_id":"b2011645-cbc6-44f3-8c33-1aca90ae2d9e","system_id":"levelo_inurba_marseille","lat":43.23218,"lon":5.35125,"is_reserved":false,"is_disabled":false,"rental_uris":{"android":"levelo://app?vid=b2011645-cbc6-44f3-8c33-1aca90ae2d9e","ios":"levelo://app?vid=b2011645-cbc6-44f3-8c33-1aca90ae2d9e"},"vehicle_type_id":"4","last_reported":1776807532,"current_range_meters":2800,"station_id":"","pricing_plan_id":"cebpf4jnsgd1na2vs0mg"},{"bike_id":"e5492a05-25fd-43f3-9e22-83a184ca839c","system_id":"levelo_inurba_marseille","lat":43.24942,"lon":5.40506,"is_reserved":false,"is_disabled":false,"rental_uris":{"android":"levelo://app?vid=e5492a05-25fd-43f3-9e22-83a184ca839c","ios":"levelo://app?vid=e5492a05-25fd-43f3-9e22-83a184ca839c"},"vehicle_type_id":"4","last_reported":1776807532,"current_range_meters":2800,"station_id":"st_d2ngiaodas8pm72gd1h0","pricing_plan_id":"cebpf4jnsgd1na2vs0mg"},{"bike_id":"75c94765-c798-47a0-84a1-5c2df904fa90","system_id":"levelo_inurba_marseille","lat":43.28245,"lon":5.39071,"is_reserved":false,"is_disabled":false,"rental_uris":{"android":"levelo://app?vid=75c94765-c798-47a0-84a1-5c2df904fa90","ios":"levelo://app?vid=75c94765-c798-47a0-84a1-5c2df904fa90"},"vehicle_type_id":"4","last_reported":1776807532,"current_range_meters":2800,"station_id":"ce4bhn92rcd13ifvqgsg","pricing_plan_id":"cebpf4jnsgd1na2vs0mg"},{"bike_id":"82e4a329-5952-4081-9814-b1ad72240a02","system_id":"levelo_inurba_marseille","lat":43.26067,"lon":5.39928,"is_reserved":false,"is_disabled":false,"rental_uris":{"android":"levelo://app?vid=82e4a329-5952-4081-9814-b1ad72240a02","ios":"levelo://app?vid=82e4a329-5952-4081-9814-b1ad72240a02"},"vehicle_type_id":"4","last_reported":1776807532,"current_range_meters":2800,"station_id":"","pricing_plan_id":"cebpf4jnsgd1na2vs0mg"},{"bike_id":"eec1915e-afb0-4a5e-a107-fb49939b5a53","system_id":"levelo_inurba_marseille","lat":43.28752,"lon":5.3998,"is_reserved":false,"is_disabled":false,"rental_uris":{"android":"levelo://app?vid=eec1915e-afb0-4a5e-a107-fb49939b5a53","ios":"levelo://app?vid=eec1915e-afb0-4a5e-a107-fb49939b5a53"},"vehicle_type_id":"4","last_reported":1776807532,"current_range_meters":2800,"station_id":"ce4bho92rcd13ifvqh3g","pricing_plan_id":"cebpf4jnsgd1na2vs0mg"},{"bike_id":"678be1e3-7bf2-4e61-8458-42d5abd6c5bd","system_id":"levelo_inurba_marseille","lat":43.33758,"lon":5.37483,"is_reserved":false,"is_disabled":false,"rental_uris":{"android":"levelo://app?vid=678be1e3-7bf2-4e61-8458-42d5abd6c5bd","ios":"levelo://app?vid=678be1e3-7bf2-4e61-8458-42d5abd6c5bd"},"vehicle_type_id":"4","last_reported":1776807532,"current_range_meters":3200,"station_id":"","pricing_plan_id":"cebpf4jnsgd1na2vs0mg"},{"bike_id":"1f7a2d29-0ba7-4b8b-9cac-6ff894aac21f","system_id":"levelo_inurba_marseille","lat":43.32925,"lon":5.38955,"is_reserved":false,"is_disabled":false,"rental_uris":{"android":"levelo://app?vid=1f7a2d29-0ba7-4b8b-9cac-6ff894aac21f","ios":"levelo://app?vid=1f7a2d29-0ba7-4b8b-9cac-6ff894aac21f"},"vehicle_type_id":"4","last_reported":1776807532,"current_range_meters":3200,"station_id":"","pricing_plan_id":"cebpf4jnsgd1na2vs0mg"},{"bike_id":"f27eb424-5b95-4293-b6fc-67955ab5fbc1","system_id":"levelo_inurba_marseille","lat":43.31721,"lon":5.40466,"is_reserved":false,"is_disabled":false,"rental_uris":{"android":"levelo://app?vid=f27eb424-5b95-4293-b6fc-67955ab5fbc1","ios":"levelo://app?vid=f27eb424-5b95-4293-b6fc-67955ab5fbc1"},"vehicle_type_id":"4","last_reported":1776807532,"current_range_meters":3200,"station_id":"ce4bh012rcd13ifvqd00","pricing_plan_id":"cebpf4jnsgd1na2vs0mg"},{"bike_id":"61a2e27a-ff76-4f88-82a3-7f5e3ec6d680","system_id":"levelo_inurba_marseille","lat":43.30961,"lon":5.40145,"is_reserved":false,"is_disabled":false,"rental_uris":{"android":"levelo://app?vid=61a2e27a-ff76-4f88-82a3-7f5e3ec6d680","ios":"levelo://app?vid=61a2e27a-ff76-4f88-82a3-7f5e3ec6d680"},"vehicle_type_id":"4","last_reported":1776807532,"current_range_meters":3200,"station_id":"ce4bgvp2rcd13ifvqct0","pricing_plan_id":"cebpf4jnsgd1na2vs0mg"},{"bike_id":"72ce5c7b-f90a-4320-83e6-79770c82c65e","system_id":"levelo_inurba_marseille","lat":43.27381,"lon":5.38493,"is_reserved":false,"is_disabled":false,"rental_uris":{"android":"levelo://app?vid=72ce5c7b-f90a-4320-83e6-79770c82c65e","ios":"levelo://app?vid=72ce5c7b-f90a-4320-83e6-79770c82c65e"},"vehicle_type_id":"4","last_reported":1776807532,"current_range_meters":3200,"station_id":"","pricing_plan_id":"cebpf4jnsgd1na2vs0mg"},{"bike_id":"a75ead29-73c6-4ac5-affc-be0894b5c971","system_id":"levelo_inurba_marseille","lat":43.31552,"lon":5.38839,"is_reserved":false,"is_disabled":false,"rental_uris":{"android":"levelo://app?vid=a75ead29-73c6-4ac5-affc-be0894b5c971","ios":"levelo://app?vid=a75ead29-73c6-4ac5-affc-be0894b5c971"},"vehicle_type_id":"4","last_reported":1776807532,"current_range_meters":3200,"station_id":"","pricing_plan_id":"cebpf4jnsgd1na2vs0mg"},{"bike_id":"22033817-0b57-4aac-b4c2-cb663c9a4002","system_id":"levelo_inurba_marseille","lat":43.31175,"lon":5.38974,"is_reserved":false,"is_disabled":false,"rental_uris":{"android":"levelo://app?vid=22033817-0b57-4aac-b4c2-cb663c9a4002","ios":"levelo://app?vid=22033817-0b57-4aac-b4c2-cb663c9a4002"},"vehicle_type_id":"4","last_reported":1776807532,"current_range_meters":3200,"station_id":"","pricing_plan_id":"cebpf4jnsgd1na2vs0mg"},{"bike_id":"f3c07bb4-0997-453e-9611-e4823f4278d9","system_id":"levelo_inurba_marseille","lat":43.289418,"lon":5.366445,"is_reserved":false,"is_disabled":false,"rental_uris":{"android":"levelo://app?vid=f3c07bb4-0997-453e-9611-e4823f4278d9","ios":"levelo://app?vid=f3c07bb4-0997-453e-9611-e4823f4278d9"},"vehicle_type_id":"4","last_reported":1776807532,"current_range_meters":3200,"station_id":"ce4bhap2rcd13ifvqek0","pricing_plan_id":"cebpf4jnsgd1na2vs0mg"},{"bike_id":"0fdc542d-acd2-4025-8d63-512d2f4432f7","system_id":"levelo_inurba_marseille","lat":43.292316,"lon":5.360695,"is_reserved":false,"is_disabled":false,"rental_uris":{"android":"levelo://app?vid=0fdc542d-acd2-4025-8d63-512d2f4432f7","ios":"levelo://app?vid=0fdc542d-acd2-4025-8d63-512d2f4432f7"},"vehicle_type_id":"4","last_reported":1776807532,"current_range_meters":3200,"station_id":"ce4bh192rcd13ifvqdd0","pricing_plan_id":"cebpf4jnsgd1na2vs0mg"},{"bike_id":"9b2535e7-e74f-4946-8e30-761556cc1cd3","system_id":"levelo_inurba_marseille","lat":43.29288,"lon":5.40108,"is_reserved":false,"is_disabled":false,"rental_uris":{"android":"levelo://app?vid=9b2535e7-e74f-4946-8e30-761556cc1cd3","ios":"levelo://app?vid=9b2535e7-e74f-4946-8e30-761556cc1cd3"},"vehicle_type_id":"4","last_reported":1776807532,"current_range_meters":3600,"station_id":"ce4bh312rcd13ifvqdk0","pricing_plan_id":"cebpf4jnsgd1na2vs0mg"},{"bike_id":"6cb77786-5dff-4b6b-b399-83a9c40b38d5","system_id":"levelo_inurba_marseille","lat":43.21188,"lon":5.35077,"is_reserved":false,"is_disabled":false,"rental_uris":{"android":"levelo://app?vid=6cb77786-5dff-4b6b-b399-83a9c40b38d5","ios":"levelo://app?vid=6cb77786-5dff-4b6b-b399-83a9c40b38d5"},"vehicle_type_id":"4","last_reported":1776807532,"current_range_meters":3600,"station_id":"st_cvj6sg6p6f1abm77japg","pricing_plan_id":"cebpf4jnsgd1na2vs0mg"},{"bike_id":"4a049369-7aae-4493-aa1e-991c52515875","system_id":"levelo_inurba_marseille","lat":43.29187,"lon":5.35805,"is_reserved":false,"is_disabled":true,"rental_uris":{"android":"levelo://app?vid=4a049369-7aae-4493-aa1e-991c52515875","ios":"levelo://app?vid=4a049369-7aae-4493-aa1e-991c52515875"},"vehicle_type_id":"4","last_reported":1776807532,"current_range_meters":3600,"station_id":"ce4bhb12rcd13ifvqel0","pricing_plan_id":"cebpf4jnsgd1na2vs0mg"},{"bike_id":"e40613a8-ab78-4dc5-9ba0-76898374136e","system_id":"levelo_inurba_marseille","lat":43.28554,"lon":5.44099,"is_reserved":false,"is_disabled":false,"rental_uris":{"android":"levelo://app?vid=e40613a8-ab78-4dc5-9ba0-76898374136e","ios":"levelo://app?vid=e40613a8-ab78-4dc5-9ba0-76898374136e"},"vehicle_type_id":"4","last_reported":1776807532,"current_range_meters":3600,"station_id":"st_d3j3df2ikq2c7380ej80","pricing_plan_id":"cebpf4jnsgd1na2vs0mg"},{"bike_id":"21298c5a-eda3-4af3-a524-0558894f8b98","system_id":"levelo_inurba_marseille","lat":43.30426,"lon":5.47277,"is_reserved":false,"is_disabled":false,"rental_uris":{"android":"levelo://app?vid=21298c5a-eda3-4af3-a524-0558894f8b98","ios":"levelo://app?vid=21298c5a-eda3-4af3-a524-0558894f8b98"},"vehicle_type_id":"4","last_reported":1776807532,"current_range_meters":3600,"station_id":"","pricing_plan_id":"cebpf4jnsgd1na2vs0mg"},{"bike_id":"7e2a87cb-9ff9-4cbc-9979-cb779f79fd26","system_id":"levelo_inurba_marseille","lat":43.29204,"lon":5.39338,"is_reserved":false,"is_disabled":false,"rental_uris":{"android":"levelo://app?vid=7e2a87cb-9ff9-4cbc-9979-cb779f79fd26","ios":"levelo://app?vid=7e2a87cb-9ff9-4cbc-9979-cb779f79fd26"},"vehicle_type_id":"4","last_reported":1776807532,"current_range_meters":4000,"station_id":"ce4bh192rcd13ifvqdd0","pricing_plan_id":"cebpf4jnsgd1na2vs0mg"},{"bike_id":"21d03c10-c14d-4b84-ac83-dab76914fcd0","system_id":"levelo_inurba_marseille","lat":43.31131,"lon":5.38698,"is_reserved":false,"is_disabled":false,"rental_uris":{"android":"levelo://app?vid=21d03c10-c14d-4b84-ac83-dab76914fcd0","ios":"levelo://app?vid=21d03c10-c14d-4b84-ac83-dab76914fcd0"},"vehicle_type_id":"4","last_reported":1776807532,"current_range_meters":4000,"station_id":"","pricing_plan_id":"cebpf4jnsgd1na2vs0mg"},{"bike_id":"428a3e1f-0c14-4644-9951-f64ac1c47a29","system_id":"levelo_inurba_marseille","lat":43.33548,"lon":5.37466,"is_reserved":false,"is_disabled":false,"rental_uris":{"android":"levelo://app?vid=428a3e1f-0c14-4644-9951-f64ac1c47a29","ios":"levelo://app?vid=428a3e1f-0c14-4644-9951-f64ac1c47a29"},"vehicle_type_id":"4","last_reported":1776807532,"current_range_meters":4000,"station_id":"st_d46tts09ee8s73dlu43g","pricing_plan_id":"cebpf4jnsgd1na2vs0mg"},{"bike_id":"65c36df8-a7fe-4010-8370-f48b0c45f206","system_id":"levelo_inurba_marseille","lat":43.33578,"lon":5.37451,"is_reserved":false,"is_disabled":false,"rental_uris":{"android":"levelo://app?vid=65c36df8-a7fe-4010-8370-f48b0c45f206","ios":"levelo://app?vid=65c36df8-a7fe-4010-8370-f48b0c45f206"},"vehicle_type_id":"4","last_reported":1776807532,"current_range_meters":4000,"station_id":"st_d46tts09ee8s73dlu43g","pricing_plan_id":"cebpf4jnsgd1na2vs0mg"},{"bike_id":"eb0dd92c-7777-4aff-ab88-96a22419386b","system_id":"levelo_inurba_marseille","lat":43.30104,"lon":5.38107,"is_reserved":false,"is_disabled":true,"rental_uris":{"android":"levelo://app?vid=eb0dd92c-7777-4aff-ab88-96a22419386b","ios":"levelo://app?vid=eb0dd92c-7777-4aff-ab88-96a22419386b"},"vehicle_type_id":"4","last_reported":1776807532,"current_range_meters":4000,"station_id":"ce4bgjp2rcd13ifvqbh0","pricing_plan_id":"cebpf4jnsgd1na2vs0mg"},{"bike_id":"6e6319f8-011e-46ab-93f1-a9f257e71b2a","system_id":"levelo_inurba_marseille","lat":43.29707,"lon":5.36582,"is_reserved":false,"is_disabled":false,"rental_uris":{"android":"levelo://app?vid=6e6319f8-011e-46ab-93f1-a9f257e71b2a","ios":"levelo://app?vid=6e6319f8-011e-46ab-93f1-a9f257e71b2a"},"vehicle_type_id":"4","last_reported":1776807532,"current_range_meters":4000,"station_id":"ce4bgn12rcd13ifvqbt0","pricing_plan_id":"cebpf4jnsgd1na2vs0mg"},{"bike_id":"35b029c5-4567-4e98-bb7b-5190fde802d6","system_id":"levelo_inurba_marseille","lat":43.29005,"lon":5.35609,"is_reserved":false,"is_disabled":false,"rental_uris":{"android":"levelo://app?vid=35b029c5-4567-4e98-bb7b-5190fde802d6","ios":"levelo://app?vid=35b029c5-4567-4e98-bb7b-5190fde802d6"},"vehicle_type_id":"4","last_reported":1776807532,"current_range_meters":4000,"station_id":"ce4bhb92rcd13ifvqen0","pricing_plan_id":"cebpf4jnsgd1na2vs0mg"},{"bike_id":"2b91d518-5095-4415-99e4-124095a25fff","system_id":"levelo_inurba_marseille","lat":43.33692,"lon":5.39839,"is_reserved":false,"is_disabled":false,"rental_uris":{"android":"levelo://app?vid=2b91d518-5095-4415-99e4-124095a25fff","ios":"levelo://app?vid=2b91d518-5095-4415-99e4-124095a25fff"},"vehicle_type_id":"4","last_reported":1776807532,"current_range_meters":4000,"station_id":"","pricing_plan_id":"cebpf4jnsgd1na2vs0mg"},{"bike_id":"cd1f3ea7-2505-461d-b68a-23023e8ad292","system_id":"levelo_inurba_marseille","lat":43.30335,"lon":5.40365,"is_reserved":false,"is_disabled":false,"rental_uris":{"android":"levelo://app?vid=cd1f3ea7-2505-461d-b68a-23023e8ad292","ios":"levelo://app?vid=cd1f3ea7-2505-461d-b68a-23023e8ad292"},"vehicle_type_id":"4","last_reported":1776807532,"current_range_meters":4000,"station_id":"ce4bh012rcd13ifvqd10","pricing_plan_id":"cebpf4jnsgd1na2vs0mg"},{"bike_id":"53c700b8-845b-473e-b238-598a75d59a87","system_id":"levelo_inurba_marseille","lat":43.308004,"lon":5.381417,"is_reserved":false,"is_disabled":false,"rental_uris":{"android":"levelo://app?vid=53c700b8-845b-473e-b238-598a75d59a87","ios":"levelo://app?vid=53c700b8-845b-473e-b238-598a75d59a87"},"vehicle_type_id":"4","last_reported":1776807532,"current_range_meters":4000,"station_id":"ce4bgt12rcd13ifvqce0","pricing_plan_id":"cebpf4jnsgd1na2vs0mg"},{"bike_id":"8423773e-813b-4988-b3ee-0788438b2769","system_id":"levelo_inurba_marseille","lat":43.308016,"lon":5.381475,"is_reserved":false,"is_disabled":false,"rental_uris":{"android":"levelo://app?vid=8423773e-813b-4988-b3ee-0788438b2769","ios":"levelo://app?vid=8423773e-813b-4988-b3ee-0788438b2769"},"vehicle_type_id":"4","last_reported":1776807532,"current_range_meters":4400,"station_id":"ce4bgt12rcd13ifvqce0","pricing_plan_id":"cebpf4jnsgd1na2vs0mg"},{"bike_id":"38b58c0a-3886-4b2b-b837-f07808f89275","system_id":"levelo_inurba_marseille","lat":43.30648,"lon":5.40099,"is_reserved":false,"is_disabled":false,"rental_uris":{"android":"levelo://app?vid=38b58c0a-3886-4b2b-b837-f07808f89275","ios":"levelo://app?vid=38b58c0a-3886-4b2b-b837-f07808f89275"},"vehicle_type_id":"4","last_reported":1776807532,"current_range_meters":4400,"station_id":"ce4bh112rcd13ifvqda0","pricing_plan_id":"cebpf4jnsgd1na2vs0mg"},{"bike_id":"64d94556-6834-4dbf-9283-c66d7f63f63b","system_id":"levelo_inurba_marseille","lat":43.29493,"lon":5.43292,"is_reserved":false,"is_disabled":false,"rental_uris":{"android":"levelo://app?vid=64d94556-6834-4dbf-9283-c66d7f63f63b","ios":"levelo://app?vid=64d94556-6834-4dbf-9283-c66d7f63f63b"},"vehicle_type_id":"4","last_reported":1776807532,"current_range_meters":4400,"station_id":"st_d3j5ugp08ojc73fj9d10","pricing_plan_id":"cebpf4jnsgd1na2vs0mg"},{"bike_id":"b785f7ea-cfcc-407f-b48a-6739a001a77c","system_id":"levelo_inurba_marseille","lat":43.3317,"lon":5.3767,"is_reserved":false,"is_disabled":false,"rental_uris":{"android":"levelo://app?vid=b785f7ea-cfcc-407f-b48a-6739a001a77c","ios":"levelo://app?vid=b785f7ea-cfcc-407f-b48a-6739a001a77c"},"vehicle_type_id":"4","last_reported":1776807532,"current_range_meters":4400,"station_id":"st_d46cu089ee8s73dldbu0","pricing_plan_id":"cebpf4jnsgd1na2vs0mg"},{"bike_id":"abaea4b7-03dc-4096-8d8a-e98114f13e15","system_id":"levelo_inurba_marseille","lat":43.31331,"lon":5.39675,"is_reserved":false,"is_disabled":false,"rental_uris":{"android":"levelo://app?vid=abaea4b7-03dc-4096-8d8a-e98114f13e15","ios":"levelo://app?vid=abaea4b7-03dc-4096-8d8a-e98114f13e15"},"vehicle_type_id":"4","last_reported":1776807532,"current_range_meters":4400,"station_id":"ce4bgvp2rcd13ifvqcu0","pricing_plan_id":"cebpf4jnsgd1na2vs0mg"},{"bike_id":"be5348a3-1499-4f44-9d7a-d050ef9268e8","system_id":"levelo_inurba_marseille","lat":43.32699,"lon":5.38328,"is_reserved":false,"is_disabled":false,"rental_uris":{"android":"levelo://app?vid=be5348a3-1499-4f44-9d7a-d050ef9268e8","ios":"levelo://app?vid=be5348a3-1499-4f44-9d7a-d050ef9268e8"},"vehicle_type_id":"4","last_reported":1776807532,"current_range_meters":4400,"station_id":"","pricing_plan_id":"cebpf4jnsgd1na2vs0mg"},{"bike_id":"032aadbc-bf18-4be0-887f-decf5b2cc280","system_id":"levelo_inurba_marseille","lat":43.31908,"lon":5.40725,"is_reserved":false,"is_disabled":false,"rental_uris":{"android":"levelo://app?vid=032aadbc-bf18-4be0-887f-decf5b2cc280","ios":"levelo://app?vid=032aadbc-bf18-4be0-887f-decf5b2cc280"},"vehicle_type_id":"4","last_reported":1776807532,"current_range_meters":4400,"station_id":"ce4bhq12rcd13ifvqhig","pricing_plan_id":"cebpf4jnsgd1na2vs0mg"},{"bike_id":"624daf69-f815-4f9b-8f7c-0a5468b5d0f6","system_id":"levelo_inurba_marseille","lat":43.26195,"lon":5.37046,"is_reserved":false,"is_disabled":false,"rental_uris":{"android":"levelo://app?vid=624daf69-f815-4f9b-8f7c-0a5468b5d0f6","ios":"levelo://app?vid=624daf69-f815-4f9b-8f7c-0a5468b5d0f6"},"vehicle_type_id":"4","last_reported":1776807532,"current_range_meters":4400,"station_id":"","pricing_plan_id":"cebpf4jnsgd1na2vs0mg"},{"bike_id":"9c0e0af9-1779-4487-ae26-d9494be59195","system_id":"levelo_inurba_marseille","lat":43.29201,"lon":5.39324,"is_reserved":false,"is_disabled":false,"rental_uris":{"android":"levelo://app?vid=9c0e0af9-1779-4487-ae26-d9494be59195","ios":"levelo://app?vid=9c0e0af9-1779-4487-ae26-d9494be59195"},"vehicle_type_id":"4","last_reported":1776807532,"current_range_meters":4400,"station_id":"ce4bh192rcd13ifvqdd0","pricing_plan_id":"cebpf4jnsgd1na2vs0mg"},{"bike_id":"58ed09d9-0aa1-471f-818a-54c432b83970","system_id":"levelo_inurba_marseille","lat":43.2664,"lon":5.42847,"is_reserved":false,"is_disabled":false,"rental_uris":{"android":"levelo://app?vid=58ed09d9-0aa1-471f-818a-54c432b83970","ios":"levelo://app?vid=58ed09d9-0aa1-471f-818a-54c432b83970"},"vehicle_type_id":"4","last_reported":1776807532,"current_range_meters":4800,"station_id":"","pricing_plan_id":"cebpf4jnsgd1na2vs0mg"},{"bike_id":"0ebc21d4-3cfa-41f5-8e46-f6871cf8cf25","system_id":"levelo_inurba_marseille","lat":43.29035,"lon":5.39981,"is_reserved":false,"is_disabled":false,"rental_uris":{"android":"levelo://app?vid=0ebc21d4-3cfa-41f5-8e46-f6871cf8cf25","ios":"levelo://app?vid=0ebc21d4-3cfa-41f5-8e46-f6871cf8cf25"},"vehicle_type_id":"4","last_reported":1776807532,"current_range_meters":4800,"station_id":"ce4bh392rcd13ifvqdm0","pricing_plan_id":"cebpf4jnsgd1na2vs0mg"},{"bike_id":"ae3cdbc1-046c-42e5-b909-29c9e0bcb254","system_id":"levelo_inurba_marseille","lat":43.33128,"lon":5.37764,"is_reserved":false,"is_disabled":false,"rental_uris":{"android":"levelo://app?vid=ae3cdbc1-046c-42e5-b909-29c9e0bcb254","ios":"levelo://app?vid=ae3cdbc1-046c-42e5-b909-29c9e0bcb254"},"vehicle_type_id":"4","last_reported":1776807532,"current_range_meters":4800,"station_id":"","pricing_plan_id":"cebpf4jnsgd1na2vs0mg"},{"bike_id":"55b9e363-aef1-4e55-a55c-7c19ee416703","system_id":"levelo_inurba_marseille","lat":43.31859,"lon":5.37184,"is_reserved":false,"is_disabled":false,"rental_uris":{"android":"levelo://app?vid=55b9e363-aef1-4e55-a55c-7c19ee416703","ios":"levelo://app?vid=55b9e363-aef1-4e55-a55c-7c19ee416703"},"vehicle_type_id":"4","last_reported":1776807532,"current_range_meters":4800,"station_id":"","pricing_plan_id":"cebpf4jnsgd1na2vs0mg"},{"bike_id":"377e474f-c237-483e-b0c8-ff00e3d0a440","system_id":"levelo_inurba_marseille","lat":43.25113,"lon":5.39518,"is_reserved":false,"is_disabled":false,"rental_uris":{"android":"levelo://app?vid=377e474f-c237-483e-b0c8-ff00e3d0a440","ios":"levelo://app?vid=377e474f-c237-483e-b0c8-ff00e3d0a440"},"vehicle_type_id":"4","last_reported":1776807532,"current_range_meters":4800,"station_id":"ce4bhm12rcd13ifvqgkg","pricing_plan_id":"cebpf4jnsgd1na2vs0mg"},{"bike_id":"6115ea93-f36b-4933-8d3b-76d3754fa534","system_id":"levelo_inurba_marseille","lat":43.24099,"lon":5.37742,"is_reserved":false,"is_disabled":false,"rental_uris":{"android":"levelo://app?vid=6115ea93-f36b-4933-8d3b-76d3754fa534","ios":"levelo://app?vid=6115ea93-f36b-4933-8d3b-76d3754fa534"},"vehicle_type_id":"4","last_reported":1776807532,"current_range_meters":4800,"station_id":"ce4bhnp2rcd13ifvqgvg","pricing_plan_id":"cebpf4jnsgd1na2vs0mg"},{"bike_id":"e8eda1d3-f017-4539-a4c1-02e93e29d334","system_id":"levelo_inurba_marseille","lat":43.31386,"lon":5.38505,"is_reserved":false,"is_disabled":false,"rental_uris":{"android":"levelo://app?vid=e8eda1d3-f017-4539-a4c1-02e93e29d334","ios":"levelo://app?vid=e8eda1d3-f017-4539-a4c1-02e93e29d334"},"vehicle_type_id":"4","last_reported":1776807532,"current_range_meters":5600,"station_id":"ce4bgt92rcd13ifvqcf0","pricing_plan_id":"cebpf4jnsgd1na2vs0mg"},{"bike_id":"8f50b2d6-251d-42ad-b342-f2749fed0e40","system_id":"levelo_inurba_marseille","lat":43.29279,"lon":5.40115,"is_reserved":false,"is_disabled":false,"rental_uris":{"android":"levelo://app?vid=8f50b2d6-251d-42ad-b342-f2749fed0e40","ios":"levelo://app?vid=8f50b2d6-251d-42ad-b342-f2749fed0e40"},"vehicle_type_id":"4","last_reported":1776807532,"current_range_meters":5600,"station_id":"ce4bh312rcd13ifvqdk0","pricing_plan_id":"cebpf4jnsgd1na2vs0mg"},{"bike_id":"a5adfe07-d53d-428b-a39e-c4b14d135656","system_id":"levelo_inurba_marseille","lat":43.29543,"lon":5.38545,"is_reserved":false,"is_disabled":false,"rental_uris":{"android":"levelo://app?vid=a5adfe07-d53d-428b-a39e-c4b14d135656","ios":"levelo://app?vid=a5adfe07-d53d-428b-a39e-c4b14d135656"},"vehicle_type_id":"4","last_reported":1776807532,"current_range_meters":5600,"station_id":"ce4bgih2rcd13ifvqba0","pricing_plan_id":"cebpf4jnsgd1na2vs0mg"},{"bike_id":"b1825e17-c86a-4867-83b0-b5fcfd88ca26","system_id":"levelo_inurba_marseille","lat":43.29242,"lon":5.3878,"is_reserved":false,"is_disabled":false,"rental_uris":{"android":"levelo://app?vid=b1825e17-c86a-4867-83b0-b5fcfd88ca26","ios":"levelo://app?vid=b1825e17-c86a-4867-83b0-b5fcfd88ca26"},"vehicle_type_id":"4","last_reported":1776807532,"current_range_meters":5600,"station_id":"","pricing_plan_id":"cebpf4jnsgd1na2vs0mg"},{"bike_id":"f0560ebd-54f4-470b-b211-8f235f923412","system_id":"levelo_inurba_marseille","lat":43.31338,"lon":5.37579,"is_reserved":false,"is_disabled":false,"rental_uris":{"android":"levelo://app?vid=f0560ebd-54f4-470b-b211-8f235f923412","ios":"levelo://app?vid=f0560ebd-54f4-470b-b211-8f235f923412"},"vehicle_type_id":"4","last_reported":1776807532,"current_range_meters":5600,"station_id":"","pricing_plan_id":"cebpf4jnsgd1na2vs0mg"},{"bike_id":"1325d540-99d8-4486-932d-37e447d355d8","system_id":"levelo_inurba_marseille","lat":43.29864,"lon":5.39734,"is_reserved":false,"is_disabled":false,"rental_uris":{"android":"levelo://app?vid=1325d540-99d8-4486-932d-37e447d355d8","ios":"levelo://app?vid=1325d540-99d8-4486-932d-37e447d355d8"},"vehicle_type_id":"4","last_reported":1776807532,"current_range_meters":5600,"station_id":"ce4bh0h2rcd13ifvqd50","pricing_plan_id":"cebpf4jnsgd1na2vs0mg"},{"bike_id":"72cbc3d1-cb88-4c89-b50f-4d95e37ef423","system_id":"levelo_inurba_marseille","lat":43.284613,"lon":5.358814,"is_reserved":false,"is_disabled":false,"rental_uris":{"android":"levelo://app?vid=72cbc3d1-cb88-4c89-b50f-4d95e37ef423","ios":"levelo://app?vid=72cbc3d1-cb88-4c89-b50f-4d95e37ef423"},"vehicle_type_id":"4","last_reported":1776807532,"current_range_meters":5600,"station_id":"ce4bhah2rcd13ifvqei0","pricing_plan_id":"cebpf4jnsgd1na2vs0mg"},{"bike_id":"12f25701-eedc-49c4-9b83-b480d454a39f","system_id":"levelo_inurba_marseille","lat":43.30638,"lon":5.4006,"is_reserved":false,"is_disabled":false,"rental_uris":{"android":"levelo://app?vid=12f25701-eedc-49c4-9b83-b480d454a39f","ios":"levelo://app?vid=12f25701-eedc-49c4-9b83-b480d454a39f"},"vehicle_type_id":"4","last_reported":1776807532,"current_range_meters":5600,"station_id":"ce4bh112rcd13ifvqda0","pricing_plan_id":"cebpf4jnsgd1na2vs0mg"},{"bike_id":"c4e93ff0-02a4-4886-9bdc-0144cc9e6e06","system_id":"levelo_inurba_marseille","lat":43.30323,"lon":5.40443,"is_reserved":false,"is_disabled":false,"rental_uris":{"android":"levelo://app?vid=c4e93ff0-02a4-4886-9bdc-0144cc9e6e06","ios":"levelo://app?vid=c4e93ff0-02a4-4886-9bdc-0144cc9e6e06"},"vehicle_type_id":"4","last_reported":1776807532,"current_range_meters":5600,"station_id":"ce4bh012rcd13ifvqd10","pricing_plan_id":"cebpf4jnsgd1na2vs0mg"},{"bike_id":"00db9f9d-ec59-40e4-b9b3-0656fbc37813","system_id":"levelo_inurba_marseille","lat":43.231785,"lon":5.399832,"is_reserved":false,"is_disabled":false,"rental_uris":{"android":"levelo://app?vid=00db9f9d-ec59-40e4-b9b3-0656fbc37813","ios":"levelo://app?vid=00db9f9d-ec59-40e4-b9b3-0656fbc37813"},"vehicle_type_id":"4","last_reported":1776807532,"current_range_meters":5600,"station_id":"ce4bhn12rcd13ifvqgqg","pricing_plan_id":"cebpf4jnsgd1na2vs0mg"},{"bike_id":"ab1f99ae-4f83-4e47-8e84-c2cf195f4bb7","system_id":"levelo_inurba_marseille","lat":43.31176,"lon":5.38711,"is_reserved":false,"is_disabled":false,"rental_uris":{"android":"levelo://app?vid=ab1f99ae-4f83-4e47-8e84-c2cf195f4bb7","ios":"levelo://app?vid=ab1f99ae-4f83-4e47-8e84-c2cf195f4bb7"},"vehicle_type_id":"4","last_reported":1776807532,"current_range_meters":5600,"station_id":"ce4bgv12rcd13ifvqcp0","pricing_plan_id":"cebpf4jnsgd1na2vs0mg"},{"bike_id":"2923d899-e487-4cd1-8eb4-a2f0428efa22","system_id":"levelo_inurba_marseille","lat":43.33153,"lon":5.37713,"is_reserved":false,"is_disabled":false,"rental_uris":{"android":"levelo://app?vid=2923d899-e487-4cd1-8eb4-a2f0428efa22","ios":"levelo://app?vid=2923d899-e487-4cd1-8eb4-a2f0428efa22"},"vehicle_type_id":"4","last_reported":1776807532,"current_range_meters":5600,"station_id":"st_d46cu089ee8s73dldbu0","pricing_plan_id":"cebpf4jnsgd1na2vs0mg"},{"bike_id":"c224c9cf-d497-4bf6-82cd-eee25423f927","system_id":"levelo_inurba_marseille","lat":43.29686,"lon":5.37278,"is_reserved":false,"is_disabled":true,"rental_uris":{"android":"levelo://app?vid=c224c9cf-d497-4bf6-82cd-eee25423f927","ios":"levelo://app?vid=c224c9cf-d497-4bf6-82cd-eee25423f927"},"vehicle_type_id":"4","last_reported":1776807532,"current_range_meters":5600,"station_id":"ce4bgk12rcd13ifvqbj0","pricing_plan_id":"cebpf4jnsgd1na2vs0mg"},{"bike_id":"85d008d7-db23-4109-8c7e-d94d301d8f6b","system_id":"levelo_inurba_marseille","lat":43.26294,"lon":5.37352,"is_reserved":false,"is_disabled":false,"rental_uris":{"android":"levelo://app?vid=85d008d7-db23-4109-8c7e-d94d301d8f6b","ios":"levelo://app?vid=85d008d7-db23-4109-8c7e-d94d301d8f6b"},"vehicle_type_id":"4","last_reported":1776807532,"current_range_meters":5600,"station_id":"","pricing_plan_id":"cebpf4jnsgd1na2vs0mg"},{"bike_id":"09ea11d0-26bd-41be-9a4c-41f495e0bb06","system_id":"levelo_inurba_marseille","lat":43.30924,"lon":5.40154,"is_reserved":false,"is_disabled":false,"rental_uris":{"android":"levelo://app?vid=09ea11d0-26bd-41be-9a4c-41f495e0bb06","ios":"levelo://app?vid=09ea11d0-26bd-41be-9a4c-41f495e0bb06"},"vehicle_type_id":"4","last_reported":1776807532,"current_range_meters":5600,"station_id":"ce4bgvp2rcd13ifvqct0","pricing_plan_id":"cebpf4jnsgd1na2vs0mg"},{"bike_id":"2c0c31d0-4c63-499e-bb77-623ac44e31b5","system_id":"levelo_inurba_marseille","lat":43.29966,"lon":5.384951,"is_reserved":false,"is_disabled":false,"rental_uris":{"android":"levelo://app?vid=2c0c31d0-4c63-499e-bb77-623ac44e31b5","ios":"levelo://app?vid=2c0c31d0-4c63-499e-bb77-623ac44e31b5"},"vehicle_type_id":"4","last_reported":1776807532,"current_range_meters":6000,"station_id":"","pricing_plan_id":"cebpf4jnsgd1na2vs0mg"},{"bike_id":"7181b793-697f-4f99-8c7c-7d8fe0625b8b","system_id":"levelo_inurba_marseille","lat":43.303,"lon":5.39213,"is_reserved":false,"is_disabled":false,"rental_uris":{"android":"levelo://app?vid=7181b793-697f-4f99-8c7c-7d8fe0625b8b","ios":"levelo://app?vid=7181b793-697f-4f99-8c7c-7d8fe0625b8b"},"vehicle_type_id":"4","last_reported":1776807532,"current_range_meters":6000,"station_id":"ce4bgkh2rcd13ifvqbk0","pricing_plan_id":"cebpf4jnsgd1na2vs0mg"},{"bike_id":"2bf658ef-a912-4563-9f63-3110eb25e849","system_id":"levelo_inurba_marseille","lat":43.29719,"lon":5.35984,"is_reserved":false,"is_disabled":false,"rental_uris":{"android":"levelo://app?vid=2bf658ef-a912-4563-9f63-3110eb25e849","ios":"levelo://app?vid=2bf658ef-a912-4563-9f63-3110eb25e849"},"vehicle_type_id":"4","last_reported":1776807532,"current_range_meters":6000,"station_id":"","pricing_plan_id":"cebpf4jnsgd1na2vs0mg"},{"bike_id":"753f20a4-e5da-4367-ad36-baf96fa2dcf5","system_id":"levelo_inurba_marseille","lat":43.29284,"lon":5.40115,"is_reserved":false,"is_disabled":false,"rental_uris":{"android":"levelo://app?vid=753f20a4-e5da-4367-ad36-baf96fa2dcf5","ios":"levelo://app?vid=753f20a4-e5da-4367-ad36-baf96fa2dcf5"},"vehicle_type_id":"4","last_reported":1776807532,"current_range_meters":6000,"station_id":"ce4bh312rcd13ifvqdk0","pricing_plan_id":"cebpf4jnsgd1na2vs0mg"},{"bike_id":"93ebf785-3499-42cb-9d8c-bfedd972e688","system_id":"levelo_inurba_marseille","lat":43.29567,"lon":5.39977,"is_reserved":false,"is_disabled":false,"rental_uris":{"android":"levelo://app?vid=93ebf785-3499-42cb-9d8c-bfedd972e688","ios":"levelo://app?vid=93ebf785-3499-42cb-9d8c-bfedd972e688"},"vehicle_type_id":"4","last_reported":1776807532,"current_range_meters":6000,"station_id":"ce4bh312rcd13ifvqdj0","pricing_plan_id":"cebpf4jnsgd1na2vs0mg"},{"bike_id":"fec54d59-47d4-4ddb-8655-648e0f95cb70","system_id":"levelo_inurba_marseille","lat":43.23198,"lon":5.35537,"is_reserved":false,"is_disabled":false,"rental_uris":{"android":"levelo://app?vid=fec54d59-47d4-4ddb-8655-648e0f95cb70","ios":"levelo://app?vid=fec54d59-47d4-4ddb-8655-648e0f95cb70"},"vehicle_type_id":"4","last_reported":1776807532,"current_range_meters":6000,"station_id":"ce4bhu92rcd13ifvqi70","pricing_plan_id":"cebpf4jnsgd1na2vs0mg"},{"bike_id":"f3864002-491b-4a0c-94b9-ab7ce7d992a5","system_id":"levelo_inurba_marseille","lat":43.30917,"lon":5.36836,"is_reserved":false,"is_disabled":false,"rental_uris":{"android":"levelo://app?vid=f3864002-491b-4a0c-94b9-ab7ce7d992a5","ios":"levelo://app?vid=f3864002-491b-4a0c-94b9-ab7ce7d992a5"},"vehicle_type_id":"4","last_reported":1776807532,"current_range_meters":6000,"station_id":"ce4bgn92rcd13ifvqbvg","pricing_plan_id":"cebpf4jnsgd1na2vs0mg"},{"bike_id":"14290775-1809-431a-89de-994574cdc895","system_id":"levelo_inurba_marseille","lat":43.27603,"lon":5.38664,"is_reserved":false,"is_disabled":false,"rental_uris":{"android":"levelo://app?vid=14290775-1809-431a-89de-994574cdc895","ios":"levelo://app?vid=14290775-1809-431a-89de-994574cdc895"},"vehicle_type_id":"4","last_reported":1776807532,"current_range_meters":6000,"station_id":"","pricing_plan_id":"cebpf4jnsgd1na2vs0mg"},{"bike_id":"38a0c1fe-c793-4677-abc9-44884653b8c5","system_id":"levelo_inurba_marseille","lat":43.29593,"lon":5.37776,"is_reserved":false,"is_disabled":false,"rental_uris":{"android":"levelo://app?vid=38a0c1fe-c793-4677-abc9-44884653b8c5","ios":"levelo://app?vid=38a0c1fe-c793-4677-abc9-44884653b8c5"},"vehicle_type_id":"4","last_reported":1776807532,"current_range_meters":6400,"station_id":"","pricing_plan_id":"cebpf4jnsgd1na2vs0mg"},{"bike_id":"1fd10be9-0a9a-46a4-9d74-69cc8527ad5b","system_id":"levelo_inurba_marseille","lat":43.2848,"lon":5.484,"is_reserved":false,"is_disabled":false,"rental_uris":{"android":"levelo://app?vid=1fd10be9-0a9a-46a4-9d74-69cc8527ad5b","ios":"levelo://app?vid=1fd10be9-0a9a-46a4-9d74-69cc8527ad5b"},"vehicle_type_id":"4","last_reported":1776807532,"current_range_meters":6400,"station_id":"","pricing_plan_id":"cebpf4jnsgd1na2vs0mg"},{"bike_id":"af8a1ef7-3bce-462c-8983-73c0060888a3","system_id":"levelo_inurba_marseille","lat":43.29047,"lon":5.38115,"is_reserved":false,"is_disabled":true,"rental_uris":{"android":"levelo://app?vid=af8a1ef7-3bce-462c-8983-73c0060888a3","ios":"levelo://app?vid=af8a1ef7-3bce-462c-8983-73c0060888a3"},"vehicle_type_id":"4","last_reported":1776807532,"current_range_meters":6400,"station_id":"ce4bh4p2rcd13ifvqe1g","pricing_plan_id":"cebpf4jnsgd1na2vs0mg"},{"bike_id":"39e8586f-e71e-475c-ab43-1aae034f493d","system_id":"levelo_inurba_marseille","lat":43.29189,"lon":5.39323,"is_reserved":false,"is_disabled":false,"rental_uris":{"android":"levelo://app?vid=39e8586f-e71e-475c-ab43-1aae034f493d","ios":"levelo://app?vid=39e8586f-e71e-475c-ab43-1aae034f493d"},"vehicle_type_id":"4","last_reported":1776807532,"current_range_meters":6400,"station_id":"ce4bh192rcd13ifvqdd0","pricing_plan_id":"cebpf4jnsgd1na2vs0mg"},{"bike_id":"1d70c6b4-5412-4cc3-ac3a-51c6f51ff5a1","system_id":"levelo_inurba_marseille","lat":43.30811,"lon":5.38151,"is_reserved":false,"is_disabled":false,"rental_uris":{"android":"levelo://app?vid=1d70c6b4-5412-4cc3-ac3a-51c6f51ff5a1","ios":"levelo://app?vid=1d70c6b4-5412-4cc3-ac3a-51c6f51ff5a1"},"vehicle_type_id":"4","last_reported":1776807532,"current_range_meters":6400,"station_id":"ce4bgt12rcd13ifvqce0","pricing_plan_id":"cebpf4jnsgd1na2vs0mg"},{"bike_id":"e9c1c731-1912-4153-abf3-120b800b8c67","system_id":"levelo_inurba_marseille","lat":43.27229,"lon":5.39172,"is_reserved":false,"is_disabled":true,"rental_uris":{"android":"levelo://app?vid=e9c1c731-1912-4153-abf3-120b800b8c67","ios":"levelo://app?vid=e9c1c731-1912-4153-abf3-120b800b8c67"},"vehicle_type_id":"4","last_reported":1776807532,"current_range_meters":6400,"station_id":"ce4bhhp2rcd13ifvqfm0","pricing_plan_id":"cebpf4jnsgd1na2vs0mg"},{"bike_id":"7dd35ff4-45e4-4dd9-8cfd-243db1db3d69","system_id":"levelo_inurba_marseille","lat":43.30134,"lon":5.43122,"is_reserved":false,"is_disabled":false,"rental_uris":{"android":"levelo://app?vid=7dd35ff4-45e4-4dd9-8cfd-243db1db3d69","ios":"levelo://app?vid=7dd35ff4-45e4-4dd9-8cfd-243db1db3d69"},"vehicle_type_id":"4","last_reported":1776807532,"current_range_meters":6400,"station_id":"","pricing_plan_id":"cebpf4jnsgd1na2vs0mg"},{"bike_id":"2224c961-bce6-4c33-966e-f3361d1b2ab2","system_id":"levelo_inurba_marseille","lat":43.27492,"lon":5.41597,"is_reserved":false,"is_disabled":false,"rental_uris":{"android":"levelo://app?vid=2224c961-bce6-4c33-966e-f3361d1b2ab2","ios":"levelo://app?vid=2224c961-bce6-4c33-966e-f3361d1b2ab2"},"vehicle_type_id":"4","last_reported":1776807532,"current_range_meters":6400,"station_id":"st_d6im8g6chgec73a5pndg","pricing_plan_id":"cebpf4jnsgd1na2vs0mg"},{"bike_id":"f9e36f38-ef4d-44c9-9f31-a0f8b13d14ba","system_id":"levelo_inurba_marseille","lat":43.33143,"lon":5.37704,"is_reserved":false,"is_disabled":false,"rental_uris":{"android":"levelo://app?vid=f9e36f38-ef4d-44c9-9f31-a0f8b13d14ba","ios":"levelo://app?vid=f9e36f38-ef4d-44c9-9f31-a0f8b13d14ba"},"vehicle_type_id":"4","last_reported":1776807532,"current_range_meters":6400,"station_id":"st_d46cu089ee8s73dldbu0","pricing_plan_id":"cebpf4jnsgd1na2vs0mg"},{"bike_id":"17a218ae-0cbc-4023-80f0-9ffddf1324e3","system_id":"levelo_inurba_marseille","lat":43.260356,"lon":5.397998,"is_reserved":false,"is_disabled":false,"rental_uris":{"android":"levelo://app?vid=17a218ae-0cbc-4023-80f0-9ffddf1324e3","ios":"levelo://app?vid=17a218ae-0cbc-4023-80f0-9ffddf1324e3"},"vehicle_type_id":"4","last_reported":1776807532,"current_range_meters":6800,"station_id":"","pricing_plan_id":"cebpf4jnsgd1na2vs0mg"},{"bike_id":"415e0658-223c-4fe0-abd1-f3287f2893c2","system_id":"levelo_inurba_marseille","lat":43.31913,"lon":5.36812,"is_reserved":false,"is_disabled":false,"rental_uris":{"android":"levelo://app?vid=415e0658-223c-4fe0-abd1-f3287f2893c2","ios":"levelo://app?vid=415e0658-223c-4fe0-abd1-f3287f2893c2"},"vehicle_type_id":"4","last_reported":1776807532,"current_range_meters":6800,"station_id":"st_d6o2h0d0559c73evc1b0","pricing_plan_id":"cebpf4jnsgd1na2vs0mg"},{"bike_id":"bcbaa1cc-800b-4273-aa85-971b4e169076","system_id":"levelo_inurba_marseille","lat":43.28935,"lon":5.36635,"is_reserved":false,"is_disabled":false,"rental_uris":{"android":"levelo://app?vid=bcbaa1cc-800b-4273-aa85-971b4e169076","ios":"levelo://app?vid=bcbaa1cc-800b-4273-aa85-971b4e169076"},"vehicle_type_id":"4","last_reported":1776807532,"current_range_meters":6800,"station_id":"ce4bhap2rcd13ifvqek0","pricing_plan_id":"cebpf4jnsgd1na2vs0mg"},{"bike_id":"2d61afcc-03e3-4a7c-91d5-6437ec43c82a","system_id":"levelo_inurba_marseille","lat":43.29533,"lon":5.3854,"is_reserved":false,"is_disabled":false,"rental_uris":{"android":"levelo://app?vid=2d61afcc-03e3-4a7c-91d5-6437ec43c82a","ios":"levelo://app?vid=2d61afcc-03e3-4a7c-91d5-6437ec43c82a"},"vehicle_type_id":"4","last_reported":1776807532,"current_range_meters":6800,"station_id":"ce4bgih2rcd13ifvqba0","pricing_plan_id":"cebpf4jnsgd1na2vs0mg"},{"bike_id":"147ebe04-bf5f-4d97-a8ae-b04adf3d5699","system_id":"levelo_inurba_marseille","lat":43.29526,"lon":5.39006,"is_reserved":false,"is_disabled":false,"rental_uris":{"android":"levelo://app?vid=147ebe04-bf5f-4d97-a8ae-b04adf3d5699","ios":"levelo://app?vid=147ebe04-bf5f-4d97-a8ae-b04adf3d5699"},"vehicle_type_id":"4","last_reported":1776807532,"current_range_meters":6800,"station_id":"ce4bh3p2rcd13ifvqdp0","pricing_plan_id":"cebpf4jnsgd1na2vs0mg"},{"bike_id":"357c8a3f-22a7-437b-9400-0efde2fb9a38","system_id":"levelo_inurba_marseille","lat":43.27075,"lon":5.42268,"is_reserved":false,"is_disabled":false,"rental_uris":{"android":"levelo://app?vid=357c8a3f-22a7-437b-9400-0efde2fb9a38","ios":"levelo://app?vid=357c8a3f-22a7-437b-9400-0efde2fb9a38"},"vehicle_type_id":"4","last_reported":1776807532,"current_range_meters":6800,"station_id":"ce4bhk92rcd13ifvqgb0","pricing_plan_id":"cebpf4jnsgd1na2vs0mg"},{"bike_id":"16f7fe35-694a-4eb9-9cc6-4679694d07e2","system_id":"levelo_inurba_marseille","lat":43.31244,"lon":5.37918,"is_reserved":false,"is_disabled":false,"rental_uris":{"android":"levelo://app?vid=16f7fe35-694a-4eb9-9cc6-4679694d07e2","ios":"levelo://app?vid=16f7fe35-694a-4eb9-9cc6-4679694d07e2"},"vehicle_type_id":"4","last_reported":1776807532,"current_range_meters":6800,"station_id":"","pricing_plan_id":"cebpf4jnsgd1na2vs0mg"},{"bike_id":"1bcf353f-b495-4deb-9190-fb2399df9c0c","system_id":"levelo_inurba_marseille","lat":43.28465,"lon":5.35877,"is_reserved":false,"is_disabled":false,"rental_uris":{"android":"levelo://app?vid=1bcf353f-b495-4deb-9190-fb2399df9c0c","ios":"levelo://app?vid=1bcf353f-b495-4deb-9190-fb2399df9c0c"},"vehicle_type_id":"4","last_reported":1776807532,"current_range_meters":6800,"station_id":"ce4bhah2rcd13ifvqei0","pricing_plan_id":"cebpf4jnsgd1na2vs0mg"},{"bike_id":"afe6c9ff-8c7f-40d2-96bc-86354113b443","system_id":"levelo_inurba_marseille","lat":43.28508,"lon":5.48366,"is_reserved":false,"is_disabled":false,"rental_uris":{"android":"levelo://app?vid=afe6c9ff-8c7f-40d2-96bc-86354113b443","ios":"levelo://app?vid=afe6c9ff-8c7f-40d2-96bc-86354113b443"},"vehicle_type_id":"4","last_reported":1776807532,"current_range_meters":6800,"station_id":"","pricing_plan_id":"cebpf4jnsgd1na2vs0mg"},{"bike_id":"6b8323cd-4eb4-4770-997a-162c1c7a7be3","system_id":"levelo_inurba_marseille","lat":43.305284,"lon":5.384268,"is_reserved":false,"is_disabled":false,"rental_uris":{"android":"levelo://app?vid=6b8323cd-4eb4-4770-997a-162c1c7a7be3","ios":"levelo://app?vid=6b8323cd-4eb4-4770-997a-162c1c7a7be3"},"vehicle_type_id":"4","last_reported":1776807532,"current_range_meters":6800,"station_id":"ce4bgg92rcd13ifvqb30","pricing_plan_id":"cebpf4jnsgd1na2vs0mg"},{"bike_id":"325a06a9-8605-423a-905f-b11f89c4cea2","system_id":"levelo_inurba_marseille","lat":43.31285,"lon":5.40166,"is_reserved":false,"is_disabled":false,"rental_uris":{"android":"levelo://app?vid=325a06a9-8605-423a-905f-b11f89c4cea2","ios":"levelo://app?vid=325a06a9-8605-423a-905f-b11f89c4cea2"},"vehicle_type_id":"4","last_reported":1776807532,"current_range_meters":6800,"station_id":"ce4bh092rcd13ifvqd30","pricing_plan_id":"cebpf4jnsgd1na2vs0mg"},{"bike_id":"e34e6a6a-c339-4f48-a0a5-7d134c053ce4","system_id":"levelo_inurba_marseille","lat":43.29784,"lon":5.39336,"is_reserved":false,"is_disabled":false,"rental_uris":{"android":"levelo://app?vid=e34e6a6a-c339-4f48-a0a5-7d134c053ce4","ios":"levelo://app?vid=e34e6a6a-c339-4f48-a0a5-7d134c053ce4"},"vehicle_type_id":"4","last_reported":1776807532,"current_range_meters":6800,"station_id":"chh1huq6cuj3fo74tm60","pricing_plan_id":"cebpf4jnsgd1na2vs0mg"},{"bike_id":"ef91534f-0d0e-4809-9a35-4375555ab2b5","system_id":"levelo_inurba_marseille","lat":43.31905,"lon":5.36799,"is_reserved":false,"is_disabled":false,"rental_uris":{"android":"levelo://app?vid=ef91534f-0d0e-4809-9a35-4375555ab2b5","ios":"levelo://app?vid=ef91534f-0d0e-4809-9a35-4375555ab2b5"},"vehicle_type_id":"4","last_reported":1776807532,"current_range_meters":6800,"station_id":"st_d6o2h0d0559c73evc1b0","pricing_plan_id":"cebpf4jnsgd1na2vs0mg"},{"bike_id":"4dd90c3a-c53a-454b-ad3a-8e2561f63203","system_id":"levelo_inurba_marseille","lat":43.312301,"lon":5.36869,"is_reserved":false,"is_disabled":false,"rental_uris":{"android":"levelo://app?vid=4dd90c3a-c53a-454b-ad3a-8e2561f63203","ios":"levelo://app?vid=4dd90c3a-c53a-454b-ad3a-8e2561f63203"},"vehicle_type_id":"4","last_reported":1776807532,"current_range_meters":6800,"station_id":"","pricing_plan_id":"cebpf4jnsgd1na2vs0mg"},{"bike_id":"6941bf81-2b71-45da-86f8-ae002d5a69db","system_id":"levelo_inurba_marseille","lat":43.2803,"lon":5.36949,"is_reserved":false,"is_disabled":false,"rental_uris":{"android":"levelo://app?vid=6941bf81-2b71-45da-86f8-ae002d5a69db","ios":"levelo://app?vid=6941bf81-2b71-45da-86f8-ae002d5a69db"},"vehicle_type_id":"4","last_reported":1776807532,"current_range_meters":6800,"station_id":"ce4bha12rcd13ifvqef0","pricing_plan_id":"cebpf4jnsgd1na2vs0mg"},{"bike_id":"2d40a836-133e-4df4-8e94-64278280c4e2","system_id":"levelo_inurba_marseille","lat":43.28482,"lon":5.48401,"is_reserved":false,"is_disabled":false,"rental_uris":{"android":"levelo://app?vid=2d40a836-133e-4df4-8e94-64278280c4e2","ios":"levelo://app?vid=2d40a836-133e-4df4-8e94-64278280c4e2"},"vehicle_type_id":"4","last_reported":1776807532,"current_range_meters":6800,"station_id":"","pricing_plan_id":"cebpf4jnsgd1na2vs0mg"},{"bike_id":"2372ff5c-b340-4c5f-8531-5cd2273c37fc","system_id":"levelo_inurba_marseille","lat":43.2987,"lon":5.38868,"is_reserved":false,"is_disabled":false,"rental_uris":{"android":"levelo://app?vid=2372ff5c-b340-4c5f-8531-5cd2273c37fc","ios":"levelo://app?vid=2372ff5c-b340-4c5f-8531-5cd2273c37fc"},"vehicle_type_id":"4","last_reported":1776807532,"current_range_meters":6800,"station_id":"ce4bh392rcd13ifvqdl0","pricing_plan_id":"cebpf4jnsgd1na2vs0mg"},{"bike_id":"3cae59a1-2d8c-4dd5-b3e5-e8a280970b58","system_id":"levelo_inurba_marseille","lat":43.28599,"lon":5.39894,"is_reserved":false,"is_disabled":false,"rental_uris":{"android":"levelo://app?vid=3cae59a1-2d8c-4dd5-b3e5-e8a280970b58","ios":"levelo://app?vid=3cae59a1-2d8c-4dd5-b3e5-e8a280970b58"},"vehicle_type_id":"4","last_reported":1776807532,"current_range_meters":6800,"station_id":"st_d4a7ka997mjs738ck50g","pricing_plan_id":"cebpf4jnsgd1na2vs0mg"},{"bike_id":"3270381e-44e7-4481-9720-b4e778c7865c","system_id":"levelo_inurba_marseille","lat":43.30112,"lon":5.39859,"is_reserved":false,"is_disabled":false,"rental_uris":{"android":"levelo://app?vid=3270381e-44e7-4481-9720-b4e778c7865c","ios":"levelo://app?vid=3270381e-44e7-4481-9720-b4e778c7865c"},"vehicle_type_id":"4","last_reported":1776807532,"current_range_meters":7200,"station_id":"ce4bh0h2rcd13ifvqd40","pricing_plan_id":"cebpf4jnsgd1na2vs0mg"},{"bike_id":"909929ad-6150-4e90-9010-fc5021f6e58c","system_id":"levelo_inurba_marseille","lat":43.27202,"lon":5.401,"is_reserved":false,"is_disabled":false,"rental_uris":{"android":"levelo://app?vid=909929ad-6150-4e90-9010-fc5021f6e58c","ios":"levelo://app?vid=909929ad-6150-4e90-9010-fc5021f6e58c"},"vehicle_type_id":"4","last_reported":1776807532,"current_range_meters":7200,"station_id":"","pricing_plan_id":"cebpf4jnsgd1na2vs0mg"},{"bike_id":"d420143e-37e9-4bbd-a3bb-322c4c4ad02e","system_id":"levelo_inurba_marseille","lat":43.2795,"lon":5.38705,"is_reserved":false,"is_disabled":false,"rental_uris":{"android":"levelo://app?vid=d420143e-37e9-4bbd-a3bb-322c4c4ad02e","ios":"levelo://app?vid=d420143e-37e9-4bbd-a3bb-322c4c4ad02e"},"vehicle_type_id":"4","last_reported":1776807532,"current_range_meters":7200,"station_id":"ce4bhg12rcd13ifvqf80","pricing_plan_id":"cebpf4jnsgd1na2vs0mg"},{"bike_id":"53398df8-835b-4ed2-bf08-039bd71fda25","system_id":"levelo_inurba_marseille","lat":43.25928,"lon":5.38592,"is_reserved":false,"is_disabled":false,"rental_uris":{"android":"levelo://app?vid=53398df8-835b-4ed2-bf08-039bd71fda25","ios":"levelo://app?vid=53398df8-835b-4ed2-bf08-039bd71fda25"},"vehicle_type_id":"4","last_reported":1776807532,"current_range_meters":7200,"station_id":"","pricing_plan_id":"cebpf4jnsgd1na2vs0mg"},{"bike_id":"05a0ea56-1254-4a06-86da-6c24629017b3","system_id":"levelo_inurba_marseille","lat":43.29935,"lon":5.36543,"is_reserved":false,"is_disabled":false,"rental_uris":{"android":"levelo://app?vid=05a0ea56-1254-4a06-86da-6c24629017b3","ios":"levelo://app?vid=05a0ea56-1254-4a06-86da-6c24629017b3"},"vehicle_type_id":"4","last_reported":1776807532,"current_range_meters":7200,"station_id":"ce4bgm92rcd13ifvqbr0","pricing_plan_id":"cebpf4jnsgd1na2vs0mg"},{"bike_id":"6c651683-f993-4fd1-ae31-3a12a6e3cdc6","system_id":"levelo_inurba_marseille","lat":43.30323,"lon":5.369,"is_reserved":false,"is_disabled":false,"rental_uris":{"android":"levelo://app?vid=6c651683-f993-4fd1-ae31-3a12a6e3cdc6","ios":"levelo://app?vid=6c651683-f993-4fd1-ae31-3a12a6e3cdc6"},"vehicle_type_id":"4","last_reported":1776807532,"current_range_meters":7200,"station_id":"ce4bgqh2rcd13ifvqc5g","pricing_plan_id":"cebpf4jnsgd1na2vs0mg"},{"bike_id":"04d9f990-ead5-466c-adb0-472dbaea3d8d","system_id":"levelo_inurba_marseille","lat":43.26818,"lon":5.40262,"is_reserved":false,"is_disabled":false,"rental_uris":{"android":"levelo://app?vid=04d9f990-ead5-466c-adb0-472dbaea3d8d","ios":"levelo://app?vid=04d9f990-ead5-466c-adb0-472dbaea3d8d"},"vehicle_type_id":"4","last_reported":1776807532,"current_range_meters":7200,"station_id":"ce501612rcd8frsf0b60","pricing_plan_id":"cebpf4jnsgd1na2vs0mg"},{"bike_id":"b4644b0f-1073-4b3a-a19f-7c587ea906f1","system_id":"levelo_inurba_marseille","lat":43.28696,"lon":5.37396,"is_reserved":false,"is_disabled":false,"rental_uris":{"android":"levelo://app?vid=b4644b0f-1073-4b3a-a19f-7c587ea906f1","ios":"levelo://app?vid=b4644b0f-1073-4b3a-a19f-7c587ea906f1"},"vehicle_type_id":"4","last_reported":1776807532,"current_range_meters":7200,"station_id":"ce4bh3p2rcd13ifvqdq0","pricing_plan_id":"cebpf4jnsgd1na2vs0mg"},{"bike_id":"0357d1c6-d080-4ed7-b154-319624c20433","system_id":"levelo_inurba_marseille","lat":43.23382,"lon":5.4125,"is_reserved":false,"is_disabled":false,"rental_uris":{"android":"levelo://app?vid=0357d1c6-d080-4ed7-b154-319624c20433","ios":"levelo://app?vid=0357d1c6-d080-4ed7-b154-319624c20433"},"vehicle_type_id":"4","last_reported":1776807532,"current_range_meters":7200,"station_id":"st_d75pvndhf9lc73cqq3eg","pricing_plan_id":"cebpf4jnsgd1na2vs0mg"},{"bike_id":"ec69f4d9-c069-420b-997b-fdd74d56d6db","system_id":"levelo_inurba_marseille","lat":43.24657,"lon":5.3816,"is_reserved":false,"is_disabled":false,"rental_uris":{"android":"levelo://app?vid=ec69f4d9-c069-420b-997b-fdd74d56d6db","ios":"levelo://app?vid=ec69f4d9-c069-420b-997b-fdd74d56d6db"},"vehicle_type_id":"4","last_reported":1776807532,"current_range_meters":7200,"station_id":"ce4bhih2rcd13ifvqfr0","pricing_plan_id":"cebpf4jnsgd1na2vs0mg"},{"bike_id":"fcc994e7-3639-4a8d-8be7-47264161377b","system_id":"levelo_inurba_marseille","lat":43.3092,"lon":5.40144,"is_reserved":false,"is_disabled":false,"rental_uris":{"android":"levelo://app?vid=fcc994e7-3639-4a8d-8be7-47264161377b","ios":"levelo://app?vid=fcc994e7-3639-4a8d-8be7-47264161377b"},"vehicle_type_id":"4","last_reported":1776807532,"current_range_meters":7200,"station_id":"ce4bgvp2rcd13ifvqct0","pricing_plan_id":"cebpf4jnsgd1na2vs0mg"},{"bike_id":"4437ceaf-8daf-49be-aedf-a33d965b7280","system_id":"levelo_inurba_marseille","lat":43.23408,"lon":5.41213,"is_reserved":false,"is_disabled":false,"rental_uris":{"android":"levelo://app?vid=4437ceaf-8daf-49be-aedf-a33d965b7280","ios":"levelo://app?vid=4437ceaf-8daf-49be-aedf-a33d965b7280"},"vehicle_type_id":"4","last_reported":1776807532,"current_range_meters":8000,"station_id":"st_d75pvndhf9lc73cqq3eg","pricing_plan_id":"cebpf4jnsgd1na2vs0mg"},{"bike_id":"fb58b342-270a-4b82-bfe0-c2bd1955229a","system_id":"levelo_inurba_marseille","lat":43.2951,"lon":5.3853,"is_reserved":false,"is_disabled":false,"rental_uris":{"android":"levelo://app?vid=fb58b342-270a-4b82-bfe0-c2bd1955229a","ios":"levelo://app?vid=fb58b342-270a-4b82-bfe0-c2bd1955229a"},"vehicle_type_id":"4","last_reported":1776807532,"current_range_meters":8000,"station_id":"ce4bgih2rcd13ifvqba0","pricing_plan_id":"cebpf4jnsgd1na2vs0mg"},{"bike_id":"ef230661-68ca-41f2-8121-f390ccfd8612","system_id":"levelo_inurba_marseille","lat":43.27498,"lon":5.42447,"is_reserved":false,"is_disabled":false,"rental_uris":{"android":"levelo://app?vid=ef230661-68ca-41f2-8121-f390ccfd8612","ios":"levelo://app?vid=ef230661-68ca-41f2-8121-f390ccfd8612"},"vehicle_type_id":"4","last_reported":1776807532,"current_range_meters":8000,"station_id":"ce4bhn92rcd13ifvqgrg","pricing_plan_id":"cebpf4jnsgd1na2vs0mg"},{"bike_id":"37eae820-b39c-4a10-b9f1-bbf6af567e33","system_id":"levelo_inurba_marseille","lat":43.29605,"lon":5.37722,"is_reserved":false,"is_disabled":false,"rental_uris":{"android":"levelo://app?vid=37eae820-b39c-4a10-b9f1-bbf6af567e33","ios":"levelo://app?vid=37eae820-b39c-4a10-b9f1-bbf6af567e33"},"vehicle_type_id":"4","last_reported":1776807532,"current_range_meters":8000,"station_id":"ce4bgi92rcd13ifvqb90","pricing_plan_id":"cebpf4jnsgd1na2vs0mg"},{"bike_id":"ae1a0ce0-3e2e-4cf2-b858-405a12aeabc1","system_id":"levelo_inurba_marseille","lat":43.27119,"lon":5.42336,"is_reserved":false,"is_disabled":false,"rental_uris":{"android":"levelo://app?vid=ae1a0ce0-3e2e-4cf2-b858-405a12aeabc1","ios":"levelo://app?vid=ae1a0ce0-3e2e-4cf2-b858-405a12aeabc1"},"vehicle_type_id":"4","last_reported":1776807532,"current_range_meters":8000,"station_id":"","pricing_plan_id":"cebpf4jnsgd1na2vs0mg"},{"bike_id":"fc65a632-bd3b-4cc7-8723-5cc6caf0ef89","system_id":"levelo_inurba_marseille","lat":43.29523,"lon":5.39402,"is_reserved":false,"is_disabled":false,"rental_uris":{"android":"levelo://app?vid=fc65a632-bd3b-4cc7-8723-5cc6caf0ef89","ios":"levelo://app?vid=fc65a632-bd3b-4cc7-8723-5cc6caf0ef89"},"vehicle_type_id":"4","last_reported":1776807532,"current_range_meters":8000,"station_id":"ce4bh292rcd13ifvqdf0","pricing_plan_id":"cebpf4jnsgd1na2vs0mg"},{"bike_id":"842d0df7-332d-4e0d-af29-a1003ef4505c","system_id":"levelo_inurba_marseille","lat":43.29294,"lon":5.40936,"is_reserved":false,"is_disabled":false,"rental_uris":{"android":"levelo://app?vid=842d0df7-332d-4e0d-af29-a1003ef4505c","ios":"levelo://app?vid=842d0df7-332d-4e0d-af29-a1003ef4505c"},"vehicle_type_id":"4","last_reported":1776807532,"current_range_meters":8000,"station_id":"ce4bh192rcd13ifvqdc0","pricing_plan_id":"cebpf4jnsgd1na2vs0mg"},{"bike_id":"42b8299d-4870-4da9-b286-019335d78bb3","system_id":"levelo_inurba_marseille","lat":43.28439,"lon":5.392058,"is_reserved":false,"is_disabled":false,"rental_uris":{"android":"levelo://app?vid=42b8299d-4870-4da9-b286-019335d78bb3","ios":"levelo://app?vid=42b8299d-4870-4da9-b286-019335d78bb3"},"vehicle_type_id":"4","last_reported":1776807532,"current_range_meters":8000,"station_id":"ce4bhoh2rcd13ifvqh5g","pricing_plan_id":"cebpf4jnsgd1na2vs0mg"},{"bike_id":"d9be86bb-6c4e-4c05-bc60-e02431cbb916","system_id":"levelo_inurba_marseille","lat":43.31925,"lon":5.36828,"is_reserved":false,"is_disabled":false,"rental_uris":{"android":"levelo://app?vid=d9be86bb-6c4e-4c05-bc60-e02431cbb916","ios":"levelo://app?vid=d9be86bb-6c4e-4c05-bc60-e02431cbb916"},"vehicle_type_id":"4","last_reported":1776807532,"current_range_meters":8000,"station_id":"st_d6o2h0d0559c73evc1b0","pricing_plan_id":"cebpf4jnsgd1na2vs0mg"},{"bike_id":"3448f0f4-d448-4b78-8559-0a980538ebbf","system_id":"levelo_inurba_marseille","lat":43.29515,"lon":5.43309,"is_reserved":false,"is_disabled":false,"rental_uris":{"android":"levelo://app?vid=3448f0f4-d448-4b78-8559-0a980538ebbf","ios":"levelo://app?vid=3448f0f4-d448-4b78-8559-0a980538ebbf"},"vehicle_type_id":"4","last_reported":1776807532,"current_range_meters":8000,"station_id":"st_d3j5ugp08ojc73fj9d10","pricing_plan_id":"cebpf4jnsgd1na2vs0mg"},{"bike_id":"96b5d2cc-d01a-49d5-b6e3-f53c457d2660","system_id":"levelo_inurba_marseille","lat":43.29049,"lon":5.4001,"is_reserved":false,"is_disabled":false,"rental_uris":{"android":"levelo://app?vid=96b5d2cc-d01a-49d5-b6e3-f53c457d2660","ios":"levelo://app?vid=96b5d2cc-d01a-49d5-b6e3-f53c457d2660"},"vehicle_type_id":"4","last_reported":1776807532,"current_range_meters":8000,"station_id":"ce4bh392rcd13ifvqdm0","pricing_plan_id":"cebpf4jnsgd1na2vs0mg"},{"bike_id":"5dca9a8e-83e7-4e4f-baef-b39340f4d785","system_id":"levelo_inurba_marseille","lat":43.29551,"lon":5.39946,"is_reserved":false,"is_disabled":true,"rental_uris":{"android":"levelo://app?vid=5dca9a8e-83e7-4e4f-baef-b39340f4d785","ios":"levelo://app?vid=5dca9a8e-83e7-4e4f-baef-b39340f4d785"},"vehicle_type_id":"4","last_reported":1776807532,"current_range_meters":8000,"station_id":"ce4bh312rcd13ifvqdj0","pricing_plan_id":"cebpf4jnsgd1na2vs0mg"},{"bike_id":"25c003c7-68a6-46d0-ad10-f5957404141c","system_id":"levelo_inurba_marseille","lat":43.30591,"lon":5.3935,"is_reserved":false,"is_disabled":false,"rental_uris":{"android":"levelo://app?vid=25c003c7-68a6-46d0-ad10-f5957404141c","ios":"levelo://app?vid=25c003c7-68a6-46d0-ad10-f5957404141c"},"vehicle_type_id":"4","last_reported":1776807532,"current_range_meters":8000,"station_id":"ce4bh0p2rcd13ifvqd80","pricing_plan_id":"cebpf4jnsgd1na2vs0mg"},{"bike_id":"0a9b13b2-0c2f-4a3e-b569-3e3096b39a38","system_id":"levelo_inurba_marseille","lat":43.28048,"lon":5.3961,"is_reserved":false,"is_disabled":false,"rental_uris":{"android":"levelo://app?vid=0a9b13b2-0c2f-4a3e-b569-3e3096b39a38","ios":"levelo://app?vid=0a9b13b2-0c2f-4a3e-b569-3e3096b39a38"},"vehicle_type_id":"4","last_reported":1776807532,"current_range_meters":8000,"station_id":"","pricing_plan_id":"cebpf4jnsgd1na2vs0mg"},{"bike_id":"259873a5-a1ea-41b3-8200-d0477284c8f2","system_id":"levelo_inurba_marseille","lat":43.28535,"lon":5.44092,"is_reserved":false,"is_disabled":false,"rental_uris":{"android":"levelo://app?vid=259873a5-a1ea-41b3-8200-d0477284c8f2","ios":"levelo://app?vid=259873a5-a1ea-41b3-8200-d0477284c8f2"},"vehicle_type_id":"4","last_reported":1776807532,"current_range_meters":8000,"station_id":"st_d3j3df2ikq2c7380ej80","pricing_plan_id":"cebpf4jnsgd1na2vs0mg"},{"bike_id":"86a2d651-4b86-4e0d-8c2c-35f6a60e572b","system_id":"levelo_inurba_marseille","lat":43.31323,"lon":5.39693,"is_reserved":false,"is_disabled":false,"rental_uris":{"android":"levelo://app?vid=86a2d651-4b86-4e0d-8c2c-35f6a60e572b","ios":"levelo://app?vid=86a2d651-4b86-4e0d-8c2c-35f6a60e572b"},"vehicle_type_id":"4","last_reported":1776807532,"current_range_meters":8000,"station_id":"ce4bgvp2rcd13ifvqcu0","pricing_plan_id":"cebpf4jnsgd1na2vs0mg"},{"bike_id":"61b3aea9-0113-4ac0-b8e1-3dc8d194446c","system_id":"levelo_inurba_marseille","lat":43.30142,"lon":5.43137,"is_reserved":false,"is_disabled":true,"rental_uris":{"android":"levelo://app?vid=61b3aea9-0113-4ac0-b8e1-3dc8d194446c","ios":"levelo://app?vid=61b3aea9-0113-4ac0-b8e1-3dc8d194446c"},"vehicle_type_id":"4","last_reported":1776807532,"current_range_meters":8000,"station_id":"st_d3js3co5814s73ftftug","pricing_plan_id":"cebpf4jnsgd1na2vs0mg"},{"bike_id":"22e0b1e6-3839-449a-b2f0-10eb440559bc","system_id":"levelo_inurba_marseille","lat":43.25119,"lon":5.39532,"is_reserved":false,"is_disabled":false,"rental_uris":{"android":"levelo://app?vid=22e0b1e6-3839-449a-b2f0-10eb440559bc","ios":"levelo://app?vid=22e0b1e6-3839-449a-b2f0-10eb440559bc"},"vehicle_type_id":"4","last_reported":1776807532,"current_range_meters":8400,"station_id":"ce4bhm12rcd13ifvqgkg","pricing_plan_id":"cebpf4jnsgd1na2vs0mg"},{"bike_id":"badf4622-8d39-4c6d-8e74-cdbf9e168f9d","system_id":"levelo_inurba_marseille","lat":43.25079,"lon":5.4033,"is_reserved":false,"is_disabled":false,"rental_uris":{"android":"levelo://app?vid=badf4622-8d39-4c6d-8e74-cdbf9e168f9d","ios":"levelo://app?vid=badf4622-8d39-4c6d-8e74-cdbf9e168f9d"},"vehicle_type_id":"4","last_reported":1776807532,"current_range_meters":8400,"station_id":"ce4bhlh2rcd13ifvqgig","pricing_plan_id":"cebpf4jnsgd1na2vs0mg"},{"bike_id":"ef4460cf-c33d-465d-8f99-319f3140e8d6","system_id":"levelo_inurba_marseille","lat":43.29454,"lon":5.39752,"is_reserved":false,"is_disabled":false,"rental_uris":{"android":"levelo://app?vid=ef4460cf-c33d-465d-8f99-319f3140e8d6","ios":"levelo://app?vid=ef4460cf-c33d-465d-8f99-319f3140e8d6"},"vehicle_type_id":"4","last_reported":1776807532,"current_range_meters":8400,"station_id":"ce4bh3h2rcd13ifvqdo0","pricing_plan_id":"cebpf4jnsgd1na2vs0mg"},{"bike_id":"156a9278-c7f8-442d-9b54-2a52d275e0c5","system_id":"levelo_inurba_marseille","lat":43.28619,"lon":5.35093,"is_reserved":false,"is_disabled":true,"rental_uris":{"android":"levelo://app?vid=156a9278-c7f8-442d-9b54-2a52d275e0c5","ios":"levelo://app?vid=156a9278-c7f8-442d-9b54-2a52d275e0c5"},"vehicle_type_id":"4","last_reported":1776807532,"current_range_meters":8400,"station_id":"ce4bhch2rcd13ifvqeug","pricing_plan_id":"cebpf4jnsgd1na2vs0mg"},{"bike_id":"cf3fe5d3-d4ec-4b38-8150-39aceb83da66","system_id":"levelo_inurba_marseille","lat":43.31028,"lon":5.3716,"is_reserved":false,"is_disabled":false,"rental_uris":{"android":"levelo://app?vid=cf3fe5d3-d4ec-4b38-8150-39aceb83da66","ios":"levelo://app?vid=cf3fe5d3-d4ec-4b38-8150-39aceb83da66"},"vehicle_type_id":"4","last_reported":1776807532,"current_range_meters":8400,"station_id":"st_d4kl2rp97mjs73e7tdfg","pricing_plan_id":"cebpf4jnsgd1na2vs0mg"},{"bike_id":"ac881409-e7c1-4dc7-868f-5470aa726fd2","system_id":"levelo_inurba_marseille","lat":43.29804,"lon":5.44089,"is_reserved":false,"is_disabled":false,"rental_uris":{"android":"levelo://app?vid=ac881409-e7c1-4dc7-868f-5470aa726fd2","ios":"levelo://app?vid=ac881409-e7c1-4dc7-868f-5470aa726fd2"},"vehicle_type_id":"4","last_reported":1776807532,"current_range_meters":8400,"station_id":"st_d3jp68qikq2c7381ktn0","pricing_plan_id":"cebpf4jnsgd1na2vs0mg"},{"bike_id":"9b5f530a-feb3-40f8-b325-17ef686ceeee","system_id":"levelo_inurba_marseille","lat":43.29153,"lon":5.38536,"is_reserved":false,"is_disabled":false,"rental_uris":{"android":"levelo://app?vid=9b5f530a-feb3-40f8-b325-17ef686ceeee","ios":"levelo://app?vid=9b5f530a-feb3-40f8-b325-17ef686ceeee"},"vehicle_type_id":"4","last_reported":1776807532,"current_range_meters":8400,"station_id":"","pricing_plan_id":"cebpf4jnsgd1na2vs0mg"},{"bike_id":"07af0fc0-5c2c-490f-8109-3b4d1d294a59","system_id":"levelo_inurba_marseille","lat":43.24179,"lon":5.39724,"is_reserved":false,"is_disabled":false,"rental_uris":{"android":"levelo://app?vid=07af0fc0-5c2c-490f-8109-3b4d1d294a59","ios":"levelo://app?vid=07af0fc0-5c2c-490f-8109-3b4d1d294a59"},"vehicle_type_id":"4","last_reported":1776807532,"current_range_meters":8400,"station_id":"ce4bhn12rcd13ifvqgpg","pricing_plan_id":"cebpf4jnsgd1na2vs0mg"},{"bike_id":"e49b8b33-40d0-498a-a2cb-9e719b491918","system_id":"levelo_inurba_marseille","lat":43.25126,"lon":5.40354,"is_reserved":false,"is_disabled":false,"rental_uris":{"android":"levelo://app?vid=e49b8b33-40d0-498a-a2cb-9e719b491918","ios":"levelo://app?vid=e49b8b33-40d0-498a-a2cb-9e719b491918"},"vehicle_type_id":"4","last_reported":1776807532,"current_range_meters":8400,"station_id":"ce4bhlh2rcd13ifvqgig","pricing_plan_id":"cebpf4jnsgd1na2vs0mg"},{"bike_id":"9d57633b-4896-44e8-8925-1283dc52d3de","system_id":"levelo_inurba_marseille","lat":43.29515,"lon":5.38531,"is_reserved":false,"is_disabled":false,"rental_uris":{"android":"levelo://app?vid=9d57633b-4896-44e8-8925-1283dc52d3de","ios":"levelo://app?vid=9d57633b-4896-44e8-8925-1283dc52d3de"},"vehicle_type_id":"4","last_reported":1776807532,"current_range_meters":8400,"station_id":"ce4bgih2rcd13ifvqba0","pricing_plan_id":"cebpf4jnsgd1na2vs0mg"},{"bike_id":"0cf9c7d1-4ff6-4885-afdb-1945ed4e0993","system_id":"levelo_inurba_marseille","lat":43.29644,"lon":5.40593,"is_reserved":false,"is_disabled":true,"rental_uris":{"android":"levelo://app?vid=0cf9c7d1-4ff6-4885-afdb-1945ed4e0993","ios":"levelo://app?vid=0cf9c7d1-4ff6-4885-afdb-1945ed4e0993"},"vehicle_type_id":"4","last_reported":1776807532,"current_range_meters":8400,"station_id":"ce4bh0h2rcd13ifvqd60","pricing_plan_id":"cebpf4jnsgd1na2vs0mg"},{"bike_id":"350e7442-23d7-4e56-8901-abbc70fd101f","system_id":"levelo_inurba_marseille","lat":43.31166,"lon":5.3871,"is_reserved":false,"is_disabled":false,"rental_uris":{"android":"levelo://app?vid=350e7442-23d7-4e56-8901-abbc70fd101f","ios":"levelo://app?vid=350e7442-23d7-4e56-8901-abbc70fd101f"},"vehicle_type_id":"4","last_reported":1776807532,"current_range_meters":8400,"station_id":"ce4bgv12rcd13ifvqcp0","pricing_plan_id":"cebpf4jnsgd1na2vs0mg"},{"bike_id":"a2e88054-dd45-471a-9705-a8a558e47e23","system_id":"levelo_inurba_marseille","lat":43.29301,"lon":5.37496,"is_reserved":false,"is_disabled":false,"rental_uris":{"android":"levelo://app?vid=a2e88054-dd45-471a-9705-a8a558e47e23","ios":"levelo://app?vid=a2e88054-dd45-471a-9705-a8a558e47e23"},"vehicle_type_id":"4","last_reported":1776807532,"current_range_meters":8400,"station_id":"ce4bgi12rcd13ifvqb70","pricing_plan_id":"cebpf4jnsgd1na2vs0mg"},{"bike_id":"d0a8881a-8c43-4555-8173-4d7ea35d93bd","system_id":"levelo_inurba_marseille","lat":43.29427,"lon":5.38645,"is_reserved":false,"is_disabled":false,"rental_uris":{"android":"levelo://app?vid=d0a8881a-8c43-4555-8173-4d7ea35d93bd","ios":"levelo://app?vid=d0a8881a-8c43-4555-8173-4d7ea35d93bd"},"vehicle_type_id":"4","last_reported":1776807532,"current_range_meters":8400,"station_id":"","pricing_plan_id":"cebpf4jnsgd1na2vs0mg"},{"bike_id":"beafb519-18ba-43f5-901e-4d2a35f80af8","system_id":"levelo_inurba_marseille","lat":43.24393,"lon":5.37075,"is_reserved":false,"is_disabled":false,"rental_uris":{"android":"levelo://app?vid=beafb519-18ba-43f5-901e-4d2a35f80af8","ios":"levelo://app?vid=beafb519-18ba-43f5-901e-4d2a35f80af8"},"vehicle_type_id":"4","last_reported":1776807532,"current_range_meters":8400,"station_id":"ce4bhhh2rcd13ifvqfk0","pricing_plan_id":"cebpf4jnsgd1na2vs0mg"},{"bike_id":"92f0d726-8ad1-42c8-b7a0-ddde28d30f31","system_id":"levelo_inurba_marseille","lat":43.29543,"lon":5.38531,"is_reserved":false,"is_disabled":false,"rental_uris":{"android":"levelo://app?vid=92f0d726-8ad1-42c8-b7a0-ddde28d30f31","ios":"levelo://app?vid=92f0d726-8ad1-42c8-b7a0-ddde28d30f31"},"vehicle_type_id":"4","last_reported":1776807532,"current_range_meters":8400,"station_id":"ce4bgih2rcd13ifvqba0","pricing_plan_id":"cebpf4jnsgd1na2vs0mg"},{"bike_id":"a5932d33-7fe4-4ab5-ab73-558a4a420627","system_id":"levelo_inurba_marseille","lat":43.24449,"lon":5.40034,"is_reserved":false,"is_disabled":false,"rental_uris":{"android":"levelo://app?vid=a5932d33-7fe4-4ab5-ab73-558a4a420627","ios":"levelo://app?vid=a5932d33-7fe4-4ab5-ab73-558a4a420627"},"vehicle_type_id":"4","last_reported":1776807532,"current_range_meters":8400,"station_id":"","pricing_plan_id":"cebpf4jnsgd1na2vs0mg"},{"bike_id":"0c54cefd-8dbc-46d8-a49d-66338750404d","system_id":"levelo_inurba_marseille","lat":43.29928,"lon":5.36548,"is_reserved":false,"is_disabled":false,"rental_uris":{"android":"levelo://app?vid=0c54cefd-8dbc-46d8-a49d-66338750404d","ios":"levelo://app?vid=0c54cefd-8dbc-46d8-a49d-66338750404d"},"vehicle_type_id":"4","last_reported":1776807532,"current_range_meters":8400,"station_id":"ce4bgm92rcd13ifvqbr0","pricing_plan_id":"cebpf4jnsgd1na2vs0mg"},{"bike_id":"a43319a1-e942-45fa-a9f9-6c4e37db171a","system_id":"levelo_inurba_marseille","lat":43.31207,"lon":5.3872,"is_reserved":false,"is_disabled":false,"rental_uris":{"android":"levelo://app?vid=a43319a1-e942-45fa-a9f9-6c4e37db171a","ios":"levelo://app?vid=a43319a1-e942-45fa-a9f9-6c4e37db171a"},"vehicle_type_id":"4","last_reported":1776807532,"current_range_meters":8400,"station_id":"ce4bgv12rcd13ifvqcp0","pricing_plan_id":"cebpf4jnsgd1na2vs0mg"},{"bike_id":"035a2b75-dbf8-4965-b745-8ef8f1bf6d35","system_id":"levelo_inurba_marseille","lat":43.2925,"lon":5.38444,"is_reserved":false,"is_disabled":false,"rental_uris":{"android":"levelo://app?vid=035a2b75-dbf8-4965-b745-8ef8f1bf6d35","ios":"levelo://app?vid=035a2b75-dbf8-4965-b745-8ef8f1bf6d35"},"vehicle_type_id":"4","last_reported":1776807532,"current_range_meters":8800,"station_id":"ce4bho92rcd13ifvqh3g","pricing_plan_id":"cebpf4jnsgd1na2vs0mg"},{"bike_id":"61925a2b-22e6-4cea-a7a2-adf03c9e0d23","system_id":"levelo_inurba_marseille","lat":43.30327,"lon":5.40431,"is_reserved":false,"is_disabled":false,"rental_uris":{"android":"levelo://app?vid=61925a2b-22e6-4cea-a7a2-adf03c9e0d23","ios":"levelo://app?vid=61925a2b-22e6-4cea-a7a2-adf03c9e0d23"},"vehicle_type_id":"4","last_reported":1776807532,"current_range_meters":8800,"station_id":"ce4bh012rcd13ifvqd10","pricing_plan_id":"cebpf4jnsgd1na2vs0mg"},{"bike_id":"93ffcb54-2a39-4a97-ae96-eee3744a5267","system_id":"levelo_inurba_marseille","lat":43.30319,"lon":5.36876,"is_reserved":false,"is_disabled":false,"rental_uris":{"android":"levelo://app?vid=93ffcb54-2a39-4a97-ae96-eee3744a5267","ios":"levelo://app?vid=93ffcb54-2a39-4a97-ae96-eee3744a5267"},"vehicle_type_id":"4","last_reported":1776807532,"current_range_meters":8800,"station_id":"ce4bgqh2rcd13ifvqc5g","pricing_plan_id":"cebpf4jnsgd1na2vs0mg"},{"bike_id":"32023100-5ce8-4637-ad41-206e633c27ce","system_id":"levelo_inurba_marseille","lat":43.24811,"lon":5.37443,"is_reserved":false,"is_disabled":true,"rental_uris":{"android":"levelo://app?vid=32023100-5ce8-4637-ad41-206e633c27ce","ios":"levelo://app?vid=32023100-5ce8-4637-ad41-206e633c27ce"},"vehicle_type_id":"4","last_reported":1776807532,"current_range_meters":8800,"station_id":"ce4bhgh2rcd13ifvqfb0","pricing_plan_id":"cebpf4jnsgd1na2vs0mg"},{"bike_id":"be5c4907-57d0-4c67-8ff7-ac26938c6076","system_id":"levelo_inurba_marseille","lat":43.28262,"lon":5.40666,"is_reserved":false,"is_disabled":false,"rental_uris":{"android":"levelo://app?vid=be5c4907-57d0-4c67-8ff7-ac26938c6076","ios":"levelo://app?vid=be5c4907-57d0-4c67-8ff7-ac26938c6076"},"vehicle_type_id":"4","last_reported":1776807532,"current_range_meters":8800,"station_id":"","pricing_plan_id":"cebpf4jnsgd1na2vs0mg"},{"bike_id":"c76a8ee2-b262-4df4-8067-76b5c4dda45d","system_id":"levelo_inurba_marseille","lat":43.29038,"lon":5.38651,"is_reserved":false,"is_disabled":false,"rental_uris":{"android":"levelo://app?vid=c76a8ee2-b262-4df4-8067-76b5c4dda45d","ios":"levelo://app?vid=c76a8ee2-b262-4df4-8067-76b5c4dda45d"},"vehicle_type_id":"4","last_reported":1776807532,"current_range_meters":8800,"station_id":"ce4bh4p2rcd13ifvqe0g","pricing_plan_id":"cebpf4jnsgd1na2vs0mg"},{"bike_id":"fc83597b-c92a-4d6b-9ec3-85cccb5b70a7","system_id":"levelo_inurba_marseille","lat":43.31941,"lon":5.36843,"is_reserved":false,"is_disabled":false,"rental_uris":{"android":"levelo://app?vid=fc83597b-c92a-4d6b-9ec3-85cccb5b70a7","ios":"levelo://app?vid=fc83597b-c92a-4d6b-9ec3-85cccb5b70a7"},"vehicle_type_id":"4","last_reported":1776807532,"current_range_meters":8800,"station_id":"","pricing_plan_id":"cebpf4jnsgd1na2vs0mg"},{"bike_id":"04257b95-4499-46e1-a4e3-88ab526291ba","system_id":"levelo_inurba_marseille","lat":43.28476,"lon":5.484,"is_reserved":false,"is_disabled":false,"rental_uris":{"android":"levelo://app?vid=04257b95-4499-46e1-a4e3-88ab526291ba","ios":"levelo://app?vid=04257b95-4499-46e1-a4e3-88ab526291ba"},"vehicle_type_id":"4","last_reported":1776807532,"current_range_meters":8800,"station_id":"","pricing_plan_id":"cebpf4jnsgd1na2vs0mg"},{"bike_id":"4a4f8c1a-6cd1-40bb-813c-2cf949d2509e","system_id":"levelo_inurba_marseille","lat":43.29029,"lon":5.38646,"is_reserved":false,"is_disabled":false,"rental_uris":{"android":"levelo://app?vid=4a4f8c1a-6cd1-40bb-813c-2cf949d2509e","ios":"levelo://app?vid=4a4f8c1a-6cd1-40bb-813c-2cf949d2509e"},"vehicle_type_id":"4","last_reported":1776807532,"current_range_meters":8800,"station_id":"ce4bh4p2rcd13ifvqe0g","pricing_plan_id":"cebpf4jnsgd1na2vs0mg"},{"bike_id":"2e91429e-26d4-4cb4-b1d3-cd915485ff5f","system_id":"levelo_inurba_marseille","lat":43.31124,"lon":5.37756,"is_reserved":false,"is_disabled":false,"rental_uris":{"android":"levelo://app?vid=2e91429e-26d4-4cb4-b1d3-cd915485ff5f","ios":"levelo://app?vid=2e91429e-26d4-4cb4-b1d3-cd915485ff5f"},"vehicle_type_id":"4","last_reported":1776807532,"current_range_meters":8800,"station_id":"ce4bgt92rcd13ifvqcg0","pricing_plan_id":"cebpf4jnsgd1na2vs0mg"},{"bike_id":"efafe04d-4c99-4008-b213-fd769bff4eb0","system_id":"levelo_inurba_marseille","lat":43.29541,"lon":5.39405,"is_reserved":false,"is_disabled":true,"rental_uris":{"android":"levelo://app?vid=efafe04d-4c99-4008-b213-fd769bff4eb0","ios":"levelo://app?vid=efafe04d-4c99-4008-b213-fd769bff4eb0"},"vehicle_type_id":"4","last_reported":1776807532,"current_range_meters":8800,"station_id":"ce4bh292rcd13ifvqdf0","pricing_plan_id":"cebpf4jnsgd1na2vs0mg"},{"bike_id":"33b6c338-058b-47c2-a903-d45a5c585d34","system_id":"levelo_inurba_marseille","lat":43.2849,"lon":5.38539,"is_reserved":false,"is_disabled":false,"rental_uris":{"android":"levelo://app?vid=33b6c338-058b-47c2-a903-d45a5c585d34","ios":"levelo://app?vid=33b6c338-058b-47c2-a903-d45a5c585d34"},"vehicle_type_id":"4","last_reported":1776807532,"current_range_meters":8800,"station_id":"ce4bh8p2rcd13ifvqeb0","pricing_plan_id":"cebpf4jnsgd1na2vs0mg"},{"bike_id":"de8b4211-b96a-446f-90e6-60ae6acf48a7","system_id":"levelo_inurba_marseille","lat":43.2953,"lon":5.37488,"is_reserved":false,"is_disabled":false,"rental_uris":{"android":"levelo://app?vid=de8b4211-b96a-446f-90e6-60ae6acf48a7","ios":"levelo://app?vid=de8b4211-b96a-446f-90e6-60ae6acf48a7"},"vehicle_type_id":"4","last_reported":1776807532,"current_range_meters":8800,"station_id":"ce4bgkp2rcd13ifvqbmg","pricing_plan_id":"cebpf4jnsgd1na2vs0mg"},{"bike_id":"8194a0ff-2824-43c5-8a22-527fdaa0a136","system_id":"levelo_inurba_marseille","lat":43.27367,"lon":5.40897,"is_reserved":false,"is_disabled":false,"rental_uris":{"android":"levelo://app?vid=8194a0ff-2824-43c5-8a22-527fdaa0a136","ios":"levelo://app?vid=8194a0ff-2824-43c5-8a22-527fdaa0a136"},"vehicle_type_id":"4","last_reported":1776807532,"current_range_meters":8800,"station_id":"","pricing_plan_id":"cebpf4jnsgd1na2vs0mg"},{"bike_id":"20dcb26d-398b-4c97-a26f-b782fb3303c8","system_id":"levelo_inurba_marseille","lat":43.28544,"lon":5.44083,"is_reserved":false,"is_disabled":false,"rental_uris":{"android":"levelo://app?vid=20dcb26d-398b-4c97-a26f-b782fb3303c8","ios":"levelo://app?vid=20dcb26d-398b-4c97-a26f-b782fb3303c8"},"vehicle_type_id":"4","last_reported":1776807532,"current_range_meters":8800,"station_id":"st_d3j3df2ikq2c7380ej80","pricing_plan_id":"cebpf4jnsgd1na2vs0mg"},{"bike_id":"6a37b8f2-598c-4865-986b-c1637c9a4546","system_id":"levelo_inurba_marseille","lat":43.23887,"lon":5.37467,"is_reserved":false,"is_disabled":false,"rental_uris":{"android":"levelo://app?vid=6a37b8f2-598c-4865-986b-c1637c9a4546","ios":"levelo://app?vid=6a37b8f2-598c-4865-986b-c1637c9a4546"},"vehicle_type_id":"4","last_reported":1776807532,"current_range_meters":8800,"station_id":"st_d6sm7csbq4hs73f8fpjg","pricing_plan_id":"cebpf4jnsgd1na2vs0mg"},{"bike_id":"468b098b-8742-43b6-94e4-77df021ec20c","system_id":"levelo_inurba_marseille","lat":43.30781,"lon":5.42472,"is_reserved":false,"is_disabled":false,"rental_uris":{"android":"levelo://app?vid=468b098b-8742-43b6-94e4-77df021ec20c","ios":"levelo://app?vid=468b098b-8742-43b6-94e4-77df021ec20c"},"vehicle_type_id":"4","last_reported":1776807532,"current_range_meters":8800,"station_id":"st_cvj6ca6bvosntc0bfgr0","pricing_plan_id":"cebpf4jnsgd1na2vs0mg"},{"bike_id":"353dbd75-4f34-4a0c-8a05-bb9d61e99cd2","system_id":"levelo_inurba_marseille","lat":43.30249,"lon":5.40062,"is_reserved":false,"is_disabled":false,"rental_uris":{"android":"levelo://app?vid=353dbd75-4f34-4a0c-8a05-bb9d61e99cd2","ios":"levelo://app?vid=353dbd75-4f34-4a0c-8a05-bb9d61e99cd2"},"vehicle_type_id":"4","last_reported":1776807532,"current_range_meters":8800,"station_id":"ce4bgvh2rcd13ifvqcs0","pricing_plan_id":"cebpf4jnsgd1na2vs0mg"},{"bike_id":"3966cb5d-7589-4b2e-8ea0-81c23b744436","system_id":"levelo_inurba_marseille","lat":43.30651,"lon":5.40092,"is_reserved":false,"is_disabled":false,"rental_uris":{"android":"levelo://app?vid=3966cb5d-7589-4b2e-8ea0-81c23b744436","ios":"levelo://app?vid=3966cb5d-7589-4b2e-8ea0-81c23b744436"},"vehicle_type_id":"4","last_reported":1776807532,"current_range_meters":8800,"station_id":"ce4bh112rcd13ifvqda0","pricing_plan_id":"cebpf4jnsgd1na2vs0mg"},{"bike_id":"059b4ad8-665d-46df-9a3f-e9b9a20a1c99","system_id":"levelo_inurba_marseille","lat":43.33543,"lon":5.37456,"is_reserved":false,"is_disabled":false,"rental_uris":{"android":"levelo://app?vid=059b4ad8-665d-46df-9a3f-e9b9a20a1c99","ios":"levelo://app?vid=059b4ad8-665d-46df-9a3f-e9b9a20a1c99"},"vehicle_type_id":"4","last_reported":1776807532,"current_range_meters":8800,"station_id":"st_d46tts09ee8s73dlu43g","pricing_plan_id":"cebpf4jnsgd1na2vs0mg"},{"bike_id":"3fab059d-18a7-482e-8115-cee8992a6a7a","system_id":"levelo_inurba_marseille","lat":43.27949,"lon":5.41042,"is_reserved":false,"is_disabled":false,"rental_uris":{"android":"levelo://app?vid=3fab059d-18a7-482e-8115-cee8992a6a7a","ios":"levelo://app?vid=3fab059d-18a7-482e-8115-cee8992a6a7a"},"vehicle_type_id":"4","last_reported":1776807532,"current_range_meters":9200,"station_id":"ce4bhnp2rcd13ifvqh0g","pricing_plan_id":"cebpf4jnsgd1na2vs0mg"},{"bike_id":"92615081-641c-4a0d-ad8c-093e43d7e234","system_id":"levelo_inurba_marseille","lat":43.29251,"lon":5.37555,"is_reserved":false,"is_disabled":false,"rental_uris":{"android":"levelo://app?vid=92615081-641c-4a0d-ad8c-093e43d7e234","ios":"levelo://app?vid=92615081-641c-4a0d-ad8c-093e43d7e234"},"vehicle_type_id":"4","last_reported":1776807532,"current_range_meters":9200,"station_id":"","pricing_plan_id":"cebpf4jnsgd1na2vs0mg"},{"bike_id":"42bc5912-9f51-49f0-a597-ebcfd7df5cbb","system_id":"levelo_inurba_marseille","lat":43.29692,"lon":5.36616,"is_reserved":false,"is_disabled":true,"rental_uris":{"android":"levelo://app?vid=42bc5912-9f51-49f0-a597-ebcfd7df5cbb","ios":"levelo://app?vid=42bc5912-9f51-49f0-a597-ebcfd7df5cbb"},"vehicle_type_id":"4","last_reported":1776807532,"current_range_meters":9200,"station_id":"ce4bgn12rcd13ifvqbt0","pricing_plan_id":"cebpf4jnsgd1na2vs0mg"},{"bike_id":"c7ff1d8c-9f80-4101-92ef-2f0b68fb525f","system_id":"levelo_inurba_marseille","lat":43.27577,"lon":5.39515,"is_reserved":false,"is_disabled":false,"rental_uris":{"android":"levelo://app?vid=c7ff1d8c-9f80-4101-92ef-2f0b68fb525f","ios":"levelo://app?vid=c7ff1d8c-9f80-4101-92ef-2f0b68fb525f"},"vehicle_type_id":"4","last_reported":1776807532,"current_range_meters":9200,"station_id":"","pricing_plan_id":"cebpf4jnsgd1na2vs0mg"},{"bike_id":"317fc39e-7049-40d9-9630-7037ab30a7ac","system_id":"levelo_inurba_marseille","lat":43.27505,"lon":5.42454,"is_reserved":false,"is_disabled":false,"rental_uris":{"android":"levelo://app?vid=317fc39e-7049-40d9-9630-7037ab30a7ac","ios":"levelo://app?vid=317fc39e-7049-40d9-9630-7037ab30a7ac"},"vehicle_type_id":"4","last_reported":1776807532,"current_range_meters":9200,"station_id":"ce4bhn92rcd13ifvqgrg","pricing_plan_id":"cebpf4jnsgd1na2vs0mg"},{"bike_id":"d1fda486-70ba-4609-b998-7713b50defe1","system_id":"levelo_inurba_marseille","lat":43.27056,"lon":5.40011,"is_reserved":false,"is_disabled":false,"rental_uris":{"android":"levelo://app?vid=d1fda486-70ba-4609-b998-7713b50defe1","ios":"levelo://app?vid=d1fda486-70ba-4609-b998-7713b50defe1"},"vehicle_type_id":"4","last_reported":1776807532,"current_range_meters":9200,"station_id":"","pricing_plan_id":"cebpf4jnsgd1na2vs0mg"},{"bike_id":"2df0fb90-969f-4545-a2d3-6d2113ccf8ec","system_id":"levelo_inurba_marseille","lat":43.29509,"lon":5.38548,"is_reserved":false,"is_disabled":false,"rental_uris":{"android":"levelo://app?vid=2df0fb90-969f-4545-a2d3-6d2113ccf8ec","ios":"levelo://app?vid=2df0fb90-969f-4545-a2d3-6d2113ccf8ec"},"vehicle_type_id":"4","last_reported":1776807532,"current_range_meters":9200,"station_id":"ce4bgih2rcd13ifvqba0","pricing_plan_id":"cebpf4jnsgd1na2vs0mg"},{"bike_id":"53ac9b94-d2b8-401a-8133-9009372f217e","system_id":"levelo_inurba_marseille","lat":43.28464,"lon":5.48395,"is_reserved":false,"is_disabled":false,"rental_uris":{"android":"levelo://app?vid=53ac9b94-d2b8-401a-8133-9009372f217e","ios":"levelo://app?vid=53ac9b94-d2b8-401a-8133-9009372f217e"},"vehicle_type_id":"4","last_reported":1776807532,"current_range_meters":9200,"station_id":"","pricing_plan_id":"cebpf4jnsgd1na2vs0mg"},{"bike_id":"6d804725-3e06-48aa-bb02-3731fe39ff8c","system_id":"levelo_inurba_marseille","lat":43.29536,"lon":5.38538,"is_reserved":false,"is_disabled":false,"rental_uris":{"android":"levelo://app?vid=6d804725-3e06-48aa-bb02-3731fe39ff8c","ios":"levelo://app?vid=6d804725-3e06-48aa-bb02-3731fe39ff8c"},"vehicle_type_id":"4","last_reported":1776807532,"current_range_meters":9200,"station_id":"ce4bgih2rcd13ifvqba0","pricing_plan_id":"cebpf4jnsgd1na2vs0mg"},{"bike_id":"d516b241-18a7-43d9-9154-21f273af7ca2","system_id":"levelo_inurba_marseille","lat":43.2919,"lon":5.38837,"is_reserved":false,"is_disabled":false,"rental_uris":{"android":"levelo://app?vid=d516b241-18a7-43d9-9154-21f273af7ca2","ios":"levelo://app?vid=d516b241-18a7-43d9-9154-21f273af7ca2"},"vehicle_type_id":"4","last_reported":1776807532,"current_range_meters":9200,"station_id":"","pricing_plan_id":"cebpf4jnsgd1na2vs0mg"},{"bike_id":"e78c04eb-42fe-48ff-b4a7-8a50b3005232","system_id":"levelo_inurba_marseille","lat":43.27808,"lon":5.40676,"is_reserved":false,"is_disabled":false,"rental_uris":{"android":"levelo://app?vid=e78c04eb-42fe-48ff-b4a7-8a50b3005232","ios":"levelo://app?vid=e78c04eb-42fe-48ff-b4a7-8a50b3005232"},"vehicle_type_id":"4","last_reported":1776807532,"current_range_meters":9200,"station_id":"ce4bhnh2rcd13ifvqgtg","pricing_plan_id":"cebpf4jnsgd1na2vs0mg"},{"bike_id":"fc182d5e-a901-481f-9982-3c345938d4dd","system_id":"levelo_inurba_marseille","lat":43.30107,"lon":5.39071,"is_reserved":false,"is_disabled":false,"rental_uris":{"android":"levelo://app?vid=fc182d5e-a901-481f-9982-3c345938d4dd","ios":"levelo://app?vid=fc182d5e-a901-481f-9982-3c345938d4dd"},"vehicle_type_id":"4","last_reported":1776807532,"current_range_meters":9200,"station_id":"ce4bh192rcd13ifvqdb0","pricing_plan_id":"cebpf4jnsgd1na2vs0mg"},{"bike_id":"233600e6-095d-4d90-aabb-f94591bfc7be","system_id":"levelo_inurba_marseille","lat":43.29897,"lon":5.39727,"is_reserved":false,"is_disabled":false,"rental_uris":{"android":"levelo://app?vid=233600e6-095d-4d90-aabb-f94591bfc7be","ios":"levelo://app?vid=233600e6-095d-4d90-aabb-f94591bfc7be"},"vehicle_type_id":"4","last_reported":1776807532,"current_range_meters":9200,"station_id":"ce4bh0h2rcd13ifvqd50","pricing_plan_id":"cebpf4jnsgd1na2vs0mg"},{"bike_id":"f19589cb-032e-4633-a8f7-a3f1edd606b6","system_id":"levelo_inurba_marseille","lat":43.29533,"lon":5.38538,"is_reserved":false,"is_disabled":false,"rental_uris":{"android":"levelo://app?vid=f19589cb-032e-4633-a8f7-a3f1edd606b6","ios":"levelo://app?vid=f19589cb-032e-4633-a8f7-a3f1edd606b6"},"vehicle_type_id":"4","last_reported":1776807532,"current_range_meters":9200,"station_id":"ce4bgih2rcd13ifvqba0","pricing_plan_id":"cebpf4jnsgd1na2vs0mg"},{"bike_id":"305e1809-8fdd-4298-af7d-437eb4120cdd","system_id":"levelo_inurba_marseille","lat":43.28585,"lon":5.38126,"is_reserved":false,"is_disabled":false,"rental_uris":{"android":"levelo://app?vid=305e1809-8fdd-4298-af7d-437eb4120cdd","ios":"levelo://app?vid=305e1809-8fdd-4298-af7d-437eb4120cdd"},"vehicle_type_id":"4","last_reported":1776807532,"current_range_meters":9200,"station_id":"","pricing_plan_id":"cebpf4jnsgd1na2vs0mg"},{"bike_id":"fd8c8cd3-3e30-4b4e-982b-7ed39ab96d6c","system_id":"levelo_inurba_marseille","lat":43.30785,"lon":5.38144,"is_reserved":false,"is_disabled":false,"rental_uris":{"android":"levelo://app?vid=fd8c8cd3-3e30-4b4e-982b-7ed39ab96d6c","ios":"levelo://app?vid=fd8c8cd3-3e30-4b4e-982b-7ed39ab96d6c"},"vehicle_type_id":"4","last_reported":1776807532,"current_range_meters":9200,"station_id":"ce4bgt12rcd13ifvqce0","pricing_plan_id":"cebpf4jnsgd1na2vs0mg"},{"bike_id":"1c4db81e-e54e-450a-b910-a202dc639503","system_id":"levelo_inurba_marseille","lat":43.28483,"lon":5.48406,"is_reserved":false,"is_disabled":false,"rental_uris":{"android":"levelo://app?vid=1c4db81e-e54e-450a-b910-a202dc639503","ios":"levelo://app?vid=1c4db81e-e54e-450a-b910-a202dc639503"},"vehicle_type_id":"4","last_reported":1776807532,"current_range_meters":9600,"station_id":"","pricing_plan_id":"cebpf4jnsgd1na2vs0mg"},{"bike_id":"54158463-085c-499f-9d12-01f94070f32c","system_id":"levelo_inurba_marseille","lat":43.23786,"lon":5.36609,"is_reserved":false,"is_disabled":false,"rental_uris":{"android":"levelo://app?vid=54158463-085c-499f-9d12-01f94070f32c","ios":"levelo://app?vid=54158463-085c-499f-9d12-01f94070f32c"},"vehicle_type_id":"4","last_reported":1776807532,"current_range_meters":9600,"station_id":"st_d3nk18o9ro0c73en2l3g","pricing_plan_id":"cebpf4jnsgd1na2vs0mg"},{"bike_id":"896611a9-601b-4f73-887f-331242128bea","system_id":"levelo_inurba_marseille","lat":43.32656,"lon":5.40986,"is_reserved":false,"is_disabled":false,"rental_uris":{"android":"levelo://app?vid=896611a9-601b-4f73-887f-331242128bea","ios":"levelo://app?vid=896611a9-601b-4f73-887f-331242128bea"},"vehicle_type_id":"4","last_reported":1776807532,"current_range_meters":9600,"station_id":"ce4bhpp2rcd13ifvqhgg","pricing_plan_id":"cebpf4jnsgd1na2vs0mg"},{"bike_id":"0ae342eb-a682-4024-97ab-997c93fd978f","system_id":"levelo_inurba_marseille","lat":43.31462,"lon":5.37362,"is_reserved":false,"is_disabled":false,"rental_uris":{"android":"levelo://app?vid=0ae342eb-a682-4024-97ab-997c93fd978f","ios":"levelo://app?vid=0ae342eb-a682-4024-97ab-997c93fd978f"},"vehicle_type_id":"4","last_reported":1776807532,"current_range_meters":9600,"station_id":"","pricing_plan_id":"cebpf4jnsgd1na2vs0mg"},{"bike_id":"12d1ddb5-1e2c-4b2d-a0d4-dafdec917212","system_id":"levelo_inurba_marseille","lat":43.28501,"lon":5.48411,"is_reserved":false,"is_disabled":false,"rental_uris":{"android":"levelo://app?vid=12d1ddb5-1e2c-4b2d-a0d4-dafdec917212","ios":"levelo://app?vid=12d1ddb5-1e2c-4b2d-a0d4-dafdec917212"},"vehicle_type_id":"4","last_reported":1776807532,"current_range_meters":9600,"station_id":"","pricing_plan_id":"cebpf4jnsgd1na2vs0mg"},{"bike_id":"550ed932-fef6-425b-9aea-5158d5db4df4","system_id":"levelo_inurba_marseille","lat":43.30227,"lon":5.39461,"is_reserved":false,"is_disabled":false,"rental_uris":{"android":"levelo://app?vid=550ed932-fef6-425b-9aea-5158d5db4df4","ios":"levelo://app?vid=550ed932-fef6-425b-9aea-5158d5db4df4"},"vehicle_type_id":"4","last_reported":1776807532,"current_range_meters":9600,"station_id":"ce4bh0p2rcd13ifvqd70","pricing_plan_id":"cebpf4jnsgd1na2vs0mg"},{"bike_id":"ab441cdc-9cd1-4c8e-b69e-34bb46fece34","system_id":"levelo_inurba_marseille","lat":43.29391,"lon":5.363,"is_reserved":false,"is_disabled":false,"rental_uris":{"android":"levelo://app?vid=ab441cdc-9cd1-4c8e-b69e-34bb46fece34","ios":"levelo://app?vid=ab441cdc-9cd1-4c8e-b69e-34bb46fece34"},"vehicle_type_id":"4","last_reported":1776807532,"current_range_meters":9600,"station_id":"","pricing_plan_id":"cebpf4jnsgd1na2vs0mg"},{"bike_id":"9fb54bca-ba88-4da0-9bed-a5b2efdfb47c","system_id":"levelo_inurba_marseille","lat":43.30291,"lon":5.36933,"is_reserved":false,"is_disabled":false,"rental_uris":{"android":"levelo://app?vid=9fb54bca-ba88-4da0-9bed-a5b2efdfb47c","ios":"levelo://app?vid=9fb54bca-ba88-4da0-9bed-a5b2efdfb47c"},"vehicle_type_id":"4","last_reported":1776807532,"current_range_meters":9600,"station_id":"ce4bgqh2rcd13ifvqc5g","pricing_plan_id":"cebpf4jnsgd1na2vs0mg"},{"bike_id":"dc6ca247-b426-46fd-8886-8e79257bafc4","system_id":"levelo_inurba_marseille","lat":43.29278,"lon":5.40119,"is_reserved":false,"is_disabled":false,"rental_uris":{"android":"levelo://app?vid=dc6ca247-b426-46fd-8886-8e79257bafc4","ios":"levelo://app?vid=dc6ca247-b426-46fd-8886-8e79257bafc4"},"vehicle_type_id":"4","last_reported":1776807532,"current_range_meters":9600,"station_id":"ce4bh312rcd13ifvqdk0","pricing_plan_id":"cebpf4jnsgd1na2vs0mg"},{"bike_id":"e15844ed-6934-4661-9f24-2830e949a60e","system_id":"levelo_inurba_marseille","lat":43.27697,"lon":5.38898,"is_reserved":false,"is_disabled":false,"rental_uris":{"android":"levelo://app?vid=e15844ed-6934-4661-9f24-2830e949a60e","ios":"levelo://app?vid=e15844ed-6934-4661-9f24-2830e949a60e"},"vehicle_type_id":"4","last_reported":1776807532,"current_range_meters":9600,"station_id":"ce4bhi12rcd13ifvqfo0","pricing_plan_id":"cebpf4jnsgd1na2vs0mg"},{"bike_id":"ea54b7f9-00c6-43b1-9a5a-534a8cb9648e","system_id":"levelo_inurba_marseille","lat":43.29811,"lon":5.38522,"is_reserved":false,"is_disabled":false,"rental_uris":{"android":"levelo://app?vid=ea54b7f9-00c6-43b1-9a5a-534a8cb9648e","ios":"levelo://app?vid=ea54b7f9-00c6-43b1-9a5a-534a8cb9648e"},"vehicle_type_id":"4","last_reported":1776807532,"current_range_meters":9600,"station_id":"","pricing_plan_id":"cebpf4jnsgd1na2vs0mg"},{"bike_id":"a94d236d-eba8-4733-81ef-6d7a05120d94","system_id":"levelo_inurba_marseille","lat":43.24857,"lon":5.39456,"is_reserved":false,"is_disabled":false,"rental_uris":{"android":"levelo://app?vid=a94d236d-eba8-4733-81ef-6d7a05120d94","ios":"levelo://app?vid=a94d236d-eba8-4733-81ef-6d7a05120d94"},"vehicle_type_id":"4","last_reported":1776807532,"current_range_meters":9600,"station_id":"","pricing_plan_id":"cebpf4jnsgd1na2vs0mg"},{"bike_id":"21af960f-cd83-42eb-8664-01bbba1878a2","system_id":"levelo_inurba_marseille","lat":43.29625,"lon":5.37724,"is_reserved":false,"is_disabled":false,"rental_uris":{"android":"levelo://app?vid=21af960f-cd83-42eb-8664-01bbba1878a2","ios":"levelo://app?vid=21af960f-cd83-42eb-8664-01bbba1878a2"},"vehicle_type_id":"4","last_reported":1776807532,"current_range_meters":9600,"station_id":"ce4bgi92rcd13ifvqb90","pricing_plan_id":"cebpf4jnsgd1na2vs0mg"},{"bike_id":"6a6c0723-51ae-47f3-8bd8-0ea5c1d2e394","system_id":"levelo_inurba_marseille","lat":43.29555,"lon":5.39037,"is_reserved":false,"is_disabled":false,"rental_uris":{"android":"levelo://app?vid=6a6c0723-51ae-47f3-8bd8-0ea5c1d2e394","ios":"levelo://app?vid=6a6c0723-51ae-47f3-8bd8-0ea5c1d2e394"},"vehicle_type_id":"4","last_reported":1776807532,"current_range_meters":9600,"station_id":"ce4bh3p2rcd13ifvqdp0","pricing_plan_id":"cebpf4jnsgd1na2vs0mg"},{"bike_id":"00189a0e-8bac-4d11-85b6-2438ebff76d6","system_id":"levelo_inurba_marseille","lat":43.29439,"lon":5.38403,"is_reserved":false,"is_disabled":false,"rental_uris":{"android":"levelo://app?vid=00189a0e-8bac-4d11-85b6-2438ebff76d6","ios":"levelo://app?vid=00189a0e-8bac-4d11-85b6-2438ebff76d6"},"vehicle_type_id":"4","last_reported":1776807532,"current_range_meters":9600,"station_id":"","pricing_plan_id":"cebpf4jnsgd1na2vs0mg"},{"bike_id":"82bcc0e6-14a4-4c90-93f5-0c68b5821945","system_id":"levelo_inurba_marseille","lat":43.28625,"lon":5.39866,"is_reserved":false,"is_disabled":true,"rental_uris":{"android":"levelo://app?vid=82bcc0e6-14a4-4c90-93f5-0c68b5821945","ios":"levelo://app?vid=82bcc0e6-14a4-4c90-93f5-0c68b5821945"},"vehicle_type_id":"4","last_reported":1776807532,"current_range_meters":9600,"station_id":"st_d4a7ka997mjs738ck50g","pricing_plan_id":"cebpf4jnsgd1na2vs0mg"},{"bike_id":"6d375430-f81e-4fab-b9af-395f9c9a0b6c","system_id":"levelo_inurba_marseille","lat":43.31335,"lon":5.39671,"is_reserved":false,"is_disabled":false,"rental_uris":{"android":"levelo://app?vid=6d375430-f81e-4fab-b9af-395f9c9a0b6c","ios":"levelo://app?vid=6d375430-f81e-4fab-b9af-395f9c9a0b6c"},"vehicle_type_id":"4","last_reported":1776807532,"current_range_meters":9600,"station_id":"ce4bgvp2rcd13ifvqcu0","pricing_plan_id":"cebpf4jnsgd1na2vs0mg"},{"bike_id":"820cb578-102b-4e01-9b87-dffa6e646243","system_id":"levelo_inurba_marseille","lat":43.29277,"lon":5.4089,"is_reserved":false,"is_disabled":false,"rental_uris":{"android":"levelo://app?vid=820cb578-102b-4e01-9b87-dffa6e646243","ios":"levelo://app?vid=820cb578-102b-4e01-9b87-dffa6e646243"},"vehicle_type_id":"4","last_reported":1776807532,"current_range_meters":9600,"station_id":"ce4bh192rcd13ifvqdc0","pricing_plan_id":"cebpf4jnsgd1na2vs0mg"},{"bike_id":"e10250f5-d5c8-49a8-8044-1905ebcab35b","system_id":"levelo_inurba_marseille","lat":43.28921,"lon":5.36655,"is_reserved":false,"is_disabled":false,"rental_uris":{"android":"levelo://app?vid=e10250f5-d5c8-49a8-8044-1905ebcab35b","ios":"levelo://app?vid=e10250f5-d5c8-49a8-8044-1905ebcab35b"},"vehicle_type_id":"4","last_reported":1776807532,"current_range_meters":9600,"station_id":"ce4bhap2rcd13ifvqek0","pricing_plan_id":"cebpf4jnsgd1na2vs0mg"},{"bike_id":"cfcc8dcf-6816-46a1-945d-fdf5ccf50752","system_id":"levelo_inurba_marseille","lat":43.30941,"lon":5.41189,"is_reserved":false,"is_disabled":false,"rental_uris":{"android":"levelo://app?vid=cfcc8dcf-6816-46a1-945d-fdf5ccf50752","ios":"levelo://app?vid=cfcc8dcf-6816-46a1-945d-fdf5ccf50752"},"vehicle_type_id":"4","last_reported":1776807532,"current_range_meters":9600,"station_id":"","pricing_plan_id":"cebpf4jnsgd1na2vs0mg"},{"bike_id":"dd8d4df4-895e-4db8-b1cd-223e7e4d3814","system_id":"levelo_inurba_marseille","lat":43.31174,"lon":5.38695,"is_reserved":false,"is_disabled":false,"rental_uris":{"android":"levelo://app?vid=dd8d4df4-895e-4db8-b1cd-223e7e4d3814","ios":"levelo://app?vid=dd8d4df4-895e-4db8-b1cd-223e7e4d3814"},"vehicle_type_id":"4","last_reported":1776807532,"current_range_meters":9600,"station_id":"ce4bgv12rcd13ifvqcp0","pricing_plan_id":"cebpf4jnsgd1na2vs0mg"},{"bike_id":"75400a98-acf8-4b08-98c2-025c3347576a","system_id":"levelo_inurba_marseille","lat":43.29431,"lon":5.38644,"is_reserved":false,"is_disabled":false,"rental_uris":{"android":"levelo://app?vid=75400a98-acf8-4b08-98c2-025c3347576a","ios":"levelo://app?vid=75400a98-acf8-4b08-98c2-025c3347576a"},"vehicle_type_id":"4","last_reported":1776807532,"current_range_meters":10000,"station_id":"","pricing_plan_id":"cebpf4jnsgd1na2vs0mg"},{"bike_id":"1a223201-502c-4ebf-b329-9a8b77fd9946","system_id":"levelo_inurba_marseille","lat":43.27937,"lon":5.41037,"is_reserved":false,"is_disabled":false,"rental_uris":{"android":"levelo://app?vid=1a223201-502c-4ebf-b329-9a8b77fd9946","ios":"levelo://app?vid=1a223201-502c-4ebf-b329-9a8b77fd9946"},"vehicle_type_id":"4","last_reported":1776807532,"current_range_meters":10000,"station_id":"ce4bhnp2rcd13ifvqh0g","pricing_plan_id":"cebpf4jnsgd1na2vs0mg"},{"bike_id":"73d436be-8bb5-400c-b5b8-edfd7e8d5913","system_id":"levelo_inurba_marseille","lat":43.337444,"lon":5.374475,"is_reserved":false,"is_disabled":false,"rental_uris":{"android":"levelo://app?vid=73d436be-8bb5-400c-b5b8-edfd7e8d5913","ios":"levelo://app?vid=73d436be-8bb5-400c-b5b8-edfd7e8d5913"},"vehicle_type_id":"4","last_reported":1776807532,"current_range_meters":10000,"station_id":"ce4bhgp2rcd13ifvqfc0","pricing_plan_id":"cebpf4jnsgd1na2vs0mg"},{"bike_id":"a17e2b65-add5-4ec0-a652-45d70ab63712","system_id":"levelo_inurba_marseille","lat":43.28608,"lon":5.39875,"is_reserved":false,"is_disabled":false,"rental_uris":{"android":"levelo://app?vid=a17e2b65-add5-4ec0-a652-45d70ab63712","ios":"levelo://app?vid=a17e2b65-add5-4ec0-a652-45d70ab63712"},"vehicle_type_id":"4","last_reported":1776807532,"current_range_meters":10000,"station_id":"st_d4a7ka997mjs738ck50g","pricing_plan_id":"cebpf4jnsgd1na2vs0mg"},{"bike_id":"a8a860b7-710d-483f-b2ec-9ac43647519f","system_id":"levelo_inurba_marseille","lat":43.29208,"lon":5.39314,"is_reserved":false,"is_disabled":false,"rental_uris":{"android":"levelo://app?vid=a8a860b7-710d-483f-b2ec-9ac43647519f","ios":"levelo://app?vid=a8a860b7-710d-483f-b2ec-9ac43647519f"},"vehicle_type_id":"4","last_reported":1776807532,"current_range_meters":10000,"station_id":"ce4bh192rcd13ifvqdd0","pricing_plan_id":"cebpf4jnsgd1na2vs0mg"},{"bike_id":"226ece2b-87fc-494b-b9b1-29d4f3a23456","system_id":"levelo_inurba_marseille","lat":43.28327,"lon":5.42643,"is_reserved":false,"is_disabled":false,"rental_uris":{"android":"levelo://app?vid=226ece2b-87fc-494b-b9b1-29d4f3a23456","ios":"levelo://app?vid=226ece2b-87fc-494b-b9b1-29d4f3a23456"},"vehicle_type_id":"4","last_reported":1776807532,"current_range_meters":10000,"station_id":"","pricing_plan_id":"cebpf4jnsgd1na2vs0mg"},{"bike_id":"c4788050-b849-4e97-8b93-5d92ef7d02d0","system_id":"levelo_inurba_marseille","lat":43.29928,"lon":5.37466,"is_reserved":false,"is_disabled":false,"rental_uris":{"android":"levelo://app?vid=c4788050-b849-4e97-8b93-5d92ef7d02d0","ios":"levelo://app?vid=c4788050-b849-4e97-8b93-5d92ef7d02d0"},"vehicle_type_id":"4","last_reported":1776807532,"current_range_meters":10000,"station_id":"ce4bgjh2rcd13ifvqbg0","pricing_plan_id":"cebpf4jnsgd1na2vs0mg"},{"bike_id":"8d0db610-e479-4646-b75a-5fd3835c7f9b","system_id":"levelo_inurba_marseille","lat":43.24062,"lon":5.37749,"is_reserved":false,"is_disabled":false,"rental_uris":{"android":"levelo://app?vid=8d0db610-e479-4646-b75a-5fd3835c7f9b","ios":"levelo://app?vid=8d0db610-e479-4646-b75a-5fd3835c7f9b"},"vehicle_type_id":"4","last_reported":1776807532,"current_range_meters":10000,"station_id":"ce4bhnp2rcd13ifvqgvg","pricing_plan_id":"cebpf4jnsgd1na2vs0mg"},{"bike_id":"e6d61a2a-62de-433d-87c6-231ac124e529","system_id":"levelo_inurba_marseille","lat":43.27938,"lon":5.41042,"is_reserved":false,"is_disabled":false,"rental_uris":{"android":"levelo://app?vid=e6d61a2a-62de-433d-87c6-231ac124e529","ios":"levelo://app?vid=e6d61a2a-62de-433d-87c6-231ac124e529"},"vehicle_type_id":"4","last_reported":1776807532,"current_range_meters":10000,"station_id":"ce4bhnp2rcd13ifvqh0g","pricing_plan_id":"cebpf4jnsgd1na2vs0mg"},{"bike_id":"f8d46f57-68ae-42a5-9479-ae67d8834276","system_id":"levelo_inurba_marseille","lat":43.30021,"lon":5.37059,"is_reserved":false,"is_disabled":false,"rental_uris":{"android":"levelo://app?vid=f8d46f57-68ae-42a5-9479-ae67d8834276","ios":"levelo://app?vid=f8d46f57-68ae-42a5-9479-ae67d8834276"},"vehicle_type_id":"4","last_reported":1776807532,"current_range_meters":10000,"station_id":"","pricing_plan_id":"cebpf4jnsgd1na2vs0mg"},{"bike_id":"65a999b4-0664-42ab-949d-c7bc8b5df58e","system_id":"levelo_inurba_marseille","lat":43.29259,"lon":5.3843,"is_reserved":false,"is_disabled":false,"rental_uris":{"android":"levelo://app?vid=65a999b4-0664-42ab-949d-c7bc8b5df58e","ios":"levelo://app?vid=65a999b4-0664-42ab-949d-c7bc8b5df58e"},"vehicle_type_id":"4","last_reported":1776807532,"current_range_meters":10000,"station_id":"ce4bh692rcd13ifvqea0","pricing_plan_id":"cebpf4jnsgd1na2vs0mg"},{"bike_id":"2ac15ea7-1904-4a69-9f5e-f4cb7754354f","system_id":"levelo_inurba_marseille","lat":43.24077,"lon":5.37755,"is_reserved":false,"is_disabled":false,"rental_uris":{"android":"levelo://app?vid=2ac15ea7-1904-4a69-9f5e-f4cb7754354f","ios":"levelo://app?vid=2ac15ea7-1904-4a69-9f5e-f4cb7754354f"},"vehicle_type_id":"4","last_reported":1776807532,"current_range_meters":10000,"station_id":"ce4bhnp2rcd13ifvqgvg","pricing_plan_id":"cebpf4jnsgd1na2vs0mg"},{"bike_id":"15cb8c60-d64e-4c9d-844a-c9a0db8ed60b","system_id":"levelo_inurba_marseille","lat":43.29031,"lon":5.39936,"is_reserved":false,"is_disabled":false,"rental_uris":{"android":"levelo://app?vid=15cb8c60-d64e-4c9d-844a-c9a0db8ed60b","ios":"levelo://app?vid=15cb8c60-d64e-4c9d-844a-c9a0db8ed60b"},"vehicle_type_id":"4","last_reported":1776807532,"current_range_meters":10000,"station_id":"ce4bh392rcd13ifvqdm0","pricing_plan_id":"cebpf4jnsgd1na2vs0mg"},{"bike_id":"f7cdf043-5d93-4831-8f75-a46b1d2da157","system_id":"levelo_inurba_marseille","lat":43.25205,"lon":5.41035,"is_reserved":false,"is_disabled":false,"rental_uris":{"android":"levelo://app?vid=f7cdf043-5d93-4831-8f75-a46b1d2da157","ios":"levelo://app?vid=f7cdf043-5d93-4831-8f75-a46b1d2da157"},"vehicle_type_id":"4","last_reported":1776807532,"current_range_meters":10000,"station_id":"","pricing_plan_id":"cebpf4jnsgd1na2vs0mg"},{"bike_id":"4961947c-ae80-4ed4-baac-82b2a45ee6d8","system_id":"levelo_inurba_marseille","lat":43.29288,"lon":5.40108,"is_reserved":false,"is_disabled":false,"rental_uris":{"android":"levelo://app?vid=4961947c-ae80-4ed4-baac-82b2a45ee6d8","ios":"levelo://app?vid=4961947c-ae80-4ed4-baac-82b2a45ee6d8"},"vehicle_type_id":"4","last_reported":1776807532,"current_range_meters":10000,"station_id":"ce4bh312rcd13ifvqdk0","pricing_plan_id":"cebpf4jnsgd1na2vs0mg"},{"bike_id":"f8886bac-06e6-4f4e-b567-d0f4cd2b25d3","system_id":"levelo_inurba_marseille","lat":43.27522,"lon":5.42461,"is_reserved":false,"is_disabled":false,"rental_uris":{"android":"levelo://app?vid=f8886bac-06e6-4f4e-b567-d0f4cd2b25d3","ios":"levelo://app?vid=f8886bac-06e6-4f4e-b567-d0f4cd2b25d3"},"vehicle_type_id":"4","last_reported":1776807532,"current_range_meters":10800,"station_id":"ce4bhn92rcd13ifvqgrg","pricing_plan_id":"cebpf4jnsgd1na2vs0mg"},{"bike_id":"749fd065-9373-4de0-9bcc-225669d1d344","system_id":"levelo_inurba_marseille","lat":43.28675,"lon":5.38668,"is_reserved":false,"is_disabled":false,"rental_uris":{"android":"levelo://app?vid=749fd065-9373-4de0-9bcc-225669d1d344","ios":"levelo://app?vid=749fd065-9373-4de0-9bcc-225669d1d344"},"vehicle_type_id":"4","last_reported":1776807532,"current_range_meters":10800,"station_id":"ce4bh492rcd13ifvqdug","pricing_plan_id":"cebpf4jnsgd1na2vs0mg"},{"bike_id":"ead43bb9-0c84-4d4f-999a-008e04f1ef77","system_id":"levelo_inurba_marseille","lat":43.28116,"lon":5.37845,"is_reserved":false,"is_disabled":false,"rental_uris":{"android":"levelo://app?vid=ead43bb9-0c84-4d4f-999a-008e04f1ef77","ios":"levelo://app?vid=ead43bb9-0c84-4d4f-999a-008e04f1ef77"},"vehicle_type_id":"4","last_reported":1776807532,"current_range_meters":10800,"station_id":"ce4bha12rcd13ifvqee0","pricing_plan_id":"cebpf4jnsgd1na2vs0mg"},{"bike_id":"9d79a18b-31cc-4484-be4d-6260b896ebee","system_id":"levelo_inurba_marseille","lat":43.2952,"lon":5.3851,"is_reserved":false,"is_disabled":false,"rental_uris":{"android":"levelo://app?vid=9d79a18b-31cc-4484-be4d-6260b896ebee","ios":"levelo://app?vid=9d79a18b-31cc-4484-be4d-6260b896ebee"},"vehicle_type_id":"4","last_reported":1776807532,"current_range_meters":10800,"station_id":"ce4bgih2rcd13ifvqba0","pricing_plan_id":"cebpf4jnsgd1na2vs0mg"},{"bike_id":"83aaf495-72b1-4b87-ba8d-8b0f5d126265","system_id":"levelo_inurba_marseille","lat":43.29002,"lon":5.37828,"is_reserved":false,"is_disabled":false,"rental_uris":{"android":"levelo://app?vid=83aaf495-72b1-4b87-ba8d-8b0f5d126265","ios":"levelo://app?vid=83aaf495-72b1-4b87-ba8d-8b0f5d126265"},"vehicle_type_id":"4","last_reported":1776807532,"current_range_meters":10800,"station_id":"ce4bh9p2rcd13ifvqed0","pricing_plan_id":"cebpf4jnsgd1na2vs0mg"},{"bike_id":"7f5bab41-82af-4bed-8d05-f1fc24165a46","system_id":"levelo_inurba_marseille","lat":43.29533,"lon":5.3853,"is_reserved":false,"is_disabled":false,"rental_uris":{"android":"levelo://app?vid=7f5bab41-82af-4bed-8d05-f1fc24165a46","ios":"levelo://app?vid=7f5bab41-82af-4bed-8d05-f1fc24165a46"},"vehicle_type_id":"4","last_reported":1776807532,"current_range_meters":10800,"station_id":"ce4bgih2rcd13ifvqba0","pricing_plan_id":"cebpf4jnsgd1na2vs0mg"},{"bike_id":"1c21b5e4-18ba-4d77-b990-0019b8294ddb","system_id":"levelo_inurba_marseille","lat":43.26579,"lon":5.39635,"is_reserved":false,"is_disabled":false,"rental_uris":{"android":"levelo://app?vid=1c21b5e4-18ba-4d77-b990-0019b8294ddb","ios":"levelo://app?vid=1c21b5e4-18ba-4d77-b990-0019b8294ddb"},"vehicle_type_id":"4","last_reported":1776807532,"current_range_meters":10800,"station_id":"","pricing_plan_id":"cebpf4jnsgd1na2vs0mg"},{"bike_id":"2ff3c302-b36c-4dfc-9991-f756408678e7","system_id":"levelo_inurba_marseille","lat":43.2409,"lon":5.37761,"is_reserved":false,"is_disabled":false,"rental_uris":{"android":"levelo://app?vid=2ff3c302-b36c-4dfc-9991-f756408678e7","ios":"levelo://app?vid=2ff3c302-b36c-4dfc-9991-f756408678e7"},"vehicle_type_id":"4","last_reported":1776807532,"current_range_meters":10800,"station_id":"ce4bhnp2rcd13ifvqgvg","pricing_plan_id":"cebpf4jnsgd1na2vs0mg"},