{"last_updated":1739527752,"ttl":60,"version":"2.2","data":{"bikes":[{"bike_id":"162708bb-7ef6-4017-8fbc-573dcb8ec747","system_id":"levelo_inurba_marseille","lat":43.34161,"lon":5.40926,"is_reserved":false,"is_disabled":false,"rental_uris":{"android":"levelo://app?vid=162708bb-7ef6-4017-8fbc-573dcb8ec747","ios":"levelo://app?vid=162708bb-7ef6-4017-8fbc-573dcb8ec747"},"vehicle_type_id":"4","last_reported":1739527752,"current_range_meters":25200,"station_id":"ce4bhqh2rcd13ifvqhlg","pricing_plan_id":"cebpf4jnsgd1na2vs0mg"},{"bike_id":"23c37aa2-d86d-4e05-ba0a-9558b2f6ea2e","system_id":"levelo_inurba_marseille","lat":43.2592,"lon":5.40878,"is_reserved":false,"is_disabled":false,"rental_uris":{"android":"levelo://app?vid=23c37aa2-d86d-4e05-ba0a-9558b2f6ea2e","ios":"levelo://app?vid=23c37aa2-d86d-4e05-ba0a-9558b2f6ea2e"},"vehicle_type_id":"4","last_reported":1739527752,"current_range_meters":36000,"station_id":"ce4bhm92rcd13ifvqglg","pricing_plan_id":"cebpf4jnsgd1na2vs0mg"},{"bike_id":"fabe0dc0-e9b8-4510-811e-856b5cccb082","system_id":"levelo_inurba_marseille","lat":43.2551,"lon":5.37666,"is_reserved":false,"is_disabled":false,"rental_uris":{"android":"levelo://app?vid=fabe0dc0-e9b8-4510-811e-856b5cccb082","ios":"levelo://app?vid=fabe0dc0-e9b8-4510-811e-856b5cccb082"},"vehicle_type_id":"4","last_reported":1739527752,"current_range_meters":37600,"station_id":"ce4bhh12rcd13ifvqff0","pricing_plan_id":"cebpf4jnsgd1na2vs0mg"},{"bike_id":"d9cb7b9d-ce74-4585-89f1-79af322ebf41","system_id":"levelo_inurba_marseille","lat":43.27313,"lon":5.39078,"is_reserved":false,"is_disabled":false,"rental_uris":{"android":"levelo://app?vid=d9cb7b9d-ce74-4585-89f1-79af322ebf41","ios":"levelo://app?vid=d9cb7b9d-ce74-4585-89f1-79af322ebf41"},"vehicle_type_id":"4","last_reported":1739527752,"current_range_meters":19600,"station_id":"ce4bhgp2rcd13ifvqfe0","pricing_plan_id":"cebpf4jnsgd1na2vs0mg"},{"bike_id":"f5ed8dc4-e2fe-4cfe-a963-900a231b9dbe","system_id":"levelo_inurba_marseille","lat":43.28473,"lon":5.38418,"is_reserved":false,"is_disabled":false,"rental_uris":{"android":"levelo://app?vid=f5ed8dc4-e2fe-4cfe-a963-900a231b9dbe","ios":"levelo://app?vid=f5ed8dc4-e2fe-4cfe-a963-900a231b9dbe"},"vehicle_type_id":"4","last_reported":1739527752,"current_range_meters":31200,"station_id":"ce4bh512rcd13ifvqe3g","pricing_plan_id":"cebpf4jnsgd1na2vs0mg"},{"bike_id":"1d4165b9-e8af-42e7-8e88-54a0f84b4f26","system_id":"levelo_inurba_marseille","lat":43.23192,"lon":5.39964,"is_reserved":false,"is_disabled":false,"rental_uris":{"android":"levelo://app?vid=1d4165b9-e8af-42e7-8e88-54a0f84b4f26","ios":"levelo://app?vid=1d4165b9-e8af-42e7-8e88-54a0f84b4f26"},"vehicle_type_id":"4","last_reported":1739527752,"current_range_meters":30400,"station_id":"ce4bhn12rcd13ifvqgqg","pricing_plan_id":"cebpf4jnsgd1na2vs0mg"},{"bike_id":"4295f72a-821d-451b-8281-f761aa21be88","system_id":"levelo_inurba_marseille","lat":43.23188,"lon":5.39989,"is_reserved":false,"is_disabled":false,"rental_uris":{"android":"levelo://app?vid=4295f72a-821d-451b-8281-f761aa21be88","ios":"levelo://app?vid=4295f72a-821d-451b-8281-f761aa21be88"},"vehicle_type_id":"4","last_reported":1739527752,"current_range_meters":12000,"station_id":"ce4bhn12rcd13ifvqgqg","pricing_plan_id":"cebpf4jnsgd1na2vs0mg"},{"bike_id":"3d55dfbc-79dc-4a16-8c46-cf49fec8982e","system_id":"levelo_inurba_marseille","lat":43.24413,"lon":5.37043,"is_reserved":false,"is_disabled":false,"rental_uris":{"android":"levelo://app?vid=3d55dfbc-79dc-4a16-8c46-cf49fec8982e","ios":"levelo://app?vid=3d55dfbc-79dc-4a16-8c46-cf49fec8982e"},"vehicle_type_id":"4","last_reported":1739527752,"current_range_meters":38800,"station_id":"ce4bhhh2rcd13ifvqfk0","pricing_plan_id":"cebpf4jnsgd1na2vs0mg"},{"bike_id":"115871b7-7259-4686-9175-45074f2e5cd6","system_id":"levelo_inurba_marseille","lat":43.27225,"lon":5.39178,"is_reserved":false,"is_disabled":true,"rental_uris":{"android":"levelo://app?vid=115871b7-7259-4686-9175-45074f2e5cd6","ios":"levelo://app?vid=115871b7-7259-4686-9175-45074f2e5cd6"},"vehicle_type_id":"4","last_reported":1739527752,"current_range_meters":0,"station_id":"ce4bhhp2rcd13ifvqfm0","pricing_plan_id":"cebpf4jnsgd1na2vs0mg"},{"bike_id":"507c91a3-08b2-4cc8-b1ac-1900ed3fda7d","system_id":"levelo_inurba_marseille","lat":43.2956,"lon":5.37507,"is_reserved":false,"is_disabled":false,"rental_uris":{"android":"levelo://app?vid=507c91a3-08b2-4cc8-b1ac-1900ed3fda7d","ios":"levelo://app?vid=507c91a3-08b2-4cc8-b1ac-1900ed3fda7d"},"vehicle_type_id":"4","last_reported":1739527752,"current_range_meters":39200,"station_id":"ce4bgh92rcd13ifvqb50","pricing_plan_id":"cebpf4jnsgd1na2vs0mg"},{"bike_id":"8390feee-0735-4b8f-90c8-f81c741ca7d5","system_id":"levelo_inurba_marseille","lat":43.24826,"lon":5.37451,"is_reserved":false,"is_disabled":false,"rental_uris":{"android":"levelo://app?vid=8390feee-0735-4b8f-90c8-f81c741ca7d5","ios":"levelo://app?vid=8390feee-0735-4b8f-90c8-f81c741ca7d5"},"vehicle_type_id":"4","last_reported":1739527752,"current_range_meters":35600,"station_id":"ce4bhgh2rcd13ifvqfb0","pricing_plan_id":"cebpf4jnsgd1na2vs0mg"},{"bike_id":"eace11fc-366d-49db-ab9f-2f957d528477","system_id":"levelo_inurba_marseille","lat":43.25504,"lon":5.37666,"is_reserved":false,"is_disabled":false,"rental_uris":{"android":"levelo://app?vid=eace11fc-366d-49db-ab9f-2f957d528477","ios":"levelo://app?vid=eace11fc-366d-49db-ab9f-2f957d528477"},"vehicle_type_id":"4","last_reported":1739527752,"current_range_meters":17600,"station_id":"ce4bhh12rcd13ifvqff0","pricing_plan_id":"cebpf4jnsgd1na2vs0mg"},{"bike_id":"b67a2645-3553-49b9-b928-812f59db0c4b","system_id":"levelo_inurba_marseille","lat":43.29712,"lon":5.36586,"is_reserved":false,"is_disabled":false,"rental_uris":{"android":"levelo://app?vid=b67a2645-3553-49b9-b928-812f59db0c4b","ios":"levelo://app?vid=b67a2645-3553-49b9-b928-812f59db0c4b"},"vehicle_type_id":"4","last_reported":1739527752,"current_range_meters":38000,"station_id":"ce4bgn12rcd13ifvqbt0","pricing_plan_id":"cebpf4jnsgd1na2vs0mg"},{"bike_id":"6b42f4f1-2360-420a-81a5-fa8f868ac30d","system_id":"levelo_inurba_marseille","lat":43.27224,"lon":5.39007,"is_reserved":false,"is_disabled":false,"rental_uris":{"android":"levelo://app?vid=6b42f4f1-2360-420a-81a5-fa8f868ac30d","ios":"levelo://app?vid=6b42f4f1-2360-420a-81a5-fa8f868ac30d"},"vehicle_type_id":"4","last_reported":1739527752,"current_range_meters":38000,"station_id":"","pricing_plan_id":"cebpf4jnsgd1na2vs0mg"},{"bike_id":"c5d83290-7e41-4747-be49-5a88384d605e","system_id":"levelo_inurba_marseille","lat":43.28461,"lon":5.38539,"is_reserved":false,"is_disabled":true,"rental_uris":{"android":"levelo://app?vid=c5d83290-7e41-4747-be49-5a88384d605e","ios":"levelo://app?vid=c5d83290-7e41-4747-be49-5a88384d605e"},"vehicle_type_id":"4","last_reported":1739527752,"current_range_meters":20000,"station_id":"ce4bh8p2rcd13ifvqeb0","pricing_plan_id":"cebpf4jnsgd1na2vs0mg"},{"bike_id":"56192679-cc8f-4f99-a19c-ed0875b3f321","system_id":"levelo_inurba_marseille","lat":43.31722,"lon":5.42408,"is_reserved":false,"is_disabled":false,"rental_uris":{"android":"levelo://app?vid=56192679-cc8f-4f99-a19c-ed0875b3f321","ios":"levelo://app?vid=56192679-cc8f-4f99-a19c-ed0875b3f321"},"vehicle_type_id":"4","last_reported":1739527752,"current_range_meters":39200,"station_id":"ce4bhp92rcd13ifvqhbg","pricing_plan_id":"cebpf4jnsgd1na2vs0mg"},{"bike_id":"0c969acd-c9ad-48dc-a2a0-9cfd26ea98f7","system_id":"levelo_inurba_marseille","lat":43.31414,"lon":5.38508,"is_reserved":false,"is_disabled":false,"rental_uris":{"android":"levelo://app?vid=0c969acd-c9ad-48dc-a2a0-9cfd26ea98f7","ios":"levelo://app?vid=0c969acd-c9ad-48dc-a2a0-9cfd26ea98f7"},"vehicle_type_id":"4","last_reported":1739527752,"current_range_meters":4800,"station_id":"","pricing_plan_id":"cebpf4jnsgd1na2vs0mg"},{"bike_id":"cca59307-c860-40be-b39b-00111f113d2c","system_id":"levelo_inurba_marseille","lat":43.29624,"lon":5.37727,"is_reserved":false,"is_disabled":false,"rental_uris":{"android":"levelo://app?vid=cca59307-c860-40be-b39b-00111f113d2c","ios":"levelo://app?vid=cca59307-c860-40be-b39b-00111f113d2c"},"vehicle_type_id":"4","last_reported":1739527752,"current_range_meters":31200,"station_id":"ce4bgi92rcd13ifvqb90","pricing_plan_id":"cebpf4jnsgd1na2vs0mg"},{"bike_id":"b34c6303-752a-46a1-93ad-ddbc991e20b6","system_id":"levelo_inurba_marseille","lat":43.23081,"lon":5.35506,"is_reserved":false,"is_disabled":false,"rental_uris":{"android":"levelo://app?vid=b34c6303-752a-46a1-93ad-ddbc991e20b6","ios":"levelo://app?vid=b34c6303-752a-46a1-93ad-ddbc991e20b6"},"vehicle_type_id":"4","last_reported":1739527752,"current_range_meters":5600,"station_id":"cpo3342slgdg3j2ifvpg","pricing_plan_id":"cebpf4jnsgd1na2vs0mg"},{"bike_id":"f4297ec3-a745-470f-8379-4a2b1e421801","system_id":"levelo_inurba_marseille","lat":43.29017,"lon":5.35935,"is_reserved":false,"is_disabled":true,"rental_uris":{"android":"levelo://app?vid=f4297ec3-a745-470f-8379-4a2b1e421801","ios":"levelo://app?vid=f4297ec3-a745-470f-8379-4a2b1e421801"},"vehicle_type_id":"4","last_reported":1739527752,"current_range_meters":36800,"station_id":"ce4bha92rcd13ifvqeg0","pricing_plan_id":"cebpf4jnsgd1na2vs0mg"},{"bike_id":"e2dd2144-631e-4fb6-8efc-dc9e00f38b38","system_id":"levelo_inurba_marseille","lat":43.30132,"lon":5.37413,"is_reserved":false,"is_disabled":false,"rental_uris":{"android":"levelo://app?vid=e2dd2144-631e-4fb6-8efc-dc9e00f38b38","ios":"levelo://app?vid=e2dd2144-631e-4fb6-8efc-dc9e00f38b38"},"vehicle_type_id":"4","last_reported":1739527752,"current_range_meters":37600,"station_id":"ce4bgs92rcd13ifvqcc0","pricing_plan_id":"cebpf4jnsgd1na2vs0mg"},{"bike_id":"3be8a394-c044-483f-97df-36bb6537d742","system_id":"levelo_inurba_marseille","lat":43.30119,"lon":5.39849,"is_reserved":false,"is_disabled":false,"rental_uris":{"android":"levelo://app?vid=3be8a394-c044-483f-97df-36bb6537d742","ios":"levelo://app?vid=3be8a394-c044-483f-97df-36bb6537d742"},"vehicle_type_id":"4","last_reported":1739527752,"current_range_meters":32400,"station_id":"ce4bh0h2rcd13ifvqd40","pricing_plan_id":"cebpf4jnsgd1na2vs0mg"},{"bike_id":"a6d22002-9977-46ab-96b3-9865bfd1ef0e","system_id":"levelo_inurba_marseille","lat":43.32486,"lon":5.36569,"is_reserved":false,"is_disabled":false,"rental_uris":{"android":"levelo://app?vid=a6d22002-9977-46ab-96b3-9865bfd1ef0e","ios":"levelo://app?vid=a6d22002-9977-46ab-96b3-9865bfd1ef0e"},"vehicle_type_id":"4","last_reported":1739527752,"current_range_meters":39200,"station_id":"ce4bhs12rcd13ifvqhvg","pricing_plan_id":"cebpf4jnsgd1na2vs0mg"},{"bike_id":"355eb285-46fb-46fe-979a-dd847333c9cd","system_id":"levelo_inurba_marseille","lat":43.30597,"lon":5.37228,"is_reserved":false,"is_disabled":false,"rental_uris":{"android":"levelo://app?vid=355eb285-46fb-46fe-979a-dd847333c9cd","ios":"levelo://app?vid=355eb285-46fb-46fe-979a-dd847333c9cd"},"vehicle_type_id":"4","last_reported":1739527752,"current_range_meters":35200,"station_id":"ce4bgqh2rcd13ifvqc4g","pricing_plan_id":"cebpf4jnsgd1na2vs0mg"},{"bike_id":"fa0341e3-84e6-462c-9556-22f5a8a9022f","system_id":"levelo_inurba_marseille","lat":43.27229,"lon":5.3918,"is_reserved":false,"is_disabled":false,"rental_uris":{"android":"levelo://app?vid=fa0341e3-84e6-462c-9556-22f5a8a9022f","ios":"levelo://app?vid=fa0341e3-84e6-462c-9556-22f5a8a9022f"},"vehicle_type_id":"4","last_reported":1739527752,"current_range_meters":38800,"station_id":"ce4bhhp2rcd13ifvqfm0","pricing_plan_id":"cebpf4jnsgd1na2vs0mg"},{"bike_id":"d052e256-fabb-4e06-bd02-8f958a8283bc","system_id":"levelo_inurba_marseille","lat":43.31226,"lon":5.369,"is_reserved":false,"is_disabled":false,"rental_uris":{"android":"levelo://app?vid=d052e256-fabb-4e06-bd02-8f958a8283bc","ios":"levelo://app?vid=d052e256-fabb-4e06-bd02-8f958a8283bc"},"vehicle_type_id":"4","last_reported":1739527752,"current_range_meters":24800,"station_id":"ce4bgl92rcd13ifvqbq0","pricing_plan_id":"cebpf4jnsgd1na2vs0mg"},{"bike_id":"a1676885-0999-4203-986c-c0e72d008c94","system_id":"levelo_inurba_marseille","lat":43.2797,"lon":5.38742,"is_reserved":false,"is_disabled":false,"rental_uris":{"android":"levelo://app?vid=a1676885-0999-4203-986c-c0e72d008c94","ios":"levelo://app?vid=a1676885-0999-4203-986c-c0e72d008c94"},"vehicle_type_id":"4","last_reported":1739527752,"current_range_meters":27600,"station_id":"ce4bhg12rcd13ifvqf80","pricing_plan_id":"cebpf4jnsgd1na2vs0mg"},{"bike_id":"d1856ac7-93bc-4e83-809c-683dd9e839e3","system_id":"levelo_inurba_marseille","lat":43.27205,"lon":5.39179,"is_reserved":false,"is_disabled":false,"rental_uris":{"android":"levelo://app?vid=d1856ac7-93bc-4e83-809c-683dd9e839e3","ios":"levelo://app?vid=d1856ac7-93bc-4e83-809c-683dd9e839e3"},"vehicle_type_id":"4","last_reported":1739527752,"current_range_meters":10000,"station_id":"ce4bhhp2rcd13ifvqfm0","pricing_plan_id":"cebpf4jnsgd1na2vs0mg"},{"bike_id":"5b94872e-e8e0-48b1-a4f8-764a45f452f2","system_id":"levelo_inurba_marseille","lat":43.30511,"lon":5.36725,"is_reserved":false,"is_disabled":false,"rental_uris":{"android":"levelo://app?vid=5b94872e-e8e0-48b1-a4f8-764a45f452f2","ios":"levelo://app?vid=5b94872e-e8e0-48b1-a4f8-764a45f452f2"},"vehicle_type_id":"4","last_reported":1739527752,"current_range_meters":39200,"station_id":"ce4bgrp2rcd13ifvqc9g","pricing_plan_id":"cebpf4jnsgd1na2vs0mg"},{"bike_id":"fdd15c22-ec63-442b-b8f8-c9917e08521f","system_id":"levelo_inurba_marseille","lat":43.30381,"lon":5.37712,"is_reserved":false,"is_disabled":false,"rental_uris":{"android":"levelo://app?vid=fdd15c22-ec63-442b-b8f8-c9917e08521f","ios":"levelo://app?vid=fdd15c22-ec63-442b-b8f8-c9917e08521f"},"vehicle_type_id":"4","last_reported":1739527752,"current_range_meters":37600,"station_id":"ce4bguh2rcd13ifvqcj0","pricing_plan_id":"cebpf4jnsgd1na2vs0mg"},{"bike_id":"2a7fbfda-36d8-455b-955d-63e67c8c1e23","system_id":"levelo_inurba_marseille","lat":43.33271,"lon":5.44404,"is_reserved":false,"is_disabled":false,"rental_uris":{"android":"levelo://app?vid=2a7fbfda-36d8-455b-955d-63e67c8c1e23","ios":"levelo://app?vid=2a7fbfda-36d8-455b-955d-63e67c8c1e23"},"vehicle_type_id":"4","last_reported":1739527752,"current_range_meters":26000,"station_id":"","pricing_plan_id":"cebpf4jnsgd1na2vs0mg"},{"bike_id":"3c94bbd2-975f-4b09-ac6e-8466a000999d","system_id":"levelo_inurba_marseille","lat":43.33608,"lon":5.41021,"is_reserved":false,"is_disabled":false,"rental_uris":{"android":"levelo://app?vid=3c94bbd2-975f-4b09-ac6e-8466a000999d","ios":"levelo://app?vid=3c94bbd2-975f-4b09-ac6e-8466a000999d"},"vehicle_type_id":"4","last_reported":1739527752,"current_range_meters":39200,"station_id":"ce4bhqh2rcd13ifvqhmg","pricing_plan_id":"cebpf4jnsgd1na2vs0mg"},{"bike_id":"ca2b0724-d99b-47e2-b01b-e36943c9425f","system_id":"levelo_inurba_marseille","lat":43.23965,"lon":5.36642,"is_reserved":false,"is_disabled":false,"rental_uris":{"android":"levelo://app?vid=ca2b0724-d99b-47e2-b01b-e36943c9425f","ios":"levelo://app?vid=ca2b0724-d99b-47e2-b01b-e36943c9425f"},"vehicle_type_id":"4","last_reported":1739527752,"current_range_meters":24800,"station_id":"ce4bhi12rcd13ifvqfp0","pricing_plan_id":"cebpf4jnsgd1na2vs0mg"},{"bike_id":"8810c5ca-48ab-4f5e-8177-ae6a3a565963","system_id":"levelo_inurba_marseille","lat":43.30143,"lon":5.37387,"is_reserved":false,"is_disabled":false,"rental_uris":{"android":"levelo://app?vid=8810c5ca-48ab-4f5e-8177-ae6a3a565963","ios":"levelo://app?vid=8810c5ca-48ab-4f5e-8177-ae6a3a565963"},"vehicle_type_id":"4","last_reported":1739527752,"current_range_meters":31200,"station_id":"ce4bgs92rcd13ifvqcc0","pricing_plan_id":"cebpf4jnsgd1na2vs0mg"},{"bike_id":"a8bfe5a3-a0f9-4ed5-91cb-da4b66e2443e","system_id":"levelo_inurba_marseille","lat":43.25929,"lon":5.40896,"is_reserved":false,"is_disabled":false,"rental_uris":{"android":"levelo://app?vid=a8bfe5a3-a0f9-4ed5-91cb-da4b66e2443e","ios":"levelo://app?vid=a8bfe5a3-a0f9-4ed5-91cb-da4b66e2443e"},"vehicle_type_id":"4","last_reported":1739527752,"current_range_meters":37600,"station_id":"ce4bhm92rcd13ifvqglg","pricing_plan_id":"cebpf4jnsgd1na2vs0mg"},{"bike_id":"077510b5-8de1-4c45-8611-09ca03141555","system_id":"levelo_inurba_marseille","lat":43.31259,"lon":5.36893,"is_reserved":false,"is_disabled":false,"rental_uris":{"android":"levelo://app?vid=077510b5-8de1-4c45-8611-09ca03141555","ios":"levelo://app?vid=077510b5-8de1-4c45-8611-09ca03141555"},"vehicle_type_id":"4","last_reported":1739527752,"current_range_meters":38800,"station_id":"ce4bgl92rcd13ifvqbq0","pricing_plan_id":"cebpf4jnsgd1na2vs0mg"},{"bike_id":"e4d14330-222d-46d5-8f26-efec567da29c","system_id":"levelo_inurba_marseille","lat":43.28615,"lon":5.35104,"is_reserved":false,"is_disabled":false,"rental_uris":{"android":"levelo://app?vid=e4d14330-222d-46d5-8f26-efec567da29c","ios":"levelo://app?vid=e4d14330-222d-46d5-8f26-efec567da29c"},"vehicle_type_id":"4","last_reported":1739527752,"current_range_meters":37600,"station_id":"ce4bhch2rcd13ifvqeug","pricing_plan_id":"cebpf4jnsgd1na2vs0mg"},{"bike_id":"628ef7f3-d0a1-4d05-9844-9d639b2a0970","system_id":"levelo_inurba_marseille","lat":43.29244,"lon":5.38434,"is_reserved":false,"is_disabled":false,"rental_uris":{"android":"levelo://app?vid=628ef7f3-d0a1-4d05-9844-9d639b2a0970","ios":"levelo://app?vid=628ef7f3-d0a1-4d05-9844-9d639b2a0970"},"vehicle_type_id":"4","last_reported":1739527752,"current_range_meters":38400,"station_id":"ce4bh692rcd13ifvqea0","pricing_plan_id":"cebpf4jnsgd1na2vs0mg"},{"bike_id":"f92e748a-9f9b-4e54-8084-07e33515f3d5","system_id":"levelo_inurba_marseille","lat":43.27066,"lon":5.39351,"is_reserved":false,"is_disabled":true,"rental_uris":{"android":"levelo://app?vid=f92e748a-9f9b-4e54-8084-07e33515f3d5","ios":"levelo://app?vid=f92e748a-9f9b-4e54-8084-07e33515f3d5"},"vehicle_type_id":"4","last_reported":1739527752,"current_range_meters":0,"station_id":"","pricing_plan_id":"cebpf4jnsgd1na2vs0mg"},{"bike_id":"7634e086-f6e0-474c-af09-9f19e7449c6e","system_id":"levelo_inurba_marseille","lat":43.2694,"lon":5.40257,"is_reserved":false,"is_disabled":false,"rental_uris":{"android":"levelo://app?vid=7634e086-f6e0-474c-af09-9f19e7449c6e","ios":"levelo://app?vid=7634e086-f6e0-474c-af09-9f19e7449c6e"},"vehicle_type_id":"4","last_reported":1739527752,"current_range_meters":9600,"station_id":"cjm6bp8fraef2m0cb0m0","pricing_plan_id":"cebpf4jnsgd1na2vs0mg"},{"bike_id":"704ec19d-e7c0-4858-a423-dcfa560220a5","system_id":"levelo_inurba_marseille","lat":43.23183,"lon":5.40338,"is_reserved":false,"is_disabled":false,"rental_uris":{"android":"levelo://app?vid=704ec19d-e7c0-4858-a423-dcfa560220a5","ios":"levelo://app?vid=704ec19d-e7c0-4858-a423-dcfa560220a5"},"vehicle_type_id":"4","last_reported":1739527752,"current_range_meters":34000,"station_id":"ce4bhn12rcd13ifvqgqg","pricing_plan_id":"cebpf4jnsgd1na2vs0mg"},{"bike_id":"5c31f567-3052-407e-90e7-b0ad6252e100","system_id":"levelo_inurba_marseille","lat":43.30104,"lon":5.39878,"is_reserved":false,"is_disabled":true,"rental_uris":{"android":"levelo://app?vid=5c31f567-3052-407e-90e7-b0ad6252e100","ios":"levelo://app?vid=5c31f567-3052-407e-90e7-b0ad6252e100"},"vehicle_type_id":"4","last_reported":1739527752,"current_range_meters":38800,"station_id":"ce4bh0h2rcd13ifvqd40","pricing_plan_id":"cebpf4jnsgd1na2vs0mg"},{"bike_id":"3b65282a-f1d0-4275-aeb0-d72b1002d850","system_id":"levelo_inurba_marseille","lat":43.30149,"lon":5.37427,"is_reserved":false,"is_disabled":false,"rental_uris":{"android":"levelo://app?vid=3b65282a-f1d0-4275-aeb0-d72b1002d850","ios":"levelo://app?vid=3b65282a-f1d0-4275-aeb0-d72b1002d850"},"vehicle_type_id":"4","last_reported":1739527752,"current_range_meters":38800,"station_id":"ce4bgs92rcd13ifvqcc0","pricing_plan_id":"cebpf4jnsgd1na2vs0mg"},{"bike_id":"e4d9dd10-c321-485f-8254-5c838fafddeb","system_id":"levelo_inurba_marseille","lat":43.30322,"lon":5.36898,"is_reserved":false,"is_disabled":false,"rental_uris":{"android":"levelo://app?vid=e4d9dd10-c321-485f-8254-5c838fafddeb","ios":"levelo://app?vid=e4d9dd10-c321-485f-8254-5c838fafddeb"},"vehicle_type_id":"4","last_reported":1739527752,"current_range_meters":38800,"station_id":"ce4bgqh2rcd13ifvqc5g","pricing_plan_id":"cebpf4jnsgd1na2vs0mg"},{"bike_id":"9ffe0681-9ede-4d8e-8df5-acca9b5ea6d7","system_id":"levelo_inurba_marseille","lat":43.29231,"lon":5.40909,"is_reserved":false,"is_disabled":false,"rental_uris":{"android":"levelo://app?vid=9ffe0681-9ede-4d8e-8df5-acca9b5ea6d7","ios":"levelo://app?vid=9ffe0681-9ede-4d8e-8df5-acca9b5ea6d7"},"vehicle_type_id":"4","last_reported":1739527752,"current_range_meters":37600,"station_id":"ce4bh192rcd13ifvqdc0","pricing_plan_id":"cebpf4jnsgd1na2vs0mg"},{"bike_id":"3f764307-182c-4fcc-a35c-37c3459a43cc","system_id":"levelo_inurba_marseille","lat":43.26692,"lon":5.38293,"is_reserved":false,"is_disabled":false,"rental_uris":{"android":"levelo://app?vid=3f764307-182c-4fcc-a35c-37c3459a43cc","ios":"levelo://app?vid=3f764307-182c-4fcc-a35c-37c3459a43cc"},"vehicle_type_id":"4","last_reported":1739527752,"current_range_meters":21600,"station_id":"ce4bhg92rcd13ifvqf90","pricing_plan_id":"cebpf4jnsgd1na2vs0mg"},{"bike_id":"9cf8e6d9-67b8-441b-8ab4-08ef8560d2b0","system_id":"levelo_inurba_marseille","lat":43.33514,"lon":5.35585,"is_reserved":false,"is_disabled":true,"rental_uris":{"android":"levelo://app?vid=9cf8e6d9-67b8-441b-8ab4-08ef8560d2b0","ios":"levelo://app?vid=9cf8e6d9-67b8-441b-8ab4-08ef8560d2b0"},"vehicle_type_id":"4","last_reported":1739527752,"current_range_meters":0,"station_id":"","pricing_plan_id":"cebpf4jnsgd1na2vs0mg"},{"bike_id":"6279f888-1d4b-4ebb-b3f2-c7248902b00f","system_id":"levelo_inurba_marseille","lat":43.254927,"lon":5.376602,"is_reserved":false,"is_disabled":false,"rental_uris":{"android":"levelo://app?vid=6279f888-1d4b-4ebb-b3f2-c7248902b00f","ios":"levelo://app?vid=6279f888-1d4b-4ebb-b3f2-c7248902b00f"},"vehicle_type_id":"4","last_reported":1739527752,"current_range_meters":18000,"station_id":"ce4bhh12rcd13ifvqff0","pricing_plan_id":"cebpf4jnsgd1na2vs0mg"},{"bike_id":"d94e777c-6094-48cb-b172-f1347e0bafea","system_id":"levelo_inurba_marseille","lat":43.32117,"lon":5.36757,"is_reserved":false,"is_disabled":false,"rental_uris":{"android":"levelo://app?vid=d94e777c-6094-48cb-b172-f1347e0bafea","ios":"levelo://app?vid=d94e777c-6094-48cb-b172-f1347e0bafea"},"vehicle_type_id":"4","last_reported":1739527752,"current_range_meters":30400,"station_id":"ce4bhrh2rcd13ifvqhug","pricing_plan_id":"cebpf4jnsgd1na2vs0mg"},{"bike_id":"3dac6192-3123-4c95-afea-ba492f5c9f4e","system_id":"levelo_inurba_marseille","lat":43.32697,"lon":5.43117,"is_reserved":false,"is_disabled":false,"rental_uris":{"android":"levelo://app?vid=3dac6192-3123-4c95-afea-ba492f5c9f4e","ios":"levelo://app?vid=3dac6192-3123-4c95-afea-ba492f5c9f4e"},"vehicle_type_id":"4","last_reported":1739527752,"current_range_meters":30000,"station_id":"","pricing_plan_id":"cebpf4jnsgd1na2vs0mg"},{"bike_id":"c5203c0d-7bab-469e-a249-6dee65b4f39e","system_id":"levelo_inurba_marseille","lat":43.33604,"lon":5.41005,"is_reserved":false,"is_disabled":false,"rental_uris":{"android":"levelo://app?vid=c5203c0d-7bab-469e-a249-6dee65b4f39e","ios":"levelo://app?vid=c5203c0d-7bab-469e-a249-6dee65b4f39e"},"vehicle_type_id":"4","last_reported":1739527752,"current_range_meters":22400,"station_id":"ce4bhqh2rcd13ifvqhmg","pricing_plan_id":"cebpf4jnsgd1na2vs0mg"},{"bike_id":"1928d6af-d21f-4874-976c-25c1db75c0bc","system_id":"levelo_inurba_marseille","lat":43.27946,"lon":5.38718,"is_reserved":false,"is_disabled":false,"rental_uris":{"android":"levelo://app?vid=1928d6af-d21f-4874-976c-25c1db75c0bc","ios":"levelo://app?vid=1928d6af-d21f-4874-976c-25c1db75c0bc"},"vehicle_type_id":"4","last_reported":1739527752,"current_range_meters":38800,"station_id":"ce4bhg12rcd13ifvqf80","pricing_plan_id":"cebpf4jnsgd1na2vs0mg"},{"bike_id":"d296a5b1-87cc-49dd-8a49-62c8c20fc7bf","system_id":"levelo_inurba_marseille","lat":43.29275,"lon":5.36846,"is_reserved":false,"is_disabled":true,"rental_uris":{"android":"levelo://app?vid=d296a5b1-87cc-49dd-8a49-62c8c20fc7bf","ios":"levelo://app?vid=d296a5b1-87cc-49dd-8a49-62c8c20fc7bf"},"vehicle_type_id":"4","last_reported":1739527752,"current_range_meters":800,"station_id":"ce4bhbp2rcd13ifvqesg","pricing_plan_id":"cebpf4jnsgd1na2vs0mg"},{"bike_id":"2ca8c161-aba4-44e3-b2d7-6b09769608a7","system_id":"levelo_inurba_marseille","lat":43.27325,"lon":5.39086,"is_reserved":false,"is_disabled":false,"rental_uris":{"android":"levelo://app?vid=2ca8c161-aba4-44e3-b2d7-6b09769608a7","ios":"levelo://app?vid=2ca8c161-aba4-44e3-b2d7-6b09769608a7"},"vehicle_type_id":"4","last_reported":1739527752,"current_range_meters":39200,"station_id":"ce4bhgp2rcd13ifvqfe0","pricing_plan_id":"cebpf4jnsgd1na2vs0mg"},{"bike_id":"51ab7186-5043-4bed-baca-73708608a302","system_id":"levelo_inurba_marseille","lat":43.29584,"lon":5.37026,"is_reserved":false,"is_disabled":true,"rental_uris":{"android":"levelo://app?vid=51ab7186-5043-4bed-baca-73708608a302","ios":"levelo://app?vid=51ab7186-5043-4bed-baca-73708608a302"},"vehicle_type_id":"4","last_reported":1739527752,"current_range_meters":0,"station_id":"","pricing_plan_id":"cebpf4jnsgd1na2vs0mg"},{"bike_id":"ec90184e-fc78-41d7-ba71-28f8166549c1","system_id":"levelo_inurba_marseille","lat":43.31234,"lon":5.36908,"is_reserved":false,"is_disabled":false,"rental_uris":{"android":"levelo://app?vid=ec90184e-fc78-41d7-ba71-28f8166549c1","ios":"levelo://app?vid=ec90184e-fc78-41d7-ba71-28f8166549c1"},"vehicle_type_id":"4","last_reported":1739527752,"current_range_meters":28800,"station_id":"ce4bgl92rcd13ifvqbq0","pricing_plan_id":"cebpf4jnsgd1na2vs0mg"},{"bike_id":"0a091e32-861c-4a90-ba8d-79373292393c","system_id":"levelo_inurba_marseille","lat":43.27618,"lon":5.36117,"is_reserved":false,"is_disabled":false,"rental_uris":{"android":"levelo://app?vid=0a091e32-861c-4a90-ba8d-79373292393c","ios":"levelo://app?vid=0a091e32-861c-4a90-ba8d-79373292393c"},"vehicle_type_id":"4","last_reported":1739527752,"current_range_meters":14400,"station_id":"ce4bgj92rcd13ifvqbe0","pricing_plan_id":"cebpf4jnsgd1na2vs0mg"},{"bike_id":"d3fc5f7e-9983-4343-a9af-f36df7d45f29","system_id":"levelo_inurba_marseille","lat":43.23183,"lon":5.39995,"is_reserved":false,"is_disabled":false,"rental_uris":{"android":"levelo://app?vid=d3fc5f7e-9983-4343-a9af-f36df7d45f29","ios":"levelo://app?vid=d3fc5f7e-9983-4343-a9af-f36df7d45f29"},"vehicle_type_id":"4","last_reported":1739527752,"current_range_meters":20400,"station_id":"ce4bhn12rcd13ifvqgqg","pricing_plan_id":"cebpf4jnsgd1na2vs0mg"},{"bike_id":"d01cfddf-7881-4b7c-815e-f570bddc475f","system_id":"levelo_inurba_marseille","lat":43.27957,"lon":5.41047,"is_reserved":false,"is_disabled":false,"rental_uris":{"android":"levelo://app?vid=d01cfddf-7881-4b7c-815e-f570bddc475f","ios":"levelo://app?vid=d01cfddf-7881-4b7c-815e-f570bddc475f"},"vehicle_type_id":"4","last_reported":1739527752,"current_range_meters":38000,"station_id":"ce4bhnp2rcd13ifvqh0g","pricing_plan_id":"cebpf4jnsgd1na2vs0mg"},{"bike_id":"a957ceea-f9ee-4522-a714-0b9b1ae52161","system_id":"levelo_inurba_marseille","lat":43.27065,"lon":5.40266,"is_reserved":false,"is_disabled":false,"rental_uris":{"android":"levelo://app?vid=a957ceea-f9ee-4522-a714-0b9b1ae52161","ios":"levelo://app?vid=a957ceea-f9ee-4522-a714-0b9b1ae52161"},"vehicle_type_id":"4","last_reported":1739527752,"current_range_meters":32400,"station_id":"ce4bhk92rcd13ifvqgc0","pricing_plan_id":"cebpf4jnsgd1na2vs0mg"},{"bike_id":"a16a9c27-eb5e-4476-acbc-4cd7e2b73e0c","system_id":"levelo_inurba_marseille","lat":43.24074,"lon":5.37745,"is_reserved":false,"is_disabled":false,"rental_uris":{"android":"levelo://app?vid=a16a9c27-eb5e-4476-acbc-4cd7e2b73e0c","ios":"levelo://app?vid=a16a9c27-eb5e-4476-acbc-4cd7e2b73e0c"},"vehicle_type_id":"4","last_reported":1739527752,"current_range_meters":20400,"station_id":"ce4bhnp2rcd13ifvqgvg","pricing_plan_id":"cebpf4jnsgd1na2vs0mg"},{"bike_id":"66824c47-adb5-4a99-af0b-7bbc08c699fb","system_id":"levelo_inurba_marseille","lat":43.29981,"lon":5.38481,"is_reserved":false,"is_disabled":true,"rental_uris":{"android":"levelo://app?vid=66824c47-adb5-4a99-af0b-7bbc08c699fb","ios":"levelo://app?vid=66824c47-adb5-4a99-af0b-7bbc08c699fb"},"vehicle_type_id":"4","last_reported":1739527752,"current_range_meters":38800,"station_id":"ce4bgj92rcd13ifvqbd0","pricing_plan_id":"cebpf4jnsgd1na2vs0mg"},{"bike_id":"c40e2cb9-b89c-4dbd-956b-535ef79f1d37","system_id":"levelo_inurba_marseille","lat":43.24826,"lon":5.3746,"is_reserved":false,"is_disabled":false,"rental_uris":{"android":"levelo://app?vid=c40e2cb9-b89c-4dbd-956b-535ef79f1d37","ios":"levelo://app?vid=c40e2cb9-b89c-4dbd-956b-535ef79f1d37"},"vehicle_type_id":"4","last_reported":1739527752,"current_range_meters":28400,"station_id":"ce4bhgh2rcd13ifvqfb0","pricing_plan_id":"cebpf4jnsgd1na2vs0mg"},{"bike_id":"79665ef5-e5c4-4fbd-9a3d-55fc72ed1691","system_id":"levelo_inurba_marseille","lat":43.28696,"lon":5.39976,"is_reserved":false,"is_disabled":false,"rental_uris":{"android":"levelo://app?vid=79665ef5-e5c4-4fbd-9a3d-55fc72ed1691","ios":"levelo://app?vid=79665ef5-e5c4-4fbd-9a3d-55fc72ed1691"},"vehicle_type_id":"4","last_reported":1739527752,"current_range_meters":35600,"station_id":"ce4bho92rcd13ifvqh3g","pricing_plan_id":"cebpf4jnsgd1na2vs0mg"},{"bike_id":"42b1ceca-30f6-457d-8773-ff67763cc777","system_id":"levelo_inurba_marseille","lat":43.30551,"lon":5.36558,"is_reserved":false,"is_disabled":false,"rental_uris":{"android":"levelo://app?vid=42b1ceca-30f6-457d-8773-ff67763cc777","ios":"levelo://app?vid=42b1ceca-30f6-457d-8773-ff67763cc777"},"vehicle_type_id":"4","last_reported":1739527752,"current_range_meters":32800,"station_id":"ce4bgs12rcd13ifvqcag","pricing_plan_id":"cebpf4jnsgd1na2vs0mg"},{"bike_id":"ee079ffa-4416-4a91-bc98-3bd665acea3b","system_id":"levelo_inurba_marseille","lat":43.33721,"lon":5.39179,"is_reserved":false,"is_disabled":false,"rental_uris":{"android":"levelo://app?vid=ee079ffa-4416-4a91-bc98-3bd665acea3b","ios":"levelo://app?vid=ee079ffa-4416-4a91-bc98-3bd665acea3b"},"vehicle_type_id":"4","last_reported":1739527752,"current_range_meters":38400,"station_id":"ce4bhr92rcd13ifvqhsg","pricing_plan_id":"cebpf4jnsgd1na2vs0mg"},{"bike_id":"1fa82dc6-47d4-4356-bbca-393bf4461726","system_id":"levelo_inurba_marseille","lat":43.2397,"lon":5.36669,"is_reserved":false,"is_disabled":false,"rental_uris":{"android":"levelo://app?vid=1fa82dc6-47d4-4356-bbca-393bf4461726","ios":"levelo://app?vid=1fa82dc6-47d4-4356-bbca-393bf4461726"},"vehicle_type_id":"4","last_reported":1739527752,"current_range_meters":36800,"station_id":"ce4bhi12rcd13ifvqfp0","pricing_plan_id":"cebpf4jnsgd1na2vs0mg"},{"bike_id":"709b678b-bb0b-444a-8fef-a3f5bfff6d35","system_id":"levelo_inurba_marseille","lat":43.309,"lon":5.36849,"is_reserved":false,"is_disabled":false,"rental_uris":{"android":"levelo://app?vid=709b678b-bb0b-444a-8fef-a3f5bfff6d35","ios":"levelo://app?vid=709b678b-bb0b-444a-8fef-a3f5bfff6d35"},"vehicle_type_id":"4","last_reported":1739527752,"current_range_meters":28400,"station_id":"ce4bgn92rcd13ifvqbvg","pricing_plan_id":"cebpf4jnsgd1na2vs0mg"},{"bike_id":"81184645-29ed-44e1-9612-6c310a0512f6","system_id":"levelo_inurba_marseille","lat":43.27227,"lon":5.3919,"is_reserved":false,"is_disabled":false,"rental_uris":{"android":"levelo://app?vid=81184645-29ed-44e1-9612-6c310a0512f6","ios":"levelo://app?vid=81184645-29ed-44e1-9612-6c310a0512f6"},"vehicle_type_id":"4","last_reported":1739527752,"current_range_meters":16800,"station_id":"ce4bhhp2rcd13ifvqfm0","pricing_plan_id":"cebpf4jnsgd1na2vs0mg"},{"bike_id":"2c9c57ef-929c-405c-9304-3c7204914b97","system_id":"levelo_inurba_marseille","lat":43.23961,"lon":5.36641,"is_reserved":false,"is_disabled":false,"rental_uris":{"android":"levelo://app?vid=2c9c57ef-929c-405c-9304-3c7204914b97","ios":"levelo://app?vid=2c9c57ef-929c-405c-9304-3c7204914b97"},"vehicle_type_id":"4","last_reported":1739527752,"current_range_meters":20800,"station_id":"ce4bhi12rcd13ifvqfp0","pricing_plan_id":"cebpf4jnsgd1na2vs0mg"},{"bike_id":"0bd1a399-2480-469c-91cd-e64288e63568","system_id":"levelo_inurba_marseille","lat":43.30351,"lon":5.41878,"is_reserved":false,"is_disabled":false,"rental_uris":{"android":"levelo://app?vid=0bd1a399-2480-469c-91cd-e64288e63568","ios":"levelo://app?vid=0bd1a399-2480-469c-91cd-e64288e63568"},"vehicle_type_id":"4","last_reported":1739527752,"current_range_meters":36800,"station_id":"ce4bhop2rcd13ifvqh7g","pricing_plan_id":"cebpf4jnsgd1na2vs0mg"},{"bike_id":"7c8c6794-581f-4f47-a9ed-a31bc93e764a","system_id":"levelo_inurba_marseille","lat":43.29222,"lon":5.36065,"is_reserved":false,"is_disabled":false,"rental_uris":{"android":"levelo://app?vid=7c8c6794-581f-4f47-a9ed-a31bc93e764a","ios":"levelo://app?vid=7c8c6794-581f-4f47-a9ed-a31bc93e764a"},"vehicle_type_id":"4","last_reported":1739527752,"current_range_meters":32000,"station_id":"ce4bhbh2rcd13ifvqeqg","pricing_plan_id":"cebpf4jnsgd1na2vs0mg"},{"bike_id":"44bdde87-1b32-4cfb-a3e9-0adb7356e5a3","system_id":"levelo_inurba_marseille","lat":43.30551,"lon":5.38412,"is_reserved":false,"is_disabled":false,"rental_uris":{"android":"levelo://app?vid=44bdde87-1b32-4cfb-a3e9-0adb7356e5a3","ios":"levelo://app?vid=44bdde87-1b32-4cfb-a3e9-0adb7356e5a3"},"vehicle_type_id":"4","last_reported":1739527752,"current_range_meters":36800,"station_id":"ce4bgg92rcd13ifvqb30","pricing_plan_id":"cebpf4jnsgd1na2vs0mg"},{"bike_id":"69901931-b51c-453f-987f-21137ab8ac55","system_id":"levelo_inurba_marseille","lat":43.26942,"lon":5.40267,"is_reserved":false,"is_disabled":false,"rental_uris":{"android":"levelo://app?vid=69901931-b51c-453f-987f-21137ab8ac55","ios":"levelo://app?vid=69901931-b51c-453f-987f-21137ab8ac55"},"vehicle_type_id":"4","last_reported":1739527752,"current_range_meters":29600,"station_id":"cjm6bp8fraef2m0cb0m0","pricing_plan_id":"cebpf4jnsgd1na2vs0mg"},{"bike_id":"f6523bc1-ba42-4697-979f-356f9d366a6a","system_id":"levelo_inurba_marseille","lat":43.30487,"lon":5.37907,"is_reserved":false,"is_disabled":false,"rental_uris":{"android":"levelo://app?vid=f6523bc1-ba42-4697-979f-356f9d366a6a","ios":"levelo://app?vid=f6523bc1-ba42-4697-979f-356f9d366a6a"},"vehicle_type_id":"4","last_reported":1739527752,"current_range_meters":38800,"station_id":"ce4bgup2rcd13ifvqcn0","pricing_plan_id":"cebpf4jnsgd1na2vs0mg"},{"bike_id":"78a5a15f-ce98-4a80-882a-3d993e1ea3d3","system_id":"levelo_inurba_marseille","lat":43.25116,"lon":5.4032,"is_reserved":false,"is_disabled":false,"rental_uris":{"android":"levelo://app?vid=78a5a15f-ce98-4a80-882a-3d993e1ea3d3","ios":"levelo://app?vid=78a5a15f-ce98-4a80-882a-3d993e1ea3d3"},"vehicle_type_id":"4","last_reported":1739527752,"current_range_meters":28400,"station_id":"ce4bhlh2rcd13ifvqgig","pricing_plan_id":"cebpf4jnsgd1na2vs0mg"},{"bike_id":"cb2c880d-6099-4e99-b126-5db2ed775e84","system_id":"levelo_inurba_marseille","lat":43.25018,"lon":5.38934,"is_reserved":false,"is_disabled":false,"rental_uris":{"android":"levelo://app?vid=cb2c880d-6099-4e99-b126-5db2ed775e84","ios":"levelo://app?vid=cb2c880d-6099-4e99-b126-5db2ed775e84"},"vehicle_type_id":"4","last_reported":1739527752,"current_range_meters":38800,"station_id":"ce4bhgp2rcd13ifvqfd0","pricing_plan_id":"cebpf4jnsgd1na2vs0mg"},{"bike_id":"96a83813-953c-4afd-8d6e-7ffa54200542","system_id":"levelo_inurba_marseille","lat":43.29899,"lon":5.43674,"is_reserved":false,"is_disabled":false,"rental_uris":{"android":"levelo://app?vid=96a83813-953c-4afd-8d6e-7ffa54200542","ios":"levelo://app?vid=96a83813-953c-4afd-8d6e-7ffa54200542"},"vehicle_type_id":"4","last_reported":1739527752,"current_range_meters":14000,"station_id":"ce4bhpp2rcd13ifvqhfg","pricing_plan_id":"cebpf4jnsgd1na2vs0mg"},{"bike_id":"a9591f57-40b0-4884-aa29-23cc39ec7d64","system_id":"levelo_inurba_marseille","lat":43.26234,"lon":5.37467,"is_reserved":false,"is_disabled":false,"rental_uris":{"android":"levelo://app?vid=a9591f57-40b0-4884-aa29-23cc39ec7d64","ios":"levelo://app?vid=a9591f57-40b0-4884-aa29-23cc39ec7d64"},"vehicle_type_id":"4","last_reported":1739527752,"current_range_meters":38800,"station_id":"ce4bhgp2rcd13ifvqfc0","pricing_plan_id":"cebpf4jnsgd1na2vs0mg"},{"bike_id":"6a435339-cee5-42c4-8d6a-42a59e9a80b5","system_id":"levelo_inurba_marseille","lat":43.24655,"lon":5.38906,"is_reserved":false,"is_disabled":false,"rental_uris":{"android":"levelo://app?vid=6a435339-cee5-42c4-8d6a-42a59e9a80b5","ios":"levelo://app?vid=6a435339-cee5-42c4-8d6a-42a59e9a80b5"},"vehicle_type_id":"4","last_reported":1739527752,"current_range_meters":38000,"station_id":"ce4bhg12rcd13ifvqf60","pricing_plan_id":"cebpf4jnsgd1na2vs0mg"},{"bike_id":"0c9f491e-2c2e-4a66-985f-4b2dd1fa46b1","system_id":"levelo_inurba_marseille","lat":43.30308,"lon":5.3769,"is_reserved":false,"is_disabled":false,"rental_uris":{"android":"levelo://app?vid=0c9f491e-2c2e-4a66-985f-4b2dd1fa46b1","ios":"levelo://app?vid=0c9f491e-2c2e-4a66-985f-4b2dd1fa46b1"},"vehicle_type_id":"4","last_reported":1739527752,"current_range_meters":38800,"station_id":"ce4bguh2rcd13ifvqcj0","pricing_plan_id":"cebpf4jnsgd1na2vs0mg"},{"bike_id":"f7722aa8-7dbb-40b4-8785-faf5a2e7b631","system_id":"levelo_inurba_marseille","lat":43.25006,"lon":5.38933,"is_reserved":false,"is_disabled":false,"rental_uris":{"android":"levelo://app?vid=f7722aa8-7dbb-40b4-8785-faf5a2e7b631","ios":"levelo://app?vid=f7722aa8-7dbb-40b4-8785-faf5a2e7b631"},"vehicle_type_id":"4","last_reported":1739527752,"current_range_meters":38800,"station_id":"ce4bhgp2rcd13ifvqfd0","pricing_plan_id":"cebpf4jnsgd1na2vs0mg"},{"bike_id":"4cb01dd2-fc35-4527-b6ce-d0508e62e2ae","system_id":"levelo_inurba_marseille","lat":43.28487,"lon":5.3855,"is_reserved":false,"is_disabled":false,"rental_uris":{"android":"levelo://app?vid=4cb01dd2-fc35-4527-b6ce-d0508e62e2ae","ios":"levelo://app?vid=4cb01dd2-fc35-4527-b6ce-d0508e62e2ae"},"vehicle_type_id":"4","last_reported":1739527752,"current_range_meters":38800,"station_id":"ce4bh8p2rcd13ifvqeb0","pricing_plan_id":"cebpf4jnsgd1na2vs0mg"},{"bike_id":"ec496d4a-c31a-4f2c-947b-b17f6dc6b31a","system_id":"levelo_inurba_marseille","lat":43.25045,"lon":5.38958,"is_reserved":false,"is_disabled":false,"rental_uris":{"android":"levelo://app?vid=ec496d4a-c31a-4f2c-947b-b17f6dc6b31a","ios":"levelo://app?vid=ec496d4a-c31a-4f2c-947b-b17f6dc6b31a"},"vehicle_type_id":"4","last_reported":1739527752,"current_range_meters":38800,"station_id":"","pricing_plan_id":"cebpf4jnsgd1na2vs0mg"},{"bike_id":"6fca0150-25d1-4efa-845f-3c63f11d5320","system_id":"levelo_inurba_marseille","lat":43.30546,"lon":5.3671,"is_reserved":false,"is_disabled":false,"rental_uris":{"android":"levelo://app?vid=6fca0150-25d1-4efa-845f-3c63f11d5320","ios":"levelo://app?vid=6fca0150-25d1-4efa-845f-3c63f11d5320"},"vehicle_type_id":"4","last_reported":1739527752,"current_range_meters":27600,"station_id":"ce4bgrp2rcd13ifvqc9g","pricing_plan_id":"cebpf4jnsgd1na2vs0mg"},{"bike_id":"31be0337-1ef4-44dd-80fd-706b72ecad5e","system_id":"levelo_inurba_marseille","lat":43.33611,"lon":5.40989,"is_reserved":false,"is_disabled":false,"rental_uris":{"android":"levelo://app?vid=31be0337-1ef4-44dd-80fd-706b72ecad5e","ios":"levelo://app?vid=31be0337-1ef4-44dd-80fd-706b72ecad5e"},"vehicle_type_id":"4","last_reported":1739527752,"current_range_meters":28400,"station_id":"ce4bhqh2rcd13ifvqhmg","pricing_plan_id":"cebpf4jnsgd1na2vs0mg"},{"bike_id":"23849fcd-4bc4-44f6-8337-e9a9a16fe0e7","system_id":"levelo_inurba_marseille","lat":43.29762,"lon":5.47958,"is_reserved":false,"is_disabled":false,"rental_uris":{"android":"levelo://app?vid=23849fcd-4bc4-44f6-8337-e9a9a16fe0e7","ios":"levelo://app?vid=23849fcd-4bc4-44f6-8337-e9a9a16fe0e7"},"vehicle_type_id":"4","last_reported":1739527752,"current_range_meters":4000,"station_id":"","pricing_plan_id":"cebpf4jnsgd1na2vs0mg"},{"bike_id":"b9cf6ea9-95ee-46f8-b845-52cb5a2eb86a","system_id":"levelo_inurba_marseille","lat":43.30487,"lon":5.37892,"is_reserved":false,"is_disabled":false,"rental_uris":{"android":"levelo://app?vid=b9cf6ea9-95ee-46f8-b845-52cb5a2eb86a","ios":"levelo://app?vid=b9cf6ea9-95ee-46f8-b845-52cb5a2eb86a"},"vehicle_type_id":"4","last_reported":1739527752,"current_range_meters":33600,"station_id":"ce4bgup2rcd13ifvqcn0","pricing_plan_id":"cebpf4jnsgd1na2vs0mg"},{"bike_id":"0f46f236-a49a-4379-a060-3d43f5b664a8","system_id":"levelo_inurba_marseille","lat":43.2784,"lon":5.3921,"is_reserved":false,"is_disabled":false,"rental_uris":{"android":"levelo://app?vid=0f46f236-a49a-4379-a060-3d43f5b664a8","ios":"levelo://app?vid=0f46f236-a49a-4379-a060-3d43f5b664a8"},"vehicle_type_id":"4","last_reported":1739527752,"current_range_meters":2800,"station_id":"ce4bhjp2rcd13ifvqga0","pricing_plan_id":"cebpf4jnsgd1na2vs0mg"},{"bike_id":"712a116c-82f4-42d9-8585-d56b2026027e","system_id":"levelo_inurba_marseille","lat":43.28266,"lon":5.35055,"is_reserved":false,"is_disabled":false,"rental_uris":{"android":"levelo://app?vid=712a116c-82f4-42d9-8585-d56b2026027e","ios":"levelo://app?vid=712a116c-82f4-42d9-8585-d56b2026027e"},"vehicle_type_id":"4","last_reported":1739527752,"current_range_meters":38800,"station_id":"ce4bhbp2rcd13ifvqerg","pricing_plan_id":"cebpf4jnsgd1na2vs0mg"},{"bike_id":"e8214ebf-160c-40a7-bb94-a5436b6bde1c","system_id":"levelo_inurba_marseille","lat":43.29948,"lon":5.38545,"is_reserved":false,"is_disabled":false,"rental_uris":{"android":"levelo://app?vid=e8214ebf-160c-40a7-bb94-a5436b6bde1c","ios":"levelo://app?vid=e8214ebf-160c-40a7-bb94-a5436b6bde1c"},"vehicle_type_id":"4","last_reported":1739527752,"current_range_meters":35600,"station_id":"ce4bgj92rcd13ifvqbd0","pricing_plan_id":"cebpf4jnsgd1na2vs0mg"},{"bike_id":"6f527001-c184-4abb-9015-d1a6aa88f46b","system_id":"levelo_inurba_marseille","lat":43.23182,"lon":5.40002,"is_reserved":false,"is_disabled":false,"rental_uris":{"android":"levelo://app?vid=6f527001-c184-4abb-9015-d1a6aa88f46b","ios":"levelo://app?vid=6f527001-c184-4abb-9015-d1a6aa88f46b"},"vehicle_type_id":"4","last_reported":1739527752,"current_range_meters":3600,"station_id":"ce4bhn12rcd13ifvqgqg","pricing_plan_id":"cebpf4jnsgd1na2vs0mg"},{"bike_id":"17dcf9e7-ab23-4799-a0b4-0a47648783be","system_id":"levelo_inurba_marseille","lat":43.301576,"lon":5.381032,"is_reserved":false,"is_disabled":false,"rental_uris":{"android":"levelo://app?vid=17dcf9e7-ab23-4799-a0b4-0a47648783be","ios":"levelo://app?vid=17dcf9e7-ab23-4799-a0b4-0a47648783be"},"vehicle_type_id":"4","last_reported":1739527752,"current_range_meters":38800,"station_id":"ce4bgjp2rcd13ifvqbh0","pricing_plan_id":"cebpf4jnsgd1na2vs0mg"},{"bike_id":"6cfbf51a-4ec4-4b50-afa2-a58eb7355bc4","system_id":"levelo_inurba_marseille","lat":43.327059,"lon":5.391819,"is_reserved":false,"is_disabled":false,"rental_uris":{"android":"levelo://app?vid=6cfbf51a-4ec4-4b50-afa2-a58eb7355bc4","ios":"levelo://app?vid=6cfbf51a-4ec4-4b50-afa2-a58eb7355bc4"},"vehicle_type_id":"4","last_reported":1739527752,"current_range_meters":24400,"station_id":"","pricing_plan_id":"cebpf4jnsgd1na2vs0mg"},{"bike_id":"618e67f5-b83f-4eab-aa9c-701aed5a5033","system_id":"levelo_inurba_marseille","lat":43.271947,"lon":5.409843,"is_reserved":false,"is_disabled":false,"rental_uris":{"android":"levelo://app?vid=618e67f5-b83f-4eab-aa9c-701aed5a5033","ios":"levelo://app?vid=618e67f5-b83f-4eab-aa9c-701aed5a5033"},"vehicle_type_id":"4","last_reported":1739527752,"current_range_meters":38800,"station_id":"ce4bhl12rcd13ifvqgf0","pricing_plan_id":"cebpf4jnsgd1na2vs0mg"},{"bike_id":"8bc54ebe-91ca-42d9-9424-fbf351e8f752","system_id":"levelo_inurba_marseille","lat":43.302825,"lon":5.37703,"is_reserved":false,"is_disabled":false,"rental_uris":{"android":"levelo://app?vid=8bc54ebe-91ca-42d9-9424-fbf351e8f752","ios":"levelo://app?vid=8bc54ebe-91ca-42d9-9424-fbf351e8f752"},"vehicle_type_id":"4","last_reported":1739527752,"current_range_meters":39200,"station_id":"ce4bguh2rcd13ifvqcj0","pricing_plan_id":"cebpf4jnsgd1na2vs0mg"},{"bike_id":"49200b83-a989-4740-980e-0632537abf9e","system_id":"levelo_inurba_marseille","lat":43.27214,"lon":5.39185,"is_reserved":false,"is_disabled":false,"rental_uris":{"android":"levelo://app?vid=49200b83-a989-4740-980e-0632537abf9e","ios":"levelo://app?vid=49200b83-a989-4740-980e-0632537abf9e"},"vehicle_type_id":"4","last_reported":1739527752,"current_range_meters":31200,"station_id":"ce4bhhp2rcd13ifvqfm0","pricing_plan_id":"cebpf4jnsgd1na2vs0mg"},{"bike_id":"14ecbccf-fa94-40fd-9521-ec91f75bf7fa","system_id":"levelo_inurba_marseille","lat":43.26806,"lon":5.39414,"is_reserved":false,"is_disabled":false,"rental_uris":{"android":"levelo://app?vid=14ecbccf-fa94-40fd-9521-ec91f75bf7fa","ios":"levelo://app?vid=14ecbccf-fa94-40fd-9521-ec91f75bf7fa"},"vehicle_type_id":"4","last_reported":1739527752,"current_range_meters":16400,"station_id":"ce4bhh12rcd13ifvqfg0","pricing_plan_id":"cebpf4jnsgd1na2vs0mg"},{"bike_id":"722c03d4-5f09-4a1d-bb2e-829c66405a32","system_id":"levelo_inurba_marseille","lat":43.27922,"lon":5.39581,"is_reserved":false,"is_disabled":true,"rental_uris":{"android":"levelo://app?vid=722c03d4-5f09-4a1d-bb2e-829c66405a32","ios":"levelo://app?vid=722c03d4-5f09-4a1d-bb2e-829c66405a32"},"vehicle_type_id":"4","last_reported":1739527752,"current_range_meters":36800,"station_id":"ce4bhf92rcd13ifvqf40","pricing_plan_id":"cebpf4jnsgd1na2vs0mg"},{"bike_id":"ddbbcf0b-65fe-459d-b467-e1710dbf8d5e","system_id":"levelo_inurba_marseille","lat":43.3047,"lon":5.37918,"is_reserved":false,"is_disabled":false,"rental_uris":{"android":"levelo://app?vid=ddbbcf0b-65fe-459d-b467-e1710dbf8d5e","ios":"levelo://app?vid=ddbbcf0b-65fe-459d-b467-e1710dbf8d5e"},"vehicle_type_id":"4","last_reported":1739527752,"current_range_meters":38800,"station_id":"ce4bgup2rcd13ifvqcn0","pricing_plan_id":"cebpf4jnsgd1na2vs0mg"},{"bike_id":"6e0cad2b-a5a6-4559-83de-6d4ccd6efedf","system_id":"levelo_inurba_marseille","lat":43.27223,"lon":5.39187,"is_reserved":false,"is_disabled":false,"rental_uris":{"android":"levelo://app?vid=6e0cad2b-a5a6-4559-83de-6d4ccd6efedf","ios":"levelo://app?vid=6e0cad2b-a5a6-4559-83de-6d4ccd6efedf"},"vehicle_type_id":"4","last_reported":1739527752,"current_range_meters":38800,"station_id":"ce4bhhp2rcd13ifvqfm0","pricing_plan_id":"cebpf4jnsgd1na2vs0mg"},{"bike_id":"09e01736-e79c-40e6-a32e-b356d7d44d8c","system_id":"levelo_inurba_marseille","lat":43.27941,"lon":5.41042,"is_reserved":false,"is_disabled":false,"rental_uris":{"android":"levelo://app?vid=09e01736-e79c-40e6-a32e-b356d7d44d8c","ios":"levelo://app?vid=09e01736-e79c-40e6-a32e-b356d7d44d8c"},"vehicle_type_id":"4","last_reported":1739527752,"current_range_meters":38000,"station_id":"ce4bhnp2rcd13ifvqh0g","pricing_plan_id":"cebpf4jnsgd1na2vs0mg"},{"bike_id":"4e29c3c5-09bb-436f-afeb-bdb1b6abe235","system_id":"levelo_inurba_marseille","lat":43.26546,"lon":5.37306,"is_reserved":false,"is_disabled":false,"rental_uris":{"android":"levelo://app?vid=4e29c3c5-09bb-436f-afeb-bdb1b6abe235","ios":"levelo://app?vid=4e29c3c5-09bb-436f-afeb-bdb1b6abe235"},"vehicle_type_id":"4","last_reported":1739527752,"current_range_meters":38400,"station_id":"ce4bhg12rcd13ifvqf70","pricing_plan_id":"cebpf4jnsgd1na2vs0mg"},{"bike_id":"9192f7da-07ce-4941-97f7-270efa9071fe","system_id":"levelo_inurba_marseille","lat":43.25579,"lon":5.38237,"is_reserved":false,"is_disabled":false,"rental_uris":{"android":"levelo://app?vid=9192f7da-07ce-4941-97f7-270efa9071fe","ios":"levelo://app?vid=9192f7da-07ce-4941-97f7-270efa9071fe"},"vehicle_type_id":"4","last_reported":1739527752,"current_range_meters":15200,"station_id":"ce4bhih2rcd13ifvqfs0","pricing_plan_id":"cebpf4jnsgd1na2vs0mg"},{"bike_id":"5016e875-414a-41bd-8f00-6a5845e39ba6","system_id":"levelo_inurba_marseille","lat":43.3081,"lon":5.43526,"is_reserved":false,"is_disabled":false,"rental_uris":{"android":"levelo://app?vid=5016e875-414a-41bd-8f00-6a5845e39ba6","ios":"levelo://app?vid=5016e875-414a-41bd-8f00-6a5845e39ba6"},"vehicle_type_id":"4","last_reported":1739527752,"current_range_meters":35200,"station_id":"ce4bhph2rcd13ifvqheg","pricing_plan_id":"cebpf4jnsgd1na2vs0mg"},{"bike_id":"fdb33b67-dc4a-4ac2-b6f4-1521cffe1b68","system_id":"levelo_inurba_marseille","lat":43.29263,"lon":5.40901,"is_reserved":false,"is_disabled":false,"rental_uris":{"android":"levelo://app?vid=fdb33b67-dc4a-4ac2-b6f4-1521cffe1b68","ios":"levelo://app?vid=fdb33b67-dc4a-4ac2-b6f4-1521cffe1b68"},"vehicle_type_id":"4","last_reported":1739527752,"current_range_meters":4000,"station_id":"ce4bh192rcd13ifvqdc0","pricing_plan_id":"cebpf4jnsgd1na2vs0mg"},{"bike_id":"4e9c2eda-8f2a-4c63-93ad-0565717dc6be","system_id":"levelo_inurba_marseille","lat":43.24183,"lon":5.39729,"is_reserved":false,"is_disabled":false,"rental_uris":{"android":"levelo://app?vid=4e9c2eda-8f2a-4c63-93ad-0565717dc6be","ios":"levelo://app?vid=4e9c2eda-8f2a-4c63-93ad-0565717dc6be"},"vehicle_type_id":"4","last_reported":1739527752,"current_range_meters":29600,"station_id":"ce4bhn12rcd13ifvqgpg","pricing_plan_id":"cebpf4jnsgd1na2vs0mg"},{"bike_id":"30650d2d-94f4-41e8-9be3-bb3796f8384e","system_id":"levelo_inurba_marseille","lat":43.29626,"lon":5.37729,"is_reserved":false,"is_disabled":false,"rental_uris":{"android":"levelo://app?vid=30650d2d-94f4-41e8-9be3-bb3796f8384e","ios":"levelo://app?vid=30650d2d-94f4-41e8-9be3-bb3796f8384e"},"vehicle_type_id":"4","last_reported":1739527752,"current_range_meters":29600,"station_id":"ce4bgi92rcd13ifvqb90","pricing_plan_id":"cebpf4jnsgd1na2vs0mg"},{"bike_id":"db4f80bb-9106-4b57-9781-23c16951baf1","system_id":"levelo_inurba_marseille","lat":43.31085,"lon":5.38357,"is_reserved":false,"is_disabled":true,"rental_uris":{"android":"levelo://app?vid=db4f80bb-9106-4b57-9781-23c16951baf1","ios":"levelo://app?vid=db4f80bb-9106-4b57-9781-23c16951baf1"},"vehicle_type_id":"4","last_reported":1739527752,"current_range_meters":800,"station_id":"ce4bgv92rcd13ifvqcr0","pricing_plan_id":"cebpf4jnsgd1na2vs0mg"},{"bike_id":"78b3b244-f24d-4543-a87d-c62470b1c8d7","system_id":"levelo_inurba_marseille","lat":43.23957,"lon":5.36629,"is_reserved":false,"is_disabled":false,"rental_uris":{"android":"levelo://app?vid=78b3b244-f24d-4543-a87d-c62470b1c8d7","ios":"levelo://app?vid=78b3b244-f24d-4543-a87d-c62470b1c8d7"},"vehicle_type_id":"4","last_reported":1739527752,"current_range_meters":18000,"station_id":"ce4bhi12rcd13ifvqfp0","pricing_plan_id":"cebpf4jnsgd1na2vs0mg"},{"bike_id":"4d77db09-905c-49b4-96d1-a6c7bd4303b6","system_id":"levelo_inurba_marseille","lat":43.27382,"lon":5.36247,"is_reserved":false,"is_disabled":false,"rental_uris":{"android":"levelo://app?vid=4d77db09-905c-49b4-96d1-a6c7bd4303b6","ios":"levelo://app?vid=4d77db09-905c-49b4-96d1-a6c7bd4303b6"},"vehicle_type_id":"4","last_reported":1739527752,"current_range_meters":30400,"station_id":"ce4bhbh2rcd13ifvqeo0","pricing_plan_id":"cebpf4jnsgd1na2vs0mg"},{"bike_id":"f92c6008-c16f-4b7f-abd0-35a0f200e440","system_id":"levelo_inurba_marseille","lat":43.30125,"lon":5.39897,"is_reserved":false,"is_disabled":false,"rental_uris":{"android":"levelo://app?vid=f92c6008-c16f-4b7f-abd0-35a0f200e440","ios":"levelo://app?vid=f92c6008-c16f-4b7f-abd0-35a0f200e440"},"vehicle_type_id":"4","last_reported":1739527752,"current_range_meters":11600,"station_id":"ce4bh0h2rcd13ifvqd40","pricing_plan_id":"cebpf4jnsgd1na2vs0mg"},{"bike_id":"bd1fbd17-5ecd-4c2a-9290-d1ffd1a70214","system_id":"levelo_inurba_marseille","lat":43.29555,"lon":5.42282,"is_reserved":false,"is_disabled":false,"rental_uris":{"android":"levelo://app?vid=bd1fbd17-5ecd-4c2a-9290-d1ffd1a70214","ios":"levelo://app?vid=bd1fbd17-5ecd-4c2a-9290-d1ffd1a70214"},"vehicle_type_id":"4","last_reported":1739527752,"current_range_meters":37600,"station_id":"ce4bhph2rcd13ifvqhdg","pricing_plan_id":"cebpf4jnsgd1na2vs0mg"},{"bike_id":"492e558b-0ce5-4984-b6b1-1d33f225a96b","system_id":"levelo_inurba_marseille","lat":43.2417,"lon":5.36408,"is_reserved":false,"is_disabled":false,"rental_uris":{"android":"levelo://app?vid=492e558b-0ce5-4984-b6b1-1d33f225a96b","ios":"levelo://app?vid=492e558b-0ce5-4984-b6b1-1d33f225a96b"},"vehicle_type_id":"4","last_reported":1739527752,"current_range_meters":38000,"station_id":"cpo36qri1sfpv3e86is0","pricing_plan_id":"cebpf4jnsgd1na2vs0mg"},{"bike_id":"a69fbd6f-3a19-4711-982f-13313e67f4ab","system_id":"levelo_inurba_marseille","lat":43.29977,"lon":5.38491,"is_reserved":false,"is_disabled":false,"rental_uris":{"android":"levelo://app?vid=a69fbd6f-3a19-4711-982f-13313e67f4ab","ios":"levelo://app?vid=a69fbd6f-3a19-4711-982f-13313e67f4ab"},"vehicle_type_id":"4","last_reported":1739527752,"current_range_meters":38800,"station_id":"ce4bgj92rcd13ifvqbd0","pricing_plan_id":"cebpf4jnsgd1na2vs0mg"},{"bike_id":"39fb131c-89a3-4a26-bd6d-0d1f343bc9fd","system_id":"levelo_inurba_marseille","lat":43.3015,"lon":5.37427,"is_reserved":false,"is_disabled":false,"rental_uris":{"android":"levelo://app?vid=39fb131c-89a3-4a26-bd6d-0d1f343bc9fd","ios":"levelo://app?vid=39fb131c-89a3-4a26-bd6d-0d1f343bc9fd"},"vehicle_type_id":"4","last_reported":1739527752,"current_range_meters":32800,"station_id":"ce4bgs92rcd13ifvqcc0","pricing_plan_id":"cebpf4jnsgd1na2vs0mg"},{"bike_id":"17359da5-754b-4c1f-9974-59fc1ea40a51","system_id":"levelo_inurba_marseille","lat":43.30462,"lon":5.37907,"is_reserved":false,"is_disabled":false,"rental_uris":{"android":"levelo://app?vid=17359da5-754b-4c1f-9974-59fc1ea40a51","ios":"levelo://app?vid=17359da5-754b-4c1f-9974-59fc1ea40a51"},"vehicle_type_id":"4","last_reported":1739527752,"current_range_meters":37600,"station_id":"ce4bgup2rcd13ifvqcn0","pricing_plan_id":"cebpf4jnsgd1na2vs0mg"},{"bike_id":"1637a0cf-bf29-4186-90ff-2a16e918aeaf","system_id":"levelo_inurba_marseille","lat":43.29235,"lon":5.40897,"is_reserved":false,"is_disabled":false,"rental_uris":{"android":"levelo://app?vid=1637a0cf-bf29-4186-90ff-2a16e918aeaf","ios":"levelo://app?vid=1637a0cf-bf29-4186-90ff-2a16e918aeaf"},"vehicle_type_id":"4","last_reported":1739527752,"current_range_meters":18000,"station_id":"ce4bh192rcd13ifvqdc0","pricing_plan_id":"cebpf4jnsgd1na2vs0mg"},{"bike_id":"3e364230-e791-4719-a976-7d1bf64b79a1","system_id":"levelo_inurba_marseille","lat":43.3122,"lon":5.36914,"is_reserved":false,"is_disabled":false,"rental_uris":{"android":"levelo://app?vid=3e364230-e791-4719-a976-7d1bf64b79a1","ios":"levelo://app?vid=3e364230-e791-4719-a976-7d1bf64b79a1"},"vehicle_type_id":"4","last_reported":1739527752,"current_range_meters":38800,"station_id":"ce4bgl92rcd13ifvqbq0","pricing_plan_id":"cebpf4jnsgd1na2vs0mg"},{"bike_id":"ff489825-db76-49d3-aa98-c1c0aaa6bdad","system_id":"levelo_inurba_marseille","lat":43.29239,"lon":5.36665,"is_reserved":false,"is_disabled":false,"rental_uris":{"android":"levelo://app?vid=ff489825-db76-49d3-aa98-c1c0aaa6bdad","ios":"levelo://app?vid=ff489825-db76-49d3-aa98-c1c0aaa6bdad"},"vehicle_type_id":"4","last_reported":1739527752,"current_range_meters":7200,"station_id":"","pricing_plan_id":"cebpf4jnsgd1na2vs0mg"},{"bike_id":"ab81b7cf-760c-4fe2-a9c1-c23bc52b23d5","system_id":"levelo_inurba_marseille","lat":43.30125,"lon":5.39848,"is_reserved":false,"is_disabled":false,"rental_uris":{"android":"levelo://app?vid=ab81b7cf-760c-4fe2-a9c1-c23bc52b23d5","ios":"levelo://app?vid=ab81b7cf-760c-4fe2-a9c1-c23bc52b23d5"},"vehicle_type_id":"4","last_reported":1739527752,"current_range_meters":21600,"station_id":"ce4bh0h2rcd13ifvqd40","pricing_plan_id":"cebpf4jnsgd1na2vs0mg"},{"bike_id":"dff2132e-2fb0-4b09-b57c-a7a8c5e0bc11","system_id":"levelo_inurba_marseille","lat":43.27229,"lon":5.39189,"is_reserved":false,"is_disabled":false,"rental_uris":{"android":"levelo://app?vid=dff2132e-2fb0-4b09-b57c-a7a8c5e0bc11","ios":"levelo://app?vid=dff2132e-2fb0-4b09-b57c-a7a8c5e0bc11"},"vehicle_type_id":"4","last_reported":1739527752,"current_range_meters":17600,"station_id":"ce4bhhp2rcd13ifvqfm0","pricing_plan_id":"cebpf4jnsgd1na2vs0mg"},{"bike_id":"f2c5fdcd-6d20-42fb-a617-ac06448f5878","system_id":"levelo_inurba_marseille","lat":43.2926,"lon":5.38441,"is_reserved":false,"is_disabled":false,"rental_uris":{"android":"levelo://app?vid=f2c5fdcd-6d20-42fb-a617-ac06448f5878","ios":"levelo://app?vid=f2c5fdcd-6d20-42fb-a617-ac06448f5878"},"vehicle_type_id":"4","last_reported":1739527752,"current_range_meters":32000,"station_id":"ce4bh692rcd13ifvqea0","pricing_plan_id":"cebpf4jnsgd1na2vs0mg"},{"bike_id":"1f20f252-6887-45f2-9881-8e93e6f221d0","system_id":"levelo_inurba_marseille","lat":43.26203,"lon":5.37919,"is_reserved":false,"is_disabled":false,"rental_uris":{"android":"levelo://app?vid=1f20f252-6887-45f2-9881-8e93e6f221d0","ios":"levelo://app?vid=1f20f252-6887-45f2-9881-8e93e6f221d0"},"vehicle_type_id":"4","last_reported":1739527752,"current_range_meters":38800,"station_id":"ce4bhjp2rcd13ifvqg90","pricing_plan_id":"cebpf4jnsgd1na2vs0mg"},{"bike_id":"bf02de8d-09a7-4cb6-af60-3809adf10585","system_id":"levelo_inurba_marseille","lat":43.28411,"lon":5.37513,"is_reserved":false,"is_disabled":false,"rental_uris":{"android":"levelo://app?vid=bf02de8d-09a7-4cb6-af60-3809adf10585","ios":"levelo://app?vid=bf02de8d-09a7-4cb6-af60-3809adf10585"},"vehicle_type_id":"4","last_reported":1739527752,"current_range_meters":21600,"station_id":"ce4bh412rcd13ifvqds0","pricing_plan_id":"cebpf4jnsgd1na2vs0mg"},{"bike_id":"9d1d7f87-0ffd-4a51-9985-787ef41225d3","system_id":"levelo_inurba_marseille","lat":43.265044,"lon":5.395812,"is_reserved":false,"is_disabled":false,"rental_uris":{"android":"levelo://app?vid=9d1d7f87-0ffd-4a51-9985-787ef41225d3","ios":"levelo://app?vid=9d1d7f87-0ffd-4a51-9985-787ef41225d3"},"vehicle_type_id":"4","last_reported":1739527752,"current_range_meters":39200,"station_id":"ce4bhi12rcd13ifvqfq0","pricing_plan_id":"cebpf4jnsgd1na2vs0mg"},{"bike_id":"4dbc26c6-2a15-45e7-b1cd-4e0586d88b2f","system_id":"levelo_inurba_marseille","lat":43.27374,"lon":5.36261,"is_reserved":false,"is_disabled":false,"rental_uris":{"android":"levelo://app?vid=4dbc26c6-2a15-45e7-b1cd-4e0586d88b2f","ios":"levelo://app?vid=4dbc26c6-2a15-45e7-b1cd-4e0586d88b2f"},"vehicle_type_id":"4","last_reported":1739527752,"current_range_meters":37600,"station_id":"ce4bhbh2rcd13ifvqeo0","pricing_plan_id":"cebpf4jnsgd1na2vs0mg"},{"bike_id":"6d5a124a-5ef9-4ef5-9f28-d40c1219dcc1","system_id":"levelo_inurba_marseille","lat":43.32371,"lon":5.38876,"is_reserved":false,"is_disabled":false,"rental_uris":{"android":"levelo://app?vid=6d5a124a-5ef9-4ef5-9f28-d40c1219dcc1","ios":"levelo://app?vid=6d5a124a-5ef9-4ef5-9f28-d40c1219dcc1"},"vehicle_type_id":"4","last_reported":1739527752,"current_range_meters":15200,"station_id":"ce4bhqp2rcd13ifvqhog","pricing_plan_id":"cebpf4jnsgd1na2vs0mg"},{"bike_id":"1f6ba3af-8859-467c-9802-ce9b84441ce9","system_id":"levelo_inurba_marseille","lat":43.27816,"lon":5.40701,"is_reserved":false,"is_disabled":false,"rental_uris":{"android":"levelo://app?vid=1f6ba3af-8859-467c-9802-ce9b84441ce9","ios":"levelo://app?vid=1f6ba3af-8859-467c-9802-ce9b84441ce9"},"vehicle_type_id":"4","last_reported":1739527752,"current_range_meters":38800,"station_id":"ce4bhnh2rcd13ifvqgtg","pricing_plan_id":"cebpf4jnsgd1na2vs0mg"},{"bike_id":"c5d833da-7f3d-4020-8720-afd26d9540ed","system_id":"levelo_inurba_marseille","lat":43.28155,"lon":5.42641,"is_reserved":false,"is_disabled":false,"rental_uris":{"android":"levelo://app?vid=c5d833da-7f3d-4020-8720-afd26d9540ed","ios":"levelo://app?vid=c5d833da-7f3d-4020-8720-afd26d9540ed"},"vehicle_type_id":"4","last_reported":1739527752,"current_range_meters":33600,"station_id":"ce4bhnh2rcd13ifvqgug","pricing_plan_id":"cebpf4jnsgd1na2vs0mg"},{"bike_id":"6fc7235b-f0a6-4bf5-aed0-5b9b2d472961","system_id":"levelo_inurba_marseille","lat":43.30539,"lon":5.36719,"is_reserved":false,"is_disabled":false,"rental_uris":{"android":"levelo://app?vid=6fc7235b-f0a6-4bf5-aed0-5b9b2d472961","ios":"levelo://app?vid=6fc7235b-f0a6-4bf5-aed0-5b9b2d472961"},"vehicle_type_id":"4","last_reported":1739527752,"current_range_meters":38400,"station_id":"ce4bgrp2rcd13ifvqc9g","pricing_plan_id":"cebpf4jnsgd1na2vs0mg"},{"bike_id":"b905d447-4cc1-4a0c-9d03-a1b224aad3c7","system_id":"levelo_inurba_marseille","lat":43.29906,"lon":5.3747,"is_reserved":false,"is_disabled":false,"rental_uris":{"android":"levelo://app?vid=b905d447-4cc1-4a0c-9d03-a1b224aad3c7","ios":"levelo://app?vid=b905d447-4cc1-4a0c-9d03-a1b224aad3c7"},"vehicle_type_id":"4","last_reported":1739527752,"current_range_meters":38800,"station_id":"ce4bgjh2rcd13ifvqbg0","pricing_plan_id":"cebpf4jnsgd1na2vs0mg"},{"bike_id":"5429a055-5c17-4863-ac08-ee7234bc7af8","system_id":"levelo_inurba_marseille","lat":43.32266,"lon":5.36834,"is_reserved":false,"is_disabled":false,"rental_uris":{"android":"levelo://app?vid=5429a055-5c17-4863-ac08-ee7234bc7af8","ios":"levelo://app?vid=5429a055-5c17-4863-ac08-ee7234bc7af8"},"vehicle_type_id":"4","last_reported":1739527752,"current_range_meters":37600,"station_id":"","pricing_plan_id":"cebpf4jnsgd1na2vs0mg"},{"bike_id":"1b745f62-ad2a-489b-a845-f3299b39637e","system_id":"levelo_inurba_marseille","lat":43.30629,"lon":5.37231,"is_reserved":false,"is_disabled":false,"rental_uris":{"android":"levelo://app?vid=1b745f62-ad2a-489b-a845-f3299b39637e","ios":"levelo://app?vid=1b745f62-ad2a-489b-a845-f3299b39637e"},"vehicle_type_id":"4","last_reported":1739527752,"current_range_meters":25600,"station_id":"ce4bgqh2rcd13ifvqc4g","pricing_plan_id":"cebpf4jnsgd1na2vs0mg"},{"bike_id":"9183921d-8e97-4c4b-a98e-67fb34e43b27","system_id":"levelo_inurba_marseille","lat":43.2862,"lon":5.35101,"is_reserved":false,"is_disabled":false,"rental_uris":{"android":"levelo://app?vid=9183921d-8e97-4c4b-a98e-67fb34e43b27","ios":"levelo://app?vid=9183921d-8e97-4c4b-a98e-67fb34e43b27"},"vehicle_type_id":"4","last_reported":1739527752,"current_range_meters":11200,"station_id":"ce4bhch2rcd13ifvqeug","pricing_plan_id":"cebpf4jnsgd1na2vs0mg"},{"bike_id":"acc39daa-3a4d-4c95-b5a8-16360a611402","system_id":"levelo_inurba_marseille","lat":43.29622,"lon":5.37149,"is_reserved":false,"is_disabled":true,"rental_uris":{"android":"levelo://app?vid=acc39daa-3a4d-4c95-b5a8-16360a611402","ios":"levelo://app?vid=acc39daa-3a4d-4c95-b5a8-16360a611402"},"vehicle_type_id":"4","last_reported":1739527752,"current_range_meters":36000,"station_id":"ce4bgnh2rcd13ifvqc0g","pricing_plan_id":"cebpf4jnsgd1na2vs0mg"},{"bike_id":"859c79c3-9c5b-47b3-94ad-94355d1f1457","system_id":"levelo_inurba_marseille","lat":43.24403,"lon":5.37053,"is_reserved":false,"is_disabled":false,"rental_uris":{"android":"levelo://app?vid=859c79c3-9c5b-47b3-94ad-94355d1f1457","ios":"levelo://app?vid=859c79c3-9c5b-47b3-94ad-94355d1f1457"},"vehicle_type_id":"4","last_reported":1739527752,"current_range_meters":12800,"station_id":"ce4bhhh2rcd13ifvqfk0","pricing_plan_id":"cebpf4jnsgd1na2vs0mg"},{"bike_id":"54ce70d5-bc28-4579-a731-437bf83d7ef4","system_id":"levelo_inurba_marseille","lat":43.30878,"lon":5.3965,"is_reserved":false,"is_disabled":false,"rental_uris":{"android":"levelo://app?vid=54ce70d5-bc28-4579-a731-437bf83d7ef4","ios":"levelo://app?vid=54ce70d5-bc28-4579-a731-437bf83d7ef4"},"vehicle_type_id":"4","last_reported":1739527752,"current_range_meters":12000,"station_id":"ce4bh012rcd13ifvqcv0","pricing_plan_id":"cebpf4jnsgd1na2vs0mg"},{"bike_id":"2f1367e3-87e5-4d8a-973e-ba517aab4bf3","system_id":"levelo_inurba_marseille","lat":43.298495,"lon":5.362979,"is_reserved":false,"is_disabled":false,"rental_uris":{"android":"levelo://app?vid=2f1367e3-87e5-4d8a-973e-ba517aab4bf3","ios":"levelo://app?vid=2f1367e3-87e5-4d8a-973e-ba517aab4bf3"},"vehicle_type_id":"4","last_reported":1739527752,"current_range_meters":8400,"station_id":"ce4bgpp2rcd13ifvqc3g","pricing_plan_id":"cebpf4jnsgd1na2vs0mg"},{"bike_id":"c9b3dfe5-db4b-4f89-8848-36650c305632","system_id":"levelo_inurba_marseille","lat":43.30903,"lon":5.36846,"is_reserved":false,"is_disabled":false,"rental_uris":{"android":"levelo://app?vid=c9b3dfe5-db4b-4f89-8848-36650c305632","ios":"levelo://app?vid=c9b3dfe5-db4b-4f89-8848-36650c305632"},"vehicle_type_id":"4","last_reported":1739527752,"current_range_meters":24000,"station_id":"ce4bgn92rcd13ifvqbvg","pricing_plan_id":"cebpf4jnsgd1na2vs0mg"},{"bike_id":"b3daed02-743a-4d9a-8885-f36f20bf02ce","system_id":"levelo_inurba_marseille","lat":43.32658,"lon":5.40983,"is_reserved":false,"is_disabled":false,"rental_uris":{"android":"levelo://app?vid=b3daed02-743a-4d9a-8885-f36f20bf02ce","ios":"levelo://app?vid=b3daed02-743a-4d9a-8885-f36f20bf02ce"},"vehicle_type_id":"4","last_reported":1739527752,"current_range_meters":26800,"station_id":"ce4bhpp2rcd13ifvqhgg","pricing_plan_id":"cebpf4jnsgd1na2vs0mg"},{"bike_id":"0e7b7964-ea54-42c5-bc2b-8ebf34f8cbe5","system_id":"levelo_inurba_marseille","lat":43.27622,"lon":5.36113,"is_reserved":false,"is_disabled":false,"rental_uris":{"android":"levelo://app?vid=0e7b7964-ea54-42c5-bc2b-8ebf34f8cbe5","ios":"levelo://app?vid=0e7b7964-ea54-42c5-bc2b-8ebf34f8cbe5"},"vehicle_type_id":"4","last_reported":1739527752,"current_range_meters":39200,"station_id":"ce4bgj92rcd13ifvqbe0","pricing_plan_id":"cebpf4jnsgd1na2vs0mg"},{"bike_id":"fd20bddc-d49d-41f9-a9c1-d3d9b04f7a45","system_id":"levelo_inurba_marseille","lat":43.31195,"lon":5.36855,"is_reserved":false,"is_disabled":false,"rental_uris":{"android":"levelo://app?vid=fd20bddc-d49d-41f9-a9c1-d3d9b04f7a45","ios":"levelo://app?vid=fd20bddc-d49d-41f9-a9c1-d3d9b04f7a45"},"vehicle_type_id":"4","last_reported":1739527752,"current_range_meters":26800,"station_id":"ce4bgl92rcd13ifvqbq0","pricing_plan_id":"cebpf4jnsgd1na2vs0mg"},{"bike_id":"837d5126-194c-476c-97bf-ded638f023f0","system_id":"levelo_inurba_marseille","lat":43.27204,"lon":5.39185,"is_reserved":false,"is_disabled":true,"rental_uris":{"android":"levelo://app?vid=837d5126-194c-476c-97bf-ded638f023f0","ios":"levelo://app?vid=837d5126-194c-476c-97bf-ded638f023f0"},"vehicle_type_id":"4","last_reported":1739527752,"current_range_meters":400,"station_id":"ce4bhhp2rcd13ifvqfm0","pricing_plan_id":"cebpf4jnsgd1na2vs0mg"},{"bike_id":"9fe907ee-be20-4d9f-97d2-4d173f819e3b","system_id":"levelo_inurba_marseille","lat":43.29691,"lon":5.37125,"is_reserved":false,"is_disabled":false,"rental_uris":{"android":"levelo://app?vid=9fe907ee-be20-4d9f-97d2-4d173f819e3b","ios":"levelo://app?vid=9fe907ee-be20-4d9f-97d2-4d173f819e3b"},"vehicle_type_id":"4","last_reported":1739527752,"current_range_meters":8000,"station_id":"","pricing_plan_id":"cebpf4jnsgd1na2vs0mg"},{"bike_id":"d6f38d8d-bb5a-4b27-b5d4-6029f0946ece","system_id":"levelo_inurba_marseille","lat":43.27527,"lon":5.4355,"is_reserved":false,"is_disabled":false,"rental_uris":{"android":"levelo://app?vid=d6f38d8d-bb5a-4b27-b5d4-6029f0946ece","ios":"levelo://app?vid=d6f38d8d-bb5a-4b27-b5d4-6029f0946ece"},"vehicle_type_id":"4","last_reported":1739527752,"current_range_meters":8800,"station_id":"","pricing_plan_id":"cebpf4jnsgd1na2vs0mg"},{"bike_id":"2b069fd9-3009-4748-93a0-5c3d5c5a2043","system_id":"levelo_inurba_marseille","lat":43.25712,"lon":5.41127,"is_reserved":false,"is_disabled":false,"rental_uris":{"android":"levelo://app?vid=2b069fd9-3009-4748-93a0-5c3d5c5a2043","ios":"levelo://app?vid=2b069fd9-3009-4748-93a0-5c3d5c5a2043"},"vehicle_type_id":"4","last_reported":1739527752,"current_range_meters":12800,"station_id":"ce4bhkp2rcd13ifvqgd0","pricing_plan_id":"cebpf4jnsgd1na2vs0mg"},{"bike_id":"9e8fe326-5d76-4691-9e64-acf86b994dab","system_id":"levelo_inurba_marseille","lat":43.27615,"lon":5.36127,"is_reserved":false,"is_disabled":false,"rental_uris":{"android":"levelo://app?vid=9e8fe326-5d76-4691-9e64-acf86b994dab","ios":"levelo://app?vid=9e8fe326-5d76-4691-9e64-acf86b994dab"},"vehicle_type_id":"4","last_reported":1739527752,"current_range_meters":27600,"station_id":"ce4bgj92rcd13ifvqbe0","pricing_plan_id":"cebpf4jnsgd1na2vs0mg"},{"bike_id":"eb74081f-8035-495f-a073-abb8444b5eb2","system_id":"levelo_inurba_marseille","lat":43.239579,"lon":5.366273,"is_reserved":false,"is_disabled":false,"rental_uris":{"android":"levelo://app?vid=eb74081f-8035-495f-a073-abb8444b5eb2","ios":"levelo://app?vid=eb74081f-8035-495f-a073-abb8444b5eb2"},"vehicle_type_id":"4","last_reported":1739527752,"current_range_meters":36800,"station_id":"ce4bhi12rcd13ifvqfp0","pricing_plan_id":"cebpf4jnsgd1na2vs0mg"},{"bike_id":"8856071c-9a96-4c30-bc79-f2427ede521a","system_id":"levelo_inurba_marseille","lat":43.27314,"lon":5.39084,"is_reserved":false,"is_disabled":false,"rental_uris":{"android":"levelo://app?vid=8856071c-9a96-4c30-bc79-f2427ede521a","ios":"levelo://app?vid=8856071c-9a96-4c30-bc79-f2427ede521a"},"vehicle_type_id":"4","last_reported":1739527752,"current_range_meters":38000,"station_id":"ce4bhgp2rcd13ifvqfe0","pricing_plan_id":"cebpf4jnsgd1na2vs0mg"},{"bike_id":"df5a6025-bcb2-45b6-a9b7-4c6ff838ace5","system_id":"levelo_inurba_marseille","lat":43.30476,"lon":5.37902,"is_reserved":false,"is_disabled":false,"rental_uris":{"android":"levelo://app?vid=df5a6025-bcb2-45b6-a9b7-4c6ff838ace5","ios":"levelo://app?vid=df5a6025-bcb2-45b6-a9b7-4c6ff838ace5"},"vehicle_type_id":"4","last_reported":1739527752,"current_range_meters":21600,"station_id":"ce4bgup2rcd13ifvqcn0","pricing_plan_id":"cebpf4jnsgd1na2vs0mg"},{"bike_id":"d55a9866-f32d-4ff7-8223-0b3fcd8e3341","system_id":"levelo_inurba_marseille","lat":43.32399,"lon":5.36597,"is_reserved":false,"is_disabled":false,"rental_uris":{"android":"levelo://app?vid=d55a9866-f32d-4ff7-8223-0b3fcd8e3341","ios":"levelo://app?vid=d55a9866-f32d-4ff7-8223-0b3fcd8e3341"},"vehicle_type_id":"4","last_reported":1739527752,"current_range_meters":30800,"station_id":"ce4bhs12rcd13ifvqhvg","pricing_plan_id":"cebpf4jnsgd1na2vs0mg"},{"bike_id":"5432c8b4-ca85-4cb1-ae85-3fed69e9666b","system_id":"levelo_inurba_marseille","lat":43.30492,"lon":5.3791,"is_reserved":false,"is_disabled":false,"rental_uris":{"android":"levelo://app?vid=5432c8b4-ca85-4cb1-ae85-3fed69e9666b","ios":"levelo://app?vid=5432c8b4-ca85-4cb1-ae85-3fed69e9666b"},"vehicle_type_id":"4","last_reported":1739527752,"current_range_meters":35200,"station_id":"ce4bgup2rcd13ifvqcn0","pricing_plan_id":"cebpf4jnsgd1na2vs0mg"},{"bike_id":"6e58a69c-2a4e-4c49-840d-6e728a603acb","system_id":"levelo_inurba_marseille","lat":43.23066,"lon":5.35491,"is_reserved":false,"is_disabled":false,"rental_uris":{"android":"levelo://app?vid=6e58a69c-2a4e-4c49-840d-6e728a603acb","ios":"levelo://app?vid=6e58a69c-2a4e-4c49-840d-6e728a603acb"},"vehicle_type_id":"4","last_reported":1739527752,"current_range_meters":37600,"station_id":"cpo3342slgdg3j2ifvpg","pricing_plan_id":"cebpf4jnsgd1na2vs0mg"},{"bike_id":"a78ccda1-b4f9-4377-8a42-20cfac4a5edd","system_id":"levelo_inurba_marseille","lat":43.28616,"lon":5.35104,"is_reserved":false,"is_disabled":false,"rental_uris":{"android":"levelo://app?vid=a78ccda1-b4f9-4377-8a42-20cfac4a5edd","ios":"levelo://app?vid=a78ccda1-b4f9-4377-8a42-20cfac4a5edd"},"vehicle_type_id":"4","last_reported":1739527752,"current_range_meters":32400,"station_id":"ce4bhch2rcd13ifvqeug","pricing_plan_id":"cebpf4jnsgd1na2vs0mg"},{"bike_id":"0734d612-ef77-4b2c-aaa6-bce46c2274cc","system_id":"levelo_inurba_marseille","lat":43.29931,"lon":5.36542,"is_reserved":false,"is_disabled":false,"rental_uris":{"android":"levelo://app?vid=0734d612-ef77-4b2c-aaa6-bce46c2274cc","ios":"levelo://app?vid=0734d612-ef77-4b2c-aaa6-bce46c2274cc"},"vehicle_type_id":"4","last_reported":1739527752,"current_range_meters":30400,"station_id":"ce4bgm92rcd13ifvqbr0","pricing_plan_id":"cebpf4jnsgd1na2vs0mg"},{"bike_id":"8afc87c0-1fce-4e30-bf68-d14746764f12","system_id":"levelo_inurba_marseille","lat":43.3123,"lon":5.36846,"is_reserved":false,"is_disabled":false,"rental_uris":{"android":"levelo://app?vid=8afc87c0-1fce-4e30-bf68-d14746764f12","ios":"levelo://app?vid=8afc87c0-1fce-4e30-bf68-d14746764f12"},"vehicle_type_id":"4","last_reported":1739527752,"current_range_meters":25200,"station_id":"ce4bgl92rcd13ifvqbq0","pricing_plan_id":"cebpf4jnsgd1na2vs0mg"},{"bike_id":"b9a26ac3-3594-4e9b-a997-8c63f7e9faaa","system_id":"levelo_inurba_marseille","lat":43.29691,"lon":5.37691,"is_reserved":false,"is_disabled":false,"rental_uris":{"android":"levelo://app?vid=b9a26ac3-3594-4e9b-a997-8c63f7e9faaa","ios":"levelo://app?vid=b9a26ac3-3594-4e9b-a997-8c63f7e9faaa"},"vehicle_type_id":"4","last_reported":1739527752,"current_range_meters":39200,"station_id":"ce4bgkh2rcd13ifvqbl0","pricing_plan_id":"cebpf4jnsgd1na2vs0mg"},{"bike_id":"4450d397-c7c4-4c68-aed9-fa811598c082","system_id":"levelo_inurba_marseille","lat":43.325471,"lon":5.365037,"is_reserved":false,"is_disabled":false,"rental_uris":{"android":"levelo://app?vid=4450d397-c7c4-4c68-aed9-fa811598c082","ios":"levelo://app?vid=4450d397-c7c4-4c68-aed9-fa811598c082"},"vehicle_type_id":"4","last_reported":1739527752,"current_range_meters":31200,"station_id":"","pricing_plan_id":"cebpf4jnsgd1na2vs0mg"},{"bike_id":"c186b7ff-1611-4e5e-b1a9-a47eed5d97f0","system_id":"levelo_inurba_marseille","lat":43.31329,"lon":5.39686,"is_reserved":false,"is_disabled":true,"rental_uris":{"android":"levelo://app?vid=c186b7ff-1611-4e5e-b1a9-a47eed5d97f0","ios":"levelo://app?vid=c186b7ff-1611-4e5e-b1a9-a47eed5d97f0"},"vehicle_type_id":"4","last_reported":1739527752,"current_range_meters":0,"station_id":"ce4bgvp2rcd13ifvqcu0","pricing_plan_id":"cebpf4jnsgd1na2vs0mg"},{"bike_id":"bbdcd42e-94b1-4cc5-9709-d2f5b48b9d65","system_id":"levelo_inurba_marseille","lat":43.29259,"lon":5.38445,"is_reserved":false,"is_disabled":false,"rental_uris":{"android":"levelo://app?vid=bbdcd42e-94b1-4cc5-9709-d2f5b48b9d65","ios":"levelo://app?vid=bbdcd42e-94b1-4cc5-9709-d2f5b48b9d65"},"vehicle_type_id":"4","last_reported":1739527752,"current_range_meters":36800,"station_id":"ce4bh692rcd13ifvqea0","pricing_plan_id":"cebpf4jnsgd1na2vs0mg"},{"bike_id":"49a5b976-e785-4cf8-ae80-97f688de46c5","system_id":"levelo_inurba_marseille","lat":43.28265,"lon":5.35075,"is_reserved":false,"is_disabled":false,"rental_uris":{"android":"levelo://app?vid=49a5b976-e785-4cf8-ae80-97f688de46c5","ios":"levelo://app?vid=49a5b976-e785-4cf8-ae80-97f688de46c5"},"vehicle_type_id":"4","last_reported":1739527752,"current_range_meters":38800,"station_id":"ce4bhbp2rcd13ifvqerg","pricing_plan_id":"cebpf4jnsgd1na2vs0mg"},{"bike_id":"3c449d40-c68b-4a05-917b-dcb6d92a5905","system_id":"levelo_inurba_marseille","lat":43.30151,"lon":5.37419,"is_reserved":false,"is_disabled":false,"rental_uris":{"android":"levelo://app?vid=3c449d40-c68b-4a05-917b-dcb6d92a5905","ios":"levelo://app?vid=3c449d40-c68b-4a05-917b-dcb6d92a5905"},"vehicle_type_id":"4","last_reported":1739527752,"current_range_meters":38000,"station_id":"ce4bgs92rcd13ifvqcc0","pricing_plan_id":"cebpf4jnsgd1na2vs0mg"},{"bike_id":"0d0207c2-4948-4495-9062-fef66d060990","system_id":"levelo_inurba_marseille","lat":43.2499,"lon":5.38939,"is_reserved":false,"is_disabled":false,"rental_uris":{"android":"levelo://app?vid=0d0207c2-4948-4495-9062-fef66d060990","ios":"levelo://app?vid=0d0207c2-4948-4495-9062-fef66d060990"},"vehicle_type_id":"4","last_reported":1739527752,"current_range_meters":30800,"station_id":"ce4bhgp2rcd13ifvqfd0","pricing_plan_id":"cebpf4jnsgd1na2vs0mg"},{"bike_id":"6b656e81-a99f-458b-b133-2509327cf097","system_id":"levelo_inurba_marseille","lat":43.28254,"lon":5.36104,"is_reserved":false,"is_disabled":false,"rental_uris":{"android":"levelo://app?vid=6b656e81-a99f-458b-b133-2509327cf097","ios":"levelo://app?vid=6b656e81-a99f-458b-b133-2509327cf097"},"vehicle_type_id":"4","last_reported":1739527752,"current_range_meters":14400,"station_id":"","pricing_plan_id":"cebpf4jnsgd1na2vs0mg"},{"bike_id":"b64cb318-9a9d-45df-b9e1-d16ce258851f","system_id":"levelo_inurba_marseille","lat":43.28149,"lon":5.42633,"is_reserved":false,"is_disabled":true,"rental_uris":{"android":"levelo://app?vid=b64cb318-9a9d-45df-b9e1-d16ce258851f","ios":"levelo://app?vid=b64cb318-9a9d-45df-b9e1-d16ce258851f"},"vehicle_type_id":"4","last_reported":1739527752,"current_range_meters":1600,"station_id":"ce4bhnh2rcd13ifvqgug","pricing_plan_id":"cebpf4jnsgd1na2vs0mg"},{"bike_id":"2ada7544-6261-48b2-bbf3-256425453959","system_id":"levelo_inurba_marseille","lat":43.23155,"lon":5.43707,"is_reserved":false,"is_disabled":true,"rental_uris":{"android":"levelo://app?vid=2ada7544-6261-48b2-bbf3-256425453959","ios":"levelo://app?vid=2ada7544-6261-48b2-bbf3-256425453959"},"vehicle_type_id":"4","last_reported":1739527752,"current_range_meters":20000,"station_id":"ce4bhmp2rcd13ifvqgog","pricing_plan_id":"cebpf4jnsgd1na2vs0mg"},{"bike_id":"e37e3851-2ffa-40ab-a685-f0087f097083","system_id":"levelo_inurba_marseille","lat":43.26687,"lon":5.38264,"is_reserved":false,"is_disabled":false,"rental_uris":{"android":"levelo://app?vid=e37e3851-2ffa-40ab-a685-f0087f097083","ios":"levelo://app?vid=e37e3851-2ffa-40ab-a685-f0087f097083"},"vehicle_type_id":"4","last_reported":1739527752,"current_range_meters":31200,"station_id":"ce4bhg92rcd13ifvqf90","pricing_plan_id":"cebpf4jnsgd1na2vs0mg"},{"bike_id":"6c3c6cbf-f066-4d34-a71f-01f3462670df","system_id":"levelo_inurba_marseille","lat":43.28708,"lon":5.37395,"is_reserved":false,"is_disabled":false,"rental_uris":{"android":"levelo://app?vid=6c3c6cbf-f066-4d34-a71f-01f3462670df","ios":"levelo://app?vid=6c3c6cbf-f066-4d34-a71f-01f3462670df"},"vehicle_type_id":"4","last_reported":1739527752,"current_range_meters":7200,"station_id":"ce4bh3p2rcd13ifvqdq0","pricing_plan_id":"cebpf4jnsgd1na2vs0mg"},{"bike_id":"0135580a-7c26-4f5a-8f15-ffbaf8092f11","system_id":"levelo_inurba_marseille","lat":43.31069,"lon":5.38361,"is_reserved":false,"is_disabled":false,"rental_uris":{"android":"levelo://app?vid=0135580a-7c26-4f5a-8f15-ffbaf8092f11","ios":"levelo://app?vid=0135580a-7c26-4f5a-8f15-ffbaf8092f11"},"vehicle_type_id":"4","last_reported":1739527752,"current_range_meters":33200,"station_id":"ce4bgv92rcd13ifvqcr0","pricing_plan_id":"cebpf4jnsgd1na2vs0mg"},{"bike_id":"ba668e75-4fd4-4e39-b33a-a5b4dbc9143c","system_id":"levelo_inurba_marseille","lat":43.30106,"lon":5.39839,"is_reserved":false,"is_disabled":false,"rental_uris":{"android":"levelo://app?vid=ba668e75-4fd4-4e39-b33a-a5b4dbc9143c","ios":"levelo://app?vid=ba668e75-4fd4-4e39-b33a-a5b4dbc9143c"},"vehicle_type_id":"4","last_reported":1739527752,"current_range_meters":37600,"station_id":"ce4bh0h2rcd13ifvqd40","pricing_plan_id":"cebpf4jnsgd1na2vs0mg"},{"bike_id":"62862006-05b4-4c32-b74d-3d73ca0f3a49","system_id":"levelo_inurba_marseille","lat":43.29493,"lon":5.36395,"is_reserved":false,"is_disabled":true,"rental_uris":{"android":"levelo://app?vid=62862006-05b4-4c32-b74d-3d73ca0f3a49","ios":"levelo://app?vid=62862006-05b4-4c32-b74d-3d73ca0f3a49"},"vehicle_type_id":"4","last_reported":1739527752,"current_range_meters":27200,"station_id":"","pricing_plan_id":"cebpf4jnsgd1na2vs0mg"},{"bike_id":"961f80ba-a3b0-4867-ac32-118a2b78ae92","system_id":"levelo_inurba_marseille","lat":43.28699,"lon":5.37378,"is_reserved":false,"is_disabled":false,"rental_uris":{"android":"levelo://app?vid=961f80ba-a3b0-4867-ac32-118a2b78ae92","ios":"levelo://app?vid=961f80ba-a3b0-4867-ac32-118a2b78ae92"},"vehicle_type_id":"4","last_reported":1739527752,"current_range_meters":36800,"station_id":"ce4bh3p2rcd13ifvqdq0","pricing_plan_id":"cebpf4jnsgd1na2vs0mg"},{"bike_id":"bbb6f758-ef12-4737-861c-2da510dfe0ae","system_id":"levelo_inurba_marseille","lat":43.30572,"lon":5.37217,"is_reserved":false,"is_disabled":false,"rental_uris":{"android":"levelo://app?vid=bbb6f758-ef12-4737-861c-2da510dfe0ae","ios":"levelo://app?vid=bbb6f758-ef12-4737-861c-2da510dfe0ae"},"vehicle_type_id":"4","last_reported":1739527752,"current_range_meters":17600,"station_id":"ce4bgqh2rcd13ifvqc4g","pricing_plan_id":"cebpf4jnsgd1na2vs0mg"},{"bike_id":"c04ac249-dc10-4dab-92dc-2ad767cf01f6","system_id":"levelo_inurba_marseille","lat":43.30464,"lon":5.37904,"is_reserved":false,"is_disabled":false,"rental_uris":{"android":"levelo://app?vid=c04ac249-dc10-4dab-92dc-2ad767cf01f6","ios":"levelo://app?vid=c04ac249-dc10-4dab-92dc-2ad767cf01f6"},"vehicle_type_id":"4","last_reported":1739527752,"current_range_meters":35200,"station_id":"ce4bgup2rcd13ifvqcn0","pricing_plan_id":"cebpf4jnsgd1na2vs0mg"},{"bike_id":"b6829c27-3393-47b5-9805-10eab26e3322","system_id":"levelo_inurba_marseille","lat":43.31179,"lon":5.36925,"is_reserved":false,"is_disabled":false,"rental_uris":{"android":"levelo://app?vid=b6829c27-3393-47b5-9805-10eab26e3322","ios":"levelo://app?vid=b6829c27-3393-47b5-9805-10eab26e3322"},"vehicle_type_id":"4","last_reported":1739527752,"current_range_meters":38800,"station_id":"","pricing_plan_id":"cebpf4jnsgd1na2vs0mg"},{"bike_id":"c338d21c-2442-4b58-aadc-564d7faddd7e","system_id":"levelo_inurba_marseille","lat":43.32455,"lon":5.36611,"is_reserved":false,"is_disabled":false,"rental_uris":{"android":"levelo://app?vid=c338d21c-2442-4b58-aadc-564d7faddd7e","ios":"levelo://app?vid=c338d21c-2442-4b58-aadc-564d7faddd7e"},"vehicle_type_id":"4","last_reported":1739527752,"current_range_meters":21600,"station_id":"","pricing_plan_id":"cebpf4jnsgd1na2vs0mg"},{"bike_id":"8b959203-66e7-4e7f-b7c1-e8768b2681b9","system_id":"levelo_inurba_marseille","lat":43.31205,"lon":5.36922,"is_reserved":false,"is_disabled":false,"rental_uris":{"android":"levelo://app?vid=8b959203-66e7-4e7f-b7c1-e8768b2681b9","ios":"levelo://app?vid=8b959203-66e7-4e7f-b7c1-e8768b2681b9"},"vehicle_type_id":"4","last_reported":1739527752,"current_range_meters":24400,"station_id":"","pricing_plan_id":"cebpf4jnsgd1na2vs0mg"},{"bike_id":"a93f7d49-edc5-45ec-baf3-74ca26311e2c","system_id":"levelo_inurba_marseille","lat":43.2604,"lon":5.37548,"is_reserved":false,"is_disabled":false,"rental_uris":{"android":"levelo://app?vid=a93f7d49-edc5-45ec-baf3-74ca26311e2c","ios":"levelo://app?vid=a93f7d49-edc5-45ec-baf3-74ca26311e2c"},"vehicle_type_id":"4","last_reported":1739527752,"current_range_meters":38000,"station_id":"ce4bhgh2rcd13ifvqfa0","pricing_plan_id":"cebpf4jnsgd1na2vs0mg"},{"bike_id":"24df8b3d-a892-4758-abf7-974c8ac7e817","system_id":"levelo_inurba_marseille","lat":43.29638,"lon":5.37718,"is_reserved":false,"is_disabled":false,"rental_uris":{"android":"levelo://app?vid=24df8b3d-a892-4758-abf7-974c8ac7e817","ios":"levelo://app?vid=24df8b3d-a892-4758-abf7-974c8ac7e817"},"vehicle_type_id":"4","last_reported":1739527752,"current_range_meters":16000,"station_id":"ce4bgi92rcd13ifvqb90","pricing_plan_id":"cebpf4jnsgd1na2vs0mg"},{"bike_id":"469ec595-d539-44ce-b5e7-b970dbdf72ba","system_id":"levelo_inurba_marseille","lat":43.325785,"lon":5.410483,"is_reserved":false,"is_disabled":false,"rental_uris":{"android":"levelo://app?vid=469ec595-d539-44ce-b5e7-b970dbdf72ba","ios":"levelo://app?vid=469ec595-d539-44ce-b5e7-b970dbdf72ba"},"vehicle_type_id":"4","last_reported":1739527752,"current_range_meters":33600,"station_id":"ce4bhq92rcd13ifvqhkg","pricing_plan_id":"cebpf4jnsgd1na2vs0mg"},{"bike_id":"ee566f3d-0e78-4ced-ac1b-e3b33c18e89e","system_id":"levelo_inurba_marseille","lat":43.244,"lon":5.3706,"is_reserved":false,"is_disabled":false,"rental_uris":{"android":"levelo://app?vid=ee566f3d-0e78-4ced-ac1b-e3b33c18e89e","ios":"levelo://app?vid=ee566f3d-0e78-4ced-ac1b-e3b33c18e89e"},"vehicle_type_id":"4","last_reported":1739527752,"current_range_meters":18000,"station_id":"ce4bhhh2rcd13ifvqfk0","pricing_plan_id":"cebpf4jnsgd1na2vs0mg"},{"bike_id":"da7f2fae-5747-45f2-981c-2899a6e7dc68","system_id":"levelo_inurba_marseille","lat":43.25583,"lon":5.38251,"is_reserved":false,"is_disabled":false,"rental_uris":{"android":"levelo://app?vid=da7f2fae-5747-45f2-981c-2899a6e7dc68","ios":"levelo://app?vid=da7f2fae-5747-45f2-981c-2899a6e7dc68"},"vehicle_type_id":"4","last_reported":1739527752,"current_range_meters":26000,"station_id":"ce4bhih2rcd13ifvqfs0","pricing_plan_id":"cebpf4jnsgd1na2vs0mg"},{"bike_id":"a2dd139a-80fa-4830-b151-23f744037270","system_id":"levelo_inurba_marseille","lat":43.29852,"lon":5.36284,"is_reserved":false,"is_disabled":false,"rental_uris":{"android":"levelo://app?vid=a2dd139a-80fa-4830-b151-23f744037270","ios":"levelo://app?vid=a2dd139a-80fa-4830-b151-23f744037270"},"vehicle_type_id":"4","last_reported":1739527752,"current_range_meters":18000,"station_id":"ce4bgpp2rcd13ifvqc3g","pricing_plan_id":"cebpf4jnsgd1na2vs0mg"},{"bike_id":"c640fc38-e54b-4af1-92ad-d2c50e20e738","system_id":"levelo_inurba_marseille","lat":43.2502,"lon":5.38968,"is_reserved":false,"is_disabled":false,"rental_uris":{"android":"levelo://app?vid=c640fc38-e54b-4af1-92ad-d2c50e20e738","ios":"levelo://app?vid=c640fc38-e54b-4af1-92ad-d2c50e20e738"},"vehicle_type_id":"4","last_reported":1739527752,"current_range_meters":38800,"station_id":"ce4bhgp2rcd13ifvqfd0","pricing_plan_id":"cebpf4jnsgd1na2vs0mg"},{"bike_id":"d24e534a-14f5-45ca-9648-29caa01c9b76","system_id":"levelo_inurba_marseille","lat":43.31287,"lon":5.36836,"is_reserved":false,"is_disabled":false,"rental_uris":{"android":"levelo://app?vid=d24e534a-14f5-45ca-9648-29caa01c9b76","ios":"levelo://app?vid=d24e534a-14f5-45ca-9648-29caa01c9b76"},"vehicle_type_id":"4","last_reported":1739527752,"current_range_meters":11600,"station_id":"","pricing_plan_id":"cebpf4jnsgd1na2vs0mg"},{"bike_id":"5befaa08-25a5-49bd-afcd-8980db8935aa","system_id":"levelo_inurba_marseille","lat":43.29975,"lon":5.37178,"is_reserved":false,"is_disabled":false,"rental_uris":{"android":"levelo://app?vid=5befaa08-25a5-49bd-afcd-8980db8935aa","ios":"levelo://app?vid=5befaa08-25a5-49bd-afcd-8980db8935aa"},"vehicle_type_id":"4","last_reported":1739527752,"current_range_meters":10000,"station_id":"ce4bgr92rcd13ifvqc7g","pricing_plan_id":"cebpf4jnsgd1na2vs0mg"},{"bike_id":"d2390134-cb0a-4e75-9b5a-5182f3230d9e","system_id":"levelo_inurba_marseille","lat":43.30141,"lon":5.374,"is_reserved":false,"is_disabled":false,"rental_uris":{"android":"levelo://app?vid=d2390134-cb0a-4e75-9b5a-5182f3230d9e","ios":"levelo://app?vid=d2390134-cb0a-4e75-9b5a-5182f3230d9e"},"vehicle_type_id":"4","last_reported":1739527752,"current_range_meters":38400,"station_id":"ce4bgs92rcd13ifvqcc0","pricing_plan_id":"cebpf4jnsgd1na2vs0mg"},{"bike_id":"3664668f-35bb-49d2-b0dc-d3c1c3dbe8af","system_id":"levelo_inurba_marseille","lat":43.33737,"lon":5.39182,"is_reserved":false,"is_disabled":false,"rental_uris":{"android":"levelo://app?vid=3664668f-35bb-49d2-b0dc-d3c1c3dbe8af","ios":"levelo://app?vid=3664668f-35bb-49d2-b0dc-d3c1c3dbe8af"},"vehicle_type_id":"4","last_reported":1739527752,"current_range_meters":30800,"station_id":"ce4bhr92rcd13ifvqhsg","pricing_plan_id":"cebpf4jnsgd1na2vs0mg"},{"bike_id":"332a81cd-bced-4860-88fd-ebcee5e61513","system_id":"levelo_inurba_marseille","lat":43.27818,"lon":5.40714,"is_reserved":false,"is_disabled":false,"rental_uris":{"android":"levelo://app?vid=332a81cd-bced-4860-88fd-ebcee5e61513","ios":"levelo://app?vid=332a81cd-bced-4860-88fd-ebcee5e61513"},"vehicle_type_id":"4","last_reported":1739527752,"current_range_meters":38800,"station_id":"ce4bhnh2rcd13ifvqgtg","pricing_plan_id":"cebpf4jnsgd1na2vs0mg"},{"bike_id":"9a1bd596-891e-41c0-b39d-868f4bc1734c","system_id":"levelo_inurba_marseille","lat":43.29036,"lon":5.38125,"is_reserved":false,"is_disabled":false,"rental_uris":{"android":"levelo://app?vid=9a1bd596-891e-41c0-b39d-868f4bc1734c","ios":"levelo://app?vid=9a1bd596-891e-41c0-b39d-868f4bc1734c"},"vehicle_type_id":"4","last_reported":1739527752,"current_range_meters":34000,"station_id":"ce4bh4p2rcd13ifvqe1g","pricing_plan_id":"cebpf4jnsgd1na2vs0mg"},{"bike_id":"5659bf41-4cae-4136-bee8-78fe202573fb","system_id":"levelo_inurba_marseille","lat":43.3047,"lon":5.37905,"is_reserved":false,"is_disabled":false,"rental_uris":{"android":"levelo://app?vid=5659bf41-4cae-4136-bee8-78fe202573fb","ios":"levelo://app?vid=5659bf41-4cae-4136-bee8-78fe202573fb"},"vehicle_type_id":"4","last_reported":1739527752,"current_range_meters":38800,"station_id":"ce4bgup2rcd13ifvqcn0","pricing_plan_id":"cebpf4jnsgd1na2vs0mg"},{"bike_id":"6d7e53c6-fdb7-4f45-aefc-31ad7e99f224","system_id":"levelo_inurba_marseille","lat":43.31279,"lon":5.40167,"is_reserved":false,"is_disabled":true,"rental_uris":{"android":"levelo://app?vid=6d7e53c6-fdb7-4f45-aefc-31ad7e99f224","ios":"levelo://app?vid=6d7e53c6-fdb7-4f45-aefc-31ad7e99f224"},"vehicle_type_id":"4","last_reported":1739527752,"current_range_meters":0,"station_id":"ce4bh092rcd13ifvqd30","pricing_plan_id":"cebpf4jnsgd1na2vs0mg"},{"bike_id":"f0993b8a-6947-4b54-a35e-affb12e559b9","system_id":"levelo_inurba_marseille","lat":43.29015,"lon":5.37819,"is_reserved":false,"is_disabled":false,"rental_uris":{"android":"levelo://app?vid=f0993b8a-6947-4b54-a35e-affb12e559b9","ios":"levelo://app?vid=f0993b8a-6947-4b54-a35e-affb12e559b9"},"vehicle_type_id":"4","last_reported":1739527752,"current_range_meters":26000,"station_id":"ce4bh9p2rcd13ifvqed0","pricing_plan_id":"cebpf4jnsgd1na2vs0mg"},{"bike_id":"e5ef80dd-4702-46bb-bfde-5dd61590a716","system_id":"levelo_inurba_marseille","lat":43.29243,"lon":5.40917,"is_reserved":false,"is_disabled":false,"rental_uris":{"android":"levelo://app?vid=e5ef80dd-4702-46bb-bfde-5dd61590a716","ios":"levelo://app?vid=e5ef80dd-4702-46bb-bfde-5dd61590a716"},"vehicle_type_id":"4","last_reported":1739527752,"current_range_meters":36800,"station_id":"ce4bh192rcd13ifvqdc0","pricing_plan_id":"cebpf4jnsgd1na2vs0mg"},{"bike_id":"239feda1-41c9-49d1-bc1c-1b3317fc669d","system_id":"levelo_inurba_marseille","lat":43.29579,"lon":5.37514,"is_reserved":false,"is_disabled":false,"rental_uris":{"android":"levelo://app?vid=239feda1-41c9-49d1-bc1c-1b3317fc669d","ios":"levelo://app?vid=239feda1-41c9-49d1-bc1c-1b3317fc669d"},"vehicle_type_id":"4","last_reported":1739527752,"current_range_meters":38000,"station_id":"ce4bgh92rcd13ifvqb50","pricing_plan_id":"cebpf4jnsgd1na2vs0mg"},{"bike_id":"21436a81-6df8-44c2-ba0f-a6cc1bba2dd1","system_id":"levelo_inurba_marseille","lat":43.28271,"lon":5.35064,"is_reserved":false,"is_disabled":false,"rental_uris":{"android":"levelo://app?vid=21436a81-6df8-44c2-ba0f-a6cc1bba2dd1","ios":"levelo://app?vid=21436a81-6df8-44c2-ba0f-a6cc1bba2dd1"},"vehicle_type_id":"4","last_reported":1739527752,"current_range_meters":26000,"station_id":"ce4bhbp2rcd13ifvqerg","pricing_plan_id":"cebpf4jnsgd1na2vs0mg"},{"bike_id":"83ac87b1-eb5e-42ff-8170-01748b3c858c","system_id":"levelo_inurba_marseille","lat":43.30957,"lon":5.39044,"is_reserved":false,"is_disabled":true,"rental_uris":{"android":"levelo://app?vid=83ac87b1-eb5e-42ff-8170-01748b3c858c","ios":"levelo://app?vid=83ac87b1-eb5e-42ff-8170-01748b3c858c"},"vehicle_type_id":"4","last_reported":1739527752,"current_range_meters":1600,"station_id":"ce4bgup2rcd13ifvqco0","pricing_plan_id":"cebpf4jnsgd1na2vs0mg"},{"bike_id":"c2f84908-cd74-4f47-81ec-0b70f94539e0","system_id":"levelo_inurba_marseille","lat":43.29595,"lon":5.3676,"is_reserved":false,"is_disabled":false,"rental_uris":{"android":"levelo://app?vid=c2f84908-cd74-4f47-81ec-0b70f94539e0","ios":"levelo://app?vid=c2f84908-cd74-4f47-81ec-0b70f94539e0"},"vehicle_type_id":"4","last_reported":1739527752,"current_range_meters":36800,"station_id":"ce4bgph2rcd13ifvqc2g","pricing_plan_id":"cebpf4jnsgd1na2vs0mg"},{"bike_id":"90d6b28b-d2ff-499b-949c-5a4f2ff008b1","system_id":"levelo_inurba_marseille","lat":43.24378,"lon":5.37062,"is_reserved":false,"is_disabled":false,"rental_uris":{"android":"levelo://app?vid=90d6b28b-d2ff-499b-949c-5a4f2ff008b1","ios":"levelo://app?vid=90d6b28b-d2ff-499b-949c-5a4f2ff008b1"},"vehicle_type_id":"4","last_reported":1739527752,"current_range_meters":38800,"station_id":"ce4bhhh2rcd13ifvqfk0","pricing_plan_id":"cebpf4jnsgd1na2vs0mg"},{"bike_id":"b0b874fe-e5e8-4ab9-b081-aaf3953eee13","system_id":"levelo_inurba_marseille","lat":43.25934,"lon":5.40902,"is_reserved":false,"is_disabled":false,"rental_uris":{"android":"levelo://app?vid=b0b874fe-e5e8-4ab9-b081-aaf3953eee13","ios":"levelo://app?vid=b0b874fe-e5e8-4ab9-b081-aaf3953eee13"},"vehicle_type_id":"4","last_reported":1739527752,"current_range_meters":31200,"station_id":"ce4bhm92rcd13ifvqglg","pricing_plan_id":"cebpf4jnsgd1na2vs0mg"},{"bike_id":"c1665b9a-8804-49fb-a2e7-87ab5bdd8b6d","system_id":"levelo_inurba_marseille","lat":43.33736,"lon":5.38949,"is_reserved":false,"is_disabled":false,"rental_uris":{"android":"levelo://app?vid=c1665b9a-8804-49fb-a2e7-87ab5bdd8b6d","ios":"levelo://app?vid=c1665b9a-8804-49fb-a2e7-87ab5bdd8b6d"},"vehicle_type_id":"4","last_reported":1739527752,"current_range_meters":7200,"station_id":"","pricing_plan_id":"cebpf4jnsgd1na2vs0mg"},{"bike_id":"ef24c2a5-27b7-441c-99f6-cdd071edc932","system_id":"levelo_inurba_marseille","lat":43.27377,"lon":5.36256,"is_reserved":false,"is_disabled":false,"rental_uris":{"android":"levelo://app?vid=ef24c2a5-27b7-441c-99f6-cdd071edc932","ios":"levelo://app?vid=ef24c2a5-27b7-441c-99f6-cdd071edc932"},"vehicle_type_id":"4","last_reported":1739527752,"current_range_meters":32800,"station_id":"ce4bhbh2rcd13ifvqeo0","pricing_plan_id":"cebpf4jnsgd1na2vs0mg"},{"bike_id":"1787a334-960d-4d0d-80d6-a35131adce16","system_id":"levelo_inurba_marseille","lat":43.30535,"lon":5.3671,"is_reserved":false,"is_disabled":false,"rental_uris":{"android":"levelo://app?vid=1787a334-960d-4d0d-80d6-a35131adce16","ios":"levelo://app?vid=1787a334-960d-4d0d-80d6-a35131adce16"},"vehicle_type_id":"4","last_reported":1739527752,"current_range_meters":29600,"station_id":"ce4bgrp2rcd13ifvqc9g","pricing_plan_id":"cebpf4jnsgd1na2vs0mg"},{"bike_id":"58ca8d36-3abf-4f9b-bf3f-e62ed0e7a978","system_id":"levelo_inurba_marseille","lat":43.23963,"lon":5.36624,"is_reserved":false,"is_disabled":false,"rental_uris":{"android":"levelo://app?vid=58ca8d36-3abf-4f9b-bf3f-e62ed0e7a978","ios":"levelo://app?vid=58ca8d36-3abf-4f9b-bf3f-e62ed0e7a978"},"vehicle_type_id":"4","last_reported":1739527752,"current_range_meters":10000,"station_id":"ce4bhi12rcd13ifvqfp0","pricing_plan_id":"cebpf4jnsgd1na2vs0mg"},{"bike_id":"57469eb7-78e0-40b4-9953-5ca256ee3dc2","system_id":"levelo_inurba_marseille","lat":43.29618,"lon":5.37155,"is_reserved":false,"is_disabled":false,"rental_uris":{"android":"levelo://app?vid=57469eb7-78e0-40b4-9953-5ca256ee3dc2","ios":"levelo://app?vid=57469eb7-78e0-40b4-9953-5ca256ee3dc2"},"vehicle_type_id":"4","last_reported":1739527752,"current_range_meters":38400,"station_id":"ce4bgnh2rcd13ifvqc0g","pricing_plan_id":"cebpf4jnsgd1na2vs0mg"},{"bike_id":"1fe4fc41-3ba8-411f-85f4-acf1ab827466","system_id":"levelo_inurba_marseille","lat":43.28856,"lon":5.39321,"is_reserved":false,"is_disabled":true,"rental_uris":{"android":"levelo://app?vid=1fe4fc41-3ba8-411f-85f4-acf1ab827466","ios":"levelo://app?vid=1fe4fc41-3ba8-411f-85f4-acf1ab827466"},"vehicle_type_id":"4","last_reported":1739527752,"current_range_meters":35600,"station_id":"ce4bh2p2rcd13ifvqdi0","pricing_plan_id":"cebpf4jnsgd1na2vs0mg"},{"bike_id":"3cd8f755-cd99-4b3d-b670-38446318a104","system_id":"levelo_inurba_marseille","lat":43.29229,"lon":5.36062,"is_reserved":false,"is_disabled":false,"rental_uris":{"android":"levelo://app?vid=3cd8f755-cd99-4b3d-b670-38446318a104","ios":"levelo://app?vid=3cd8f755-cd99-4b3d-b670-38446318a104"},"vehicle_type_id":"4","last_reported":1739527752,"current_range_meters":14000,"station_id":"ce4bhbh2rcd13ifvqeqg","pricing_plan_id":"cebpf4jnsgd1na2vs0mg"},{"bike_id":"3b3af9fc-9ece-4208-81a1-022cf2bf2841","system_id":"levelo_inurba_marseille","lat":43.290366,"lon":5.399548,"is_reserved":false,"is_disabled":false,"rental_uris":{"android":"levelo://app?vid=3b3af9fc-9ece-4208-81a1-022cf2bf2841","ios":"levelo://app?vid=3b3af9fc-9ece-4208-81a1-022cf2bf2841"},"vehicle_type_id":"4","last_reported":1739527752,"current_range_meters":30800,"station_id":"ce4bh392rcd13ifvqdm0","pricing_plan_id":"cebpf4jnsgd1na2vs0mg"},{"bike_id":"d157203c-3a5b-4bbc-9638-6eefce740d5e","system_id":"levelo_inurba_marseille","lat":43.23204,"lon":5.35565,"is_reserved":false,"is_disabled":false,"rental_uris":{"android":"levelo://app?vid=d157203c-3a5b-4bbc-9638-6eefce740d5e","ios":"levelo://app?vid=d157203c-3a5b-4bbc-9638-6eefce740d5e"},"vehicle_type_id":"4","last_reported":1739527752,"current_range_meters":28400,"station_id":"ce4bhu92rcd13ifvqi70","pricing_plan_id":"cebpf4jnsgd1na2vs0mg"},{"bike_id":"78d5db11-1ddc-4faf-b1eb-abd3360d86f8","system_id":"levelo_inurba_marseille","lat":43.2907,"lon":5.40043,"is_reserved":false,"is_disabled":true,"rental_uris":{"android":"levelo://app?vid=78d5db11-1ddc-4faf-b1eb-abd3360d86f8","ios":"levelo://app?vid=78d5db11-1ddc-4faf-b1eb-abd3360d86f8"},"vehicle_type_id":"4","last_reported":1739527752,"current_range_meters":28400,"station_id":"","pricing_plan_id":"cebpf4jnsgd1na2vs0mg"},{"bike_id":"06c31185-7fea-41a6-9b38-d7d18b803c60","system_id":"levelo_inurba_marseille","lat":43.29947,"lon":5.37461,"is_reserved":false,"is_disabled":true,"rental_uris":{"android":"levelo://app?vid=06c31185-7fea-41a6-9b38-d7d18b803c60","ios":"levelo://app?vid=06c31185-7fea-41a6-9b38-d7d18b803c60"},"vehicle_type_id":"4","last_reported":1739527752,"current_range_meters":34000,"station_id":"ce4bgjh2rcd13ifvqbg0","pricing_plan_id":"cebpf4jnsgd1na2vs0mg"},{"bike_id":"41d7049f-3fc0-4500-8ec6-2abc2dbd820b","system_id":"levelo_inurba_marseille","lat":43.29026,"lon":5.3756,"is_reserved":false,"is_disabled":false,"rental_uris":{"android":"levelo://app?vid=41d7049f-3fc0-4500-8ec6-2abc2dbd820b","ios":"levelo://app?vid=41d7049f-3fc0-4500-8ec6-2abc2dbd820b"},"vehicle_type_id":"4","last_reported":1739527752,"current_range_meters":38000,"station_id":"ce4bh692rcd13ifvqe90","pricing_plan_id":"cebpf4jnsgd1na2vs0mg"},{"bike_id":"af7fd431-91f9-47e6-bcb6-0fac534a8073","system_id":"levelo_inurba_marseille","lat":43.27056,"lon":5.402593,"is_reserved":false,"is_disabled":false,"rental_uris":{"android":"levelo://app?vid=af7fd431-91f9-47e6-bcb6-0fac534a8073","ios":"levelo://app?vid=af7fd431-91f9-47e6-bcb6-0fac534a8073"},"vehicle_type_id":"4","last_reported":1739527752,"current_range_meters":27200,"station_id":"ce4bhk92rcd13ifvqgc0","pricing_plan_id":"cebpf4jnsgd1na2vs0mg"},{"bike_id":"fd69a354-560a-462c-a63a-266162e51ddf","system_id":"levelo_inurba_marseille","lat":43.30211,"lon":5.3947,"is_reserved":false,"is_disabled":false,"rental_uris":{"android":"levelo://app?vid=fd69a354-560a-462c-a63a-266162e51ddf","ios":"levelo://app?vid=fd69a354-560a-462c-a63a-266162e51ddf"},"vehicle_type_id":"4","last_reported":1739527752,"current_range_meters":36400,"station_id":"ce4bh0p2rcd13ifvqd70","pricing_plan_id":"cebpf4jnsgd1na2vs0mg"},{"bike_id":"74a9f2cd-231b-46ca-b15c-632533777a7c","system_id":"levelo_inurba_marseille","lat":43.30538,"lon":5.36534,"is_reserved":false,"is_disabled":false,"rental_uris":{"android":"levelo://app?vid=74a9f2cd-231b-46ca-b15c-632533777a7c","ios":"levelo://app?vid=74a9f2cd-231b-46ca-b15c-632533777a7c"},"vehicle_type_id":"4","last_reported":1739527752,"current_range_meters":38800,"station_id":"ce4bgs12rcd13ifvqcag","pricing_plan_id":"cebpf4jnsgd1na2vs0mg"},{"bike_id":"409636b7-a676-4711-9f59-b59336ebcdfc","system_id":"levelo_inurba_marseille","lat":43.24651,"lon":5.38914,"is_reserved":false,"is_disabled":false,"rental_uris":{"android":"levelo://app?vid=409636b7-a676-4711-9f59-b59336ebcdfc","ios":"levelo://app?vid=409636b7-a676-4711-9f59-b59336ebcdfc"},"vehicle_type_id":"4","last_reported":1739527752,"current_range_meters":38800,"station_id":"ce4bhg12rcd13ifvqf60","pricing_plan_id":"cebpf4jnsgd1na2vs0mg"},{"bike_id":"4ff1a592-1614-4ed1-a9be-200a4dec6be2","system_id":"levelo_inurba_marseille","lat":43.28364,"lon":5.38094,"is_reserved":false,"is_disabled":false,"rental_uris":{"android":"levelo://app?vid=4ff1a592-1614-4ed1-a9be-200a4dec6be2","ios":"levelo://app?vid=4ff1a592-1614-4ed1-a9be-200a4dec6be2"},"vehicle_type_id":"4","last_reported":1739527752,"current_range_meters":39200,"station_id":"ce4bh412rcd13ifvqdr0","pricing_plan_id":"cebpf4jnsgd1na2vs0mg"},{"bike_id":"d80860fa-7cf7-4ae7-befb-26e8065381a1","system_id":"levelo_inurba_marseille","lat":43.231914,"lon":5.355542,"is_reserved":false,"is_disabled":false,"rental_uris":{"android":"levelo://app?vid=d80860fa-7cf7-4ae7-befb-26e8065381a1","ios":"levelo://app?vid=d80860fa-7cf7-4ae7-befb-26e8065381a1"},"vehicle_type_id":"4","last_reported":1739527752,"current_range_meters":27600,"station_id":"ce4bhu92rcd13ifvqi70","pricing_plan_id":"cebpf4jnsgd1na2vs0mg"},{"bike_id":"31f84ddc-bf3b-4d1c-9d83-4ffb586bc67a","system_id":"levelo_inurba_marseille","lat":43.32105,"lon":5.36781,"is_reserved":false,"is_disabled":false,"rental_uris":{"android":"levelo://app?vid=31f84ddc-bf3b-4d1c-9d83-4ffb586bc67a","ios":"levelo://app?vid=31f84ddc-bf3b-4d1c-9d83-4ffb586bc67a"},