{"last_updated":1747642580,"ttl":60,"version":"2.2","data":{"bikes":[{"bike_id":"d88ba252-2c34-476a-a696-102145569bb6","system_id":"levelo_inurba_marseille","lat":43.2953,"lon":5.38543,"is_reserved":false,"is_disabled":false,"rental_uris":{"android":"levelo://app?vid=d88ba252-2c34-476a-a696-102145569bb6","ios":"levelo://app?vid=d88ba252-2c34-476a-a696-102145569bb6"},"vehicle_type_id":"4","last_reported":1747642580,"current_range_meters":2800,"station_id":"ce4bgih2rcd13ifvqba0","pricing_plan_id":"cebpf4jnsgd1na2vs0mg"},{"bike_id":"3c35a7c6-3523-4ac7-b4e5-c61b2045bb9b","system_id":"levelo_inurba_marseille","lat":43.27492,"lon":5.42468,"is_reserved":false,"is_disabled":false,"rental_uris":{"android":"levelo://app?vid=3c35a7c6-3523-4ac7-b4e5-c61b2045bb9b","ios":"levelo://app?vid=3c35a7c6-3523-4ac7-b4e5-c61b2045bb9b"},"vehicle_type_id":"4","last_reported":1747642580,"current_range_meters":2800,"station_id":"ce4bhn92rcd13ifvqgrg","pricing_plan_id":"cebpf4jnsgd1na2vs0mg"},{"bike_id":"40bebbe7-b8ce-4e57-8661-54ad7d917796","system_id":"levelo_inurba_marseille","lat":43.296,"lon":5.38101,"is_reserved":false,"is_disabled":false,"rental_uris":{"android":"levelo://app?vid=40bebbe7-b8ce-4e57-8661-54ad7d917796","ios":"levelo://app?vid=40bebbe7-b8ce-4e57-8661-54ad7d917796"},"vehicle_type_id":"4","last_reported":1747642580,"current_range_meters":2800,"station_id":"ce4bgl12rcd13ifvqbo0","pricing_plan_id":"cebpf4jnsgd1na2vs0mg"},{"bike_id":"af2f3908-848e-4879-9c80-b3ddea1b7f0a","system_id":"levelo_inurba_marseille","lat":43.31195,"lon":5.38764,"is_reserved":false,"is_disabled":true,"rental_uris":{"android":"levelo://app?vid=af2f3908-848e-4879-9c80-b3ddea1b7f0a","ios":"levelo://app?vid=af2f3908-848e-4879-9c80-b3ddea1b7f0a"},"vehicle_type_id":"4","last_reported":1747642580,"current_range_meters":2800,"station_id":"ce4bgv12rcd13ifvqcp0","pricing_plan_id":"cebpf4jnsgd1na2vs0mg"},{"bike_id":"5028fc01-908b-4ab2-a0b9-bb293185b3df","system_id":"levelo_inurba_marseille","lat":43.25943,"lon":5.40902,"is_reserved":false,"is_disabled":false,"rental_uris":{"android":"levelo://app?vid=5028fc01-908b-4ab2-a0b9-bb293185b3df","ios":"levelo://app?vid=5028fc01-908b-4ab2-a0b9-bb293185b3df"},"vehicle_type_id":"4","last_reported":1747642580,"current_range_meters":2800,"station_id":"ce4bhm92rcd13ifvqglg","pricing_plan_id":"cebpf4jnsgd1na2vs0mg"},{"bike_id":"398a8fd1-747d-4b0d-84d1-22519fee4719","system_id":"levelo_inurba_marseille","lat":43.27378,"lon":5.36256,"is_reserved":false,"is_disabled":true,"rental_uris":{"android":"levelo://app?vid=398a8fd1-747d-4b0d-84d1-22519fee4719","ios":"levelo://app?vid=398a8fd1-747d-4b0d-84d1-22519fee4719"},"vehicle_type_id":"4","last_reported":1747642580,"current_range_meters":3200,"station_id":"ce4bhbh2rcd13ifvqeo0","pricing_plan_id":"cebpf4jnsgd1na2vs0mg"},{"bike_id":"cac5ff6d-9ea1-45f9-ac15-12cadf7a843c","system_id":"levelo_inurba_marseille","lat":43.27205,"lon":5.39187,"is_reserved":false,"is_disabled":false,"rental_uris":{"android":"levelo://app?vid=cac5ff6d-9ea1-45f9-ac15-12cadf7a843c","ios":"levelo://app?vid=cac5ff6d-9ea1-45f9-ac15-12cadf7a843c"},"vehicle_type_id":"4","last_reported":1747642580,"current_range_meters":3200,"station_id":"","pricing_plan_id":"cebpf4jnsgd1na2vs0mg"},{"bike_id":"d9eaa0f6-4087-4be3-a893-44ae5dfdd35d","system_id":"levelo_inurba_marseille","lat":43.28474,"lon":5.38418,"is_reserved":false,"is_disabled":true,"rental_uris":{"android":"levelo://app?vid=d9eaa0f6-4087-4be3-a893-44ae5dfdd35d","ios":"levelo://app?vid=d9eaa0f6-4087-4be3-a893-44ae5dfdd35d"},"vehicle_type_id":"4","last_reported":1747642580,"current_range_meters":3200,"station_id":"ce4bh512rcd13ifvqe3g","pricing_plan_id":"cebpf4jnsgd1na2vs0mg"},{"bike_id":"3b88c439-397a-4c8f-9857-681badb6264a","system_id":"levelo_inurba_marseille","lat":43.29802,"lon":5.3808,"is_reserved":false,"is_disabled":false,"rental_uris":{"android":"levelo://app?vid=3b88c439-397a-4c8f-9857-681badb6264a","ios":"levelo://app?vid=3b88c439-397a-4c8f-9857-681badb6264a"},"vehicle_type_id":"4","last_reported":1747642580,"current_range_meters":3600,"station_id":"ce4bgip2rcd13ifvqbb0","pricing_plan_id":"cebpf4jnsgd1na2vs0mg"},{"bike_id":"2e52fdbc-9143-4e2d-8d23-9e1515ce3b86","system_id":"levelo_inurba_marseille","lat":43.29893,"lon":5.43676,"is_reserved":false,"is_disabled":false,"rental_uris":{"android":"levelo://app?vid=2e52fdbc-9143-4e2d-8d23-9e1515ce3b86","ios":"levelo://app?vid=2e52fdbc-9143-4e2d-8d23-9e1515ce3b86"},"vehicle_type_id":"4","last_reported":1747642580,"current_range_meters":3600,"station_id":"ce4bhpp2rcd13ifvqhfg","pricing_plan_id":"cebpf4jnsgd1na2vs0mg"},{"bike_id":"bfe448fb-2f91-4bfc-9f87-682acde35158","system_id":"levelo_inurba_marseille","lat":43.2619,"lon":5.374517,"is_reserved":false,"is_disabled":true,"rental_uris":{"android":"levelo://app?vid=bfe448fb-2f91-4bfc-9f87-682acde35158","ios":"levelo://app?vid=bfe448fb-2f91-4bfc-9f87-682acde35158"},"vehicle_type_id":"4","last_reported":1747642580,"current_range_meters":4000,"station_id":"ce4bhgp2rcd13ifvqfc0","pricing_plan_id":"cebpf4jnsgd1na2vs0mg"},{"bike_id":"282c1a2e-b79f-4ebf-95e4-b9475cd2494e","system_id":"levelo_inurba_marseille","lat":43.265,"lon":5.39545,"is_reserved":false,"is_disabled":false,"rental_uris":{"android":"levelo://app?vid=282c1a2e-b79f-4ebf-95e4-b9475cd2494e","ios":"levelo://app?vid=282c1a2e-b79f-4ebf-95e4-b9475cd2494e"},"vehicle_type_id":"4","last_reported":1747642580,"current_range_meters":4400,"station_id":"ce4bhi12rcd13ifvqfq0","pricing_plan_id":"cebpf4jnsgd1na2vs0mg"},{"bike_id":"b934e6da-efb5-4ac5-a51a-eb50220f6e1b","system_id":"levelo_inurba_marseille","lat":43.269835,"lon":5.405858,"is_reserved":false,"is_disabled":true,"rental_uris":{"android":"levelo://app?vid=b934e6da-efb5-4ac5-a51a-eb50220f6e1b","ios":"levelo://app?vid=b934e6da-efb5-4ac5-a51a-eb50220f6e1b"},"vehicle_type_id":"4","last_reported":1747642580,"current_range_meters":4800,"station_id":"","pricing_plan_id":"cebpf4jnsgd1na2vs0mg"},{"bike_id":"c0db4030-ef30-480b-a735-af5435a471ed","system_id":"levelo_inurba_marseille","lat":43.27731,"lon":5.42671,"is_reserved":false,"is_disabled":false,"rental_uris":{"android":"levelo://app?vid=c0db4030-ef30-480b-a735-af5435a471ed","ios":"levelo://app?vid=c0db4030-ef30-480b-a735-af5435a471ed"},"vehicle_type_id":"4","last_reported":1747642580,"current_range_meters":4800,"station_id":"","pricing_plan_id":"cebpf4jnsgd1na2vs0mg"},{"bike_id":"9be12a09-efe5-495b-8ec3-e7e0d7473370","system_id":"levelo_inurba_marseille","lat":43.29594,"lon":5.38106,"is_reserved":false,"is_disabled":true,"rental_uris":{"android":"levelo://app?vid=9be12a09-efe5-495b-8ec3-e7e0d7473370","ios":"levelo://app?vid=9be12a09-efe5-495b-8ec3-e7e0d7473370"},"vehicle_type_id":"4","last_reported":1747642580,"current_range_meters":4800,"station_id":"ce4bgl12rcd13ifvqbo0","pricing_plan_id":"cebpf4jnsgd1na2vs0mg"},{"bike_id":"1cac7d79-cea0-4f3f-867c-0b76448b3171","system_id":"levelo_inurba_marseille","lat":43.23967,"lon":5.36632,"is_reserved":false,"is_disabled":false,"rental_uris":{"android":"levelo://app?vid=1cac7d79-cea0-4f3f-867c-0b76448b3171","ios":"levelo://app?vid=1cac7d79-cea0-4f3f-867c-0b76448b3171"},"vehicle_type_id":"4","last_reported":1747642580,"current_range_meters":4400,"station_id":"ce4bhi12rcd13ifvqfp0","pricing_plan_id":"cebpf4jnsgd1na2vs0mg"},{"bike_id":"d9250821-ef9d-428c-835a-a09353bbcb0d","system_id":"levelo_inurba_marseille","lat":43.329284,"lon":5.407851,"is_reserved":false,"is_disabled":false,"rental_uris":{"android":"levelo://app?vid=d9250821-ef9d-428c-835a-a09353bbcb0d","ios":"levelo://app?vid=d9250821-ef9d-428c-835a-a09353bbcb0d"},"vehicle_type_id":"4","last_reported":1747642580,"current_range_meters":4800,"station_id":"ce4bhqh2rcd13ifvqhmg","pricing_plan_id":"cebpf4jnsgd1na2vs0mg"},{"bike_id":"64a67e39-e7aa-410d-a057-e28b1f3dcfb0","system_id":"levelo_inurba_marseille","lat":43.25934,"lon":5.40908,"is_reserved":false,"is_disabled":false,"rental_uris":{"android":"levelo://app?vid=64a67e39-e7aa-410d-a057-e28b1f3dcfb0","ios":"levelo://app?vid=64a67e39-e7aa-410d-a057-e28b1f3dcfb0"},"vehicle_type_id":"4","last_reported":1747642580,"current_range_meters":4800,"station_id":"ce4bhm92rcd13ifvqglg","pricing_plan_id":"cebpf4jnsgd1na2vs0mg"},{"bike_id":"ead550e1-fd54-467c-9c20-02577cc380d6","system_id":"levelo_inurba_marseille","lat":43.24649,"lon":5.38889,"is_reserved":false,"is_disabled":false,"rental_uris":{"android":"levelo://app?vid=ead550e1-fd54-467c-9c20-02577cc380d6","ios":"levelo://app?vid=ead550e1-fd54-467c-9c20-02577cc380d6"},"vehicle_type_id":"4","last_reported":1747642580,"current_range_meters":4400,"station_id":"ce4bhg12rcd13ifvqf60","pricing_plan_id":"cebpf4jnsgd1na2vs0mg"},{"bike_id":"5c030aad-85cb-44ff-91e6-bb5891869bae","system_id":"levelo_inurba_marseille","lat":43.337444,"lon":5.374475,"is_reserved":false,"is_disabled":false,"rental_uris":{"android":"levelo://app?vid=5c030aad-85cb-44ff-91e6-bb5891869bae","ios":"levelo://app?vid=5c030aad-85cb-44ff-91e6-bb5891869bae"},"vehicle_type_id":"4","last_reported":1747642580,"current_range_meters":4800,"station_id":"ce4bhr92rcd13ifvqhrg","pricing_plan_id":"cebpf4jnsgd1na2vs0mg"},{"bike_id":"2b0ad624-d22e-4854-9f9a-87fc79abcd99","system_id":"levelo_inurba_marseille","lat":43.30313,"lon":5.39221,"is_reserved":false,"is_disabled":false,"rental_uris":{"android":"levelo://app?vid=2b0ad624-d22e-4854-9f9a-87fc79abcd99","ios":"levelo://app?vid=2b0ad624-d22e-4854-9f9a-87fc79abcd99"},"vehicle_type_id":"4","last_reported":1747642580,"current_range_meters":5600,"station_id":"ce4bgkh2rcd13ifvqbk0","pricing_plan_id":"cebpf4jnsgd1na2vs0mg"},{"bike_id":"0fb02880-5c6e-4026-9e4a-07529c572b44","system_id":"levelo_inurba_marseille","lat":43.2549,"lon":5.37386,"is_reserved":false,"is_disabled":false,"rental_uris":{"android":"levelo://app?vid=0fb02880-5c6e-4026-9e4a-07529c572b44","ios":"levelo://app?vid=0fb02880-5c6e-4026-9e4a-07529c572b44"},"vehicle_type_id":"4","last_reported":1747642580,"current_range_meters":6400,"station_id":"","pricing_plan_id":"cebpf4jnsgd1na2vs0mg"},{"bike_id":"56401a98-a1f3-4dc3-a5c9-cdc7d1432a1b","system_id":"levelo_inurba_marseille","lat":43.24178,"lon":5.3972,"is_reserved":false,"is_disabled":false,"rental_uris":{"android":"levelo://app?vid=56401a98-a1f3-4dc3-a5c9-cdc7d1432a1b","ios":"levelo://app?vid=56401a98-a1f3-4dc3-a5c9-cdc7d1432a1b"},"vehicle_type_id":"4","last_reported":1747642580,"current_range_meters":6400,"station_id":"ce4bhn12rcd13ifvqgpg","pricing_plan_id":"cebpf4jnsgd1na2vs0mg"},{"bike_id":"0a80dab0-019f-412e-9426-7c721bdddfca","system_id":"levelo_inurba_marseille","lat":43.24661,"lon":5.38169,"is_reserved":false,"is_disabled":false,"rental_uris":{"android":"levelo://app?vid=0a80dab0-019f-412e-9426-7c721bdddfca","ios":"levelo://app?vid=0a80dab0-019f-412e-9426-7c721bdddfca"},"vehicle_type_id":"4","last_reported":1747642580,"current_range_meters":6400,"station_id":"ce4bhih2rcd13ifvqfr0","pricing_plan_id":"cebpf4jnsgd1na2vs0mg"},{"bike_id":"cad6e47d-9c83-48a0-8d82-8cee97d27c1d","system_id":"levelo_inurba_marseille","lat":43.25875,"lon":5.39897,"is_reserved":false,"is_disabled":false,"rental_uris":{"android":"levelo://app?vid=cad6e47d-9c83-48a0-8d82-8cee97d27c1d","ios":"levelo://app?vid=cad6e47d-9c83-48a0-8d82-8cee97d27c1d"},"vehicle_type_id":"4","last_reported":1747642580,"current_range_meters":6400,"station_id":"ce4bhl92rcd13ifvqghg","pricing_plan_id":"cebpf4jnsgd1na2vs0mg"},{"bike_id":"14603e41-b2dd-4757-a53c-2e366aa4f983","system_id":"levelo_inurba_marseille","lat":43.26998,"lon":5.42835,"is_reserved":false,"is_disabled":false,"rental_uris":{"android":"levelo://app?vid=14603e41-b2dd-4757-a53c-2e366aa4f983","ios":"levelo://app?vid=14603e41-b2dd-4757-a53c-2e366aa4f983"},"vehicle_type_id":"4","last_reported":1747642580,"current_range_meters":6400,"station_id":"","pricing_plan_id":"cebpf4jnsgd1na2vs0mg"},{"bike_id":"93adb21e-0831-48f3-8e4e-6045d2a8de73","system_id":"levelo_inurba_marseille","lat":43.24662,"lon":5.3815,"is_reserved":false,"is_disabled":false,"rental_uris":{"android":"levelo://app?vid=93adb21e-0831-48f3-8e4e-6045d2a8de73","ios":"levelo://app?vid=93adb21e-0831-48f3-8e4e-6045d2a8de73"},"vehicle_type_id":"4","last_reported":1747642580,"current_range_meters":6800,"station_id":"ce4bhih2rcd13ifvqfr0","pricing_plan_id":"cebpf4jnsgd1na2vs0mg"},{"bike_id":"2eab994d-a378-4391-894b-b62d11a34041","system_id":"levelo_inurba_marseille","lat":43.23162,"lon":5.43699,"is_reserved":false,"is_disabled":true,"rental_uris":{"android":"levelo://app?vid=2eab994d-a378-4391-894b-b62d11a34041","ios":"levelo://app?vid=2eab994d-a378-4391-894b-b62d11a34041"},"vehicle_type_id":"4","last_reported":1747642580,"current_range_meters":6800,"station_id":"ce4bhmp2rcd13ifvqgog","pricing_plan_id":"cebpf4jnsgd1na2vs0mg"},{"bike_id":"1cdd5740-8a16-4bc1-9209-605ad6f095f3","system_id":"levelo_inurba_marseille","lat":43.2749,"lon":5.42451,"is_reserved":false,"is_disabled":true,"rental_uris":{"android":"levelo://app?vid=1cdd5740-8a16-4bc1-9209-605ad6f095f3","ios":"levelo://app?vid=1cdd5740-8a16-4bc1-9209-605ad6f095f3"},"vehicle_type_id":"4","last_reported":1747642580,"current_range_meters":6800,"station_id":"ce4bhn92rcd13ifvqgrg","pricing_plan_id":"cebpf4jnsgd1na2vs0mg"},{"bike_id":"12368442-c8f7-40b2-a2ff-4577af203d32","system_id":"levelo_inurba_marseille","lat":43.26566,"lon":5.37301,"is_reserved":false,"is_disabled":false,"rental_uris":{"android":"levelo://app?vid=12368442-c8f7-40b2-a2ff-4577af203d32","ios":"levelo://app?vid=12368442-c8f7-40b2-a2ff-4577af203d32"},"vehicle_type_id":"4","last_reported":1747642580,"current_range_meters":6800,"station_id":"ce4bhg12rcd13ifvqf70","pricing_plan_id":"cebpf4jnsgd1na2vs0mg"},{"bike_id":"f954ecb8-d41f-420c-a766-de85f5ca14af","system_id":"levelo_inurba_marseille","lat":43.30467,"lon":5.37913,"is_reserved":false,"is_disabled":false,"rental_uris":{"android":"levelo://app?vid=f954ecb8-d41f-420c-a766-de85f5ca14af","ios":"levelo://app?vid=f954ecb8-d41f-420c-a766-de85f5ca14af"},"vehicle_type_id":"4","last_reported":1747642580,"current_range_meters":6800,"station_id":"ce4bgup2rcd13ifvqcn0","pricing_plan_id":"cebpf4jnsgd1na2vs0mg"},{"bike_id":"9dbadacf-fbbb-4744-b239-0fae16a8ed75","system_id":"levelo_inurba_marseille","lat":43.270522,"lon":5.402546,"is_reserved":false,"is_disabled":true,"rental_uris":{"android":"levelo://app?vid=9dbadacf-fbbb-4744-b239-0fae16a8ed75","ios":"levelo://app?vid=9dbadacf-fbbb-4744-b239-0fae16a8ed75"},"vehicle_type_id":"4","last_reported":1747642580,"current_range_meters":7200,"station_id":"","pricing_plan_id":"cebpf4jnsgd1na2vs0mg"},{"bike_id":"88229558-17ff-436c-91d4-c14a84c620af","system_id":"levelo_inurba_marseille","lat":43.29857,"lon":5.36278,"is_reserved":false,"is_disabled":false,"rental_uris":{"android":"levelo://app?vid=88229558-17ff-436c-91d4-c14a84c620af","ios":"levelo://app?vid=88229558-17ff-436c-91d4-c14a84c620af"},"vehicle_type_id":"4","last_reported":1747642580,"current_range_meters":7200,"station_id":"ce4bgpp2rcd13ifvqc3g","pricing_plan_id":"cebpf4jnsgd1na2vs0mg"},{"bike_id":"492d9a6c-4191-4b31-8370-859b77c601c3","system_id":"levelo_inurba_marseille","lat":43.26956,"lon":5.38634,"is_reserved":false,"is_disabled":false,"rental_uris":{"android":"levelo://app?vid=492d9a6c-4191-4b31-8370-859b77c601c3","ios":"levelo://app?vid=492d9a6c-4191-4b31-8370-859b77c601c3"},"vehicle_type_id":"4","last_reported":1747642580,"current_range_meters":7200,"station_id":"ce4bhh92rcd13ifvqfh0","pricing_plan_id":"cebpf4jnsgd1na2vs0mg"},{"bike_id":"67f72f62-eb9d-4994-bbcf-c10b28dd838c","system_id":"levelo_inurba_marseille","lat":43.26604,"lon":5.39366,"is_reserved":false,"is_disabled":false,"rental_uris":{"android":"levelo://app?vid=67f72f62-eb9d-4994-bbcf-c10b28dd838c","ios":"levelo://app?vid=67f72f62-eb9d-4994-bbcf-c10b28dd838c"},"vehicle_type_id":"4","last_reported":1747642580,"current_range_meters":7200,"station_id":"","pricing_plan_id":"cebpf4jnsgd1na2vs0mg"},{"bike_id":"7c2f31a5-29a4-4b38-92a3-a37e6e9acbd5","system_id":"levelo_inurba_marseille","lat":43.25733,"lon":5.41102,"is_reserved":false,"is_disabled":false,"rental_uris":{"android":"levelo://app?vid=7c2f31a5-29a4-4b38-92a3-a37e6e9acbd5","ios":"levelo://app?vid=7c2f31a5-29a4-4b38-92a3-a37e6e9acbd5"},"vehicle_type_id":"4","last_reported":1747642580,"current_range_meters":7200,"station_id":"ce4bhkp2rcd13ifvqgd0","pricing_plan_id":"cebpf4jnsgd1na2vs0mg"},{"bike_id":"05625a45-6c8d-4a3d-a04d-cdc3fc73f55c","system_id":"levelo_inurba_marseille","lat":43.27492,"lon":5.42456,"is_reserved":false,"is_disabled":false,"rental_uris":{"android":"levelo://app?vid=05625a45-6c8d-4a3d-a04d-cdc3fc73f55c","ios":"levelo://app?vid=05625a45-6c8d-4a3d-a04d-cdc3fc73f55c"},"vehicle_type_id":"4","last_reported":1747642580,"current_range_meters":7200,"station_id":"ce4bhn92rcd13ifvqgrg","pricing_plan_id":"cebpf4jnsgd1na2vs0mg"},{"bike_id":"88c266e6-7038-494f-b358-90ca603fb435","system_id":"levelo_inurba_marseille","lat":43.29559,"lon":5.37505,"is_reserved":false,"is_disabled":true,"rental_uris":{"android":"levelo://app?vid=88c266e6-7038-494f-b358-90ca603fb435","ios":"levelo://app?vid=88c266e6-7038-494f-b358-90ca603fb435"},"vehicle_type_id":"4","last_reported":1747642580,"current_range_meters":7200,"station_id":"ce4bgh92rcd13ifvqb50","pricing_plan_id":"cebpf4jnsgd1na2vs0mg"},{"bike_id":"ffc3ddf2-0082-4578-9e25-c91f5b4279bc","system_id":"levelo_inurba_marseille","lat":43.28328,"lon":5.41119,"is_reserved":false,"is_disabled":false,"rental_uris":{"android":"levelo://app?vid=ffc3ddf2-0082-4578-9e25-c91f5b4279bc","ios":"levelo://app?vid=ffc3ddf2-0082-4578-9e25-c91f5b4279bc"},"vehicle_type_id":"4","last_reported":1747642580,"current_range_meters":7200,"station_id":"","pricing_plan_id":"cebpf4jnsgd1na2vs0mg"},{"bike_id":"caf4c81d-8b81-4d8d-a4f9-9d00bac7ad70","system_id":"levelo_inurba_marseille","lat":43.30794,"lon":5.42769,"is_reserved":false,"is_disabled":false,"rental_uris":{"android":"levelo://app?vid=caf4c81d-8b81-4d8d-a4f9-9d00bac7ad70","ios":"levelo://app?vid=caf4c81d-8b81-4d8d-a4f9-9d00bac7ad70"},"vehicle_type_id":"4","last_reported":1747642580,"current_range_meters":7200,"station_id":"","pricing_plan_id":"cebpf4jnsgd1na2vs0mg"},{"bike_id":"35f3e9bd-6483-4f80-9ef2-e0c1d36d9830","system_id":"levelo_inurba_marseille","lat":43.25937,"lon":5.40909,"is_reserved":false,"is_disabled":false,"rental_uris":{"android":"levelo://app?vid=35f3e9bd-6483-4f80-9ef2-e0c1d36d9830","ios":"levelo://app?vid=35f3e9bd-6483-4f80-9ef2-e0c1d36d9830"},"vehicle_type_id":"4","last_reported":1747642580,"current_range_meters":8000,"station_id":"ce4bhm92rcd13ifvqglg","pricing_plan_id":"cebpf4jnsgd1na2vs0mg"},{"bike_id":"b9525ad5-2e09-44e2-a48b-a9c7b0f9b124","system_id":"levelo_inurba_marseille","lat":43.241675,"lon":5.397305,"is_reserved":false,"is_disabled":false,"rental_uris":{"android":"levelo://app?vid=b9525ad5-2e09-44e2-a48b-a9c7b0f9b124","ios":"levelo://app?vid=b9525ad5-2e09-44e2-a48b-a9c7b0f9b124"},"vehicle_type_id":"4","last_reported":1747642580,"current_range_meters":8000,"station_id":"ce4bhn12rcd13ifvqgpg","pricing_plan_id":"cebpf4jnsgd1na2vs0mg"},{"bike_id":"e094f58b-0649-4160-8bf4-5d377a645ced","system_id":"levelo_inurba_marseille","lat":43.26958,"lon":5.38637,"is_reserved":false,"is_disabled":false,"rental_uris":{"android":"levelo://app?vid=e094f58b-0649-4160-8bf4-5d377a645ced","ios":"levelo://app?vid=e094f58b-0649-4160-8bf4-5d377a645ced"},"vehicle_type_id":"4","last_reported":1747642580,"current_range_meters":8000,"station_id":"ce4bhh92rcd13ifvqfh0","pricing_plan_id":"cebpf4jnsgd1na2vs0mg"},{"bike_id":"33458e75-7880-4e9f-8a43-38f2ba862694","system_id":"levelo_inurba_marseille","lat":43.28943,"lon":5.3638,"is_reserved":false,"is_disabled":false,"rental_uris":{"android":"levelo://app?vid=33458e75-7880-4e9f-8a43-38f2ba862694","ios":"levelo://app?vid=33458e75-7880-4e9f-8a43-38f2ba862694"},"vehicle_type_id":"4","last_reported":1747642580,"current_range_meters":8000,"station_id":"ce4bhc92rcd13ifvqetg","pricing_plan_id":"cebpf4jnsgd1na2vs0mg"},{"bike_id":"9e9bf122-002d-4b2b-80cf-72cefc9e6351","system_id":"levelo_inurba_marseille","lat":43.25942,"lon":5.4089,"is_reserved":false,"is_disabled":true,"rental_uris":{"android":"levelo://app?vid=9e9bf122-002d-4b2b-80cf-72cefc9e6351","ios":"levelo://app?vid=9e9bf122-002d-4b2b-80cf-72cefc9e6351"},"vehicle_type_id":"4","last_reported":1747642580,"current_range_meters":8000,"station_id":"ce4bhm92rcd13ifvqglg","pricing_plan_id":"cebpf4jnsgd1na2vs0mg"},{"bike_id":"1b2f0e19-c9dc-4000-8367-67c619535c14","system_id":"levelo_inurba_marseille","lat":43.29935,"lon":5.36533,"is_reserved":false,"is_disabled":false,"rental_uris":{"android":"levelo://app?vid=1b2f0e19-c9dc-4000-8367-67c619535c14","ios":"levelo://app?vid=1b2f0e19-c9dc-4000-8367-67c619535c14"},"vehicle_type_id":"4","last_reported":1747642580,"current_range_meters":8000,"station_id":"ce4bgm92rcd13ifvqbr0","pricing_plan_id":"cebpf4jnsgd1na2vs0mg"},{"bike_id":"28560fde-54b2-46de-ad22-eadf2d227af8","system_id":"levelo_inurba_marseille","lat":43.29022,"lon":5.39972,"is_reserved":false,"is_disabled":false,"rental_uris":{"android":"levelo://app?vid=28560fde-54b2-46de-ad22-eadf2d227af8","ios":"levelo://app?vid=28560fde-54b2-46de-ad22-eadf2d227af8"},"vehicle_type_id":"4","last_reported":1747642580,"current_range_meters":8400,"station_id":"ce4bh392rcd13ifvqdm0","pricing_plan_id":"cebpf4jnsgd1na2vs0mg"},{"bike_id":"2a8245b3-58cd-4ef5-a9e5-33e3d9ed0d98","system_id":"levelo_inurba_marseille","lat":43.217502,"lon":5.346002,"is_reserved":false,"is_disabled":true,"rental_uris":{"android":"levelo://app?vid=2a8245b3-58cd-4ef5-a9e5-33e3d9ed0d98","ios":"levelo://app?vid=2a8245b3-58cd-4ef5-a9e5-33e3d9ed0d98"},"vehicle_type_id":"4","last_reported":1747642580,"current_range_meters":8400,"station_id":"st_cvj6r9ubvosntc0bgbag","pricing_plan_id":"cebpf4jnsgd1na2vs0mg"},{"bike_id":"f22ad3cb-9e51-4451-8b19-2aa0bafca808","system_id":"levelo_inurba_marseille","lat":43.28434,"lon":5.39204,"is_reserved":false,"is_disabled":false,"rental_uris":{"android":"levelo://app?vid=f22ad3cb-9e51-4451-8b19-2aa0bafca808","ios":"levelo://app?vid=f22ad3cb-9e51-4451-8b19-2aa0bafca808"},"vehicle_type_id":"4","last_reported":1747642580,"current_range_meters":8400,"station_id":"ce4bhoh2rcd13ifvqh5g","pricing_plan_id":"cebpf4jnsgd1na2vs0mg"},{"bike_id":"012904f8-8c9e-4c86-af5f-f7eb945b74aa","system_id":"levelo_inurba_marseille","lat":43.24663,"lon":5.38902,"is_reserved":false,"is_disabled":false,"rental_uris":{"android":"levelo://app?vid=012904f8-8c9e-4c86-af5f-f7eb945b74aa","ios":"levelo://app?vid=012904f8-8c9e-4c86-af5f-f7eb945b74aa"},"vehicle_type_id":"4","last_reported":1747642580,"current_range_meters":8400,"station_id":"ce4bhg12rcd13ifvqf60","pricing_plan_id":"cebpf4jnsgd1na2vs0mg"},{"bike_id":"c608898e-58b6-42f7-903a-6008119c7a64","system_id":"levelo_inurba_marseille","lat":43.24075,"lon":5.37735,"is_reserved":false,"is_disabled":false,"rental_uris":{"android":"levelo://app?vid=c608898e-58b6-42f7-903a-6008119c7a64","ios":"levelo://app?vid=c608898e-58b6-42f7-903a-6008119c7a64"},"vehicle_type_id":"4","last_reported":1747642580,"current_range_meters":8400,"station_id":"ce4bhnp2rcd13ifvqgvg","pricing_plan_id":"cebpf4jnsgd1na2vs0mg"},{"bike_id":"6ee7001e-07ad-49d2-9902-4e2095457f59","system_id":"levelo_inurba_marseille","lat":43.27067,"lon":5.42271,"is_reserved":false,"is_disabled":false,"rental_uris":{"android":"levelo://app?vid=6ee7001e-07ad-49d2-9902-4e2095457f59","ios":"levelo://app?vid=6ee7001e-07ad-49d2-9902-4e2095457f59"},"vehicle_type_id":"4","last_reported":1747642580,"current_range_meters":8800,"station_id":"ce4bhk92rcd13ifvqgb0","pricing_plan_id":"cebpf4jnsgd1na2vs0mg"},{"bike_id":"e44294fe-fee4-4ac5-b577-8dde0b794d81","system_id":"levelo_inurba_marseille","lat":43.29708,"lon":5.36618,"is_reserved":false,"is_disabled":false,"rental_uris":{"android":"levelo://app?vid=e44294fe-fee4-4ac5-b577-8dde0b794d81","ios":"levelo://app?vid=e44294fe-fee4-4ac5-b577-8dde0b794d81"},"vehicle_type_id":"4","last_reported":1747642580,"current_range_meters":8800,"station_id":"ce4bgn12rcd13ifvqbt0","pricing_plan_id":"cebpf4jnsgd1na2vs0mg"},{"bike_id":"b009fc44-486f-4e0c-be87-bb3ee54a480e","system_id":"levelo_inurba_marseille","lat":43.24084,"lon":5.37752,"is_reserved":false,"is_disabled":false,"rental_uris":{"android":"levelo://app?vid=b009fc44-486f-4e0c-be87-bb3ee54a480e","ios":"levelo://app?vid=b009fc44-486f-4e0c-be87-bb3ee54a480e"},"vehicle_type_id":"4","last_reported":1747642580,"current_range_meters":8800,"station_id":"ce4bhnp2rcd13ifvqgvg","pricing_plan_id":"cebpf4jnsgd1na2vs0mg"},{"bike_id":"7dbc09ef-b15a-4fa5-8e15-8988a7a6afa8","system_id":"levelo_inurba_marseille","lat":43.27498,"lon":5.42455,"is_reserved":false,"is_disabled":false,"rental_uris":{"android":"levelo://app?vid=7dbc09ef-b15a-4fa5-8e15-8988a7a6afa8","ios":"levelo://app?vid=7dbc09ef-b15a-4fa5-8e15-8988a7a6afa8"},"vehicle_type_id":"4","last_reported":1747642580,"current_range_meters":8800,"station_id":"ce4bhn92rcd13ifvqgrg","pricing_plan_id":"cebpf4jnsgd1na2vs0mg"},{"bike_id":"d781b629-1ff2-46fd-afbf-ef8cd53974dd","system_id":"levelo_inurba_marseille","lat":43.2903,"lon":5.37569,"is_reserved":false,"is_disabled":false,"rental_uris":{"android":"levelo://app?vid=d781b629-1ff2-46fd-afbf-ef8cd53974dd","ios":"levelo://app?vid=d781b629-1ff2-46fd-afbf-ef8cd53974dd"},"vehicle_type_id":"4","last_reported":1747642580,"current_range_meters":8800,"station_id":"ce4bh692rcd13ifvqe90","pricing_plan_id":"cebpf4jnsgd1na2vs0mg"},{"bike_id":"4106f574-ab9b-40b2-b34e-1758475aa72b","system_id":"levelo_inurba_marseille","lat":43.31329,"lon":5.36745,"is_reserved":false,"is_disabled":false,"rental_uris":{"android":"levelo://app?vid=4106f574-ab9b-40b2-b34e-1758475aa72b","ios":"levelo://app?vid=4106f574-ab9b-40b2-b34e-1758475aa72b"},"vehicle_type_id":"4","last_reported":1747642580,"current_range_meters":8800,"station_id":"ce4bgr92rcd13ifvqc6g","pricing_plan_id":"cebpf4jnsgd1na2vs0mg"},{"bike_id":"2a4b3516-2bab-4f78-a10c-03363976888b","system_id":"levelo_inurba_marseille","lat":43.24656,"lon":5.3817,"is_reserved":false,"is_disabled":false,"rental_uris":{"android":"levelo://app?vid=2a4b3516-2bab-4f78-a10c-03363976888b","ios":"levelo://app?vid=2a4b3516-2bab-4f78-a10c-03363976888b"},"vehicle_type_id":"4","last_reported":1747642580,"current_range_meters":9200,"station_id":"ce4bhih2rcd13ifvqfr0","pricing_plan_id":"cebpf4jnsgd1na2vs0mg"},{"bike_id":"bd63af97-abc5-409f-831b-e146ceff57a2","system_id":"levelo_inurba_marseille","lat":43.245867,"lon":5.430291,"is_reserved":false,"is_disabled":false,"rental_uris":{"android":"levelo://app?vid=bd63af97-abc5-409f-831b-e146ceff57a2","ios":"levelo://app?vid=bd63af97-abc5-409f-831b-e146ceff57a2"},"vehicle_type_id":"4","last_reported":1747642580,"current_range_meters":9200,"station_id":"ce4bhmp2rcd13ifvqgog","pricing_plan_id":"cebpf4jnsgd1na2vs0mg"},{"bike_id":"43f1602f-34bf-4c10-b724-7739fc85c180","system_id":"levelo_inurba_marseille","lat":43.29259,"lon":5.40907,"is_reserved":false,"is_disabled":false,"rental_uris":{"android":"levelo://app?vid=43f1602f-34bf-4c10-b724-7739fc85c180","ios":"levelo://app?vid=43f1602f-34bf-4c10-b724-7739fc85c180"},"vehicle_type_id":"4","last_reported":1747642580,"current_range_meters":9200,"station_id":"ce4bh192rcd13ifvqdc0","pricing_plan_id":"cebpf4jnsgd1na2vs0mg"},{"bike_id":"726864cd-c8cb-4f32-be66-83d53d12225e","system_id":"levelo_inurba_marseille","lat":43.23176,"lon":5.39987,"is_reserved":false,"is_disabled":false,"rental_uris":{"android":"levelo://app?vid=726864cd-c8cb-4f32-be66-83d53d12225e","ios":"levelo://app?vid=726864cd-c8cb-4f32-be66-83d53d12225e"},"vehicle_type_id":"4","last_reported":1747642580,"current_range_meters":9200,"station_id":"ce4bhn12rcd13ifvqgqg","pricing_plan_id":"cebpf4jnsgd1na2vs0mg"},{"bike_id":"eb0f4376-06d5-481a-8d28-a7fbd2c96f86","system_id":"levelo_inurba_marseille","lat":43.30532,"lon":5.36714,"is_reserved":false,"is_disabled":false,"rental_uris":{"android":"levelo://app?vid=eb0f4376-06d5-481a-8d28-a7fbd2c96f86","ios":"levelo://app?vid=eb0f4376-06d5-481a-8d28-a7fbd2c96f86"},"vehicle_type_id":"4","last_reported":1747642580,"current_range_meters":9200,"station_id":"ce4bgrp2rcd13ifvqc9g","pricing_plan_id":"cebpf4jnsgd1na2vs0mg"},{"bike_id":"c31f245f-f296-4b68-8e8e-7fd18a22b805","system_id":"levelo_inurba_marseille","lat":43.26941,"lon":5.40244,"is_reserved":false,"is_disabled":false,"rental_uris":{"android":"levelo://app?vid=c31f245f-f296-4b68-8e8e-7fd18a22b805","ios":"levelo://app?vid=c31f245f-f296-4b68-8e8e-7fd18a22b805"},"vehicle_type_id":"4","last_reported":1747642580,"current_range_meters":9600,"station_id":"cjm6bp8fraef2m0cb0m0","pricing_plan_id":"cebpf4jnsgd1na2vs0mg"},{"bike_id":"018dda92-33f7-4f9c-9997-940b853b8743","system_id":"levelo_inurba_marseille","lat":43.27461,"lon":5.39425,"is_reserved":false,"is_disabled":true,"rental_uris":{"android":"levelo://app?vid=018dda92-33f7-4f9c-9997-940b853b8743","ios":"levelo://app?vid=018dda92-33f7-4f9c-9997-940b853b8743"},"vehicle_type_id":"4","last_reported":1747642580,"current_range_meters":9600,"station_id":"","pricing_plan_id":"cebpf4jnsgd1na2vs0mg"},{"bike_id":"983e6f26-96b5-4100-b34a-ba3baf053a67","system_id":"levelo_inurba_marseille","lat":43.2929,"lon":5.37437,"is_reserved":false,"is_disabled":false,"rental_uris":{"android":"levelo://app?vid=983e6f26-96b5-4100-b34a-ba3baf053a67","ios":"levelo://app?vid=983e6f26-96b5-4100-b34a-ba3baf053a67"},"vehicle_type_id":"4","last_reported":1747642580,"current_range_meters":9600,"station_id":"ce4bgi12rcd13ifvqb70","pricing_plan_id":"cebpf4jnsgd1na2vs0mg"},{"bike_id":"d917c31b-3228-4b16-88e6-e14fbb59058e","system_id":"levelo_inurba_marseille","lat":43.29629,"lon":5.40596,"is_reserved":false,"is_disabled":false,"rental_uris":{"android":"levelo://app?vid=d917c31b-3228-4b16-88e6-e14fbb59058e","ios":"levelo://app?vid=d917c31b-3228-4b16-88e6-e14fbb59058e"},"vehicle_type_id":"4","last_reported":1747642580,"current_range_meters":9600,"station_id":"ce4bh0h2rcd13ifvqd60","pricing_plan_id":"cebpf4jnsgd1na2vs0mg"},{"bike_id":"08f5e44d-619c-4d16-8c63-7c75181e9ef9","system_id":"levelo_inurba_marseille","lat":43.2418,"lon":5.39733,"is_reserved":false,"is_disabled":false,"rental_uris":{"android":"levelo://app?vid=08f5e44d-619c-4d16-8c63-7c75181e9ef9","ios":"levelo://app?vid=08f5e44d-619c-4d16-8c63-7c75181e9ef9"},"vehicle_type_id":"4","last_reported":1747642580,"current_range_meters":10000,"station_id":"ce4bhn12rcd13ifvqgpg","pricing_plan_id":"cebpf4jnsgd1na2vs0mg"},{"bike_id":"1251f3e6-f78a-418d-9e0a-7474b2b1d8ac","system_id":"levelo_inurba_marseille","lat":43.25934,"lon":5.4091,"is_reserved":false,"is_disabled":false,"rental_uris":{"android":"levelo://app?vid=1251f3e6-f78a-418d-9e0a-7474b2b1d8ac","ios":"levelo://app?vid=1251f3e6-f78a-418d-9e0a-7474b2b1d8ac"},"vehicle_type_id":"4","last_reported":1747642580,"current_range_meters":10000,"station_id":"ce4bhm92rcd13ifvqglg","pricing_plan_id":"cebpf4jnsgd1na2vs0mg"},{"bike_id":"10060988-3632-4061-8c28-f32a68cdc17c","system_id":"levelo_inurba_marseille","lat":43.24658,"lon":5.38165,"is_reserved":false,"is_disabled":false,"rental_uris":{"android":"levelo://app?vid=10060988-3632-4061-8c28-f32a68cdc17c","ios":"levelo://app?vid=10060988-3632-4061-8c28-f32a68cdc17c"},"vehicle_type_id":"4","last_reported":1747642580,"current_range_meters":10000,"station_id":"ce4bhih2rcd13ifvqfr0","pricing_plan_id":"cebpf4jnsgd1na2vs0mg"},{"bike_id":"d21162ab-4e73-41a5-bdbc-f7384a8191b2","system_id":"levelo_inurba_marseille","lat":43.30547,"lon":5.3842,"is_reserved":false,"is_disabled":true,"rental_uris":{"android":"levelo://app?vid=d21162ab-4e73-41a5-bdbc-f7384a8191b2","ios":"levelo://app?vid=d21162ab-4e73-41a5-bdbc-f7384a8191b2"},"vehicle_type_id":"4","last_reported":1747642580,"current_range_meters":10000,"station_id":"ce4bgg92rcd13ifvqb30","pricing_plan_id":"cebpf4jnsgd1na2vs0mg"},{"bike_id":"12c4d802-2c6a-4c71-888e-000ffe312a3f","system_id":"levelo_inurba_marseille","lat":43.32365,"lon":5.36768,"is_reserved":false,"is_disabled":false,"rental_uris":{"android":"levelo://app?vid=12c4d802-2c6a-4c71-888e-000ffe312a3f","ios":"levelo://app?vid=12c4d802-2c6a-4c71-888e-000ffe312a3f"},"vehicle_type_id":"4","last_reported":1747642580,"current_range_meters":10000,"station_id":"ce4bhsh2rcd13ifvqi2g","pricing_plan_id":"cebpf4jnsgd1na2vs0mg"},{"bike_id":"814e2930-a412-47af-849d-26da2abc07f6","system_id":"levelo_inurba_marseille","lat":43.278163,"lon":5.40722,"is_reserved":false,"is_disabled":true,"rental_uris":{"android":"levelo://app?vid=814e2930-a412-47af-849d-26da2abc07f6","ios":"levelo://app?vid=814e2930-a412-47af-849d-26da2abc07f6"},"vehicle_type_id":"4","last_reported":1747642580,"current_range_meters":10000,"station_id":"ce4bhnh2rcd13ifvqgtg","pricing_plan_id":"cebpf4jnsgd1na2vs0mg"},{"bike_id":"f31134f0-1b0a-4576-beb8-35051827b506","system_id":"levelo_inurba_marseille","lat":43.30812,"lon":5.37591,"is_reserved":false,"is_disabled":false,"rental_uris":{"android":"levelo://app?vid=f31134f0-1b0a-4576-beb8-35051827b506","ios":"levelo://app?vid=f31134f0-1b0a-4576-beb8-35051827b506"},"vehicle_type_id":"4","last_reported":1747642580,"current_range_meters":10800,"station_id":"","pricing_plan_id":"cebpf4jnsgd1na2vs0mg"},{"bike_id":"b2d8cb22-bb08-445b-9edd-971005f2f520","system_id":"levelo_inurba_marseille","lat":43.30539,"lon":5.36698,"is_reserved":false,"is_disabled":false,"rental_uris":{"android":"levelo://app?vid=b2d8cb22-bb08-445b-9edd-971005f2f520","ios":"levelo://app?vid=b2d8cb22-bb08-445b-9edd-971005f2f520"},"vehicle_type_id":"4","last_reported":1747642580,"current_range_meters":10800,"station_id":"ce4bgrp2rcd13ifvqc9g","pricing_plan_id":"cebpf4jnsgd1na2vs0mg"},{"bike_id":"201476c2-6270-46bd-a5f5-e47f4ad7efa4","system_id":"levelo_inurba_marseille","lat":43.2315,"lon":5.43714,"is_reserved":false,"is_disabled":false,"rental_uris":{"android":"levelo://app?vid=201476c2-6270-46bd-a5f5-e47f4ad7efa4","ios":"levelo://app?vid=201476c2-6270-46bd-a5f5-e47f4ad7efa4"},"vehicle_type_id":"4","last_reported":1747642580,"current_range_meters":10800,"station_id":"ce4bhmp2rcd13ifvqgog","pricing_plan_id":"cebpf4jnsgd1na2vs0mg"},{"bike_id":"b3403677-5e20-418d-bc73-4e2a60f8547c","system_id":"levelo_inurba_marseille","lat":43.23158,"lon":5.43706,"is_reserved":false,"is_disabled":false,"rental_uris":{"android":"levelo://app?vid=b3403677-5e20-418d-bc73-4e2a60f8547c","ios":"levelo://app?vid=b3403677-5e20-418d-bc73-4e2a60f8547c"},"vehicle_type_id":"4","last_reported":1747642580,"current_range_meters":10800,"station_id":"ce4bhmp2rcd13ifvqgog","pricing_plan_id":"cebpf4jnsgd1na2vs0mg"},{"bike_id":"3ca34b46-4b9e-4b56-a126-096597cd005d","system_id":"levelo_inurba_marseille","lat":43.31344,"lon":5.36724,"is_reserved":false,"is_disabled":false,"rental_uris":{"android":"levelo://app?vid=3ca34b46-4b9e-4b56-a126-096597cd005d","ios":"levelo://app?vid=3ca34b46-4b9e-4b56-a126-096597cd005d"},"vehicle_type_id":"4","last_reported":1747642580,"current_range_meters":10800,"station_id":"ce4bgr92rcd13ifvqc6g","pricing_plan_id":"cebpf4jnsgd1na2vs0mg"},{"bike_id":"2d43dba1-6ff7-4289-91c8-c617d5aac932","system_id":"levelo_inurba_marseille","lat":43.29591,"lon":5.37516,"is_reserved":false,"is_disabled":true,"rental_uris":{"android":"levelo://app?vid=2d43dba1-6ff7-4289-91c8-c617d5aac932","ios":"levelo://app?vid=2d43dba1-6ff7-4289-91c8-c617d5aac932"},"vehicle_type_id":"4","last_reported":1747642580,"current_range_meters":11200,"station_id":"ce4bgh92rcd13ifvqb50","pricing_plan_id":"cebpf4jnsgd1na2vs0mg"},{"bike_id":"d036e4d8-4f60-43b7-80be-ed45f59e48b1","system_id":"levelo_inurba_marseille","lat":43.27218,"lon":5.39183,"is_reserved":false,"is_disabled":false,"rental_uris":{"android":"levelo://app?vid=d036e4d8-4f60-43b7-80be-ed45f59e48b1","ios":"levelo://app?vid=d036e4d8-4f60-43b7-80be-ed45f59e48b1"},"vehicle_type_id":"4","last_reported":1747642580,"current_range_meters":11200,"station_id":"ce4bhhp2rcd13ifvqfm0","pricing_plan_id":"cebpf4jnsgd1na2vs0mg"},{"bike_id":"8dc5c827-ae69-4eff-9c60-8fe0926ea868","system_id":"levelo_inurba_marseille","lat":43.23149,"lon":5.43723,"is_reserved":false,"is_disabled":false,"rental_uris":{"android":"levelo://app?vid=8dc5c827-ae69-4eff-9c60-8fe0926ea868","ios":"levelo://app?vid=8dc5c827-ae69-4eff-9c60-8fe0926ea868"},"vehicle_type_id":"4","last_reported":1747642580,"current_range_meters":11200,"station_id":"ce4bhmp2rcd13ifvqgog","pricing_plan_id":"cebpf4jnsgd1na2vs0mg"},{"bike_id":"a0ee194d-0fbe-4c30-840e-7ab571868905","system_id":"levelo_inurba_marseille","lat":43.25948,"lon":5.40913,"is_reserved":false,"is_disabled":false,"rental_uris":{"android":"levelo://app?vid=a0ee194d-0fbe-4c30-840e-7ab571868905","ios":"levelo://app?vid=a0ee194d-0fbe-4c30-840e-7ab571868905"},"vehicle_type_id":"4","last_reported":1747642580,"current_range_meters":11200,"station_id":"ce4bhm92rcd13ifvqglg","pricing_plan_id":"cebpf4jnsgd1na2vs0mg"},{"bike_id":"954f9a2f-3d92-4afe-8ccd-55ebda55dfe0","system_id":"levelo_inurba_marseille","lat":43.270737,"lon":5.422791,"is_reserved":false,"is_disabled":false,"rental_uris":{"android":"levelo://app?vid=954f9a2f-3d92-4afe-8ccd-55ebda55dfe0","ios":"levelo://app?vid=954f9a2f-3d92-4afe-8ccd-55ebda55dfe0"},"vehicle_type_id":"4","last_reported":1747642580,"current_range_meters":11200,"station_id":"ce4bhk92rcd13ifvqgb0","pricing_plan_id":"cebpf4jnsgd1na2vs0mg"},{"bike_id":"b34fd6b4-30ad-45a9-a9e0-3d5302caf866","system_id":"levelo_inurba_marseille","lat":43.274908,"lon":5.424533,"is_reserved":false,"is_disabled":false,"rental_uris":{"android":"levelo://app?vid=b34fd6b4-30ad-45a9-a9e0-3d5302caf866","ios":"levelo://app?vid=b34fd6b4-30ad-45a9-a9e0-3d5302caf866"},"vehicle_type_id":"4","last_reported":1747642580,"current_range_meters":11200,"station_id":"ce4bhn92rcd13ifvqgrg","pricing_plan_id":"cebpf4jnsgd1na2vs0mg"},{"bike_id":"66cb7fc1-2d8d-4145-ae68-0ecf0f2d8341","system_id":"levelo_inurba_marseille","lat":43.29097,"lon":5.38144,"is_reserved":false,"is_disabled":false,"rental_uris":{"android":"levelo://app?vid=66cb7fc1-2d8d-4145-ae68-0ecf0f2d8341","ios":"levelo://app?vid=66cb7fc1-2d8d-4145-ae68-0ecf0f2d8341"},"vehicle_type_id":"4","last_reported":1747642580,"current_range_meters":11200,"station_id":"ce4bh512rcd13ifvqe2g","pricing_plan_id":"cebpf4jnsgd1na2vs0mg"},{"bike_id":"d8d5a032-2949-4976-a414-7d319cfd6437","system_id":"levelo_inurba_marseille","lat":43.3018,"lon":5.36609,"is_reserved":false,"is_disabled":false,"rental_uris":{"android":"levelo://app?vid=d8d5a032-2949-4976-a414-7d319cfd6437","ios":"levelo://app?vid=d8d5a032-2949-4976-a414-7d319cfd6437"},"vehicle_type_id":"4","last_reported":1747642580,"current_range_meters":11200,"station_id":"ce4bgrh2rcd13ifvqc8g","pricing_plan_id":"cebpf4jnsgd1na2vs0mg"},{"bike_id":"776056af-a555-4f4e-bf8f-559aa0dd4684","system_id":"levelo_inurba_marseille","lat":43.31484,"lon":5.37286,"is_reserved":false,"is_disabled":false,"rental_uris":{"android":"levelo://app?vid=776056af-a555-4f4e-bf8f-559aa0dd4684","ios":"levelo://app?vid=776056af-a555-4f4e-bf8f-559aa0dd4684"},"vehicle_type_id":"4","last_reported":1747642580,"current_range_meters":11600,"station_id":"ce4bgt12rcd13ifvqcd0","pricing_plan_id":"cebpf4jnsgd1na2vs0mg"},{"bike_id":"f8a77aaa-1f4e-4aaf-9f86-eabdf534ff88","system_id":"levelo_inurba_marseille","lat":43.29092,"lon":5.38119,"is_reserved":false,"is_disabled":false,"rental_uris":{"android":"levelo://app?vid=f8a77aaa-1f4e-4aaf-9f86-eabdf534ff88","ios":"levelo://app?vid=f8a77aaa-1f4e-4aaf-9f86-eabdf534ff88"},"vehicle_type_id":"4","last_reported":1747642580,"current_range_meters":11600,"station_id":"ce4bh512rcd13ifvqe2g","pricing_plan_id":"cebpf4jnsgd1na2vs0mg"},{"bike_id":"e2483e33-e22f-4969-8812-f7cdcc75c59a","system_id":"levelo_inurba_marseille","lat":43.32362,"lon":5.36788,"is_reserved":false,"is_disabled":false,"rental_uris":{"android":"levelo://app?vid=e2483e33-e22f-4969-8812-f7cdcc75c59a","ios":"levelo://app?vid=e2483e33-e22f-4969-8812-f7cdcc75c59a"},"vehicle_type_id":"4","last_reported":1747642580,"current_range_meters":11600,"station_id":"ce4bhsh2rcd13ifvqi2g","pricing_plan_id":"cebpf4jnsgd1na2vs0mg"},{"bike_id":"3347e92f-19a6-4dc9-bf1f-d804d0835e42","system_id":"levelo_inurba_marseille","lat":43.211953,"lon":5.350828,"is_reserved":false,"is_disabled":false,"rental_uris":{"android":"levelo://app?vid=3347e92f-19a6-4dc9-bf1f-d804d0835e42","ios":"levelo://app?vid=3347e92f-19a6-4dc9-bf1f-d804d0835e42"},"vehicle_type_id":"4","last_reported":1747642580,"current_range_meters":11600,"station_id":"st_cvj6sg6p6f1abm77japg","pricing_plan_id":"cebpf4jnsgd1na2vs0mg"},{"bike_id":"cbf22af3-6c8f-4023-8971-3961263cafe8","system_id":"levelo_inurba_marseille","lat":43.287018,"lon":5.374101,"is_reserved":false,"is_disabled":false,"rental_uris":{"android":"levelo://app?vid=cbf22af3-6c8f-4023-8971-3961263cafe8","ios":"levelo://app?vid=cbf22af3-6c8f-4023-8971-3961263cafe8"},"vehicle_type_id":"4","last_reported":1747642580,"current_range_meters":11600,"station_id":"ce4bh3p2rcd13ifvqdq0","pricing_plan_id":"cebpf4jnsgd1na2vs0mg"},{"bike_id":"cb403e01-63af-4c90-8790-9db8dcaacd91","system_id":"levelo_inurba_marseille","lat":43.31373,"lon":5.367,"is_reserved":false,"is_disabled":false,"rental_uris":{"android":"levelo://app?vid=cb403e01-63af-4c90-8790-9db8dcaacd91","ios":"levelo://app?vid=cb403e01-63af-4c90-8790-9db8dcaacd91"},"vehicle_type_id":"4","last_reported":1747642580,"current_range_meters":11600,"station_id":"ce4bgr92rcd13ifvqc6g","pricing_plan_id":"cebpf4jnsgd1na2vs0mg"},{"bike_id":"74710c76-1b65-4903-a901-29ad079f621a","system_id":"levelo_inurba_marseille","lat":43.28347,"lon":5.38104,"is_reserved":false,"is_disabled":false,"rental_uris":{"android":"levelo://app?vid=74710c76-1b65-4903-a901-29ad079f621a","ios":"levelo://app?vid=74710c76-1b65-4903-a901-29ad079f621a"},"vehicle_type_id":"4","last_reported":1747642580,"current_range_meters":11600,"station_id":"","pricing_plan_id":"cebpf4jnsgd1na2vs0mg"},{"bike_id":"bcbdbd69-7be8-42f8-a855-a4358565de8f","system_id":"levelo_inurba_marseille","lat":43.27747,"lon":5.41339,"is_reserved":false,"is_disabled":false,"rental_uris":{"android":"levelo://app?vid=bcbdbd69-7be8-42f8-a855-a4358565de8f","ios":"levelo://app?vid=bcbdbd69-7be8-42f8-a855-a4358565de8f"},"vehicle_type_id":"4","last_reported":1747642580,"current_range_meters":12000,"station_id":"","pricing_plan_id":"cebpf4jnsgd1na2vs0mg"},{"bike_id":"2193607e-7f20-4ef4-aa8f-8d19ffe4aad3","system_id":"levelo_inurba_marseille","lat":43.27207,"lon":5.39191,"is_reserved":false,"is_disabled":false,"rental_uris":{"android":"levelo://app?vid=2193607e-7f20-4ef4-aa8f-8d19ffe4aad3","ios":"levelo://app?vid=2193607e-7f20-4ef4-aa8f-8d19ffe4aad3"},"vehicle_type_id":"4","last_reported":1747642580,"current_range_meters":12000,"station_id":"ce4bhhp2rcd13ifvqfm0","pricing_plan_id":"cebpf4jnsgd1na2vs0mg"},{"bike_id":"a0ef91e8-eab4-4e92-9764-f8b59bed148c","system_id":"levelo_inurba_marseille","lat":43.31369,"lon":5.38465,"is_reserved":false,"is_disabled":false,"rental_uris":{"android":"levelo://app?vid=a0ef91e8-eab4-4e92-9764-f8b59bed148c","ios":"levelo://app?vid=a0ef91e8-eab4-4e92-9764-f8b59bed148c"},"vehicle_type_id":"4","last_reported":1747642580,"current_range_meters":12400,"station_id":"ce4bgt92rcd13ifvqcf0","pricing_plan_id":"cebpf4jnsgd1na2vs0mg"},{"bike_id":"9e226b26-381f-4b41-b678-1e563360b3ae","system_id":"levelo_inurba_marseille","lat":43.32481,"lon":5.36552,"is_reserved":false,"is_disabled":false,"rental_uris":{"android":"levelo://app?vid=9e226b26-381f-4b41-b678-1e563360b3ae","ios":"levelo://app?vid=9e226b26-381f-4b41-b678-1e563360b3ae"},"vehicle_type_id":"4","last_reported":1747642580,"current_range_meters":12400,"station_id":"ce4bhs12rcd13ifvqhvg","pricing_plan_id":"cebpf4jnsgd1na2vs0mg"},{"bike_id":"cd8a2537-cffa-4ac5-b97d-6f76203f2bd3","system_id":"levelo_inurba_marseille","lat":43.27669,"lon":5.38923,"is_reserved":false,"is_disabled":false,"rental_uris":{"android":"levelo://app?vid=cd8a2537-cffa-4ac5-b97d-6f76203f2bd3","ios":"levelo://app?vid=cd8a2537-cffa-4ac5-b97d-6f76203f2bd3"},"vehicle_type_id":"4","last_reported":1747642580,"current_range_meters":12000,"station_id":"ce4bhi12rcd13ifvqfo0","pricing_plan_id":"cebpf4jnsgd1na2vs0mg"},{"bike_id":"297bb6c3-641c-4644-b187-042fdcedffb1","system_id":"levelo_inurba_marseille","lat":43.336074,"lon":5.410233,"is_reserved":false,"is_disabled":false,"rental_uris":{"android":"levelo://app?vid=297bb6c3-641c-4644-b187-042fdcedffb1","ios":"levelo://app?vid=297bb6c3-641c-4644-b187-042fdcedffb1"},"vehicle_type_id":"4","last_reported":1747642580,"current_range_meters":12400,"station_id":"ce4bhqh2rcd13ifvqhmg","pricing_plan_id":"cebpf4jnsgd1na2vs0mg"},{"bike_id":"41389e7c-6f3c-410d-88e7-f591b55a002a","system_id":"levelo_inurba_marseille","lat":43.240789,"lon":5.377642,"is_reserved":false,"is_disabled":false,"rental_uris":{"android":"levelo://app?vid=41389e7c-6f3c-410d-88e7-f591b55a002a","ios":"levelo://app?vid=41389e7c-6f3c-410d-88e7-f591b55a002a"},"vehicle_type_id":"4","last_reported":1747642580,"current_range_meters":12800,"station_id":"ce4bhnp2rcd13ifvqgvg","pricing_plan_id":"cebpf4jnsgd1na2vs0mg"},{"bike_id":"5fd26236-9014-48fe-ac4d-39d787bb73cf","system_id":"levelo_inurba_marseille","lat":43.2467,"lon":5.38176,"is_reserved":false,"is_disabled":false,"rental_uris":{"android":"levelo://app?vid=5fd26236-9014-48fe-ac4d-39d787bb73cf","ios":"levelo://app?vid=5fd26236-9014-48fe-ac4d-39d787bb73cf"},"vehicle_type_id":"4","last_reported":1747642580,"current_range_meters":12400,"station_id":"ce4bhih2rcd13ifvqfr0","pricing_plan_id":"cebpf4jnsgd1na2vs0mg"},{"bike_id":"a4ba12a9-36e9-4cff-93d3-a56a374ac99d","system_id":"levelo_inurba_marseille","lat":43.27499,"lon":5.4245,"is_reserved":false,"is_disabled":false,"rental_uris":{"android":"levelo://app?vid=a4ba12a9-36e9-4cff-93d3-a56a374ac99d","ios":"levelo://app?vid=a4ba12a9-36e9-4cff-93d3-a56a374ac99d"},"vehicle_type_id":"4","last_reported":1747642580,"current_range_meters":12800,"station_id":"ce4bhn92rcd13ifvqgrg","pricing_plan_id":"cebpf4jnsgd1na2vs0mg"},{"bike_id":"3fa844ec-9df6-4ae6-bb8b-2ba498b30f2a","system_id":"levelo_inurba_marseille","lat":43.295258,"lon":5.375078,"is_reserved":false,"is_disabled":false,"rental_uris":{"android":"levelo://app?vid=3fa844ec-9df6-4ae6-bb8b-2ba498b30f2a","ios":"levelo://app?vid=3fa844ec-9df6-4ae6-bb8b-2ba498b30f2a"},"vehicle_type_id":"4","last_reported":1747642580,"current_range_meters":12800,"station_id":"ce4bgkp2rcd13ifvqbmg","pricing_plan_id":"cebpf4jnsgd1na2vs0mg"},{"bike_id":"fba103a6-30ce-481c-a05a-9411e513bfcf","system_id":"levelo_inurba_marseille","lat":43.25917,"lon":5.40913,"is_reserved":false,"is_disabled":false,"rental_uris":{"android":"levelo://app?vid=fba103a6-30ce-481c-a05a-9411e513bfcf","ios":"levelo://app?vid=fba103a6-30ce-481c-a05a-9411e513bfcf"},"vehicle_type_id":"4","last_reported":1747642580,"current_range_meters":12800,"station_id":"ce4bhm92rcd13ifvqglg","pricing_plan_id":"cebpf4jnsgd1na2vs0mg"},{"bike_id":"98e4d200-5e72-4e1c-8e4c-b37feb9b95f8","system_id":"levelo_inurba_marseille","lat":43.24177,"lon":5.39726,"is_reserved":false,"is_disabled":false,"rental_uris":{"android":"levelo://app?vid=98e4d200-5e72-4e1c-8e4c-b37feb9b95f8","ios":"levelo://app?vid=98e4d200-5e72-4e1c-8e4c-b37feb9b95f8"},"vehicle_type_id":"4","last_reported":1747642580,"current_range_meters":13600,"station_id":"ce4bhn12rcd13ifvqgpg","pricing_plan_id":"cebpf4jnsgd1na2vs0mg"},{"bike_id":"cff8ff58-047a-4e45-89da-68f5f4acd81e","system_id":"levelo_inurba_marseille","lat":43.312232,"lon":5.368635,"is_reserved":false,"is_disabled":false,"rental_uris":{"android":"levelo://app?vid=cff8ff58-047a-4e45-89da-68f5f4acd81e","ios":"levelo://app?vid=cff8ff58-047a-4e45-89da-68f5f4acd81e"},"vehicle_type_id":"4","last_reported":1747642580,"current_range_meters":13600,"station_id":"ce4bgl92rcd13ifvqbq0","pricing_plan_id":"cebpf4jnsgd1na2vs0mg"},{"bike_id":"8c84c546-a5e0-446c-9310-121555d1b00b","system_id":"levelo_inurba_marseille","lat":43.25926,"lon":5.40914,"is_reserved":false,"is_disabled":false,"rental_uris":{"android":"levelo://app?vid=8c84c546-a5e0-446c-9310-121555d1b00b","ios":"levelo://app?vid=8c84c546-a5e0-446c-9310-121555d1b00b"},"vehicle_type_id":"4","last_reported":1747642580,"current_range_meters":13600,"station_id":"ce4bhm92rcd13ifvqglg","pricing_plan_id":"cebpf4jnsgd1na2vs0mg"},{"bike_id":"f4ba9c6e-bcad-41c7-8d4e-bca01364d190","system_id":"levelo_inurba_marseille","lat":43.25936,"lon":5.4089,"is_reserved":false,"is_disabled":false,"rental_uris":{"android":"levelo://app?vid=f4ba9c6e-bcad-41c7-8d4e-bca01364d190","ios":"levelo://app?vid=f4ba9c6e-bcad-41c7-8d4e-bca01364d190"},"vehicle_type_id":"4","last_reported":1747642580,"current_range_meters":14000,"station_id":"ce4bhm92rcd13ifvqglg","pricing_plan_id":"cebpf4jnsgd1na2vs0mg"},{"bike_id":"7535474a-2e3f-4abe-8664-a0c43e97ab5b","system_id":"levelo_inurba_marseille","lat":43.29532,"lon":5.38553,"is_reserved":false,"is_disabled":false,"rental_uris":{"android":"levelo://app?vid=7535474a-2e3f-4abe-8664-a0c43e97ab5b","ios":"levelo://app?vid=7535474a-2e3f-4abe-8664-a0c43e97ab5b"},"vehicle_type_id":"4","last_reported":1747642580,"current_range_meters":14000,"station_id":"ce4bgih2rcd13ifvqba0","pricing_plan_id":"cebpf4jnsgd1na2vs0mg"},{"bike_id":"90bb7a19-74dd-4320-94b3-1629a4028834","system_id":"levelo_inurba_marseille","lat":43.217478,"lon":5.346098,"is_reserved":false,"is_disabled":true,"rental_uris":{"android":"levelo://app?vid=90bb7a19-74dd-4320-94b3-1629a4028834","ios":"levelo://app?vid=90bb7a19-74dd-4320-94b3-1629a4028834"},"vehicle_type_id":"4","last_reported":1747642580,"current_range_meters":14000,"station_id":"st_cvj6r9ubvosntc0bgbag","pricing_plan_id":"cebpf4jnsgd1na2vs0mg"},{"bike_id":"cf0e6672-79f3-49bc-ae81-5a367314a352","system_id":"levelo_inurba_marseille","lat":43.3125,"lon":5.36866,"is_reserved":false,"is_disabled":false,"rental_uris":{"android":"levelo://app?vid=cf0e6672-79f3-49bc-ae81-5a367314a352","ios":"levelo://app?vid=cf0e6672-79f3-49bc-ae81-5a367314a352"},"vehicle_type_id":"4","last_reported":1747642580,"current_range_meters":14000,"station_id":"ce4bgl92rcd13ifvqbq0","pricing_plan_id":"cebpf4jnsgd1na2vs0mg"},{"bike_id":"31b7b044-c85f-4ff4-af34-3df4deacfcf2","system_id":"levelo_inurba_marseille","lat":43.293668,"lon":5.378501,"is_reserved":false,"is_disabled":false,"rental_uris":{"android":"levelo://app?vid=31b7b044-c85f-4ff4-af34-3df4deacfcf2","ios":"levelo://app?vid=31b7b044-c85f-4ff4-af34-3df4deacfcf2"},"vehicle_type_id":"4","last_reported":1747642580,"current_range_meters":14000,"station_id":"ce4bgjh2rcd13ifvqbf0","pricing_plan_id":"cebpf4jnsgd1na2vs0mg"},{"bike_id":"0f9ddb26-1492-4945-ab35-b341312e4013","system_id":"levelo_inurba_marseille","lat":43.31361,"lon":5.36709,"is_reserved":false,"is_disabled":false,"rental_uris":{"android":"levelo://app?vid=0f9ddb26-1492-4945-ab35-b341312e4013","ios":"levelo://app?vid=0f9ddb26-1492-4945-ab35-b341312e4013"},"vehicle_type_id":"4","last_reported":1747642580,"current_range_meters":14400,"station_id":"ce4bgr92rcd13ifvqc6g","pricing_plan_id":"cebpf4jnsgd1na2vs0mg"},{"bike_id":"a486c409-50e3-4319-942b-256cc6c595ab","system_id":"levelo_inurba_marseille","lat":43.31224,"lon":5.36864,"is_reserved":false,"is_disabled":false,"rental_uris":{"android":"levelo://app?vid=a486c409-50e3-4319-942b-256cc6c595ab","ios":"levelo://app?vid=a486c409-50e3-4319-942b-256cc6c595ab"},"vehicle_type_id":"4","last_reported":1747642580,"current_range_meters":14400,"station_id":"ce4bgl92rcd13ifvqbq0","pricing_plan_id":"cebpf4jnsgd1na2vs0mg"},{"bike_id":"4d84e95c-d2af-4324-b46f-888d9bc5478f","system_id":"levelo_inurba_marseille","lat":43.312186,"lon":5.368653,"is_reserved":false,"is_disabled":false,"rental_uris":{"android":"levelo://app?vid=4d84e95c-d2af-4324-b46f-888d9bc5478f","ios":"levelo://app?vid=4d84e95c-d2af-4324-b46f-888d9bc5478f"},"vehicle_type_id":"4","last_reported":1747642580,"current_range_meters":14400,"station_id":"ce4bgl92rcd13ifvqbq0","pricing_plan_id":"cebpf4jnsgd1na2vs0mg"},{"bike_id":"70d22d91-376b-450b-bc5d-fe1a2b4e8d3e","system_id":"levelo_inurba_marseille","lat":43.31328,"lon":5.39693,"is_reserved":false,"is_disabled":false,"rental_uris":{"android":"levelo://app?vid=70d22d91-376b-450b-bc5d-fe1a2b4e8d3e","ios":"levelo://app?vid=70d22d91-376b-450b-bc5d-fe1a2b4e8d3e"},"vehicle_type_id":"4","last_reported":1747642580,"current_range_meters":14400,"station_id":"ce4bgvp2rcd13ifvqcu0","pricing_plan_id":"cebpf4jnsgd1na2vs0mg"},{"bike_id":"867df275-5a17-4b8c-968f-a8217c52bbf6","system_id":"levelo_inurba_marseille","lat":43.23959,"lon":5.36636,"is_reserved":false,"is_disabled":false,"rental_uris":{"android":"levelo://app?vid=867df275-5a17-4b8c-968f-a8217c52bbf6","ios":"levelo://app?vid=867df275-5a17-4b8c-968f-a8217c52bbf6"},"vehicle_type_id":"4","last_reported":1747642580,"current_range_meters":14000,"station_id":"ce4bhi12rcd13ifvqfp0","pricing_plan_id":"cebpf4jnsgd1na2vs0mg"},{"bike_id":"bb463b8c-0c5e-4b89-a241-a019837c405b","system_id":"levelo_inurba_marseille","lat":43.33606,"lon":5.41021,"is_reserved":false,"is_disabled":false,"rental_uris":{"android":"levelo://app?vid=bb463b8c-0c5e-4b89-a241-a019837c405b","ios":"levelo://app?vid=bb463b8c-0c5e-4b89-a241-a019837c405b"},"vehicle_type_id":"4","last_reported":1747642580,"current_range_meters":14400,"station_id":"ce4bhqh2rcd13ifvqhmg","pricing_plan_id":"cebpf4jnsgd1na2vs0mg"},{"bike_id":"d0b668fd-dece-458e-817d-9805586e87a3","system_id":"levelo_inurba_marseille","lat":43.29299,"lon":5.37464,"is_reserved":false,"is_disabled":false,"rental_uris":{"android":"levelo://app?vid=d0b668fd-dece-458e-817d-9805586e87a3","ios":"levelo://app?vid=d0b668fd-dece-458e-817d-9805586e87a3"},"vehicle_type_id":"4","last_reported":1747642580,"current_range_meters":14800,"station_id":"ce4bgi12rcd13ifvqb70","pricing_plan_id":"cebpf4jnsgd1na2vs0mg"},{"bike_id":"bffbaf88-357a-4e87-a68c-a9a27a6e01e6","system_id":"levelo_inurba_marseille","lat":43.26236,"lon":5.42117,"is_reserved":false,"is_disabled":false,"rental_uris":{"android":"levelo://app?vid=bffbaf88-357a-4e87-a68c-a9a27a6e01e6","ios":"levelo://app?vid=bffbaf88-357a-4e87-a68c-a9a27a6e01e6"},"vehicle_type_id":"4","last_reported":1747642580,"current_range_meters":14800,"station_id":"","pricing_plan_id":"cebpf4jnsgd1na2vs0mg"},{"bike_id":"fca86a55-22f2-4b7a-b972-9f8946fa6983","system_id":"levelo_inurba_marseille","lat":43.30259,"lon":5.39188,"is_reserved":false,"is_disabled":true,"rental_uris":{"android":"levelo://app?vid=fca86a55-22f2-4b7a-b972-9f8946fa6983","ios":"levelo://app?vid=fca86a55-22f2-4b7a-b972-9f8946fa6983"},"vehicle_type_id":"4","last_reported":1747642580,"current_range_meters":14800,"station_id":"ce4bgkh2rcd13ifvqbk0","pricing_plan_id":"cebpf4jnsgd1na2vs0mg"},{"bike_id":"d39cae16-34b5-4b82-8fc6-cac28c889070","system_id":"levelo_inurba_marseille","lat":43.29459,"lon":5.38677,"is_reserved":false,"is_disabled":true,"rental_uris":{"android":"levelo://app?vid=d39cae16-34b5-4b82-8fc6-cac28c889070","ios":"levelo://app?vid=d39cae16-34b5-4b82-8fc6-cac28c889070"},"vehicle_type_id":"4","last_reported":1747642580,"current_range_meters":14800,"station_id":"","pricing_plan_id":"cebpf4jnsgd1na2vs0mg"},{"bike_id":"ba5fe4a4-a4d2-4f4c-9156-631165586ecf","system_id":"levelo_inurba_marseille","lat":43.27916,"lon":5.39589,"is_reserved":false,"is_disabled":false,"rental_uris":{"android":"levelo://app?vid=ba5fe4a4-a4d2-4f4c-9156-631165586ecf","ios":"levelo://app?vid=ba5fe4a4-a4d2-4f4c-9156-631165586ecf"},"vehicle_type_id":"4","last_reported":1747642580,"current_range_meters":14800,"station_id":"ce4bhf92rcd13ifvqf40","pricing_plan_id":"cebpf4jnsgd1na2vs0mg"},{"bike_id":"f7dfddee-80b5-41d3-8493-f923c6b57c37","system_id":"levelo_inurba_marseille","lat":43.29368,"lon":5.37862,"is_reserved":false,"is_disabled":false,"rental_uris":{"android":"levelo://app?vid=f7dfddee-80b5-41d3-8493-f923c6b57c37","ios":"levelo://app?vid=f7dfddee-80b5-41d3-8493-f923c6b57c37"},"vehicle_type_id":"4","last_reported":1747642580,"current_range_meters":14800,"station_id":"ce4bgjh2rcd13ifvqbf0","pricing_plan_id":"cebpf4jnsgd1na2vs0mg"},{"bike_id":"2082ed13-287e-4105-89a5-90dbfd36422b","system_id":"levelo_inurba_marseille","lat":43.25121,"lon":5.40314,"is_reserved":false,"is_disabled":false,"rental_uris":{"android":"levelo://app?vid=2082ed13-287e-4105-89a5-90dbfd36422b","ios":"levelo://app?vid=2082ed13-287e-4105-89a5-90dbfd36422b"},"vehicle_type_id":"4","last_reported":1747642580,"current_range_meters":14400,"station_id":"ce4bhlh2rcd13ifvqgig","pricing_plan_id":"cebpf4jnsgd1na2vs0mg"},{"bike_id":"93bb0e99-2bb8-4c61-90e7-ea7c7adfa993","system_id":"levelo_inurba_marseille","lat":43.29954,"lon":5.36518,"is_reserved":false,"is_disabled":true,"rental_uris":{"android":"levelo://app?vid=93bb0e99-2bb8-4c61-90e7-ea7c7adfa993","ios":"levelo://app?vid=93bb0e99-2bb8-4c61-90e7-ea7c7adfa993"},"vehicle_type_id":"4","last_reported":1747642580,"current_range_meters":15200,"station_id":"ce4bgm92rcd13ifvqbr0","pricing_plan_id":"cebpf4jnsgd1na2vs0mg"},{"bike_id":"74779d32-87cf-4f23-b047-7955c944ddd2","system_id":"levelo_inurba_marseille","lat":43.29774,"lon":5.38108,"is_reserved":false,"is_disabled":true,"rental_uris":{"android":"levelo://app?vid=74779d32-87cf-4f23-b047-7955c944ddd2","ios":"levelo://app?vid=74779d32-87cf-4f23-b047-7955c944ddd2"},"vehicle_type_id":"4","last_reported":1747642580,"current_range_meters":15200,"station_id":"ce4bgip2rcd13ifvqbb0","pricing_plan_id":"cebpf4jnsgd1na2vs0mg"},{"bike_id":"f63c9346-f5de-4472-920c-b0cafb41a135","system_id":"levelo_inurba_marseille","lat":43.270619,"lon":5.402697,"is_reserved":false,"is_disabled":true,"rental_uris":{"android":"levelo://app?vid=f63c9346-f5de-4472-920c-b0cafb41a135","ios":"levelo://app?vid=f63c9346-f5de-4472-920c-b0cafb41a135"},"vehicle_type_id":"4","last_reported":1747642580,"current_range_meters":15200,"station_id":"ce4bhk92rcd13ifvqgc0","pricing_plan_id":"cebpf4jnsgd1na2vs0mg"},{"bike_id":"710241c1-46a3-4954-9e50-bd4b0b3c4335","system_id":"levelo_inurba_marseille","lat":43.31359,"lon":5.38484,"is_reserved":false,"is_disabled":true,"rental_uris":{"android":"levelo://app?vid=710241c1-46a3-4954-9e50-bd4b0b3c4335","ios":"levelo://app?vid=710241c1-46a3-4954-9e50-bd4b0b3c4335"},"vehicle_type_id":"4","last_reported":1747642580,"current_range_meters":16000,"station_id":"ce4bgt92rcd13ifvqcf0","pricing_plan_id":"cebpf4jnsgd1na2vs0mg"},{"bike_id":"3374ca61-7a46-43f4-aede-f5e3763b36fa","system_id":"levelo_inurba_marseille","lat":43.23153,"lon":5.4371,"is_reserved":false,"is_disabled":false,"rental_uris":{"android":"levelo://app?vid=3374ca61-7a46-43f4-aede-f5e3763b36fa","ios":"levelo://app?vid=3374ca61-7a46-43f4-aede-f5e3763b36fa"},"vehicle_type_id":"4","last_reported":1747642580,"current_range_meters":16000,"station_id":"ce4bhmp2rcd13ifvqgog","pricing_plan_id":"cebpf4jnsgd1na2vs0mg"},{"bike_id":"147f0919-b4f4-4da5-a06b-5f70c1438bc0","system_id":"levelo_inurba_marseille","lat":43.25938,"lon":5.40911,"is_reserved":false,"is_disabled":false,"rental_uris":{"android":"levelo://app?vid=147f0919-b4f4-4da5-a06b-5f70c1438bc0","ios":"levelo://app?vid=147f0919-b4f4-4da5-a06b-5f70c1438bc0"},"vehicle_type_id":"4","last_reported":1747642580,"current_range_meters":16000,"station_id":"ce4bhm92rcd13ifvqglg","pricing_plan_id":"cebpf4jnsgd1na2vs0mg"},{"bike_id":"6d5b7669-3e33-448b-b9b0-222ca317d4e5","system_id":"levelo_inurba_marseille","lat":43.27498,"lon":5.42448,"is_reserved":false,"is_disabled":false,"rental_uris":{"android":"levelo://app?vid=6d5b7669-3e33-448b-b9b0-222ca317d4e5","ios":"levelo://app?vid=6d5b7669-3e33-448b-b9b0-222ca317d4e5"},"vehicle_type_id":"4","last_reported":1747642580,"current_range_meters":16000,"station_id":"ce4bhn92rcd13ifvqgrg","pricing_plan_id":"cebpf4jnsgd1na2vs0mg"},{"bike_id":"e88e25b5-d8ac-4bb1-9ea7-2893f1b26f63","system_id":"levelo_inurba_marseille","lat":43.32484,"lon":5.36579,"is_reserved":false,"is_disabled":false,"rental_uris":{"android":"levelo://app?vid=e88e25b5-d8ac-4bb1-9ea7-2893f1b26f63","ios":"levelo://app?vid=e88e25b5-d8ac-4bb1-9ea7-2893f1b26f63"},"vehicle_type_id":"4","last_reported":1747642580,"current_range_meters":16000,"station_id":"ce4bhs12rcd13ifvqhvg","pricing_plan_id":"cebpf4jnsgd1na2vs0mg"},{"bike_id":"7a1d1723-73f0-4361-b44c-4b9c3f348987","system_id":"levelo_inurba_marseille","lat":43.2659,"lon":5.39034,"is_reserved":false,"is_disabled":false,"rental_uris":{"android":"levelo://app?vid=7a1d1723-73f0-4361-b44c-4b9c3f348987","ios":"levelo://app?vid=7a1d1723-73f0-4361-b44c-4b9c3f348987"},"vehicle_type_id":"4","last_reported":1747642580,"current_range_meters":16000,"station_id":"ce4bhe12rcd13ifvqf30","pricing_plan_id":"cebpf4jnsgd1na2vs0mg"},{"bike_id":"46a96002-bac0-4368-83d0-a76c22c4ee0f","system_id":"levelo_inurba_marseille","lat":43.21755,"lon":5.34616,"is_reserved":false,"is_disabled":false,"rental_uris":{"android":"levelo://app?vid=46a96002-bac0-4368-83d0-a76c22c4ee0f","ios":"levelo://app?vid=46a96002-bac0-4368-83d0-a76c22c4ee0f"},"vehicle_type_id":"4","last_reported":1747642580,"current_range_meters":16000,"station_id":"st_cvj6r9ubvosntc0bgbag","pricing_plan_id":"cebpf4jnsgd1na2vs0mg"},{"bike_id":"33c82e12-8d29-46da-98d4-395b87caa596","system_id":"levelo_inurba_marseille","lat":43.270625,"lon":5.402546,"is_reserved":false,"is_disabled":true,"rental_uris":{"android":"levelo://app?vid=33c82e12-8d29-46da-98d4-395b87caa596","ios":"levelo://app?vid=33c82e12-8d29-46da-98d4-395b87caa596"},"vehicle_type_id":"4","last_reported":1747642580,"current_range_meters":16400,"station_id":"","pricing_plan_id":"cebpf4jnsgd1na2vs0mg"},{"bike_id":"871d707a-e411-460e-9274-cf068210e359","system_id":"levelo_inurba_marseille","lat":43.25581,"lon":5.38229,"is_reserved":false,"is_disabled":false,"rental_uris":{"android":"levelo://app?vid=871d707a-e411-460e-9274-cf068210e359","ios":"levelo://app?vid=871d707a-e411-460e-9274-cf068210e359"},"vehicle_type_id":"4","last_reported":1747642580,"current_range_meters":16400,"station_id":"ce4bhih2rcd13ifvqfs0","pricing_plan_id":"cebpf4jnsgd1na2vs0mg"},{"bike_id":"947f9c92-3deb-4586-8e0f-1c552769a184","system_id":"levelo_inurba_marseille","lat":43.29887,"lon":5.43672,"is_reserved":false,"is_disabled":false,"rental_uris":{"android":"levelo://app?vid=947f9c92-3deb-4586-8e0f-1c552769a184","ios":"levelo://app?vid=947f9c92-3deb-4586-8e0f-1c552769a184"},"vehicle_type_id":"4","last_reported":1747642580,"current_range_meters":16400,"station_id":"ce4bhpp2rcd13ifvqhfg","pricing_plan_id":"cebpf4jnsgd1na2vs0mg"},{"bike_id":"47e833c7-b34c-476b-bfe7-81bdb4db04e4","system_id":"levelo_inurba_marseille","lat":43.2593,"lon":5.40914,"is_reserved":false,"is_disabled":false,"rental_uris":{"android":"levelo://app?vid=47e833c7-b34c-476b-bfe7-81bdb4db04e4","ios":"levelo://app?vid=47e833c7-b34c-476b-bfe7-81bdb4db04e4"},"vehicle_type_id":"4","last_reported":1747642580,"current_range_meters":16400,"station_id":"ce4bhm92rcd13ifvqglg","pricing_plan_id":"cebpf4jnsgd1na2vs0mg"},{"bike_id":"3bf0d25a-addf-4c9a-8347-9f78c6c286b7","system_id":"levelo_inurba_marseille","lat":43.27572,"lon":5.38414,"is_reserved":false,"is_disabled":true,"rental_uris":{"android":"levelo://app?vid=3bf0d25a-addf-4c9a-8347-9f78c6c286b7","ios":"levelo://app?vid=3bf0d25a-addf-4c9a-8347-9f78c6c286b7"},"vehicle_type_id":"4","last_reported":1747642580,"current_range_meters":16400,"station_id":"ce4bhh92rcd13ifvqfi0","pricing_plan_id":"cebpf4jnsgd1na2vs0mg"},{"bike_id":"06f0be29-7506-4961-93b8-d13e7d300c32","system_id":"levelo_inurba_marseille","lat":43.30133,"lon":5.37388,"is_reserved":false,"is_disabled":false,"rental_uris":{"android":"levelo://app?vid=06f0be29-7506-4961-93b8-d13e7d300c32","ios":"levelo://app?vid=06f0be29-7506-4961-93b8-d13e7d300c32"},"vehicle_type_id":"4","last_reported":1747642580,"current_range_meters":16400,"station_id":"ce4bgs92rcd13ifvqcc0","pricing_plan_id":"cebpf4jnsgd1na2vs0mg"},{"bike_id":"a95dc9f2-e987-4ba1-9092-605b2bf4dbcc","system_id":"levelo_inurba_marseille","lat":43.31487,"lon":5.37301,"is_reserved":false,"is_disabled":false,"rental_uris":{"android":"levelo://app?vid=a95dc9f2-e987-4ba1-9092-605b2bf4dbcc","ios":"levelo://app?vid=a95dc9f2-e987-4ba1-9092-605b2bf4dbcc"},"vehicle_type_id":"4","last_reported":1747642580,"current_range_meters":16800,"station_id":"ce4bgt12rcd13ifvqcd0","pricing_plan_id":"cebpf4jnsgd1na2vs0mg"},{"bike_id":"e8162579-a5ad-485f-ad83-fec8a2ebe7e1","system_id":"levelo_inurba_marseille","lat":43.26826,"lon":5.39099,"is_reserved":false,"is_disabled":false,"rental_uris":{"android":"levelo://app?vid=e8162579-a5ad-485f-ad83-fec8a2ebe7e1","ios":"levelo://app?vid=e8162579-a5ad-485f-ad83-fec8a2ebe7e1"},"vehicle_type_id":"4","last_reported":1747642580,"current_range_meters":16800,"station_id":"","pricing_plan_id":"cebpf4jnsgd1na2vs0mg"},{"bike_id":"293589fd-7658-4273-9fdd-35b57ad2d7ce","system_id":"levelo_inurba_marseille","lat":43.31375,"lon":5.3669,"is_reserved":false,"is_disabled":false,"rental_uris":{"android":"levelo://app?vid=293589fd-7658-4273-9fdd-35b57ad2d7ce","ios":"levelo://app?vid=293589fd-7658-4273-9fdd-35b57ad2d7ce"},"vehicle_type_id":"4","last_reported":1747642580,"current_range_meters":16800,"station_id":"ce4bgr92rcd13ifvqc6g","pricing_plan_id":"cebpf4jnsgd1na2vs0mg"},{"bike_id":"a7f7c69f-8e30-4ab1-b0ad-53d7a45c0a15","system_id":"levelo_inurba_marseille","lat":43.24417,"lon":5.37071,"is_reserved":false,"is_disabled":false,"rental_uris":{"android":"levelo://app?vid=a7f7c69f-8e30-4ab1-b0ad-53d7a45c0a15","ios":"levelo://app?vid=a7f7c69f-8e30-4ab1-b0ad-53d7a45c0a15"},"vehicle_type_id":"4","last_reported":1747642580,"current_range_meters":16800,"station_id":"ce4bhhh2rcd13ifvqfk0","pricing_plan_id":"cebpf4jnsgd1na2vs0mg"},{"bike_id":"18e5fb47-02bf-493c-868f-92fed2587689","system_id":"levelo_inurba_marseille","lat":43.27069,"lon":5.422766,"is_reserved":false,"is_disabled":false,"rental_uris":{"android":"levelo://app?vid=18e5fb47-02bf-493c-868f-92fed2587689","ios":"levelo://app?vid=18e5fb47-02bf-493c-868f-92fed2587689"},"vehicle_type_id":"4","last_reported":1747642580,"current_range_meters":16800,"station_id":"ce4bhk92rcd13ifvqgb0","pricing_plan_id":"cebpf4jnsgd1na2vs0mg"},{"bike_id":"5147116d-b0d9-46e3-b06c-cd3ab30b27db","system_id":"levelo_inurba_marseille","lat":43.25583,"lon":5.38229,"is_reserved":false,"is_disabled":false,"rental_uris":{"android":"levelo://app?vid=5147116d-b0d9-46e3-b06c-cd3ab30b27db","ios":"levelo://app?vid=5147116d-b0d9-46e3-b06c-cd3ab30b27db"},"vehicle_type_id":"4","last_reported":1747642580,"current_range_meters":16800,"station_id":"ce4bhih2rcd13ifvqfs0","pricing_plan_id":"cebpf4jnsgd1na2vs0mg"},{"bike_id":"039352ed-40b5-4c81-ab12-062a0e273550","system_id":"levelo_inurba_marseille","lat":43.23968,"lon":5.36629,"is_reserved":false,"is_disabled":false,"rental_uris":{"android":"levelo://app?vid=039352ed-40b5-4c81-ab12-062a0e273550","ios":"levelo://app?vid=039352ed-40b5-4c81-ab12-062a0e273550"},"vehicle_type_id":"4","last_reported":1747642580,"current_range_meters":16800,"station_id":"ce4bhi12rcd13ifvqfp0","pricing_plan_id":"cebpf4jnsgd1na2vs0mg"},{"bike_id":"2829c647-ef2c-47a2-b098-16b2519583d3","system_id":"levelo_inurba_marseille","lat":43.29046,"lon":5.37563,"is_reserved":false,"is_disabled":false,"rental_uris":{"android":"levelo://app?vid=2829c647-ef2c-47a2-b098-16b2519583d3","ios":"levelo://app?vid=2829c647-ef2c-47a2-b098-16b2519583d3"},"vehicle_type_id":"4","last_reported":1747642580,"current_range_meters":16800,"station_id":"ce4bh692rcd13ifvqe90","pricing_plan_id":"cebpf4jnsgd1na2vs0mg"},{"bike_id":"5738bfd3-f4dd-4a4b-bee5-9143fc7eea06","system_id":"levelo_inurba_marseille","lat":43.30912,"lon":5.36846,"is_reserved":false,"is_disabled":false,"rental_uris":{"android":"levelo://app?vid=5738bfd3-f4dd-4a4b-bee5-9143fc7eea06","ios":"levelo://app?vid=5738bfd3-f4dd-4a4b-bee5-9143fc7eea06"},"vehicle_type_id":"4","last_reported":1747642580,"current_range_meters":17200,"station_id":"ce4bgn92rcd13ifvqbvg","pricing_plan_id":"cebpf4jnsgd1na2vs0mg"},{"bike_id":"1844f55d-0b4f-4ef0-bf3a-b0b9b8d26988","system_id":"levelo_inurba_marseille","lat":43.32478,"lon":5.36564,"is_reserved":false,"is_disabled":false,"rental_uris":{"android":"levelo://app?vid=1844f55d-0b4f-4ef0-bf3a-b0b9b8d26988","ios":"levelo://app?vid=1844f55d-0b4f-4ef0-bf3a-b0b9b8d26988"},"vehicle_type_id":"4","last_reported":1747642580,"current_range_meters":17200,"station_id":"ce4bhs12rcd13ifvqhvg","pricing_plan_id":"cebpf4jnsgd1na2vs0mg"},{"bike_id":"a73e6b8f-227f-455c-8988-dae9916dcd66","system_id":"levelo_inurba_marseille","lat":43.27067,"lon":5.42283,"is_reserved":false,"is_disabled":false,"rental_uris":{"android":"levelo://app?vid=a73e6b8f-227f-455c-8988-dae9916dcd66","ios":"levelo://app?vid=a73e6b8f-227f-455c-8988-dae9916dcd66"},"vehicle_type_id":"4","last_reported":1747642580,"current_range_meters":17200,"station_id":"ce4bhk92rcd13ifvqgb0","pricing_plan_id":"cebpf4jnsgd1na2vs0mg"},{"bike_id":"28f45564-465a-406a-9f7f-ac04ecf5329b","system_id":"levelo_inurba_marseille","lat":43.32473,"lon":5.36563,"is_reserved":false,"is_disabled":false,"rental_uris":{"android":"levelo://app?vid=28f45564-465a-406a-9f7f-ac04ecf5329b","ios":"levelo://app?vid=28f45564-465a-406a-9f7f-ac04ecf5329b"},"vehicle_type_id":"4","last_reported":1747642580,"current_range_meters":17200,"station_id":"ce4bhs12rcd13ifvqhvg","pricing_plan_id":"cebpf4jnsgd1na2vs0mg"},{"bike_id":"e047b05a-36e0-4e37-b294-3b5ddd602af4","system_id":"levelo_inurba_marseille","lat":43.285812,"lon":5.394946,"is_reserved":false,"is_disabled":true,"rental_uris":{"android":"levelo://app?vid=e047b05a-36e0-4e37-b294-3b5ddd602af4","ios":"levelo://app?vid=e047b05a-36e0-4e37-b294-3b5ddd602af4"},"vehicle_type_id":"4","last_reported":1747642580,"current_range_meters":17200,"station_id":"","pricing_plan_id":"cebpf4jnsgd1na2vs0mg"},{"bike_id":"ec5696db-b3a4-4ace-9494-c5ae12f4361d","system_id":"levelo_inurba_marseille","lat":43.2746,"lon":5.36054,"is_reserved":false,"is_disabled":true,"rental_uris":{"android":"levelo://app?vid=ec5696db-b3a4-4ace-9494-c5ae12f4361d","ios":"levelo://app?vid=ec5696db-b3a4-4ace-9494-c5ae12f4361d"},"vehicle_type_id":"4","last_reported":1747642580,"current_range_meters":17200,"station_id":"","pricing_plan_id":"cebpf4jnsgd1na2vs0mg"},{"bike_id":"02c927b1-370d-4d96-a50d-a75d16e4778c","system_id":"levelo_inurba_marseille","lat":43.24064,"lon":5.37766,"is_reserved":false,"is_disabled":false,"rental_uris":{"android":"levelo://app?vid=02c927b1-370d-4d96-a50d-a75d16e4778c","ios":"levelo://app?vid=02c927b1-370d-4d96-a50d-a75d16e4778c"},"vehicle_type_id":"4","last_reported":1747642580,"current_range_meters":17200,"station_id":"ce4bhnp2rcd13ifvqgvg","pricing_plan_id":"cebpf4jnsgd1na2vs0mg"},{"bike_id":"0f5c92df-9eb3-43f2-ab31-5fe4585d1334","system_id":"levelo_inurba_marseille","lat":43.3379,"lon":5.37419,"is_reserved":false,"is_disabled":false,"rental_uris":{"android":"levelo://app?vid=0f5c92df-9eb3-43f2-ab31-5fe4585d1334","ios":"levelo://app?vid=0f5c92df-9eb3-43f2-ab31-5fe4585d1334"},"vehicle_type_id":"4","last_reported":1747642580,"current_range_meters":17600,"station_id":"","pricing_plan_id":"cebpf4jnsgd1na2vs0mg"},{"bike_id":"ab7d1ddb-c6ab-4c47-831b-69e06fb8bb1b","system_id":"levelo_inurba_marseille","lat":43.21738,"lon":5.34604,"is_reserved":false,"is_disabled":false,"rental_uris":{"android":"levelo://app?vid=ab7d1ddb-c6ab-4c47-831b-69e06fb8bb1b","ios":"levelo://app?vid=ab7d1ddb-c6ab-4c47-831b-69e06fb8bb1b"},"vehicle_type_id":"4","last_reported":1747642580,"current_range_meters":17600,"station_id":"st_cvj6r9ubvosntc0bgbag","pricing_plan_id":"cebpf4jnsgd1na2vs0mg"},{"bike_id":"99d624d1-b838-4730-a163-41f258a0b11e","system_id":"levelo_inurba_marseille","lat":43.31235,"lon":5.36867,"is_reserved":false,"is_disabled":false,"rental_uris":{"android":"levelo://app?vid=99d624d1-b838-4730-a163-41f258a0b11e","ios":"levelo://app?vid=99d624d1-b838-4730-a163-41f258a0b11e"},"vehicle_type_id":"4","last_reported":1747642580,"current_range_meters":17600,"station_id":"ce4bgl92rcd13ifvqbq0","pricing_plan_id":"cebpf4jnsgd1na2vs0mg"},{"bike_id":"1a5dfaed-6ded-4d52-a7ba-f4aff9307f6b","system_id":"levelo_inurba_marseille","lat":43.24178,"lon":5.39735,"is_reserved":false,"is_disabled":false,"rental_uris":{"android":"levelo://app?vid=1a5dfaed-6ded-4d52-a7ba-f4aff9307f6b","ios":"levelo://app?vid=1a5dfaed-6ded-4d52-a7ba-f4aff9307f6b"},"vehicle_type_id":"4","last_reported":1747642580,"current_range_meters":17600,"station_id":"ce4bhn12rcd13ifvqgpg","pricing_plan_id":"cebpf4jnsgd1na2vs0mg"},{"bike_id":"53882ed9-e061-4498-98dc-917b66609f40","system_id":"levelo_inurba_marseille","lat":43.25925,"lon":5.40928,"is_reserved":false,"is_disabled":false,"rental_uris":{"android":"levelo://app?vid=53882ed9-e061-4498-98dc-917b66609f40","ios":"levelo://app?vid=53882ed9-e061-4498-98dc-917b66609f40"},"vehicle_type_id":"4","last_reported":1747642580,"current_range_meters":17600,"station_id":"ce4bhm92rcd13ifvqglg","pricing_plan_id":"cebpf4jnsgd1na2vs0mg"},{"bike_id":"65b05e62-1155-47a7-b5a7-3d8242137a17","system_id":"levelo_inurba_marseille","lat":43.30536,"lon":5.36702,"is_reserved":false,"is_disabled":false,"rental_uris":{"android":"levelo://app?vid=65b05e62-1155-47a7-b5a7-3d8242137a17","ios":"levelo://app?vid=65b05e62-1155-47a7-b5a7-3d8242137a17"},"vehicle_type_id":"4","last_reported":1747642580,"current_range_meters":17600,"station_id":"ce4bgrp2rcd13ifvqc9g","pricing_plan_id":"cebpf4jnsgd1na2vs0mg"},{"bike_id":"9c8038dc-1156-4130-8a24-62a9599816af","system_id":"levelo_inurba_marseille","lat":43.32363,"lon":5.36753,"is_reserved":false,"is_disabled":false,"rental_uris":{"android":"levelo://app?vid=9c8038dc-1156-4130-8a24-62a9599816af","ios":"levelo://app?vid=9c8038dc-1156-4130-8a24-62a9599816af"},"vehicle_type_id":"4","last_reported":1747642580,"current_range_meters":18000,"station_id":"ce4bhsh2rcd13ifvqi2g","pricing_plan_id":"cebpf4jnsgd1na2vs0mg"},{"bike_id":"e2e3a6f6-0f08-4185-b27b-75bc9500a96d","system_id":"levelo_inurba_marseille","lat":43.211976,"lon":5.350768,"is_reserved":false,"is_disabled":false,"rental_uris":{"android":"levelo://app?vid=e2e3a6f6-0f08-4185-b27b-75bc9500a96d","ios":"levelo://app?vid=e2e3a6f6-0f08-4185-b27b-75bc9500a96d"},"vehicle_type_id":"4","last_reported":1747642580,"current_range_meters":18000,"station_id":"st_cvj6sg6p6f1abm77japg","pricing_plan_id":"cebpf4jnsgd1na2vs0mg"},{"bike_id":"a864ad29-6c84-4582-a090-62d04f114bae","system_id":"levelo_inurba_marseille","lat":43.24385,"lon":5.37061,"is_reserved":false,"is_disabled":false,"rental_uris":{"android":"levelo://app?vid=a864ad29-6c84-4582-a090-62d04f114bae","ios":"levelo://app?vid=a864ad29-6c84-4582-a090-62d04f114bae"},"vehicle_type_id":"4","last_reported":1747642580,"current_range_meters":18000,"station_id":"ce4bhhh2rcd13ifvqfk0","pricing_plan_id":"cebpf4jnsgd1na2vs0mg"},{"bike_id":"3552fbf2-b43a-446f-93f5-d695fc251b73","system_id":"levelo_inurba_marseille","lat":43.25192,"lon":5.37509,"is_reserved":false,"is_disabled":false,"rental_uris":{"android":"levelo://app?vid=3552fbf2-b43a-446f-93f5-d695fc251b73","ios":"levelo://app?vid=3552fbf2-b43a-446f-93f5-d695fc251b73"},"vehicle_type_id":"4","last_reported":1747642580,"current_range_meters":18000,"station_id":"","pricing_plan_id":"cebpf4jnsgd1na2vs0mg"},{"bike_id":"6a50582b-4d2e-4e05-9cfe-28d375152d81","system_id":"levelo_inurba_marseille","lat":43.24659,"lon":5.38165,"is_reserved":false,"is_disabled":false,"rental_uris":{"android":"levelo://app?vid=6a50582b-4d2e-4e05-9cfe-28d375152d81","ios":"levelo://app?vid=6a50582b-4d2e-4e05-9cfe-28d375152d81"},"vehicle_type_id":"4","last_reported":1747642580,"current_range_meters":18000,"station_id":"ce4bhih2rcd13ifvqfr0","pricing_plan_id":"cebpf4jnsgd1na2vs0mg"},{"bike_id":"b37a6bf4-0ed4-4334-952f-58845acb946b","system_id":"levelo_inurba_marseille","lat":43.29276,"lon":5.36843,"is_reserved":false,"is_disabled":false,"rental_uris":{"android":"levelo://app?vid=b37a6bf4-0ed4-4334-952f-58845acb946b","ios":"levelo://app?vid=b37a6bf4-0ed4-4334-952f-58845acb946b"},"vehicle_type_id":"4","last_reported":1747642580,"current_range_meters":18000,"station_id":"ce4bhbp2rcd13ifvqesg","pricing_plan_id":"cebpf4jnsgd1na2vs0mg"},{"bike_id":"0db8cec3-0fb2-476c-aadb-33d9473006a5","system_id":"levelo_inurba_marseille","lat":43.30297,"lon":5.36933,"is_reserved":false,"is_disabled":false,"rental_uris":{"android":"levelo://app?vid=0db8cec3-0fb2-476c-aadb-33d9473006a5","ios":"levelo://app?vid=0db8cec3-0fb2-476c-aadb-33d9473006a5"},"vehicle_type_id":"4","last_reported":1747642580,"current_range_meters":18800,"station_id":"ce4bgqh2rcd13ifvqc5g","pricing_plan_id":"cebpf4jnsgd1na2vs0mg"},{"bike_id":"84cdbcfe-858b-402f-930e-44b74aa35e24","system_id":"levelo_inurba_marseille","lat":43.2465,"lon":5.38894,"is_reserved":false,"is_disabled":false,"rental_uris":{"android":"levelo://app?vid=84cdbcfe-858b-402f-930e-44b74aa35e24","ios":"levelo://app?vid=84cdbcfe-858b-402f-930e-44b74aa35e24"},"vehicle_type_id":"4","last_reported":1747642580,"current_range_meters":18800,"station_id":"ce4bhg12rcd13ifvqf60","pricing_plan_id":"cebpf4jnsgd1na2vs0mg"},{"bike_id":"677ce4f0-2027-4faf-ad67-006be1ba409d","system_id":"levelo_inurba_marseille","lat":43.3172,"lon":5.437,"is_reserved":false,"is_disabled":false,"rental_uris":{"android":"levelo://app?vid=677ce4f0-2027-4faf-ad67-006be1ba409d","ios":"levelo://app?vid=677ce4f0-2027-4faf-ad67-006be1ba409d"},"vehicle_type_id":"4","last_reported":1747642580,"current_range_meters":18800,"station_id":"ce4bhp92rcd13ifvqhcg","pricing_plan_id":"cebpf4jnsgd1na2vs0mg"},{"bike_id":"57fcd21c-daa1-4026-801b-cc907c41339e","system_id":"levelo_inurba_marseille","lat":43.3014,"lon":5.38047,"is_reserved":false,"is_disabled":false,"rental_uris":{"android":"levelo://app?vid=57fcd21c-daa1-4026-801b-cc907c41339e","ios":"levelo://app?vid=57fcd21c-daa1-4026-801b-cc907c41339e"},"vehicle_type_id":"4","last_reported":1747642580,"current_range_meters":18800,"station_id":"ce4bgjp2rcd13ifvqbh0","pricing_plan_id":"cebpf4jnsgd1na2vs0mg"},{"bike_id":"e3a44ec2-1f8b-4e27-99a3-7fa8697c2b26","system_id":"levelo_inurba_marseille","lat":43.24545,"lon":5.39523,"is_reserved":false,"is_disabled":false,"rental_uris":{"android":"levelo://app?vid=e3a44ec2-1f8b-4e27-99a3-7fa8697c2b26","ios":"levelo://app?vid=e3a44ec2-1f8b-4e27-99a3-7fa8697c2b26"},"vehicle_type_id":"4","last_reported":1747642580,"current_range_meters":18000,"station_id":"ce4bhlp2rcd13ifvqgjg","pricing_plan_id":"cebpf4jnsgd1na2vs0mg"},{"bike_id":"856e1621-6ab6-41f8-b3bb-25a2d12d9b9f","system_id":"levelo_inurba_marseille","lat":43.31241,"lon":5.36864,"is_reserved":false,"is_disabled":false,"rental_uris":{"android":"levelo://app?vid=856e1621-6ab6-41f8-b3bb-25a2d12d9b9f","ios":"levelo://app?vid=856e1621-6ab6-41f8-b3bb-25a2d12d9b9f"},"vehicle_type_id":"4","last_reported":1747642580,"current_range_meters":18800,"station_id":"ce4bgl92rcd13ifvqbq0","pricing_plan_id":"cebpf4jnsgd1na2vs0mg"},{"bike_id":"aa60a11c-5a82-49ce-a8fb-bbc7ab3b051b","system_id":"levelo_inurba_marseille","lat":43.3171,"lon":5.37746,"is_reserved":false,"is_disabled":false,"rental_uris":{"android":"levelo://app?vid=aa60a11c-5a82-49ce-a8fb-bbc7ab3b051b","ios":"levelo://app?vid=aa60a11c-5a82-49ce-a8fb-bbc7ab3b051b"},"vehicle_type_id":"4","last_reported":1747642580,"current_range_meters":18800,"station_id":"ce4bgth2rcd13ifvqch0","pricing_plan_id":"cebpf4jnsgd1na2vs0mg"},{"bike_id":"e0cef50a-4ece-4e74-b256-2b6f863bd396","system_id":"levelo_inurba_marseille","lat":43.25939,"lon":5.40903,"is_reserved":false,"is_disabled":false,"rental_uris":{"android":"levelo://app?vid=e0cef50a-4ece-4e74-b256-2b6f863bd396","ios":"levelo://app?vid=e0cef50a-4ece-4e74-b256-2b6f863bd396"},"vehicle_type_id":"4","last_reported":1747642580,"current_range_meters":19200,"station_id":"ce4bhm92rcd13ifvqglg","pricing_plan_id":"cebpf4jnsgd1na2vs0mg"},{"bike_id":"8675cc91-343d-4f04-a5ab-d440461b07f3","system_id":"levelo_inurba_marseille","lat":43.25935,"lon":5.40909,"is_reserved":false,"is_disabled":false,"rental_uris":{"android":"levelo://app?vid=8675cc91-343d-4f04-a5ab-d440461b07f3","ios":"levelo://app?vid=8675cc91-343d-4f04-a5ab-d440461b07f3"},"vehicle_type_id":"4","last_reported":1747642580,"current_range_meters":19200,"station_id":"ce4bhm92rcd13ifvqglg","pricing_plan_id":"cebpf4jnsgd1na2vs0mg"},{"bike_id":"26283993-e9c8-469b-b1ea-05a027988f4d","system_id":"levelo_inurba_marseille","lat":43.25493,"lon":5.37654,"is_reserved":false,"is_disabled":true,"rental_uris":{"android":"levelo://app?vid=26283993-e9c8-469b-b1ea-05a027988f4d","ios":"levelo://app?vid=26283993-e9c8-469b-b1ea-05a027988f4d"},"vehicle_type_id":"4","last_reported":1747642580,"current_range_meters":19200,"station_id":"","pricing_plan_id":"cebpf4jnsgd1na2vs0mg"},{"bike_id":"143383ab-df8a-4bfb-bc09-4c05e3617dc8","system_id":"levelo_inurba_marseille","lat":43.3118,"lon":5.38713,"is_reserved":false,"is_disabled":true,"rental_uris":{"android":"levelo://app?vid=143383ab-df8a-4bfb-bc09-4c05e3617dc8","ios":"levelo://app?vid=143383ab-df8a-4bfb-bc09-4c05e3617dc8"},"vehicle_type_id":"4","last_reported":1747642580,"current_range_meters":19200,"station_id":"ce4bgv12rcd13ifvqcp0","pricing_plan_id":"cebpf4jnsgd1na2vs0mg"},{"bike_id":"3f7fe803-6821-4217-89f8-fc9b77e464f6","system_id":"levelo_inurba_marseille","lat":43.31402,"lon":5.36715,"is_reserved":false,"is_disabled":false,"rental_uris":{"android":"levelo://app?vid=3f7fe803-6821-4217-89f8-fc9b77e464f6","ios":"levelo://app?vid=3f7fe803-6821-4217-89f8-fc9b77e464f6"},"vehicle_type_id":"4","last_reported":1747642580,"current_range_meters":19200,"station_id":"","pricing_plan_id":"cebpf4jnsgd1na2vs0mg"},{"bike_id":"a162cffd-ee20-4551-903b-8d20a74c4973","system_id":"levelo_inurba_marseille","lat":43.305562,"lon":5.366954,"is_reserved":false,"is_disabled":false,"rental_uris":{"android":"levelo://app?vid=a162cffd-ee20-4551-903b-8d20a74c4973","ios":"levelo://app?vid=a162cffd-ee20-4551-903b-8d20a74c4973"},"vehicle_type_id":"4","last_reported":1747642580,"current_range_meters":19200,"station_id":"ce4bgrp2rcd13ifvqc9g","pricing_plan_id":"cebpf4jnsgd1na2vs0mg"},{"bike_id":"85d0eee4-7023-4816-8341-7b198d182543","system_id":"levelo_inurba_marseille","lat":43.25941,"lon":5.40885,"is_reserved":false,"is_disabled":false,"rental_uris":{"android":"levelo://app?vid=85d0eee4-7023-4816-8341-7b198d182543","ios":"levelo://app?vid=85d0eee4-7023-4816-8341-7b198d182543"},"vehicle_type_id":"4","last_reported":1747642580,"current_range_meters":19200,"station_id":"ce4bhm92rcd13ifvqglg","pricing_plan_id":"cebpf4jnsgd1na2vs0mg"},{"bike_id":"14a74884-39a6-43bc-b361-8ca42f8cba0e","system_id":"levelo_inurba_marseille","lat":43.27969,"lon":5.38752,"is_reserved":false,"is_disabled":false,"rental_uris":{"android":"levelo://app?vid=14a74884-39a6-43bc-b361-8ca42f8cba0e","ios":"levelo://app?vid=14a74884-39a6-43bc-b361-8ca42f8cba0e"},"vehicle_type_id":"4","last_reported":1747642580,"current_range_meters":19200,"station_id":"ce4bhg12rcd13ifvqf80","pricing_plan_id":"cebpf4jnsgd1na2vs0mg"},{"bike_id":"8b0c0445-85ab-43ad-8c65-d4ac7abea048","system_id":"levelo_inurba_marseille","lat":43.309561,"lon":5.390424,"is_reserved":false,"is_disabled":false,"rental_uris":{"android":"levelo://app?vid=8b0c0445-85ab-43ad-8c65-d4ac7abea048","ios":"levelo://app?vid=8b0c0445-85ab-43ad-8c65-d4ac7abea048"},"vehicle_type_id":"4","last_reported":1747642580,"current_range_meters":19200,"station_id":"ce4bgup2rcd13ifvqco0","pricing_plan_id":"cebpf4jnsgd1na2vs0mg"},{"bike_id":"800b18d5-afe7-4aab-9e9d-52557b959315","system_id":"levelo_inurba_marseille","lat":43.29847,"lon":5.36275,"is_reserved":false,"is_disabled":false,"rental_uris":{"android":"levelo://app?vid=800b18d5-afe7-4aab-9e9d-52557b959315","ios":"levelo://app?vid=800b18d5-afe7-4aab-9e9d-52557b959315"},"vehicle_type_id":"4","last_reported":1747642580,"current_range_meters":19600,"station_id":"ce4bgpp2rcd13ifvqc3g","pricing_plan_id":"cebpf4jnsgd1na2vs0mg"},{"bike_id":"71029eda-7095-4591-ae29-b1a8a1bde677","system_id":"levelo_inurba_marseille","lat":43.27485,"lon":5.42472,"is_reserved":false,"is_disabled":false,"rental_uris":{"android":"levelo://app?vid=71029eda-7095-4591-ae29-b1a8a1bde677","ios":"levelo://app?vid=71029eda-7095-4591-ae29-b1a8a1bde677"},"vehicle_type_id":"4","last_reported":1747642580,"current_range_meters":19600,"station_id":"ce4bhn92rcd13ifvqgrg","pricing_plan_id":"cebpf4jnsgd1na2vs0mg"},{"bike_id":"7019c47b-11f1-47de-8113-a3e4dd944a9a","system_id":"levelo_inurba_marseille","lat":43.26799,"lon":5.40272,"is_reserved":false,"is_disabled":false,"rental_uris":{"android":"levelo://app?vid=7019c47b-11f1-47de-8113-a3e4dd944a9a","ios":"levelo://app?vid=7019c47b-11f1-47de-8113-a3e4dd944a9a"},"vehicle_type_id":"4","last_reported":1747642580,"current_range_meters":19600,"station_id":"ce501612rcd8frsf0b60","pricing_plan_id":"cebpf4jnsgd1na2vs0mg"},{"bike_id":"6b212777-5a17-4018-8ad4-b1bc66527b2d","system_id":"levelo_inurba_marseille","lat":43.2796,"lon":5.38679,"is_reserved":false,"is_disabled":false,"rental_uris":{"android":"levelo://app?vid=6b212777-5a17-4018-8ad4-b1bc66527b2d","ios":"levelo://app?vid=6b212777-5a17-4018-8ad4-b1bc66527b2d"},"vehicle_type_id":"4","last_reported":1747642580,"current_range_meters":19600,"station_id":"ce4bhg12rcd13ifvqf80","pricing_plan_id":"cebpf4jnsgd1na2vs0mg"},{"bike_id":"8ced5e2c-7b98-47f1-937a-5f00fd7c9437","system_id":"levelo_inurba_marseille","lat":43.24063,"lon":5.37789,"is_reserved":false,"is_disabled":false,"rental_uris":{"android":"levelo://app?vid=8ced5e2c-7b98-47f1-937a-5f00fd7c9437","ios":"levelo://app?vid=8ced5e2c-7b98-47f1-937a-5f00fd7c9437"},"vehicle_type_id":"4","last_reported":1747642580,"current_range_meters":19600,"station_id":"ce4bhnp2rcd13ifvqgvg","pricing_plan_id":"cebpf4jnsgd1na2vs0mg"},{"bike_id":"945624eb-00ac-4f15-9b1e-c5fc124c2d0b","system_id":"levelo_inurba_marseille","lat":43.279195,"lon":5.413872,"is_reserved":false,"is_disabled":false,"rental_uris":{"android":"levelo://app?vid=945624eb-00ac-4f15-9b1e-c5fc124c2d0b","ios":"levelo://app?vid=945624eb-00ac-4f15-9b1e-c5fc124c2d0b"},"vehicle_type_id":"4","last_reported":1747642580,"current_range_meters":20000,"station_id":"ce4bhnp2rcd13ifvqh0g","pricing_plan_id":"cebpf4jnsgd1na2vs0mg"},{"bike_id":"7fe4927c-5754-4d2d-98e1-38c577e83eae","system_id":"levelo_inurba_marseille","lat":43.24084,"lon":5.37749,"is_reserved":false,"is_disabled":false,"rental_uris":{"android":"levelo://app?vid=7fe4927c-5754-4d2d-98e1-38c577e83eae","ios":"levelo://app?vid=7fe4927c-5754-4d2d-98e1-38c577e83eae"},"vehicle_type_id":"4","last_reported":1747642580,"current_range_meters":20000,"station_id":"ce4bhnp2rcd13ifvqgvg","pricing_plan_id":"cebpf4jnsgd1na2vs0mg"},{"bike_id":"d42445ec-3b07-4d2a-b632-a9cfb3180b3e","system_id":"levelo_inurba_marseille","lat":43.29275,"lon":5.36847,"is_reserved":false,"is_disabled":false,"rental_uris":{"android":"levelo://app?vid=d42445ec-3b07-4d2a-b632-a9cfb3180b3e","ios":"levelo://app?vid=d42445ec-3b07-4d2a-b632-a9cfb3180b3e"},"vehicle_type_id":"4","last_reported":1747642580,"current_range_meters":20400,"station_id":"ce4bhbp2rcd13ifvqesg","pricing_plan_id":"cebpf4jnsgd1na2vs0mg"},{"bike_id":"3595b539-6648-48d6-9989-e32f81fe0bfd","system_id":"levelo_inurba_marseille","lat":43.30523,"lon":5.36534,"is_reserved":false,"is_disabled":false,"rental_uris":{"android":"levelo://app?vid=3595b539-6648-48d6-9989-e32f81fe0bfd","ios":"levelo://app?vid=3595b539-6648-48d6-9989-e32f81fe0bfd"},"vehicle_type_id":"4","last_reported":1747642580,"current_range_meters":20400,"station_id":"ce4bgs12rcd13ifvqcag","pricing_plan_id":"cebpf4jnsgd1na2vs0mg"},{"bike_id":"69f71d00-48c3-4b3f-8e24-889dea1248b8","system_id":"levelo_inurba_marseille","lat":43.29023,"lon":5.38148,"is_reserved":false,"is_disabled":false,"rental_uris":{"android":"levelo://app?vid=69f71d00-48c3-4b3f-8e24-889dea1248b8","ios":"levelo://app?vid=69f71d00-48c3-4b3f-8e24-889dea1248b8"},"vehicle_type_id":"4","last_reported":1747642580,"current_range_meters":20400,"station_id":"ce4bh4p2rcd13ifvqe1g","pricing_plan_id":"cebpf4jnsgd1na2vs0mg"},{"bike_id":"10788c96-5545-4832-aa2b-738902858d22","system_id":"levelo_inurba_marseille","lat":43.32367,"lon":5.38886,"is_reserved":false,"is_disabled":false,"rental_uris":{"android":"levelo://app?vid=10788c96-5545-4832-aa2b-738902858d22","ios":"levelo://app?vid=10788c96-5545-4832-aa2b-738902858d22"},"vehicle_type_id":"4","last_reported":1747642580,"current_range_meters":20400,"station_id":"ce4bhqp2rcd13ifvqhog","pricing_plan_id":"cebpf4jnsgd1na2vs0mg"},{"bike_id":"5b63be61-1705-4c54-89b0-fe74a5a5261d","system_id":"levelo_inurba_marseille","lat":43.30548,"lon":5.36702,"is_reserved":false,"is_disabled":false,"rental_uris":{"android":"levelo://app?vid=5b63be61-1705-4c54-89b0-fe74a5a5261d","ios":"levelo://app?vid=5b63be61-1705-4c54-89b0-fe74a5a5261d"},"vehicle_type_id":"4","last_reported":1747642580,"current_range_meters":20400,"station_id":"ce4bgrp2rcd13ifvqc9g","pricing_plan_id":"cebpf4jnsgd1na2vs0mg"},{"bike_id":"c2b65f90-d60d-43a1-b164-609642813bbe","system_id":"levelo_inurba_marseille","lat":43.26232,"lon":5.40454,"is_reserved":false,"is_disabled":false,"rental_uris":{"android":"levelo://app?vid=c2b65f90-d60d-43a1-b164-609642813bbe","ios":"levelo://app?vid=c2b65f90-d60d-43a1-b164-609642813bbe"},"vehicle_type_id":"4","last_reported":1747642580,"current_range_meters":20400,"station_id":"ce4bhmh2rcd13ifvqgmg","pricing_plan_id":"cebpf4jnsgd1na2vs0mg"},{"bike_id":"ecf52009-ca9b-412d-975b-4176bd26cabf","system_id":"levelo_inurba_marseille","lat":43.3088,"lon":5.37194,"is_reserved":false,"is_disabled":false,"rental_uris":{"android":"levelo://app?vid=ecf52009-ca9b-412d-975b-4176bd26cabf","ios":"levelo://app?vid=ecf52009-ca9b-412d-975b-4176bd26cabf"},"vehicle_type_id":"4","last_reported":1747642580,"current_range_meters":20800,"station_id":"ce4bguh2rcd13ifvqckg","pricing_plan_id":"cebpf4jnsgd1na2vs0mg"},{"bike_id":"c2bd2cf5-87f5-4f26-bb3a-0b11da19207f","system_id":"levelo_inurba_marseille","lat":43.29016,"lon":5.38127,"is_reserved":false,"is_disabled":false,"rental_uris":{"android":"levelo://app?vid=c2bd2cf5-87f5-4f26-bb3a-0b11da19207f","ios":"levelo://app?vid=c2bd2cf5-87f5-4f26-bb3a-0b11da19207f"},"vehicle_type_id":"4","last_reported":1747642580,"current_range_meters":20800,"station_id":"ce4bh4p2rcd13ifvqe1g","pricing_plan_id":"cebpf4jnsgd1na2vs0mg"},{"bike_id":"114a9c8d-8e86-4467-a4ee-f2cd4cd1f088","system_id":"levelo_inurba_marseille","lat":43.30537,"lon":5.3653,"is_reserved":false,"is_disabled":false,"rental_uris":{"android":"levelo://app?vid=114a9c8d-8e86-4467-a4ee-f2cd4cd1f088","ios":"levelo://app?vid=114a9c8d-8e86-4467-a4ee-f2cd4cd1f088"},"vehicle_type_id":"4","last_reported":1747642580,"current_range_meters":20400,"station_id":"ce4bgs12rcd13ifvqcag","pricing_plan_id":"cebpf4jnsgd1na2vs0mg"},{"bike_id":"bbae9470-c4e6-406c-8e2e-0ffe5e843b63","system_id":"levelo_inurba_marseille","lat":43.21762,"lon":5.34585,"is_reserved":false,"is_disabled":true,"rental_uris":{"android":"levelo://app?vid=bbae9470-c4e6-406c-8e2e-0ffe5e843b63","ios":"levelo://app?vid=bbae9470-c4e6-406c-8e2e-0ffe5e843b63"},"vehicle_type_id":"4","last_reported":1747642580,"current_range_meters":20800,"station_id":"st_cvj6r9ubvosntc0bgbag","pricing_plan_id":"cebpf4jnsgd1na2vs0mg"},{"bike_id":"1da3dd3e-2be6-4309-a868-aeda44405d11","system_id":"levelo_inurba_marseille","lat":43.28688,"lon":5.40007,"is_reserved":false,"is_disabled":false,"rental_uris":{"android":"levelo://app?vid=1da3dd3e-2be6-4309-a868-aeda44405d11","ios":"levelo://app?vid=1da3dd3e-2be6-4309-a868-aeda44405d11"},"vehicle_type_id":"4","last_reported":1747642580,"current_range_meters":20800,"station_id":"ce4bho92rcd13ifvqh3g","pricing_plan_id":"cebpf4jnsgd1na2vs0mg"},{"bike_id":"07cad049-bb8a-49bd-a7c4-8693a4714c17","system_id":"levelo_inurba_marseille","lat":43.30529,"lon":5.36534,"is_reserved":false,"is_disabled":false,"rental_uris":{"android":"levelo://app?vid=07cad049-bb8a-49bd-a7c4-8693a4714c17","ios":"levelo://app?vid=07cad049-bb8a-49bd-a7c4-8693a4714c17"},"vehicle_type_id":"4","last_reported":1747642580,"current_range_meters":20800,"station_id":"ce4bgs12rcd13ifvqcag","pricing_plan_id":"cebpf4jnsgd1na2vs0mg"},{"bike_id":"97a86dc9-cdbb-4884-892e-ffc3c535da38","system_id":"levelo_inurba_marseille","lat":43.241,"lon":5.38147,"is_reserved":false,"is_disabled":false,"rental_uris":{"android":"levelo://app?vid=97a86dc9-cdbb-4884-892e-ffc3c535da38","ios":"levelo://app?vid=97a86dc9-cdbb-4884-892e-ffc3c535da38"},"vehicle_type_id":"4","last_reported":1747642580,"current_range_meters":21600,"station_id":"","pricing_plan_id":"cebpf4jnsgd1na2vs0mg"},{"bike_id":"c7fa045b-8abd-4bd8-ac58-69864d07dca7","system_id":"levelo_inurba_marseille","lat":43.32115,"lon":5.36779,"is_reserved":false,"is_disabled":false,"rental_uris":{"android":"levelo://app?vid=c7fa045b-8abd-4bd8-ac58-69864d07dca7","ios":"levelo://app?vid=c7fa045b-8abd-4bd8-ac58-69864d07dca7"},"vehicle_type_id":"4","last_reported":1747642580,"current_range_meters":21600,"station_id":"ce4bhrh2rcd13ifvqhug","pricing_plan_id":"cebpf4jnsgd1na2vs0mg"},{"bike_id":"6b30b3ae-69a8-47a0-8c82-3a3f70d8e96a","system_id":"levelo_inurba_marseille","lat":43.27497,"lon":5.42451,"is_reserved":false,"is_disabled":false,"rental_uris":{"android":"levelo://app?vid=6b30b3ae-69a8-47a0-8c82-3a3f70d8e96a","ios":"levelo://app?vid=6b30b3ae-69a8-47a0-8c82-3a3f70d8e96a"},"vehicle_type_id":"4","last_reported":1747642580,"current_range_meters":21600,"station_id":"ce4bhn92rcd13ifvqgrg","pricing_plan_id":"cebpf4jnsgd1na2vs0mg"},{"bike_id":"f4170fd5-a6e5-41cb-ae41-3f7d837ec3b6","system_id":"levelo_inurba_marseille","lat":43.3054,"lon":5.36704,"is_reserved":false,"is_disabled":false,"rental_uris":{"android":"levelo://app?vid=f4170fd5-a6e5-41cb-ae41-3f7d837ec3b6","ios":"levelo://app?vid=f4170fd5-a6e5-41cb-ae41-3f7d837ec3b6"},"vehicle_type_id":"4","last_reported":1747642580,"current_range_meters":21600,"station_id":"ce4bgrp2rcd13ifvqc9g","pricing_plan_id":"cebpf4jnsgd1na2vs0mg"},{"bike_id":"0b322119-05fc-4cad-af41-382e20062fe4","system_id":"levelo_inurba_marseille","lat":43.289493,"lon":5.378454,"is_reserved":false,"is_disabled":false,"rental_uris":{"android":"levelo://app?vid=0b322119-05fc-4cad-af41-382e20062fe4","ios":"levelo://app?vid=0b322119-05fc-4cad-af41-382e20062fe4"},"vehicle_type_id":"4","last_reported":1747642580,"current_range_meters":21600,"station_id":"ce4bh9p2rcd13ifvqec0","pricing_plan_id":"cebpf4jnsgd1na2vs0mg"},{"bike_id":"71031d0e-2ac2-4ec7-b0c7-df31a0a04af4","system_id":"levelo_inurba_marseille","lat":43.2407,"lon":5.37761,"is_reserved":false,"is_disabled":false,"rental_uris":{"android":"levelo://app?vid=71031d0e-2ac2-4ec7-b0c7-df31a0a04af4","ios":"levelo://app?vid=71031d0e-2ac2-4ec7-b0c7-df31a0a04af4"},"vehicle_type_id":"4","last_reported":1747642580,"current_range_meters":21600,"station_id":"ce4bhnp2rcd13ifvqgvg","pricing_plan_id":"cebpf4jnsgd1na2vs0mg"},{"bike_id":"26e3197a-e030-4300-822e-6b091894a6fd","system_id":"levelo_inurba_marseille","lat":43.30952,"lon":5.39059,"is_reserved":false,"is_disabled":false,"rental_uris":{"android":"levelo://app?vid=26e3197a-e030-4300-822e-6b091894a6fd","ios":"levelo://app?vid=26e3197a-e030-4300-822e-6b091894a6fd"},"vehicle_type_id":"4","last_reported":1747642580,"current_range_meters":21600,"station_id":"ce4bgup2rcd13ifvqco0","pricing_plan_id":"cebpf4jnsgd1na2vs0mg"},{"bike_id":"2ecab333-0922-48af-bd4b-93424c25f839","system_id":"levelo_inurba_marseille","lat":43.3014,"lon":5.38059,"is_reserved":false,"is_disabled":false,"rental_uris":{"android":"levelo://app?vid=2ecab333-0922-48af-bd4b-93424c25f839","ios":"levelo://app?vid=2ecab333-0922-48af-bd4b-93424c25f839"},"vehicle_type_id":"4","last_reported":1747642580,"current_range_meters":22000,"station_id":"ce4bgjp2rcd13ifvqbh0","pricing_plan_id":"cebpf4jnsgd1na2vs0mg"},{"bike_id":"c2041209-65ed-4ff0-abc8-4a8d6f93dcbe","system_id":"levelo_inurba_marseille","lat":43.28288,"lon":5.35074,"is_reserved":false,"is_disabled":true,"rental_uris":{"android":"levelo://app?vid=c2041209-65ed-4ff0-abc8-4a8d6f93dcbe","ios":"levelo://app?vid=c2041209-65ed-4ff0-abc8-4a8d6f93dcbe"},"vehicle_type_id":"4","last_reported":1747642580,"current_range_meters":22000,"station_id":"ce4bhbp2rcd13ifvqerg","pricing_plan_id":"cebpf4jnsgd1na2vs0mg"},{"bike_id":"6bf9a0f9-6619-41bb-a135-f9d0073c713f","system_id":"levelo_inurba_marseille","lat":43.30907,"lon":5.36858,"is_reserved":false,"is_disabled":false,"rental_uris":{"android":"levelo://app?vid=6bf9a0f9-6619-41bb-a135-f9d0073c713f","ios":"levelo://app?vid=6bf9a0f9-6619-41bb-a135-f9d0073c713f"},"vehicle_type_id":"4","last_reported":1747642580,"current_range_meters":22000,"station_id":"ce4bgn92rcd13ifvqbvg","pricing_plan_id":"cebpf4jnsgd1na2vs0mg"},{"bike_id":"ced441dc-6911-44a5-8234-8cb0fa777064","system_id":"levelo_inurba_marseille","lat":43.27082,"lon":5.42264,"is_reserved":false,"is_disabled":false,"rental_uris":{"android":"levelo://app?vid=ced441dc-6911-44a5-8234-8cb0fa777064","ios":"levelo://app?vid=ced441dc-6911-44a5-8234-8cb0fa777064"},"vehicle_type_id":"4","last_reported":1747642580,"current_range_meters":22000,"station_id":"ce4bhk92rcd13ifvqgb0","pricing_plan_id":"cebpf4jnsgd1na2vs0mg"},{"bike_id":"fee6a7cb-33f9-47d0-bb6f-573510435eb5","system_id":"levelo_inurba_marseille","lat":43.2872,"lon":5.3794,"is_reserved":false,"is_disabled":false,"rental_uris":{"android":"levelo://app?vid=fee6a7cb-33f9-47d0-bb6f-573510435eb5","ios":"levelo://app?vid=fee6a7cb-33f9-47d0-bb6f-573510435eb5"},"vehicle_type_id":"4","last_reported":1747642580,"current_range_meters":21600,"station_id":"ce4bh9p2rcd13ifvqec0","pricing_plan_id":"cebpf4jnsgd1na2vs0mg"},{"bike_id":"51dec999-0db6-457a-83a5-698a5871ea91","system_id":"levelo_inurba_marseille","lat":43.29302,"lon":5.37442,"is_reserved":false,"is_disabled":false,"rental_uris":{"android":"levelo://app?vid=51dec999-0db6-457a-83a5-698a5871ea91","ios":"levelo://app?vid=51dec999-0db6-457a-83a5-698a5871ea91"},"vehicle_type_id":"4","last_reported":1747642580,"current_range_meters":21600,"station_id":"ce4bgi12rcd13ifvqb70","pricing_plan_id":"cebpf4jnsgd1na2vs0mg"},{"bike_id":"68bb30dc-b57f-4ec3-b677-21ce290a83d1","system_id":"levelo_inurba_marseille","lat":43.29619,"lon":5.37161,"is_reserved":false,"is_disabled":false,"rental_uris":{"android":"levelo://app?vid=68bb30dc-b57f-4ec3-b677-21ce290a83d1","ios":"levelo://app?vid=68bb30dc-b57f-4ec3-b677-21ce290a83d1"},"vehicle_type_id":"4","last_reported":1747642580,"current_range_meters":21600,"station_id":"ce4bgnh2rcd13ifvqc0g","pricing_plan_id":"cebpf4jnsgd1na2vs0mg"},{"bike_id":"3265367e-e3ff-4855-bed5-c095f79ea78a","system_id":"levelo_inurba_marseille","lat":43.30302,"lon":5.36889,"is_reserved":false,"is_disabled":false,"rental_uris":{"android":"levelo://app?vid=3265367e-e3ff-4855-bed5-c095f79ea78a","ios":"levelo://app?vid=3265367e-e3ff-4855-bed5-c095f79ea78a"},"vehicle_type_id":"4","last_reported":1747642580,"current_range_meters":22000,"station_id":"ce4bgqh2rcd13ifvqc5g","pricing_plan_id":"cebpf4jnsgd1na2vs0mg"},{"bike_id":"f76867c8-a85a-4246-8c62-b7bba82c5b6a","system_id":"levelo_inurba_marseille","lat":43.23962,"lon":5.36631,"is_reserved":false,"is_disabled":false,"rental_uris":{"android":"levelo://app?vid=f76867c8-a85a-4246-8c62-b7bba82c5b6a","ios":"levelo://app?vid=f76867c8-a85a-4246-8c62-b7bba82c5b6a"},"vehicle_type_id":"4","last_reported":1747642580,"current_range_meters":22000,"station_id":"ce4bhi12rcd13ifvqfp0","pricing_plan_id":"cebpf4jnsgd1na2vs0mg"},{"bike_id":"993c1740-5598-43ba-858d-1a71a77fd75a","system_id":"levelo_inurba_marseille","lat":43.239451,"lon":5.365989,"is_reserved":false,"is_disabled":false,"rental_uris":{"android":"levelo://app?vid=993c1740-5598-43ba-858d-1a71a77fd75a","ios":"levelo://app?vid=993c1740-5598-43ba-858d-1a71a77fd75a"},"vehicle_type_id":"4","last_reported":1747642580,"current_range_meters":22000,"station_id":"ce4bhi12rcd13ifvqfp0","pricing_plan_id":"cebpf4jnsgd1na2vs0mg"},{"bike_id":"c994d57b-48e2-467a-9cbc-6a4f3e8f2a20","system_id":"levelo_inurba_marseille","lat":43.30953,"lon":5.39043,"is_reserved":false,"is_disabled":false,"rental_uris":{"android":"levelo://app?vid=c994d57b-48e2-467a-9cbc-6a4f3e8f2a20","ios":"levelo://app?vid=c994d57b-48e2-467a-9cbc-6a4f3e8f2a20"},