{"last_updated":1744726222,"ttl":60,"version":"2.2","data":{"bikes":[{"bike_id":"e96b3320-c739-4d9d-b38d-37f6ad68ae56","system_id":"levelo_inurba_marseille","lat":43.31204,"lon":5.3684,"is_reserved":false,"is_disabled":false,"rental_uris":{"android":"levelo://app?vid=e96b3320-c739-4d9d-b38d-37f6ad68ae56","ios":"levelo://app?vid=e96b3320-c739-4d9d-b38d-37f6ad68ae56"},"vehicle_type_id":"4","last_reported":1744726222,"current_range_meters":2800,"station_id":"ce4bgl92rcd13ifvqbq0","pricing_plan_id":"cebpf4jnsgd1na2vs0mg"},{"bike_id":"fcf2cf62-d2be-42f8-abfb-5a08a2e9010d","system_id":"levelo_inurba_marseille","lat":43.25091,"lon":5.39517,"is_reserved":false,"is_disabled":true,"rental_uris":{"android":"levelo://app?vid=fcf2cf62-d2be-42f8-abfb-5a08a2e9010d","ios":"levelo://app?vid=fcf2cf62-d2be-42f8-abfb-5a08a2e9010d"},"vehicle_type_id":"4","last_reported":1744726222,"current_range_meters":2800,"station_id":"ce4bhm12rcd13ifvqgkg","pricing_plan_id":"cebpf4jnsgd1na2vs0mg"},{"bike_id":"514d3b70-ad71-4571-8e81-6beb0ba3b6c4","system_id":"levelo_inurba_marseille","lat":43.30267,"lon":5.39651,"is_reserved":false,"is_disabled":false,"rental_uris":{"android":"levelo://app?vid=514d3b70-ad71-4571-8e81-6beb0ba3b6c4","ios":"levelo://app?vid=514d3b70-ad71-4571-8e81-6beb0ba3b6c4"},"vehicle_type_id":"4","last_reported":1744726222,"current_range_meters":2800,"station_id":"","pricing_plan_id":"cebpf4jnsgd1na2vs0mg"},{"bike_id":"e42c3be0-3d57-443c-adc2-d53051117512","system_id":"levelo_inurba_marseille","lat":43.26557,"lon":5.37291,"is_reserved":false,"is_disabled":false,"rental_uris":{"android":"levelo://app?vid=e42c3be0-3d57-443c-adc2-d53051117512","ios":"levelo://app?vid=e42c3be0-3d57-443c-adc2-d53051117512"},"vehicle_type_id":"4","last_reported":1744726222,"current_range_meters":3600,"station_id":"ce4bhg12rcd13ifvqf70","pricing_plan_id":"cebpf4jnsgd1na2vs0mg"},{"bike_id":"b7594222-4ebe-4b82-8958-d97ab03581c2","system_id":"levelo_inurba_marseille","lat":43.28366,"lon":5.38096,"is_reserved":false,"is_disabled":false,"rental_uris":{"android":"levelo://app?vid=b7594222-4ebe-4b82-8958-d97ab03581c2","ios":"levelo://app?vid=b7594222-4ebe-4b82-8958-d97ab03581c2"},"vehicle_type_id":"4","last_reported":1744726222,"current_range_meters":4000,"station_id":"ce4bh412rcd13ifvqdr0","pricing_plan_id":"cebpf4jnsgd1na2vs0mg"},{"bike_id":"e1daa671-4510-4a2b-bba6-1cb6b0cc02ae","system_id":"levelo_inurba_marseille","lat":43.286151,"lon":5.351009,"is_reserved":false,"is_disabled":false,"rental_uris":{"android":"levelo://app?vid=e1daa671-4510-4a2b-bba6-1cb6b0cc02ae","ios":"levelo://app?vid=e1daa671-4510-4a2b-bba6-1cb6b0cc02ae"},"vehicle_type_id":"4","last_reported":1744726222,"current_range_meters":4000,"station_id":"","pricing_plan_id":"cebpf4jnsgd1na2vs0mg"},{"bike_id":"970208ae-2f78-478c-8085-90325d4844ae","system_id":"levelo_inurba_marseille","lat":43.29718,"lon":5.37697,"is_reserved":false,"is_disabled":false,"rental_uris":{"android":"levelo://app?vid=970208ae-2f78-478c-8085-90325d4844ae","ios":"levelo://app?vid=970208ae-2f78-478c-8085-90325d4844ae"},"vehicle_type_id":"4","last_reported":1744726222,"current_range_meters":3600,"station_id":"ce4bgkh2rcd13ifvqbl0","pricing_plan_id":"cebpf4jnsgd1na2vs0mg"},{"bike_id":"7b7517c2-5387-4147-a4cf-136402482a84","system_id":"levelo_inurba_marseille","lat":43.31268,"lon":5.40166,"is_reserved":false,"is_disabled":false,"rental_uris":{"android":"levelo://app?vid=7b7517c2-5387-4147-a4cf-136402482a84","ios":"levelo://app?vid=7b7517c2-5387-4147-a4cf-136402482a84"},"vehicle_type_id":"4","last_reported":1744726222,"current_range_meters":4000,"station_id":"ce4bh092rcd13ifvqd30","pricing_plan_id":"cebpf4jnsgd1na2vs0mg"},{"bike_id":"4920a32c-645b-4d5c-b9ca-6f112febd813","system_id":"levelo_inurba_marseille","lat":43.309117,"lon":5.368482,"is_reserved":false,"is_disabled":false,"rental_uris":{"android":"levelo://app?vid=4920a32c-645b-4d5c-b9ca-6f112febd813","ios":"levelo://app?vid=4920a32c-645b-4d5c-b9ca-6f112febd813"},"vehicle_type_id":"4","last_reported":1744726222,"current_range_meters":4400,"station_id":"ce4bgn92rcd13ifvqbvg","pricing_plan_id":"cebpf4jnsgd1na2vs0mg"},{"bike_id":"3d5f1b68-d325-4002-95d8-10381aad4c15","system_id":"levelo_inurba_marseille","lat":43.24072,"lon":5.37766,"is_reserved":false,"is_disabled":false,"rental_uris":{"android":"levelo://app?vid=3d5f1b68-d325-4002-95d8-10381aad4c15","ios":"levelo://app?vid=3d5f1b68-d325-4002-95d8-10381aad4c15"},"vehicle_type_id":"4","last_reported":1744726222,"current_range_meters":4400,"station_id":"ce4bhnp2rcd13ifvqgvg","pricing_plan_id":"cebpf4jnsgd1na2vs0mg"},{"bike_id":"ba6883ba-3ef6-4683-8dcc-d877614e7369","system_id":"levelo_inurba_marseille","lat":43.29554,"lon":5.42288,"is_reserved":false,"is_disabled":false,"rental_uris":{"android":"levelo://app?vid=ba6883ba-3ef6-4683-8dcc-d877614e7369","ios":"levelo://app?vid=ba6883ba-3ef6-4683-8dcc-d877614e7369"},"vehicle_type_id":"4","last_reported":1744726222,"current_range_meters":4800,"station_id":"ce4bhph2rcd13ifvqhdg","pricing_plan_id":"cebpf4jnsgd1na2vs0mg"},{"bike_id":"e7816af6-b51f-4a54-bfd2-977771406aea","system_id":"levelo_inurba_marseille","lat":43.23151,"lon":5.43723,"is_reserved":false,"is_disabled":false,"rental_uris":{"android":"levelo://app?vid=e7816af6-b51f-4a54-bfd2-977771406aea","ios":"levelo://app?vid=e7816af6-b51f-4a54-bfd2-977771406aea"},"vehicle_type_id":"4","last_reported":1744726222,"current_range_meters":5600,"station_id":"ce4bhmp2rcd13ifvqgog","pricing_plan_id":"cebpf4jnsgd1na2vs0mg"},{"bike_id":"90a6674d-53d4-4171-8f22-0bde8f38ebc3","system_id":"levelo_inurba_marseille","lat":43.28094,"lon":5.35213,"is_reserved":false,"is_disabled":false,"rental_uris":{"android":"levelo://app?vid=90a6674d-53d4-4171-8f22-0bde8f38ebc3","ios":"levelo://app?vid=90a6674d-53d4-4171-8f22-0bde8f38ebc3"},"vehicle_type_id":"4","last_reported":1744726222,"current_range_meters":5600,"station_id":"ce4bhbp2rcd13ifvqerg","pricing_plan_id":"cebpf4jnsgd1na2vs0mg"},{"bike_id":"93d6ef04-cd4b-4a25-95cd-ca31fbe01d45","system_id":"levelo_inurba_marseille","lat":43.2954,"lon":5.39406,"is_reserved":false,"is_disabled":false,"rental_uris":{"android":"levelo://app?vid=93d6ef04-cd4b-4a25-95cd-ca31fbe01d45","ios":"levelo://app?vid=93d6ef04-cd4b-4a25-95cd-ca31fbe01d45"},"vehicle_type_id":"4","last_reported":1744726222,"current_range_meters":5600,"station_id":"ce4bh292rcd13ifvqdf0","pricing_plan_id":"cebpf4jnsgd1na2vs0mg"},{"bike_id":"2938bc9c-a915-484e-9b02-b4a924f19077","system_id":"levelo_inurba_marseille","lat":43.24166,"lon":5.36388,"is_reserved":false,"is_disabled":false,"rental_uris":{"android":"levelo://app?vid=2938bc9c-a915-484e-9b02-b4a924f19077","ios":"levelo://app?vid=2938bc9c-a915-484e-9b02-b4a924f19077"},"vehicle_type_id":"4","last_reported":1744726222,"current_range_meters":6000,"station_id":"cpo36qri1sfpv3e86is0","pricing_plan_id":"cebpf4jnsgd1na2vs0mg"},{"bike_id":"b1bcd187-2562-4837-820d-3ea6dc0483f7","system_id":"levelo_inurba_marseille","lat":43.2871,"lon":5.39991,"is_reserved":false,"is_disabled":false,"rental_uris":{"android":"levelo://app?vid=b1bcd187-2562-4837-820d-3ea6dc0483f7","ios":"levelo://app?vid=b1bcd187-2562-4837-820d-3ea6dc0483f7"},"vehicle_type_id":"4","last_reported":1744726222,"current_range_meters":6000,"station_id":"ce4bho92rcd13ifvqh3g","pricing_plan_id":"cebpf4jnsgd1na2vs0mg"},{"bike_id":"99f04249-386d-4c38-a116-b8c8b42c07df","system_id":"levelo_inurba_marseille","lat":43.25721,"lon":5.41112,"is_reserved":false,"is_disabled":false,"rental_uris":{"android":"levelo://app?vid=99f04249-386d-4c38-a116-b8c8b42c07df","ios":"levelo://app?vid=99f04249-386d-4c38-a116-b8c8b42c07df"},"vehicle_type_id":"4","last_reported":1744726222,"current_range_meters":6000,"station_id":"ce4bhkp2rcd13ifvqgd0","pricing_plan_id":"cebpf4jnsgd1na2vs0mg"},{"bike_id":"dde9d6c3-2d50-43c4-a966-9b7ea6d9cefc","system_id":"levelo_inurba_marseille","lat":43.30925,"lon":5.40147,"is_reserved":false,"is_disabled":false,"rental_uris":{"android":"levelo://app?vid=dde9d6c3-2d50-43c4-a966-9b7ea6d9cefc","ios":"levelo://app?vid=dde9d6c3-2d50-43c4-a966-9b7ea6d9cefc"},"vehicle_type_id":"4","last_reported":1744726222,"current_range_meters":6400,"station_id":"ce4bgvp2rcd13ifvqct0","pricing_plan_id":"cebpf4jnsgd1na2vs0mg"},{"bike_id":"72644e8a-1bab-456d-823e-f10ffe92d0ec","system_id":"levelo_inurba_marseille","lat":43.29555,"lon":5.42289,"is_reserved":false,"is_disabled":false,"rental_uris":{"android":"levelo://app?vid=72644e8a-1bab-456d-823e-f10ffe92d0ec","ios":"levelo://app?vid=72644e8a-1bab-456d-823e-f10ffe92d0ec"},"vehicle_type_id":"4","last_reported":1744726222,"current_range_meters":6400,"station_id":"ce4bhph2rcd13ifvqhdg","pricing_plan_id":"cebpf4jnsgd1na2vs0mg"},{"bike_id":"67ebf2d2-4be5-4757-a769-2067cace68e7","system_id":"levelo_inurba_marseille","lat":43.30376,"lon":5.42493,"is_reserved":false,"is_disabled":false,"rental_uris":{"android":"levelo://app?vid=67ebf2d2-4be5-4757-a769-2067cace68e7","ios":"levelo://app?vid=67ebf2d2-4be5-4757-a769-2067cace68e7"},"vehicle_type_id":"4","last_reported":1744726222,"current_range_meters":6400,"station_id":"ce4bhoh2rcd13ifvqh6g","pricing_plan_id":"cebpf4jnsgd1na2vs0mg"},{"bike_id":"1064b9a7-5947-42b0-b3ab-02b74ee64902","system_id":"levelo_inurba_marseille","lat":43.25007,"lon":5.38911,"is_reserved":false,"is_disabled":true,"rental_uris":{"android":"levelo://app?vid=1064b9a7-5947-42b0-b3ab-02b74ee64902","ios":"levelo://app?vid=1064b9a7-5947-42b0-b3ab-02b74ee64902"},"vehicle_type_id":"4","last_reported":1744726222,"current_range_meters":6400,"station_id":"ce4bhgp2rcd13ifvqfd0","pricing_plan_id":"cebpf4jnsgd1na2vs0mg"},{"bike_id":"1e0c63ee-96ef-4068-884d-68ee0b8975df","system_id":"levelo_inurba_marseille","lat":43.26557,"lon":5.37286,"is_reserved":false,"is_disabled":false,"rental_uris":{"android":"levelo://app?vid=1e0c63ee-96ef-4068-884d-68ee0b8975df","ios":"levelo://app?vid=1e0c63ee-96ef-4068-884d-68ee0b8975df"},"vehicle_type_id":"4","last_reported":1744726222,"current_range_meters":6800,"station_id":"ce4bhg12rcd13ifvqf70","pricing_plan_id":"cebpf4jnsgd1na2vs0mg"},{"bike_id":"c90796ad-a244-4ab0-99e6-ebb5d8f14975","system_id":"levelo_inurba_marseille","lat":43.30541,"lon":5.36536,"is_reserved":false,"is_disabled":false,"rental_uris":{"android":"levelo://app?vid=c90796ad-a244-4ab0-99e6-ebb5d8f14975","ios":"levelo://app?vid=c90796ad-a244-4ab0-99e6-ebb5d8f14975"},"vehicle_type_id":"4","last_reported":1744726222,"current_range_meters":6800,"station_id":"ce4bgs12rcd13ifvqcag","pricing_plan_id":"cebpf4jnsgd1na2vs0mg"},{"bike_id":"171cdacf-07ab-4cac-8f89-e71c23ca26e1","system_id":"levelo_inurba_marseille","lat":43.2901,"lon":5.35605,"is_reserved":false,"is_disabled":false,"rental_uris":{"android":"levelo://app?vid=171cdacf-07ab-4cac-8f89-e71c23ca26e1","ios":"levelo://app?vid=171cdacf-07ab-4cac-8f89-e71c23ca26e1"},"vehicle_type_id":"4","last_reported":1744726222,"current_range_meters":6800,"station_id":"ce4bhb92rcd13ifvqen0","pricing_plan_id":"cebpf4jnsgd1na2vs0mg"},{"bike_id":"6e813554-554a-49dd-9009-02d95efd3de7","system_id":"levelo_inurba_marseille","lat":43.32357,"lon":5.38893,"is_reserved":false,"is_disabled":false,"rental_uris":{"android":"levelo://app?vid=6e813554-554a-49dd-9009-02d95efd3de7","ios":"levelo://app?vid=6e813554-554a-49dd-9009-02d95efd3de7"},"vehicle_type_id":"4","last_reported":1744726222,"current_range_meters":6800,"station_id":"ce4bhqp2rcd13ifvqhog","pricing_plan_id":"cebpf4jnsgd1na2vs0mg"},{"bike_id":"2840dd03-7e3c-473f-8550-a29070d3bba2","system_id":"levelo_inurba_marseille","lat":43.29488,"lon":5.3828,"is_reserved":false,"is_disabled":false,"rental_uris":{"android":"levelo://app?vid=2840dd03-7e3c-473f-8550-a29070d3bba2","ios":"levelo://app?vid=2840dd03-7e3c-473f-8550-a29070d3bba2"},"vehicle_type_id":"4","last_reported":1744726222,"current_range_meters":6800,"station_id":"","pricing_plan_id":"cebpf4jnsgd1na2vs0mg"},{"bike_id":"54303607-900e-4ffb-b013-bf305b1ff5d1","system_id":"levelo_inurba_marseille","lat":43.31215,"lon":5.36842,"is_reserved":false,"is_disabled":false,"rental_uris":{"android":"levelo://app?vid=54303607-900e-4ffb-b013-bf305b1ff5d1","ios":"levelo://app?vid=54303607-900e-4ffb-b013-bf305b1ff5d1"},"vehicle_type_id":"4","last_reported":1744726222,"current_range_meters":6800,"station_id":"ce4bgl92rcd13ifvqbq0","pricing_plan_id":"cebpf4jnsgd1na2vs0mg"},{"bike_id":"50d1c769-78d0-4bbe-bcea-5856c9ba50eb","system_id":"levelo_inurba_marseille","lat":43.27931,"lon":5.41008,"is_reserved":false,"is_disabled":false,"rental_uris":{"android":"levelo://app?vid=50d1c769-78d0-4bbe-bcea-5856c9ba50eb","ios":"levelo://app?vid=50d1c769-78d0-4bbe-bcea-5856c9ba50eb"},"vehicle_type_id":"4","last_reported":1744726222,"current_range_meters":7200,"station_id":"ce4bhnp2rcd13ifvqh0g","pricing_plan_id":"cebpf4jnsgd1na2vs0mg"},{"bike_id":"aaa12382-633d-4fa2-b71c-ae999cecf040","system_id":"levelo_inurba_marseille","lat":43.2738,"lon":5.36257,"is_reserved":false,"is_disabled":false,"rental_uris":{"android":"levelo://app?vid=aaa12382-633d-4fa2-b71c-ae999cecf040","ios":"levelo://app?vid=aaa12382-633d-4fa2-b71c-ae999cecf040"},"vehicle_type_id":"4","last_reported":1744726222,"current_range_meters":7200,"station_id":"ce4bhbh2rcd13ifvqeo0","pricing_plan_id":"cebpf4jnsgd1na2vs0mg"},{"bike_id":"347598f2-7636-431d-aa2a-ee922a6e92de","system_id":"levelo_inurba_marseille","lat":43.28941,"lon":5.36388,"is_reserved":false,"is_disabled":false,"rental_uris":{"android":"levelo://app?vid=347598f2-7636-431d-aa2a-ee922a6e92de","ios":"levelo://app?vid=347598f2-7636-431d-aa2a-ee922a6e92de"},"vehicle_type_id":"4","last_reported":1744726222,"current_range_meters":8000,"station_id":"ce4bhc92rcd13ifvqetg","pricing_plan_id":"cebpf4jnsgd1na2vs0mg"},{"bike_id":"a64ea0db-cd70-4879-afdb-4fd90505d842","system_id":"levelo_inurba_marseille","lat":43.29366,"lon":5.37857,"is_reserved":false,"is_disabled":false,"rental_uris":{"android":"levelo://app?vid=a64ea0db-cd70-4879-afdb-4fd90505d842","ios":"levelo://app?vid=a64ea0db-cd70-4879-afdb-4fd90505d842"},"vehicle_type_id":"4","last_reported":1744726222,"current_range_meters":8000,"station_id":"ce4bgjh2rcd13ifvqbf0","pricing_plan_id":"cebpf4jnsgd1na2vs0mg"},{"bike_id":"2f93173f-d02c-4e29-ab59-1fff882697d7","system_id":"levelo_inurba_marseille","lat":43.24122,"lon":5.37608,"is_reserved":false,"is_disabled":false,"rental_uris":{"android":"levelo://app?vid=2f93173f-d02c-4e29-ab59-1fff882697d7","ios":"levelo://app?vid=2f93173f-d02c-4e29-ab59-1fff882697d7"},"vehicle_type_id":"4","last_reported":1744726222,"current_range_meters":8000,"station_id":"","pricing_plan_id":"cebpf4jnsgd1na2vs0mg"},{"bike_id":"c2599b18-ad7c-47f3-ad71-b33ed8017d7c","system_id":"levelo_inurba_marseille","lat":43.27946,"lon":5.4104,"is_reserved":false,"is_disabled":false,"rental_uris":{"android":"levelo://app?vid=c2599b18-ad7c-47f3-ad71-b33ed8017d7c","ios":"levelo://app?vid=c2599b18-ad7c-47f3-ad71-b33ed8017d7c"},"vehicle_type_id":"4","last_reported":1744726222,"current_range_meters":8400,"station_id":"ce4bhnp2rcd13ifvqh0g","pricing_plan_id":"cebpf4jnsgd1na2vs0mg"},{"bike_id":"0369c95b-d6f2-4538-9502-8c2c64ad13f0","system_id":"levelo_inurba_marseille","lat":43.30916,"lon":5.36812,"is_reserved":false,"is_disabled":false,"rental_uris":{"android":"levelo://app?vid=0369c95b-d6f2-4538-9502-8c2c64ad13f0","ios":"levelo://app?vid=0369c95b-d6f2-4538-9502-8c2c64ad13f0"},"vehicle_type_id":"4","last_reported":1744726222,"current_range_meters":8400,"station_id":"ce4bgn92rcd13ifvqbvg","pricing_plan_id":"cebpf4jnsgd1na2vs0mg"},{"bike_id":"ef734429-5e24-498b-98db-95ee16873a56","system_id":"levelo_inurba_marseille","lat":43.27065,"lon":5.42269,"is_reserved":false,"is_disabled":false,"rental_uris":{"android":"levelo://app?vid=ef734429-5e24-498b-98db-95ee16873a56","ios":"levelo://app?vid=ef734429-5e24-498b-98db-95ee16873a56"},"vehicle_type_id":"4","last_reported":1744726222,"current_range_meters":8800,"station_id":"ce4bhk92rcd13ifvqgb0","pricing_plan_id":"cebpf4jnsgd1na2vs0mg"},{"bike_id":"0976f6c2-c78d-444b-8bf7-defd28ffa438","system_id":"levelo_inurba_marseille","lat":43.28265,"lon":5.35063,"is_reserved":false,"is_disabled":false,"rental_uris":{"android":"levelo://app?vid=0976f6c2-c78d-444b-8bf7-defd28ffa438","ios":"levelo://app?vid=0976f6c2-c78d-444b-8bf7-defd28ffa438"},"vehicle_type_id":"4","last_reported":1744726222,"current_range_meters":8800,"station_id":"ce4bhbp2rcd13ifvqerg","pricing_plan_id":"cebpf4jnsgd1na2vs0mg"},{"bike_id":"10b9c5ef-75d9-4fd6-ad56-83fa358ea9e2","system_id":"levelo_inurba_marseille","lat":43.27955,"lon":5.41045,"is_reserved":false,"is_disabled":false,"rental_uris":{"android":"levelo://app?vid=10b9c5ef-75d9-4fd6-ad56-83fa358ea9e2","ios":"levelo://app?vid=10b9c5ef-75d9-4fd6-ad56-83fa358ea9e2"},"vehicle_type_id":"4","last_reported":1744726222,"current_range_meters":8800,"station_id":"ce4bhnp2rcd13ifvqh0g","pricing_plan_id":"cebpf4jnsgd1na2vs0mg"},{"bike_id":"907af1d3-9c3f-4fd6-be62-5be038000d37","system_id":"levelo_inurba_marseille","lat":43.25115,"lon":5.40336,"is_reserved":false,"is_disabled":false,"rental_uris":{"android":"levelo://app?vid=907af1d3-9c3f-4fd6-be62-5be038000d37","ios":"levelo://app?vid=907af1d3-9c3f-4fd6-be62-5be038000d37"},"vehicle_type_id":"4","last_reported":1744726222,"current_range_meters":8800,"station_id":"ce4bhlh2rcd13ifvqgig","pricing_plan_id":"cebpf4jnsgd1na2vs0mg"},{"bike_id":"f1de9801-a28c-4a0e-8a2e-aca677c1b8a9","system_id":"levelo_inurba_marseille","lat":43.25588,"lon":5.38227,"is_reserved":false,"is_disabled":false,"rental_uris":{"android":"levelo://app?vid=f1de9801-a28c-4a0e-8a2e-aca677c1b8a9","ios":"levelo://app?vid=f1de9801-a28c-4a0e-8a2e-aca677c1b8a9"},"vehicle_type_id":"4","last_reported":1744726222,"current_range_meters":6800,"station_id":"ce4bhih2rcd13ifvqfs0","pricing_plan_id":"cebpf4jnsgd1na2vs0mg"},{"bike_id":"21911dc5-d049-420e-b067-5d0aa21d48f3","system_id":"levelo_inurba_marseille","lat":43.28422,"lon":5.3498,"is_reserved":false,"is_disabled":false,"rental_uris":{"android":"levelo://app?vid=21911dc5-d049-420e-b067-5d0aa21d48f3","ios":"levelo://app?vid=21911dc5-d049-420e-b067-5d0aa21d48f3"},"vehicle_type_id":"4","last_reported":1744726222,"current_range_meters":9200,"station_id":"ce4bhbh2rcd13ifvqepg","pricing_plan_id":"cebpf4jnsgd1na2vs0mg"},{"bike_id":"660d2eb3-0dca-4724-8d5d-ef301fa8b51b","system_id":"levelo_inurba_marseille","lat":43.3302,"lon":5.39038,"is_reserved":false,"is_disabled":false,"rental_uris":{"android":"levelo://app?vid=660d2eb3-0dca-4724-8d5d-ef301fa8b51b","ios":"levelo://app?vid=660d2eb3-0dca-4724-8d5d-ef301fa8b51b"},"vehicle_type_id":"4","last_reported":1744726222,"current_range_meters":9200,"station_id":"ce4bhr92rcd13ifvqhrg","pricing_plan_id":"cebpf4jnsgd1na2vs0mg"},{"bike_id":"738a8c95-4878-4a67-8489-4066d917b05a","system_id":"levelo_inurba_marseille","lat":43.29899,"lon":5.43672,"is_reserved":false,"is_disabled":false,"rental_uris":{"android":"levelo://app?vid=738a8c95-4878-4a67-8489-4066d917b05a","ios":"levelo://app?vid=738a8c95-4878-4a67-8489-4066d917b05a"},"vehicle_type_id":"4","last_reported":1744726222,"current_range_meters":9200,"station_id":"ce4bhpp2rcd13ifvqhfg","pricing_plan_id":"cebpf4jnsgd1na2vs0mg"},{"bike_id":"9d0774df-b199-405e-997a-5dbcef232d9b","system_id":"levelo_inurba_marseille","lat":43.2981,"lon":5.38103,"is_reserved":false,"is_disabled":false,"rental_uris":{"android":"levelo://app?vid=9d0774df-b199-405e-997a-5dbcef232d9b","ios":"levelo://app?vid=9d0774df-b199-405e-997a-5dbcef232d9b"},"vehicle_type_id":"4","last_reported":1744726222,"current_range_meters":9200,"station_id":"ce4bgip2rcd13ifvqbb0","pricing_plan_id":"cebpf4jnsgd1na2vs0mg"},{"bike_id":"04a30859-b7e2-45e4-a1b0-7d119b6fd58e","system_id":"levelo_inurba_marseille","lat":43.23183,"lon":5.3999,"is_reserved":false,"is_disabled":false,"rental_uris":{"android":"levelo://app?vid=04a30859-b7e2-45e4-a1b0-7d119b6fd58e","ios":"levelo://app?vid=04a30859-b7e2-45e4-a1b0-7d119b6fd58e"},"vehicle_type_id":"4","last_reported":1744726222,"current_range_meters":9200,"station_id":"ce4bhn12rcd13ifvqgqg","pricing_plan_id":"cebpf4jnsgd1na2vs0mg"},{"bike_id":"5003a55b-231c-44a8-931b-af8b2005fdde","system_id":"levelo_inurba_marseille","lat":43.26781,"lon":5.39422,"is_reserved":false,"is_disabled":false,"rental_uris":{"android":"levelo://app?vid=5003a55b-231c-44a8-931b-af8b2005fdde","ios":"levelo://app?vid=5003a55b-231c-44a8-931b-af8b2005fdde"},"vehicle_type_id":"4","last_reported":1744726222,"current_range_meters":9600,"station_id":"ce4bhh12rcd13ifvqfg0","pricing_plan_id":"cebpf4jnsgd1na2vs0mg"},{"bike_id":"27a55245-8dd2-4f1a-af63-95a9d7b71690","system_id":"levelo_inurba_marseille","lat":43.3106,"lon":5.37842,"is_reserved":false,"is_disabled":false,"rental_uris":{"android":"levelo://app?vid=27a55245-8dd2-4f1a-af63-95a9d7b71690","ios":"levelo://app?vid=27a55245-8dd2-4f1a-af63-95a9d7b71690"},"vehicle_type_id":"4","last_reported":1744726222,"current_range_meters":9600,"station_id":"","pricing_plan_id":"cebpf4jnsgd1na2vs0mg"},{"bike_id":"76b474bb-51c3-4ddf-998b-32f36fbc53a0","system_id":"levelo_inurba_marseille","lat":43.27943,"lon":5.41041,"is_reserved":false,"is_disabled":false,"rental_uris":{"android":"levelo://app?vid=76b474bb-51c3-4ddf-998b-32f36fbc53a0","ios":"levelo://app?vid=76b474bb-51c3-4ddf-998b-32f36fbc53a0"},"vehicle_type_id":"4","last_reported":1744726222,"current_range_meters":10000,"station_id":"ce4bhnp2rcd13ifvqh0g","pricing_plan_id":"cebpf4jnsgd1na2vs0mg"},{"bike_id":"a17ddb71-9177-4d67-b601-2022fba7bd02","system_id":"levelo_inurba_marseille","lat":43.30604,"lon":5.37225,"is_reserved":false,"is_disabled":false,"rental_uris":{"android":"levelo://app?vid=a17ddb71-9177-4d67-b601-2022fba7bd02","ios":"levelo://app?vid=a17ddb71-9177-4d67-b601-2022fba7bd02"},"vehicle_type_id":"4","last_reported":1744726222,"current_range_meters":14400,"station_id":"ce4bgqh2rcd13ifvqc4g","pricing_plan_id":"cebpf4jnsgd1na2vs0mg"},{"bike_id":"45152fd8-c07c-4d52-b7a7-6670add35e00","system_id":"levelo_inurba_marseille","lat":43.26113,"lon":5.42088,"is_reserved":false,"is_disabled":false,"rental_uris":{"android":"levelo://app?vid=45152fd8-c07c-4d52-b7a7-6670add35e00","ios":"levelo://app?vid=45152fd8-c07c-4d52-b7a7-6670add35e00"},"vehicle_type_id":"4","last_reported":1744726222,"current_range_meters":10000,"station_id":"","pricing_plan_id":"cebpf4jnsgd1na2vs0mg"},{"bike_id":"51854c31-3f8b-4334-95b0-d38944fddb06","system_id":"levelo_inurba_marseille","lat":43.25824,"lon":5.39424,"is_reserved":false,"is_disabled":false,"rental_uris":{"android":"levelo://app?vid=51854c31-3f8b-4334-95b0-d38944fddb06","ios":"levelo://app?vid=51854c31-3f8b-4334-95b0-d38944fddb06"},"vehicle_type_id":"4","last_reported":1744726222,"current_range_meters":10000,"station_id":"ce4bhip2rcd13ifvqft0","pricing_plan_id":"cebpf4jnsgd1na2vs0mg"},{"bike_id":"845417ce-58f8-4fd0-a812-396ebdabaa1c","system_id":"levelo_inurba_marseille","lat":43.25109,"lon":5.40336,"is_reserved":false,"is_disabled":false,"rental_uris":{"android":"levelo://app?vid=845417ce-58f8-4fd0-a812-396ebdabaa1c","ios":"levelo://app?vid=845417ce-58f8-4fd0-a812-396ebdabaa1c"},"vehicle_type_id":"4","last_reported":1744726222,"current_range_meters":10000,"station_id":"ce4bhlh2rcd13ifvqgig","pricing_plan_id":"cebpf4jnsgd1na2vs0mg"},{"bike_id":"6600a651-b1e9-40d3-a14a-95ba562c37c3","system_id":"levelo_inurba_marseille","lat":43.2862,"lon":5.35114,"is_reserved":false,"is_disabled":false,"rental_uris":{"android":"levelo://app?vid=6600a651-b1e9-40d3-a14a-95ba562c37c3","ios":"levelo://app?vid=6600a651-b1e9-40d3-a14a-95ba562c37c3"},"vehicle_type_id":"4","last_reported":1744726222,"current_range_meters":10800,"station_id":"ce4bhch2rcd13ifvqeug","pricing_plan_id":"cebpf4jnsgd1na2vs0mg"},{"bike_id":"347d61b8-041f-45ec-b00e-19eff5cfe123","system_id":"levelo_inurba_marseille","lat":43.24169,"lon":5.36392,"is_reserved":false,"is_disabled":false,"rental_uris":{"android":"levelo://app?vid=347d61b8-041f-45ec-b00e-19eff5cfe123","ios":"levelo://app?vid=347d61b8-041f-45ec-b00e-19eff5cfe123"},"vehicle_type_id":"4","last_reported":1744726222,"current_range_meters":10800,"station_id":"cpo36qri1sfpv3e86is0","pricing_plan_id":"cebpf4jnsgd1na2vs0mg"},{"bike_id":"82a8247b-bc85-483f-998e-6a0311879d2f","system_id":"levelo_inurba_marseille","lat":43.24179,"lon":5.39728,"is_reserved":false,"is_disabled":false,"rental_uris":{"android":"levelo://app?vid=82a8247b-bc85-483f-998e-6a0311879d2f","ios":"levelo://app?vid=82a8247b-bc85-483f-998e-6a0311879d2f"},"vehicle_type_id":"4","last_reported":1744726222,"current_range_meters":10800,"station_id":"ce4bhn12rcd13ifvqgpg","pricing_plan_id":"cebpf4jnsgd1na2vs0mg"},{"bike_id":"7170fbf5-4f25-4bfa-85df-ab19b3a03db6","system_id":"levelo_inurba_marseille","lat":43.29843,"lon":5.36267,"is_reserved":false,"is_disabled":false,"rental_uris":{"android":"levelo://app?vid=7170fbf5-4f25-4bfa-85df-ab19b3a03db6","ios":"levelo://app?vid=7170fbf5-4f25-4bfa-85df-ab19b3a03db6"},"vehicle_type_id":"4","last_reported":1744726222,"current_range_meters":10800,"station_id":"ce4bgpp2rcd13ifvqc3g","pricing_plan_id":"cebpf4jnsgd1na2vs0mg"},{"bike_id":"85e3d8f1-8a32-4ead-8f63-285e222f9d71","system_id":"levelo_inurba_marseille","lat":43.28264,"lon":5.350593,"is_reserved":false,"is_disabled":false,"rental_uris":{"android":"levelo://app?vid=85e3d8f1-8a32-4ead-8f63-285e222f9d71","ios":"levelo://app?vid=85e3d8f1-8a32-4ead-8f63-285e222f9d71"},"vehicle_type_id":"4","last_reported":1744726222,"current_range_meters":10800,"station_id":"ce4bhbp2rcd13ifvqerg","pricing_plan_id":"cebpf4jnsgd1na2vs0mg"},{"bike_id":"6086be1f-2f41-4b8c-9ce9-011bcea915da","system_id":"levelo_inurba_marseille","lat":43.31313,"lon":5.37331,"is_reserved":false,"is_disabled":false,"rental_uris":{"android":"levelo://app?vid=6086be1f-2f41-4b8c-9ce9-011bcea915da","ios":"levelo://app?vid=6086be1f-2f41-4b8c-9ce9-011bcea915da"},"vehicle_type_id":"4","last_reported":1744726222,"current_range_meters":10800,"station_id":"","pricing_plan_id":"cebpf4jnsgd1na2vs0mg"},{"bike_id":"572f1bc3-546c-41e0-8730-39609b4006f1","system_id":"levelo_inurba_marseille","lat":43.3248,"lon":5.36554,"is_reserved":false,"is_disabled":false,"rental_uris":{"android":"levelo://app?vid=572f1bc3-546c-41e0-8730-39609b4006f1","ios":"levelo://app?vid=572f1bc3-546c-41e0-8730-39609b4006f1"},"vehicle_type_id":"4","last_reported":1744726222,"current_range_meters":10800,"station_id":"ce4bhs12rcd13ifvqhvg","pricing_plan_id":"cebpf4jnsgd1na2vs0mg"},{"bike_id":"1f36abfc-67b3-4677-bbe6-6af11e226581","system_id":"levelo_inurba_marseille","lat":43.30147,"lon":5.37423,"is_reserved":false,"is_disabled":false,"rental_uris":{"android":"levelo://app?vid=1f36abfc-67b3-4677-bbe6-6af11e226581","ios":"levelo://app?vid=1f36abfc-67b3-4677-bbe6-6af11e226581"},"vehicle_type_id":"4","last_reported":1744726222,"current_range_meters":10800,"station_id":"ce4bgs92rcd13ifvqcc0","pricing_plan_id":"cebpf4jnsgd1na2vs0mg"},{"bike_id":"6ccf5066-4ab4-446f-83ff-a3de25947c04","system_id":"levelo_inurba_marseille","lat":43.282624,"lon":5.350662,"is_reserved":false,"is_disabled":false,"rental_uris":{"android":"levelo://app?vid=6ccf5066-4ab4-446f-83ff-a3de25947c04","ios":"levelo://app?vid=6ccf5066-4ab4-446f-83ff-a3de25947c04"},"vehicle_type_id":"4","last_reported":1744726222,"current_range_meters":10800,"station_id":"ce4bhbp2rcd13ifvqerg","pricing_plan_id":"cebpf4jnsgd1na2vs0mg"},{"bike_id":"4810a73d-5efd-4bc0-84ba-716d51691df5","system_id":"levelo_inurba_marseille","lat":43.24177,"lon":5.39736,"is_reserved":false,"is_disabled":false,"rental_uris":{"android":"levelo://app?vid=4810a73d-5efd-4bc0-84ba-716d51691df5","ios":"levelo://app?vid=4810a73d-5efd-4bc0-84ba-716d51691df5"},"vehicle_type_id":"4","last_reported":1744726222,"current_range_meters":11200,"station_id":"ce4bhn12rcd13ifvqgpg","pricing_plan_id":"cebpf4jnsgd1na2vs0mg"},{"bike_id":"0ae71ce0-9ac4-48c3-a7ba-b801cc4ba8a6","system_id":"levelo_inurba_marseille","lat":43.29972,"lon":5.38491,"is_reserved":false,"is_disabled":false,"rental_uris":{"android":"levelo://app?vid=0ae71ce0-9ac4-48c3-a7ba-b801cc4ba8a6","ios":"levelo://app?vid=0ae71ce0-9ac4-48c3-a7ba-b801cc4ba8a6"},"vehicle_type_id":"4","last_reported":1744726222,"current_range_meters":10800,"station_id":"ce4bgj92rcd13ifvqbd0","pricing_plan_id":"cebpf4jnsgd1na2vs0mg"},{"bike_id":"37342bdf-d586-43ba-a25b-da22b3393da6","system_id":"levelo_inurba_marseille","lat":43.29167,"lon":5.37493,"is_reserved":false,"is_disabled":false,"rental_uris":{"android":"levelo://app?vid=37342bdf-d586-43ba-a25b-da22b3393da6","ios":"levelo://app?vid=37342bdf-d586-43ba-a25b-da22b3393da6"},"vehicle_type_id":"4","last_reported":1744726222,"current_range_meters":11200,"station_id":"","pricing_plan_id":"cebpf4jnsgd1na2vs0mg"},{"bike_id":"1240a975-3a51-4d45-8e70-c1b2f8a63b2a","system_id":"levelo_inurba_marseille","lat":43.29189,"lon":5.35794,"is_reserved":false,"is_disabled":false,"rental_uris":{"android":"levelo://app?vid=1240a975-3a51-4d45-8e70-c1b2f8a63b2a","ios":"levelo://app?vid=1240a975-3a51-4d45-8e70-c1b2f8a63b2a"},"vehicle_type_id":"4","last_reported":1744726222,"current_range_meters":11600,"station_id":"ce4bhb12rcd13ifvqel0","pricing_plan_id":"cebpf4jnsgd1na2vs0mg"},{"bike_id":"176e5662-5b80-483a-80f1-1787e24f6140","system_id":"levelo_inurba_marseille","lat":43.27946,"lon":5.41042,"is_reserved":false,"is_disabled":false,"rental_uris":{"android":"levelo://app?vid=176e5662-5b80-483a-80f1-1787e24f6140","ios":"levelo://app?vid=176e5662-5b80-483a-80f1-1787e24f6140"},"vehicle_type_id":"4","last_reported":1744726222,"current_range_meters":12000,"station_id":"ce4bhnp2rcd13ifvqh0g","pricing_plan_id":"cebpf4jnsgd1na2vs0mg"},{"bike_id":"fb58e65d-da29-4170-ae89-7e74f6fffab1","system_id":"levelo_inurba_marseille","lat":43.27504,"lon":5.42464,"is_reserved":false,"is_disabled":false,"rental_uris":{"android":"levelo://app?vid=fb58e65d-da29-4170-ae89-7e74f6fffab1","ios":"levelo://app?vid=fb58e65d-da29-4170-ae89-7e74f6fffab1"},"vehicle_type_id":"4","last_reported":1744726222,"current_range_meters":12000,"station_id":"ce4bhn92rcd13ifvqgrg","pricing_plan_id":"cebpf4jnsgd1na2vs0mg"},{"bike_id":"d3a0fbcc-8789-46e3-ad8a-8c877abb0794","system_id":"levelo_inurba_marseille","lat":43.298887,"lon":5.397363,"is_reserved":false,"is_disabled":false,"rental_uris":{"android":"levelo://app?vid=d3a0fbcc-8789-46e3-ad8a-8c877abb0794","ios":"levelo://app?vid=d3a0fbcc-8789-46e3-ad8a-8c877abb0794"},"vehicle_type_id":"4","last_reported":1744726222,"current_range_meters":12400,"station_id":"ce4bh0h2rcd13ifvqd50","pricing_plan_id":"cebpf4jnsgd1na2vs0mg"},{"bike_id":"d4a9505e-b979-4849-998a-a6400eccd582","system_id":"levelo_inurba_marseille","lat":43.25003,"lon":5.38932,"is_reserved":false,"is_disabled":false,"rental_uris":{"android":"levelo://app?vid=d4a9505e-b979-4849-998a-a6400eccd582","ios":"levelo://app?vid=d4a9505e-b979-4849-998a-a6400eccd582"},"vehicle_type_id":"4","last_reported":1744726222,"current_range_meters":12400,"station_id":"ce4bhgp2rcd13ifvqfd0","pricing_plan_id":"cebpf4jnsgd1na2vs0mg"},{"bike_id":"3bffb734-4942-4429-be21-0822927f8b78","system_id":"levelo_inurba_marseille","lat":43.27911,"lon":5.39578,"is_reserved":false,"is_disabled":false,"rental_uris":{"android":"levelo://app?vid=3bffb734-4942-4429-be21-0822927f8b78","ios":"levelo://app?vid=3bffb734-4942-4429-be21-0822927f8b78"},"vehicle_type_id":"4","last_reported":1744726222,"current_range_meters":12800,"station_id":"ce4bhf92rcd13ifvqf40","pricing_plan_id":"cebpf4jnsgd1na2vs0mg"},{"bike_id":"129e1c37-93e9-483a-b799-a451e622173f","system_id":"levelo_inurba_marseille","lat":43.29624,"lon":5.371552,"is_reserved":false,"is_disabled":false,"rental_uris":{"android":"levelo://app?vid=129e1c37-93e9-483a-b799-a451e622173f","ios":"levelo://app?vid=129e1c37-93e9-483a-b799-a451e622173f"},"vehicle_type_id":"4","last_reported":1744726222,"current_range_meters":12800,"station_id":"ce4bgnh2rcd13ifvqc0g","pricing_plan_id":"cebpf4jnsgd1na2vs0mg"},{"bike_id":"d2d37f01-fa46-4fbc-a721-7789f4003663","system_id":"levelo_inurba_marseille","lat":43.24981,"lon":5.38966,"is_reserved":false,"is_disabled":false,"rental_uris":{"android":"levelo://app?vid=d2d37f01-fa46-4fbc-a721-7789f4003663","ios":"levelo://app?vid=d2d37f01-fa46-4fbc-a721-7789f4003663"},"vehicle_type_id":"4","last_reported":1744726222,"current_range_meters":12800,"station_id":"ce4bhgp2rcd13ifvqfd0","pricing_plan_id":"cebpf4jnsgd1na2vs0mg"},{"bike_id":"cdbc5cd8-d7d4-41fd-89e8-6d65272d336a","system_id":"levelo_inurba_marseille","lat":43.29558,"lon":5.37523,"is_reserved":false,"is_disabled":false,"rental_uris":{"android":"levelo://app?vid=cdbc5cd8-d7d4-41fd-89e8-6d65272d336a","ios":"levelo://app?vid=cdbc5cd8-d7d4-41fd-89e8-6d65272d336a"},"vehicle_type_id":"4","last_reported":1744726222,"current_range_meters":12800,"station_id":"ce4bgh92rcd13ifvqb50","pricing_plan_id":"cebpf4jnsgd1na2vs0mg"},{"bike_id":"47a85634-40b2-4bd1-8409-1d1cf2f06bdc","system_id":"levelo_inurba_marseille","lat":43.2407,"lon":5.37757,"is_reserved":false,"is_disabled":false,"rental_uris":{"android":"levelo://app?vid=47a85634-40b2-4bd1-8409-1d1cf2f06bdc","ios":"levelo://app?vid=47a85634-40b2-4bd1-8409-1d1cf2f06bdc"},"vehicle_type_id":"4","last_reported":1744726222,"current_range_meters":13600,"station_id":"ce4bhnp2rcd13ifvqgvg","pricing_plan_id":"cebpf4jnsgd1na2vs0mg"},{"bike_id":"4ea9e186-8763-486b-9529-900e26fb45c6","system_id":"levelo_inurba_marseille","lat":43.31734,"lon":5.40435,"is_reserved":false,"is_disabled":false,"rental_uris":{"android":"levelo://app?vid=4ea9e186-8763-486b-9529-900e26fb45c6","ios":"levelo://app?vid=4ea9e186-8763-486b-9529-900e26fb45c6"},"vehicle_type_id":"4","last_reported":1744726222,"current_range_meters":13600,"station_id":"ce4bh012rcd13ifvqd00","pricing_plan_id":"cebpf4jnsgd1na2vs0mg"},{"bike_id":"bdbfa91d-f51b-4c92-a880-1cae845c2a5c","system_id":"levelo_inurba_marseille","lat":43.22927,"lon":5.35387,"is_reserved":false,"is_disabled":false,"rental_uris":{"android":"levelo://app?vid=bdbfa91d-f51b-4c92-a880-1cae845c2a5c","ios":"levelo://app?vid=bdbfa91d-f51b-4c92-a880-1cae845c2a5c"},"vehicle_type_id":"4","last_reported":1744726222,"current_range_meters":13600,"station_id":"cpo3532slgdg3j2ikp40","pricing_plan_id":"cebpf4jnsgd1na2vs0mg"},{"bike_id":"4081d408-5cce-4e4d-9bec-8bbda8eb8cc7","system_id":"levelo_inurba_marseille","lat":43.305359,"lon":5.366986,"is_reserved":false,"is_disabled":false,"rental_uris":{"android":"levelo://app?vid=4081d408-5cce-4e4d-9bec-8bbda8eb8cc7","ios":"levelo://app?vid=4081d408-5cce-4e4d-9bec-8bbda8eb8cc7"},"vehicle_type_id":"4","last_reported":1744726222,"current_range_meters":13600,"station_id":"ce4bgrp2rcd13ifvqc9g","pricing_plan_id":"cebpf4jnsgd1na2vs0mg"},{"bike_id":"475ae1d8-b176-4867-aed7-2c55f80c09f5","system_id":"levelo_inurba_marseille","lat":43.3047,"lon":5.37903,"is_reserved":false,"is_disabled":false,"rental_uris":{"android":"levelo://app?vid=475ae1d8-b176-4867-aed7-2c55f80c09f5","ios":"levelo://app?vid=475ae1d8-b176-4867-aed7-2c55f80c09f5"},"vehicle_type_id":"4","last_reported":1744726222,"current_range_meters":14000,"station_id":"ce4bgup2rcd13ifvqcn0","pricing_plan_id":"cebpf4jnsgd1na2vs0mg"},{"bike_id":"5e471e70-fb12-4f4e-bf80-428cedfb2e65","system_id":"levelo_inurba_marseille","lat":43.29902,"lon":5.43661,"is_reserved":false,"is_disabled":false,"rental_uris":{"android":"levelo://app?vid=5e471e70-fb12-4f4e-bf80-428cedfb2e65","ios":"levelo://app?vid=5e471e70-fb12-4f4e-bf80-428cedfb2e65"},"vehicle_type_id":"4","last_reported":1744726222,"current_range_meters":14000,"station_id":"ce4bhpp2rcd13ifvqhfg","pricing_plan_id":"cebpf4jnsgd1na2vs0mg"},{"bike_id":"c13360bf-72a6-41f8-ba61-7eadb585c0cb","system_id":"levelo_inurba_marseille","lat":43.30546,"lon":5.36536,"is_reserved":false,"is_disabled":false,"rental_uris":{"android":"levelo://app?vid=c13360bf-72a6-41f8-ba61-7eadb585c0cb","ios":"levelo://app?vid=c13360bf-72a6-41f8-ba61-7eadb585c0cb"},"vehicle_type_id":"4","last_reported":1744726222,"current_range_meters":14000,"station_id":"ce4bgs12rcd13ifvqcag","pricing_plan_id":"cebpf4jnsgd1na2vs0mg"},{"bike_id":"c9fbfbd0-ac82-410e-8a58-1795989b1898","system_id":"levelo_inurba_marseille","lat":43.30492,"lon":5.37905,"is_reserved":false,"is_disabled":false,"rental_uris":{"android":"levelo://app?vid=c9fbfbd0-ac82-410e-8a58-1795989b1898","ios":"levelo://app?vid=c9fbfbd0-ac82-410e-8a58-1795989b1898"},"vehicle_type_id":"4","last_reported":1744726222,"current_range_meters":14000,"station_id":"ce4bgup2rcd13ifvqcn0","pricing_plan_id":"cebpf4jnsgd1na2vs0mg"},{"bike_id":"e298fb17-60fe-4ee1-bc94-645f9b8b1bb4","system_id":"levelo_inurba_marseille","lat":43.29004,"lon":5.37629,"is_reserved":false,"is_disabled":false,"rental_uris":{"android":"levelo://app?vid=e298fb17-60fe-4ee1-bc94-645f9b8b1bb4","ios":"levelo://app?vid=e298fb17-60fe-4ee1-bc94-645f9b8b1bb4"},"vehicle_type_id":"4","last_reported":1744726222,"current_range_meters":14000,"station_id":"","pricing_plan_id":"cebpf4jnsgd1na2vs0mg"},{"bike_id":"a7cf0136-092e-475a-ac29-729c5595cb41","system_id":"levelo_inurba_marseille","lat":43.29687,"lon":5.36603,"is_reserved":false,"is_disabled":false,"rental_uris":{"android":"levelo://app?vid=a7cf0136-092e-475a-ac29-729c5595cb41","ios":"levelo://app?vid=a7cf0136-092e-475a-ac29-729c5595cb41"},"vehicle_type_id":"4","last_reported":1744726222,"current_range_meters":18000,"station_id":"ce4bgn12rcd13ifvqbt0","pricing_plan_id":"cebpf4jnsgd1na2vs0mg"},{"bike_id":"68b1d7c6-b5d8-444c-80f3-28916362f137","system_id":"levelo_inurba_marseille","lat":43.3121,"lon":5.36844,"is_reserved":false,"is_disabled":false,"rental_uris":{"android":"levelo://app?vid=68b1d7c6-b5d8-444c-80f3-28916362f137","ios":"levelo://app?vid=68b1d7c6-b5d8-444c-80f3-28916362f137"},"vehicle_type_id":"4","last_reported":1744726222,"current_range_meters":14400,"station_id":"ce4bgl92rcd13ifvqbq0","pricing_plan_id":"cebpf4jnsgd1na2vs0mg"},{"bike_id":"1a74ac0a-cb1d-4ce5-a73c-805145a62ea5","system_id":"levelo_inurba_marseille","lat":43.2455,"lon":5.39525,"is_reserved":false,"is_disabled":false,"rental_uris":{"android":"levelo://app?vid=1a74ac0a-cb1d-4ce5-a73c-805145a62ea5","ios":"levelo://app?vid=1a74ac0a-cb1d-4ce5-a73c-805145a62ea5"},"vehicle_type_id":"4","last_reported":1744726222,"current_range_meters":14800,"station_id":"ce4bhlp2rcd13ifvqgjg","pricing_plan_id":"cebpf4jnsgd1na2vs0mg"},{"bike_id":"96f67fc3-1d8d-4e0e-b60a-683312315db0","system_id":"levelo_inurba_marseille","lat":43.3137,"lon":5.36702,"is_reserved":false,"is_disabled":false,"rental_uris":{"android":"levelo://app?vid=96f67fc3-1d8d-4e0e-b60a-683312315db0","ios":"levelo://app?vid=96f67fc3-1d8d-4e0e-b60a-683312315db0"},"vehicle_type_id":"4","last_reported":1744726222,"current_range_meters":14800,"station_id":"ce4bgr92rcd13ifvqc6g","pricing_plan_id":"cebpf4jnsgd1na2vs0mg"},{"bike_id":"68b39a7e-aeed-4a18-b1ff-7ae3fe52b3ba","system_id":"levelo_inurba_marseille","lat":43.312273,"lon":5.368633,"is_reserved":false,"is_disabled":false,"rental_uris":{"android":"levelo://app?vid=68b39a7e-aeed-4a18-b1ff-7ae3fe52b3ba","ios":"levelo://app?vid=68b39a7e-aeed-4a18-b1ff-7ae3fe52b3ba"},"vehicle_type_id":"4","last_reported":1744726222,"current_range_meters":14800,"station_id":"ce4bgl92rcd13ifvqbq0","pricing_plan_id":"cebpf4jnsgd1na2vs0mg"},{"bike_id":"77037b3f-050a-4708-b85e-3feee4d6225d","system_id":"levelo_inurba_marseille","lat":43.30456,"lon":5.37903,"is_reserved":false,"is_disabled":false,"rental_uris":{"android":"levelo://app?vid=77037b3f-050a-4708-b85e-3feee4d6225d","ios":"levelo://app?vid=77037b3f-050a-4708-b85e-3feee4d6225d"},"vehicle_type_id":"4","last_reported":1744726222,"current_range_meters":15200,"station_id":"ce4bgup2rcd13ifvqcn0","pricing_plan_id":"cebpf4jnsgd1na2vs0mg"},{"bike_id":"3f1758d2-7345-4baa-9e35-37636579686b","system_id":"levelo_inurba_marseille","lat":43.290838,"lon":5.371669,"is_reserved":false,"is_disabled":false,"rental_uris":{"android":"levelo://app?vid=3f1758d2-7345-4baa-9e35-37636579686b","ios":"levelo://app?vid=3f1758d2-7345-4baa-9e35-37636579686b"},"vehicle_type_id":"4","last_reported":1744726222,"current_range_meters":15200,"station_id":"ce4bgv12rcd13ifvqcp0","pricing_plan_id":"cebpf4jnsgd1na2vs0mg"},{"bike_id":"9155bc8a-cf7e-4b94-a172-173d840f44db","system_id":"levelo_inurba_marseille","lat":43.25009,"lon":5.38926,"is_reserved":false,"is_disabled":false,"rental_uris":{"android":"levelo://app?vid=9155bc8a-cf7e-4b94-a172-173d840f44db","ios":"levelo://app?vid=9155bc8a-cf7e-4b94-a172-173d840f44db"},"vehicle_type_id":"4","last_reported":1744726222,"current_range_meters":16000,"station_id":"ce4bhgp2rcd13ifvqfd0","pricing_plan_id":"cebpf4jnsgd1na2vs0mg"},{"bike_id":"a8132d22-4ce6-4e24-9e2c-e02042e4181b","system_id":"levelo_inurba_marseille","lat":43.21757,"lon":5.346,"is_reserved":false,"is_disabled":false,"rental_uris":{"android":"levelo://app?vid=a8132d22-4ce6-4e24-9e2c-e02042e4181b","ios":"levelo://app?vid=a8132d22-4ce6-4e24-9e2c-e02042e4181b"},"vehicle_type_id":"4","last_reported":1744726222,"current_range_meters":16000,"station_id":"st_cvj6r9ubvosntc0bgbag","pricing_plan_id":"cebpf4jnsgd1na2vs0mg"},{"bike_id":"e51aeecc-bca4-471a-a7bb-959b0bbe889c","system_id":"levelo_inurba_marseille","lat":43.31546,"lon":5.37311,"is_reserved":false,"is_disabled":false,"rental_uris":{"android":"levelo://app?vid=e51aeecc-bca4-471a-a7bb-959b0bbe889c","ios":"levelo://app?vid=e51aeecc-bca4-471a-a7bb-959b0bbe889c"},"vehicle_type_id":"4","last_reported":1744726222,"current_range_meters":16000,"station_id":"","pricing_plan_id":"cebpf4jnsgd1na2vs0mg"},{"bike_id":"7eacb872-0584-4b06-8fad-feb612d3799a","system_id":"levelo_inurba_marseille","lat":43.29701,"lon":5.38131,"is_reserved":false,"is_disabled":false,"rental_uris":{"android":"levelo://app?vid=7eacb872-0584-4b06-8fad-feb612d3799a","ios":"levelo://app?vid=7eacb872-0584-4b06-8fad-feb612d3799a"},"vehicle_type_id":"4","last_reported":1744726222,"current_range_meters":16000,"station_id":"","pricing_plan_id":"cebpf4jnsgd1na2vs0mg"},{"bike_id":"e00ecb78-64cd-4d96-a23b-48394c8b906c","system_id":"levelo_inurba_marseille","lat":43.31754,"lon":5.39022,"is_reserved":false,"is_disabled":false,"rental_uris":{"android":"levelo://app?vid=e00ecb78-64cd-4d96-a23b-48394c8b906c","ios":"levelo://app?vid=e00ecb78-64cd-4d96-a23b-48394c8b906c"},"vehicle_type_id":"4","last_reported":1744726222,"current_range_meters":16000,"station_id":"ce4bhqp2rcd13ifvqhng","pricing_plan_id":"cebpf4jnsgd1na2vs0mg"},{"bike_id":"2caebf1c-7dd1-4d93-97aa-8cb87eccf6d4","system_id":"levelo_inurba_marseille","lat":43.31086,"lon":5.4243,"is_reserved":false,"is_disabled":false,"rental_uris":{"android":"levelo://app?vid=2caebf1c-7dd1-4d93-97aa-8cb87eccf6d4","ios":"levelo://app?vid=2caebf1c-7dd1-4d93-97aa-8cb87eccf6d4"},"vehicle_type_id":"4","last_reported":1744726222,"current_range_meters":16000,"station_id":"ce4bhp92rcd13ifvqhag","pricing_plan_id":"cebpf4jnsgd1na2vs0mg"},{"bike_id":"504cf016-be85-40ae-bd6e-21fe1e837c30","system_id":"levelo_inurba_marseille","lat":43.32507,"lon":5.36552,"is_reserved":false,"is_disabled":false,"rental_uris":{"android":"levelo://app?vid=504cf016-be85-40ae-bd6e-21fe1e837c30","ios":"levelo://app?vid=504cf016-be85-40ae-bd6e-21fe1e837c30"},"vehicle_type_id":"4","last_reported":1744726222,"current_range_meters":16400,"station_id":"ce4bhs12rcd13ifvqhvg","pricing_plan_id":"cebpf4jnsgd1na2vs0mg"},{"bike_id":"5dfca6c1-f2b4-47f4-a5d8-0b137be0c3ad","system_id":"levelo_inurba_marseille","lat":43.3137,"lon":5.367363,"is_reserved":false,"is_disabled":false,"rental_uris":{"android":"levelo://app?vid=5dfca6c1-f2b4-47f4-a5d8-0b137be0c3ad","ios":"levelo://app?vid=5dfca6c1-f2b4-47f4-a5d8-0b137be0c3ad"},"vehicle_type_id":"4","last_reported":1744726222,"current_range_meters":16400,"station_id":"","pricing_plan_id":"cebpf4jnsgd1na2vs0mg"},{"bike_id":"4aef0fa6-a0da-4fa2-9099-9fa1ba81c16a","system_id":"levelo_inurba_marseille","lat":43.281697,"lon":5.404369,"is_reserved":false,"is_disabled":false,"rental_uris":{"android":"levelo://app?vid=4aef0fa6-a0da-4fa2-9099-9fa1ba81c16a","ios":"levelo://app?vid=4aef0fa6-a0da-4fa2-9099-9fa1ba81c16a"},"vehicle_type_id":"4","last_reported":1744726222,"current_range_meters":16400,"station_id":"","pricing_plan_id":"cebpf4jnsgd1na2vs0mg"},{"bike_id":"1cda6c4a-ae57-4fc8-b8ee-0ab1f3b5a4dd","system_id":"levelo_inurba_marseille","lat":43.30947,"lon":5.36815,"is_reserved":false,"is_disabled":false,"rental_uris":{"android":"levelo://app?vid=1cda6c4a-ae57-4fc8-b8ee-0ab1f3b5a4dd","ios":"levelo://app?vid=1cda6c4a-ae57-4fc8-b8ee-0ab1f3b5a4dd"},"vehicle_type_id":"4","last_reported":1744726222,"current_range_meters":16400,"station_id":"","pricing_plan_id":"cebpf4jnsgd1na2vs0mg"},{"bike_id":"5783107d-3349-42ce-abff-3bb17abe32e0","system_id":"levelo_inurba_marseille","lat":43.29982,"lon":5.38497,"is_reserved":false,"is_disabled":false,"rental_uris":{"android":"levelo://app?vid=5783107d-3349-42ce-abff-3bb17abe32e0","ios":"levelo://app?vid=5783107d-3349-42ce-abff-3bb17abe32e0"},"vehicle_type_id":"4","last_reported":1744726222,"current_range_meters":16400,"station_id":"ce4bgj92rcd13ifvqbd0","pricing_plan_id":"cebpf4jnsgd1na2vs0mg"},{"bike_id":"944bddab-9f41-4da7-80e2-b3e803e6b9a5","system_id":"levelo_inurba_marseille","lat":43.2119,"lon":5.35058,"is_reserved":false,"is_disabled":false,"rental_uris":{"android":"levelo://app?vid=944bddab-9f41-4da7-80e2-b3e803e6b9a5","ios":"levelo://app?vid=944bddab-9f41-4da7-80e2-b3e803e6b9a5"},"vehicle_type_id":"4","last_reported":1744726222,"current_range_meters":16400,"station_id":"st_cvj6sg6p6f1abm77japg","pricing_plan_id":"cebpf4jnsgd1na2vs0mg"},{"bike_id":"4e62293d-53b5-47bd-8532-04d90d705792","system_id":"levelo_inurba_marseille","lat":43.30373,"lon":5.42477,"is_reserved":false,"is_disabled":false,"rental_uris":{"android":"levelo://app?vid=4e62293d-53b5-47bd-8532-04d90d705792","ios":"levelo://app?vid=4e62293d-53b5-47bd-8532-04d90d705792"},"vehicle_type_id":"4","last_reported":1744726222,"current_range_meters":16800,"station_id":"ce4bhoh2rcd13ifvqh6g","pricing_plan_id":"cebpf4jnsgd1na2vs0mg"},{"bike_id":"b4f54fd8-b639-40ef-ba92-541a32ee585e","system_id":"levelo_inurba_marseille","lat":43.30145,"lon":5.38774,"is_reserved":false,"is_disabled":false,"rental_uris":{"android":"levelo://app?vid=b4f54fd8-b639-40ef-ba92-541a32ee585e","ios":"levelo://app?vid=b4f54fd8-b639-40ef-ba92-541a32ee585e"},"vehicle_type_id":"4","last_reported":1744726222,"current_range_meters":16400,"station_id":"ce4bghh2rcd13ifvqb60","pricing_plan_id":"cebpf4jnsgd1na2vs0mg"},{"bike_id":"7035a280-e367-4dda-ab53-5448a5769738","system_id":"levelo_inurba_marseille","lat":43.3052,"lon":5.36529,"is_reserved":false,"is_disabled":false,"rental_uris":{"android":"levelo://app?vid=7035a280-e367-4dda-ab53-5448a5769738","ios":"levelo://app?vid=7035a280-e367-4dda-ab53-5448a5769738"},"vehicle_type_id":"4","last_reported":1744726222,"current_range_meters":16800,"station_id":"","pricing_plan_id":"cebpf4jnsgd1na2vs0mg"},{"bike_id":"8cbd2531-c5b2-48f4-8519-f32a3a880ece","system_id":"levelo_inurba_marseille","lat":43.30539,"lon":5.36556,"is_reserved":false,"is_disabled":false,"rental_uris":{"android":"levelo://app?vid=8cbd2531-c5b2-48f4-8519-f32a3a880ece","ios":"levelo://app?vid=8cbd2531-c5b2-48f4-8519-f32a3a880ece"},"vehicle_type_id":"4","last_reported":1744726222,"current_range_meters":16800,"station_id":"ce4bgs12rcd13ifvqcag","pricing_plan_id":"cebpf4jnsgd1na2vs0mg"},{"bike_id":"18962ae2-002f-4a57-b718-cfd659883407","system_id":"levelo_inurba_marseille","lat":43.30531,"lon":5.36565,"is_reserved":false,"is_disabled":false,"rental_uris":{"android":"levelo://app?vid=18962ae2-002f-4a57-b718-cfd659883407","ios":"levelo://app?vid=18962ae2-002f-4a57-b718-cfd659883407"},"vehicle_type_id":"4","last_reported":1744726222,"current_range_meters":16800,"station_id":"ce4bgs12rcd13ifvqcag","pricing_plan_id":"cebpf4jnsgd1na2vs0mg"},{"bike_id":"ea6c4095-95f9-462c-9c53-2af2d54782dc","system_id":"levelo_inurba_marseille","lat":43.301256,"lon":5.398603,"is_reserved":false,"is_disabled":false,"rental_uris":{"android":"levelo://app?vid=ea6c4095-95f9-462c-9c53-2af2d54782dc","ios":"levelo://app?vid=ea6c4095-95f9-462c-9c53-2af2d54782dc"},"vehicle_type_id":"4","last_reported":1744726222,"current_range_meters":17200,"station_id":"ce4bh0h2rcd13ifvqd40","pricing_plan_id":"cebpf4jnsgd1na2vs0mg"},{"bike_id":"b90b8015-cd20-4613-a5cd-80a33df07583","system_id":"levelo_inurba_marseille","lat":43.28158,"lon":5.42634,"is_reserved":false,"is_disabled":false,"rental_uris":{"android":"levelo://app?vid=b90b8015-cd20-4613-a5cd-80a33df07583","ios":"levelo://app?vid=b90b8015-cd20-4613-a5cd-80a33df07583"},"vehicle_type_id":"4","last_reported":1744726222,"current_range_meters":17200,"station_id":"ce4bhnh2rcd13ifvqgug","pricing_plan_id":"cebpf4jnsgd1na2vs0mg"},{"bike_id":"07a5ffca-4d0a-4618-a32b-5495fa20f9c6","system_id":"levelo_inurba_marseille","lat":43.23145,"lon":5.43736,"is_reserved":false,"is_disabled":false,"rental_uris":{"android":"levelo://app?vid=07a5ffca-4d0a-4618-a32b-5495fa20f9c6","ios":"levelo://app?vid=07a5ffca-4d0a-4618-a32b-5495fa20f9c6"},"vehicle_type_id":"4","last_reported":1744726222,"current_range_meters":17200,"station_id":"ce4bhmp2rcd13ifvqgog","pricing_plan_id":"cebpf4jnsgd1na2vs0mg"},{"bike_id":"94e74445-d4d1-4306-8a80-dd4f77681f26","system_id":"levelo_inurba_marseille","lat":43.28367,"lon":5.38106,"is_reserved":false,"is_disabled":false,"rental_uris":{"android":"levelo://app?vid=94e74445-d4d1-4306-8a80-dd4f77681f26","ios":"levelo://app?vid=94e74445-d4d1-4306-8a80-dd4f77681f26"},"vehicle_type_id":"4","last_reported":1744726222,"current_range_meters":16800,"station_id":"ce4bh412rcd13ifvqdr0","pricing_plan_id":"cebpf4jnsgd1na2vs0mg"},{"bike_id":"d7366825-38ad-46b3-826e-57a0fe953596","system_id":"levelo_inurba_marseille","lat":43.290039,"lon":5.356183,"is_reserved":false,"is_disabled":false,"rental_uris":{"android":"levelo://app?vid=d7366825-38ad-46b3-826e-57a0fe953596","ios":"levelo://app?vid=d7366825-38ad-46b3-826e-57a0fe953596"},"vehicle_type_id":"4","last_reported":1744726222,"current_range_meters":17200,"station_id":"ce4bhg12rcd13ifvqf80","pricing_plan_id":"cebpf4jnsgd1na2vs0mg"},{"bike_id":"bb3db0da-aaf2-4843-943a-0d03e542717f","system_id":"levelo_inurba_marseille","lat":43.28875,"lon":5.35826,"is_reserved":false,"is_disabled":false,"rental_uris":{"android":"levelo://app?vid=bb3db0da-aaf2-4843-943a-0d03e542717f","ios":"levelo://app?vid=bb3db0da-aaf2-4843-943a-0d03e542717f"},"vehicle_type_id":"4","last_reported":1744726222,"current_range_meters":17600,"station_id":"ce4bhb12rcd13ifvqem0","pricing_plan_id":"cebpf4jnsgd1na2vs0mg"},{"bike_id":"09651454-ba98-489f-84d4-7c0b820526b4","system_id":"levelo_inurba_marseille","lat":43.3122,"lon":5.36867,"is_reserved":false,"is_disabled":true,"rental_uris":{"android":"levelo://app?vid=09651454-ba98-489f-84d4-7c0b820526b4","ios":"levelo://app?vid=09651454-ba98-489f-84d4-7c0b820526b4"},"vehicle_type_id":"4","last_reported":1744726222,"current_range_meters":17600,"station_id":"ce4bgl92rcd13ifvqbq0","pricing_plan_id":"cebpf4jnsgd1na2vs0mg"},{"bike_id":"adc34553-e966-45ee-a05a-cc6e57ca0d54","system_id":"levelo_inurba_marseille","lat":43.299,"lon":5.43656,"is_reserved":false,"is_disabled":false,"rental_uris":{"android":"levelo://app?vid=adc34553-e966-45ee-a05a-cc6e57ca0d54","ios":"levelo://app?vid=adc34553-e966-45ee-a05a-cc6e57ca0d54"},"vehicle_type_id":"4","last_reported":1744726222,"current_range_meters":17600,"station_id":"ce4bhpp2rcd13ifvqhfg","pricing_plan_id":"cebpf4jnsgd1na2vs0mg"},{"bike_id":"fd2624f9-5e24-4776-8a81-081b374ee34f","system_id":"levelo_inurba_marseille","lat":43.28617,"lon":5.35093,"is_reserved":false,"is_disabled":false,"rental_uris":{"android":"levelo://app?vid=fd2624f9-5e24-4776-8a81-081b374ee34f","ios":"levelo://app?vid=fd2624f9-5e24-4776-8a81-081b374ee34f"},"vehicle_type_id":"4","last_reported":1744726222,"current_range_meters":17600,"station_id":"ce4bhch2rcd13ifvqeug","pricing_plan_id":"cebpf4jnsgd1na2vs0mg"},{"bike_id":"857ff0ed-8bc6-43b2-87aa-4266c1d75649","system_id":"levelo_inurba_marseille","lat":43.31058,"lon":5.4011,"is_reserved":false,"is_disabled":false,"rental_uris":{"android":"levelo://app?vid=857ff0ed-8bc6-43b2-87aa-4266c1d75649","ios":"levelo://app?vid=857ff0ed-8bc6-43b2-87aa-4266c1d75649"},"vehicle_type_id":"4","last_reported":1744726222,"current_range_meters":17600,"station_id":"","pricing_plan_id":"cebpf4jnsgd1na2vs0mg"},{"bike_id":"6c04b47c-47c5-47ec-b049-5a66ac41b83e","system_id":"levelo_inurba_marseille","lat":43.28432,"lon":5.3919,"is_reserved":false,"is_disabled":false,"rental_uris":{"android":"levelo://app?vid=6c04b47c-47c5-47ec-b049-5a66ac41b83e","ios":"levelo://app?vid=6c04b47c-47c5-47ec-b049-5a66ac41b83e"},"vehicle_type_id":"4","last_reported":1744726222,"current_range_meters":18000,"station_id":"ce4bhoh2rcd13ifvqh5g","pricing_plan_id":"cebpf4jnsgd1na2vs0mg"},{"bike_id":"409f6a98-f600-494d-8f3e-69ca699f8163","system_id":"levelo_inurba_marseille","lat":43.28259,"lon":5.35055,"is_reserved":false,"is_disabled":false,"rental_uris":{"android":"levelo://app?vid=409f6a98-f600-494d-8f3e-69ca699f8163","ios":"levelo://app?vid=409f6a98-f600-494d-8f3e-69ca699f8163"},"vehicle_type_id":"4","last_reported":1744726222,"current_range_meters":18000,"station_id":"ce4bhbp2rcd13ifvqerg","pricing_plan_id":"cebpf4jnsgd1na2vs0mg"},{"bike_id":"be041a11-6d4f-4c14-b6c8-a1661477ddc5","system_id":"levelo_inurba_marseille","lat":43.29193,"lon":5.358,"is_reserved":false,"is_disabled":false,"rental_uris":{"android":"levelo://app?vid=be041a11-6d4f-4c14-b6c8-a1661477ddc5","ios":"levelo://app?vid=be041a11-6d4f-4c14-b6c8-a1661477ddc5"},"vehicle_type_id":"4","last_reported":1744726222,"current_range_meters":17600,"station_id":"ce4bhb12rcd13ifvqel0","pricing_plan_id":"cebpf4jnsgd1na2vs0mg"},{"bike_id":"c49a4f83-675f-4244-a56b-2ab36d6a6f86","system_id":"levelo_inurba_marseille","lat":43.32481,"lon":5.36553,"is_reserved":false,"is_disabled":false,"rental_uris":{"android":"levelo://app?vid=c49a4f83-675f-4244-a56b-2ab36d6a6f86","ios":"levelo://app?vid=c49a4f83-675f-4244-a56b-2ab36d6a6f86"},"vehicle_type_id":"4","last_reported":1744726222,"current_range_meters":18000,"station_id":"ce4bhs12rcd13ifvqhvg","pricing_plan_id":"cebpf4jnsgd1na2vs0mg"},{"bike_id":"4c485f2f-1931-4924-9b93-bde6a49cc60b","system_id":"levelo_inurba_marseille","lat":43.30939,"lon":5.39028,"is_reserved":false,"is_disabled":false,"rental_uris":{"android":"levelo://app?vid=4c485f2f-1931-4924-9b93-bde6a49cc60b","ios":"levelo://app?vid=4c485f2f-1931-4924-9b93-bde6a49cc60b"},"vehicle_type_id":"4","last_reported":1744726222,"current_range_meters":18000,"station_id":"ce4bgup2rcd13ifvqco0","pricing_plan_id":"cebpf4jnsgd1na2vs0mg"},{"bike_id":"6f23923f-fc67-460a-b0b8-5119c016d5b0","system_id":"levelo_inurba_marseille","lat":43.26934,"lon":5.38921,"is_reserved":false,"is_disabled":true,"rental_uris":{"android":"levelo://app?vid=6f23923f-fc67-460a-b0b8-5119c016d5b0","ios":"levelo://app?vid=6f23923f-fc67-460a-b0b8-5119c016d5b0"},"vehicle_type_id":"4","last_reported":1744726222,"current_range_meters":18000,"station_id":"ce4bhhh2rcd13ifvqfl0","pricing_plan_id":"cebpf4jnsgd1na2vs0mg"},{"bike_id":"a0ddb0a5-f7f0-4281-aa27-9e82747cc573","system_id":"levelo_inurba_marseille","lat":43.33762,"lon":5.3748,"is_reserved":false,"is_disabled":false,"rental_uris":{"android":"levelo://app?vid=a0ddb0a5-f7f0-4281-aa27-9e82747cc573","ios":"levelo://app?vid=a0ddb0a5-f7f0-4281-aa27-9e82747cc573"},"vehicle_type_id":"4","last_reported":1744726222,"current_range_meters":18000,"station_id":"","pricing_plan_id":"cebpf4jnsgd1na2vs0mg"},{"bike_id":"9171f4c4-b517-4682-ab7d-432ebdc96e70","system_id":"levelo_inurba_marseille","lat":43.30462,"lon":5.37919,"is_reserved":false,"is_disabled":false,"rental_uris":{"android":"levelo://app?vid=9171f4c4-b517-4682-ab7d-432ebdc96e70","ios":"levelo://app?vid=9171f4c4-b517-4682-ab7d-432ebdc96e70"},"vehicle_type_id":"4","last_reported":1744726222,"current_range_meters":18800,"station_id":"ce4bgup2rcd13ifvqcn0","pricing_plan_id":"cebpf4jnsgd1na2vs0mg"},{"bike_id":"9ef774d1-4bb4-4e9a-8150-dafa21b765c2","system_id":"levelo_inurba_marseille","lat":43.31888,"lon":5.40743,"is_reserved":false,"is_disabled":false,"rental_uris":{"android":"levelo://app?vid=9ef774d1-4bb4-4e9a-8150-dafa21b765c2","ios":"levelo://app?vid=9ef774d1-4bb4-4e9a-8150-dafa21b765c2"},"vehicle_type_id":"4","last_reported":1744726222,"current_range_meters":18000,"station_id":"ce4bhq12rcd13ifvqhig","pricing_plan_id":"cebpf4jnsgd1na2vs0mg"},{"bike_id":"889e5f0e-836f-416e-9071-263d48ad5753","system_id":"levelo_inurba_marseille","lat":43.29534,"lon":5.38529,"is_reserved":false,"is_disabled":false,"rental_uris":{"android":"levelo://app?vid=889e5f0e-836f-416e-9071-263d48ad5753","ios":"levelo://app?vid=889e5f0e-836f-416e-9071-263d48ad5753"},"vehicle_type_id":"4","last_reported":1744726222,"current_range_meters":18800,"station_id":"ce4bgih2rcd13ifvqba0","pricing_plan_id":"cebpf4jnsgd1na2vs0mg"},{"bike_id":"834ec9e1-9d50-4bee-85ae-d1db335c55e5","system_id":"levelo_inurba_marseille","lat":43.31804,"lon":5.36822,"is_reserved":false,"is_disabled":false,"rental_uris":{"android":"levelo://app?vid=834ec9e1-9d50-4bee-85ae-d1db335c55e5","ios":"levelo://app?vid=834ec9e1-9d50-4bee-85ae-d1db335c55e5"},"vehicle_type_id":"4","last_reported":1744726222,"current_range_meters":18800,"station_id":"","pricing_plan_id":"cebpf4jnsgd1na2vs0mg"},{"bike_id":"851c342f-847a-4d1a-87b8-7d8f38b1622d","system_id":"levelo_inurba_marseille","lat":43.27626,"lon":5.36114,"is_reserved":false,"is_disabled":false,"rental_uris":{"android":"levelo://app?vid=851c342f-847a-4d1a-87b8-7d8f38b1622d","ios":"levelo://app?vid=851c342f-847a-4d1a-87b8-7d8f38b1622d"},"vehicle_type_id":"4","last_reported":1744726222,"current_range_meters":18800,"station_id":"ce4bgj92rcd13ifvqbe0","pricing_plan_id":"cebpf4jnsgd1na2vs0mg"},{"bike_id":"f28ab945-c9df-4b0b-be4c-c2ea61470e17","system_id":"levelo_inurba_marseille","lat":43.32475,"lon":5.36565,"is_reserved":false,"is_disabled":false,"rental_uris":{"android":"levelo://app?vid=f28ab945-c9df-4b0b-be4c-c2ea61470e17","ios":"levelo://app?vid=f28ab945-c9df-4b0b-be4c-c2ea61470e17"},"vehicle_type_id":"4","last_reported":1744726222,"current_range_meters":18800,"station_id":"ce4bhs12rcd13ifvqhvg","pricing_plan_id":"cebpf4jnsgd1na2vs0mg"},{"bike_id":"d5891ce9-9a7a-4245-8d23-7b71dd991542","system_id":"levelo_inurba_marseille","lat":43.29875,"lon":5.39722,"is_reserved":false,"is_disabled":false,"rental_uris":{"android":"levelo://app?vid=d5891ce9-9a7a-4245-8d23-7b71dd991542","ios":"levelo://app?vid=d5891ce9-9a7a-4245-8d23-7b71dd991542"},"vehicle_type_id":"4","last_reported":1744726222,"current_range_meters":19200,"station_id":"ce4bh0h2rcd13ifvqd50","pricing_plan_id":"cebpf4jnsgd1na2vs0mg"},{"bike_id":"cd4c1a25-97aa-43d0-a619-67e51e27f9f0","system_id":"levelo_inurba_marseille","lat":43.29418,"lon":5.38622,"is_reserved":false,"is_disabled":false,"rental_uris":{"android":"levelo://app?vid=cd4c1a25-97aa-43d0-a619-67e51e27f9f0","ios":"levelo://app?vid=cd4c1a25-97aa-43d0-a619-67e51e27f9f0"},"vehicle_type_id":"4","last_reported":1744726222,"current_range_meters":18800,"station_id":"ce4bh2h2rcd13ifvqdh0","pricing_plan_id":"cebpf4jnsgd1na2vs0mg"},{"bike_id":"4e6524b6-5132-41d3-a759-888a060ccf51","system_id":"levelo_inurba_marseille","lat":43.31106,"lon":5.36754,"is_reserved":false,"is_disabled":false,"rental_uris":{"android":"levelo://app?vid=4e6524b6-5132-41d3-a759-888a060ccf51","ios":"levelo://app?vid=4e6524b6-5132-41d3-a759-888a060ccf51"},"vehicle_type_id":"4","last_reported":1744726222,"current_range_meters":19200,"station_id":"","pricing_plan_id":"cebpf4jnsgd1na2vs0mg"},{"bike_id":"5db1c346-bad5-4bb5-a5f4-5c9e9e637b7e","system_id":"levelo_inurba_marseille","lat":43.29298,"lon":5.37462,"is_reserved":false,"is_disabled":false,"rental_uris":{"android":"levelo://app?vid=5db1c346-bad5-4bb5-a5f4-5c9e9e637b7e","ios":"levelo://app?vid=5db1c346-bad5-4bb5-a5f4-5c9e9e637b7e"},"vehicle_type_id":"4","last_reported":1744726222,"current_range_meters":19200,"station_id":"ce4bgi12rcd13ifvqb70","pricing_plan_id":"cebpf4jnsgd1na2vs0mg"},{"bike_id":"f2683306-14c0-466d-8562-255176f93ee2","system_id":"levelo_inurba_marseille","lat":43.27375,"lon":5.36268,"is_reserved":false,"is_disabled":false,"rental_uris":{"android":"levelo://app?vid=f2683306-14c0-466d-8562-255176f93ee2","ios":"levelo://app?vid=f2683306-14c0-466d-8562-255176f93ee2"},"vehicle_type_id":"4","last_reported":1744726222,"current_range_meters":19600,"station_id":"ce4bhbh2rcd13ifvqeo0","pricing_plan_id":"cebpf4jnsgd1na2vs0mg"},{"bike_id":"8e70bf92-4f5a-4092-8d5f-47db54b391ee","system_id":"levelo_inurba_marseille","lat":43.2737,"lon":5.36254,"is_reserved":false,"is_disabled":false,"rental_uris":{"android":"levelo://app?vid=8e70bf92-4f5a-4092-8d5f-47db54b391ee","ios":"levelo://app?vid=8e70bf92-4f5a-4092-8d5f-47db54b391ee"},"vehicle_type_id":"4","last_reported":1744726222,"current_range_meters":19600,"station_id":"ce4bhbh2rcd13ifvqeo0","pricing_plan_id":"cebpf4jnsgd1na2vs0mg"},{"bike_id":"6bf5a380-400e-4cd6-bc1e-356afac9ee45","system_id":"levelo_inurba_marseille","lat":43.24154,"lon":5.36397,"is_reserved":false,"is_disabled":false,"rental_uris":{"android":"levelo://app?vid=6bf5a380-400e-4cd6-bc1e-356afac9ee45","ios":"levelo://app?vid=6bf5a380-400e-4cd6-bc1e-356afac9ee45"},"vehicle_type_id":"4","last_reported":1744726222,"current_range_meters":19600,"station_id":"cpo36qri1sfpv3e86is0","pricing_plan_id":"cebpf4jnsgd1na2vs0mg"},{"bike_id":"3b76cd2d-6f1e-48e1-87b7-8fbd5ecea570","system_id":"levelo_inurba_marseille","lat":43.30154,"lon":5.37424,"is_reserved":false,"is_disabled":false,"rental_uris":{"android":"levelo://app?vid=3b76cd2d-6f1e-48e1-87b7-8fbd5ecea570","ios":"levelo://app?vid=3b76cd2d-6f1e-48e1-87b7-8fbd5ecea570"},"vehicle_type_id":"4","last_reported":1744726222,"current_range_meters":19600,"station_id":"ce4bgs92rcd13ifvqcc0","pricing_plan_id":"cebpf4jnsgd1na2vs0mg"},{"bike_id":"bc6a7aed-00b3-461b-8507-4e2e4d6d0ce1","system_id":"levelo_inurba_marseille","lat":43.30144,"lon":5.39854,"is_reserved":false,"is_disabled":false,"rental_uris":{"android":"levelo://app?vid=bc6a7aed-00b3-461b-8507-4e2e4d6d0ce1","ios":"levelo://app?vid=bc6a7aed-00b3-461b-8507-4e2e4d6d0ce1"},"vehicle_type_id":"4","last_reported":1744726222,"current_range_meters":19600,"station_id":"ce4bh0h2rcd13ifvqd40","pricing_plan_id":"cebpf4jnsgd1na2vs0mg"},{"bike_id":"bc8155ea-2b55-4b48-a522-41c49962bcce","system_id":"levelo_inurba_marseille","lat":43.30606,"lon":5.37225,"is_reserved":false,"is_disabled":false,"rental_uris":{"android":"levelo://app?vid=bc8155ea-2b55-4b48-a522-41c49962bcce","ios":"levelo://app?vid=bc8155ea-2b55-4b48-a522-41c49962bcce"},"vehicle_type_id":"4","last_reported":1744726222,"current_range_meters":19600,"station_id":"ce4bgqh2rcd13ifvqc4g","pricing_plan_id":"cebpf4jnsgd1na2vs0mg"},{"bike_id":"aad7815f-948b-44ab-a2d7-4c843cca007f","system_id":"levelo_inurba_marseille","lat":43.22933,"lon":5.35385,"is_reserved":false,"is_disabled":false,"rental_uris":{"android":"levelo://app?vid=aad7815f-948b-44ab-a2d7-4c843cca007f","ios":"levelo://app?vid=aad7815f-948b-44ab-a2d7-4c843cca007f"},"vehicle_type_id":"4","last_reported":1744726222,"current_range_meters":19600,"station_id":"cpo3532slgdg3j2ikp40","pricing_plan_id":"cebpf4jnsgd1na2vs0mg"},{"bike_id":"4362e1fa-4658-4fc3-9e76-87502b2e3949","system_id":"levelo_inurba_marseille","lat":43.29854,"lon":5.36276,"is_reserved":false,"is_disabled":false,"rental_uris":{"android":"levelo://app?vid=4362e1fa-4658-4fc3-9e76-87502b2e3949","ios":"levelo://app?vid=4362e1fa-4658-4fc3-9e76-87502b2e3949"},"vehicle_type_id":"4","last_reported":1744726222,"current_range_meters":19600,"station_id":"ce4bgpp2rcd13ifvqc3g","pricing_plan_id":"cebpf4jnsgd1na2vs0mg"},{"bike_id":"fa8b5d88-c56b-4501-99c1-1b5a6dfd1f66","system_id":"levelo_inurba_marseille","lat":43.21191,"lon":5.35078,"is_reserved":false,"is_disabled":false,"rental_uris":{"android":"levelo://app?vid=fa8b5d88-c56b-4501-99c1-1b5a6dfd1f66","ios":"levelo://app?vid=fa8b5d88-c56b-4501-99c1-1b5a6dfd1f66"},"vehicle_type_id":"4","last_reported":1744726222,"current_range_meters":19600,"station_id":"st_cvj6sg6p6f1abm77japg","pricing_plan_id":"cebpf4jnsgd1na2vs0mg"},{"bike_id":"47fc28e5-9c75-4f47-bf93-4842e96edde5","system_id":"levelo_inurba_marseille","lat":43.29965,"lon":5.38494,"is_reserved":false,"is_disabled":false,"rental_uris":{"android":"levelo://app?vid=47fc28e5-9c75-4f47-bf93-4842e96edde5","ios":"levelo://app?vid=47fc28e5-9c75-4f47-bf93-4842e96edde5"},"vehicle_type_id":"4","last_reported":1744726222,"current_range_meters":19600,"station_id":"ce4bgj92rcd13ifvqbd0","pricing_plan_id":"cebpf4jnsgd1na2vs0mg"},{"bike_id":"87520531-1445-41cd-b3de-4eab531f41f3","system_id":"levelo_inurba_marseille","lat":43.30614,"lon":5.37224,"is_reserved":false,"is_disabled":false,"rental_uris":{"android":"levelo://app?vid=87520531-1445-41cd-b3de-4eab531f41f3","ios":"levelo://app?vid=87520531-1445-41cd-b3de-4eab531f41f3"},"vehicle_type_id":"4","last_reported":1744726222,"current_range_meters":19600,"station_id":"ce4bgqh2rcd13ifvqc4g","pricing_plan_id":"cebpf4jnsgd1na2vs0mg"},{"bike_id":"7ad0bf0f-5294-442b-8825-791f1416a999","system_id":"levelo_inurba_marseille","lat":43.24191,"lon":5.39736,"is_reserved":false,"is_disabled":false,"rental_uris":{"android":"levelo://app?vid=7ad0bf0f-5294-442b-8825-791f1416a999","ios":"levelo://app?vid=7ad0bf0f-5294-442b-8825-791f1416a999"},"vehicle_type_id":"4","last_reported":1744726222,"current_range_meters":19600,"station_id":"ce4bhn12rcd13ifvqgpg","pricing_plan_id":"cebpf4jnsgd1na2vs0mg"},{"bike_id":"4c0ede51-6b22-44f8-8575-b86906a20779","system_id":"levelo_inurba_marseille","lat":43.21776,"lon":5.34607,"is_reserved":false,"is_disabled":false,"rental_uris":{"android":"levelo://app?vid=4c0ede51-6b22-44f8-8575-b86906a20779","ios":"levelo://app?vid=4c0ede51-6b22-44f8-8575-b86906a20779"},"vehicle_type_id":"4","last_reported":1744726222,"current_range_meters":20000,"station_id":"st_cvj6r9ubvosntc0bgbag","pricing_plan_id":"cebpf4jnsgd1na2vs0mg"},{"bike_id":"b6af11c9-b83e-4a5d-9f96-b570355b37eb","system_id":"levelo_inurba_marseille","lat":43.301254,"lon":5.398619,"is_reserved":false,"is_disabled":false,"rental_uris":{"android":"levelo://app?vid=b6af11c9-b83e-4a5d-9f96-b570355b37eb","ios":"levelo://app?vid=b6af11c9-b83e-4a5d-9f96-b570355b37eb"},"vehicle_type_id":"4","last_reported":1744726222,"current_range_meters":19600,"station_id":"ce4bh0h2rcd13ifvqd40","pricing_plan_id":"cebpf4jnsgd1na2vs0mg"},{"bike_id":"197bb1cf-7b52-44f2-822f-d34344cd6bfb","system_id":"levelo_inurba_marseille","lat":43.29877,"lon":5.39731,"is_reserved":false,"is_disabled":false,"rental_uris":{"android":"levelo://app?vid=197bb1cf-7b52-44f2-822f-d34344cd6bfb","ios":"levelo://app?vid=197bb1cf-7b52-44f2-822f-d34344cd6bfb"},"vehicle_type_id":"4","last_reported":1744726222,"current_range_meters":20000,"station_id":"ce4bh0h2rcd13ifvqd50","pricing_plan_id":"cebpf4jnsgd1na2vs0mg"},{"bike_id":"7ada3698-62b7-4c37-8e25-417fb476bfad","system_id":"levelo_inurba_marseille","lat":43.29843,"lon":5.36271,"is_reserved":false,"is_disabled":false,"rental_uris":{"android":"levelo://app?vid=7ada3698-62b7-4c37-8e25-417fb476bfad","ios":"levelo://app?vid=7ada3698-62b7-4c37-8e25-417fb476bfad"},"vehicle_type_id":"4","last_reported":1744726222,"current_range_meters":20400,"station_id":"ce4bgpp2rcd13ifvqc3g","pricing_plan_id":"cebpf4jnsgd1na2vs0mg"},{"bike_id":"c0efea73-9eb0-4187-81b2-7c04483ff9a5","system_id":"levelo_inurba_marseille","lat":43.29866,"lon":5.3625,"is_reserved":false,"is_disabled":false,"rental_uris":{"android":"levelo://app?vid=c0efea73-9eb0-4187-81b2-7c04483ff9a5","ios":"levelo://app?vid=c0efea73-9eb0-4187-81b2-7c04483ff9a5"},"vehicle_type_id":"4","last_reported":1744726222,"current_range_meters":20400,"station_id":"ce4bgpp2rcd13ifvqc3g","pricing_plan_id":"cebpf4jnsgd1na2vs0mg"},{"bike_id":"e3809830-e19f-4d2b-90d3-045c3a3ab007","system_id":"levelo_inurba_marseille","lat":43.30526,"lon":5.36708,"is_reserved":false,"is_disabled":false,"rental_uris":{"android":"levelo://app?vid=e3809830-e19f-4d2b-90d3-045c3a3ab007","ios":"levelo://app?vid=e3809830-e19f-4d2b-90d3-045c3a3ab007"},"vehicle_type_id":"4","last_reported":1744726222,"current_range_meters":20400,"station_id":"ce4bgrp2rcd13ifvqc9g","pricing_plan_id":"cebpf4jnsgd1na2vs0mg"},{"bike_id":"c05a968d-35d0-4255-bcba-622b1c823d8c","system_id":"levelo_inurba_marseille","lat":43.28609,"lon":5.37058,"is_reserved":false,"is_disabled":false,"rental_uris":{"android":"levelo://app?vid=c05a968d-35d0-4255-bcba-622b1c823d8c","ios":"levelo://app?vid=c05a968d-35d0-4255-bcba-622b1c823d8c"},"vehicle_type_id":"4","last_reported":1744726222,"current_range_meters":20400,"station_id":"ce4bht12rcd13ifvqi60","pricing_plan_id":"cebpf4jnsgd1na2vs0mg"},{"bike_id":"7ffb8c8f-f10d-43b2-90e4-4b09ce4cb348","system_id":"levelo_inurba_marseille","lat":43.28404,"lon":5.37519,"is_reserved":false,"is_disabled":false,"rental_uris":{"android":"levelo://app?vid=7ffb8c8f-f10d-43b2-90e4-4b09ce4cb348","ios":"levelo://app?vid=7ffb8c8f-f10d-43b2-90e4-4b09ce4cb348"},"vehicle_type_id":"4","last_reported":1744726222,"current_range_meters":20400,"station_id":"ce4bh412rcd13ifvqds0","pricing_plan_id":"cebpf4jnsgd1na2vs0mg"},{"bike_id":"11267844-79e4-4e74-ad18-2e49bfb13529","system_id":"levelo_inurba_marseille","lat":43.30382,"lon":5.42465,"is_reserved":false,"is_disabled":false,"rental_uris":{"android":"levelo://app?vid=11267844-79e4-4e74-ad18-2e49bfb13529","ios":"levelo://app?vid=11267844-79e4-4e74-ad18-2e49bfb13529"},"vehicle_type_id":"4","last_reported":1744726222,"current_range_meters":20400,"station_id":"ce4bhoh2rcd13ifvqh6g","pricing_plan_id":"cebpf4jnsgd1na2vs0mg"},{"bike_id":"174c2c9b-2f0a-47fb-998b-9f7260f2f135","system_id":"levelo_inurba_marseille","lat":43.30733,"lon":5.42442,"is_reserved":false,"is_disabled":false,"rental_uris":{"android":"levelo://app?vid=174c2c9b-2f0a-47fb-998b-9f7260f2f135","ios":"levelo://app?vid=174c2c9b-2f0a-47fb-998b-9f7260f2f135"},"vehicle_type_id":"4","last_reported":1744726222,"current_range_meters":20800,"station_id":"st_cvj6ca6bvosntc0bfgr0","pricing_plan_id":"cebpf4jnsgd1na2vs0mg"},{"bike_id":"ed97a721-7aee-47b1-b49b-a65ade99fd09","system_id":"levelo_inurba_marseille","lat":43.34331,"lon":5.37798,"is_reserved":false,"is_disabled":false,"rental_uris":{"android":"levelo://app?vid=ed97a721-7aee-47b1-b49b-a65ade99fd09","ios":"levelo://app?vid=ed97a721-7aee-47b1-b49b-a65ade99fd09"},"vehicle_type_id":"4","last_reported":1744726222,"current_range_meters":20800,"station_id":"","pricing_plan_id":"cebpf4jnsgd1na2vs0mg"},{"bike_id":"3cd633cb-d039-4739-9ac2-7db2980e3f3a","system_id":"levelo_inurba_marseille","lat":43.283961,"lon":5.373992,"is_reserved":false,"is_disabled":false,"rental_uris":{"android":"levelo://app?vid=3cd633cb-d039-4739-9ac2-7db2980e3f3a","ios":"levelo://app?vid=3cd633cb-d039-4739-9ac2-7db2980e3f3a"},"vehicle_type_id":"4","last_reported":1744726222,"current_range_meters":20800,"station_id":"ce4bhbp2rcd13ifvqerg","pricing_plan_id":"cebpf4jnsgd1na2vs0mg"},{"bike_id":"f00591b2-1d64-4246-81cc-d5ae6b0f8b4b","system_id":"levelo_inurba_marseille","lat":43.288586,"lon":5.393168,"is_reserved":false,"is_disabled":false,"rental_uris":{"android":"levelo://app?vid=f00591b2-1d64-4246-81cc-d5ae6b0f8b4b","ios":"levelo://app?vid=f00591b2-1d64-4246-81cc-d5ae6b0f8b4b"},"vehicle_type_id":"4","last_reported":1744726222,"current_range_meters":20800,"station_id":"ce4bh2p2rcd13ifvqdi0","pricing_plan_id":"cebpf4jnsgd1na2vs0mg"},{"bike_id":"9cca9620-0b82-430a-9460-82e12e54d9d7","system_id":"levelo_inurba_marseille","lat":43.26809,"lon":5.40267,"is_reserved":false,"is_disabled":false,"rental_uris":{"android":"levelo://app?vid=9cca9620-0b82-430a-9460-82e12e54d9d7","ios":"levelo://app?vid=9cca9620-0b82-430a-9460-82e12e54d9d7"},"vehicle_type_id":"4","last_reported":1744726222,"current_range_meters":20800,"station_id":"ce501612rcd8frsf0b60","pricing_plan_id":"cebpf4jnsgd1na2vs0mg"},{"bike_id":"f94d8e17-2fa6-4719-b087-be886f9a69c5","system_id":"levelo_inurba_marseille","lat":43.25511,"lon":5.37651,"is_reserved":false,"is_disabled":false,"rental_uris":{"android":"levelo://app?vid=f94d8e17-2fa6-4719-b087-be886f9a69c5","ios":"levelo://app?vid=f94d8e17-2fa6-4719-b087-be886f9a69c5"},"vehicle_type_id":"4","last_reported":1744726222,"current_range_meters":20800,"station_id":"ce4bhh12rcd13ifvqff0","pricing_plan_id":"cebpf4jnsgd1na2vs0mg"},{"bike_id":"de77ef2d-2ece-4dae-9824-c9781f28a08b","system_id":"levelo_inurba_marseille","lat":43.30435,"lon":5.38891,"is_reserved":false,"is_disabled":false,"rental_uris":{"android":"levelo://app?vid=de77ef2d-2ece-4dae-9824-c9781f28a08b","ios":"levelo://app?vid=de77ef2d-2ece-4dae-9824-c9781f28a08b"},"vehicle_type_id":"4","last_reported":1744726222,"current_range_meters":22000,"station_id":"ce4bgk12rcd13ifvqbi0","pricing_plan_id":"cebpf4jnsgd1na2vs0mg"},{"bike_id":"d02d3352-895e-4337-8db0-715ce08b4bba","system_id":"levelo_inurba_marseille","lat":43.28402,"lon":5.37526,"is_reserved":false,"is_disabled":false,"rental_uris":{"android":"levelo://app?vid=d02d3352-895e-4337-8db0-715ce08b4bba","ios":"levelo://app?vid=d02d3352-895e-4337-8db0-715ce08b4bba"},"vehicle_type_id":"4","last_reported":1744726222,"current_range_meters":20400,"station_id":"ce4bh412rcd13ifvqds0","pricing_plan_id":"cebpf4jnsgd1na2vs0mg"},{"bike_id":"b082caf9-1aa9-41e8-8081-4da72e64e8e4","system_id":"levelo_inurba_marseille","lat":43.30913,"lon":5.40127,"is_reserved":false,"is_disabled":true,"rental_uris":{"android":"levelo://app?vid=b082caf9-1aa9-41e8-8081-4da72e64e8e4","ios":"levelo://app?vid=b082caf9-1aa9-41e8-8081-4da72e64e8e4"},"vehicle_type_id":"4","last_reported":1744726222,"current_range_meters":20800,"station_id":"ce4bgvp2rcd13ifvqct0","pricing_plan_id":"cebpf4jnsgd1na2vs0mg"},{"bike_id":"d0f23d97-0fa2-4474-bab4-0eb5b1a1a252","system_id":"levelo_inurba_marseille","lat":43.25825,"lon":5.39432,"is_reserved":false,"is_disabled":false,"rental_uris":{"android":"levelo://app?vid=d0f23d97-0fa2-4474-bab4-0eb5b1a1a252","ios":"levelo://app?vid=d0f23d97-0fa2-4474-bab4-0eb5b1a1a252"},"vehicle_type_id":"4","last_reported":1744726222,"current_range_meters":20800,"station_id":"ce4bhip2rcd13ifvqft0","pricing_plan_id":"cebpf4jnsgd1na2vs0mg"},{"bike_id":"310292d5-bdeb-40f7-a94f-9d2b542d5222","system_id":"levelo_inurba_marseille","lat":43.24165,"lon":5.36388,"is_reserved":false,"is_disabled":false,"rental_uris":{"android":"levelo://app?vid=310292d5-bdeb-40f7-a94f-9d2b542d5222","ios":"levelo://app?vid=310292d5-bdeb-40f7-a94f-9d2b542d5222"},"vehicle_type_id":"4","last_reported":1744726222,"current_range_meters":21600,"station_id":"cpo36qri1sfpv3e86is0","pricing_plan_id":"cebpf4jnsgd1na2vs0mg"},{"bike_id":"6c103f9f-c959-46ad-a2e8-e44f9660c68e","system_id":"levelo_inurba_marseille","lat":43.21193,"lon":5.35079,"is_reserved":false,"is_disabled":false,"rental_uris":{"android":"levelo://app?vid=6c103f9f-c959-46ad-a2e8-e44f9660c68e","ios":"levelo://app?vid=6c103f9f-c959-46ad-a2e8-e44f9660c68e"},"vehicle_type_id":"4","last_reported":1744726222,"current_range_meters":21600,"station_id":"st_cvj6sg6p6f1abm77japg","pricing_plan_id":"cebpf4jnsgd1na2vs0mg"},{"bike_id":"60ec4175-4537-435a-95f9-8e40681109c0","system_id":"levelo_inurba_marseille","lat":43.31395,"lon":5.36735,"is_reserved":false,"is_disabled":false,"rental_uris":{"android":"levelo://app?vid=60ec4175-4537-435a-95f9-8e40681109c0","ios":"levelo://app?vid=60ec4175-4537-435a-95f9-8e40681109c0"},"vehicle_type_id":"4","last_reported":1744726222,"current_range_meters":21600,"station_id":"","pricing_plan_id":"cebpf4jnsgd1na2vs0mg"},{"bike_id":"d34e0be8-694c-4168-9eb6-694da93ccf74","system_id":"levelo_inurba_marseille","lat":43.2656,"lon":5.3729,"is_reserved":false,"is_disabled":false,"rental_uris":{"android":"levelo://app?vid=d34e0be8-694c-4168-9eb6-694da93ccf74","ios":"levelo://app?vid=d34e0be8-694c-4168-9eb6-694da93ccf74"},"vehicle_type_id":"4","last_reported":1744726222,"current_range_meters":21600,"station_id":"ce4bhg12rcd13ifvqf70","pricing_plan_id":"cebpf4jnsgd1na2vs0mg"},{"bike_id":"a241f167-c5de-4383-aba1-5f617da53177","system_id":"levelo_inurba_marseille","lat":43.29718,"lon":5.3769,"is_reserved":false,"is_disabled":false,"rental_uris":{"android":"levelo://app?vid=a241f167-c5de-4383-aba1-5f617da53177","ios":"levelo://app?vid=a241f167-c5de-4383-aba1-5f617da53177"},"vehicle_type_id":"4","last_reported":1744726222,"current_range_meters":22000,"station_id":"ce4bgkh2rcd13ifvqbl0","pricing_plan_id":"cebpf4jnsgd1na2vs0mg"},{"bike_id":"f2124d07-471d-44b6-8e3c-81f3e4063b05","system_id":"levelo_inurba_marseille","lat":43.29875,"lon":5.39726,"is_reserved":false,"is_disabled":false,"rental_uris":{"android":"levelo://app?vid=f2124d07-471d-44b6-8e3c-81f3e4063b05","ios":"levelo://app?vid=f2124d07-471d-44b6-8e3c-81f3e4063b05"},"vehicle_type_id":"4","last_reported":1744726222,"current_range_meters":20800,"station_id":"ce4bh0h2rcd13ifvqd50","pricing_plan_id":"cebpf4jnsgd1na2vs0mg"},{"bike_id":"31924449-8854-4a95-9e3e-929afdb071d2","system_id":"levelo_inurba_marseille","lat":43.29733,"lon":5.37694,"is_reserved":false,"is_disabled":false,"rental_uris":{"android":"levelo://app?vid=31924449-8854-4a95-9e3e-929afdb071d2","ios":"levelo://app?vid=31924449-8854-4a95-9e3e-929afdb071d2"},"vehicle_type_id":"4","last_reported":1744726222,"current_range_meters":21600,"station_id":"ce4bgkh2rcd13ifvqbl0","pricing_plan_id":"cebpf4jnsgd1na2vs0mg"},{"bike_id":"20ac4c4e-9240-4d2f-afa9-fdacb295cbdf","system_id":"levelo_inurba_marseille","lat":43.279121,"lon":5.39587,"is_reserved":false,"is_disabled":false,"rental_uris":{"android":"levelo://app?vid=20ac4c4e-9240-4d2f-afa9-fdacb295cbdf","ios":"levelo://app?vid=20ac4c4e-9240-4d2f-afa9-fdacb295cbdf"},"vehicle_type_id":"4","last_reported":1744726222,"current_range_meters":21600,"station_id":"ce4bhf92rcd13ifvqf40","pricing_plan_id":"cebpf4jnsgd1na2vs0mg"},{"bike_id":"d6fee597-3293-47ae-914e-c48760e9f772","system_id":"levelo_inurba_marseille","lat":43.24073,"lon":5.37771,"is_reserved":false,"is_disabled":false,"rental_uris":{"android":"levelo://app?vid=d6fee597-3293-47ae-914e-c48760e9f772","ios":"levelo://app?vid=d6fee597-3293-47ae-914e-c48760e9f772"},"vehicle_type_id":"4","last_reported":1744726222,"current_range_meters":21600,"station_id":"ce4bhnp2rcd13ifvqgvg","pricing_plan_id":"cebpf4jnsgd1na2vs0mg"},{"bike_id":"857293f1-5378-4a00-bb4d-21869d33d155","system_id":"levelo_inurba_marseille","lat":43.27925,"lon":5.39581,"is_reserved":false,"is_disabled":false,"rental_uris":{"android":"levelo://app?vid=857293f1-5378-4a00-bb4d-21869d33d155","ios":"levelo://app?vid=857293f1-5378-4a00-bb4d-21869d33d155"},"vehicle_type_id":"4","last_reported":1744726222,"current_range_meters":22000,"station_id":"ce4bhf92rcd13ifvqf40","pricing_plan_id":"cebpf4jnsgd1na2vs0mg"},{"bike_id":"e73c2cc4-f420-4d4a-b6ef-b93ae2e41806","system_id":"levelo_inurba_marseille","lat":43.28353,"lon":5.38091,"is_reserved":false,"is_disabled":false,"rental_uris":{"android":"levelo://app?vid=e73c2cc4-f420-4d4a-b6ef-b93ae2e41806","ios":"levelo://app?vid=e73c2cc4-f420-4d4a-b6ef-b93ae2e41806"},"vehicle_type_id":"4","last_reported":1744726222,"current_range_meters":21600,"station_id":"ce4bh412rcd13ifvqdr0","pricing_plan_id":"cebpf4jnsgd1na2vs0mg"},{"bike_id":"08d711f5-58e6-48e8-8024-2462fdd40191","system_id":"levelo_inurba_marseille","lat":43.308629,"lon":5.38096,"is_reserved":false,"is_disabled":false,"rental_uris":{"android":"levelo://app?vid=08d711f5-58e6-48e8-8024-2462fdd40191","ios":"levelo://app?vid=08d711f5-58e6-48e8-8024-2462fdd40191"},"vehicle_type_id":"4","last_reported":1744726222,"current_range_meters":22000,"station_id":"ce4bgt12rcd13ifvqce0","pricing_plan_id":"cebpf4jnsgd1na2vs0mg"},{"bike_id":"4d331a86-a3cb-4d7d-a2e2-e0d35e11dfb8","system_id":"levelo_inurba_marseille","lat":43.31236,"lon":5.36869,"is_reserved":false,"is_disabled":false,"rental_uris":{"android":"levelo://app?vid=4d331a86-a3cb-4d7d-a2e2-e0d35e11dfb8","ios":"levelo://app?vid=4d331a86-a3cb-4d7d-a2e2-e0d35e11dfb8"},"vehicle_type_id":"4","last_reported":1744726222,"current_range_meters":22000,"station_id":"ce4bgl92rcd13ifvqbq0","pricing_plan_id":"cebpf4jnsgd1na2vs0mg"},{"bike_id":"a3e07a18-2f4d-45f4-a31e-a3fe8e7c50ab","system_id":"levelo_inurba_marseille","lat":43.29193,"lon":5.35803,"is_reserved":false,"is_disabled":false,"rental_uris":{"android":"levelo://app?vid=a3e07a18-2f4d-45f4-a31e-a3fe8e7c50ab","ios":"levelo://app?vid=a3e07a18-2f4d-45f4-a31e-a3fe8e7c50ab"},"vehicle_type_id":"4","last_reported":1744726222,"current_range_meters":22000,"station_id":"ce4bhb12rcd13ifvqel0","pricing_plan_id":"cebpf4jnsgd1na2vs0mg"},{"bike_id":"f16ad4c6-3bd0-4514-a01a-1712d3dbca00","system_id":"levelo_inurba_marseille","lat":43.317089,"lon":5.377439,"is_reserved":false,"is_disabled":false,"rental_uris":{"android":"levelo://app?vid=f16ad4c6-3bd0-4514-a01a-1712d3dbca00","ios":"levelo://app?vid=f16ad4c6-3bd0-4514-a01a-1712d3dbca00"},"vehicle_type_id":"4","last_reported":1744726222,"current_range_meters":22000,"station_id":"ce4bgv12rcd13ifvqcp0","pricing_plan_id":"cebpf4jnsgd1na2vs0mg"},{"bike_id":"6a8e9068-2a8d-4c93-8c2d-e30f03079545","system_id":"levelo_inurba_marseille","lat":43.25723,"lon":5.411183,"is_reserved":false,"is_disabled":true,"rental_uris":{"android":"levelo://app?vid=6a8e9068-2a8d-4c93-8c2d-e30f03079545","ios":"levelo://app?vid=6a8e9068-2a8d-4c93-8c2d-e30f03079545"},"vehicle_type_id":"4","last_reported":1744726222,"current_range_meters":22000,"station_id":"ce4bhkp2rcd13ifvqgd0","pricing_plan_id":"cebpf4jnsgd1na2vs0mg"},{"bike_id":"5d4d15b7-d24b-4037-abe6-7ed6129995bc","system_id":"levelo_inurba_marseille","lat":43.260203,"lon":5.386086,"is_reserved":false,"is_disabled":false,"rental_uris":{"android":"levelo://app?vid=5d4d15b7-d24b-4037-abe6-7ed6129995bc","ios":"levelo://app?vid=5d4d15b7-d24b-4037-abe6-7ed6129995bc"},"vehicle_type_id":"4","last_reported":1744726222,"current_range_meters":22000,"station_id":"ce4bhhh2rcd13ifvqfk0","pricing_plan_id":"cebpf4jnsgd1na2vs0mg"},{"bike_id":"ab863a17-a8a2-4073-b516-607cb08fc41a","system_id":"levelo_inurba_marseille","lat":43.27491,"lon":5.42449,"is_reserved":false,"is_disabled":false,"rental_uris":{"android":"levelo://app?vid=ab863a17-a8a2-4073-b516-607cb08fc41a","ios":"levelo://app?vid=ab863a17-a8a2-4073-b516-607cb08fc41a"},"vehicle_type_id":"4","last_reported":1744726222,"current_range_meters":22400,"station_id":"ce4bhn92rcd13ifvqgrg","pricing_plan_id":"cebpf4jnsgd1na2vs0mg"},{"bike_id":"f3a17301-f4cd-4211-8c74-a7b1a492d742","system_id":"levelo_inurba_marseille","lat":43.28077,"lon":5.40776,"is_reserved":false,"is_disabled":false,"rental_uris":{"android":"levelo://app?vid=f3a17301-f4cd-4211-8c74-a7b1a492d742","ios":"levelo://app?vid=f3a17301-f4cd-4211-8c74-a7b1a492d742"},"vehicle_type_id":"4","last_reported":1744726222,"current_range_meters":22400,"station_id":"","pricing_plan_id":"cebpf4jnsgd1na2vs0mg"},{"bike_id":"76312aeb-9742-40af-874a-a7ba383d64c5","system_id":"levelo_inurba_marseille","lat":43.28936,"lon":5.36643,"is_reserved":false,"is_disabled":false,"rental_uris":{"android":"levelo://app?vid=76312aeb-9742-40af-874a-a7ba383d64c5","ios":"levelo://app?vid=76312aeb-9742-40af-874a-a7ba383d64c5"},"vehicle_type_id":"4","last_reported":1744726222,"current_range_meters":22000,"station_id":"ce4bhap2rcd13ifvqek0","pricing_plan_id":"cebpf4jnsgd1na2vs0mg"},{"bike_id":"6c5fb237-f11f-4e0c-83e5-87f5b366cd11","system_id":"levelo_inurba_marseille","lat":43.28617,"lon":5.35103,"is_reserved":false,"is_disabled":false,"rental_uris":{"android":"levelo://app?vid=6c5fb237-f11f-4e0c-83e5-87f5b366cd11","ios":"levelo://app?vid=6c5fb237-f11f-4e0c-83e5-87f5b366cd11"},"vehicle_type_id":"4","last_reported":1744726222,"current_range_meters":22400,"station_id":"ce4bhch2rcd13ifvqeug","pricing_plan_id":"cebpf4jnsgd1na2vs0mg"},{"bike_id":"bf5b1fd2-4b80-40f8-91bb-bbff3b3627cb","system_id":"levelo_inurba_marseille","lat":43.2737,"lon":5.36276,"is_reserved":false,"is_disabled":false,"rental_uris":{"android":"levelo://app?vid=bf5b1fd2-4b80-40f8-91bb-bbff3b3627cb","ios":"levelo://app?vid=bf5b1fd2-4b80-40f8-91bb-bbff3b3627cb"},"vehicle_type_id":"4","last_reported":1744726222,"current_range_meters":22400,"station_id":"ce4bhbh2rcd13ifvqeo0","pricing_plan_id":"cebpf4jnsgd1na2vs0mg"},{"bike_id":"16dc5d57-99ec-4245-a48c-a91373eb6275","system_id":"levelo_inurba_marseille","lat":43.25502,"lon":5.37649,"is_reserved":false,"is_disabled":false,"rental_uris":{"android":"levelo://app?vid=16dc5d57-99ec-4245-a48c-a91373eb6275","ios":"levelo://app?vid=16dc5d57-99ec-4245-a48c-a91373eb6275"},"vehicle_type_id":"4","last_reported":1744726222,"current_range_meters":22000,"station_id":"ce4bhh12rcd13ifvqff0","pricing_plan_id":"cebpf4jnsgd1na2vs0mg"},{"bike_id":"070f128a-7ef8-454f-a631-653ba431b322","system_id":"levelo_inurba_marseille","lat":43.2962,"lon":5.37166,"is_reserved":false,"is_disabled":false,"rental_uris":{"android":"levelo://app?vid=070f128a-7ef8-454f-a631-653ba431b322","ios":"levelo://app?vid=070f128a-7ef8-454f-a631-653ba431b322"},"vehicle_type_id":"4","last_reported":1744726222,"current_range_meters":22400,"station_id":"ce4bgnh2rcd13ifvqc0g","pricing_plan_id":"cebpf4jnsgd1na2vs0mg"},{"bike_id":"60f7759a-240f-4d14-b567-e5c5e627ef0f","system_id":"levelo_inurba_marseille","lat":43.29059,"lon":5.35921,"is_reserved":false,"is_disabled":false,"rental_uris":{"android":"levelo://app?vid=60f7759a-240f-4d14-b567-e5c5e627ef0f","ios":"levelo://app?vid=60f7759a-240f-4d14-b567-e5c5e627ef0f"},"vehicle_type_id":"4","last_reported":1744726222,"current_range_meters":22400,"station_id":"ce4bha92rcd13ifvqeg0","pricing_plan_id":"cebpf4jnsgd1na2vs0mg"},{"bike_id":"719423d1-fd4b-4cdc-81b8-d94dbe538b21","system_id":"levelo_inurba_marseille","lat":43.262167,"lon":5.374471,"is_reserved":false,"is_disabled":false,"rental_uris":{"android":"levelo://app?vid=719423d1-fd4b-4cdc-81b8-d94dbe538b21","ios":"levelo://app?vid=719423d1-fd4b-4cdc-81b8-d94dbe538b21"},"vehicle_type_id":"4","last_reported":1744726222,"current_range_meters":22400,"station_id":"ce4bhgp2rcd13ifvqfc0","pricing_plan_id":"cebpf4jnsgd1na2vs0mg"},{"bike_id":"c7c34687-8f4f-4e1e-a103-d2d5cfee3efb","system_id":"levelo_inurba_marseille","lat":43.30212,"lon":5.39464,"is_reserved":false,"is_disabled":false,"rental_uris":{"android":"levelo://app?vid=c7c34687-8f4f-4e1e-a103-d2d5cfee3efb","ios":"levelo://app?vid=c7c34687-8f4f-4e1e-a103-d2d5cfee3efb"},"vehicle_type_id":"4","last_reported":1744726222,"current_range_meters":22400,"station_id":"ce4bh0p2rcd13ifvqd70","pricing_plan_id":"cebpf4jnsgd1na2vs0mg"},{"bike_id":"c14c45c9-5665-4e5b-aac0-6c779c56dc2c","system_id":"levelo_inurba_marseille","lat":43.2957,"lon":5.37517,"is_reserved":false,"is_disabled":false,"rental_uris":{"android":"levelo://app?vid=c14c45c9-5665-4e5b-aac0-6c779c56dc2c","ios":"levelo://app?vid=c14c45c9-5665-4e5b-aac0-6c779c56dc2c"},"vehicle_type_id":"4","last_reported":1744726222,"current_range_meters":22800,"station_id":"ce4bgh92rcd13ifvqb50","pricing_plan_id":"cebpf4jnsgd1na2vs0mg"},{"bike_id":"a89bbc67-8fa1-4fce-bf24-c80e75a41d75","system_id":"levelo_inurba_marseille","lat":43.29573,"lon":5.37526,"is_reserved":false,"is_disabled":false,"rental_uris":{"android":"levelo://app?vid=a89bbc67-8fa1-4fce-bf24-c80e75a41d75","ios":"levelo://app?vid=a89bbc67-8fa1-4fce-bf24-c80e75a41d75"},"vehicle_type_id":"4","last_reported":1744726222,"current_range_meters":22800,"station_id":"ce4bgh92rcd13ifvqb50","pricing_plan_id":"cebpf4jnsgd1na2vs0mg"},{"bike_id":"99e037fb-f8c3-42be-9259-35a03222be60","system_id":"levelo_inurba_marseille","lat":43.30374,"lon":5.42479,"is_reserved":false,"is_disabled":false,"rental_uris":{"android":"levelo://app?vid=99e037fb-f8c3-42be-9259-35a03222be60","ios":"levelo://app?vid=99e037fb-f8c3-42be-9259-35a03222be60"},"vehicle_type_id":"4","last_reported":1744726222,"current_range_meters":22800,"station_id":"ce4bhoh2rcd13ifvqh6g","pricing_plan_id":"cebpf4jnsgd1na2vs0mg"},{"bike_id":"f85ddc3c-5ccd-4232-bf64-6e945cd829a3","system_id":"levelo_inurba_marseille","lat":43.24149,"lon":5.39726,"is_reserved":false,"is_disabled":false,"rental_uris":{"android":"levelo://app?vid=f85ddc3c-5ccd-4232-bf64-6e945cd829a3","ios":"levelo://app?vid=f85ddc3c-5ccd-4232-bf64-6e945cd829a3"},"vehicle_type_id":"4","last_reported":1744726222,"current_range_meters":22800,"station_id":"ce4bhn12rcd13ifvqgpg","pricing_plan_id":"cebpf4jnsgd1na2vs0mg"},{"bike_id":"08db0e86-acfa-4ef1-a304-3733c241898c","system_id":"levelo_inurba_marseille","lat":43.31081,"lon":5.42427,"is_reserved":false,"is_disabled":false,"rental_uris":{"android":"levelo://app?vid=08db0e86-acfa-4ef1-a304-3733c241898c","ios":"levelo://app?vid=08db0e86-acfa-4ef1-a304-3733c241898c"},"vehicle_type_id":"4","last_reported":1744726222,"current_range_meters":22800,"station_id":"ce4bhp92rcd13ifvqhag","pricing_plan_id":"cebpf4jnsgd1na2vs0mg"},{"bike_id":"dd2fbc22-3df4-4720-a708-dd6f46ba7212","system_id":"levelo_inurba_marseille","lat":43.212044,"lon":5.350641,"is_reserved":false,"is_disabled":false,"rental_uris":{"android":"levelo://app?vid=dd2fbc22-3df4-4720-a708-dd6f46ba7212","ios":"levelo://app?vid=dd2fbc22-3df4-4720-a708-dd6f46ba7212"},"vehicle_type_id":"4","last_reported":1744726222,"current_range_meters":22800,"station_id":"st_cvj6sg6p6f1abm77japg","pricing_plan_id":"cebpf4jnsgd1na2vs0mg"},{"bike_id":"617546f6-6ff5-4332-ae5e-08ec8ee56757","system_id":"levelo_inurba_marseille","lat":43.29531,"lon":5.38542,"is_reserved":false,"is_disabled":false,"rental_uris":{"android":"levelo://app?vid=617546f6-6ff5-4332-ae5e-08ec8ee56757","ios":"levelo://app?vid=617546f6-6ff5-4332-ae5e-08ec8ee56757"},"vehicle_type_id":"4","last_reported":1744726222,"current_range_meters":22800,"station_id":"ce4bgih2rcd13ifvqba0","pricing_plan_id":"cebpf4jnsgd1na2vs0mg"},{"bike_id":"1099884d-e48d-4eb9-b61a-45949004b5cb","system_id":"levelo_inurba_marseille","lat":43.23969,"lon":5.36634,"is_reserved":false,"is_disabled":false,"rental_uris":{"android":"levelo://app?vid=1099884d-e48d-4eb9-b61a-45949004b5cb","ios":"levelo://app?vid=1099884d-e48d-4eb9-b61a-45949004b5cb"},"vehicle_type_id":"4","last_reported":1744726222,"current_range_meters":22400,"station_id":"ce4bhi12rcd13ifvqfp0","pricing_plan_id":"cebpf4jnsgd1na2vs0mg"},{"bike_id":"544ae723-0e4b-4d83-9c78-97e0df062496","system_id":"levelo_inurba_marseille","lat":43.285715,"lon":5.353232,"is_reserved":false,"is_disabled":false,"rental_uris":{"android":"levelo://app?vid=544ae723-0e4b-4d83-9c78-97e0df062496","ios":"levelo://app?vid=544ae723-0e4b-4d83-9c78-97e0df062496"},"vehicle_type_id":"4","last_reported":1744726222,"current_range_meters":23200,"station_id":"ce4bhch2rcd13ifvqeug","pricing_plan_id":"cebpf4jnsgd1na2vs0mg"},{"bike_id":"113813ce-15c7-4eb4-bc8c-a83f979fccc0","system_id":"levelo_inurba_marseille","lat":43.21754,"lon":5.34598,"is_reserved":false,"is_disabled":false,"rental_uris":{"android":"levelo://app?vid=113813ce-15c7-4eb4-bc8c-a83f979fccc0","ios":"levelo://app?vid=113813ce-15c7-4eb4-bc8c-a83f979fccc0"},"vehicle_type_id":"4","last_reported":1744726222,"current_range_meters":23200,"station_id":"st_cvj6r9ubvosntc0bgbag","pricing_plan_id":"cebpf4jnsgd1na2vs0mg"},{"bike_id":"96dddab1-f56f-4f24-b854-9be7734ed805","system_id":"levelo_inurba_marseille","lat":43.32057,"lon":5.41568,"is_reserved":false,"is_disabled":false,"rental_uris":{"android":"levelo://app?vid=96dddab1-f56f-4f24-b854-9be7734ed805","ios":"levelo://app?vid=96dddab1-f56f-4f24-b854-9be7734ed805"},"vehicle_type_id":"4","last_reported":1744726222,"current_range_meters":23200,"station_id":"ce4bhq92rcd13ifvqhkg","pricing_plan_id":"cebpf4jnsgd1na2vs0mg"},{"bike_id":"8767a4e6-1c55-4bf9-a203-cae856ae349c","system_id":"levelo_inurba_marseille","lat":43.28719,"lon":5.36084,"is_reserved":false,"is_disabled":false,"rental_uris":{"android":"levelo://app?vid=8767a4e6-1c55-4bf9-a203-cae856ae349c","ios":"levelo://app?vid=8767a4e6-1c55-4bf9-a203-cae856ae349c"},"vehicle_type_id":"4","last_reported":1744726222,"current_range_meters":23200,"station_id":"cki0cbj6b192h4jlfktg","pricing_plan_id":"cebpf4jnsgd1na2vs0mg"},{"bike_id":"3f8843a7-e0f0-4bfb-be0d-1d39ca437499","system_id":"levelo_inurba_marseille","lat":43.29854,"lon":5.36281,"is_reserved":false,"is_disabled":false,"rental_uris":{"android":"levelo://app?vid=3f8843a7-e0f0-4bfb-be0d-1d39ca437499","ios":"levelo://app?vid=3f8843a7-e0f0-4bfb-be0d-1d39ca437499"},"vehicle_type_id":"4","last_reported":1744726222,"current_range_meters":23200,"station_id":"ce4bgpp2rcd13ifvqc3g","pricing_plan_id":"cebpf4jnsgd1na2vs0mg"},{"bike_id":"aa01704d-b3a0-4cd4-bf34-92a0580d1078","system_id":"levelo_inurba_marseille","lat":43.29533,"lon":5.39401,"is_reserved":false,"is_disabled":false,"rental_uris":{"android":"levelo://app?vid=aa01704d-b3a0-4cd4-bf34-92a0580d1078","ios":"levelo://app?vid=aa01704d-b3a0-4cd4-bf34-92a0580d1078"},"vehicle_type_id":"4","last_reported":1744726222,"current_range_meters":23200,"station_id":"ce4bh292rcd13ifvqdf0","pricing_plan_id":"cebpf4jnsgd1na2vs0mg"},{"bike_id":"0114a28a-dc77-4577-b3e2-fb29f31994ae","system_id":"levelo_inurba_marseille","lat":43.29855,"lon":5.36293,"is_reserved":false,"is_disabled":false,"rental_uris":{"android":"levelo://app?vid=0114a28a-dc77-4577-b3e2-fb29f31994ae","ios":"levelo://app?vid=0114a28a-dc77-4577-b3e2-fb29f31994ae"},"vehicle_type_id":"4","last_reported":1744726222,"current_range_meters":23200,"station_id":"ce4bgpp2rcd13ifvqc3g","pricing_plan_id":"cebpf4jnsgd1na2vs0mg"},{"bike_id":"ed277671-5069-41be-a386-38170335cdc8","system_id":"levelo_inurba_marseille","lat":43.31356,"lon":5.36715,"is_reserved":false,"is_disabled":false,"rental_uris":{"android":"levelo://app?vid=ed277671-5069-41be-a386-38170335cdc8","ios":"levelo://app?vid=ed277671-5069-41be-a386-38170335cdc8"},"vehicle_type_id":"4","last_reported":1744726222,"current_range_meters":24000,"station_id":"ce4bgr92rcd13ifvqc6g","pricing_plan_id":"cebpf4jnsgd1na2vs0mg"},{"bike_id":"2d03e3c2-09e4-4978-8dbc-31228f7e9fd5","system_id":"levelo_inurba_marseille","lat":43.25587,"lon":5.38219,"is_reserved":false,"is_disabled":false,"rental_uris":{"android":"levelo://app?vid=2d03e3c2-09e4-4978-8dbc-31228f7e9fd5","ios":"levelo://app?vid=2d03e3c2-09e4-4978-8dbc-31228f7e9fd5"},"vehicle_type_id":"4","last_reported":1744726222,"current_range_meters":24000,"station_id":"ce4bhih2rcd13ifvqfs0","pricing_plan_id":"cebpf4jnsgd1na2vs0mg"},{"bike_id":"359fdaa0-bf9c-4933-9100-7a68179b70ef","system_id":"levelo_inurba_marseille","lat":43.24179,"lon":5.39732,"is_reserved":false,"is_disabled":false,"rental_uris":{"android":"levelo://app?vid=359fdaa0-bf9c-4933-9100-7a68179b70ef","ios":"levelo://app?vid=359fdaa0-bf9c-4933-9100-7a68179b70ef"},"vehicle_type_id":"4","last_reported":1744726222,"current_range_meters":24000,"station_id":"ce4bhn12rcd13ifvqgpg","pricing_plan_id":"cebpf4jnsgd1na2vs0mg"},{"bike_id":"76b4064c-3a17-43e0-96bb-05aa942e255d","system_id":"levelo_inurba_marseille","lat":43.30132,"lon":5.38783,"is_reserved":false,"is_disabled":true,"rental_uris":{"android":"levelo://app?vid=76b4064c-3a17-43e0-96bb-05aa942e255d","ios":"levelo://app?vid=76b4064c-3a17-43e0-96bb-05aa942e255d"},"vehicle_type_id":"4","last_reported":1744726222,"current_range_meters":24000,"station_id":"ce4bghh2rcd13ifvqb60","pricing_plan_id":"cebpf4jnsgd1na2vs0mg"},{"bike_id":"f4f2a3c2-2e88-42f2-a842-4b821963dedc","system_id":"levelo_inurba_marseille","lat":43.22936,"lon":5.35379,"is_reserved":false,"is_disabled":false,"rental_uris":{"android":"levelo://app?vid=f4f2a3c2-2e88-42f2-a842-4b821963dedc","ios":"levelo://app?vid=f4f2a3c2-2e88-42f2-a842-4b821963dedc"},"vehicle_type_id":"4","last_reported":1744726222,"current_range_meters":24000,"station_id":"cpo3532slgdg3j2ikp40","pricing_plan_id":"cebpf4jnsgd1na2vs0mg"},{"bike_id":"028758e1-5fef-43f9-926b-efbccee4a48d","system_id":"levelo_inurba_marseille","lat":43.273835,"lon":5.390477,"is_reserved":false,"is_disabled":false,"rental_uris":{"android":"levelo://app?vid=028758e1-5fef-43f9-926b-efbccee4a48d","ios":"levelo://app?vid=028758e1-5fef-43f9-926b-efbccee4a48d"},"vehicle_type_id":"4","last_reported":1744726222,"current_range_meters":24000,"station_id":"ce4bhdp2rcd13ifvqf20","pricing_plan_id":"cebpf4jnsgd1na2vs0mg"},{"bike_id":"7dd5be5d-77b7-4b8d-950c-57ce96b09d37","system_id":"levelo_inurba_marseille","lat":43.29188,"lon":5.39308,"is_reserved":false,"is_disabled":false,"rental_uris":{"android":"levelo://app?vid=7dd5be5d-77b7-4b8d-950c-57ce96b09d37","ios":"levelo://app?vid=7dd5be5d-77b7-4b8d-950c-57ce96b09d37"},"vehicle_type_id":"4","last_reported":1744726222,"current_range_meters":24000,"station_id":"ce4bh192rcd13ifvqdd0","pricing_plan_id":"cebpf4jnsgd1na2vs0mg"},{"bike_id":"6ba75421-2540-4e6c-a03a-7cf0990137a4","system_id":"levelo_inurba_marseille","lat":43.24153,"lon":5.39732,"is_reserved":false,"is_disabled":false,"rental_uris":{"android":"levelo://app?vid=6ba75421-2540-4e6c-a03a-7cf0990137a4","ios":"levelo://app?vid=6ba75421-2540-4e6c-a03a-7cf0990137a4"},"vehicle_type_id":"4","last_reported":1744726222,"current_range_meters":24000,"station_id":"ce4bhn12rcd13ifvqgpg","pricing_plan_id":"cebpf4jnsgd1na2vs0mg"},{"bike_id":"10846591-4c97-417b-bfb4-d472ae236403","system_id":"levelo_inurba_marseille","lat":43.28262,"lon":5.35057,"is_reserved":false,"is_disabled":false,"rental_uris":{"android":"levelo://app?vid=10846591-4c97-417b-bfb4-d472ae236403","ios":"levelo://app?vid=10846591-4c97-417b-bfb4-d472ae236403"},"vehicle_type_id":"4","last_reported":1744726222,"current_range_meters":24000,"station_id":"ce4bhbp2rcd13ifvqerg","pricing_plan_id":"cebpf4jnsgd1na2vs0mg"},{"bike_id":"1f7d13ee-e653-4111-a632-455954a98994","system_id":"levelo_inurba_marseille","lat":43.29927,"lon":5.36529,"is_reserved":false,"is_disabled":false,"rental_uris":{"android":"levelo://app?vid=1f7d13ee-e653-4111-a632-455954a98994","ios":"levelo://app?vid=1f7d13ee-e653-4111-a632-455954a98994"},"vehicle_type_id":"4","last_reported":1744726222,"current_range_meters":24000,"station_id":"ce4bgm92rcd13ifvqbr0","pricing_plan_id":"cebpf4jnsgd1na2vs0mg"},{"bike_id":"d07f3575-c570-4366-9138-201949d4b627","system_id":"levelo_inurba_marseille","lat":43.22936,"lon":5.35379,"is_reserved":false,"is_disabled":false,"rental_uris":{"android":"levelo://app?vid=d07f3575-c570-4366-9138-201949d4b627","ios":"levelo://app?vid=d07f3575-c570-4366-9138-201949d4b627"},"vehicle_type_id":"4","last_reported":1744726222,"current_range_meters":24400,"station_id":"cpo3532slgdg3j2ikp40","pricing_plan_id":"cebpf4jnsgd1na2vs0mg"},{"bike_id":"da8b85b7-2e3a-4882-b1b1-00a4494eed2a","system_id":"levelo_inurba_marseille","lat":43.33016,"lon":5.39039,"is_reserved":false,"is_disabled":false,"rental_uris":{"android":"levelo://app?vid=da8b85b7-2e3a-4882-b1b1-00a4494eed2a","ios":"levelo://app?vid=da8b85b7-2e3a-4882-b1b1-00a4494eed2a"},"vehicle_type_id":"4","last_reported":1744726222,"current_range_meters":24400,"station_id":"ce4bhr92rcd13ifvqhrg","pricing_plan_id":"cebpf4jnsgd1na2vs0mg"},{"bike_id":"5e77dd61-ca9a-4625-a2ed-f118e3c1defe","system_id":"levelo_inurba_marseille","lat":43.286666,"lon":5.386819,"is_reserved":false,"is_disabled":false,"rental_uris":{"android":"levelo://app?vid=5e77dd61-ca9a-4625-a2ed-f118e3c1defe","ios":"levelo://app?vid=5e77dd61-ca9a-4625-a2ed-f118e3c1defe"},"vehicle_type_id":"4","last_reported":1744726222,"current_range_meters":24400,"station_id":"","pricing_plan_id":"cebpf4jnsgd1na2vs0mg"},{"bike_id":"6c6fd58d-d251-4fea-8c55-c0a7401c92d2","system_id":"levelo_inurba_marseille","lat":43.2417,"lon":5.39722,"is_reserved":false,"is_disabled":false,"rental_uris":{"android":"levelo://app?vid=6c6fd58d-d251-4fea-8c55-c0a7401c92d2","ios":"levelo://app?vid=6c6fd58d-d251-4fea-8c55-c0a7401c92d2"},"vehicle_type_id":"4","last_reported":1744726222,"current_range_meters":24400,"station_id":"ce4bhn12rcd13ifvqgpg","pricing_plan_id":"cebpf4jnsgd1na2vs0mg"},{"bike_id":"5a27cfb5-5fe8-436b-804e-cd0e4f292e06","system_id":"levelo_inurba_marseille","lat":43.30531,"lon":5.36562,"is_reserved":false,"is_disabled":false,"rental_uris":{"android":"levelo://app?vid=5a27cfb5-5fe8-436b-804e-cd0e4f292e06","ios":"levelo://app?vid=5a27cfb5-5fe8-436b-804e-cd0e4f292e06"},