{"last_updated":1730391061,"ttl":60,"version":"2.2","data":{"bikes":[{"bike_id":"a871acf4-3ac0-4e23-8feb-74013fc0f472","system_id":"levelo_inurba_marseille","lat":43.29101,"lon":5.3815,"is_reserved":false,"is_disabled":false,"rental_uris":{"android":"levelo://app?vid=a871acf4-3ac0-4e23-8feb-74013fc0f472","ios":"levelo://app?vid=a871acf4-3ac0-4e23-8feb-74013fc0f472"},"vehicle_type_id":"4","last_reported":1730391061,"current_range_meters":13600,"station_id":"ce4bh512rcd13ifvqe2g","pricing_plan_id":"cebpf4jnsgd1na2vs0mg"},{"bike_id":"017545e3-f945-4bf5-a8f4-9e171e0bdfdb","system_id":"levelo_inurba_marseille","lat":43.25578,"lon":5.38241,"is_reserved":false,"is_disabled":false,"rental_uris":{"android":"levelo://app?vid=017545e3-f945-4bf5-a8f4-9e171e0bdfdb","ios":"levelo://app?vid=017545e3-f945-4bf5-a8f4-9e171e0bdfdb"},"vehicle_type_id":"4","last_reported":1730391061,"current_range_meters":38800,"station_id":"ce4bhih2rcd13ifvqfs0","pricing_plan_id":"cebpf4jnsgd1na2vs0mg"},{"bike_id":"f64c1e7d-3ae9-4dfc-8ec2-0a90d036364f","system_id":"levelo_inurba_marseille","lat":43.32112,"lon":5.36784,"is_reserved":false,"is_disabled":false,"rental_uris":{"android":"levelo://app?vid=f64c1e7d-3ae9-4dfc-8ec2-0a90d036364f","ios":"levelo://app?vid=f64c1e7d-3ae9-4dfc-8ec2-0a90d036364f"},"vehicle_type_id":"4","last_reported":1730391061,"current_range_meters":21600,"station_id":"ce4bhrh2rcd13ifvqhug","pricing_plan_id":"cebpf4jnsgd1na2vs0mg"},{"bike_id":"76cdb4ff-c5a8-446a-9012-e8199e11a8f6","system_id":"levelo_inurba_marseille","lat":43.27654,"lon":5.38919,"is_reserved":false,"is_disabled":false,"rental_uris":{"android":"levelo://app?vid=76cdb4ff-c5a8-446a-9012-e8199e11a8f6","ios":"levelo://app?vid=76cdb4ff-c5a8-446a-9012-e8199e11a8f6"},"vehicle_type_id":"4","last_reported":1730391061,"current_range_meters":24000,"station_id":"ce4bhi12rcd13ifvqfo0","pricing_plan_id":"cebpf4jnsgd1na2vs0mg"},{"bike_id":"06512352-6143-4529-a7a6-8b0eb922906a","system_id":"levelo_inurba_marseille","lat":43.28276,"lon":5.35077,"is_reserved":false,"is_disabled":false,"rental_uris":{"android":"levelo://app?vid=06512352-6143-4529-a7a6-8b0eb922906a","ios":"levelo://app?vid=06512352-6143-4529-a7a6-8b0eb922906a"},"vehicle_type_id":"4","last_reported":1730391061,"current_range_meters":38000,"station_id":"ce4bhbp2rcd13ifvqerg","pricing_plan_id":"cebpf4jnsgd1na2vs0mg"},{"bike_id":"9538e7c4-918f-4f9c-b8d0-e6300a757914","system_id":"levelo_inurba_marseille","lat":43.29721,"lon":5.37689,"is_reserved":false,"is_disabled":false,"rental_uris":{"android":"levelo://app?vid=9538e7c4-918f-4f9c-b8d0-e6300a757914","ios":"levelo://app?vid=9538e7c4-918f-4f9c-b8d0-e6300a757914"},"vehicle_type_id":"4","last_reported":1730391061,"current_range_meters":8000,"station_id":"ce4bgkh2rcd13ifvqbl0","pricing_plan_id":"cebpf4jnsgd1na2vs0mg"},{"bike_id":"06e32548-f808-43af-9ccc-f30b9b0d784e","system_id":"levelo_inurba_marseille","lat":43.29018,"lon":5.38146,"is_reserved":false,"is_disabled":false,"rental_uris":{"android":"levelo://app?vid=06e32548-f808-43af-9ccc-f30b9b0d784e","ios":"levelo://app?vid=06e32548-f808-43af-9ccc-f30b9b0d784e"},"vehicle_type_id":"4","last_reported":1730391061,"current_range_meters":38800,"station_id":"ce4bh4p2rcd13ifvqe1g","pricing_plan_id":"cebpf4jnsgd1na2vs0mg"},{"bike_id":"d182eab1-94f6-45ba-a6ca-8eff8dc2d000","system_id":"levelo_inurba_marseille","lat":43.29736,"lon":5.37668,"is_reserved":false,"is_disabled":false,"rental_uris":{"android":"levelo://app?vid=d182eab1-94f6-45ba-a6ca-8eff8dc2d000","ios":"levelo://app?vid=d182eab1-94f6-45ba-a6ca-8eff8dc2d000"},"vehicle_type_id":"4","last_reported":1730391061,"current_range_meters":8400,"station_id":"ce4bgkh2rcd13ifvqbl0","pricing_plan_id":"cebpf4jnsgd1na2vs0mg"},{"bike_id":"de4e0eea-0c43-4f31-819d-ce49e6b2d26a","system_id":"levelo_inurba_marseille","lat":43.232788,"lon":5.43603,"is_reserved":false,"is_disabled":false,"rental_uris":{"android":"levelo://app?vid=de4e0eea-0c43-4f31-819d-ce49e6b2d26a","ios":"levelo://app?vid=de4e0eea-0c43-4f31-819d-ce49e6b2d26a"},"vehicle_type_id":"4","last_reported":1730391061,"current_range_meters":38000,"station_id":"ce4bhlh2rcd13ifvqgig","pricing_plan_id":"cebpf4jnsgd1na2vs0mg"},{"bike_id":"5a630d2f-334a-434e-9444-556db0f632d1","system_id":"levelo_inurba_marseille","lat":43.30207,"lon":5.39475,"is_reserved":false,"is_disabled":false,"rental_uris":{"android":"levelo://app?vid=5a630d2f-334a-434e-9444-556db0f632d1","ios":"levelo://app?vid=5a630d2f-334a-434e-9444-556db0f632d1"},"vehicle_type_id":"4","last_reported":1730391061,"current_range_meters":24000,"station_id":"ce4bh0p2rcd13ifvqd70","pricing_plan_id":"cebpf4jnsgd1na2vs0mg"},{"bike_id":"a4627486-a087-47d1-bdea-e9476cd49986","system_id":"levelo_inurba_marseille","lat":43.23193,"lon":5.35548,"is_reserved":false,"is_disabled":false,"rental_uris":{"android":"levelo://app?vid=a4627486-a087-47d1-bdea-e9476cd49986","ios":"levelo://app?vid=a4627486-a087-47d1-bdea-e9476cd49986"},"vehicle_type_id":"4","last_reported":1730391061,"current_range_meters":4000,"station_id":"ce4bhu92rcd13ifvqi70","pricing_plan_id":"cebpf4jnsgd1na2vs0mg"},{"bike_id":"a4913636-2ab4-4f65-b3b2-827376776b2c","system_id":"levelo_inurba_marseille","lat":43.22931,"lon":5.35372,"is_reserved":false,"is_disabled":false,"rental_uris":{"android":"levelo://app?vid=a4913636-2ab4-4f65-b3b2-827376776b2c","ios":"levelo://app?vid=a4913636-2ab4-4f65-b3b2-827376776b2c"},"vehicle_type_id":"4","last_reported":1730391061,"current_range_meters":13600,"station_id":"cpo3532slgdg3j2ikp40","pricing_plan_id":"cebpf4jnsgd1na2vs0mg"},{"bike_id":"a9d67b9a-1c09-4579-b77b-7dcf428eee18","system_id":"levelo_inurba_marseille","lat":43.26991,"lon":5.39883,"is_reserved":false,"is_disabled":false,"rental_uris":{"android":"levelo://app?vid=a9d67b9a-1c09-4579-b77b-7dcf428eee18","ios":"levelo://app?vid=a9d67b9a-1c09-4579-b77b-7dcf428eee18"},"vehicle_type_id":"4","last_reported":1730391061,"current_range_meters":9200,"station_id":"","pricing_plan_id":"cebpf4jnsgd1na2vs0mg"},{"bike_id":"0856e932-d518-4dc1-86f2-8739ce260a21","system_id":"levelo_inurba_marseille","lat":43.29425,"lon":5.38625,"is_reserved":false,"is_disabled":false,"rental_uris":{"android":"levelo://app?vid=0856e932-d518-4dc1-86f2-8739ce260a21","ios":"levelo://app?vid=0856e932-d518-4dc1-86f2-8739ce260a21"},"vehicle_type_id":"4","last_reported":1730391061,"current_range_meters":29600,"station_id":"ce4bh2h2rcd13ifvqdh0","pricing_plan_id":"cebpf4jnsgd1na2vs0mg"},{"bike_id":"bff3f281-b5bd-40ee-8f6c-67a2955c64f3","system_id":"levelo_inurba_marseille","lat":43.32483,"lon":5.36571,"is_reserved":false,"is_disabled":false,"rental_uris":{"android":"levelo://app?vid=bff3f281-b5bd-40ee-8f6c-67a2955c64f3","ios":"levelo://app?vid=bff3f281-b5bd-40ee-8f6c-67a2955c64f3"},"vehicle_type_id":"4","last_reported":1730391061,"current_range_meters":2800,"station_id":"ce4bhs12rcd13ifvqhvg","pricing_plan_id":"cebpf4jnsgd1na2vs0mg"},{"bike_id":"4075e605-7e2d-4335-883e-4292dc011012","system_id":"levelo_inurba_marseille","lat":43.23963,"lon":5.36631,"is_reserved":false,"is_disabled":false,"rental_uris":{"android":"levelo://app?vid=4075e605-7e2d-4335-883e-4292dc011012","ios":"levelo://app?vid=4075e605-7e2d-4335-883e-4292dc011012"},"vehicle_type_id":"4","last_reported":1730391061,"current_range_meters":2800,"station_id":"ce4bhi12rcd13ifvqfp0","pricing_plan_id":"cebpf4jnsgd1na2vs0mg"},{"bike_id":"8e211da1-4293-4a3f-b202-141dc0f0aefd","system_id":"levelo_inurba_marseille","lat":43.24171,"lon":5.36403,"is_reserved":false,"is_disabled":false,"rental_uris":{"android":"levelo://app?vid=8e211da1-4293-4a3f-b202-141dc0f0aefd","ios":"levelo://app?vid=8e211da1-4293-4a3f-b202-141dc0f0aefd"},"vehicle_type_id":"4","last_reported":1730391061,"current_range_meters":31200,"station_id":"cpo36qri1sfpv3e86is0","pricing_plan_id":"cebpf4jnsgd1na2vs0mg"},{"bike_id":"61a17217-866a-45e4-ad7d-ed917d0d9903","system_id":"levelo_inurba_marseille","lat":43.29538,"lon":5.38538,"is_reserved":false,"is_disabled":false,"rental_uris":{"android":"levelo://app?vid=61a17217-866a-45e4-ad7d-ed917d0d9903","ios":"levelo://app?vid=61a17217-866a-45e4-ad7d-ed917d0d9903"},"vehicle_type_id":"4","last_reported":1730391061,"current_range_meters":38400,"station_id":"ce4bgih2rcd13ifvqba0","pricing_plan_id":"cebpf4jnsgd1na2vs0mg"},{"bike_id":"db609c5d-b084-4c05-8a58-2f93e87b346b","system_id":"levelo_inurba_marseille","lat":43.29034,"lon":5.39964,"is_reserved":false,"is_disabled":false,"rental_uris":{"android":"levelo://app?vid=db609c5d-b084-4c05-8a58-2f93e87b346b","ios":"levelo://app?vid=db609c5d-b084-4c05-8a58-2f93e87b346b"},"vehicle_type_id":"4","last_reported":1730391061,"current_range_meters":2800,"station_id":"ce4bh392rcd13ifvqdm0","pricing_plan_id":"cebpf4jnsgd1na2vs0mg"},{"bike_id":"d1b04bca-d47e-4589-bca9-3a3e4f61839e","system_id":"levelo_inurba_marseille","lat":43.299249,"lon":5.374956,"is_reserved":false,"is_disabled":false,"rental_uris":{"android":"levelo://app?vid=d1b04bca-d47e-4589-bca9-3a3e4f61839e","ios":"levelo://app?vid=d1b04bca-d47e-4589-bca9-3a3e4f61839e"},"vehicle_type_id":"4","last_reported":1730391061,"current_range_meters":11600,"station_id":"ce4bgjh2rcd13ifvqbg0","pricing_plan_id":"cebpf4jnsgd1na2vs0mg"},{"bike_id":"2b30a80d-faf0-44b6-9580-3fb88a759230","system_id":"levelo_inurba_marseille","lat":43.2551,"lon":5.3765,"is_reserved":false,"is_disabled":false,"rental_uris":{"android":"levelo://app?vid=2b30a80d-faf0-44b6-9580-3fb88a759230","ios":"levelo://app?vid=2b30a80d-faf0-44b6-9580-3fb88a759230"},"vehicle_type_id":"4","last_reported":1730391061,"current_range_meters":30800,"station_id":"ce4bhh12rcd13ifvqff0","pricing_plan_id":"cebpf4jnsgd1na2vs0mg"},{"bike_id":"b5297106-f719-424e-8021-d5c77e9265b0","system_id":"levelo_inurba_marseille","lat":43.26781,"lon":5.39422,"is_reserved":false,"is_disabled":false,"rental_uris":{"android":"levelo://app?vid=b5297106-f719-424e-8021-d5c77e9265b0","ios":"levelo://app?vid=b5297106-f719-424e-8021-d5c77e9265b0"},"vehicle_type_id":"4","last_reported":1730391061,"current_range_meters":31200,"station_id":"ce4bhh12rcd13ifvqfg0","pricing_plan_id":"cebpf4jnsgd1na2vs0mg"},{"bike_id":"82adba20-1ff9-4cf2-bf2c-fc695c2f79f0","system_id":"levelo_inurba_marseille","lat":43.28697,"lon":5.37394,"is_reserved":false,"is_disabled":false,"rental_uris":{"android":"levelo://app?vid=82adba20-1ff9-4cf2-bf2c-fc695c2f79f0","ios":"levelo://app?vid=82adba20-1ff9-4cf2-bf2c-fc695c2f79f0"},"vehicle_type_id":"4","last_reported":1730391061,"current_range_meters":16400,"station_id":"ce4bh3p2rcd13ifvqdq0","pricing_plan_id":"cebpf4jnsgd1na2vs0mg"},{"bike_id":"65fe82f0-bf44-4d38-88f9-4f7393a7cf76","system_id":"levelo_inurba_marseille","lat":43.30133,"lon":5.39843,"is_reserved":false,"is_disabled":false,"rental_uris":{"android":"levelo://app?vid=65fe82f0-bf44-4d38-88f9-4f7393a7cf76","ios":"levelo://app?vid=65fe82f0-bf44-4d38-88f9-4f7393a7cf76"},"vehicle_type_id":"4","last_reported":1730391061,"current_range_meters":38000,"station_id":"ce4bh0h2rcd13ifvqd40","pricing_plan_id":"cebpf4jnsgd1na2vs0mg"},{"bike_id":"71704492-9806-4787-9ac5-3e4eaa0530aa","system_id":"levelo_inurba_marseille","lat":43.28668,"lon":5.36359,"is_reserved":false,"is_disabled":false,"rental_uris":{"android":"levelo://app?vid=71704492-9806-4787-9ac5-3e4eaa0530aa","ios":"levelo://app?vid=71704492-9806-4787-9ac5-3e4eaa0530aa"},"vehicle_type_id":"4","last_reported":1730391061,"current_range_meters":15200,"station_id":"ce4bhah2rcd13ifvqej0","pricing_plan_id":"cebpf4jnsgd1na2vs0mg"},{"bike_id":"376de44f-155d-4482-bc39-44001930c2a4","system_id":"levelo_inurba_marseille","lat":43.30139,"lon":5.38068,"is_reserved":false,"is_disabled":false,"rental_uris":{"android":"levelo://app?vid=376de44f-155d-4482-bc39-44001930c2a4","ios":"levelo://app?vid=376de44f-155d-4482-bc39-44001930c2a4"},"vehicle_type_id":"4","last_reported":1730391061,"current_range_meters":4400,"station_id":"ce4bgjp2rcd13ifvqbh0","pricing_plan_id":"cebpf4jnsgd1na2vs0mg"},{"bike_id":"21fb40b7-a288-4f22-bcda-b76a9306b42d","system_id":"levelo_inurba_marseille","lat":43.24168,"lon":5.36398,"is_reserved":false,"is_disabled":false,"rental_uris":{"android":"levelo://app?vid=21fb40b7-a288-4f22-bcda-b76a9306b42d","ios":"levelo://app?vid=21fb40b7-a288-4f22-bcda-b76a9306b42d"},"vehicle_type_id":"4","last_reported":1730391061,"current_range_meters":22000,"station_id":"cpo36qri1sfpv3e86is0","pricing_plan_id":"cebpf4jnsgd1na2vs0mg"},{"bike_id":"997a96a5-d68a-4466-bc4c-f23b6552b4a1","system_id":"levelo_inurba_marseille","lat":43.26482,"lon":5.39558,"is_reserved":false,"is_disabled":false,"rental_uris":{"android":"levelo://app?vid=997a96a5-d68a-4466-bc4c-f23b6552b4a1","ios":"levelo://app?vid=997a96a5-d68a-4466-bc4c-f23b6552b4a1"},"vehicle_type_id":"4","last_reported":1730391061,"current_range_meters":26000,"station_id":"ce4bhi12rcd13ifvqfq0","pricing_plan_id":"cebpf4jnsgd1na2vs0mg"},{"bike_id":"42e61598-64ce-4f84-97eb-90c09ebd9abe","system_id":"levelo_inurba_marseille","lat":43.23188,"lon":5.39993,"is_reserved":false,"is_disabled":false,"rental_uris":{"android":"levelo://app?vid=42e61598-64ce-4f84-97eb-90c09ebd9abe","ios":"levelo://app?vid=42e61598-64ce-4f84-97eb-90c09ebd9abe"},"vehicle_type_id":"4","last_reported":1730391061,"current_range_meters":9200,"station_id":"ce4bhn12rcd13ifvqgqg","pricing_plan_id":"cebpf4jnsgd1na2vs0mg"},{"bike_id":"f1a51e30-d724-422c-b210-e8b9c847d5d9","system_id":"levelo_inurba_marseille","lat":43.319,"lon":5.40725,"is_reserved":false,"is_disabled":false,"rental_uris":{"android":"levelo://app?vid=f1a51e30-d724-422c-b210-e8b9c847d5d9","ios":"levelo://app?vid=f1a51e30-d724-422c-b210-e8b9c847d5d9"},"vehicle_type_id":"4","last_reported":1730391061,"current_range_meters":16800,"station_id":"ce4bhq12rcd13ifvqhig","pricing_plan_id":"cebpf4jnsgd1na2vs0mg"},{"bike_id":"bc6e7682-07d8-44ed-b773-04d7c4a259f6","system_id":"levelo_inurba_marseille","lat":43.31713,"lon":5.4371,"is_reserved":false,"is_disabled":false,"rental_uris":{"android":"levelo://app?vid=bc6e7682-07d8-44ed-b773-04d7c4a259f6","ios":"levelo://app?vid=bc6e7682-07d8-44ed-b773-04d7c4a259f6"},"vehicle_type_id":"4","last_reported":1730391061,"current_range_meters":14800,"station_id":"ce4bhp92rcd13ifvqhcg","pricing_plan_id":"cebpf4jnsgd1na2vs0mg"},{"bike_id":"c573c73f-75e4-475a-bcd6-666ce297695e","system_id":"levelo_inurba_marseille","lat":43.23179,"lon":5.39988,"is_reserved":false,"is_disabled":false,"rental_uris":{"android":"levelo://app?vid=c573c73f-75e4-475a-bcd6-666ce297695e","ios":"levelo://app?vid=c573c73f-75e4-475a-bcd6-666ce297695e"},"vehicle_type_id":"4","last_reported":1730391061,"current_range_meters":25600,"station_id":"ce4bhn12rcd13ifvqgqg","pricing_plan_id":"cebpf4jnsgd1na2vs0mg"},{"bike_id":"3e83603d-7c49-4775-8125-5bc140fcfbe7","system_id":"levelo_inurba_marseille","lat":43.28461,"lon":5.35879,"is_reserved":false,"is_disabled":false,"rental_uris":{"android":"levelo://app?vid=3e83603d-7c49-4775-8125-5bc140fcfbe7","ios":"levelo://app?vid=3e83603d-7c49-4775-8125-5bc140fcfbe7"},"vehicle_type_id":"4","last_reported":1730391061,"current_range_meters":28000,"station_id":"ce4bhah2rcd13ifvqei0","pricing_plan_id":"cebpf4jnsgd1na2vs0mg"},{"bike_id":"5726ee54-02e4-4ac8-822c-bcf0eff5310e","system_id":"levelo_inurba_marseille","lat":43.29574,"lon":5.39965,"is_reserved":false,"is_disabled":false,"rental_uris":{"android":"levelo://app?vid=5726ee54-02e4-4ac8-822c-bcf0eff5310e","ios":"levelo://app?vid=5726ee54-02e4-4ac8-822c-bcf0eff5310e"},"vehicle_type_id":"4","last_reported":1730391061,"current_range_meters":24000,"station_id":"ce4bh312rcd13ifvqdj0","pricing_plan_id":"cebpf4jnsgd1na2vs0mg"},{"bike_id":"b03dfabb-7f3f-4176-96ea-4ddf0a08b1e0","system_id":"levelo_inurba_marseille","lat":43.28409,"lon":5.34998,"is_reserved":false,"is_disabled":false,"rental_uris":{"android":"levelo://app?vid=b03dfabb-7f3f-4176-96ea-4ddf0a08b1e0","ios":"levelo://app?vid=b03dfabb-7f3f-4176-96ea-4ddf0a08b1e0"},"vehicle_type_id":"4","last_reported":1730391061,"current_range_meters":38800,"station_id":"ce4bhbh2rcd13ifvqepg","pricing_plan_id":"cebpf4jnsgd1na2vs0mg"},{"bike_id":"1549777b-33eb-4a32-9567-d6c31d0710f5","system_id":"levelo_inurba_marseille","lat":43.324786,"lon":5.365664,"is_reserved":false,"is_disabled":false,"rental_uris":{"android":"levelo://app?vid=1549777b-33eb-4a32-9567-d6c31d0710f5","ios":"levelo://app?vid=1549777b-33eb-4a32-9567-d6c31d0710f5"},"vehicle_type_id":"4","last_reported":1730391061,"current_range_meters":35200,"station_id":"ce4bhs12rcd13ifvqhvg","pricing_plan_id":"cebpf4jnsgd1na2vs0mg"},{"bike_id":"60b71c7c-4918-47ba-8287-329d23746782","system_id":"levelo_inurba_marseille","lat":43.29897,"lon":5.43665,"is_reserved":false,"is_disabled":false,"rental_uris":{"android":"levelo://app?vid=60b71c7c-4918-47ba-8287-329d23746782","ios":"levelo://app?vid=60b71c7c-4918-47ba-8287-329d23746782"},"vehicle_type_id":"4","last_reported":1730391061,"current_range_meters":37600,"station_id":"ce4bhpp2rcd13ifvqhfg","pricing_plan_id":"cebpf4jnsgd1na2vs0mg"},{"bike_id":"bd7b92bb-3ba8-4b2f-a9a7-39b2682605ae","system_id":"levelo_inurba_marseille","lat":43.28439,"lon":5.39183,"is_reserved":false,"is_disabled":false,"rental_uris":{"android":"levelo://app?vid=bd7b92bb-3ba8-4b2f-a9a7-39b2682605ae","ios":"levelo://app?vid=bd7b92bb-3ba8-4b2f-a9a7-39b2682605ae"},"vehicle_type_id":"4","last_reported":1730391061,"current_range_meters":16400,"station_id":"ce4bhoh2rcd13ifvqh5g","pricing_plan_id":"cebpf4jnsgd1na2vs0mg"},{"bike_id":"5986fccd-6cbd-425c-aafb-c7d5c74b7ede","system_id":"levelo_inurba_marseille","lat":43.24388,"lon":5.3705,"is_reserved":false,"is_disabled":false,"rental_uris":{"android":"levelo://app?vid=5986fccd-6cbd-425c-aafb-c7d5c74b7ede","ios":"levelo://app?vid=5986fccd-6cbd-425c-aafb-c7d5c74b7ede"},"vehicle_type_id":"4","last_reported":1730391061,"current_range_meters":38800,"station_id":"ce4bhhh2rcd13ifvqfk0","pricing_plan_id":"cebpf4jnsgd1na2vs0mg"},{"bike_id":"5c0d1d8a-7f65-4264-a9cd-e1511a6e4d25","system_id":"levelo_inurba_marseille","lat":43.31285,"lon":5.40178,"is_reserved":false,"is_disabled":false,"rental_uris":{"android":"levelo://app?vid=5c0d1d8a-7f65-4264-a9cd-e1511a6e4d25","ios":"levelo://app?vid=5c0d1d8a-7f65-4264-a9cd-e1511a6e4d25"},"vehicle_type_id":"4","last_reported":1730391061,"current_range_meters":26000,"station_id":"ce4bh092rcd13ifvqd30","pricing_plan_id":"cebpf4jnsgd1na2vs0mg"},{"bike_id":"2a9d36fc-1d43-417f-a35d-9cb5365ffb69","system_id":"levelo_inurba_marseille","lat":43.2977,"lon":5.37127,"is_reserved":false,"is_disabled":false,"rental_uris":{"android":"levelo://app?vid=2a9d36fc-1d43-417f-a35d-9cb5365ffb69","ios":"levelo://app?vid=2a9d36fc-1d43-417f-a35d-9cb5365ffb69"},"vehicle_type_id":"4","last_reported":1730391061,"current_range_meters":37600,"station_id":"ce4bgop2rcd13ifvqc1g","pricing_plan_id":"cebpf4jnsgd1na2vs0mg"},{"bike_id":"ab96cbe3-c64c-4f4e-aa11-2f679fde20ba","system_id":"levelo_inurba_marseille","lat":43.254971,"lon":5.376473,"is_reserved":false,"is_disabled":false,"rental_uris":{"android":"levelo://app?vid=ab96cbe3-c64c-4f4e-aa11-2f679fde20ba","ios":"levelo://app?vid=ab96cbe3-c64c-4f4e-aa11-2f679fde20ba"},"vehicle_type_id":"4","last_reported":1730391061,"current_range_meters":33600,"station_id":"ce4bhh12rcd13ifvqff0","pricing_plan_id":"cebpf4jnsgd1na2vs0mg"},{"bike_id":"09182623-973e-4c36-9952-34577ed0920d","system_id":"levelo_inurba_marseille","lat":43.29614,"lon":5.37165,"is_reserved":false,"is_disabled":false,"rental_uris":{"android":"levelo://app?vid=09182623-973e-4c36-9952-34577ed0920d","ios":"levelo://app?vid=09182623-973e-4c36-9952-34577ed0920d"},"vehicle_type_id":"4","last_reported":1730391061,"current_range_meters":11600,"station_id":"ce4bgnh2rcd13ifvqc0g","pricing_plan_id":"cebpf4jnsgd1na2vs0mg"},{"bike_id":"69f00dc9-d7fb-447d-b3dd-9e77d30bf042","system_id":"levelo_inurba_marseille","lat":43.28728,"lon":5.37938,"is_reserved":false,"is_disabled":false,"rental_uris":{"android":"levelo://app?vid=69f00dc9-d7fb-447d-b3dd-9e77d30bf042","ios":"levelo://app?vid=69f00dc9-d7fb-447d-b3dd-9e77d30bf042"},"vehicle_type_id":"4","last_reported":1730391061,"current_range_meters":16800,"station_id":"ce4bh9p2rcd13ifvqec0","pricing_plan_id":"cebpf4jnsgd1na2vs0mg"},{"bike_id":"967bc015-564a-4e6d-acce-10593b5a4272","system_id":"levelo_inurba_marseille","lat":43.29224,"lon":5.36065,"is_reserved":false,"is_disabled":false,"rental_uris":{"android":"levelo://app?vid=967bc015-564a-4e6d-acce-10593b5a4272","ios":"levelo://app?vid=967bc015-564a-4e6d-acce-10593b5a4272"},"vehicle_type_id":"4","last_reported":1730391061,"current_range_meters":12400,"station_id":"ce4bhbh2rcd13ifvqeqg","pricing_plan_id":"cebpf4jnsgd1na2vs0mg"},{"bike_id":"a9bbcbbe-e1bb-449c-adcd-34688245503d","system_id":"levelo_inurba_marseille","lat":43.29525,"lon":5.3854,"is_reserved":false,"is_disabled":false,"rental_uris":{"android":"levelo://app?vid=a9bbcbbe-e1bb-449c-adcd-34688245503d","ios":"levelo://app?vid=a9bbcbbe-e1bb-449c-adcd-34688245503d"},"vehicle_type_id":"4","last_reported":1730391061,"current_range_meters":3200,"station_id":"ce4bgih2rcd13ifvqba0","pricing_plan_id":"cebpf4jnsgd1na2vs0mg"},{"bike_id":"76475cbc-2522-480e-8e38-cb1dc49f8fe4","system_id":"levelo_inurba_marseille","lat":43.24651,"lon":5.38891,"is_reserved":false,"is_disabled":false,"rental_uris":{"android":"levelo://app?vid=76475cbc-2522-480e-8e38-cb1dc49f8fe4","ios":"levelo://app?vid=76475cbc-2522-480e-8e38-cb1dc49f8fe4"},"vehicle_type_id":"4","last_reported":1730391061,"current_range_meters":36000,"station_id":"ce4bhg12rcd13ifvqf60","pricing_plan_id":"cebpf4jnsgd1na2vs0mg"},{"bike_id":"f87a7ea5-a101-42cf-b852-5829ff1016b2","system_id":"levelo_inurba_marseille","lat":43.27073,"lon":5.42282,"is_reserved":false,"is_disabled":false,"rental_uris":{"android":"levelo://app?vid=f87a7ea5-a101-42cf-b852-5829ff1016b2","ios":"levelo://app?vid=f87a7ea5-a101-42cf-b852-5829ff1016b2"},"vehicle_type_id":"4","last_reported":1730391061,"current_range_meters":27200,"station_id":"ce4bhk92rcd13ifvqgb0","pricing_plan_id":"cebpf4jnsgd1na2vs0mg"},{"bike_id":"1d0e6e57-25eb-40d5-9da0-67f5170735e4","system_id":"levelo_inurba_marseille","lat":43.29425,"lon":5.38626,"is_reserved":false,"is_disabled":false,"rental_uris":{"android":"levelo://app?vid=1d0e6e57-25eb-40d5-9da0-67f5170735e4","ios":"levelo://app?vid=1d0e6e57-25eb-40d5-9da0-67f5170735e4"},"vehicle_type_id":"4","last_reported":1730391061,"current_range_meters":3200,"station_id":"ce4bh2h2rcd13ifvqdh0","pricing_plan_id":"cebpf4jnsgd1na2vs0mg"},{"bike_id":"c1311149-b505-4c8e-878c-c319872759ad","system_id":"levelo_inurba_marseille","lat":43.32478,"lon":5.36559,"is_reserved":false,"is_disabled":false,"rental_uris":{"android":"levelo://app?vid=c1311149-b505-4c8e-878c-c319872759ad","ios":"levelo://app?vid=c1311149-b505-4c8e-878c-c319872759ad"},"vehicle_type_id":"4","last_reported":1730391061,"current_range_meters":23200,"station_id":"ce4bhs12rcd13ifvqhvg","pricing_plan_id":"cebpf4jnsgd1na2vs0mg"},{"bike_id":"92adf987-4779-4b78-ad9c-8e29ab9175f3","system_id":"levelo_inurba_marseille","lat":43.23191,"lon":5.35559,"is_reserved":false,"is_disabled":false,"rental_uris":{"android":"levelo://app?vid=92adf987-4779-4b78-ad9c-8e29ab9175f3","ios":"levelo://app?vid=92adf987-4779-4b78-ad9c-8e29ab9175f3"},"vehicle_type_id":"4","last_reported":1730391061,"current_range_meters":6800,"station_id":"ce4bhu92rcd13ifvqi70","pricing_plan_id":"cebpf4jnsgd1na2vs0mg"},{"bike_id":"9a69babd-5eb6-4904-b097-882478b615c5","system_id":"levelo_inurba_marseille","lat":43.30144,"lon":5.38081,"is_reserved":false,"is_disabled":false,"rental_uris":{"android":"levelo://app?vid=9a69babd-5eb6-4904-b097-882478b615c5","ios":"levelo://app?vid=9a69babd-5eb6-4904-b097-882478b615c5"},"vehicle_type_id":"4","last_reported":1730391061,"current_range_meters":32000,"station_id":"ce4bgjp2rcd13ifvqbh0","pricing_plan_id":"cebpf4jnsgd1na2vs0mg"},{"bike_id":"f5301d1e-24c2-40e8-90e8-ea0d8c6abf8b","system_id":"levelo_inurba_marseille","lat":43.28032,"lon":5.36949,"is_reserved":false,"is_disabled":false,"rental_uris":{"android":"levelo://app?vid=f5301d1e-24c2-40e8-90e8-ea0d8c6abf8b","ios":"levelo://app?vid=f5301d1e-24c2-40e8-90e8-ea0d8c6abf8b"},"vehicle_type_id":"4","last_reported":1730391061,"current_range_meters":31200,"station_id":"ce4bha12rcd13ifvqef0","pricing_plan_id":"cebpf4jnsgd1na2vs0mg"},{"bike_id":"35fd6368-8d63-497d-8a6e-4a321956ebd8","system_id":"levelo_inurba_marseille","lat":43.26482,"lon":5.3956,"is_reserved":false,"is_disabled":false,"rental_uris":{"android":"levelo://app?vid=35fd6368-8d63-497d-8a6e-4a321956ebd8","ios":"levelo://app?vid=35fd6368-8d63-497d-8a6e-4a321956ebd8"},"vehicle_type_id":"4","last_reported":1730391061,"current_range_meters":29600,"station_id":"ce4bhi12rcd13ifvqfq0","pricing_plan_id":"cebpf4jnsgd1na2vs0mg"},{"bike_id":"aeb7f287-ac2e-41a5-9086-a135e101c58d","system_id":"levelo_inurba_marseille","lat":43.24165,"lon":5.36393,"is_reserved":false,"is_disabled":false,"rental_uris":{"android":"levelo://app?vid=aeb7f287-ac2e-41a5-9086-a135e101c58d","ios":"levelo://app?vid=aeb7f287-ac2e-41a5-9086-a135e101c58d"},"vehicle_type_id":"4","last_reported":1730391061,"current_range_meters":9600,"station_id":"cpo36qri1sfpv3e86is0","pricing_plan_id":"cebpf4jnsgd1na2vs0mg"},{"bike_id":"24a3fc8d-a701-41e4-a6f9-e05ffa473525","system_id":"levelo_inurba_marseille","lat":43.30419,"lon":5.3976,"is_reserved":false,"is_disabled":false,"rental_uris":{"android":"levelo://app?vid=24a3fc8d-a701-41e4-a6f9-e05ffa473525","ios":"levelo://app?vid=24a3fc8d-a701-41e4-a6f9-e05ffa473525"},"vehicle_type_id":"4","last_reported":1730391061,"current_range_meters":20400,"station_id":"ce4bh092rcd13ifvqd20","pricing_plan_id":"cebpf4jnsgd1na2vs0mg"},{"bike_id":"a102b52f-8014-4fc8-911f-c47ef46bbeea","system_id":"levelo_inurba_marseille","lat":43.27059,"lon":5.40253,"is_reserved":false,"is_disabled":false,"rental_uris":{"android":"levelo://app?vid=a102b52f-8014-4fc8-911f-c47ef46bbeea","ios":"levelo://app?vid=a102b52f-8014-4fc8-911f-c47ef46bbeea"},"vehicle_type_id":"4","last_reported":1730391061,"current_range_meters":33600,"station_id":"ce4bhk92rcd13ifvqgc0","pricing_plan_id":"cebpf4jnsgd1na2vs0mg"},{"bike_id":"58983c5b-abd6-4acc-b909-2ade15503e87","system_id":"levelo_inurba_marseille","lat":43.287964,"lon":5.363311,"is_reserved":false,"is_disabled":false,"rental_uris":{"android":"levelo://app?vid=58983c5b-abd6-4acc-b909-2ade15503e87","ios":"levelo://app?vid=58983c5b-abd6-4acc-b909-2ade15503e87"},"vehicle_type_id":"4","last_reported":1730391061,"current_range_meters":27200,"station_id":"cki0cbj6b192h4jlfktg","pricing_plan_id":"cebpf4jnsgd1na2vs0mg"},{"bike_id":"c5992a45-ef8f-4066-838d-d2250f9ef3db","system_id":"levelo_inurba_marseille","lat":43.27371,"lon":5.36262,"is_reserved":false,"is_disabled":false,"rental_uris":{"android":"levelo://app?vid=c5992a45-ef8f-4066-838d-d2250f9ef3db","ios":"levelo://app?vid=c5992a45-ef8f-4066-838d-d2250f9ef3db"},"vehicle_type_id":"4","last_reported":1730391061,"current_range_meters":27600,"station_id":"ce4bhbh2rcd13ifvqeo0","pricing_plan_id":"cebpf4jnsgd1na2vs0mg"},{"bike_id":"6efb0d9b-2cf2-4834-b244-fe44aa3186e3","system_id":"levelo_inurba_marseille","lat":43.30208,"lon":5.39474,"is_reserved":false,"is_disabled":false,"rental_uris":{"android":"levelo://app?vid=6efb0d9b-2cf2-4834-b244-fe44aa3186e3","ios":"levelo://app?vid=6efb0d9b-2cf2-4834-b244-fe44aa3186e3"},"vehicle_type_id":"4","last_reported":1730391061,"current_range_meters":28800,"station_id":"ce4bh0p2rcd13ifvqd70","pricing_plan_id":"cebpf4jnsgd1na2vs0mg"},{"bike_id":"cae7b15e-a9a9-4f33-b5c4-69cb631a99c2","system_id":"levelo_inurba_marseille","lat":43.30129,"lon":5.38784,"is_reserved":false,"is_disabled":false,"rental_uris":{"android":"levelo://app?vid=cae7b15e-a9a9-4f33-b5c4-69cb631a99c2","ios":"levelo://app?vid=cae7b15e-a9a9-4f33-b5c4-69cb631a99c2"},"vehicle_type_id":"4","last_reported":1730391061,"current_range_meters":36800,"station_id":"ce4bghh2rcd13ifvqb60","pricing_plan_id":"cebpf4jnsgd1na2vs0mg"},{"bike_id":"fc258cb3-3c7d-482b-b6a3-f40123f9af17","system_id":"levelo_inurba_marseille","lat":43.28347,"lon":5.38123,"is_reserved":false,"is_disabled":false,"rental_uris":{"android":"levelo://app?vid=fc258cb3-3c7d-482b-b6a3-f40123f9af17","ios":"levelo://app?vid=fc258cb3-3c7d-482b-b6a3-f40123f9af17"},"vehicle_type_id":"4","last_reported":1730391061,"current_range_meters":38800,"station_id":"ce4bh412rcd13ifvqdr0","pricing_plan_id":"cebpf4jnsgd1na2vs0mg"},{"bike_id":"2616f2c9-adae-4b80-8ec4-4ed70b033cd8","system_id":"levelo_inurba_marseille","lat":43.247706,"lon":5.374707,"is_reserved":false,"is_disabled":false,"rental_uris":{"android":"levelo://app?vid=2616f2c9-adae-4b80-8ec4-4ed70b033cd8","ios":"levelo://app?vid=2616f2c9-adae-4b80-8ec4-4ed70b033cd8"},"vehicle_type_id":"4","last_reported":1730391061,"current_range_meters":38800,"station_id":"ce4bhgh2rcd13ifvqfb0","pricing_plan_id":"cebpf4jnsgd1na2vs0mg"},{"bike_id":"9b9190e0-e0e5-4050-87bf-21d62fac9bda","system_id":"levelo_inurba_marseille","lat":43.26058,"lon":5.39399,"is_reserved":false,"is_disabled":false,"rental_uris":{"android":"levelo://app?vid=9b9190e0-e0e5-4050-87bf-21d62fac9bda","ios":"levelo://app?vid=9b9190e0-e0e5-4050-87bf-21d62fac9bda"},"vehicle_type_id":"4","last_reported":1730391061,"current_range_meters":21600,"station_id":"ce4bhh92rcd13ifvqfj0","pricing_plan_id":"cebpf4jnsgd1na2vs0mg"},{"bike_id":"dc807417-e181-4092-a682-8febd28960b5","system_id":"levelo_inurba_marseille","lat":43.26555,"lon":5.37281,"is_reserved":false,"is_disabled":false,"rental_uris":{"android":"levelo://app?vid=dc807417-e181-4092-a682-8febd28960b5","ios":"levelo://app?vid=dc807417-e181-4092-a682-8febd28960b5"},"vehicle_type_id":"4","last_reported":1730391061,"current_range_meters":28800,"station_id":"ce4bhg12rcd13ifvqf70","pricing_plan_id":"cebpf4jnsgd1na2vs0mg"},{"bike_id":"397b40ef-e642-4ce8-b87d-dcb90cb8f310","system_id":"levelo_inurba_marseille","lat":43.26509,"lon":5.39536,"is_reserved":false,"is_disabled":false,"rental_uris":{"android":"levelo://app?vid=397b40ef-e642-4ce8-b87d-dcb90cb8f310","ios":"levelo://app?vid=397b40ef-e642-4ce8-b87d-dcb90cb8f310"},"vehicle_type_id":"4","last_reported":1730391061,"current_range_meters":38000,"station_id":"ce4bhi12rcd13ifvqfq0","pricing_plan_id":"cebpf4jnsgd1na2vs0mg"},{"bike_id":"ae5aeaee-a0e8-4057-897c-c757a4b3d50e","system_id":"levelo_inurba_marseille","lat":43.32662,"lon":5.40995,"is_reserved":false,"is_disabled":false,"rental_uris":{"android":"levelo://app?vid=ae5aeaee-a0e8-4057-897c-c757a4b3d50e","ios":"levelo://app?vid=ae5aeaee-a0e8-4057-897c-c757a4b3d50e"},"vehicle_type_id":"4","last_reported":1730391061,"current_range_meters":22800,"station_id":"ce4bhpp2rcd13ifvqhgg","pricing_plan_id":"cebpf4jnsgd1na2vs0mg"},{"bike_id":"1a455bdb-5be3-45d2-99d9-7d27db5d8cc9","system_id":"levelo_inurba_marseille","lat":43.26498,"lon":5.39537,"is_reserved":false,"is_disabled":false,"rental_uris":{"android":"levelo://app?vid=1a455bdb-5be3-45d2-99d9-7d27db5d8cc9","ios":"levelo://app?vid=1a455bdb-5be3-45d2-99d9-7d27db5d8cc9"},"vehicle_type_id":"4","last_reported":1730391061,"current_range_meters":9200,"station_id":"ce4bhi12rcd13ifvqfq0","pricing_plan_id":"cebpf4jnsgd1na2vs0mg"},{"bike_id":"c7062143-883c-4404-b824-f1ffb0b0927c","system_id":"levelo_inurba_marseille","lat":43.29627,"lon":5.40602,"is_reserved":false,"is_disabled":false,"rental_uris":{"android":"levelo://app?vid=c7062143-883c-4404-b824-f1ffb0b0927c","ios":"levelo://app?vid=c7062143-883c-4404-b824-f1ffb0b0927c"},"vehicle_type_id":"4","last_reported":1730391061,"current_range_meters":38800,"station_id":"ce4bh0h2rcd13ifvqd60","pricing_plan_id":"cebpf4jnsgd1na2vs0mg"},{"bike_id":"6c31dcd7-d395-402b-a543-6d162f830800","system_id":"levelo_inurba_marseille","lat":43.29303,"lon":5.37163,"is_reserved":false,"is_disabled":false,"rental_uris":{"android":"levelo://app?vid=6c31dcd7-d395-402b-a543-6d162f830800","ios":"levelo://app?vid=6c31dcd7-d395-402b-a543-6d162f830800"},"vehicle_type_id":"4","last_reported":1730391061,"current_range_meters":37600,"station_id":"ce4bgh92rcd13ifvqb40","pricing_plan_id":"cebpf4jnsgd1na2vs0mg"},{"bike_id":"9900f257-4c69-4cba-829d-066dbdd5532a","system_id":"levelo_inurba_marseille","lat":43.28399,"lon":5.37526,"is_reserved":false,"is_disabled":false,"rental_uris":{"android":"levelo://app?vid=9900f257-4c69-4cba-829d-066dbdd5532a","ios":"levelo://app?vid=9900f257-4c69-4cba-829d-066dbdd5532a"},"vehicle_type_id":"4","last_reported":1730391061,"current_range_meters":33600,"station_id":"ce4bh412rcd13ifvqds0","pricing_plan_id":"cebpf4jnsgd1na2vs0mg"},{"bike_id":"df1aaf6f-cafa-4179-bb1b-e470c4e1a0f9","system_id":"levelo_inurba_marseille","lat":43.28865,"lon":5.35844,"is_reserved":false,"is_disabled":false,"rental_uris":{"android":"levelo://app?vid=df1aaf6f-cafa-4179-bb1b-e470c4e1a0f9","ios":"levelo://app?vid=df1aaf6f-cafa-4179-bb1b-e470c4e1a0f9"},"vehicle_type_id":"4","last_reported":1730391061,"current_range_meters":2000,"station_id":"ce4bhb12rcd13ifvqem0","pricing_plan_id":"cebpf4jnsgd1na2vs0mg"},{"bike_id":"122231cb-4422-4960-b5b8-3c4780eb61fd","system_id":"levelo_inurba_marseille","lat":43.27371,"lon":5.36262,"is_reserved":false,"is_disabled":false,"rental_uris":{"android":"levelo://app?vid=122231cb-4422-4960-b5b8-3c4780eb61fd","ios":"levelo://app?vid=122231cb-4422-4960-b5b8-3c4780eb61fd"},"vehicle_type_id":"4","last_reported":1730391061,"current_range_meters":16400,"station_id":"ce4bhbh2rcd13ifvqeo0","pricing_plan_id":"cebpf4jnsgd1na2vs0mg"},{"bike_id":"c2459000-1c6e-43e1-a9cb-c00363fbb88d","system_id":"levelo_inurba_marseille","lat":43.32657,"lon":5.41002,"is_reserved":false,"is_disabled":false,"rental_uris":{"android":"levelo://app?vid=c2459000-1c6e-43e1-a9cb-c00363fbb88d","ios":"levelo://app?vid=c2459000-1c6e-43e1-a9cb-c00363fbb88d"},"vehicle_type_id":"4","last_reported":1730391061,"current_range_meters":8000,"station_id":"ce4bhpp2rcd13ifvqhgg","pricing_plan_id":"cebpf4jnsgd1na2vs0mg"},{"bike_id":"1d049270-233c-4960-ba93-d152bc4bf621","system_id":"levelo_inurba_marseille","lat":43.28418,"lon":5.3502,"is_reserved":false,"is_disabled":false,"rental_uris":{"android":"levelo://app?vid=1d049270-233c-4960-ba93-d152bc4bf621","ios":"levelo://app?vid=1d049270-233c-4960-ba93-d152bc4bf621"},"vehicle_type_id":"4","last_reported":1730391061,"current_range_meters":10800,"station_id":"ce4bhbh2rcd13ifvqepg","pricing_plan_id":"cebpf4jnsgd1na2vs0mg"},{"bike_id":"c426ec61-3379-4e06-8a88-708489cc4883","system_id":"levelo_inurba_marseille","lat":43.28043,"lon":5.36944,"is_reserved":false,"is_disabled":false,"rental_uris":{"android":"levelo://app?vid=c426ec61-3379-4e06-8a88-708489cc4883","ios":"levelo://app?vid=c426ec61-3379-4e06-8a88-708489cc4883"},"vehicle_type_id":"4","last_reported":1730391061,"current_range_meters":12400,"station_id":"ce4bha12rcd13ifvqef0","pricing_plan_id":"cebpf4jnsgd1na2vs0mg"},{"bike_id":"c972bcd0-a579-482d-80a2-504f3037d75b","system_id":"levelo_inurba_marseille","lat":43.24167,"lon":5.36395,"is_reserved":false,"is_disabled":false,"rental_uris":{"android":"levelo://app?vid=c972bcd0-a579-482d-80a2-504f3037d75b","ios":"levelo://app?vid=c972bcd0-a579-482d-80a2-504f3037d75b"},"vehicle_type_id":"4","last_reported":1730391061,"current_range_meters":7200,"station_id":"cpo36qri1sfpv3e86is0","pricing_plan_id":"cebpf4jnsgd1na2vs0mg"},{"bike_id":"790c0ed7-3e10-4dba-9f5f-614e69a71846","system_id":"levelo_inurba_marseille","lat":43.30422,"lon":5.38887,"is_reserved":false,"is_disabled":false,"rental_uris":{"android":"levelo://app?vid=790c0ed7-3e10-4dba-9f5f-614e69a71846","ios":"levelo://app?vid=790c0ed7-3e10-4dba-9f5f-614e69a71846"},"vehicle_type_id":"4","last_reported":1730391061,"current_range_meters":38800,"station_id":"ce4bgk12rcd13ifvqbi0","pricing_plan_id":"cebpf4jnsgd1na2vs0mg"},{"bike_id":"aa26a647-c4e0-4b9d-ad63-8a4860aee162","system_id":"levelo_inurba_marseille","lat":43.27073,"lon":5.42273,"is_reserved":false,"is_disabled":false,"rental_uris":{"android":"levelo://app?vid=aa26a647-c4e0-4b9d-ad63-8a4860aee162","ios":"levelo://app?vid=aa26a647-c4e0-4b9d-ad63-8a4860aee162"},"vehicle_type_id":"4","last_reported":1730391061,"current_range_meters":10800,"station_id":"ce4bhk92rcd13ifvqgb0","pricing_plan_id":"cebpf4jnsgd1na2vs0mg"},{"bike_id":"97a2022e-352f-4115-9cec-e05b411d0be3","system_id":"levelo_inurba_marseille","lat":43.27905,"lon":5.38014,"is_reserved":false,"is_disabled":false,"rental_uris":{"android":"levelo://app?vid=97a2022e-352f-4115-9cec-e05b411d0be3","ios":"levelo://app?vid=97a2022e-352f-4115-9cec-e05b411d0be3"},"vehicle_type_id":"4","last_reported":1730391061,"current_range_meters":23200,"station_id":"ce4bhf92rcd13ifvqf50","pricing_plan_id":"cebpf4jnsgd1na2vs0mg"},{"bike_id":"b7bc0bf5-a927-4a14-a5c3-262b04d3faff","system_id":"levelo_inurba_marseille","lat":43.31116,"lon":5.37772,"is_reserved":false,"is_disabled":false,"rental_uris":{"android":"levelo://app?vid=b7bc0bf5-a927-4a14-a5c3-262b04d3faff","ios":"levelo://app?vid=b7bc0bf5-a927-4a14-a5c3-262b04d3faff"},"vehicle_type_id":"4","last_reported":1730391061,"current_range_meters":30800,"station_id":"ce4bgt92rcd13ifvqcg0","pricing_plan_id":"cebpf4jnsgd1na2vs0mg"},{"bike_id":"ddea7ab2-ec17-400b-81e6-67e2d6ce01eb","system_id":"levelo_inurba_marseille","lat":43.303882,"lon":5.40757,"is_reserved":false,"is_disabled":false,"rental_uris":{"android":"levelo://app?vid=ddea7ab2-ec17-400b-81e6-67e2d6ce01eb","ios":"levelo://app?vid=ddea7ab2-ec17-400b-81e6-67e2d6ce01eb"},"vehicle_type_id":"4","last_reported":1730391061,"current_range_meters":8400,"station_id":"","pricing_plan_id":"cebpf4jnsgd1na2vs0mg"},{"bike_id":"53facf4a-a53f-4009-81d5-6390ac637137","system_id":"levelo_inurba_marseille","lat":43.32482,"lon":5.36568,"is_reserved":false,"is_disabled":false,"rental_uris":{"android":"levelo://app?vid=53facf4a-a53f-4009-81d5-6390ac637137","ios":"levelo://app?vid=53facf4a-a53f-4009-81d5-6390ac637137"},"vehicle_type_id":"4","last_reported":1730391061,"current_range_meters":37600,"station_id":"ce4bhs12rcd13ifvqhvg","pricing_plan_id":"cebpf4jnsgd1na2vs0mg"},{"bike_id":"6befc4bf-a30e-4f12-b448-09b588578734","system_id":"levelo_inurba_marseille","lat":43.27373,"lon":5.36257,"is_reserved":false,"is_disabled":false,"rental_uris":{"android":"levelo://app?vid=6befc4bf-a30e-4f12-b448-09b588578734","ios":"levelo://app?vid=6befc4bf-a30e-4f12-b448-09b588578734"},"vehicle_type_id":"4","last_reported":1730391061,"current_range_meters":28800,"station_id":"ce4bhbh2rcd13ifvqeo0","pricing_plan_id":"cebpf4jnsgd1na2vs0mg"},{"bike_id":"dfdfa3e5-4b3c-42d0-b505-7b4894fcc000","system_id":"levelo_inurba_marseille","lat":43.25584,"lon":5.38232,"is_reserved":false,"is_disabled":false,"rental_uris":{"android":"levelo://app?vid=dfdfa3e5-4b3c-42d0-b505-7b4894fcc000","ios":"levelo://app?vid=dfdfa3e5-4b3c-42d0-b505-7b4894fcc000"},"vehicle_type_id":"4","last_reported":1730391061,"current_range_meters":38800,"station_id":"ce4bhih2rcd13ifvqfs0","pricing_plan_id":"cebpf4jnsgd1na2vs0mg"},{"bike_id":"fc1e9639-070e-4eee-ba55-610efb2b6f49","system_id":"levelo_inurba_marseille","lat":43.28862,"lon":5.35856,"is_reserved":false,"is_disabled":false,"rental_uris":{"android":"levelo://app?vid=fc1e9639-070e-4eee-ba55-610efb2b6f49","ios":"levelo://app?vid=fc1e9639-070e-4eee-ba55-610efb2b6f49"},"vehicle_type_id":"4","last_reported":1730391061,"current_range_meters":11600,"station_id":"ce4bhb12rcd13ifvqem0","pricing_plan_id":"cebpf4jnsgd1na2vs0mg"},{"bike_id":"a5132ab3-6aaf-45f5-a5b3-29b8425df18b","system_id":"levelo_inurba_marseille","lat":43.30432,"lon":5.38881,"is_reserved":false,"is_disabled":false,"rental_uris":{"android":"levelo://app?vid=a5132ab3-6aaf-45f5-a5b3-29b8425df18b","ios":"levelo://app?vid=a5132ab3-6aaf-45f5-a5b3-29b8425df18b"},"vehicle_type_id":"4","last_reported":1730391061,"current_range_meters":20400,"station_id":"ce4bgk12rcd13ifvqbi0","pricing_plan_id":"cebpf4jnsgd1na2vs0mg"},{"bike_id":"d7dc9521-002c-471a-9b1b-62edbb579d24","system_id":"levelo_inurba_marseille","lat":43.2836,"lon":5.38633,"is_reserved":false,"is_disabled":false,"rental_uris":{"android":"levelo://app?vid=d7dc9521-002c-471a-9b1b-62edbb579d24","ios":"levelo://app?vid=d7dc9521-002c-471a-9b1b-62edbb579d24"},"vehicle_type_id":"4","last_reported":1730391061,"current_range_meters":35200,"station_id":"ce4bh492rcd13ifvqdvg","pricing_plan_id":"cebpf4jnsgd1na2vs0mg"},{"bike_id":"fde65b28-1ff5-486b-95fb-97e1f9d67af9","system_id":"levelo_inurba_marseille","lat":43.32367,"lon":5.38886,"is_reserved":false,"is_disabled":false,"rental_uris":{"android":"levelo://app?vid=fde65b28-1ff5-486b-95fb-97e1f9d67af9","ios":"levelo://app?vid=fde65b28-1ff5-486b-95fb-97e1f9d67af9"},"vehicle_type_id":"4","last_reported":1730391061,"current_range_meters":22400,"station_id":"ce4bhqp2rcd13ifvqhog","pricing_plan_id":"cebpf4jnsgd1na2vs0mg"},{"bike_id":"0336e060-716c-48da-8261-c1175f0d75c1","system_id":"levelo_inurba_marseille","lat":43.3266,"lon":5.41,"is_reserved":false,"is_disabled":false,"rental_uris":{"android":"levelo://app?vid=0336e060-716c-48da-8261-c1175f0d75c1","ios":"levelo://app?vid=0336e060-716c-48da-8261-c1175f0d75c1"},"vehicle_type_id":"4","last_reported":1730391061,"current_range_meters":16000,"station_id":"ce4bhpp2rcd13ifvqhgg","pricing_plan_id":"cebpf4jnsgd1na2vs0mg"},{"bike_id":"1c16d6d3-6a16-4039-9339-a5ee09eb69da","system_id":"levelo_inurba_marseille","lat":43.31687,"lon":5.40472,"is_reserved":false,"is_disabled":false,"rental_uris":{"android":"levelo://app?vid=1c16d6d3-6a16-4039-9339-a5ee09eb69da","ios":"levelo://app?vid=1c16d6d3-6a16-4039-9339-a5ee09eb69da"},"vehicle_type_id":"4","last_reported":1730391061,"current_range_meters":19200,"station_id":"ce4bh012rcd13ifvqd00","pricing_plan_id":"cebpf4jnsgd1na2vs0mg"},{"bike_id":"1e9e2a4e-784b-4b7d-8a1d-bfdbb8b887b2","system_id":"levelo_inurba_marseille","lat":43.29442,"lon":5.39719,"is_reserved":false,"is_disabled":false,"rental_uris":{"android":"levelo://app?vid=1e9e2a4e-784b-4b7d-8a1d-bfdbb8b887b2","ios":"levelo://app?vid=1e9e2a4e-784b-4b7d-8a1d-bfdbb8b887b2"},"vehicle_type_id":"4","last_reported":1730391061,"current_range_meters":36400,"station_id":"ce4bh3h2rcd13ifvqdo0","pricing_plan_id":"cebpf4jnsgd1na2vs0mg"},{"bike_id":"16fd998a-eacb-45e0-901e-a85b62403d96","system_id":"levelo_inurba_marseille","lat":43.27072,"lon":5.4228,"is_reserved":false,"is_disabled":false,"rental_uris":{"android":"levelo://app?vid=16fd998a-eacb-45e0-901e-a85b62403d96","ios":"levelo://app?vid=16fd998a-eacb-45e0-901e-a85b62403d96"},"vehicle_type_id":"4","last_reported":1730391061,"current_range_meters":29600,"station_id":"ce4bhk92rcd13ifvqgb0","pricing_plan_id":"cebpf4jnsgd1na2vs0mg"},{"bike_id":"5ff74640-5d39-40f8-808a-e5695df59fd4","system_id":"levelo_inurba_marseille","lat":43.271966,"lon":5.410229,"is_reserved":false,"is_disabled":false,"rental_uris":{"android":"levelo://app?vid=5ff74640-5d39-40f8-808a-e5695df59fd4","ios":"levelo://app?vid=5ff74640-5d39-40f8-808a-e5695df59fd4"},"vehicle_type_id":"4","last_reported":1730391061,"current_range_meters":6800,"station_id":"ce4bhl12rcd13ifvqgf0","pricing_plan_id":"cebpf4jnsgd1na2vs0mg"},{"bike_id":"84e2b042-2c79-4878-a2d2-5d6cd154cfca","system_id":"levelo_inurba_marseille","lat":43.28426,"lon":5.35001,"is_reserved":false,"is_disabled":false,"rental_uris":{"android":"levelo://app?vid=84e2b042-2c79-4878-a2d2-5d6cd154cfca","ios":"levelo://app?vid=84e2b042-2c79-4878-a2d2-5d6cd154cfca"},"vehicle_type_id":"4","last_reported":1730391061,"current_range_meters":38800,"station_id":"ce4bhbh2rcd13ifvqepg","pricing_plan_id":"cebpf4jnsgd1na2vs0mg"},{"bike_id":"5b794f29-e9dd-41e4-bb72-a9e9de13250b","system_id":"levelo_inurba_marseille","lat":43.31362,"lon":5.38477,"is_reserved":false,"is_disabled":false,"rental_uris":{"android":"levelo://app?vid=5b794f29-e9dd-41e4-bb72-a9e9de13250b","ios":"levelo://app?vid=5b794f29-e9dd-41e4-bb72-a9e9de13250b"},"vehicle_type_id":"4","last_reported":1730391061,"current_range_meters":33200,"station_id":"ce4bgt92rcd13ifvqcf0","pricing_plan_id":"cebpf4jnsgd1na2vs0mg"},{"bike_id":"3480b619-6d92-481e-96bc-6fb9f9014634","system_id":"levelo_inurba_marseille","lat":43.32048,"lon":5.41555,"is_reserved":false,"is_disabled":false,"rental_uris":{"android":"levelo://app?vid=3480b619-6d92-481e-96bc-6fb9f9014634","ios":"levelo://app?vid=3480b619-6d92-481e-96bc-6fb9f9014634"},"vehicle_type_id":"4","last_reported":1730391061,"current_range_meters":6800,"station_id":"ce4bhq92rcd13ifvqhkg","pricing_plan_id":"cebpf4jnsgd1na2vs0mg"},{"bike_id":"0cb1e360-52ab-481b-9c27-4c2df9b31c15","system_id":"levelo_inurba_marseille","lat":43.27676,"lon":5.38864,"is_reserved":false,"is_disabled":false,"rental_uris":{"android":"levelo://app?vid=0cb1e360-52ab-481b-9c27-4c2df9b31c15","ios":"levelo://app?vid=0cb1e360-52ab-481b-9c27-4c2df9b31c15"},"vehicle_type_id":"4","last_reported":1730391061,"current_range_meters":28000,"station_id":"ce4bhi12rcd13ifvqfo0","pricing_plan_id":"cebpf4jnsgd1na2vs0mg"},{"bike_id":"478ef703-800a-43a8-9793-0b9d77d6e0ea","system_id":"levelo_inurba_marseille","lat":43.254971,"lon":5.376473,"is_reserved":false,"is_disabled":false,"rental_uris":{"android":"levelo://app?vid=478ef703-800a-43a8-9793-0b9d77d6e0ea","ios":"levelo://app?vid=478ef703-800a-43a8-9793-0b9d77d6e0ea"},"vehicle_type_id":"4","last_reported":1730391061,"current_range_meters":35600,"station_id":"ce4bhh12rcd13ifvqff0","pricing_plan_id":"cebpf4jnsgd1na2vs0mg"},{"bike_id":"b654f0da-98aa-4325-9ea4-365a1a75912d","system_id":"levelo_inurba_marseille","lat":43.27918,"lon":5.39576,"is_reserved":false,"is_disabled":false,"rental_uris":{"android":"levelo://app?vid=b654f0da-98aa-4325-9ea4-365a1a75912d","ios":"levelo://app?vid=b654f0da-98aa-4325-9ea4-365a1a75912d"},"vehicle_type_id":"4","last_reported":1730391061,"current_range_meters":8400,"station_id":"ce4bh692rcd13ifvqea0","pricing_plan_id":"cebpf4jnsgd1na2vs0mg"},{"bike_id":"654e6c85-c7a0-4fba-b228-17b6bfa33ba6","system_id":"levelo_inurba_marseille","lat":43.24186,"lon":5.39738,"is_reserved":false,"is_disabled":false,"rental_uris":{"android":"levelo://app?vid=654e6c85-c7a0-4fba-b228-17b6bfa33ba6","ios":"levelo://app?vid=654e6c85-c7a0-4fba-b228-17b6bfa33ba6"},"vehicle_type_id":"4","last_reported":1730391061,"current_range_meters":36000,"station_id":"ce4bhn12rcd13ifvqgpg","pricing_plan_id":"cebpf4jnsgd1na2vs0mg"},{"bike_id":"7265bb35-d2ff-4e68-a14c-12906361f4fb","system_id":"levelo_inurba_marseille","lat":43.26194,"lon":5.37455,"is_reserved":false,"is_disabled":false,"rental_uris":{"android":"levelo://app?vid=7265bb35-d2ff-4e68-a14c-12906361f4fb","ios":"levelo://app?vid=7265bb35-d2ff-4e68-a14c-12906361f4fb"},"vehicle_type_id":"4","last_reported":1730391061,"current_range_meters":20800,"station_id":"ce4bhgp2rcd13ifvqfc0","pricing_plan_id":"cebpf4jnsgd1na2vs0mg"},{"bike_id":"7b424b81-102d-494f-9380-f72e2ac7ea9c","system_id":"levelo_inurba_marseille","lat":43.32002,"lon":5.38162,"is_reserved":false,"is_disabled":false,"rental_uris":{"android":"levelo://app?vid=7b424b81-102d-494f-9380-f72e2ac7ea9c","ios":"levelo://app?vid=7b424b81-102d-494f-9380-f72e2ac7ea9c"},"vehicle_type_id":"4","last_reported":1730391061,"current_range_meters":17600,"station_id":"ce4bhr12rcd13ifvqhpg","pricing_plan_id":"cebpf4jnsgd1na2vs0mg"},{"bike_id":"e10f67ce-3e8a-4ce6-9b6c-86f71e61e624","system_id":"levelo_inurba_marseille","lat":43.231995,"lon":5.355699,"is_reserved":false,"is_disabled":false,"rental_uris":{"android":"levelo://app?vid=e10f67ce-3e8a-4ce6-9b6c-86f71e61e624","ios":"levelo://app?vid=e10f67ce-3e8a-4ce6-9b6c-86f71e61e624"},"vehicle_type_id":"4","last_reported":1730391061,"current_range_meters":34800,"station_id":"ce4bhu92rcd13ifvqi70","pricing_plan_id":"cebpf4jnsgd1na2vs0mg"},{"bike_id":"22e5e5c1-6dbf-40f4-b818-a64e5c930397","system_id":"levelo_inurba_marseille","lat":43.23963,"lon":5.3664,"is_reserved":false,"is_disabled":false,"rental_uris":{"android":"levelo://app?vid=22e5e5c1-6dbf-40f4-b818-a64e5c930397","ios":"levelo://app?vid=22e5e5c1-6dbf-40f4-b818-a64e5c930397"},"vehicle_type_id":"4","last_reported":1730391061,"current_range_meters":28800,"station_id":"ce4bhi12rcd13ifvqfp0","pricing_plan_id":"cebpf4jnsgd1na2vs0mg"},{"bike_id":"32fab326-371d-49e1-9e01-c1a9db98361a","system_id":"levelo_inurba_marseille","lat":43.30301,"lon":5.36866,"is_reserved":false,"is_disabled":false,"rental_uris":{"android":"levelo://app?vid=32fab326-371d-49e1-9e01-c1a9db98361a","ios":"levelo://app?vid=32fab326-371d-49e1-9e01-c1a9db98361a"},"vehicle_type_id":"4","last_reported":1730391061,"current_range_meters":4400,"station_id":"ce4bgqh2rcd13ifvqc5g","pricing_plan_id":"cebpf4jnsgd1na2vs0mg"},{"bike_id":"f99547b6-e0b7-4a86-b4bb-f600f8ca5cb2","system_id":"levelo_inurba_marseille","lat":43.24168,"lon":5.36401,"is_reserved":false,"is_disabled":false,"rental_uris":{"android":"levelo://app?vid=f99547b6-e0b7-4a86-b4bb-f600f8ca5cb2","ios":"levelo://app?vid=f99547b6-e0b7-4a86-b4bb-f600f8ca5cb2"},"vehicle_type_id":"4","last_reported":1730391061,"current_range_meters":10000,"station_id":"cpo36qri1sfpv3e86is0","pricing_plan_id":"cebpf4jnsgd1na2vs0mg"},{"bike_id":"7a065b52-dc33-480b-8b90-ea415a27d5eb","system_id":"levelo_inurba_marseille","lat":43.3107,"lon":5.38378,"is_reserved":false,"is_disabled":false,"rental_uris":{"android":"levelo://app?vid=7a065b52-dc33-480b-8b90-ea415a27d5eb","ios":"levelo://app?vid=7a065b52-dc33-480b-8b90-ea415a27d5eb"},"vehicle_type_id":"4","last_reported":1730391061,"current_range_meters":38400,"station_id":"ce4bgv92rcd13ifvqcr0","pricing_plan_id":"cebpf4jnsgd1na2vs0mg"},{"bike_id":"ba931bf9-5ef6-46d5-9d00-6650e8494665","system_id":"levelo_inurba_marseille","lat":43.30783,"lon":5.37649,"is_reserved":false,"is_disabled":false,"rental_uris":{"android":"levelo://app?vid=ba931bf9-5ef6-46d5-9d00-6650e8494665","ios":"levelo://app?vid=ba931bf9-5ef6-46d5-9d00-6650e8494665"},"vehicle_type_id":"4","last_reported":1730391061,"current_range_meters":18800,"station_id":"ce4bgv92rcd13ifvqcq0","pricing_plan_id":"cebpf4jnsgd1na2vs0mg"},{"bike_id":"d24a84ff-a6f2-46c4-9081-c8b941261ed6","system_id":"levelo_inurba_marseille","lat":43.28413,"lon":5.37513,"is_reserved":false,"is_disabled":false,"rental_uris":{"android":"levelo://app?vid=d24a84ff-a6f2-46c4-9081-c8b941261ed6","ios":"levelo://app?vid=d24a84ff-a6f2-46c4-9081-c8b941261ed6"},"vehicle_type_id":"4","last_reported":1730391061,"current_range_meters":19200,"station_id":"ce4bh412rcd13ifvqds0","pricing_plan_id":"cebpf4jnsgd1na2vs0mg"},{"bike_id":"6bbf7eea-db33-426a-a150-71256804695b","system_id":"levelo_inurba_marseille","lat":43.30419,"lon":5.39761,"is_reserved":false,"is_disabled":false,"rental_uris":{"android":"levelo://app?vid=6bbf7eea-db33-426a-a150-71256804695b","ios":"levelo://app?vid=6bbf7eea-db33-426a-a150-71256804695b"},"vehicle_type_id":"4","last_reported":1730391061,"current_range_meters":37600,"station_id":"ce4bh092rcd13ifvqd20","pricing_plan_id":"cebpf4jnsgd1na2vs0mg"},{"bike_id":"72e37474-1bc8-4568-aec8-ce5464e6b828","system_id":"levelo_inurba_marseille","lat":43.2319,"lon":5.35549,"is_reserved":false,"is_disabled":false,"rental_uris":{"android":"levelo://app?vid=72e37474-1bc8-4568-aec8-ce5464e6b828","ios":"levelo://app?vid=72e37474-1bc8-4568-aec8-ce5464e6b828"},"vehicle_type_id":"4","last_reported":1730391061,"current_range_meters":24400,"station_id":"ce4bhu92rcd13ifvqi70","pricing_plan_id":"cebpf4jnsgd1na2vs0mg"},{"bike_id":"274abb59-612b-4266-8dff-2d5abeb84966","system_id":"levelo_inurba_marseille","lat":43.29626,"lon":5.37166,"is_reserved":false,"is_disabled":false,"rental_uris":{"android":"levelo://app?vid=274abb59-612b-4266-8dff-2d5abeb84966","ios":"levelo://app?vid=274abb59-612b-4266-8dff-2d5abeb84966"},"vehicle_type_id":"4","last_reported":1730391061,"current_range_meters":400,"station_id":"ce4bgnh2rcd13ifvqc0g","pricing_plan_id":"cebpf4jnsgd1na2vs0mg"},{"bike_id":"1205d633-4986-4c67-9432-2d423a89c40d","system_id":"levelo_inurba_marseille","lat":43.27181,"lon":5.40992,"is_reserved":false,"is_disabled":false,"rental_uris":{"android":"levelo://app?vid=1205d633-4986-4c67-9432-2d423a89c40d","ios":"levelo://app?vid=1205d633-4986-4c67-9432-2d423a89c40d"},"vehicle_type_id":"4","last_reported":1730391061,"current_range_meters":33200,"station_id":"ce4bhl12rcd13ifvqgf0","pricing_plan_id":"cebpf4jnsgd1na2vs0mg"},{"bike_id":"07e290d0-bc47-4ef7-8b59-216627f56f1c","system_id":"levelo_inurba_marseille","lat":43.3025,"lon":5.40078,"is_reserved":false,"is_disabled":false,"rental_uris":{"android":"levelo://app?vid=07e290d0-bc47-4ef7-8b59-216627f56f1c","ios":"levelo://app?vid=07e290d0-bc47-4ef7-8b59-216627f56f1c"},"vehicle_type_id":"4","last_reported":1730391061,"current_range_meters":3600,"station_id":"ce4bgvh2rcd13ifvqcs0","pricing_plan_id":"cebpf4jnsgd1na2vs0mg"},{"bike_id":"3c07b76a-6f9b-42d9-b43a-98d28ab9aacb","system_id":"levelo_inurba_marseille","lat":43.28408,"lon":5.34998,"is_reserved":false,"is_disabled":false,"rental_uris":{"android":"levelo://app?vid=3c07b76a-6f9b-42d9-b43a-98d28ab9aacb","ios":"levelo://app?vid=3c07b76a-6f9b-42d9-b43a-98d28ab9aacb"},"vehicle_type_id":"4","last_reported":1730391061,"current_range_meters":27200,"station_id":"ce4bhbh2rcd13ifvqepg","pricing_plan_id":"cebpf4jnsgd1na2vs0mg"},{"bike_id":"7c626da9-1050-4d14-b063-ee3a735b369b","system_id":"levelo_inurba_marseille","lat":43.30099,"lon":5.39074,"is_reserved":false,"is_disabled":false,"rental_uris":{"android":"levelo://app?vid=7c626da9-1050-4d14-b063-ee3a735b369b","ios":"levelo://app?vid=7c626da9-1050-4d14-b063-ee3a735b369b"},"vehicle_type_id":"4","last_reported":1730391061,"current_range_meters":36000,"station_id":"ce4bh192rcd13ifvqdb0","pricing_plan_id":"cebpf4jnsgd1na2vs0mg"},{"bike_id":"f25e0a66-bea1-4989-acdb-65e1a608a429","system_id":"levelo_inurba_marseille","lat":43.28976,"lon":5.37841,"is_reserved":false,"is_disabled":false,"rental_uris":{"android":"levelo://app?vid=f25e0a66-bea1-4989-acdb-65e1a608a429","ios":"levelo://app?vid=f25e0a66-bea1-4989-acdb-65e1a608a429"},"vehicle_type_id":"4","last_reported":1730391061,"current_range_meters":28400,"station_id":"ce4bh9p2rcd13ifvqed0","pricing_plan_id":"cebpf4jnsgd1na2vs0mg"},{"bike_id":"1f60d9ba-53e9-4c33-a8bb-4668ccf1578a","system_id":"levelo_inurba_marseille","lat":43.29534,"lon":5.39398,"is_reserved":false,"is_disabled":false,"rental_uris":{"android":"levelo://app?vid=1f60d9ba-53e9-4c33-a8bb-4668ccf1578a","ios":"levelo://app?vid=1f60d9ba-53e9-4c33-a8bb-4668ccf1578a"},"vehicle_type_id":"4","last_reported":1730391061,"current_range_meters":38800,"station_id":"ce4bh292rcd13ifvqdf0","pricing_plan_id":"cebpf4jnsgd1na2vs0mg"},{"bike_id":"ad1d32c9-a23b-4e8a-bb6a-90b6bc1f76ff","system_id":"levelo_inurba_marseille","lat":43.2694,"lon":5.40256,"is_reserved":false,"is_disabled":false,"rental_uris":{"android":"levelo://app?vid=ad1d32c9-a23b-4e8a-bb6a-90b6bc1f76ff","ios":"levelo://app?vid=ad1d32c9-a23b-4e8a-bb6a-90b6bc1f76ff"},"vehicle_type_id":"4","last_reported":1730391061,"current_range_meters":8000,"station_id":"cjm6bp8fraef2m0cb0m0","pricing_plan_id":"cebpf4jnsgd1na2vs0mg"},{"bike_id":"56604c5c-f315-4fd1-afc7-6bbb18f08509","system_id":"levelo_inurba_marseille","lat":43.28272,"lon":5.35077,"is_reserved":false,"is_disabled":false,"rental_uris":{"android":"levelo://app?vid=56604c5c-f315-4fd1-afc7-6bbb18f08509","ios":"levelo://app?vid=56604c5c-f315-4fd1-afc7-6bbb18f08509"},"vehicle_type_id":"4","last_reported":1730391061,"current_range_meters":34800,"station_id":"ce4bhbp2rcd13ifvqerg","pricing_plan_id":"cebpf4jnsgd1na2vs0mg"},{"bike_id":"b9252425-8269-4366-a891-0a5f81cc45cd","system_id":"levelo_inurba_marseille","lat":43.33023,"lon":5.3904,"is_reserved":false,"is_disabled":false,"rental_uris":{"android":"levelo://app?vid=b9252425-8269-4366-a891-0a5f81cc45cd","ios":"levelo://app?vid=b9252425-8269-4366-a891-0a5f81cc45cd"},"vehicle_type_id":"4","last_reported":1730391061,"current_range_meters":4400,"station_id":"ce4bhr92rcd13ifvqhrg","pricing_plan_id":"cebpf4jnsgd1na2vs0mg"},{"bike_id":"aa9d88a0-daf2-4d34-8ddb-f0c8bb7d59e8","system_id":"levelo_inurba_marseille","lat":43.28269,"lon":5.35079,"is_reserved":false,"is_disabled":false,"rental_uris":{"android":"levelo://app?vid=aa9d88a0-daf2-4d34-8ddb-f0c8bb7d59e8","ios":"levelo://app?vid=aa9d88a0-daf2-4d34-8ddb-f0c8bb7d59e8"},"vehicle_type_id":"4","last_reported":1730391061,"current_range_meters":30400,"station_id":"ce4bhbp2rcd13ifvqerg","pricing_plan_id":"cebpf4jnsgd1na2vs0mg"},{"bike_id":"4a81e707-37f0-4c72-9cf0-6fba4814c95e","system_id":"levelo_inurba_marseille","lat":43.29225,"lon":5.36054,"is_reserved":false,"is_disabled":false,"rental_uris":{"android":"levelo://app?vid=4a81e707-37f0-4c72-9cf0-6fba4814c95e","ios":"levelo://app?vid=4a81e707-37f0-4c72-9cf0-6fba4814c95e"},"vehicle_type_id":"4","last_reported":1730391061,"current_range_meters":35600,"station_id":"ce4bhbh2rcd13ifvqeqg","pricing_plan_id":"cebpf4jnsgd1na2vs0mg"},{"bike_id":"1ecd3770-46dc-4f80-950c-054ec50a1111","system_id":"levelo_inurba_marseille","lat":43.29282,"lon":5.3843,"is_reserved":false,"is_disabled":false,"rental_uris":{"android":"levelo://app?vid=1ecd3770-46dc-4f80-950c-054ec50a1111","ios":"levelo://app?vid=1ecd3770-46dc-4f80-950c-054ec50a1111"},"vehicle_type_id":"4","last_reported":1730391061,"current_range_meters":3600,"station_id":"ce4bh692rcd13ifvqea0","pricing_plan_id":"cebpf4jnsgd1na2vs0mg"},{"bike_id":"30cd3637-5231-4451-8b17-3902824e2d98","system_id":"levelo_inurba_marseille","lat":43.31435,"lon":5.393,"is_reserved":false,"is_disabled":false,"rental_uris":{"android":"levelo://app?vid=30cd3637-5231-4451-8b17-3902824e2d98","ios":"levelo://app?vid=30cd3637-5231-4451-8b17-3902824e2d98"},"vehicle_type_id":"4","last_reported":1730391061,"current_range_meters":22400,"station_id":"","pricing_plan_id":"cebpf4jnsgd1na2vs0mg"},{"bike_id":"c9796b02-4270-48f9-9b37-c005ff9bbca9","system_id":"levelo_inurba_marseille","lat":43.28937,"lon":5.36385,"is_reserved":false,"is_disabled":false,"rental_uris":{"android":"levelo://app?vid=c9796b02-4270-48f9-9b37-c005ff9bbca9","ios":"levelo://app?vid=c9796b02-4270-48f9-9b37-c005ff9bbca9"},"vehicle_type_id":"4","last_reported":1730391061,"current_range_meters":8400,"station_id":"ce4bhc92rcd13ifvqetg","pricing_plan_id":"cebpf4jnsgd1na2vs0mg"},{"bike_id":"2ac3ee61-8fc2-4179-8e27-d31bc940d1c4","system_id":"levelo_inurba_marseille","lat":43.29967,"lon":5.38499,"is_reserved":false,"is_disabled":false,"rental_uris":{"android":"levelo://app?vid=2ac3ee61-8fc2-4179-8e27-d31bc940d1c4","ios":"levelo://app?vid=2ac3ee61-8fc2-4179-8e27-d31bc940d1c4"},"vehicle_type_id":"4","last_reported":1730391061,"current_range_meters":17200,"station_id":"ce4bgj92rcd13ifvqbd0","pricing_plan_id":"cebpf4jnsgd1na2vs0mg"},{"bike_id":"400a7102-0c4a-4137-83f3-dad5c8d1be6b","system_id":"levelo_inurba_marseille","lat":43.2951,"lon":5.39029,"is_reserved":false,"is_disabled":false,"rental_uris":{"android":"levelo://app?vid=400a7102-0c4a-4137-83f3-dad5c8d1be6b","ios":"levelo://app?vid=400a7102-0c4a-4137-83f3-dad5c8d1be6b"},"vehicle_type_id":"4","last_reported":1730391061,"current_range_meters":35600,"station_id":"ce4bh3p2rcd13ifvqdp0","pricing_plan_id":"cebpf4jnsgd1na2vs0mg"},{"bike_id":"55e8dde2-617e-4c29-bde2-a7deb8339727","system_id":"levelo_inurba_marseille","lat":43.30208,"lon":5.39475,"is_reserved":false,"is_disabled":false,"rental_uris":{"android":"levelo://app?vid=55e8dde2-617e-4c29-bde2-a7deb8339727","ios":"levelo://app?vid=55e8dde2-617e-4c29-bde2-a7deb8339727"},"vehicle_type_id":"4","last_reported":1730391061,"current_range_meters":32400,"station_id":"ce4bh0p2rcd13ifvqd70","pricing_plan_id":"cebpf4jnsgd1na2vs0mg"},{"bike_id":"3432c503-c146-4793-8df5-9f48e47e417b","system_id":"levelo_inurba_marseille","lat":43.29852,"lon":5.36286,"is_reserved":false,"is_disabled":false,"rental_uris":{"android":"levelo://app?vid=3432c503-c146-4793-8df5-9f48e47e417b","ios":"levelo://app?vid=3432c503-c146-4793-8df5-9f48e47e417b"},"vehicle_type_id":"4","last_reported":1730391061,"current_range_meters":33200,"station_id":"ce4bgpp2rcd13ifvqc3g","pricing_plan_id":"cebpf4jnsgd1na2vs0mg"},{"bike_id":"cb4ad424-437d-46af-a148-21c0d1286e4d","system_id":"levelo_inurba_marseille","lat":43.2997,"lon":5.37192,"is_reserved":false,"is_disabled":false,"rental_uris":{"android":"levelo://app?vid=cb4ad424-437d-46af-a148-21c0d1286e4d","ios":"levelo://app?vid=cb4ad424-437d-46af-a148-21c0d1286e4d"},"vehicle_type_id":"4","last_reported":1730391061,"current_range_meters":28400,"station_id":"ce4bgr92rcd13ifvqc7g","pricing_plan_id":"cebpf4jnsgd1na2vs0mg"},{"bike_id":"9ff34a6e-f6dd-48aa-b22f-65e4b473f896","system_id":"levelo_inurba_marseille","lat":43.30428,"lon":5.39756,"is_reserved":false,"is_disabled":false,"rental_uris":{"android":"levelo://app?vid=9ff34a6e-f6dd-48aa-b22f-65e4b473f896","ios":"levelo://app?vid=9ff34a6e-f6dd-48aa-b22f-65e4b473f896"},"vehicle_type_id":"4","last_reported":1730391061,"current_range_meters":27200,"station_id":"ce4bh092rcd13ifvqd20","pricing_plan_id":"cebpf4jnsgd1na2vs0mg"},{"bike_id":"1995d42f-9bb2-423e-a419-1706f5fab24e","system_id":"levelo_inurba_marseille","lat":43.27067,"lon":5.42278,"is_reserved":false,"is_disabled":false,"rental_uris":{"android":"levelo://app?vid=1995d42f-9bb2-423e-a419-1706f5fab24e","ios":"levelo://app?vid=1995d42f-9bb2-423e-a419-1706f5fab24e"},"vehicle_type_id":"4","last_reported":1730391061,"current_range_meters":28400,"station_id":"ce4bhk92rcd13ifvqgb0","pricing_plan_id":"cebpf4jnsgd1na2vs0mg"},{"bike_id":"248516bd-2643-4a5e-8034-b8a7ad58221d","system_id":"levelo_inurba_marseille","lat":43.25576,"lon":5.38232,"is_reserved":false,"is_disabled":false,"rental_uris":{"android":"levelo://app?vid=248516bd-2643-4a5e-8034-b8a7ad58221d","ios":"levelo://app?vid=248516bd-2643-4a5e-8034-b8a7ad58221d"},"vehicle_type_id":"4","last_reported":1730391061,"current_range_meters":38800,"station_id":"ce4bhih2rcd13ifvqfs0","pricing_plan_id":"cebpf4jnsgd1na2vs0mg"},{"bike_id":"cbd5ea59-c808-4f9f-8cae-109426c348ee","system_id":"levelo_inurba_marseille","lat":43.28411,"lon":5.35003,"is_reserved":false,"is_disabled":false,"rental_uris":{"android":"levelo://app?vid=cbd5ea59-c808-4f9f-8cae-109426c348ee","ios":"levelo://app?vid=cbd5ea59-c808-4f9f-8cae-109426c348ee"},"vehicle_type_id":"4","last_reported":1730391061,"current_range_meters":32000,"station_id":"ce4bhbh2rcd13ifvqepg","pricing_plan_id":"cebpf4jnsgd1na2vs0mg"},{"bike_id":"7424d51d-31f8-4fd5-8351-7ffffd235e84","system_id":"levelo_inurba_marseille","lat":43.27383,"lon":5.36263,"is_reserved":false,"is_disabled":false,"rental_uris":{"android":"levelo://app?vid=7424d51d-31f8-4fd5-8351-7ffffd235e84","ios":"levelo://app?vid=7424d51d-31f8-4fd5-8351-7ffffd235e84"},"vehicle_type_id":"4","last_reported":1730391061,"current_range_meters":38000,"station_id":"ce4bhbh2rcd13ifvqeo0","pricing_plan_id":"cebpf4jnsgd1na2vs0mg"},{"bike_id":"a8bac0ea-4822-4081-be0b-ec849f5cb1ca","system_id":"levelo_inurba_marseille","lat":43.32482,"lon":5.36561,"is_reserved":false,"is_disabled":false,"rental_uris":{"android":"levelo://app?vid=a8bac0ea-4822-4081-be0b-ec849f5cb1ca","ios":"levelo://app?vid=a8bac0ea-4822-4081-be0b-ec849f5cb1ca"},"vehicle_type_id":"4","last_reported":1730391061,"current_range_meters":3600,"station_id":"ce4bhs12rcd13ifvqhvg","pricing_plan_id":"cebpf4jnsgd1na2vs0mg"},{"bike_id":"f8f13c48-d6f2-4935-98a1-048cabaae630","system_id":"levelo_inurba_marseille","lat":43.29547,"lon":5.42292,"is_reserved":false,"is_disabled":false,"rental_uris":{"android":"levelo://app?vid=f8f13c48-d6f2-4935-98a1-048cabaae630","ios":"levelo://app?vid=f8f13c48-d6f2-4935-98a1-048cabaae630"},"vehicle_type_id":"4","last_reported":1730391061,"current_range_meters":14800,"station_id":"ce4bhph2rcd13ifvqhdg","pricing_plan_id":"cebpf4jnsgd1na2vs0mg"},{"bike_id":"94279a57-03c0-47b7-abe3-7226e86fd3b0","system_id":"levelo_inurba_marseille","lat":43.27611,"lon":5.3611,"is_reserved":false,"is_disabled":false,"rental_uris":{"android":"levelo://app?vid=94279a57-03c0-47b7-abe3-7226e86fd3b0","ios":"levelo://app?vid=94279a57-03c0-47b7-abe3-7226e86fd3b0"},"vehicle_type_id":"4","last_reported":1730391061,"current_range_meters":28800,"station_id":"ce4bgj92rcd13ifvqbe0","pricing_plan_id":"cebpf4jnsgd1na2vs0mg"},{"bike_id":"2b7ad954-2153-42d9-a62a-cf7d63fc6b0e","system_id":"levelo_inurba_marseille","lat":43.2841,"lon":5.34998,"is_reserved":false,"is_disabled":false,"rental_uris":{"android":"levelo://app?vid=2b7ad954-2153-42d9-a62a-cf7d63fc6b0e","ios":"levelo://app?vid=2b7ad954-2153-42d9-a62a-cf7d63fc6b0e"},"vehicle_type_id":"4","last_reported":1730391061,"current_range_meters":38800,"station_id":"ce4bhbh2rcd13ifvqepg","pricing_plan_id":"cebpf4jnsgd1na2vs0mg"},{"bike_id":"9e9467dc-08bd-4540-a622-7c942da68b8d","system_id":"levelo_inurba_marseille","lat":43.25576,"lon":5.38234,"is_reserved":false,"is_disabled":false,"rental_uris":{"android":"levelo://app?vid=9e9467dc-08bd-4540-a622-7c942da68b8d","ios":"levelo://app?vid=9e9467dc-08bd-4540-a622-7c942da68b8d"},"vehicle_type_id":"4","last_reported":1730391061,"current_range_meters":3200,"station_id":"ce4bhih2rcd13ifvqfs0","pricing_plan_id":"cebpf4jnsgd1na2vs0mg"},{"bike_id":"e0cfafc4-535a-4e0e-a3a1-93ea7bf954cd","system_id":"levelo_inurba_marseille","lat":43.28712,"lon":5.37944,"is_reserved":false,"is_disabled":false,"rental_uris":{"android":"levelo://app?vid=e0cfafc4-535a-4e0e-a3a1-93ea7bf954cd","ios":"levelo://app?vid=e0cfafc4-535a-4e0e-a3a1-93ea7bf954cd"},"vehicle_type_id":"4","last_reported":1730391061,"current_range_meters":8000,"station_id":"ce4bh9p2rcd13ifvqec0","pricing_plan_id":"cebpf4jnsgd1na2vs0mg"},{"bike_id":"e17b1ce5-0d94-43ef-8d4f-8b37f6cd19ce","system_id":"levelo_inurba_marseille","lat":43.2845,"lon":5.37449,"is_reserved":false,"is_disabled":false,"rental_uris":{"android":"levelo://app?vid=e17b1ce5-0d94-43ef-8d4f-8b37f6cd19ce","ios":"levelo://app?vid=e17b1ce5-0d94-43ef-8d4f-8b37f6cd19ce"},"vehicle_type_id":"4","last_reported":1730391061,"current_range_meters":30000,"station_id":"ce4bh412rcd13ifvqds0","pricing_plan_id":"cebpf4jnsgd1na2vs0mg"},{"bike_id":"76a776cf-7a69-4c9b-8f8c-22dab2c0c7ce","system_id":"levelo_inurba_marseille","lat":43.29599,"lon":5.38109,"is_reserved":false,"is_disabled":false,"rental_uris":{"android":"levelo://app?vid=76a776cf-7a69-4c9b-8f8c-22dab2c0c7ce","ios":"levelo://app?vid=76a776cf-7a69-4c9b-8f8c-22dab2c0c7ce"},"vehicle_type_id":"4","last_reported":1730391061,"current_range_meters":24800,"station_id":"ce4bgl12rcd13ifvqbo0","pricing_plan_id":"cebpf4jnsgd1na2vs0mg"},{"bike_id":"fb9ef889-2ca8-4eaf-8750-74a9b871da4d","system_id":"levelo_inurba_marseille","lat":43.30428,"lon":5.39752,"is_reserved":false,"is_disabled":false,"rental_uris":{"android":"levelo://app?vid=fb9ef889-2ca8-4eaf-8750-74a9b871da4d","ios":"levelo://app?vid=fb9ef889-2ca8-4eaf-8750-74a9b871da4d"},"vehicle_type_id":"4","last_reported":1730391061,"current_range_meters":15200,"station_id":"ce4bh092rcd13ifvqd20","pricing_plan_id":"cebpf4jnsgd1na2vs0mg"},{"bike_id":"8fdebf7d-8b6f-4fba-8220-7ce4afea7a0d","system_id":"levelo_inurba_marseille","lat":43.30082,"lon":5.39081,"is_reserved":false,"is_disabled":false,"rental_uris":{"android":"levelo://app?vid=8fdebf7d-8b6f-4fba-8220-7ce4afea7a0d","ios":"levelo://app?vid=8fdebf7d-8b6f-4fba-8220-7ce4afea7a0d"},"vehicle_type_id":"4","last_reported":1730391061,"current_range_meters":6000,"station_id":"ce4bh192rcd13ifvqdb0","pricing_plan_id":"cebpf4jnsgd1na2vs0mg"},{"bike_id":"5f8d9d84-55af-4cb8-8abf-853f7b5349fc","system_id":"levelo_inurba_marseille","lat":43.25111,"lon":5.40319,"is_reserved":false,"is_disabled":false,"rental_uris":{"android":"levelo://app?vid=5f8d9d84-55af-4cb8-8abf-853f7b5349fc","ios":"levelo://app?vid=5f8d9d84-55af-4cb8-8abf-853f7b5349fc"},"vehicle_type_id":"4","last_reported":1730391061,"current_range_meters":21600,"station_id":"ce4bhlh2rcd13ifvqgig","pricing_plan_id":"cebpf4jnsgd1na2vs0mg"},{"bike_id":"c2e04192-bb2c-4443-bb2a-b18b9b741d5d","system_id":"levelo_inurba_marseille","lat":43.28402,"lon":5.37511,"is_reserved":false,"is_disabled":false,"rental_uris":{"android":"levelo://app?vid=c2e04192-bb2c-4443-bb2a-b18b9b741d5d","ios":"levelo://app?vid=c2e04192-bb2c-4443-bb2a-b18b9b741d5d"},"vehicle_type_id":"4","last_reported":1730391061,"current_range_meters":30000,"station_id":"ce4bh412rcd13ifvqds0","pricing_plan_id":"cebpf4jnsgd1na2vs0mg"},{"bike_id":"0b8ed408-0c1d-4ce3-af8c-05c9a872ed51","system_id":"levelo_inurba_marseille","lat":43.24393,"lon":5.37068,"is_reserved":false,"is_disabled":false,"rental_uris":{"android":"levelo://app?vid=0b8ed408-0c1d-4ce3-af8c-05c9a872ed51","ios":"levelo://app?vid=0b8ed408-0c1d-4ce3-af8c-05c9a872ed51"},"vehicle_type_id":"4","last_reported":1730391061,"current_range_meters":30800,"station_id":"ce4bhhh2rcd13ifvqfk0","pricing_plan_id":"cebpf4jnsgd1na2vs0mg"},{"bike_id":"7e484574-9fe0-4191-93f9-ce7157b7b597","system_id":"levelo_inurba_marseille","lat":43.27843,"lon":5.39202,"is_reserved":false,"is_disabled":false,"rental_uris":{"android":"levelo://app?vid=7e484574-9fe0-4191-93f9-ce7157b7b597","ios":"levelo://app?vid=7e484574-9fe0-4191-93f9-ce7157b7b597"},"vehicle_type_id":"4","last_reported":1730391061,"current_range_meters":16800,"station_id":"ce4bgt92rcd13ifvqcg0","pricing_plan_id":"cebpf4jnsgd1na2vs0mg"},{"bike_id":"86b86d88-d799-4e88-9c1f-0e2f43ebdd11","system_id":"levelo_inurba_marseille","lat":43.29262,"lon":5.4091,"is_reserved":false,"is_disabled":false,"rental_uris":{"android":"levelo://app?vid=86b86d88-d799-4e88-9c1f-0e2f43ebdd11","ios":"levelo://app?vid=86b86d88-d799-4e88-9c1f-0e2f43ebdd11"},"vehicle_type_id":"4","last_reported":1730391061,"current_range_meters":6800,"station_id":"ce4bh192rcd13ifvqdc0","pricing_plan_id":"cebpf4jnsgd1na2vs0mg"},{"bike_id":"fea23d88-9bbb-4ffa-af08-7b03ca37348f","system_id":"levelo_inurba_marseille","lat":43.23185,"lon":5.39994,"is_reserved":false,"is_disabled":false,"rental_uris":{"android":"levelo://app?vid=fea23d88-9bbb-4ffa-af08-7b03ca37348f","ios":"levelo://app?vid=fea23d88-9bbb-4ffa-af08-7b03ca37348f"},"vehicle_type_id":"4","last_reported":1730391061,"current_range_meters":25200,"station_id":"ce4bhn12rcd13ifvqgqg","pricing_plan_id":"cebpf4jnsgd1na2vs0mg"},{"bike_id":"e244d9c1-36d0-4b45-be9a-4b1931edb4bd","system_id":"levelo_inurba_marseille","lat":43.29577,"lon":5.37517,"is_reserved":false,"is_disabled":false,"rental_uris":{"android":"levelo://app?vid=e244d9c1-36d0-4b45-be9a-4b1931edb4bd","ios":"levelo://app?vid=e244d9c1-36d0-4b45-be9a-4b1931edb4bd"},"vehicle_type_id":"4","last_reported":1730391061,"current_range_meters":37600,"station_id":"ce4bgh92rcd13ifvqb50","pricing_plan_id":"cebpf4jnsgd1na2vs0mg"},{"bike_id":"d6f26591-ac73-49b0-81cd-ae655a25d91c","system_id":"levelo_inurba_marseille","lat":43.28419,"lon":5.3751,"is_reserved":false,"is_disabled":false,"rental_uris":{"android":"levelo://app?vid=d6f26591-ac73-49b0-81cd-ae655a25d91c","ios":"levelo://app?vid=d6f26591-ac73-49b0-81cd-ae655a25d91c"},"vehicle_type_id":"4","last_reported":1730391061,"current_range_meters":27600,"station_id":"ce4bh412rcd13ifvqds0","pricing_plan_id":"cebpf4jnsgd1na2vs0mg"},{"bike_id":"160c3125-d109-49e3-a687-ede78b99dea2","system_id":"levelo_inurba_marseille","lat":43.23196,"lon":5.35543,"is_reserved":false,"is_disabled":false,"rental_uris":{"android":"levelo://app?vid=160c3125-d109-49e3-a687-ede78b99dea2","ios":"levelo://app?vid=160c3125-d109-49e3-a687-ede78b99dea2"},"vehicle_type_id":"4","last_reported":1730391061,"current_range_meters":34800,"station_id":"ce4bhu92rcd13ifvqi70","pricing_plan_id":"cebpf4jnsgd1na2vs0mg"},{"bike_id":"d93ceb2b-2576-4335-8e1c-fe39a92d1174","system_id":"levelo_inurba_marseille","lat":43.27176,"lon":5.40995,"is_reserved":false,"is_disabled":false,"rental_uris":{"android":"levelo://app?vid=d93ceb2b-2576-4335-8e1c-fe39a92d1174","ios":"levelo://app?vid=d93ceb2b-2576-4335-8e1c-fe39a92d1174"},"vehicle_type_id":"4","last_reported":1730391061,"current_range_meters":27600,"station_id":"ce4bhl12rcd13ifvqgf0","pricing_plan_id":"cebpf4jnsgd1na2vs0mg"},{"bike_id":"601b8f66-23fd-4f0d-9eed-a84664740c4a","system_id":"levelo_inurba_marseille","lat":43.28156,"lon":5.42643,"is_reserved":false,"is_disabled":false,"rental_uris":{"android":"levelo://app?vid=601b8f66-23fd-4f0d-9eed-a84664740c4a","ios":"levelo://app?vid=601b8f66-23fd-4f0d-9eed-a84664740c4a"},"vehicle_type_id":"4","last_reported":1730391061,"current_range_meters":8000,"station_id":"ce4bhnh2rcd13ifvqgug","pricing_plan_id":"cebpf4jnsgd1na2vs0mg"},{"bike_id":"96e538a6-845b-4f3d-a5c6-daffb75bdd96","system_id":"levelo_inurba_marseille","lat":43.330713,"lon":5.388341,"is_reserved":false,"is_disabled":false,"rental_uris":{"android":"levelo://app?vid=96e538a6-845b-4f3d-a5c6-daffb75bdd96","ios":"levelo://app?vid=96e538a6-845b-4f3d-a5c6-daffb75bdd96"},"vehicle_type_id":"4","last_reported":1730391061,"current_range_meters":34000,"station_id":"ce4bhr92rcd13ifvqhrg","pricing_plan_id":"cebpf4jnsgd1na2vs0mg"},{"bike_id":"71d10f41-2ffe-4394-bc10-bfa4bb58be1e","system_id":"levelo_inurba_marseille","lat":43.3234,"lon":5.40637,"is_reserved":false,"is_disabled":false,"rental_uris":{"android":"levelo://app?vid=71d10f41-2ffe-4394-bc10-bfa4bb58be1e","ios":"levelo://app?vid=71d10f41-2ffe-4394-bc10-bfa4bb58be1e"},"vehicle_type_id":"4","last_reported":1730391061,"current_range_meters":28000,"station_id":"ce4bhq92rcd13ifvqhjg","pricing_plan_id":"cebpf4jnsgd1na2vs0mg"},{"bike_id":"c3998c17-f332-4e95-842c-ccd44ffc3783","system_id":"levelo_inurba_marseille","lat":43.28154,"lon":5.4265,"is_reserved":false,"is_disabled":false,"rental_uris":{"android":"levelo://app?vid=c3998c17-f332-4e95-842c-ccd44ffc3783","ios":"levelo://app?vid=c3998c17-f332-4e95-842c-ccd44ffc3783"},"vehicle_type_id":"4","last_reported":1730391061,"current_range_meters":38800,"station_id":"ce4bhnh2rcd13ifvqgug","pricing_plan_id":"cebpf4jnsgd1na2vs0mg"},{"bike_id":"e0cd67ca-da4c-4dc6-a489-615eb53586b8","system_id":"levelo_inurba_marseille","lat":43.337444,"lon":5.374475,"is_reserved":false,"is_disabled":false,"rental_uris":{"android":"levelo://app?vid=e0cd67ca-da4c-4dc6-a489-615eb53586b8","ios":"levelo://app?vid=e0cd67ca-da4c-4dc6-a489-615eb53586b8"},"vehicle_type_id":"4","last_reported":1730391061,"current_range_meters":38400,"station_id":"","pricing_plan_id":"cebpf4jnsgd1na2vs0mg"},{"bike_id":"9af23c78-cfd4-4fd8-9831-0724a661104e","system_id":"levelo_inurba_marseille","lat":43.30147,"lon":5.38082,"is_reserved":false,"is_disabled":false,"rental_uris":{"android":"levelo://app?vid=9af23c78-cfd4-4fd8-9831-0724a661104e","ios":"levelo://app?vid=9af23c78-cfd4-4fd8-9831-0724a661104e"},"vehicle_type_id":"4","last_reported":1730391061,"current_range_meters":24400,"station_id":"ce4bgjp2rcd13ifvqbh0","pricing_plan_id":"cebpf4jnsgd1na2vs0mg"},{"bike_id":"0ce5a5b4-3fa6-44f1-9d71-50adb946c4f4","system_id":"levelo_inurba_marseille","lat":43.29578,"lon":5.3752,"is_reserved":false,"is_disabled":false,"rental_uris":{"android":"levelo://app?vid=0ce5a5b4-3fa6-44f1-9d71-50adb946c4f4","ios":"levelo://app?vid=0ce5a5b4-3fa6-44f1-9d71-50adb946c4f4"},"vehicle_type_id":"4","last_reported":1730391061,"current_range_meters":33600,"station_id":"ce4bgh92rcd13ifvqb50","pricing_plan_id":"cebpf4jnsgd1na2vs0mg"},{"bike_id":"27af1fb6-354f-4701-9f1a-cb63120973cd","system_id":"levelo_inurba_marseille","lat":43.26024,"lon":5.3755,"is_reserved":false,"is_disabled":false,"rental_uris":{"android":"levelo://app?vid=27af1fb6-354f-4701-9f1a-cb63120973cd","ios":"levelo://app?vid=27af1fb6-354f-4701-9f1a-cb63120973cd"},"vehicle_type_id":"4","last_reported":1730391061,"current_range_meters":16000,"station_id":"ce4bhgh2rcd13ifvqfa0","pricing_plan_id":"cebpf4jnsgd1na2vs0mg"},{"bike_id":"6b930ddf-cf47-40fe-a6f7-caa714f6b62f","system_id":"levelo_inurba_marseille","lat":43.30957,"lon":5.4012,"is_reserved":false,"is_disabled":false,"rental_uris":{"android":"levelo://app?vid=6b930ddf-cf47-40fe-a6f7-caa714f6b62f","ios":"levelo://app?vid=6b930ddf-cf47-40fe-a6f7-caa714f6b62f"},"vehicle_type_id":"4","last_reported":1730391061,"current_range_meters":29600,"station_id":"ce4bgvp2rcd13ifvqct0","pricing_plan_id":"cebpf4jnsgd1na2vs0mg"},{"bike_id":"ad8b050a-83a7-41e8-91c7-1ded3749b56e","system_id":"levelo_inurba_marseille","lat":43.30902,"lon":5.37201,"is_reserved":false,"is_disabled":false,"rental_uris":{"android":"levelo://app?vid=ad8b050a-83a7-41e8-91c7-1ded3749b56e","ios":"levelo://app?vid=ad8b050a-83a7-41e8-91c7-1ded3749b56e"},"vehicle_type_id":"4","last_reported":1730391061,"current_range_meters":37600,"station_id":"ce4bguh2rcd13ifvqckg","pricing_plan_id":"cebpf4jnsgd1na2vs0mg"},{"bike_id":"e8293b4e-059a-4396-9bed-846c599622d5","system_id":"levelo_inurba_marseille","lat":43.2717,"lon":5.40989,"is_reserved":false,"is_disabled":false,"rental_uris":{"android":"levelo://app?vid=e8293b4e-059a-4396-9bed-846c599622d5","ios":"levelo://app?vid=e8293b4e-059a-4396-9bed-846c599622d5"},"vehicle_type_id":"4","last_reported":1730391061,"current_range_meters":38800,"station_id":"ce4bhl12rcd13ifvqgf0","pricing_plan_id":"cebpf4jnsgd1na2vs0mg"},{"bike_id":"1f891675-16b0-4a24-aaa3-e59260de9b4e","system_id":"levelo_inurba_marseille","lat":43.2593,"lon":5.40907,"is_reserved":false,"is_disabled":false,"rental_uris":{"android":"levelo://app?vid=1f891675-16b0-4a24-aaa3-e59260de9b4e","ios":"levelo://app?vid=1f891675-16b0-4a24-aaa3-e59260de9b4e"},"vehicle_type_id":"4","last_reported":1730391061,"current_range_meters":31200,"station_id":"ce4bhm92rcd13ifvqglg","pricing_plan_id":"cebpf4jnsgd1na2vs0mg"},{"bike_id":"9fcd07ac-16df-41c3-a441-857f0bf480a5","system_id":"levelo_inurba_marseille","lat":43.27909,"lon":5.38016,"is_reserved":false,"is_disabled":false,"rental_uris":{"android":"levelo://app?vid=9fcd07ac-16df-41c3-a441-857f0bf480a5","ios":"levelo://app?vid=9fcd07ac-16df-41c3-a441-857f0bf480a5"},"vehicle_type_id":"4","last_reported":1730391061,"current_range_meters":21600,"station_id":"ce4bhf92rcd13ifvqf50","pricing_plan_id":"cebpf4jnsgd1na2vs0mg"},{"bike_id":"2e679aa2-6222-4666-94d2-8febbbac34cf","system_id":"levelo_inurba_marseille","lat":43.28939,"lon":5.48067,"is_reserved":false,"is_disabled":false,"rental_uris":{"android":"levelo://app?vid=2e679aa2-6222-4666-94d2-8febbbac34cf","ios":"levelo://app?vid=2e679aa2-6222-4666-94d2-8febbbac34cf"},"vehicle_type_id":"4","last_reported":1730391061,"current_range_meters":11200,"station_id":"ce4bgvp2rcd13ifvqct0","pricing_plan_id":"cebpf4jnsgd1na2vs0mg"},{"bike_id":"09873ff2-4333-4bd6-be70-4addfeebc05a","system_id":"levelo_inurba_marseille","lat":43.28407,"lon":5.34992,"is_reserved":false,"is_disabled":false,"rental_uris":{"android":"levelo://app?vid=09873ff2-4333-4bd6-be70-4addfeebc05a","ios":"levelo://app?vid=09873ff2-4333-4bd6-be70-4addfeebc05a"},"vehicle_type_id":"4","last_reported":1730391061,"current_range_meters":30800,"station_id":"ce4bhbh2rcd13ifvqepg","pricing_plan_id":"cebpf4jnsgd1na2vs0mg"},{"bike_id":"00570a9a-70dc-4fd9-a21d-b33665529146","system_id":"levelo_inurba_marseille","lat":43.23968,"lon":5.36639,"is_reserved":false,"is_disabled":false,"rental_uris":{"android":"levelo://app?vid=00570a9a-70dc-4fd9-a21d-b33665529146","ios":"levelo://app?vid=00570a9a-70dc-4fd9-a21d-b33665529146"},"vehicle_type_id":"4","last_reported":1730391061,"current_range_meters":39200,"station_id":"ce4bhi12rcd13ifvqfp0","pricing_plan_id":"cebpf4jnsgd1na2vs0mg"},{"bike_id":"d5d6164d-ab0e-4431-ba65-2cb1728f6dc4","system_id":"levelo_inurba_marseille","lat":43.29038,"lon":5.37573,"is_reserved":false,"is_disabled":false,"rental_uris":{"android":"levelo://app?vid=d5d6164d-ab0e-4431-ba65-2cb1728f6dc4","ios":"levelo://app?vid=d5d6164d-ab0e-4431-ba65-2cb1728f6dc4"},"vehicle_type_id":"4","last_reported":1730391061,"current_range_meters":16000,"station_id":"ce4bh692rcd13ifvqe90","pricing_plan_id":"cebpf4jnsgd1na2vs0mg"},{"bike_id":"c68391d2-73a1-44b6-b44f-425ad77d96a8","system_id":"levelo_inurba_marseille","lat":43.25496,"lon":5.37652,"is_reserved":false,"is_disabled":false,"rental_uris":{"android":"levelo://app?vid=c68391d2-73a1-44b6-b44f-425ad77d96a8","ios":"levelo://app?vid=c68391d2-73a1-44b6-b44f-425ad77d96a8"},"vehicle_type_id":"4","last_reported":1730391061,"current_range_meters":26000,"station_id":"ce4bhh12rcd13ifvqff0","pricing_plan_id":"cebpf4jnsgd1na2vs0mg"},{"bike_id":"a0412003-68b3-4b81-86da-f697720e5ce1","system_id":"levelo_inurba_marseille","lat":43.29968,"lon":5.37158,"is_reserved":false,"is_disabled":false,"rental_uris":{"android":"levelo://app?vid=a0412003-68b3-4b81-86da-f697720e5ce1","ios":"levelo://app?vid=a0412003-68b3-4b81-86da-f697720e5ce1"},"vehicle_type_id":"4","last_reported":1730391061,"current_range_meters":32000,"station_id":"ce4bgr92rcd13ifvqc7g","pricing_plan_id":"cebpf4jnsgd1na2vs0mg"},{"bike_id":"b65d358b-a2ba-4397-a9a1-50da4450a928","system_id":"levelo_inurba_marseille","lat":43.30423,"lon":5.41274,"is_reserved":false,"is_disabled":false,"rental_uris":{"android":"levelo://app?vid=b65d358b-a2ba-4397-a9a1-50da4450a928","ios":"levelo://app?vid=b65d358b-a2ba-4397-a9a1-50da4450a928"},"vehicle_type_id":"4","last_reported":1730391061,"current_range_meters":38800,"station_id":"ce4bhop2rcd13ifvqh8g","pricing_plan_id":"cebpf4jnsgd1na2vs0mg"},{"bike_id":"6dbe4a06-6e71-4071-bd74-9bd2c00628d1","system_id":"levelo_inurba_marseille","lat":43.25583,"lon":5.38231,"is_reserved":false,"is_disabled":false,"rental_uris":{"android":"levelo://app?vid=6dbe4a06-6e71-4071-bd74-9bd2c00628d1","ios":"levelo://app?vid=6dbe4a06-6e71-4071-bd74-9bd2c00628d1"},"vehicle_type_id":"4","last_reported":1730391061,"current_range_meters":17200,"station_id":"ce4bhih2rcd13ifvqfs0","pricing_plan_id":"cebpf4jnsgd1na2vs0mg"},{"bike_id":"d7b11ea7-002a-4efd-994b-9a9df4e42526","system_id":"levelo_inurba_marseille","lat":43.3025,"lon":5.40081,"is_reserved":false,"is_disabled":false,"rental_uris":{"android":"levelo://app?vid=d7b11ea7-002a-4efd-994b-9a9df4e42526","ios":"levelo://app?vid=d7b11ea7-002a-4efd-994b-9a9df4e42526"},"vehicle_type_id":"4","last_reported":1730391061,"current_range_meters":16000,"station_id":"ce4bgvh2rcd13ifvqcs0","pricing_plan_id":"cebpf4jnsgd1na2vs0mg"},{"bike_id":"038ca54a-bfcf-409e-8225-3b717715cf83","system_id":"levelo_inurba_marseille","lat":43.26684,"lon":5.38273,"is_reserved":false,"is_disabled":false,"rental_uris":{"android":"levelo://app?vid=038ca54a-bfcf-409e-8225-3b717715cf83","ios":"levelo://app?vid=038ca54a-bfcf-409e-8225-3b717715cf83"},"vehicle_type_id":"4","last_reported":1730391061,"current_range_meters":31200,"station_id":"ce4bhg92rcd13ifvqf90","pricing_plan_id":"cebpf4jnsgd1na2vs0mg"},{"bike_id":"25e3c3b2-0509-4e9b-ba21-d53733d4def7","system_id":"levelo_inurba_marseille","lat":43.2828,"lon":5.35078,"is_reserved":false,"is_disabled":false,"rental_uris":{"android":"levelo://app?vid=25e3c3b2-0509-4e9b-ba21-d53733d4def7","ios":"levelo://app?vid=25e3c3b2-0509-4e9b-ba21-d53733d4def7"},"vehicle_type_id":"4","last_reported":1730391061,"current_range_meters":22000,"station_id":"ce4bhbp2rcd13ifvqerg","pricing_plan_id":"cebpf4jnsgd1na2vs0mg"},{"bike_id":"ed279d38-b7eb-4b14-96b9-94c615824290","system_id":"levelo_inurba_marseille","lat":43.23198,"lon":5.3555,"is_reserved":false,"is_disabled":false,"rental_uris":{"android":"levelo://app?vid=ed279d38-b7eb-4b14-96b9-94c615824290","ios":"levelo://app?vid=ed279d38-b7eb-4b14-96b9-94c615824290"},"vehicle_type_id":"4","last_reported":1730391061,"current_range_meters":19600,"station_id":"ce4bhu92rcd13ifvqi70","pricing_plan_id":"cebpf4jnsgd1na2vs0mg"},{"bike_id":"ecaefcaf-fe52-49ca-a55b-f5199eed93b0","system_id":"levelo_inurba_marseille","lat":43.28079,"lon":5.39664,"is_reserved":false,"is_disabled":false,"rental_uris":{"android":"levelo://app?vid=ecaefcaf-fe52-49ca-a55b-f5199eed93b0","ios":"levelo://app?vid=ecaefcaf-fe52-49ca-a55b-f5199eed93b0"},"vehicle_type_id":"4","last_reported":1730391061,"current_range_meters":18000,"station_id":"ce4bho12rcd13ifvqh2g","pricing_plan_id":"cebpf4jnsgd1na2vs0mg"},{"bike_id":"c9fa92dc-4470-47e4-87d7-994dcb109eee","system_id":"levelo_inurba_marseille","lat":43.25005,"lon":5.38935,"is_reserved":false,"is_disabled":false,"rental_uris":{"android":"levelo://app?vid=c9fa92dc-4470-47e4-87d7-994dcb109eee","ios":"levelo://app?vid=c9fa92dc-4470-47e4-87d7-994dcb109eee"},"vehicle_type_id":"4","last_reported":1730391061,"current_range_meters":29600,"station_id":"","pricing_plan_id":"cebpf4jnsgd1na2vs0mg"},{"bike_id":"4d5eb8fd-978f-4ed5-9b7f-ab3e980deafa","system_id":"levelo_inurba_marseille","lat":43.29264,"lon":5.38448,"is_reserved":false,"is_disabled":false,"rental_uris":{"android":"levelo://app?vid=4d5eb8fd-978f-4ed5-9b7f-ab3e980deafa","ios":"levelo://app?vid=4d5eb8fd-978f-4ed5-9b7f-ab3e980deafa"},"vehicle_type_id":"4","last_reported":1730391061,"current_range_meters":18800,"station_id":"ce4bh692rcd13ifvqea0","pricing_plan_id":"cebpf4jnsgd1na2vs0mg"},{"bike_id":"1975a2d3-f378-485b-8ecf-adbe097a6b13","system_id":"levelo_inurba_marseille","lat":43.29525,"lon":5.394,"is_reserved":false,"is_disabled":false,"rental_uris":{"android":"levelo://app?vid=1975a2d3-f378-485b-8ecf-adbe097a6b13","ios":"levelo://app?vid=1975a2d3-f378-485b-8ecf-adbe097a6b13"},"vehicle_type_id":"4","last_reported":1730391061,"current_range_meters":38000,"station_id":"ce4bh292rcd13ifvqdf0","pricing_plan_id":"cebpf4jnsgd1na2vs0mg"},{"bike_id":"d054b18c-ed67-41d5-b206-0b9cd2dfaa1e","system_id":"levelo_inurba_marseille","lat":43.29978,"lon":5.37162,"is_reserved":false,"is_disabled":false,"rental_uris":{"android":"levelo://app?vid=d054b18c-ed67-41d5-b206-0b9cd2dfaa1e","ios":"levelo://app?vid=d054b18c-ed67-41d5-b206-0b9cd2dfaa1e"},"vehicle_type_id":"4","last_reported":1730391061,"current_range_meters":38800,"station_id":"ce4bgr92rcd13ifvqc7g","pricing_plan_id":"cebpf4jnsgd1na2vs0mg"},{"bike_id":"665aa19f-44ed-4e5a-b21f-9dd75d94d211","system_id":"levelo_inurba_marseille","lat":43.26488,"lon":5.39552,"is_reserved":false,"is_disabled":false,"rental_uris":{"android":"levelo://app?vid=665aa19f-44ed-4e5a-b21f-9dd75d94d211","ios":"levelo://app?vid=665aa19f-44ed-4e5a-b21f-9dd75d94d211"},"vehicle_type_id":"4","last_reported":1730391061,"current_range_meters":8400,"station_id":"ce4bhi12rcd13ifvqfq0","pricing_plan_id":"cebpf4jnsgd1na2vs0mg"},{"bike_id":"cf580f99-54a4-42c0-b6a0-c56ca14bcb30","system_id":"levelo_inurba_marseille","lat":43.2841,"lon":5.35,"is_reserved":false,"is_disabled":false,"rental_uris":{"android":"levelo://app?vid=cf580f99-54a4-42c0-b6a0-c56ca14bcb30","ios":"levelo://app?vid=cf580f99-54a4-42c0-b6a0-c56ca14bcb30"},"vehicle_type_id":"4","last_reported":1730391061,"current_range_meters":32800,"station_id":"ce4bhbh2rcd13ifvqepg","pricing_plan_id":"cebpf4jnsgd1na2vs0mg"},{"bike_id":"833921cd-b5d2-4b93-95b4-e44618106671","system_id":"levelo_inurba_marseille","lat":43.2803,"lon":5.36953,"is_reserved":false,"is_disabled":false,"rental_uris":{"android":"levelo://app?vid=833921cd-b5d2-4b93-95b4-e44618106671","ios":"levelo://app?vid=833921cd-b5d2-4b93-95b4-e44618106671"},"vehicle_type_id":"4","last_reported":1730391061,"current_range_meters":30800,"station_id":"ce4bha12rcd13ifvqef0","pricing_plan_id":"cebpf4jnsgd1na2vs0mg"},{"bike_id":"cee224fb-f6bb-4ae0-a1a8-20f254f01a19","system_id":"levelo_inurba_marseille","lat":43.28044,"lon":5.36943,"is_reserved":false,"is_disabled":false,"rental_uris":{"android":"levelo://app?vid=cee224fb-f6bb-4ae0-a1a8-20f254f01a19","ios":"levelo://app?vid=cee224fb-f6bb-4ae0-a1a8-20f254f01a19"},"vehicle_type_id":"4","last_reported":1730391061,"current_range_meters":4400,"station_id":"ce4bha12rcd13ifvqef0","pricing_plan_id":"cebpf4jnsgd1na2vs0mg"},{"bike_id":"ae482210-68f6-42ef-981e-6c90a9dda1d2","system_id":"levelo_inurba_marseille","lat":43.27177,"lon":5.40993,"is_reserved":false,"is_disabled":false,"rental_uris":{"android":"levelo://app?vid=ae482210-68f6-42ef-981e-6c90a9dda1d2","ios":"levelo://app?vid=ae482210-68f6-42ef-981e-6c90a9dda1d2"},"vehicle_type_id":"4","last_reported":1730391061,"current_range_meters":35600,"station_id":"ce4bhl12rcd13ifvqgf0","pricing_plan_id":"cebpf4jnsgd1na2vs0mg"},{"bike_id":"075f21e6-aaf0-4183-903c-fc3ab4d1856d","system_id":"levelo_inurba_marseille","lat":43.3229,"lon":5.38279,"is_reserved":false,"is_disabled":false,"rental_uris":{"android":"levelo://app?vid=075f21e6-aaf0-4183-903c-fc3ab4d1856d","ios":"levelo://app?vid=075f21e6-aaf0-4183-903c-fc3ab4d1856d"},"vehicle_type_id":"4","last_reported":1730391061,"current_range_meters":12000,"station_id":"ce4bhr12rcd13ifvqhqg","pricing_plan_id":"cebpf4jnsgd1na2vs0mg"},{"bike_id":"b0218894-9343-49c5-84f1-f9216b9df020","system_id":"levelo_inurba_marseille","lat":43.29884,"lon":5.39737,"is_reserved":false,"is_disabled":false,"rental_uris":{"android":"levelo://app?vid=b0218894-9343-49c5-84f1-f9216b9df020","ios":"levelo://app?vid=b0218894-9343-49c5-84f1-f9216b9df020"},"vehicle_type_id":"4","last_reported":1730391061,"current_range_meters":35200,"station_id":"ce4bh0h2rcd13ifvqd50","pricing_plan_id":"cebpf4jnsgd1na2vs0mg"},{"bike_id":"0d4e0479-d8a2-45f2-91e0-dd87823320fe","system_id":"levelo_inurba_marseille","lat":43.33777,"lon":5.37469,"is_reserved":false,"is_disabled":false,"rental_uris":{"android":"levelo://app?vid=0d4e0479-d8a2-45f2-91e0-dd87823320fe","ios":"levelo://app?vid=0d4e0479-d8a2-45f2-91e0-dd87823320fe"},"vehicle_type_id":"4","last_reported":1730391061,"current_range_meters":30000,"station_id":"","pricing_plan_id":"cebpf4jnsgd1na2vs0mg"},{"bike_id":"149f5025-1f47-4bb1-9662-2699477b6d0c","system_id":"levelo_inurba_marseille","lat":43.3211,"lon":5.36774,"is_reserved":false,"is_disabled":false,"rental_uris":{"android":"levelo://app?vid=149f5025-1f47-4bb1-9662-2699477b6d0c","ios":"levelo://app?vid=149f5025-1f47-4bb1-9662-2699477b6d0c"},"vehicle_type_id":"4","last_reported":1730391061,"current_range_meters":29600,"station_id":"ce4bhrh2rcd13ifvqhug","pricing_plan_id":"cebpf4jnsgd1na2vs0mg"},{"bike_id":"e8e74bce-f56c-4367-8c15-1f5c6fa1a6d2","system_id":"levelo_inurba_marseille","lat":43.27987,"lon":5.41663,"is_reserved":false,"is_disabled":false,"rental_uris":{"android":"levelo://app?vid=e8e74bce-f56c-4367-8c15-1f5c6fa1a6d2","ios":"levelo://app?vid=e8e74bce-f56c-4367-8c15-1f5c6fa1a6d2"},"vehicle_type_id":"4","last_reported":1730391061,"current_range_meters":36000,"station_id":"ce4bho12rcd13ifvqh1g","pricing_plan_id":"cebpf4jnsgd1na2vs0mg"},{"bike_id":"81fda31c-2519-4817-af5b-cf73261f57f3","system_id":"levelo_inurba_marseille","lat":43.29419,"lon":5.38614,"is_reserved":false,"is_disabled":false,"rental_uris":{"android":"levelo://app?vid=81fda31c-2519-4817-af5b-cf73261f57f3","ios":"levelo://app?vid=81fda31c-2519-4817-af5b-cf73261f57f3"},"vehicle_type_id":"4","last_reported":1730391061,"current_range_meters":26000,"station_id":"ce4bh2h2rcd13ifvqdh0","pricing_plan_id":"cebpf4jnsgd1na2vs0mg"},{"bike_id":"0adf5bbf-7594-479b-b437-bd7a8de1b645","system_id":"levelo_inurba_marseille","lat":43.32109,"lon":5.36768,"is_reserved":false,"is_disabled":false,"rental_uris":{"android":"levelo://app?vid=0adf5bbf-7594-479b-b437-bd7a8de1b645","ios":"levelo://app?vid=0adf5bbf-7594-479b-b437-bd7a8de1b645"},"vehicle_type_id":"4","last_reported":1730391061,"current_range_meters":20000,"station_id":"ce4bhrh2rcd13ifvqhug","pricing_plan_id":"cebpf4jnsgd1na2vs0mg"},{"bike_id":"b8b52112-83ec-458d-ac21-a6b71cdc8f1a","system_id":"levelo_inurba_marseille","lat":43.2905,"lon":5.35934,"is_reserved":false,"is_disabled":false,"rental_uris":{"android":"levelo://app?vid=b8b52112-83ec-458d-ac21-a6b71cdc8f1a","ios":"levelo://app?vid=b8b52112-83ec-458d-ac21-a6b71cdc8f1a"},"vehicle_type_id":"4","last_reported":1730391061,"current_range_meters":38800,"station_id":"ce4bha92rcd13ifvqeg0","pricing_plan_id":"cebpf4jnsgd1na2vs0mg"},{"bike_id":"a6024783-f44f-4c2e-918d-449b4c4abd41","system_id":"levelo_inurba_marseille","lat":43.30139,"lon":5.381038,"is_reserved":false,"is_disabled":false,"rental_uris":{"android":"levelo://app?vid=a6024783-f44f-4c2e-918d-449b4c4abd41","ios":"levelo://app?vid=a6024783-f44f-4c2e-918d-449b4c4abd41"},"vehicle_type_id":"4","last_reported":1730391061,"current_range_meters":25200,"station_id":"ce4bgjp2rcd13ifvqbh0","pricing_plan_id":"cebpf4jnsgd1na2vs0mg"},{"bike_id":"54737429-c428-49ed-b6bd-f62b8af7b43c","system_id":"levelo_inurba_marseille","lat":43.31122,"lon":5.37771,"is_reserved":false,"is_disabled":false,"rental_uris":{"android":"levelo://app?vid=54737429-c428-49ed-b6bd-f62b8af7b43c","ios":"levelo://app?vid=54737429-c428-49ed-b6bd-f62b8af7b43c"},"vehicle_type_id":"4","last_reported":1730391061,"current_range_meters":28400,"station_id":"ce4bgt92rcd13ifvqcg0","pricing_plan_id":"cebpf4jnsgd1na2vs0mg"},{"bike_id":"eb4adf85-b47a-4f89-841b-31761cd5cfbd","system_id":"levelo_inurba_marseille","lat":43.31886,"lon":5.40739,"is_reserved":false,"is_disabled":false,"rental_uris":{"android":"levelo://app?vid=eb4adf85-b47a-4f89-841b-31761cd5cfbd","ios":"levelo://app?vid=eb4adf85-b47a-4f89-841b-31761cd5cfbd"},"vehicle_type_id":"4","last_reported":1730391061,"current_range_meters":12400,"station_id":"ce4bhq12rcd13ifvqhig","pricing_plan_id":"cebpf4jnsgd1na2vs0mg"},{"bike_id":"f20f5b9c-89b9-4b26-8e9d-6a09ce204200","system_id":"levelo_inurba_marseille","lat":43.22936,"lon":5.35389,"is_reserved":false,"is_disabled":false,"rental_uris":{"android":"levelo://app?vid=f20f5b9c-89b9-4b26-8e9d-6a09ce204200","ios":"levelo://app?vid=f20f5b9c-89b9-4b26-8e9d-6a09ce204200"},"vehicle_type_id":"4","last_reported":1730391061,"current_range_meters":30800,"station_id":"cpo3532slgdg3j2ikp40","pricing_plan_id":"cebpf4jnsgd1na2vs0mg"},{"bike_id":"53a6d53b-6bc5-4f80-b783-860011602993","system_id":"levelo_inurba_marseille","lat":43.28155,"lon":5.42641,"is_reserved":false,"is_disabled":false,"rental_uris":{"android":"levelo://app?vid=53a6d53b-6bc5-4f80-b783-860011602993","ios":"levelo://app?vid=53a6d53b-6bc5-4f80-b783-860011602993"},"vehicle_type_id":"4","last_reported":1730391061,"current_range_meters":10800,"station_id":"ce4bhnh2rcd13ifvqgug","pricing_plan_id":"cebpf4jnsgd1na2vs0mg"},{"bike_id":"0899e8da-32d6-4990-8534-b1b220b074dd","system_id":"levelo_inurba_marseille","lat":43.26191,"lon":5.37446,"is_reserved":false,"is_disabled":false,"rental_uris":{"android":"levelo://app?vid=0899e8da-32d6-4990-8534-b1b220b074dd","ios":"levelo://app?vid=0899e8da-32d6-4990-8534-b1b220b074dd"},"vehicle_type_id":"4","last_reported":1730391061,"current_range_meters":29600,"station_id":"ce4bhgp2rcd13ifvqfc0","pricing_plan_id":"cebpf4jnsgd1na2vs0mg"},{"bike_id":"dec28324-a19b-4ce2-8511-1c394064cf7b","system_id":"levelo_inurba_marseille","lat":43.29732,"lon":5.37681,"is_reserved":false,"is_disabled":false,"rental_uris":{"android":"levelo://app?vid=dec28324-a19b-4ce2-8511-1c394064cf7b","ios":"levelo://app?vid=dec28324-a19b-4ce2-8511-1c394064cf7b"},"vehicle_type_id":"4","last_reported":1730391061,"current_range_meters":38800,"station_id":"ce4bgkh2rcd13ifvqbl0","pricing_plan_id":"cebpf4jnsgd1na2vs0mg"},{"bike_id":"16360e1e-a6a9-4415-80de-00c5a4ca9055","system_id":"levelo_inurba_marseille","lat":43.29802,"lon":5.38091,"is_reserved":false,"is_disabled":false,"rental_uris":{"android":"levelo://app?vid=16360e1e-a6a9-4415-80de-00c5a4ca9055","ios":"levelo://app?vid=16360e1e-a6a9-4415-80de-00c5a4ca9055"},"vehicle_type_id":"4","last_reported":1730391061,"current_range_meters":26800,"station_id":"ce4bgip2rcd13ifvqbb0","pricing_plan_id":"cebpf4jnsgd1na2vs0mg"},{"bike_id":"3517966f-e9a6-4058-8f99-89c82a59e77f","system_id":"levelo_inurba_marseille","lat":43.24392,"lon":5.37068,"is_reserved":false,"is_disabled":false,"rental_uris":{"android":"levelo://app?vid=3517966f-e9a6-4058-8f99-89c82a59e77f","ios":"levelo://app?vid=3517966f-e9a6-4058-8f99-89c82a59e77f"},"vehicle_type_id":"4","last_reported":1730391061,"current_range_meters":28000,"station_id":"ce4bhhh2rcd13ifvqfk0","pricing_plan_id":"cebpf4jnsgd1na2vs0mg"},{"bike_id":"165828b1-d06e-4b70-b3a7-636ec8e9ee04","system_id":"levelo_inurba_marseille","lat":43.241651,"lon":5.36392,"is_reserved":false,"is_disabled":false,"rental_uris":{"android":"levelo://app?vid=165828b1-d06e-4b70-b3a7-636ec8e9ee04","ios":"levelo://app?vid=165828b1-d06e-4b70-b3a7-636ec8e9ee04"},"vehicle_type_id":"4","last_reported":1730391061,"current_range_meters":32400,"station_id":"cpo36qri1sfpv3e86is0","pricing_plan_id":"cebpf4jnsgd1na2vs0mg"},{"bike_id":"053b03ac-26c5-43da-b0fb-152bff52ebe8","system_id":"levelo_inurba_marseille","lat":43.30423,"lon":5.39751,"is_reserved":false,"is_disabled":false,"rental_uris":{"android":"levelo://app?vid=053b03ac-26c5-43da-b0fb-152bff52ebe8","ios":"levelo://app?vid=053b03ac-26c5-43da-b0fb-152bff52ebe8"},"vehicle_type_id":"4","last_reported":1730391061,"current_range_meters":26000,"station_id":"ce4bh092rcd13ifvqd20","pricing_plan_id":"cebpf4jnsgd1na2vs0mg"},{"bike_id":"cf1e4d59-cade-4f52-b90d-922f9b4e85ff","system_id":"levelo_inurba_marseille","lat":43.27496,"lon":5.42453,"is_reserved":false,"is_disabled":false,"rental_uris":{"android":"levelo://app?vid=cf1e4d59-cade-4f52-b90d-922f9b4e85ff","ios":"levelo://app?vid=cf1e4d59-cade-4f52-b90d-922f9b4e85ff"},"vehicle_type_id":"4","last_reported":1730391061,"current_range_meters":8000,"station_id":"ce4bhn92rcd13ifvqgrg","pricing_plan_id":"cebpf4jnsgd1na2vs0mg"},{"bike_id":"3adf7d9b-feb5-4cfa-b30a-420f9203cd77","system_id":"levelo_inurba_marseille","lat":43.29257,"lon":5.40907,"is_reserved":false,"is_disabled":false,"rental_uris":{"android":"levelo://app?vid=3adf7d9b-feb5-4cfa-b30a-420f9203cd77","ios":"levelo://app?vid=3adf7d9b-feb5-4cfa-b30a-420f9203cd77"},"vehicle_type_id":"4","last_reported":1730391061,"current_range_meters":24800,"station_id":"ce4bh192rcd13ifvqdc0","pricing_plan_id":"cebpf4jnsgd1na2vs0mg"},{"bike_id":"4d470e4e-2455-41f4-b3a4-9bc29488aec8","system_id":"levelo_inurba_marseille","lat":43.322891,"lon":5.382769,"is_reserved":false,"is_disabled":false,"rental_uris":{"android":"levelo://app?vid=4d470e4e-2455-41f4-b3a4-9bc29488aec8","ios":"levelo://app?vid=4d470e4e-2455-41f4-b3a4-9bc29488aec8"},"vehicle_type_id":"4","last_reported":1730391061,"current_range_meters":38800,"station_id":"ce4bhr12rcd13ifvqhqg","pricing_plan_id":"cebpf4jnsgd1na2vs0mg"},{"bike_id":"40837078-d198-422e-bd09-5c5770c1ca65","system_id":"levelo_inurba_marseille","lat":43.32286,"lon":5.38282,"is_reserved":false,"is_disabled":false,"rental_uris":{"android":"levelo://app?vid=40837078-d198-422e-bd09-5c5770c1ca65","ios":"levelo://app?vid=40837078-d198-422e-bd09-5c5770c1ca65"},"vehicle_type_id":"4","last_reported":1730391061,"current_range_meters":13600,"station_id":"ce4bhr12rcd13ifvqhqg","pricing_plan_id":"cebpf4jnsgd1na2vs0mg"},{"bike_id":"e813280d-2d03-4da3-b589-078b3f7657d8","system_id":"levelo_inurba_marseille","lat":43.24999,"lon":5.38927,"is_reserved":false,"is_disabled":false,"rental_uris":{"android":"levelo://app?vid=e813280d-2d03-4da3-b589-078b3f7657d8","ios":"levelo://app?vid=e813280d-2d03-4da3-b589-078b3f7657d8"},"vehicle_type_id":"4","last_reported":1730391061,"current_range_meters":3200,"station_id":"ce4bhgp2rcd13ifvqfd0","pricing_plan_id":"cebpf4jnsgd1na2vs0mg"},{"bike_id":"d323e35f-66d9-46d4-9e65-35591421f834","system_id":"levelo_inurba_marseille","lat":43.301418,"lon":5.39877,"is_reserved":false,"is_disabled":false,"rental_uris":{"android":"levelo://app?vid=d323e35f-66d9-46d4-9e65-35591421f834","ios":"levelo://app?vid=d323e35f-66d9-46d4-9e65-35591421f834"},"vehicle_type_id":"4","last_reported":1730391061,"current_range_meters":24000,"station_id":"ce4bh0h2rcd13ifvqd40","pricing_plan_id":"cebpf4jnsgd1na2vs0mg"},{"bike_id":"1d01409e-0bd6-46b1-9778-474d487860c6","system_id":"levelo_inurba_marseille","lat":43.27175,"lon":5.40996,"is_reserved":false,"is_disabled":false,"rental_uris":{"android":"levelo://app?vid=1d01409e-0bd6-46b1-9778-474d487860c6","ios":"levelo://app?vid=1d01409e-0bd6-46b1-9778-474d487860c6"},"vehicle_type_id":"4","last_reported":1730391061,"current_range_meters":31200,"station_id":"ce4bhl12rcd13ifvqgf0","pricing_plan_id":"cebpf4jnsgd1na2vs0mg"},{"bike_id":"564daa00-c3b1-48b4-a5db-1693ce3ba931","system_id":"levelo_inurba_marseille","lat":43.28414,"lon":5.35,"is_reserved":false,"is_disabled":false,"rental_uris":{"android":"levelo://app?vid=564daa00-c3b1-48b4-a5db-1693ce3ba931","ios":"levelo://app?vid=564daa00-c3b1-48b4-a5db-1693ce3ba931"},"vehicle_type_id":"4","last_reported":1730391061,"current_range_meters":38800,"station_id":"ce4bhbh2rcd13ifvqepg","pricing_plan_id":"cebpf4jnsgd1na2vs0mg"},