{"last_updated":1732529444,"ttl":60,"version":"2.2","data":{"bikes":[{"bike_id":"4174d669-0589-43aa-989f-d393606d3619","system_id":"levelo_inurba_marseille","lat":43.26196,"lon":5.37917,"is_reserved":false,"is_disabled":false,"rental_uris":{"android":"levelo://app?vid=4174d669-0589-43aa-989f-d393606d3619","ios":"levelo://app?vid=4174d669-0589-43aa-989f-d393606d3619"},"vehicle_type_id":"4","last_reported":1732529444,"current_range_meters":38800,"station_id":"ce4bhjp2rcd13ifvqg90","pricing_plan_id":"cebpf4jnsgd1na2vs0mg"},{"bike_id":"77a6b4d3-f225-40ca-b115-e0b015ca37be","system_id":"levelo_inurba_marseille","lat":43.28152,"lon":5.42648,"is_reserved":false,"is_disabled":false,"rental_uris":{"android":"levelo://app?vid=77a6b4d3-f225-40ca-b115-e0b015ca37be","ios":"levelo://app?vid=77a6b4d3-f225-40ca-b115-e0b015ca37be"},"vehicle_type_id":"4","last_reported":1732529444,"current_range_meters":37600,"station_id":"ce4bhnh2rcd13ifvqgug","pricing_plan_id":"cebpf4jnsgd1na2vs0mg"},{"bike_id":"ce7ec125-e5e1-4f1c-9ffa-2776a8995d05","system_id":"levelo_inurba_marseille","lat":43.27072,"lon":5.42276,"is_reserved":false,"is_disabled":true,"rental_uris":{"android":"levelo://app?vid=ce7ec125-e5e1-4f1c-9ffa-2776a8995d05","ios":"levelo://app?vid=ce7ec125-e5e1-4f1c-9ffa-2776a8995d05"},"vehicle_type_id":"4","last_reported":1732529444,"current_range_meters":400,"station_id":"ce4bhk92rcd13ifvqgb0","pricing_plan_id":"cebpf4jnsgd1na2vs0mg"},{"bike_id":"1df56fac-cdd0-4f45-a257-cc4782054ebf","system_id":"levelo_inurba_marseille","lat":43.29624,"lon":5.37165,"is_reserved":false,"is_disabled":false,"rental_uris":{"android":"levelo://app?vid=1df56fac-cdd0-4f45-a257-cc4782054ebf","ios":"levelo://app?vid=1df56fac-cdd0-4f45-a257-cc4782054ebf"},"vehicle_type_id":"4","last_reported":1732529444,"current_range_meters":22000,"station_id":"ce4bgnh2rcd13ifvqc0g","pricing_plan_id":"cebpf4jnsgd1na2vs0mg"},{"bike_id":"dad9e197-4927-4fd9-8cfb-d1c31e46b32c","system_id":"levelo_inurba_marseille","lat":43.25941,"lon":5.40903,"is_reserved":false,"is_disabled":false,"rental_uris":{"android":"levelo://app?vid=dad9e197-4927-4fd9-8cfb-d1c31e46b32c","ios":"levelo://app?vid=dad9e197-4927-4fd9-8cfb-d1c31e46b32c"},"vehicle_type_id":"4","last_reported":1732529444,"current_range_meters":24000,"station_id":"ce4bhm92rcd13ifvqglg","pricing_plan_id":"cebpf4jnsgd1na2vs0mg"},{"bike_id":"afd6780a-ec6a-484f-a0a4-35b0a9f20d14","system_id":"levelo_inurba_marseille","lat":43.31486,"lon":5.37308,"is_reserved":false,"is_disabled":false,"rental_uris":{"android":"levelo://app?vid=afd6780a-ec6a-484f-a0a4-35b0a9f20d14","ios":"levelo://app?vid=afd6780a-ec6a-484f-a0a4-35b0a9f20d14"},"vehicle_type_id":"4","last_reported":1732529444,"current_range_meters":22400,"station_id":"ce4bgt12rcd13ifvqcd0","pricing_plan_id":"cebpf4jnsgd1na2vs0mg"},{"bike_id":"0542e3a4-d9ee-4253-921f-c19a13e0978d","system_id":"levelo_inurba_marseille","lat":43.30469,"lon":5.37895,"is_reserved":false,"is_disabled":false,"rental_uris":{"android":"levelo://app?vid=0542e3a4-d9ee-4253-921f-c19a13e0978d","ios":"levelo://app?vid=0542e3a4-d9ee-4253-921f-c19a13e0978d"},"vehicle_type_id":"4","last_reported":1732529444,"current_range_meters":14000,"station_id":"ce4bgup2rcd13ifvqcn0","pricing_plan_id":"cebpf4jnsgd1na2vs0mg"},{"bike_id":"d57aab1f-4226-4c67-9f52-f1c27b38e5e5","system_id":"levelo_inurba_marseille","lat":43.28571,"lon":5.39486,"is_reserved":false,"is_disabled":false,"rental_uris":{"android":"levelo://app?vid=d57aab1f-4226-4c67-9f52-f1c27b38e5e5","ios":"levelo://app?vid=d57aab1f-4226-4c67-9f52-f1c27b38e5e5"},"vehicle_type_id":"4","last_reported":1732529444,"current_range_meters":38800,"station_id":"ce4bh292rcd13ifvqdg0","pricing_plan_id":"cebpf4jnsgd1na2vs0mg"},{"bike_id":"dfb15e96-9dde-4d9b-939f-f438c0e11409","system_id":"levelo_inurba_marseille","lat":43.27621,"lon":5.361,"is_reserved":false,"is_disabled":false,"rental_uris":{"android":"levelo://app?vid=dfb15e96-9dde-4d9b-939f-f438c0e11409","ios":"levelo://app?vid=dfb15e96-9dde-4d9b-939f-f438c0e11409"},"vehicle_type_id":"4","last_reported":1732529444,"current_range_meters":36000,"station_id":"ce4bgj92rcd13ifvqbe0","pricing_plan_id":"cebpf4jnsgd1na2vs0mg"},{"bike_id":"5366f21d-7de9-4694-a22c-f91f42d6d3de","system_id":"levelo_inurba_marseille","lat":43.30546,"lon":5.36698,"is_reserved":false,"is_disabled":false,"rental_uris":{"android":"levelo://app?vid=5366f21d-7de9-4694-a22c-f91f42d6d3de","ios":"levelo://app?vid=5366f21d-7de9-4694-a22c-f91f42d6d3de"},"vehicle_type_id":"4","last_reported":1732529444,"current_range_meters":36400,"station_id":"ce4bgrp2rcd13ifvqc9g","pricing_plan_id":"cebpf4jnsgd1na2vs0mg"},{"bike_id":"94527a76-0bb1-4146-9d66-5a02656d021d","system_id":"levelo_inurba_marseille","lat":43.28156,"lon":5.42644,"is_reserved":false,"is_disabled":false,"rental_uris":{"android":"levelo://app?vid=94527a76-0bb1-4146-9d66-5a02656d021d","ios":"levelo://app?vid=94527a76-0bb1-4146-9d66-5a02656d021d"},"vehicle_type_id":"4","last_reported":1732529444,"current_range_meters":11200,"station_id":"ce4bhnh2rcd13ifvqgug","pricing_plan_id":"cebpf4jnsgd1na2vs0mg"},{"bike_id":"beeb9cde-e756-417e-9438-063201760635","system_id":"levelo_inurba_marseille","lat":43.31344,"lon":5.36712,"is_reserved":false,"is_disabled":false,"rental_uris":{"android":"levelo://app?vid=beeb9cde-e756-417e-9438-063201760635","ios":"levelo://app?vid=beeb9cde-e756-417e-9438-063201760635"},"vehicle_type_id":"4","last_reported":1732529444,"current_range_meters":38800,"station_id":"ce4bgr92rcd13ifvqc6g","pricing_plan_id":"cebpf4jnsgd1na2vs0mg"},{"bike_id":"d4a8d056-dde8-45a2-9002-27751ca1259a","system_id":"levelo_inurba_marseille","lat":43.27204,"lon":5.39191,"is_reserved":false,"is_disabled":true,"rental_uris":{"android":"levelo://app?vid=d4a8d056-dde8-45a2-9002-27751ca1259a","ios":"levelo://app?vid=d4a8d056-dde8-45a2-9002-27751ca1259a"},"vehicle_type_id":"4","last_reported":1732529444,"current_range_meters":8800,"station_id":"ce4bhhp2rcd13ifvqfm0","pricing_plan_id":"cebpf4jnsgd1na2vs0mg"},{"bike_id":"c7ac8377-b170-40fc-9739-4d35471a24c2","system_id":"levelo_inurba_marseille","lat":43.30953,"lon":5.39044,"is_reserved":false,"is_disabled":false,"rental_uris":{"android":"levelo://app?vid=c7ac8377-b170-40fc-9739-4d35471a24c2","ios":"levelo://app?vid=c7ac8377-b170-40fc-9739-4d35471a24c2"},"vehicle_type_id":"4","last_reported":1732529444,"current_range_meters":34000,"station_id":"ce4bgup2rcd13ifvqco0","pricing_plan_id":"cebpf4jnsgd1na2vs0mg"},{"bike_id":"2d76a46c-0b1d-4012-b930-acc0f89163be","system_id":"levelo_inurba_marseille","lat":43.31238,"lon":5.36857,"is_reserved":false,"is_disabled":false,"rental_uris":{"android":"levelo://app?vid=2d76a46c-0b1d-4012-b930-acc0f89163be","ios":"levelo://app?vid=2d76a46c-0b1d-4012-b930-acc0f89163be"},"vehicle_type_id":"4","last_reported":1732529444,"current_range_meters":24400,"station_id":"ce4bgl92rcd13ifvqbq0","pricing_plan_id":"cebpf4jnsgd1na2vs0mg"},{"bike_id":"1d480d76-bb73-4781-930a-16c68fdce680","system_id":"levelo_inurba_marseille","lat":43.25576,"lon":5.38233,"is_reserved":false,"is_disabled":false,"rental_uris":{"android":"levelo://app?vid=1d480d76-bb73-4781-930a-16c68fdce680","ios":"levelo://app?vid=1d480d76-bb73-4781-930a-16c68fdce680"},"vehicle_type_id":"4","last_reported":1732529444,"current_range_meters":28800,"station_id":"ce4bhih2rcd13ifvqfs0","pricing_plan_id":"cebpf4jnsgd1na2vs0mg"},{"bike_id":"5fd15dc3-55eb-40c1-a750-a23bc751f5e6","system_id":"levelo_inurba_marseille","lat":43.29888,"lon":5.38917,"is_reserved":false,"is_disabled":false,"rental_uris":{"android":"levelo://app?vid=5fd15dc3-55eb-40c1-a750-a23bc751f5e6","ios":"levelo://app?vid=5fd15dc3-55eb-40c1-a750-a23bc751f5e6"},"vehicle_type_id":"4","last_reported":1732529444,"current_range_meters":39200,"station_id":"ce4bh392rcd13ifvqdl0","pricing_plan_id":"cebpf4jnsgd1na2vs0mg"},{"bike_id":"d5f4879c-4dae-42ac-a7d5-9a65246905af","system_id":"levelo_inurba_marseille","lat":43.25865,"lon":5.39895,"is_reserved":false,"is_disabled":true,"rental_uris":{"android":"levelo://app?vid=d5f4879c-4dae-42ac-a7d5-9a65246905af","ios":"levelo://app?vid=d5f4879c-4dae-42ac-a7d5-9a65246905af"},"vehicle_type_id":"4","last_reported":1732529444,"current_range_meters":0,"station_id":"ce4bhl92rcd13ifvqghg","pricing_plan_id":"cebpf4jnsgd1na2vs0mg"},{"bike_id":"f194ce90-013c-4fc7-8be7-5bad56e3b52c","system_id":"levelo_inurba_marseille","lat":43.2408,"lon":5.37747,"is_reserved":false,"is_disabled":false,"rental_uris":{"android":"levelo://app?vid=f194ce90-013c-4fc7-8be7-5bad56e3b52c","ios":"levelo://app?vid=f194ce90-013c-4fc7-8be7-5bad56e3b52c"},"vehicle_type_id":"4","last_reported":1732529444,"current_range_meters":38800,"station_id":"ce4bhnp2rcd13ifvqgvg","pricing_plan_id":"cebpf4jnsgd1na2vs0mg"},{"bike_id":"bda227ed-32f5-420d-a515-78943985b838","system_id":"levelo_inurba_marseille","lat":43.30163,"lon":5.38107,"is_reserved":false,"is_disabled":true,"rental_uris":{"android":"levelo://app?vid=bda227ed-32f5-420d-a515-78943985b838","ios":"levelo://app?vid=bda227ed-32f5-420d-a515-78943985b838"},"vehicle_type_id":"4","last_reported":1732529444,"current_range_meters":31200,"station_id":"ce4bgjp2rcd13ifvqbh0","pricing_plan_id":"cebpf4jnsgd1na2vs0mg"},{"bike_id":"30585094-ecfe-43ac-ae36-000c4a5ab426","system_id":"levelo_inurba_marseille","lat":43.30925,"lon":5.38953,"is_reserved":false,"is_disabled":true,"rental_uris":{"android":"levelo://app?vid=30585094-ecfe-43ac-ae36-000c4a5ab426","ios":"levelo://app?vid=30585094-ecfe-43ac-ae36-000c4a5ab426"},"vehicle_type_id":"4","last_reported":1732529444,"current_range_meters":17200,"station_id":"ce4bgup2rcd13ifvqco0","pricing_plan_id":"cebpf4jnsgd1na2vs0mg"},{"bike_id":"23cca0dc-750e-41b1-84e5-b69d86b98da2","system_id":"levelo_inurba_marseille","lat":43.25113,"lon":5.40319,"is_reserved":false,"is_disabled":false,"rental_uris":{"android":"levelo://app?vid=23cca0dc-750e-41b1-84e5-b69d86b98da2","ios":"levelo://app?vid=23cca0dc-750e-41b1-84e5-b69d86b98da2"},"vehicle_type_id":"4","last_reported":1732529444,"current_range_meters":38800,"station_id":"ce4bhlh2rcd13ifvqgig","pricing_plan_id":"cebpf4jnsgd1na2vs0mg"},{"bike_id":"39b11e64-2962-470f-8250-90fe18d4a5f4","system_id":"levelo_inurba_marseille","lat":43.24721,"lon":5.39301,"is_reserved":false,"is_disabled":true,"rental_uris":{"android":"levelo://app?vid=39b11e64-2962-470f-8250-90fe18d4a5f4","ios":"levelo://app?vid=39b11e64-2962-470f-8250-90fe18d4a5f4"},"vehicle_type_id":"4","last_reported":1732529444,"current_range_meters":0,"station_id":"","pricing_plan_id":"cebpf4jnsgd1na2vs0mg"},{"bike_id":"96bdc386-972d-4abf-bdbc-fce33197b4f3","system_id":"levelo_inurba_marseille","lat":43.26682,"lon":5.38263,"is_reserved":false,"is_disabled":false,"rental_uris":{"android":"levelo://app?vid=96bdc386-972d-4abf-bdbc-fce33197b4f3","ios":"levelo://app?vid=96bdc386-972d-4abf-bdbc-fce33197b4f3"},"vehicle_type_id":"4","last_reported":1732529444,"current_range_meters":35600,"station_id":"ce4bhg92rcd13ifvqf90","pricing_plan_id":"cebpf4jnsgd1na2vs0mg"},{"bike_id":"48c65e97-1516-4538-82d5-5272854a7544","system_id":"levelo_inurba_marseille","lat":43.32488,"lon":5.36571,"is_reserved":false,"is_disabled":false,"rental_uris":{"android":"levelo://app?vid=48c65e97-1516-4538-82d5-5272854a7544","ios":"levelo://app?vid=48c65e97-1516-4538-82d5-5272854a7544"},"vehicle_type_id":"4","last_reported":1732529444,"current_range_meters":38000,"station_id":"ce4bhs12rcd13ifvqhvg","pricing_plan_id":"cebpf4jnsgd1na2vs0mg"},{"bike_id":"3ade58a9-2491-481a-86c5-e1c95f66dde0","system_id":"levelo_inurba_marseille","lat":43.24075,"lon":5.37774,"is_reserved":false,"is_disabled":true,"rental_uris":{"android":"levelo://app?vid=3ade58a9-2491-481a-86c5-e1c95f66dde0","ios":"levelo://app?vid=3ade58a9-2491-481a-86c5-e1c95f66dde0"},"vehicle_type_id":"4","last_reported":1732529444,"current_range_meters":25600,"station_id":"ce4bhnp2rcd13ifvqgvg","pricing_plan_id":"cebpf4jnsgd1na2vs0mg"},{"bike_id":"b38ba1c3-c348-4ee5-bf26-151e26870edd","system_id":"levelo_inurba_marseille","lat":43.2872,"lon":5.3794,"is_reserved":false,"is_disabled":false,"rental_uris":{"android":"levelo://app?vid=b38ba1c3-c348-4ee5-bf26-151e26870edd","ios":"levelo://app?vid=b38ba1c3-c348-4ee5-bf26-151e26870edd"},"vehicle_type_id":"4","last_reported":1732529444,"current_range_meters":38400,"station_id":"ce4bh9p2rcd13ifvqec0","pricing_plan_id":"cebpf4jnsgd1na2vs0mg"},{"bike_id":"efa12b00-49b6-4085-b62c-84b7c0766a16","system_id":"levelo_inurba_marseille","lat":43.27494,"lon":5.42444,"is_reserved":false,"is_disabled":false,"rental_uris":{"android":"levelo://app?vid=efa12b00-49b6-4085-b62c-84b7c0766a16","ios":"levelo://app?vid=efa12b00-49b6-4085-b62c-84b7c0766a16"},"vehicle_type_id":"4","last_reported":1732529444,"current_range_meters":16800,"station_id":"ce4bhn92rcd13ifvqgrg","pricing_plan_id":"cebpf4jnsgd1na2vs0mg"},{"bike_id":"e55d71d0-970e-4e17-ba14-4482cf574a53","system_id":"levelo_inurba_marseille","lat":43.29639,"lon":5.36881,"is_reserved":false,"is_disabled":false,"rental_uris":{"android":"levelo://app?vid=e55d71d0-970e-4e17-ba14-4482cf574a53","ios":"levelo://app?vid=e55d71d0-970e-4e17-ba14-4482cf574a53"},"vehicle_type_id":"4","last_reported":1732529444,"current_range_meters":34800,"station_id":"","pricing_plan_id":"cebpf4jnsgd1na2vs0mg"},{"bike_id":"39772c2f-fe87-4f2b-a94f-704958df3c08","system_id":"levelo_inurba_marseille","lat":43.23156,"lon":5.43719,"is_reserved":false,"is_disabled":false,"rental_uris":{"android":"levelo://app?vid=39772c2f-fe87-4f2b-a94f-704958df3c08","ios":"levelo://app?vid=39772c2f-fe87-4f2b-a94f-704958df3c08"},"vehicle_type_id":"4","last_reported":1732529444,"current_range_meters":7200,"station_id":"ce4bhmp2rcd13ifvqgog","pricing_plan_id":"cebpf4jnsgd1na2vs0mg"},{"bike_id":"7a93babd-21da-44be-8b8d-18f24429f474","system_id":"levelo_inurba_marseille","lat":43.29973,"lon":5.38482,"is_reserved":false,"is_disabled":true,"rental_uris":{"android":"levelo://app?vid=7a93babd-21da-44be-8b8d-18f24429f474","ios":"levelo://app?vid=7a93babd-21da-44be-8b8d-18f24429f474"},"vehicle_type_id":"4","last_reported":1732529444,"current_range_meters":0,"station_id":"ce4bgj92rcd13ifvqbd0","pricing_plan_id":"cebpf4jnsgd1na2vs0mg"},{"bike_id":"12f3b46d-78df-40dc-8567-c239b10c785c","system_id":"levelo_inurba_marseille","lat":43.2987,"lon":5.39729,"is_reserved":false,"is_disabled":false,"rental_uris":{"android":"levelo://app?vid=12f3b46d-78df-40dc-8567-c239b10c785c","ios":"levelo://app?vid=12f3b46d-78df-40dc-8567-c239b10c785c"},"vehicle_type_id":"4","last_reported":1732529444,"current_range_meters":31200,"station_id":"ce4bh0h2rcd13ifvqd50","pricing_plan_id":"cebpf4jnsgd1na2vs0mg"},{"bike_id":"26ec1a22-5020-45e4-ab45-512c7f67d5dd","system_id":"levelo_inurba_marseille","lat":43.3205,"lon":5.41547,"is_reserved":false,"is_disabled":true,"rental_uris":{"android":"levelo://app?vid=26ec1a22-5020-45e4-ab45-512c7f67d5dd","ios":"levelo://app?vid=26ec1a22-5020-45e4-ab45-512c7f67d5dd"},"vehicle_type_id":"4","last_reported":1732529444,"current_range_meters":16800,"station_id":"ce4bhq92rcd13ifvqhkg","pricing_plan_id":"cebpf4jnsgd1na2vs0mg"},{"bike_id":"fcd3182e-4265-46df-9915-90f56a49075e","system_id":"levelo_inurba_marseille","lat":43.25584,"lon":5.38241,"is_reserved":false,"is_disabled":false,"rental_uris":{"android":"levelo://app?vid=fcd3182e-4265-46df-9915-90f56a49075e","ios":"levelo://app?vid=fcd3182e-4265-46df-9915-90f56a49075e"},"vehicle_type_id":"4","last_reported":1732529444,"current_range_meters":10800,"station_id":"ce4bhih2rcd13ifvqfs0","pricing_plan_id":"cebpf4jnsgd1na2vs0mg"},{"bike_id":"f0c9b009-6e7d-4316-96af-3036572d9258","system_id":"levelo_inurba_marseille","lat":43.29546,"lon":5.37492,"is_reserved":false,"is_disabled":true,"rental_uris":{"android":"levelo://app?vid=f0c9b009-6e7d-4316-96af-3036572d9258","ios":"levelo://app?vid=f0c9b009-6e7d-4316-96af-3036572d9258"},"vehicle_type_id":"4","last_reported":1732529444,"current_range_meters":25600,"station_id":"ce4bgkp2rcd13ifvqbmg","pricing_plan_id":"cebpf4jnsgd1na2vs0mg"},{"bike_id":"d5c96038-66b1-467f-80c9-4d99269c8f9e","system_id":"levelo_inurba_marseille","lat":43.27943,"lon":5.4104,"is_reserved":false,"is_disabled":false,"rental_uris":{"android":"levelo://app?vid=d5c96038-66b1-467f-80c9-4d99269c8f9e","ios":"levelo://app?vid=d5c96038-66b1-467f-80c9-4d99269c8f9e"},"vehicle_type_id":"4","last_reported":1732529444,"current_range_meters":25600,"station_id":"ce4bhnp2rcd13ifvqh0g","pricing_plan_id":"cebpf4jnsgd1na2vs0mg"},{"bike_id":"7b3474c2-fa66-41c1-bef6-a30f5ba7e596","system_id":"levelo_inurba_marseille","lat":43.27688,"lon":5.38921,"is_reserved":false,"is_disabled":false,"rental_uris":{"android":"levelo://app?vid=7b3474c2-fa66-41c1-bef6-a30f5ba7e596","ios":"levelo://app?vid=7b3474c2-fa66-41c1-bef6-a30f5ba7e596"},"vehicle_type_id":"4","last_reported":1732529444,"current_range_meters":39200,"station_id":"ce4bhi12rcd13ifvqfo0","pricing_plan_id":"cebpf4jnsgd1na2vs0mg"},{"bike_id":"12051159-4504-453c-9b63-d6bb071670be","system_id":"levelo_inurba_marseille","lat":43.31342,"lon":5.36721,"is_reserved":false,"is_disabled":false,"rental_uris":{"android":"levelo://app?vid=12051159-4504-453c-9b63-d6bb071670be","ios":"levelo://app?vid=12051159-4504-453c-9b63-d6bb071670be"},"vehicle_type_id":"4","last_reported":1732529444,"current_range_meters":12800,"station_id":"ce4bgr92rcd13ifvqc6g","pricing_plan_id":"cebpf4jnsgd1na2vs0mg"},{"bike_id":"2e3c977c-3b2c-4491-90f8-6f12e0366c1f","system_id":"levelo_inurba_marseille","lat":43.27181,"lon":5.41002,"is_reserved":false,"is_disabled":false,"rental_uris":{"android":"levelo://app?vid=2e3c977c-3b2c-4491-90f8-6f12e0366c1f","ios":"levelo://app?vid=2e3c977c-3b2c-4491-90f8-6f12e0366c1f"},"vehicle_type_id":"4","last_reported":1732529444,"current_range_meters":28400,"station_id":"ce4bhl12rcd13ifvqgf0","pricing_plan_id":"cebpf4jnsgd1na2vs0mg"},{"bike_id":"565a0b0b-afe1-4da1-b2e2-0df8233591e4","system_id":"levelo_inurba_marseille","lat":43.25104,"lon":5.40329,"is_reserved":false,"is_disabled":true,"rental_uris":{"android":"levelo://app?vid=565a0b0b-afe1-4da1-b2e2-0df8233591e4","ios":"levelo://app?vid=565a0b0b-afe1-4da1-b2e2-0df8233591e4"},"vehicle_type_id":"4","last_reported":1732529444,"current_range_meters":10000,"station_id":"ce4bhlh2rcd13ifvqgig","pricing_plan_id":"cebpf4jnsgd1na2vs0mg"},{"bike_id":"1e126baa-22b4-4cf7-a05e-1c0611873009","system_id":"levelo_inurba_marseille","lat":43.311192,"lon":5.377708,"is_reserved":false,"is_disabled":true,"rental_uris":{"android":"levelo://app?vid=1e126baa-22b4-4cf7-a05e-1c0611873009","ios":"levelo://app?vid=1e126baa-22b4-4cf7-a05e-1c0611873009"},"vehicle_type_id":"4","last_reported":1732529444,"current_range_meters":0,"station_id":"","pricing_plan_id":"cebpf4jnsgd1na2vs0mg"},{"bike_id":"5c95d8c2-946c-416e-8777-91035ec11cc5","system_id":"levelo_inurba_marseille","lat":43.30473,"lon":5.37899,"is_reserved":false,"is_disabled":false,"rental_uris":{"android":"levelo://app?vid=5c95d8c2-946c-416e-8777-91035ec11cc5","ios":"levelo://app?vid=5c95d8c2-946c-416e-8777-91035ec11cc5"},"vehicle_type_id":"4","last_reported":1732529444,"current_range_meters":22400,"station_id":"ce4bgup2rcd13ifvqcn0","pricing_plan_id":"cebpf4jnsgd1na2vs0mg"},{"bike_id":"990d2171-d6c0-44a9-b1d7-b6a9751023c6","system_id":"levelo_inurba_marseille","lat":43.2408,"lon":5.37749,"is_reserved":false,"is_disabled":false,"rental_uris":{"android":"levelo://app?vid=990d2171-d6c0-44a9-b1d7-b6a9751023c6","ios":"levelo://app?vid=990d2171-d6c0-44a9-b1d7-b6a9751023c6"},"vehicle_type_id":"4","last_reported":1732529444,"current_range_meters":30800,"station_id":"ce4bhnp2rcd13ifvqgvg","pricing_plan_id":"cebpf4jnsgd1na2vs0mg"},{"bike_id":"7180877b-2a6a-4033-b012-f37bbbaafde1","system_id":"levelo_inurba_marseille","lat":43.2669,"lon":5.38269,"is_reserved":false,"is_disabled":false,"rental_uris":{"android":"levelo://app?vid=7180877b-2a6a-4033-b012-f37bbbaafde1","ios":"levelo://app?vid=7180877b-2a6a-4033-b012-f37bbbaafde1"},"vehicle_type_id":"4","last_reported":1732529444,"current_range_meters":28400,"station_id":"ce4bhg92rcd13ifvqf90","pricing_plan_id":"cebpf4jnsgd1na2vs0mg"},{"bike_id":"ea5fdbcd-a190-4690-ab11-f16c9d2539cb","system_id":"levelo_inurba_marseille","lat":43.34141,"lon":5.409,"is_reserved":false,"is_disabled":false,"rental_uris":{"android":"levelo://app?vid=ea5fdbcd-a190-4690-ab11-f16c9d2539cb","ios":"levelo://app?vid=ea5fdbcd-a190-4690-ab11-f16c9d2539cb"},"vehicle_type_id":"4","last_reported":1732529444,"current_range_meters":9600,"station_id":"ce4bhqh2rcd13ifvqhlg","pricing_plan_id":"cebpf4jnsgd1na2vs0mg"},{"bike_id":"cde840c5-746e-4218-9591-95d6d0107105","system_id":"levelo_inurba_marseille","lat":43.29075,"lon":5.3716,"is_reserved":false,"is_disabled":false,"rental_uris":{"android":"levelo://app?vid=cde840c5-746e-4218-9591-95d6d0107105","ios":"levelo://app?vid=cde840c5-746e-4218-9591-95d6d0107105"},"vehicle_type_id":"4","last_reported":1732529444,"current_range_meters":38800,"station_id":"ce4bh5p2rcd13ifvqe4g","pricing_plan_id":"cebpf4jnsgd1na2vs0mg"},{"bike_id":"5c75d5a6-b69d-43c4-a98b-d27d63f54dc9","system_id":"levelo_inurba_marseille","lat":43.240714,"lon":5.377598,"is_reserved":false,"is_disabled":false,"rental_uris":{"android":"levelo://app?vid=5c75d5a6-b69d-43c4-a98b-d27d63f54dc9","ios":"levelo://app?vid=5c75d5a6-b69d-43c4-a98b-d27d63f54dc9"},"vehicle_type_id":"4","last_reported":1732529444,"current_range_meters":13600,"station_id":"ce4bhnp2rcd13ifvqgvg","pricing_plan_id":"cebpf4jnsgd1na2vs0mg"},{"bike_id":"f922a751-61a1-4106-b26c-5b57882206b1","system_id":"levelo_inurba_marseille","lat":43.290987,"lon":5.381353,"is_reserved":false,"is_disabled":true,"rental_uris":{"android":"levelo://app?vid=f922a751-61a1-4106-b26c-5b57882206b1","ios":"levelo://app?vid=f922a751-61a1-4106-b26c-5b57882206b1"},"vehicle_type_id":"4","last_reported":1732529444,"current_range_meters":0,"station_id":"ce4bh512rcd13ifvqe2g","pricing_plan_id":"cebpf4jnsgd1na2vs0mg"},{"bike_id":"6ec37f76-c454-4115-b5d1-b36d33ac60ca","system_id":"levelo_inurba_marseille","lat":43.24665,"lon":5.38164,"is_reserved":false,"is_disabled":false,"rental_uris":{"android":"levelo://app?vid=6ec37f76-c454-4115-b5d1-b36d33ac60ca","ios":"levelo://app?vid=6ec37f76-c454-4115-b5d1-b36d33ac60ca"},"vehicle_type_id":"4","last_reported":1732529444,"current_range_meters":10000,"station_id":"ce4bhih2rcd13ifvqfr0","pricing_plan_id":"cebpf4jnsgd1na2vs0mg"},{"bike_id":"c01413e4-6898-45ee-be35-ef8f0832c3bc","system_id":"levelo_inurba_marseille","lat":43.32368,"lon":5.38876,"is_reserved":false,"is_disabled":true,"rental_uris":{"android":"levelo://app?vid=c01413e4-6898-45ee-be35-ef8f0832c3bc","ios":"levelo://app?vid=c01413e4-6898-45ee-be35-ef8f0832c3bc"},"vehicle_type_id":"4","last_reported":1732529444,"current_range_meters":28000,"station_id":"ce4bhqp2rcd13ifvqhog","pricing_plan_id":"cebpf4jnsgd1na2vs0mg"},{"bike_id":"ccc6fda1-0f4f-4900-aa27-e91bec126254","system_id":"levelo_inurba_marseille","lat":43.30526,"lon":5.36701,"is_reserved":false,"is_disabled":false,"rental_uris":{"android":"levelo://app?vid=ccc6fda1-0f4f-4900-aa27-e91bec126254","ios":"levelo://app?vid=ccc6fda1-0f4f-4900-aa27-e91bec126254"},"vehicle_type_id":"4","last_reported":1732529444,"current_range_meters":35200,"station_id":"ce4bgrp2rcd13ifvqc9g","pricing_plan_id":"cebpf4jnsgd1na2vs0mg"},{"bike_id":"bb82b5e5-bae1-48f9-89d0-4a022e68f3cc","system_id":"levelo_inurba_marseille","lat":43.23151,"lon":5.4372,"is_reserved":false,"is_disabled":true,"rental_uris":{"android":"levelo://app?vid=bb82b5e5-bae1-48f9-89d0-4a022e68f3cc","ios":"levelo://app?vid=bb82b5e5-bae1-48f9-89d0-4a022e68f3cc"},"vehicle_type_id":"4","last_reported":1732529444,"current_range_meters":0,"station_id":"ce4bhmp2rcd13ifvqgog","pricing_plan_id":"cebpf4jnsgd1na2vs0mg"},{"bike_id":"062ce39f-5a4c-4d0e-8387-7736e048576e","system_id":"levelo_inurba_marseille","lat":43.26682,"lon":5.38276,"is_reserved":false,"is_disabled":false,"rental_uris":{"android":"levelo://app?vid=062ce39f-5a4c-4d0e-8387-7736e048576e","ios":"levelo://app?vid=062ce39f-5a4c-4d0e-8387-7736e048576e"},"vehicle_type_id":"4","last_reported":1732529444,"current_range_meters":28800,"station_id":"ce4bhg92rcd13ifvqf90","pricing_plan_id":"cebpf4jnsgd1na2vs0mg"},{"bike_id":"7767996f-2f6e-4bc8-bbf5-81dc5bff054c","system_id":"levelo_inurba_marseille","lat":43.29297,"lon":5.37443,"is_reserved":false,"is_disabled":true,"rental_uris":{"android":"levelo://app?vid=7767996f-2f6e-4bc8-bbf5-81dc5bff054c","ios":"levelo://app?vid=7767996f-2f6e-4bc8-bbf5-81dc5bff054c"},"vehicle_type_id":"4","last_reported":1732529444,"current_range_meters":37600,"station_id":"ce4bgi12rcd13ifvqb70","pricing_plan_id":"cebpf4jnsgd1na2vs0mg"},{"bike_id":"9465545f-af87-4599-bf7e-091832e32b7b","system_id":"levelo_inurba_marseille","lat":43.29537,"lon":5.38547,"is_reserved":false,"is_disabled":true,"rental_uris":{"android":"levelo://app?vid=9465545f-af87-4599-bf7e-091832e32b7b","ios":"levelo://app?vid=9465545f-af87-4599-bf7e-091832e32b7b"},"vehicle_type_id":"4","last_reported":1732529444,"current_range_meters":26000,"station_id":"ce4bgih2rcd13ifvqba0","pricing_plan_id":"cebpf4jnsgd1na2vs0mg"},{"bike_id":"238efe69-5cfe-499d-b47c-e3a5d4524dd2","system_id":"levelo_inurba_marseille","lat":43.27675,"lon":5.38897,"is_reserved":false,"is_disabled":false,"rental_uris":{"android":"levelo://app?vid=238efe69-5cfe-499d-b47c-e3a5d4524dd2","ios":"levelo://app?vid=238efe69-5cfe-499d-b47c-e3a5d4524dd2"},"vehicle_type_id":"4","last_reported":1732529444,"current_range_meters":37600,"station_id":"ce4bhi12rcd13ifvqfo0","pricing_plan_id":"cebpf4jnsgd1na2vs0mg"},{"bike_id":"c44be2ca-d29c-4055-a595-144cb499e948","system_id":"levelo_inurba_marseille","lat":43.27208,"lon":5.39193,"is_reserved":false,"is_disabled":true,"rental_uris":{"android":"levelo://app?vid=c44be2ca-d29c-4055-a595-144cb499e948","ios":"levelo://app?vid=c44be2ca-d29c-4055-a595-144cb499e948"},"vehicle_type_id":"4","last_reported":1732529444,"current_range_meters":9200,"station_id":"ce4bhhp2rcd13ifvqfm0","pricing_plan_id":"cebpf4jnsgd1na2vs0mg"},{"bike_id":"40cfd9d7-e32d-46e7-9583-673a5ca6d2ed","system_id":"levelo_inurba_marseille","lat":43.26683,"lon":5.38264,"is_reserved":false,"is_disabled":false,"rental_uris":{"android":"levelo://app?vid=40cfd9d7-e32d-46e7-9583-673a5ca6d2ed","ios":"levelo://app?vid=40cfd9d7-e32d-46e7-9583-673a5ca6d2ed"},"vehicle_type_id":"4","last_reported":1732529444,"current_range_meters":7200,"station_id":"ce4bhg92rcd13ifvqf90","pricing_plan_id":"cebpf4jnsgd1na2vs0mg"},{"bike_id":"0e528257-233b-4861-bcc1-ce36c3074c87","system_id":"levelo_inurba_marseille","lat":43.26935,"lon":5.38914,"is_reserved":false,"is_disabled":false,"rental_uris":{"android":"levelo://app?vid=0e528257-233b-4861-bcc1-ce36c3074c87","ios":"levelo://app?vid=0e528257-233b-4861-bcc1-ce36c3074c87"},"vehicle_type_id":"4","last_reported":1732529444,"current_range_meters":25600,"station_id":"ce4bhhh2rcd13ifvqfl0","pricing_plan_id":"cebpf4jnsgd1na2vs0mg"},{"bike_id":"e9fb58c7-51fa-41b2-8b88-015f3d1495a8","system_id":"levelo_inurba_marseille","lat":43.3171,"lon":5.42427,"is_reserved":false,"is_disabled":false,"rental_uris":{"android":"levelo://app?vid=e9fb58c7-51fa-41b2-8b88-015f3d1495a8","ios":"levelo://app?vid=e9fb58c7-51fa-41b2-8b88-015f3d1495a8"},"vehicle_type_id":"4","last_reported":1732529444,"current_range_meters":26800,"station_id":"ce4bhp92rcd13ifvqhbg","pricing_plan_id":"cebpf4jnsgd1na2vs0mg"},{"bike_id":"835b00c2-64c0-4cbe-82bb-c78dd70919e3","system_id":"levelo_inurba_marseille","lat":43.279655,"lon":5.40794,"is_reserved":false,"is_disabled":false,"rental_uris":{"android":"levelo://app?vid=835b00c2-64c0-4cbe-82bb-c78dd70919e3","ios":"levelo://app?vid=835b00c2-64c0-4cbe-82bb-c78dd70919e3"},"vehicle_type_id":"4","last_reported":1732529444,"current_range_meters":8000,"station_id":"","pricing_plan_id":"cebpf4jnsgd1na2vs0mg"},{"bike_id":"86d19f07-e05d-4f50-9c50-059ba3378d70","system_id":"levelo_inurba_marseille","lat":43.28137,"lon":5.42646,"is_reserved":false,"is_disabled":false,"rental_uris":{"android":"levelo://app?vid=86d19f07-e05d-4f50-9c50-059ba3378d70","ios":"levelo://app?vid=86d19f07-e05d-4f50-9c50-059ba3378d70"},"vehicle_type_id":"4","last_reported":1732529444,"current_range_meters":38000,"station_id":"ce4bhnh2rcd13ifvqgug","pricing_plan_id":"cebpf4jnsgd1na2vs0mg"},{"bike_id":"3f36a52d-877a-445e-9cf0-dd06c49f1e4b","system_id":"levelo_inurba_marseille","lat":43.304178,"lon":5.412863,"is_reserved":false,"is_disabled":false,"rental_uris":{"android":"levelo://app?vid=3f36a52d-877a-445e-9cf0-dd06c49f1e4b","ios":"levelo://app?vid=3f36a52d-877a-445e-9cf0-dd06c49f1e4b"},"vehicle_type_id":"4","last_reported":1732529444,"current_range_meters":38400,"station_id":"ce4bhop2rcd13ifvqh8g","pricing_plan_id":"cebpf4jnsgd1na2vs0mg"},{"bike_id":"134d112a-4c34-415e-9b0c-5a5a133cbc49","system_id":"levelo_inurba_marseille","lat":43.31752,"lon":5.39013,"is_reserved":false,"is_disabled":false,"rental_uris":{"android":"levelo://app?vid=134d112a-4c34-415e-9b0c-5a5a133cbc49","ios":"levelo://app?vid=134d112a-4c34-415e-9b0c-5a5a133cbc49"},"vehicle_type_id":"4","last_reported":1732529444,"current_range_meters":17200,"station_id":"ce4bhqp2rcd13ifvqhng","pricing_plan_id":"cebpf4jnsgd1na2vs0mg"},{"bike_id":"8f2aa4c1-472e-48b8-b9a7-e83545c95d08","system_id":"levelo_inurba_marseille","lat":43.3054,"lon":5.36544,"is_reserved":false,"is_disabled":false,"rental_uris":{"android":"levelo://app?vid=8f2aa4c1-472e-48b8-b9a7-e83545c95d08","ios":"levelo://app?vid=8f2aa4c1-472e-48b8-b9a7-e83545c95d08"},"vehicle_type_id":"4","last_reported":1732529444,"current_range_meters":34000,"station_id":"ce4bgs12rcd13ifvqcag","pricing_plan_id":"cebpf4jnsgd1na2vs0mg"},{"bike_id":"a63f026b-964a-429c-9110-87bd719c2c3a","system_id":"levelo_inurba_marseille","lat":43.29297,"lon":5.37444,"is_reserved":false,"is_disabled":true,"rental_uris":{"android":"levelo://app?vid=a63f026b-964a-429c-9110-87bd719c2c3a","ios":"levelo://app?vid=a63f026b-964a-429c-9110-87bd719c2c3a"},"vehicle_type_id":"4","last_reported":1732529444,"current_range_meters":30800,"station_id":"ce4bgi12rcd13ifvqb70","pricing_plan_id":"cebpf4jnsgd1na2vs0mg"},{"bike_id":"9c1bc8af-a489-4d15-8a86-e668ef94413e","system_id":"levelo_inurba_marseille","lat":43.28709,"lon":5.39984,"is_reserved":false,"is_disabled":false,"rental_uris":{"android":"levelo://app?vid=9c1bc8af-a489-4d15-8a86-e668ef94413e","ios":"levelo://app?vid=9c1bc8af-a489-4d15-8a86-e668ef94413e"},"vehicle_type_id":"4","last_reported":1732529444,"current_range_meters":22400,"station_id":"ce4bho92rcd13ifvqh3g","pricing_plan_id":"cebpf4jnsgd1na2vs0mg"},{"bike_id":"274b7a9d-ce06-40c5-8916-5cc6d59b84e5","system_id":"levelo_inurba_marseille","lat":43.30319,"lon":5.36899,"is_reserved":false,"is_disabled":false,"rental_uris":{"android":"levelo://app?vid=274b7a9d-ce06-40c5-8916-5cc6d59b84e5","ios":"levelo://app?vid=274b7a9d-ce06-40c5-8916-5cc6d59b84e5"},"vehicle_type_id":"4","last_reported":1732529444,"current_range_meters":38800,"station_id":"ce4bgqh2rcd13ifvqc5g","pricing_plan_id":"cebpf4jnsgd1na2vs0mg"},{"bike_id":"08117995-990e-4451-96a5-afc9c181642a","system_id":"levelo_inurba_marseille","lat":43.28612,"lon":5.35094,"is_reserved":false,"is_disabled":false,"rental_uris":{"android":"levelo://app?vid=08117995-990e-4451-96a5-afc9c181642a","ios":"levelo://app?vid=08117995-990e-4451-96a5-afc9c181642a"},"vehicle_type_id":"4","last_reported":1732529444,"current_range_meters":24000,"station_id":"ce4bhch2rcd13ifvqeug","pricing_plan_id":"cebpf4jnsgd1na2vs0mg"},{"bike_id":"856e29cb-295f-4f0c-9b6f-98ae7860111f","system_id":"levelo_inurba_marseille","lat":43.29552,"lon":5.42285,"is_reserved":false,"is_disabled":false,"rental_uris":{"android":"levelo://app?vid=856e29cb-295f-4f0c-9b6f-98ae7860111f","ios":"levelo://app?vid=856e29cb-295f-4f0c-9b6f-98ae7860111f"},"vehicle_type_id":"4","last_reported":1732529444,"current_range_meters":14000,"station_id":"ce4bhph2rcd13ifvqhdg","pricing_plan_id":"cebpf4jnsgd1na2vs0mg"},{"bike_id":"8c8c089c-8818-4508-83c4-0bc8578d2c57","system_id":"levelo_inurba_marseille","lat":43.29929,"lon":5.37465,"is_reserved":false,"is_disabled":false,"rental_uris":{"android":"levelo://app?vid=8c8c089c-8818-4508-83c4-0bc8578d2c57","ios":"levelo://app?vid=8c8c089c-8818-4508-83c4-0bc8578d2c57"},"vehicle_type_id":"4","last_reported":1732529444,"current_range_meters":10000,"station_id":"ce4bgjh2rcd13ifvqbg0","pricing_plan_id":"cebpf4jnsgd1na2vs0mg"},{"bike_id":"31d77af9-b2e3-42f4-b9be-40536570a291","system_id":"levelo_inurba_marseille","lat":43.32488,"lon":5.36555,"is_reserved":false,"is_disabled":false,"rental_uris":{"android":"levelo://app?vid=31d77af9-b2e3-42f4-b9be-40536570a291","ios":"levelo://app?vid=31d77af9-b2e3-42f4-b9be-40536570a291"},"vehicle_type_id":"4","last_reported":1732529444,"current_range_meters":30400,"station_id":"ce4bhs12rcd13ifvqhvg","pricing_plan_id":"cebpf4jnsgd1na2vs0mg"},{"bike_id":"e404727c-4eaa-4368-ab64-e95a9349ae5f","system_id":"levelo_inurba_marseille","lat":43.24177,"lon":5.39731,"is_reserved":false,"is_disabled":false,"rental_uris":{"android":"levelo://app?vid=e404727c-4eaa-4368-ab64-e95a9349ae5f","ios":"levelo://app?vid=e404727c-4eaa-4368-ab64-e95a9349ae5f"},"vehicle_type_id":"4","last_reported":1732529444,"current_range_meters":30800,"station_id":"ce4bhn12rcd13ifvqgpg","pricing_plan_id":"cebpf4jnsgd1na2vs0mg"},{"bike_id":"4cf68192-498e-49a8-b866-19367c604fb3","system_id":"levelo_inurba_marseille","lat":43.29578,"lon":5.39964,"is_reserved":false,"is_disabled":true,"rental_uris":{"android":"levelo://app?vid=4cf68192-498e-49a8-b866-19367c604fb3","ios":"levelo://app?vid=4cf68192-498e-49a8-b866-19367c604fb3"},"vehicle_type_id":"4","last_reported":1732529444,"current_range_meters":30400,"station_id":"ce4bh312rcd13ifvqdj0","pricing_plan_id":"cebpf4jnsgd1na2vs0mg"},{"bike_id":"d7ee426e-db7e-4692-94af-bdd36ef6fffe","system_id":"levelo_inurba_marseille","lat":43.26947,"lon":5.38635,"is_reserved":false,"is_disabled":false,"rental_uris":{"android":"levelo://app?vid=d7ee426e-db7e-4692-94af-bdd36ef6fffe","ios":"levelo://app?vid=d7ee426e-db7e-4692-94af-bdd36ef6fffe"},"vehicle_type_id":"4","last_reported":1732529444,"current_range_meters":38000,"station_id":"ce4bhh92rcd13ifvqfh0","pricing_plan_id":"cebpf4jnsgd1na2vs0mg"},{"bike_id":"c5af4674-87ec-4374-a948-f460ed903a78","system_id":"levelo_inurba_marseille","lat":43.24078,"lon":5.37742,"is_reserved":false,"is_disabled":false,"rental_uris":{"android":"levelo://app?vid=c5af4674-87ec-4374-a948-f460ed903a78","ios":"levelo://app?vid=c5af4674-87ec-4374-a948-f460ed903a78"},"vehicle_type_id":"4","last_reported":1732529444,"current_range_meters":39200,"station_id":"ce4bhnp2rcd13ifvqgvg","pricing_plan_id":"cebpf4jnsgd1na2vs0mg"},{"bike_id":"f374664c-1636-49b7-8bba-3022742724b0","system_id":"levelo_inurba_marseille","lat":43.31226,"lon":5.36851,"is_reserved":false,"is_disabled":false,"rental_uris":{"android":"levelo://app?vid=f374664c-1636-49b7-8bba-3022742724b0","ios":"levelo://app?vid=f374664c-1636-49b7-8bba-3022742724b0"},"vehicle_type_id":"4","last_reported":1732529444,"current_range_meters":28800,"station_id":"ce4bgl92rcd13ifvqbq0","pricing_plan_id":"cebpf4jnsgd1na2vs0mg"},{"bike_id":"254a152d-c50b-4e86-ac1c-23e9c6540d0e","system_id":"levelo_inurba_marseille","lat":43.262543,"lon":5.396903,"is_reserved":false,"is_disabled":false,"rental_uris":{"android":"levelo://app?vid=254a152d-c50b-4e86-ac1c-23e9c6540d0e","ios":"levelo://app?vid=254a152d-c50b-4e86-ac1c-23e9c6540d0e"},"vehicle_type_id":"4","last_reported":1732529444,"current_range_meters":32800,"station_id":"ce4bhlh2rcd13ifvqgig","pricing_plan_id":"cebpf4jnsgd1na2vs0mg"},{"bike_id":"fa5d650d-229f-4bcd-b96b-b57d02dc40bd","system_id":"levelo_inurba_marseille","lat":43.29563,"lon":5.37523,"is_reserved":false,"is_disabled":false,"rental_uris":{"android":"levelo://app?vid=fa5d650d-229f-4bcd-b96b-b57d02dc40bd","ios":"levelo://app?vid=fa5d650d-229f-4bcd-b96b-b57d02dc40bd"},"vehicle_type_id":"4","last_reported":1732529444,"current_range_meters":8400,"station_id":"ce4bgh92rcd13ifvqb50","pricing_plan_id":"cebpf4jnsgd1na2vs0mg"},{"bike_id":"ec84e7c9-17ec-41de-bfd0-71e79cbae93b","system_id":"levelo_inurba_marseille","lat":43.32039,"lon":5.41558,"is_reserved":false,"is_disabled":false,"rental_uris":{"android":"levelo://app?vid=ec84e7c9-17ec-41de-bfd0-71e79cbae93b","ios":"levelo://app?vid=ec84e7c9-17ec-41de-bfd0-71e79cbae93b"},"vehicle_type_id":"4","last_reported":1732529444,"current_range_meters":6400,"station_id":"ce4bhq92rcd13ifvqhkg","pricing_plan_id":"cebpf4jnsgd1na2vs0mg"},{"bike_id":"cb3e2ea1-6aaa-4c79-8af8-4aff457edba8","system_id":"levelo_inurba_marseille","lat":43.23147,"lon":5.4372,"is_reserved":false,"is_disabled":false,"rental_uris":{"android":"levelo://app?vid=cb3e2ea1-6aaa-4c79-8af8-4aff457edba8","ios":"levelo://app?vid=cb3e2ea1-6aaa-4c79-8af8-4aff457edba8"},"vehicle_type_id":"4","last_reported":1732529444,"current_range_meters":27600,"station_id":"ce4bhmp2rcd13ifvqgog","pricing_plan_id":"cebpf4jnsgd1na2vs0mg"},{"bike_id":"989faa0e-d884-40c6-8eed-a6fad4f4a251","system_id":"levelo_inurba_marseille","lat":43.26554,"lon":5.37287,"is_reserved":false,"is_disabled":false,"rental_uris":{"android":"levelo://app?vid=989faa0e-d884-40c6-8eed-a6fad4f4a251","ios":"levelo://app?vid=989faa0e-d884-40c6-8eed-a6fad4f4a251"},"vehicle_type_id":"4","last_reported":1732529444,"current_range_meters":10000,"station_id":"ce4bhg12rcd13ifvqf70","pricing_plan_id":"cebpf4jnsgd1na2vs0mg"},{"bike_id":"6a77cde1-ce49-473c-aa05-5c7828e65875","system_id":"levelo_inurba_marseille","lat":43.29794,"lon":5.38072,"is_reserved":false,"is_disabled":true,"rental_uris":{"android":"levelo://app?vid=6a77cde1-ce49-473c-aa05-5c7828e65875","ios":"levelo://app?vid=6a77cde1-ce49-473c-aa05-5c7828e65875"},"vehicle_type_id":"4","last_reported":1732529444,"current_range_meters":38800,"station_id":"ce4bgip2rcd13ifvqbb0","pricing_plan_id":"cebpf4jnsgd1na2vs0mg"},{"bike_id":"54f158e7-1fe0-4c86-b21f-09513cf7a0b8","system_id":"levelo_inurba_marseille","lat":43.25493,"lon":5.3765,"is_reserved":false,"is_disabled":true,"rental_uris":{"android":"levelo://app?vid=54f158e7-1fe0-4c86-b21f-09513cf7a0b8","ios":"levelo://app?vid=54f158e7-1fe0-4c86-b21f-09513cf7a0b8"},"vehicle_type_id":"4","last_reported":1732529444,"current_range_meters":26800,"station_id":"ce4bhh12rcd13ifvqff0","pricing_plan_id":"cebpf4jnsgd1na2vs0mg"},{"bike_id":"ba9ca061-531b-44d9-af62-3edc28860cec","system_id":"levelo_inurba_marseille","lat":43.32542,"lon":5.41442,"is_reserved":false,"is_disabled":true,"rental_uris":{"android":"levelo://app?vid=ba9ca061-531b-44d9-af62-3edc28860cec","ios":"levelo://app?vid=ba9ca061-531b-44d9-af62-3edc28860cec"},"vehicle_type_id":"4","last_reported":1732529444,"current_range_meters":30000,"station_id":"ce4bhq12rcd13ifvqhhg","pricing_plan_id":"cebpf4jnsgd1na2vs0mg"},{"bike_id":"93fe94db-033b-4622-98b4-d49f1d9109a6","system_id":"levelo_inurba_marseille","lat":43.29842,"lon":5.36259,"is_reserved":false,"is_disabled":false,"rental_uris":{"android":"levelo://app?vid=93fe94db-033b-4622-98b4-d49f1d9109a6","ios":"levelo://app?vid=93fe94db-033b-4622-98b4-d49f1d9109a6"},"vehicle_type_id":"4","last_reported":1732529444,"current_range_meters":36800,"station_id":"ce4bgpp2rcd13ifvqc3g","pricing_plan_id":"cebpf4jnsgd1na2vs0mg"},{"bike_id":"0fbfa73e-f4bf-486c-934c-0c477ca2d860","system_id":"levelo_inurba_marseille","lat":43.28434,"lon":5.39187,"is_reserved":false,"is_disabled":false,"rental_uris":{"android":"levelo://app?vid=0fbfa73e-f4bf-486c-934c-0c477ca2d860","ios":"levelo://app?vid=0fbfa73e-f4bf-486c-934c-0c477ca2d860"},"vehicle_type_id":"4","last_reported":1732529444,"current_range_meters":34000,"station_id":"ce4bhoh2rcd13ifvqh5g","pricing_plan_id":"cebpf4jnsgd1na2vs0mg"},{"bike_id":"2eca0a54-b574-4db5-8398-b952cfe77c8a","system_id":"levelo_inurba_marseille","lat":43.33604,"lon":5.4102,"is_reserved":false,"is_disabled":false,"rental_uris":{"android":"levelo://app?vid=2eca0a54-b574-4db5-8398-b952cfe77c8a","ios":"levelo://app?vid=2eca0a54-b574-4db5-8398-b952cfe77c8a"},"vehicle_type_id":"4","last_reported":1732529444,"current_range_meters":26000,"station_id":"ce4bhqh2rcd13ifvqhmg","pricing_plan_id":"cebpf4jnsgd1na2vs0mg"},{"bike_id":"aa717be1-dcce-416b-90e1-180e376a1e41","system_id":"levelo_inurba_marseille","lat":43.337444,"lon":5.374475,"is_reserved":false,"is_disabled":false,"rental_uris":{"android":"levelo://app?vid=aa717be1-dcce-416b-90e1-180e376a1e41","ios":"levelo://app?vid=aa717be1-dcce-416b-90e1-180e376a1e41"},"vehicle_type_id":"4","last_reported":1732529444,"current_range_meters":38800,"station_id":"","pricing_plan_id":"cebpf4jnsgd1na2vs0mg"},{"bike_id":"010675b9-621e-43ad-8db7-6d8375a2b95b","system_id":"levelo_inurba_marseille","lat":43.30911,"lon":5.36879,"is_reserved":false,"is_disabled":true,"rental_uris":{"android":"levelo://app?vid=010675b9-621e-43ad-8db7-6d8375a2b95b","ios":"levelo://app?vid=010675b9-621e-43ad-8db7-6d8375a2b95b"},"vehicle_type_id":"4","last_reported":1732529444,"current_range_meters":24400,"station_id":"ce4bgn92rcd13ifvqbvg","pricing_plan_id":"cebpf4jnsgd1na2vs0mg"},{"bike_id":"294eeb79-af1b-495a-909f-216801ae6b41","system_id":"levelo_inurba_marseille","lat":43.337444,"lon":5.374475,"is_reserved":false,"is_disabled":false,"rental_uris":{"android":"levelo://app?vid=294eeb79-af1b-495a-909f-216801ae6b41","ios":"levelo://app?vid=294eeb79-af1b-495a-909f-216801ae6b41"},"vehicle_type_id":"4","last_reported":1732529444,"current_range_meters":16400,"station_id":"","pricing_plan_id":"cebpf4jnsgd1na2vs0mg"},{"bike_id":"ea162e17-d5de-46c0-857e-8d5b8657b11f","system_id":"levelo_inurba_marseille","lat":43.30602,"lon":5.37219,"is_reserved":false,"is_disabled":true,"rental_uris":{"android":"levelo://app?vid=ea162e17-d5de-46c0-857e-8d5b8657b11f","ios":"levelo://app?vid=ea162e17-d5de-46c0-857e-8d5b8657b11f"},"vehicle_type_id":"4","last_reported":1732529444,"current_range_meters":0,"station_id":"ce4bgqh2rcd13ifvqc4g","pricing_plan_id":"cebpf4jnsgd1na2vs0mg"},{"bike_id":"6e1fd609-d080-48e3-881b-7f1b7d7fd1ca","system_id":"levelo_inurba_marseille","lat":43.24068,"lon":5.37757,"is_reserved":false,"is_disabled":false,"rental_uris":{"android":"levelo://app?vid=6e1fd609-d080-48e3-881b-7f1b7d7fd1ca","ios":"levelo://app?vid=6e1fd609-d080-48e3-881b-7f1b7d7fd1ca"},"vehicle_type_id":"4","last_reported":1732529444,"current_range_meters":28800,"station_id":"ce4bhnp2rcd13ifvqgvg","pricing_plan_id":"cebpf4jnsgd1na2vs0mg"},{"bike_id":"c0299046-c95c-4bcd-bc32-eb6d185f1ea9","system_id":"levelo_inurba_marseille","lat":43.29581,"lon":5.37494,"is_reserved":false,"is_disabled":true,"rental_uris":{"android":"levelo://app?vid=c0299046-c95c-4bcd-bc32-eb6d185f1ea9","ios":"levelo://app?vid=c0299046-c95c-4bcd-bc32-eb6d185f1ea9"},"vehicle_type_id":"4","last_reported":1732529444,"current_range_meters":35200,"station_id":"ce4bgh92rcd13ifvqb50","pricing_plan_id":"cebpf4jnsgd1na2vs0mg"},{"bike_id":"30faf04d-2e26-4e75-a89c-93563c3fb949","system_id":"levelo_inurba_marseille","lat":43.24076,"lon":5.37742,"is_reserved":false,"is_disabled":false,"rental_uris":{"android":"levelo://app?vid=30faf04d-2e26-4e75-a89c-93563c3fb949","ios":"levelo://app?vid=30faf04d-2e26-4e75-a89c-93563c3fb949"},"vehicle_type_id":"4","last_reported":1732529444,"current_range_meters":14000,"station_id":"ce4bhnp2rcd13ifvqgvg","pricing_plan_id":"cebpf4jnsgd1na2vs0mg"},{"bike_id":"3c4f4857-7284-4ad5-90d8-169a8693eb52","system_id":"levelo_inurba_marseille","lat":43.26678,"lon":5.38266,"is_reserved":false,"is_disabled":false,"rental_uris":{"android":"levelo://app?vid=3c4f4857-7284-4ad5-90d8-169a8693eb52","ios":"levelo://app?vid=3c4f4857-7284-4ad5-90d8-169a8693eb52"},"vehicle_type_id":"4","last_reported":1732529444,"current_range_meters":25200,"station_id":"ce4bhg92rcd13ifvqf90","pricing_plan_id":"cebpf4jnsgd1na2vs0mg"},{"bike_id":"4eda1827-5c29-4fa1-b315-03138939280c","system_id":"levelo_inurba_marseille","lat":43.24081,"lon":5.37748,"is_reserved":false,"is_disabled":false,"rental_uris":{"android":"levelo://app?vid=4eda1827-5c29-4fa1-b315-03138939280c","ios":"levelo://app?vid=4eda1827-5c29-4fa1-b315-03138939280c"},"vehicle_type_id":"4","last_reported":1732529444,"current_range_meters":35200,"station_id":"ce4bhnp2rcd13ifvqgvg","pricing_plan_id":"cebpf4jnsgd1na2vs0mg"},{"bike_id":"ad41734b-a8fa-482b-b392-8cd6d12dc01d","system_id":"levelo_inurba_marseille","lat":43.30185,"lon":5.36606,"is_reserved":false,"is_disabled":true,"rental_uris":{"android":"levelo://app?vid=ad41734b-a8fa-482b-b392-8cd6d12dc01d","ios":"levelo://app?vid=ad41734b-a8fa-482b-b392-8cd6d12dc01d"},"vehicle_type_id":"4","last_reported":1732529444,"current_range_meters":24000,"station_id":"ce4bgrh2rcd13ifvqc8g","pricing_plan_id":"cebpf4jnsgd1na2vs0mg"},{"bike_id":"96babd83-d1be-499a-ba38-a50cdda14910","system_id":"levelo_inurba_marseille","lat":43.2958,"lon":5.36737,"is_reserved":false,"is_disabled":false,"rental_uris":{"android":"levelo://app?vid=96babd83-d1be-499a-ba38-a50cdda14910","ios":"levelo://app?vid=96babd83-d1be-499a-ba38-a50cdda14910"},"vehicle_type_id":"4","last_reported":1732529444,"current_range_meters":39200,"station_id":"ce4bgph2rcd13ifvqc2g","pricing_plan_id":"cebpf4jnsgd1na2vs0mg"},{"bike_id":"777b7fed-d395-4c97-b504-dee7c3479d4f","system_id":"levelo_inurba_marseille","lat":43.29836,"lon":5.3785,"is_reserved":false,"is_disabled":true,"rental_uris":{"android":"levelo://app?vid=777b7fed-d395-4c97-b504-dee7c3479d4f","ios":"levelo://app?vid=777b7fed-d395-4c97-b504-dee7c3479d4f"},"vehicle_type_id":"4","last_reported":1732529444,"current_range_meters":0,"station_id":"","pricing_plan_id":"cebpf4jnsgd1na2vs0mg"},{"bike_id":"cd78312a-142a-42d0-92e1-dbc654bf8bb4","system_id":"levelo_inurba_marseille","lat":43.24179,"lon":5.39716,"is_reserved":false,"is_disabled":true,"rental_uris":{"android":"levelo://app?vid=cd78312a-142a-42d0-92e1-dbc654bf8bb4","ios":"levelo://app?vid=cd78312a-142a-42d0-92e1-dbc654bf8bb4"},"vehicle_type_id":"4","last_reported":1732529444,"current_range_meters":5600,"station_id":"ce4bhn12rcd13ifvqgpg","pricing_plan_id":"cebpf4jnsgd1na2vs0mg"},{"bike_id":"dc5235be-0eb4-43cb-aad9-aae14d97885e","system_id":"levelo_inurba_marseille","lat":43.2408,"lon":5.37744,"is_reserved":false,"is_disabled":false,"rental_uris":{"android":"levelo://app?vid=dc5235be-0eb4-43cb-aad9-aae14d97885e","ios":"levelo://app?vid=dc5235be-0eb4-43cb-aad9-aae14d97885e"},"vehicle_type_id":"4","last_reported":1732529444,"current_range_meters":24800,"station_id":"ce4bhnp2rcd13ifvqgvg","pricing_plan_id":"cebpf4jnsgd1na2vs0mg"},{"bike_id":"994d23c3-6847-4356-87de-cbfb7d11c213","system_id":"levelo_inurba_marseille","lat":43.26498,"lon":5.39545,"is_reserved":false,"is_disabled":false,"rental_uris":{"android":"levelo://app?vid=994d23c3-6847-4356-87de-cbfb7d11c213","ios":"levelo://app?vid=994d23c3-6847-4356-87de-cbfb7d11c213"},"vehicle_type_id":"4","last_reported":1732529444,"current_range_meters":20400,"station_id":"ce4bhi12rcd13ifvqfq0","pricing_plan_id":"cebpf4jnsgd1na2vs0mg"},{"bike_id":"db15fdb2-9c71-4376-9c51-004b845a8a6d","system_id":"levelo_inurba_marseille","lat":43.29003,"lon":5.35614,"is_reserved":false,"is_disabled":false,"rental_uris":{"android":"levelo://app?vid=db15fdb2-9c71-4376-9c51-004b845a8a6d","ios":"levelo://app?vid=db15fdb2-9c71-4376-9c51-004b845a8a6d"},"vehicle_type_id":"4","last_reported":1732529444,"current_range_meters":38000,"station_id":"ce4bhb92rcd13ifvqen0","pricing_plan_id":"cebpf4jnsgd1na2vs0mg"},{"bike_id":"935038d0-e307-49e5-ab69-c010784c0474","system_id":"levelo_inurba_marseille","lat":43.25939,"lon":5.40903,"is_reserved":false,"is_disabled":false,"rental_uris":{"android":"levelo://app?vid=935038d0-e307-49e5-ab69-c010784c0474","ios":"levelo://app?vid=935038d0-e307-49e5-ab69-c010784c0474"},"vehicle_type_id":"4","last_reported":1732529444,"current_range_meters":16800,"station_id":"ce4bhm92rcd13ifvqglg","pricing_plan_id":"cebpf4jnsgd1na2vs0mg"},{"bike_id":"ec8e2581-3028-4285-a5a9-c56e80a4caa3","system_id":"levelo_inurba_marseille","lat":43.29599,"lon":5.37063,"is_reserved":false,"is_disabled":true,"rental_uris":{"android":"levelo://app?vid=ec8e2581-3028-4285-a5a9-c56e80a4caa3","ios":"levelo://app?vid=ec8e2581-3028-4285-a5a9-c56e80a4caa3"},"vehicle_type_id":"4","last_reported":1732529444,"current_range_meters":0,"station_id":"","pricing_plan_id":"cebpf4jnsgd1na2vs0mg"},{"bike_id":"43f6da94-5cf1-446e-9b8d-b4c4e86bf027","system_id":"levelo_inurba_marseille","lat":43.26192,"lon":5.37446,"is_reserved":false,"is_disabled":true,"rental_uris":{"android":"levelo://app?vid=43f6da94-5cf1-446e-9b8d-b4c4e86bf027","ios":"levelo://app?vid=43f6da94-5cf1-446e-9b8d-b4c4e86bf027"},"vehicle_type_id":"4","last_reported":1732529444,"current_range_meters":2000,"station_id":"ce4bhgp2rcd13ifvqfc0","pricing_plan_id":"cebpf4jnsgd1na2vs0mg"},{"bike_id":"dd5ab154-647e-4dfa-88f1-0f781c7552f5","system_id":"levelo_inurba_marseille","lat":43.25583,"lon":5.38237,"is_reserved":false,"is_disabled":false,"rental_uris":{"android":"levelo://app?vid=dd5ab154-647e-4dfa-88f1-0f781c7552f5","ios":"levelo://app?vid=dd5ab154-647e-4dfa-88f1-0f781c7552f5"},"vehicle_type_id":"4","last_reported":1732529444,"current_range_meters":22400,"station_id":"ce4bhih2rcd13ifvqfs0","pricing_plan_id":"cebpf4jnsgd1na2vs0mg"},{"bike_id":"14a83065-2c68-475c-99a7-32e0815b9f50","system_id":"levelo_inurba_marseille","lat":43.2468,"lon":5.38163,"is_reserved":false,"is_disabled":true,"rental_uris":{"android":"levelo://app?vid=14a83065-2c68-475c-99a7-32e0815b9f50","ios":"levelo://app?vid=14a83065-2c68-475c-99a7-32e0815b9f50"},"vehicle_type_id":"4","last_reported":1732529444,"current_range_meters":0,"station_id":"ce4bhih2rcd13ifvqfr0","pricing_plan_id":"cebpf4jnsgd1na2vs0mg"},{"bike_id":"994195f6-b5da-4158-a5b5-8b38baad32b0","system_id":"levelo_inurba_marseille","lat":43.33724,"lon":5.39187,"is_reserved":false,"is_disabled":false,"rental_uris":{"android":"levelo://app?vid=994195f6-b5da-4158-a5b5-8b38baad32b0","ios":"levelo://app?vid=994195f6-b5da-4158-a5b5-8b38baad32b0"},"vehicle_type_id":"4","last_reported":1732529444,"current_range_meters":24000,"station_id":"ce4bhr92rcd13ifvqhsg","pricing_plan_id":"cebpf4jnsgd1na2vs0mg"},{"bike_id":"36ef9a42-f4d8-45f5-adc2-b51fb9b962d0","system_id":"levelo_inurba_marseille","lat":43.34146,"lon":5.40899,"is_reserved":false,"is_disabled":false,"rental_uris":{"android":"levelo://app?vid=36ef9a42-f4d8-45f5-adc2-b51fb9b962d0","ios":"levelo://app?vid=36ef9a42-f4d8-45f5-adc2-b51fb9b962d0"},"vehicle_type_id":"4","last_reported":1732529444,"current_range_meters":38800,"station_id":"ce4bhqh2rcd13ifvqhlg","pricing_plan_id":"cebpf4jnsgd1na2vs0mg"},{"bike_id":"24fc129a-3a98-4f25-9554-234fc3a2dc8d","system_id":"levelo_inurba_marseille","lat":43.30417,"lon":5.4127,"is_reserved":false,"is_disabled":true,"rental_uris":{"android":"levelo://app?vid=24fc129a-3a98-4f25-9554-234fc3a2dc8d","ios":"levelo://app?vid=24fc129a-3a98-4f25-9554-234fc3a2dc8d"},"vehicle_type_id":"4","last_reported":1732529444,"current_range_meters":25600,"station_id":"ce4bhop2rcd13ifvqh8g","pricing_plan_id":"cebpf4jnsgd1na2vs0mg"},{"bike_id":"f9bb7fe1-5ca1-47b2-944e-eb055f53c14e","system_id":"levelo_inurba_marseille","lat":43.3056,"lon":5.3838,"is_reserved":false,"is_disabled":true,"rental_uris":{"android":"levelo://app?vid=f9bb7fe1-5ca1-47b2-944e-eb055f53c14e","ios":"levelo://app?vid=f9bb7fe1-5ca1-47b2-944e-eb055f53c14e"},"vehicle_type_id":"4","last_reported":1732529444,"current_range_meters":19600,"station_id":"ce4bgg92rcd13ifvqb30","pricing_plan_id":"cebpf4jnsgd1na2vs0mg"},{"bike_id":"f49b6088-1df7-44e2-9f72-4cd74f45d348","system_id":"levelo_inurba_marseille","lat":43.31165,"lon":5.38703,"is_reserved":false,"is_disabled":false,"rental_uris":{"android":"levelo://app?vid=f49b6088-1df7-44e2-9f72-4cd74f45d348","ios":"levelo://app?vid=f49b6088-1df7-44e2-9f72-4cd74f45d348"},"vehicle_type_id":"4","last_reported":1732529444,"current_range_meters":38400,"station_id":"ce4bgv12rcd13ifvqcp0","pricing_plan_id":"cebpf4jnsgd1na2vs0mg"},{"bike_id":"ba7808d7-328c-4864-9481-efee7163caee","system_id":"levelo_inurba_marseille","lat":43.30101,"lon":5.39086,"is_reserved":false,"is_disabled":false,"rental_uris":{"android":"levelo://app?vid=ba7808d7-328c-4864-9481-efee7163caee","ios":"levelo://app?vid=ba7808d7-328c-4864-9481-efee7163caee"},"vehicle_type_id":"4","last_reported":1732529444,"current_range_meters":27600,"station_id":"ce4bh192rcd13ifvqdb0","pricing_plan_id":"cebpf4jnsgd1na2vs0mg"},{"bike_id":"5d9127b2-409a-4e00-b212-9b69c1248067","system_id":"levelo_inurba_marseille","lat":43.26208,"lon":5.37928,"is_reserved":false,"is_disabled":false,"rental_uris":{"android":"levelo://app?vid=5d9127b2-409a-4e00-b212-9b69c1248067","ios":"levelo://app?vid=5d9127b2-409a-4e00-b212-9b69c1248067"},"vehicle_type_id":"4","last_reported":1732529444,"current_range_meters":38400,"station_id":"ce4bhjp2rcd13ifvqg90","pricing_plan_id":"cebpf4jnsgd1na2vs0mg"},{"bike_id":"ab62cdd5-3314-41c0-8cc9-b8644da6c7ff","system_id":"levelo_inurba_marseille","lat":43.25582,"lon":5.38231,"is_reserved":false,"is_disabled":false,"rental_uris":{"android":"levelo://app?vid=ab62cdd5-3314-41c0-8cc9-b8644da6c7ff","ios":"levelo://app?vid=ab62cdd5-3314-41c0-8cc9-b8644da6c7ff"},"vehicle_type_id":"4","last_reported":1732529444,"current_range_meters":24400,"station_id":"ce4bhih2rcd13ifvqfs0","pricing_plan_id":"cebpf4jnsgd1na2vs0mg"},{"bike_id":"3127e641-24de-41d4-a4d3-dad3d243e08e","system_id":"levelo_inurba_marseille","lat":43.2812,"lon":5.3786,"is_reserved":false,"is_disabled":false,"rental_uris":{"android":"levelo://app?vid=3127e641-24de-41d4-a4d3-dad3d243e08e","ios":"levelo://app?vid=3127e641-24de-41d4-a4d3-dad3d243e08e"},"vehicle_type_id":"4","last_reported":1732529444,"current_range_meters":34800,"station_id":"ce4bha12rcd13ifvqee0","pricing_plan_id":"cebpf4jnsgd1na2vs0mg"},{"bike_id":"b16be49c-1219-403e-8d71-504dfe6814db","system_id":"levelo_inurba_marseille","lat":43.24073,"lon":5.37753,"is_reserved":false,"is_disabled":false,"rental_uris":{"android":"levelo://app?vid=b16be49c-1219-403e-8d71-504dfe6814db","ios":"levelo://app?vid=b16be49c-1219-403e-8d71-504dfe6814db"},"vehicle_type_id":"4","last_reported":1732529444,"current_range_meters":25600,"station_id":"ce4bhnp2rcd13ifvqgvg","pricing_plan_id":"cebpf4jnsgd1na2vs0mg"},{"bike_id":"f8b957eb-ac36-4e56-96cf-7474e1d53753","system_id":"levelo_inurba_marseille","lat":43.24656,"lon":5.38162,"is_reserved":false,"is_disabled":false,"rental_uris":{"android":"levelo://app?vid=f8b957eb-ac36-4e56-96cf-7474e1d53753","ios":"levelo://app?vid=f8b957eb-ac36-4e56-96cf-7474e1d53753"},"vehicle_type_id":"4","last_reported":1732529444,"current_range_meters":10000,"station_id":"ce4bhih2rcd13ifvqfr0","pricing_plan_id":"cebpf4jnsgd1na2vs0mg"},{"bike_id":"62bcad95-d3e2-434c-81f4-127757d19c4c","system_id":"levelo_inurba_marseille","lat":43.2922,"lon":5.39605,"is_reserved":false,"is_disabled":true,"rental_uris":{"android":"levelo://app?vid=62bcad95-d3e2-434c-81f4-127757d19c4c","ios":"levelo://app?vid=62bcad95-d3e2-434c-81f4-127757d19c4c"},"vehicle_type_id":"4","last_reported":1732529444,"current_range_meters":0,"station_id":"","pricing_plan_id":"cebpf4jnsgd1na2vs0mg"},{"bike_id":"c3ef5300-2d18-47f8-b317-9694ea06c676","system_id":"levelo_inurba_marseille","lat":43.27418,"lon":5.39411,"is_reserved":false,"is_disabled":false,"rental_uris":{"android":"levelo://app?vid=c3ef5300-2d18-47f8-b317-9694ea06c676","ios":"levelo://app?vid=c3ef5300-2d18-47f8-b317-9694ea06c676"},"vehicle_type_id":"4","last_reported":1732529444,"current_range_meters":26000,"station_id":"ce4bhdp2rcd13ifvqf20","pricing_plan_id":"cebpf4jnsgd1na2vs0mg"},{"bike_id":"faddc5bf-9308-4490-a929-f5be12fd1597","system_id":"levelo_inurba_marseille","lat":43.25584,"lon":5.38211,"is_reserved":false,"is_disabled":false,"rental_uris":{"android":"levelo://app?vid=faddc5bf-9308-4490-a929-f5be12fd1597","ios":"levelo://app?vid=faddc5bf-9308-4490-a929-f5be12fd1597"},"vehicle_type_id":"4","last_reported":1732529444,"current_range_meters":38400,"station_id":"ce4bhih2rcd13ifvqfs0","pricing_plan_id":"cebpf4jnsgd1na2vs0mg"},{"bike_id":"d910d554-caf2-4c49-b5f5-73f5c4f96a0f","system_id":"levelo_inurba_marseille","lat":43.23151,"lon":5.43715,"is_reserved":false,"is_disabled":false,"rental_uris":{"android":"levelo://app?vid=d910d554-caf2-4c49-b5f5-73f5c4f96a0f","ios":"levelo://app?vid=d910d554-caf2-4c49-b5f5-73f5c4f96a0f"},"vehicle_type_id":"4","last_reported":1732529444,"current_range_meters":17200,"station_id":"ce4bhmp2rcd13ifvqgog","pricing_plan_id":"cebpf4jnsgd1na2vs0mg"},{"bike_id":"36296f5c-0176-4be0-97c8-7930cda9c369","system_id":"levelo_inurba_marseille","lat":43.3211,"lon":5.3678,"is_reserved":false,"is_disabled":false,"rental_uris":{"android":"levelo://app?vid=36296f5c-0176-4be0-97c8-7930cda9c369","ios":"levelo://app?vid=36296f5c-0176-4be0-97c8-7930cda9c369"},"vehicle_type_id":"4","last_reported":1732529444,"current_range_meters":27600,"station_id":"ce4bhrh2rcd13ifvqhug","pricing_plan_id":"cebpf4jnsgd1na2vs0mg"},{"bike_id":"f2c34d78-6eb9-4239-853d-4d071e4b0a59","system_id":"levelo_inurba_marseille","lat":43.30948,"lon":5.39046,"is_reserved":false,"is_disabled":false,"rental_uris":{"android":"levelo://app?vid=f2c34d78-6eb9-4239-853d-4d071e4b0a59","ios":"levelo://app?vid=f2c34d78-6eb9-4239-853d-4d071e4b0a59"},"vehicle_type_id":"4","last_reported":1732529444,"current_range_meters":34000,"station_id":"ce4bgup2rcd13ifvqco0","pricing_plan_id":"cebpf4jnsgd1na2vs0mg"},{"bike_id":"3749f547-26de-49f3-8704-9a5a504b68f5","system_id":"levelo_inurba_marseille","lat":43.2558,"lon":5.38231,"is_reserved":false,"is_disabled":false,"rental_uris":{"android":"levelo://app?vid=3749f547-26de-49f3-8704-9a5a504b68f5","ios":"levelo://app?vid=3749f547-26de-49f3-8704-9a5a504b68f5"},"vehicle_type_id":"4","last_reported":1732529444,"current_range_meters":30400,"station_id":"ce4bhih2rcd13ifvqfs0","pricing_plan_id":"cebpf4jnsgd1na2vs0mg"},{"bike_id":"d2a52b58-fabe-4a57-94ba-464e41b85800","system_id":"levelo_inurba_marseille","lat":43.30082,"lon":5.37442,"is_reserved":false,"is_disabled":false,"rental_uris":{"android":"levelo://app?vid=d2a52b58-fabe-4a57-94ba-464e41b85800","ios":"levelo://app?vid=d2a52b58-fabe-4a57-94ba-464e41b85800"},"vehicle_type_id":"4","last_reported":1732529444,"current_range_meters":22000,"station_id":"","pricing_plan_id":"cebpf4jnsgd1na2vs0mg"},{"bike_id":"2511aeb5-6a88-47fa-82bb-ef23431585b2","system_id":"levelo_inurba_marseille","lat":43.24074,"lon":5.37757,"is_reserved":false,"is_disabled":false,"rental_uris":{"android":"levelo://app?vid=2511aeb5-6a88-47fa-82bb-ef23431585b2","ios":"levelo://app?vid=2511aeb5-6a88-47fa-82bb-ef23431585b2"},"vehicle_type_id":"4","last_reported":1732529444,"current_range_meters":22000,"station_id":"ce4bhnp2rcd13ifvqgvg","pricing_plan_id":"cebpf4jnsgd1na2vs0mg"},{"bike_id":"f02eff22-ff08-4d1f-b7f0-09a44506aa72","system_id":"levelo_inurba_marseille","lat":43.29838,"lon":5.36265,"is_reserved":false,"is_disabled":false,"rental_uris":{"android":"levelo://app?vid=f02eff22-ff08-4d1f-b7f0-09a44506aa72","ios":"levelo://app?vid=f02eff22-ff08-4d1f-b7f0-09a44506aa72"},"vehicle_type_id":"4","last_reported":1732529444,"current_range_meters":27200,"station_id":"ce4bgpp2rcd13ifvqc3g","pricing_plan_id":"cebpf4jnsgd1na2vs0mg"},{"bike_id":"5d67fe2e-20c1-42bd-8834-ca1211da7f84","system_id":"levelo_inurba_marseille","lat":43.31081,"lon":5.42432,"is_reserved":false,"is_disabled":false,"rental_uris":{"android":"levelo://app?vid=5d67fe2e-20c1-42bd-8834-ca1211da7f84","ios":"levelo://app?vid=5d67fe2e-20c1-42bd-8834-ca1211da7f84"},"vehicle_type_id":"4","last_reported":1732529444,"current_range_meters":25200,"station_id":"ce4bhp92rcd13ifvqhag","pricing_plan_id":"cebpf4jnsgd1na2vs0mg"},{"bike_id":"c5d90a90-756c-407d-9f88-37a352971b6b","system_id":"levelo_inurba_marseille","lat":43.30555,"lon":5.36523,"is_reserved":false,"is_disabled":false,"rental_uris":{"android":"levelo://app?vid=c5d90a90-756c-407d-9f88-37a352971b6b","ios":"levelo://app?vid=c5d90a90-756c-407d-9f88-37a352971b6b"},"vehicle_type_id":"4","last_reported":1732529444,"current_range_meters":22400,"station_id":"ce4bgs12rcd13ifvqcag","pricing_plan_id":"cebpf4jnsgd1na2vs0mg"},{"bike_id":"8ac8ae6d-42b3-4068-a992-537653320638","system_id":"levelo_inurba_marseille","lat":43.25933,"lon":5.40912,"is_reserved":false,"is_disabled":false,"rental_uris":{"android":"levelo://app?vid=8ac8ae6d-42b3-4068-a992-537653320638","ios":"levelo://app?vid=8ac8ae6d-42b3-4068-a992-537653320638"},"vehicle_type_id":"4","last_reported":1732529444,"current_range_meters":33200,"station_id":"ce4bhm92rcd13ifvqglg","pricing_plan_id":"cebpf4jnsgd1na2vs0mg"},{"bike_id":"36218f62-506a-4fdd-be79-7cfe376e5c72","system_id":"levelo_inurba_marseille","lat":43.28479,"lon":5.3841,"is_reserved":false,"is_disabled":false,"rental_uris":{"android":"levelo://app?vid=36218f62-506a-4fdd-be79-7cfe376e5c72","ios":"levelo://app?vid=36218f62-506a-4fdd-be79-7cfe376e5c72"},"vehicle_type_id":"4","last_reported":1732529444,"current_range_meters":36800,"station_id":"ce4bh512rcd13ifvqe3g","pricing_plan_id":"cebpf4jnsgd1na2vs0mg"},{"bike_id":"a918e547-6f82-4e25-bfd2-d24f191d92a1","system_id":"levelo_inurba_marseille","lat":43.24073,"lon":5.37732,"is_reserved":false,"is_disabled":false,"rental_uris":{"android":"levelo://app?vid=a918e547-6f82-4e25-bfd2-d24f191d92a1","ios":"levelo://app?vid=a918e547-6f82-4e25-bfd2-d24f191d92a1"},"vehicle_type_id":"4","last_reported":1732529444,"current_range_meters":28800,"station_id":"ce4bhnp2rcd13ifvqgvg","pricing_plan_id":"cebpf4jnsgd1na2vs0mg"},{"bike_id":"59de079a-9c3b-4684-8266-6196077d13c1","system_id":"levelo_inurba_marseille","lat":43.30761,"lon":5.40036,"is_reserved":false,"is_disabled":false,"rental_uris":{"android":"levelo://app?vid=59de079a-9c3b-4684-8266-6196077d13c1","ios":"levelo://app?vid=59de079a-9c3b-4684-8266-6196077d13c1"},"vehicle_type_id":"4","last_reported":1732529444,"current_range_meters":31200,"station_id":"ce4bgvp2rcd13ifvqct0","pricing_plan_id":"cebpf4jnsgd1na2vs0mg"},{"bike_id":"6454e564-4e89-4d66-9bef-1fddf4911052","system_id":"levelo_inurba_marseille","lat":43.30527,"lon":5.36552,"is_reserved":false,"is_disabled":false,"rental_uris":{"android":"levelo://app?vid=6454e564-4e89-4d66-9bef-1fddf4911052","ios":"levelo://app?vid=6454e564-4e89-4d66-9bef-1fddf4911052"},"vehicle_type_id":"4","last_reported":1732529444,"current_range_meters":8400,"station_id":"ce4bgs12rcd13ifvqcag","pricing_plan_id":"cebpf4jnsgd1na2vs0mg"},{"bike_id":"565c3c82-4a2f-4a82-ad33-c6f3e4ff7942","system_id":"levelo_inurba_marseille","lat":43.30552,"lon":5.36562,"is_reserved":false,"is_disabled":false,"rental_uris":{"android":"levelo://app?vid=565c3c82-4a2f-4a82-ad33-c6f3e4ff7942","ios":"levelo://app?vid=565c3c82-4a2f-4a82-ad33-c6f3e4ff7942"},"vehicle_type_id":"4","last_reported":1732529444,"current_range_meters":39200,"station_id":"ce4bgs12rcd13ifvqcag","pricing_plan_id":"cebpf4jnsgd1na2vs0mg"},{"bike_id":"312c0e01-9256-495a-b053-113ea61bc4a3","system_id":"levelo_inurba_marseille","lat":43.30284,"lon":5.37697,"is_reserved":false,"is_disabled":false,"rental_uris":{"android":"levelo://app?vid=312c0e01-9256-495a-b053-113ea61bc4a3","ios":"levelo://app?vid=312c0e01-9256-495a-b053-113ea61bc4a3"},"vehicle_type_id":"4","last_reported":1732529444,"current_range_meters":32800,"station_id":"ce4bguh2rcd13ifvqcj0","pricing_plan_id":"cebpf4jnsgd1na2vs0mg"},{"bike_id":"f99babce-6639-42c7-8052-be85bad7424e","system_id":"levelo_inurba_marseille","lat":43.24085,"lon":5.37739,"is_reserved":false,"is_disabled":false,"rental_uris":{"android":"levelo://app?vid=f99babce-6639-42c7-8052-be85bad7424e","ios":"levelo://app?vid=f99babce-6639-42c7-8052-be85bad7424e"},"vehicle_type_id":"4","last_reported":1732529444,"current_range_meters":32000,"station_id":"ce4bhnp2rcd13ifvqgvg","pricing_plan_id":"cebpf4jnsgd1na2vs0mg"},{"bike_id":"beb50664-6ae4-435f-9193-1424c288823e","system_id":"levelo_inurba_marseille","lat":43.31385,"lon":5.36697,"is_reserved":false,"is_disabled":false,"rental_uris":{"android":"levelo://app?vid=beb50664-6ae4-435f-9193-1424c288823e","ios":"levelo://app?vid=beb50664-6ae4-435f-9193-1424c288823e"},"vehicle_type_id":"4","last_reported":1732529444,"current_range_meters":28400,"station_id":"ce4bgr92rcd13ifvqc6g","pricing_plan_id":"cebpf4jnsgd1na2vs0mg"},{"bike_id":"035d01e3-1369-4008-8632-b2ce2c9bae94","system_id":"levelo_inurba_marseille","lat":43.30955,"lon":5.3904,"is_reserved":false,"is_disabled":false,"rental_uris":{"android":"levelo://app?vid=035d01e3-1369-4008-8632-b2ce2c9bae94","ios":"levelo://app?vid=035d01e3-1369-4008-8632-b2ce2c9bae94"},"vehicle_type_id":"4","last_reported":1732529444,"current_range_meters":20800,"station_id":"ce4bgup2rcd13ifvqco0","pricing_plan_id":"cebpf4jnsgd1na2vs0mg"},{"bike_id":"17ba6615-9f08-440e-93e9-f8f4f3600fcd","system_id":"levelo_inurba_marseille","lat":43.30528,"lon":5.36545,"is_reserved":false,"is_disabled":false,"rental_uris":{"android":"levelo://app?vid=17ba6615-9f08-440e-93e9-f8f4f3600fcd","ios":"levelo://app?vid=17ba6615-9f08-440e-93e9-f8f4f3600fcd"},"vehicle_type_id":"4","last_reported":1732529444,"current_range_meters":38800,"station_id":"ce4bgs12rcd13ifvqcag","pricing_plan_id":"cebpf4jnsgd1na2vs0mg"},{"bike_id":"cbc2167d-639d-4b33-b914-3ad6f36f2868","system_id":"levelo_inurba_marseille","lat":43.22923,"lon":5.35375,"is_reserved":false,"is_disabled":false,"rental_uris":{"android":"levelo://app?vid=cbc2167d-639d-4b33-b914-3ad6f36f2868","ios":"levelo://app?vid=cbc2167d-639d-4b33-b914-3ad6f36f2868"},"vehicle_type_id":"4","last_reported":1732529444,"current_range_meters":30800,"station_id":"cpo3532slgdg3j2ikp40","pricing_plan_id":"cebpf4jnsgd1na2vs0mg"},{"bike_id":"3e879c32-994d-42ce-927d-f18d298ca1ef","system_id":"levelo_inurba_marseille","lat":43.28265,"lon":5.35064,"is_reserved":false,"is_disabled":false,"rental_uris":{"android":"levelo://app?vid=3e879c32-994d-42ce-927d-f18d298ca1ef","ios":"levelo://app?vid=3e879c32-994d-42ce-927d-f18d298ca1ef"},"vehicle_type_id":"4","last_reported":1732529444,"current_range_meters":38800,"station_id":"ce4bhbp2rcd13ifvqerg","pricing_plan_id":"cebpf4jnsgd1na2vs0mg"},{"bike_id":"42ebe280-e795-413a-92ed-050d9a45dd8e","system_id":"levelo_inurba_marseille","lat":43.24079,"lon":5.37748,"is_reserved":false,"is_disabled":false,"rental_uris":{"android":"levelo://app?vid=42ebe280-e795-413a-92ed-050d9a45dd8e","ios":"levelo://app?vid=42ebe280-e795-413a-92ed-050d9a45dd8e"},"vehicle_type_id":"4","last_reported":1732529444,"current_range_meters":38800,"station_id":"ce4bhnp2rcd13ifvqgvg","pricing_plan_id":"cebpf4jnsgd1na2vs0mg"},{"bike_id":"8ff6927a-74d0-4610-b648-3cc754f0f233","system_id":"levelo_inurba_marseille","lat":43.28016,"lon":5.42449,"is_reserved":false,"is_disabled":false,"rental_uris":{"android":"levelo://app?vid=8ff6927a-74d0-4610-b648-3cc754f0f233","ios":"levelo://app?vid=8ff6927a-74d0-4610-b648-3cc754f0f233"},"vehicle_type_id":"4","last_reported":1732529444,"current_range_meters":23200,"station_id":"","pricing_plan_id":"cebpf4jnsgd1na2vs0mg"},{"bike_id":"1a5dfa7a-1d4a-4735-b35d-631116c77557","system_id":"levelo_inurba_marseille","lat":43.31719,"lon":5.42401,"is_reserved":false,"is_disabled":false,"rental_uris":{"android":"levelo://app?vid=1a5dfa7a-1d4a-4735-b35d-631116c77557","ios":"levelo://app?vid=1a5dfa7a-1d4a-4735-b35d-631116c77557"},"vehicle_type_id":"4","last_reported":1732529444,"current_range_meters":39200,"station_id":"ce4bhp92rcd13ifvqhbg","pricing_plan_id":"cebpf4jnsgd1na2vs0mg"},{"bike_id":"635f2088-37d7-4c7e-b140-3292398be605","system_id":"levelo_inurba_marseille","lat":43.24806,"lon":5.37453,"is_reserved":false,"is_disabled":false,"rental_uris":{"android":"levelo://app?vid=635f2088-37d7-4c7e-b140-3292398be605","ios":"levelo://app?vid=635f2088-37d7-4c7e-b140-3292398be605"},"vehicle_type_id":"4","last_reported":1732529444,"current_range_meters":30400,"station_id":"ce4bhgh2rcd13ifvqfb0","pricing_plan_id":"cebpf4jnsgd1na2vs0mg"},{"bike_id":"bde92bd1-4745-42e9-93f1-a7375ca1b7ac","system_id":"levelo_inurba_marseille","lat":43.32286,"lon":5.38263,"is_reserved":false,"is_disabled":false,"rental_uris":{"android":"levelo://app?vid=bde92bd1-4745-42e9-93f1-a7375ca1b7ac","ios":"levelo://app?vid=bde92bd1-4745-42e9-93f1-a7375ca1b7ac"},"vehicle_type_id":"4","last_reported":1732529444,"current_range_meters":36000,"station_id":"ce4bhr12rcd13ifvqhqg","pricing_plan_id":"cebpf4jnsgd1na2vs0mg"},{"bike_id":"64411bfc-d714-4926-a402-1e5a305239af","system_id":"levelo_inurba_marseille","lat":43.31743,"lon":5.40432,"is_reserved":false,"is_disabled":false,"rental_uris":{"android":"levelo://app?vid=64411bfc-d714-4926-a402-1e5a305239af","ios":"levelo://app?vid=64411bfc-d714-4926-a402-1e5a305239af"},"vehicle_type_id":"4","last_reported":1732529444,"current_range_meters":38800,"station_id":"ce4bh012rcd13ifvqd00","pricing_plan_id":"cebpf4jnsgd1na2vs0mg"},{"bike_id":"20ba3e55-9bab-4ccf-9497-ab7699c90419","system_id":"levelo_inurba_marseille","lat":43.2594,"lon":5.40895,"is_reserved":false,"is_disabled":false,"rental_uris":{"android":"levelo://app?vid=20ba3e55-9bab-4ccf-9497-ab7699c90419","ios":"levelo://app?vid=20ba3e55-9bab-4ccf-9497-ab7699c90419"},"vehicle_type_id":"4","last_reported":1732529444,"current_range_meters":37600,"station_id":"ce4bhm92rcd13ifvqglg","pricing_plan_id":"cebpf4jnsgd1na2vs0mg"},{"bike_id":"5301bd0f-637d-452f-85b3-3f5c6d8323f0","system_id":"levelo_inurba_marseille","lat":43.28856,"lon":5.39297,"is_reserved":false,"is_disabled":true,"rental_uris":{"android":"levelo://app?vid=5301bd0f-637d-452f-85b3-3f5c6d8323f0","ios":"levelo://app?vid=5301bd0f-637d-452f-85b3-3f5c6d8323f0"},"vehicle_type_id":"4","last_reported":1732529444,"current_range_meters":400,"station_id":"ce4bh2p2rcd13ifvqdi0","pricing_plan_id":"cebpf4jnsgd1na2vs0mg"},{"bike_id":"9328bf07-69e7-4ddc-b711-0669ff412e1c","system_id":"levelo_inurba_marseille","lat":43.29282,"lon":5.40127,"is_reserved":false,"is_disabled":true,"rental_uris":{"android":"levelo://app?vid=9328bf07-69e7-4ddc-b711-0669ff412e1c","ios":"levelo://app?vid=9328bf07-69e7-4ddc-b711-0669ff412e1c"},"vehicle_type_id":"4","last_reported":1732529444,"current_range_meters":1600,"station_id":"ce4bh312rcd13ifvqdk0","pricing_plan_id":"cebpf4jnsgd1na2vs0mg"},{"bike_id":"ed00ff1c-a428-4ce5-a455-260378e65da7","system_id":"levelo_inurba_marseille","lat":43.28802,"lon":5.40014,"is_reserved":false,"is_disabled":true,"rental_uris":{"android":"levelo://app?vid=ed00ff1c-a428-4ce5-a455-260378e65da7","ios":"levelo://app?vid=ed00ff1c-a428-4ce5-a455-260378e65da7"},"vehicle_type_id":"4","last_reported":1732529444,"current_range_meters":800,"station_id":"","pricing_plan_id":"cebpf4jnsgd1na2vs0mg"},{"bike_id":"d20aa759-4a66-46a6-bf03-bf304811b808","system_id":"levelo_inurba_marseille","lat":43.29036,"lon":5.37557,"is_reserved":false,"is_disabled":false,"rental_uris":{"android":"levelo://app?vid=d20aa759-4a66-46a6-bf03-bf304811b808","ios":"levelo://app?vid=d20aa759-4a66-46a6-bf03-bf304811b808"},"vehicle_type_id":"4","last_reported":1732529444,"current_range_meters":38800,"station_id":"ce4bh692rcd13ifvqe90","pricing_plan_id":"cebpf4jnsgd1na2vs0mg"},{"bike_id":"5a4d3b04-1c84-4ddc-b44a-35fe4ee6a3a6","system_id":"levelo_inurba_marseille","lat":43.31226,"lon":5.36856,"is_reserved":false,"is_disabled":false,"rental_uris":{"android":"levelo://app?vid=5a4d3b04-1c84-4ddc-b44a-35fe4ee6a3a6","ios":"levelo://app?vid=5a4d3b04-1c84-4ddc-b44a-35fe4ee6a3a6"},"vehicle_type_id":"4","last_reported":1732529444,"current_range_meters":28000,"station_id":"ce4bgl92rcd13ifvqbq0","pricing_plan_id":"cebpf4jnsgd1na2vs0mg"},{"bike_id":"858b65e1-94fc-4151-a71e-8b168cb19dcb","system_id":"levelo_inurba_marseille","lat":43.32249,"lon":5.39241,"is_reserved":false,"is_disabled":true,"rental_uris":{"android":"levelo://app?vid=858b65e1-94fc-4151-a71e-8b168cb19dcb","ios":"levelo://app?vid=858b65e1-94fc-4151-a71e-8b168cb19dcb"},"vehicle_type_id":"4","last_reported":1732529444,"current_range_meters":2800,"station_id":"","pricing_plan_id":"cebpf4jnsgd1na2vs0mg"},{"bike_id":"e741785f-b957-4929-8fc7-be87c0a2b167","system_id":"levelo_inurba_marseille","lat":43.31343,"lon":5.36711,"is_reserved":false,"is_disabled":false,"rental_uris":{"android":"levelo://app?vid=e741785f-b957-4929-8fc7-be87c0a2b167","ios":"levelo://app?vid=e741785f-b957-4929-8fc7-be87c0a2b167"},"vehicle_type_id":"4","last_reported":1732529444,"current_range_meters":8800,"station_id":"ce4bgr92rcd13ifvqc6g","pricing_plan_id":"cebpf4jnsgd1na2vs0mg"},{"bike_id":"81e00953-83a5-4abf-a237-1c198387b0fa","system_id":"levelo_inurba_marseille","lat":43.24076,"lon":5.37751,"is_reserved":false,"is_disabled":false,"rental_uris":{"android":"levelo://app?vid=81e00953-83a5-4abf-a237-1c198387b0fa","ios":"levelo://app?vid=81e00953-83a5-4abf-a237-1c198387b0fa"},"vehicle_type_id":"4","last_reported":1732529444,"current_range_meters":28400,"station_id":"ce4bhnp2rcd13ifvqgvg","pricing_plan_id":"cebpf4jnsgd1na2vs0mg"},{"bike_id":"c19daa05-850d-4320-a7a9-0c3452315bd1","system_id":"levelo_inurba_marseille","lat":43.30528,"lon":5.36522,"is_reserved":false,"is_disabled":false,"rental_uris":{"android":"levelo://app?vid=c19daa05-850d-4320-a7a9-0c3452315bd1","ios":"levelo://app?vid=c19daa05-850d-4320-a7a9-0c3452315bd1"},"vehicle_type_id":"4","last_reported":1732529444,"current_range_meters":33600,"station_id":"ce4bgs12rcd13ifvqcag","pricing_plan_id":"cebpf4jnsgd1na2vs0mg"},{"bike_id":"989dd828-537a-486d-ba56-1359ee1195bf","system_id":"levelo_inurba_marseille","lat":43.29573,"lon":5.37518,"is_reserved":false,"is_disabled":false,"rental_uris":{"android":"levelo://app?vid=989dd828-537a-486d-ba56-1359ee1195bf","ios":"levelo://app?vid=989dd828-537a-486d-ba56-1359ee1195bf"},"vehicle_type_id":"4","last_reported":1732529444,"current_range_meters":11600,"station_id":"ce4bgh92rcd13ifvqb50","pricing_plan_id":"cebpf4jnsgd1na2vs0mg"},{"bike_id":"405a0a7d-132f-4b39-9712-d74bbc884464","system_id":"levelo_inurba_marseille","lat":43.29565,"lon":5.37507,"is_reserved":false,"is_disabled":false,"rental_uris":{"android":"levelo://app?vid=405a0a7d-132f-4b39-9712-d74bbc884464","ios":"levelo://app?vid=405a0a7d-132f-4b39-9712-d74bbc884464"},"vehicle_type_id":"4","last_reported":1732529444,"current_range_meters":36800,"station_id":"ce4bgh92rcd13ifvqb50","pricing_plan_id":"cebpf4jnsgd1na2vs0mg"},{"bike_id":"bdcd807d-101c-4909-b854-901665fa1cfa","system_id":"levelo_inurba_marseille","lat":43.31359,"lon":5.38503,"is_reserved":false,"is_disabled":true,"rental_uris":{"android":"levelo://app?vid=bdcd807d-101c-4909-b854-901665fa1cfa","ios":"levelo://app?vid=bdcd807d-101c-4909-b854-901665fa1cfa"},"vehicle_type_id":"4","last_reported":1732529444,"current_range_meters":2800,"station_id":"ce4bgt92rcd13ifvqcf0","pricing_plan_id":"cebpf4jnsgd1na2vs0mg"},{"bike_id":"18020f0e-821d-489c-b686-8e09d7a63631","system_id":"levelo_inurba_marseille","lat":43.33608,"lon":5.41037,"is_reserved":false,"is_disabled":false,"rental_uris":{"android":"levelo://app?vid=18020f0e-821d-489c-b686-8e09d7a63631","ios":"levelo://app?vid=18020f0e-821d-489c-b686-8e09d7a63631"},"vehicle_type_id":"4","last_reported":1732529444,"current_range_meters":7200,"station_id":"ce4bhqh2rcd13ifvqhmg","pricing_plan_id":"cebpf4jnsgd1na2vs0mg"},{"bike_id":"6b156c1e-9fdc-42e2-b91a-33d5bc8ac96e","system_id":"levelo_inurba_marseille","lat":43.28674,"lon":5.3867,"is_reserved":false,"is_disabled":false,"rental_uris":{"android":"levelo://app?vid=6b156c1e-9fdc-42e2-b91a-33d5bc8ac96e","ios":"levelo://app?vid=6b156c1e-9fdc-42e2-b91a-33d5bc8ac96e"},"vehicle_type_id":"4","last_reported":1732529444,"current_range_meters":9600,"station_id":"ce4bh492rcd13ifvqdug","pricing_plan_id":"cebpf4jnsgd1na2vs0mg"},{"bike_id":"a803a68a-6065-46f6-affb-18ac184accd2","system_id":"levelo_inurba_marseille","lat":43.25504,"lon":5.37651,"is_reserved":false,"is_disabled":true,"rental_uris":{"android":"levelo://app?vid=a803a68a-6065-46f6-affb-18ac184accd2","ios":"levelo://app?vid=a803a68a-6065-46f6-affb-18ac184accd2"},"vehicle_type_id":"4","last_reported":1732529444,"current_range_meters":38800,"station_id":"ce4bhh12rcd13ifvqff0","pricing_plan_id":"cebpf4jnsgd1na2vs0mg"},{"bike_id":"890ceff7-9bd1-4363-9716-427976dbddef","system_id":"levelo_inurba_marseille","lat":43.27205,"lon":5.3919,"is_reserved":false,"is_disabled":true,"rental_uris":{"android":"levelo://app?vid=890ceff7-9bd1-4363-9716-427976dbddef","ios":"levelo://app?vid=890ceff7-9bd1-4363-9716-427976dbddef"},"vehicle_type_id":"4","last_reported":1732529444,"current_range_meters":0,"station_id":"ce4bhhp2rcd13ifvqfm0","pricing_plan_id":"cebpf4jnsgd1na2vs0mg"},{"bike_id":"1e1f8462-5ebf-4f42-a352-fa67b0650ef1","system_id":"levelo_inurba_marseille","lat":43.30152,"lon":5.38096,"is_reserved":false,"is_disabled":false,"rental_uris":{"android":"levelo://app?vid=1e1f8462-5ebf-4f42-a352-fa67b0650ef1","ios":"levelo://app?vid=1e1f8462-5ebf-4f42-a352-fa67b0650ef1"},"vehicle_type_id":"4","last_reported":1732529444,"current_range_meters":37600,"station_id":"ce4bgjp2rcd13ifvqbh0","pricing_plan_id":"cebpf4jnsgd1na2vs0mg"},{"bike_id":"552ae1f9-34eb-4d70-a19b-3616d3661778","system_id":"levelo_inurba_marseille","lat":43.33718,"lon":5.391798,"is_reserved":false,"is_disabled":false,"rental_uris":{"android":"levelo://app?vid=552ae1f9-34eb-4d70-a19b-3616d3661778","ios":"levelo://app?vid=552ae1f9-34eb-4d70-a19b-3616d3661778"},"vehicle_type_id":"4","last_reported":1732529444,"current_range_meters":10800,"station_id":"ce4bhr92rcd13ifvqhsg","pricing_plan_id":"cebpf4jnsgd1na2vs0mg"},{"bike_id":"3d7a1c28-a447-4ea7-9a6e-59953f365b38","system_id":"levelo_inurba_marseille","lat":43.29624,"lon":5.37171,"is_reserved":false,"is_disabled":false,"rental_uris":{"android":"levelo://app?vid=3d7a1c28-a447-4ea7-9a6e-59953f365b38","ios":"levelo://app?vid=3d7a1c28-a447-4ea7-9a6e-59953f365b38"},"vehicle_type_id":"4","last_reported":1732529444,"current_range_meters":31200,"station_id":"ce4bgnh2rcd13ifvqc0g","pricing_plan_id":"cebpf4jnsgd1na2vs0mg"},{"bike_id":"f7f3756c-1ec7-4782-9c87-6273f87b6774","system_id":"levelo_inurba_marseille","lat":43.337444,"lon":5.374475,"is_reserved":false,"is_disabled":true,"rental_uris":{"android":"levelo://app?vid=f7f3756c-1ec7-4782-9c87-6273f87b6774","ios":"levelo://app?vid=f7f3756c-1ec7-4782-9c87-6273f87b6774"},"vehicle_type_id":"4","last_reported":1732529444,"current_range_meters":24400,"station_id":"","pricing_plan_id":"cebpf4jnsgd1na2vs0mg"},{"bike_id":"740f162e-a0c7-4af9-899d-283ea1409dc6","system_id":"levelo_inurba_marseille","lat":43.26933,"lon":5.38911,"is_reserved":false,"is_disabled":false,"rental_uris":{"android":"levelo://app?vid=740f162e-a0c7-4af9-899d-283ea1409dc6","ios":"levelo://app?vid=740f162e-a0c7-4af9-899d-283ea1409dc6"},"vehicle_type_id":"4","last_reported":1732529444,"current_range_meters":38800,"station_id":"ce4bhhh2rcd13ifvqfl0","pricing_plan_id":"cebpf4jnsgd1na2vs0mg"},{"bike_id":"8a04a2dc-67e0-464e-baf9-2319803cccfb","system_id":"levelo_inurba_marseille","lat":43.26681,"lon":5.38273,"is_reserved":false,"is_disabled":false,"rental_uris":{"android":"levelo://app?vid=8a04a2dc-67e0-464e-baf9-2319803cccfb","ios":"levelo://app?vid=8a04a2dc-67e0-464e-baf9-2319803cccfb"},"vehicle_type_id":"4","last_reported":1732529444,"current_range_meters":22400,"station_id":"ce4bhg92rcd13ifvqf90","pricing_plan_id":"cebpf4jnsgd1na2vs0mg"},{"bike_id":"f6b8f847-1aeb-4642-812c-9e10f2849039","system_id":"levelo_inurba_marseille","lat":43.24077,"lon":5.37735,"is_reserved":false,"is_disabled":false,"rental_uris":{"android":"levelo://app?vid=f6b8f847-1aeb-4642-812c-9e10f2849039","ios":"levelo://app?vid=f6b8f847-1aeb-4642-812c-9e10f2849039"},"vehicle_type_id":"4","last_reported":1732529444,"current_range_meters":38800,"station_id":"ce4bhnp2rcd13ifvqgvg","pricing_plan_id":"cebpf4jnsgd1na2vs0mg"},{"bike_id":"783b56f4-1ed1-402d-9da4-0bd18ec33b65","system_id":"levelo_inurba_marseille","lat":43.30356,"lon":5.41873,"is_reserved":false,"is_disabled":false,"rental_uris":{"android":"levelo://app?vid=783b56f4-1ed1-402d-9da4-0bd18ec33b65","ios":"levelo://app?vid=783b56f4-1ed1-402d-9da4-0bd18ec33b65"},"vehicle_type_id":"4","last_reported":1732529444,"current_range_meters":37600,"station_id":"ce4bhop2rcd13ifvqh7g","pricing_plan_id":"cebpf4jnsgd1na2vs0mg"},{"bike_id":"fe0cb721-a66c-4c42-8145-d56581d22812","system_id":"levelo_inurba_marseille","lat":43.24081,"lon":5.37757,"is_reserved":false,"is_disabled":false,"rental_uris":{"android":"levelo://app?vid=fe0cb721-a66c-4c42-8145-d56581d22812","ios":"levelo://app?vid=fe0cb721-a66c-4c42-8145-d56581d22812"},"vehicle_type_id":"4","last_reported":1732529444,"current_range_meters":26000,"station_id":"ce4bhnp2rcd13ifvqgvg","pricing_plan_id":"cebpf4jnsgd1na2vs0mg"},{"bike_id":"5f8893be-5412-4a83-99e7-a97657f0b45c","system_id":"levelo_inurba_marseille","lat":43.29802,"lon":5.40399,"is_reserved":false,"is_disabled":true,"rental_uris":{"android":"levelo://app?vid=5f8893be-5412-4a83-99e7-a97657f0b45c","ios":"levelo://app?vid=5f8893be-5412-4a83-99e7-a97657f0b45c"},"vehicle_type_id":"4","last_reported":1732529444,"current_range_meters":1600,"station_id":"ce4bh112rcd13ifvqd90","pricing_plan_id":"cebpf4jnsgd1na2vs0mg"},{"bike_id":"96fef04f-f424-4b1e-a003-fc645e04ed3a","system_id":"levelo_inurba_marseille","lat":43.27387,"lon":5.36275,"is_reserved":false,"is_disabled":false,"rental_uris":{"android":"levelo://app?vid=96fef04f-f424-4b1e-a003-fc645e04ed3a","ios":"levelo://app?vid=96fef04f-f424-4b1e-a003-fc645e04ed3a"},"vehicle_type_id":"4","last_reported":1732529444,"current_range_meters":38400,"station_id":"ce4bhbh2rcd13ifvqeo0","pricing_plan_id":"cebpf4jnsgd1na2vs0mg"},{"bike_id":"b7b61d62-d3cf-45c0-ae9e-f05215122577","system_id":"levelo_inurba_marseille","lat":43.30922,"lon":5.40152,"is_reserved":false,"is_disabled":true,"rental_uris":{"android":"levelo://app?vid=b7b61d62-d3cf-45c0-ae9e-f05215122577","ios":"levelo://app?vid=b7b61d62-d3cf-45c0-ae9e-f05215122577"},"vehicle_type_id":"4","last_reported":1732529444,"current_range_meters":0,"station_id":"ce4bgvp2rcd13ifvqct0","pricing_plan_id":"cebpf4jnsgd1na2vs0mg"},{"bike_id":"92aaf2ae-6395-4985-bda4-652f2001ddbe","system_id":"levelo_inurba_marseille","lat":43.27559,"lon":5.38414,"is_reserved":false,"is_disabled":false,"rental_uris":{"android":"levelo://app?vid=92aaf2ae-6395-4985-bda4-652f2001ddbe","ios":"levelo://app?vid=92aaf2ae-6395-4985-bda4-652f2001ddbe"},"vehicle_type_id":"4","last_reported":1732529444,"current_range_meters":38800,"station_id":"ce4bhh92rcd13ifvqfi0","pricing_plan_id":"cebpf4jnsgd1na2vs0mg"},{"bike_id":"7f89b812-16cb-4135-bc5f-efa2b244ec26","system_id":"levelo_inurba_marseille","lat":43.26556,"lon":5.37289,"is_reserved":false,"is_disabled":true,"rental_uris":{"android":"levelo://app?vid=7f89b812-16cb-4135-bc5f-efa2b244ec26","ios":"levelo://app?vid=7f89b812-16cb-4135-bc5f-efa2b244ec26"},"vehicle_type_id":"4","last_reported":1732529444,"current_range_meters":36800,"station_id":"ce4bhg12rcd13ifvqf70","pricing_plan_id":"cebpf4jnsgd1na2vs0mg"},{"bike_id":"e2f0ef73-8018-4db5-80ea-af7dd90396dd","system_id":"levelo_inurba_marseille","lat":43.28151,"lon":5.42641,"is_reserved":false,"is_disabled":false,"rental_uris":{"android":"levelo://app?vid=e2f0ef73-8018-4db5-80ea-af7dd90396dd","ios":"levelo://app?vid=e2f0ef73-8018-4db5-80ea-af7dd90396dd"},"vehicle_type_id":"4","last_reported":1732529444,"current_range_meters":19600,"station_id":"ce4bhnh2rcd13ifvqgug","pricing_plan_id":"cebpf4jnsgd1na2vs0mg"},{"bike_id":"86ec5835-1e76-4455-9969-54b44bba3755","system_id":"levelo_inurba_marseille","lat":43.32484,"lon":5.36557,"is_reserved":false,"is_disabled":false,"rental_uris":{"android":"levelo://app?vid=86ec5835-1e76-4455-9969-54b44bba3755","ios":"levelo://app?vid=86ec5835-1e76-4455-9969-54b44bba3755"},"vehicle_type_id":"4","last_reported":1732529444,"current_range_meters":39200,"station_id":"ce4bhs12rcd13ifvqhvg","pricing_plan_id":"cebpf4jnsgd1na2vs0mg"},{"bike_id":"0ed83b47-52ec-43b9-b2f6-22975bee1154","system_id":"levelo_inurba_marseille","lat":43.27561,"lon":5.3841,"is_reserved":false,"is_disabled":false,"rental_uris":{"android":"levelo://app?vid=0ed83b47-52ec-43b9-b2f6-22975bee1154","ios":"levelo://app?vid=0ed83b47-52ec-43b9-b2f6-22975bee1154"},"vehicle_type_id":"4","last_reported":1732529444,"current_range_meters":28000,"station_id":"ce4bhh92rcd13ifvqfi0","pricing_plan_id":"cebpf4jnsgd1na2vs0mg"},{"bike_id":"233626cf-f8be-474e-8862-f6a6542da208","system_id":"levelo_inurba_marseille","lat":43.27425,"lon":5.39419,"is_reserved":false,"is_disabled":false,"rental_uris":{"android":"levelo://app?vid=233626cf-f8be-474e-8862-f6a6542da208","ios":"levelo://app?vid=233626cf-f8be-474e-8862-f6a6542da208"},"vehicle_type_id":"4","last_reported":1732529444,"current_range_meters":28800,"station_id":"ce4bhdp2rcd13ifvqf20","pricing_plan_id":"cebpf4jnsgd1na2vs0mg"},{"bike_id":"63e5c75a-30c8-4be5-8ec8-448fdf89dbb8","system_id":"levelo_inurba_marseille","lat":43.23068,"lon":5.3549,"is_reserved":false,"is_disabled":false,"rental_uris":{"android":"levelo://app?vid=63e5c75a-30c8-4be5-8ec8-448fdf89dbb8","ios":"levelo://app?vid=63e5c75a-30c8-4be5-8ec8-448fdf89dbb8"},"vehicle_type_id":"4","last_reported":1732529444,"current_range_meters":36800,"station_id":"cpo3342slgdg3j2ifvpg","pricing_plan_id":"cebpf4jnsgd1na2vs0mg"},{"bike_id":"1edcc6aa-437d-45a4-9ad0-15bd1c92a1f4","system_id":"levelo_inurba_marseille","lat":43.30319,"lon":5.36898,"is_reserved":false,"is_disabled":false,"rental_uris":{"android":"levelo://app?vid=1edcc6aa-437d-45a4-9ad0-15bd1c92a1f4","ios":"levelo://app?vid=1edcc6aa-437d-45a4-9ad0-15bd1c92a1f4"},"vehicle_type_id":"4","last_reported":1732529444,"current_range_meters":35600,"station_id":"ce4bgqh2rcd13ifvqc5g","pricing_plan_id":"cebpf4jnsgd1na2vs0mg"},{"bike_id":"1e193d09-2cb0-4798-8e19-b0516f3ebb8e","system_id":"levelo_inurba_marseille","lat":43.28157,"lon":5.42619,"is_reserved":false,"is_disabled":false,"rental_uris":{"android":"levelo://app?vid=1e193d09-2cb0-4798-8e19-b0516f3ebb8e","ios":"levelo://app?vid=1e193d09-2cb0-4798-8e19-b0516f3ebb8e"},"vehicle_type_id":"4","last_reported":1732529444,"current_range_meters":12400,"station_id":"ce4bhnh2rcd13ifvqgug","pricing_plan_id":"cebpf4jnsgd1na2vs0mg"},{"bike_id":"6c052b4e-53c9-4a73-8562-1cd27721f1f4","system_id":"levelo_inurba_marseille","lat":43.27065,"lon":5.42271,"is_reserved":false,"is_disabled":false,"rental_uris":{"android":"levelo://app?vid=6c052b4e-53c9-4a73-8562-1cd27721f1f4","ios":"levelo://app?vid=6c052b4e-53c9-4a73-8562-1cd27721f1f4"},"vehicle_type_id":"4","last_reported":1732529444,"current_range_meters":14000,"station_id":"ce4bhk92rcd13ifvqgb0","pricing_plan_id":"cebpf4jnsgd1na2vs0mg"},{"bike_id":"0f22f840-4bd2-413b-a326-5e9bb8c6febb","system_id":"levelo_inurba_marseille","lat":43.28152,"lon":5.42645,"is_reserved":false,"is_disabled":false,"rental_uris":{"android":"levelo://app?vid=0f22f840-4bd2-413b-a326-5e9bb8c6febb","ios":"levelo://app?vid=0f22f840-4bd2-413b-a326-5e9bb8c6febb"},"vehicle_type_id":"4","last_reported":1732529444,"current_range_meters":38800,"station_id":"ce4bhnh2rcd13ifvqgug","pricing_plan_id":"cebpf4jnsgd1na2vs0mg"},{"bike_id":"6a30d627-309b-4ab9-ab1e-41d25a38cdaa","system_id":"levelo_inurba_marseille","lat":43.32552,"lon":5.41431,"is_reserved":false,"is_disabled":true,"rental_uris":{"android":"levelo://app?vid=6a30d627-309b-4ab9-ab1e-41d25a38cdaa","ios":"levelo://app?vid=6a30d627-309b-4ab9-ab1e-41d25a38cdaa"},"vehicle_type_id":"4","last_reported":1732529444,"current_range_meters":36000,"station_id":"ce4bhq12rcd13ifvqhhg","pricing_plan_id":"cebpf4jnsgd1na2vs0mg"},{"bike_id":"319287df-687a-4519-8559-afdae3b3272f","system_id":"levelo_inurba_marseille","lat":43.29787,"lon":5.38109,"is_reserved":false,"is_disabled":true,"rental_uris":{"android":"levelo://app?vid=319287df-687a-4519-8559-afdae3b3272f","ios":"levelo://app?vid=319287df-687a-4519-8559-afdae3b3272f"},"vehicle_type_id":"4","last_reported":1732529444,"current_range_meters":28800,"station_id":"ce4bgip2rcd13ifvqbb0","pricing_plan_id":"cebpf4jnsgd1na2vs0mg"},{"bike_id":"bca3fd95-577b-4655-a940-7281cdb56793","system_id":"levelo_inurba_marseille","lat":43.28031,"lon":5.36939,"is_reserved":false,"is_disabled":true,"rental_uris":{"android":"levelo://app?vid=bca3fd95-577b-4655-a940-7281cdb56793","ios":"levelo://app?vid=bca3fd95-577b-4655-a940-7281cdb56793"},"vehicle_type_id":"4","last_reported":1732529444,"current_range_meters":30400,"station_id":"ce4bha12rcd13ifvqef0","pricing_plan_id":"cebpf4jnsgd1na2vs0mg"},{"bike_id":"e5951ee3-4a5a-4ebb-b469-096c5188dfa3","system_id":"levelo_inurba_marseille","lat":43.23188,"lon":5.35554,"is_reserved":false,"is_disabled":false,"rental_uris":{"android":"levelo://app?vid=e5951ee3-4a5a-4ebb-b469-096c5188dfa3","ios":"levelo://app?vid=e5951ee3-4a5a-4ebb-b469-096c5188dfa3"},"vehicle_type_id":"4","last_reported":1732529444,"current_range_meters":12400,"station_id":"ce4bhu92rcd13ifvqi70","pricing_plan_id":"cebpf4jnsgd1na2vs0mg"},{"bike_id":"de897564-709e-4939-adfe-e2ba8630615a","system_id":"levelo_inurba_marseille","lat":43.29627,"lon":5.37146,"is_reserved":false,"is_disabled":false,"rental_uris":{"android":"levelo://app?vid=de897564-709e-4939-adfe-e2ba8630615a","ios":"levelo://app?vid=de897564-709e-4939-adfe-e2ba8630615a"},"vehicle_type_id":"4","last_reported":1732529444,"current_range_meters":36400,"station_id":"ce4bgnh2rcd13ifvqc0g","pricing_plan_id":"cebpf4jnsgd1na2vs0mg"},{"bike_id":"3cc26207-7312-4eaa-95b6-cfa66aac5ad8","system_id":"levelo_inurba_marseille","lat":43.23153,"lon":5.43713,"is_reserved":false,"is_disabled":false,"rental_uris":{"android":"levelo://app?vid=3cc26207-7312-4eaa-95b6-cfa66aac5ad8","ios":"levelo://app?vid=3cc26207-7312-4eaa-95b6-cfa66aac5ad8"},"vehicle_type_id":"4","last_reported":1732529444,"current_range_meters":16000,"station_id":"ce4bhmp2rcd13ifvqgog","pricing_plan_id":"cebpf4jnsgd1na2vs0mg"},{"bike_id":"33ae12dc-d757-46bf-b195-cf4bbca44eb2","system_id":"levelo_inurba_marseille","lat":43.30524,"lon":5.3655,"is_reserved":false,"is_disabled":false,"rental_uris":{"android":"levelo://app?vid=33ae12dc-d757-46bf-b195-cf4bbca44eb2","ios":"levelo://app?vid=33ae12dc-d757-46bf-b195-cf4bbca44eb2"},"vehicle_type_id":"4","last_reported":1732529444,"current_range_meters":38800,"station_id":"ce4bgs12rcd13ifvqcag","pricing_plan_id":"cebpf4jnsgd1na2vs0mg"},{"bike_id":"66aad5d7-efa9-4543-8e11-bbf0af584fcf","system_id":"levelo_inurba_marseille","lat":43.27813,"lon":5.40712,"is_reserved":false,"is_disabled":true,"rental_uris":{"android":"levelo://app?vid=66aad5d7-efa9-4543-8e11-bbf0af584fcf","ios":"levelo://app?vid=66aad5d7-efa9-4543-8e11-bbf0af584fcf"},"vehicle_type_id":"4","last_reported":1732529444,"current_range_meters":39200,"station_id":"ce4bhnh2rcd13ifvqgtg","pricing_plan_id":"cebpf4jnsgd1na2vs0mg"},{"bike_id":"81a37cae-e9cf-459f-9399-7a89da6edc9b","system_id":"levelo_inurba_marseille","lat":43.30607,"lon":5.37219,"is_reserved":false,"is_disabled":false,"rental_uris":{"android":"levelo://app?vid=81a37cae-e9cf-459f-9399-7a89da6edc9b","ios":"levelo://app?vid=81a37cae-e9cf-459f-9399-7a89da6edc9b"},"vehicle_type_id":"4","last_reported":1732529444,"current_range_meters":39200,"station_id":"ce4bgqh2rcd13ifvqc4g","pricing_plan_id":"cebpf4jnsgd1na2vs0mg"},{"bike_id":"6c948e9c-d5b3-4fe5-a918-1bd2f7c83b02","system_id":"levelo_inurba_marseille","lat":43.32112,"lon":5.36785,"is_reserved":false,"is_disabled":false,"rental_uris":{"android":"levelo://app?vid=6c948e9c-d5b3-4fe5-a918-1bd2f7c83b02","ios":"levelo://app?vid=6c948e9c-d5b3-4fe5-a918-1bd2f7c83b02"},"vehicle_type_id":"4","last_reported":1732529444,"current_range_meters":24800,"station_id":"ce4bhrh2rcd13ifvqhug","pricing_plan_id":"cebpf4jnsgd1na2vs0mg"},{"bike_id":"9e620abf-d324-4f99-84fc-d67e71109f2a","system_id":"levelo_inurba_marseille","lat":43.31077,"lon":5.42435,"is_reserved":false,"is_disabled":true,"rental_uris":{"android":"levelo://app?vid=9e620abf-d324-4f99-84fc-d67e71109f2a","ios":"levelo://app?vid=9e620abf-d324-4f99-84fc-d67e71109f2a"},"vehicle_type_id":"4","last_reported":1732529444,"current_range_meters":0,"station_id":"ce4bhp92rcd13ifvqhag","pricing_plan_id":"cebpf4jnsgd1na2vs0mg"},{"bike_id":"9388a7ff-9c5c-4c26-9899-39b2408cf7e3","system_id":"levelo_inurba_marseille","lat":43.31025,"lon":5.38342,"is_reserved":false,"is_disabled":true,"rental_uris":{"android":"levelo://app?vid=9388a7ff-9c5c-4c26-9899-39b2408cf7e3","ios":"levelo://app?vid=9388a7ff-9c5c-4c26-9899-39b2408cf7e3"},"vehicle_type_id":"4","last_reported":1732529444,"current_range_meters":0,"station_id":"","pricing_plan_id":"cebpf4jnsgd1na2vs0mg"},{"bike_id":"f0b812fb-308b-478f-b343-bd91863b177d","system_id":"levelo_inurba_marseille","lat":43.323456,"lon":5.40621,"is_reserved":false,"is_disabled":true,"rental_uris":{"android":"levelo://app?vid=f0b812fb-308b-478f-b343-bd91863b177d","ios":"levelo://app?vid=f0b812fb-308b-478f-b343-bd91863b177d"},"vehicle_type_id":"4","last_reported":1732529444,"current_range_meters":10800,"station_id":"ce4bhq92rcd13ifvqhjg","pricing_plan_id":"cebpf4jnsgd1na2vs0mg"},{"bike_id":"7993478e-0127-484e-9af9-906aa682b05d","system_id":"levelo_inurba_marseille","lat":43.30139,"lon":5.37425,"is_reserved":false,"is_disabled":false,"rental_uris":{"android":"levelo://app?vid=7993478e-0127-484e-9af9-906aa682b05d","ios":"levelo://app?vid=7993478e-0127-484e-9af9-906aa682b05d"},"vehicle_type_id":"4","last_reported":1732529444,"current_range_meters":39200,"station_id":"ce4bgs92rcd13ifvqcc0","pricing_plan_id":"cebpf4jnsgd1na2vs0mg"},{"bike_id":"f14e9fba-b9bd-4443-896c-9fd7a4fd971d","system_id":"levelo_inurba_marseille","lat":43.29896,"lon":5.4367,"is_reserved":false,"is_disabled":false,"rental_uris":{"android":"levelo://app?vid=f14e9fba-b9bd-4443-896c-9fd7a4fd971d","ios":"levelo://app?vid=f14e9fba-b9bd-4443-896c-9fd7a4fd971d"},"vehicle_type_id":"4","last_reported":1732529444,"current_range_meters":33600,"station_id":"ce4bhpp2rcd13ifvqhfg","pricing_plan_id":"cebpf4jnsgd1na2vs0mg"},{"bike_id":"c4f25d70-7f81-4a71-b895-f7e0bfa79b8e","system_id":"levelo_inurba_marseille","lat":43.27178,"lon":5.40989,"is_reserved":false,"is_disabled":true,"rental_uris":{"android":"levelo://app?vid=c4f25d70-7f81-4a71-b895-f7e0bfa79b8e","ios":"levelo://app?vid=c4f25d70-7f81-4a71-b895-f7e0bfa79b8e"},"vehicle_type_id":"4","last_reported":1732529444,"current_range_meters":32400,"station_id":"ce4bhl12rcd13ifvqgf0","pricing_plan_id":"cebpf4jnsgd1na2vs0mg"},{"bike_id":"5c53cfbd-2547-413a-b79a-f8cc3b1ca992","system_id":"levelo_inurba_marseille","lat":43.32108,"lon":5.36772,"is_reserved":false,"is_disabled":false,"rental_uris":{"android":"levelo://app?vid=5c53cfbd-2547-413a-b79a-f8cc3b1ca992","ios":"levelo://app?vid=5c53cfbd-2547-413a-b79a-f8cc3b1ca992"},"vehicle_type_id":"4","last_reported":1732529444,"current_range_meters":36800,"station_id":"ce4bhrh2rcd13ifvqhug","pricing_plan_id":"cebpf4jnsgd1na2vs0mg"},{"bike_id":"210a35fe-4338-4232-95a7-7fea277b2632","system_id":"levelo_inurba_marseille","lat":43.24072,"lon":5.37761,"is_reserved":false,"is_disabled":false,"rental_uris":{"android":"levelo://app?vid=210a35fe-4338-4232-95a7-7fea277b2632","ios":"levelo://app?vid=210a35fe-4338-4232-95a7-7fea277b2632"},"vehicle_type_id":"4","last_reported":1732529444,"current_range_meters":38800,"station_id":"ce4bhnp2rcd13ifvqgvg","pricing_plan_id":"cebpf4jnsgd1na2vs0mg"},{"bike_id":"343b544a-4e9a-4bfa-98c8-4eef0b4cb55d","system_id":"levelo_inurba_marseille","lat":43.26207,"lon":5.37919,"is_reserved":false,"is_disabled":false,"rental_uris":{"android":"levelo://app?vid=343b544a-4e9a-4bfa-98c8-4eef0b4cb55d","ios":"levelo://app?vid=343b544a-4e9a-4bfa-98c8-4eef0b4cb55d"},"vehicle_type_id":"4","last_reported":1732529444,"current_range_meters":30000,"station_id":"ce4bhjp2rcd13ifvqg90","pricing_plan_id":"cebpf4jnsgd1na2vs0mg"},{"bike_id":"04b9c9cb-be15-44a7-9bdc-6d22ca715c34","system_id":"levelo_inurba_marseille","lat":43.33725,"lon":5.39185,"is_reserved":false,"is_disabled":false,"rental_uris":{"android":"levelo://app?vid=04b9c9cb-be15-44a7-9bdc-6d22ca715c34","ios":"levelo://app?vid=04b9c9cb-be15-44a7-9bdc-6d22ca715c34"},"vehicle_type_id":"4","last_reported":1732529444,"current_range_meters":21600,"station_id":"ce4bhr92rcd13ifvqhsg","pricing_plan_id":"cebpf4jnsgd1na2vs0mg"},{"bike_id":"3b1c97d8-be81-484f-81f9-990f5b17db10","system_id":"levelo_inurba_marseille","lat":43.3414,"lon":5.40919,"is_reserved":false,"is_disabled":true,"rental_uris":{"android":"levelo://app?vid=3b1c97d8-be81-484f-81f9-990f5b17db10","ios":"levelo://app?vid=3b1c97d8-be81-484f-81f9-990f5b17db10"},"vehicle_type_id":"4","last_reported":1732529444,"current_range_meters":38000,"station_id":"ce4bhqh2rcd13ifvqhlg","pricing_plan_id":"cebpf4jnsgd1na2vs0mg"},{"bike_id":"43ef1878-08c8-43ce-8a84-e0d20cc2548c","system_id":"levelo_inurba_marseille","lat":43.25941,"lon":5.40904,"is_reserved":false,"is_disabled":false,"rental_uris":{"android":"levelo://app?vid=43ef1878-08c8-43ce-8a84-e0d20cc2548c","ios":"levelo://app?vid=43ef1878-08c8-43ce-8a84-e0d20cc2548c"},"vehicle_type_id":"4","last_reported":1732529444,"current_range_meters":36800,"station_id":"ce4bhm92rcd13ifvqglg","pricing_plan_id":"cebpf4jnsgd1na2vs0mg"},{"bike_id":"9f267e62-6b87-4771-87f0-74b82cb5947e","system_id":"levelo_inurba_marseille","lat":43.29452,"lon":5.39741,"is_reserved":false,"is_disabled":false,"rental_uris":{"android":"levelo://app?vid=9f267e62-6b87-4771-87f0-74b82cb5947e","ios":"levelo://app?vid=9f267e62-6b87-4771-87f0-74b82cb5947e"},"vehicle_type_id":"4","last_reported":1732529444,"current_range_meters":29600,"station_id":"ce4bh3h2rcd13ifvqdo0","pricing_plan_id":"cebpf4jnsgd1na2vs0mg"},{"bike_id":"56ca6b93-ca3d-4dfc-8e20-e35c24d8bd07","system_id":"levelo_inurba_marseille","lat":43.337444,"lon":5.374475,"is_reserved":false,"is_disabled":true,"rental_uris":{"android":"levelo://app?vid=56ca6b93-ca3d-4dfc-8e20-e35c24d8bd07","ios":"levelo://app?vid=56ca6b93-ca3d-4dfc-8e20-e35c24d8bd07"},"vehicle_type_id":"4","last_reported":1732529444,"current_range_meters":0,"station_id":"","pricing_plan_id":"cebpf4jnsgd1na2vs0mg"},{"bike_id":"3ab22db4-3674-431e-9d90-c9391c7ec55e","system_id":"levelo_inurba_marseille","lat":43.29623,"lon":5.37166,"is_reserved":false,"is_disabled":false,"rental_uris":{"android":"levelo://app?vid=3ab22db4-3674-431e-9d90-c9391c7ec55e","ios":"levelo://app?vid=3ab22db4-3674-431e-9d90-c9391c7ec55e"},"vehicle_type_id":"4","last_reported":1732529444,"current_range_meters":24800,"station_id":"ce4bgnh2rcd13ifvqc0g","pricing_plan_id":"cebpf4jnsgd1na2vs0mg"},{"bike_id":"89b60ab2-d6a6-4acf-aafc-578126cf416a","system_id":"levelo_inurba_marseille","lat":43.28271,"lon":5.35067,"is_reserved":false,"is_disabled":false,"rental_uris":{"android":"levelo://app?vid=89b60ab2-d6a6-4acf-aafc-578126cf416a","ios":"levelo://app?vid=89b60ab2-d6a6-4acf-aafc-578126cf416a"},"vehicle_type_id":"4","last_reported":1732529444,"current_range_meters":26000,"station_id":"ce4bhbp2rcd13ifvqerg","pricing_plan_id":"cebpf4jnsgd1na2vs0mg"},{"bike_id":"46ac22a8-6f10-4221-98a6-34eba5c97bfb","system_id":"levelo_inurba_marseille","lat":43.29204,"lon":5.37301,"is_reserved":false,"is_disabled":true,"rental_uris":{"android":"levelo://app?vid=46ac22a8-6f10-4221-98a6-34eba5c97bfb","ios":"levelo://app?vid=46ac22a8-6f10-4221-98a6-34eba5c97bfb"},"vehicle_type_id":"4","last_reported":1732529444,"current_range_meters":0,"station_id":"","pricing_plan_id":"cebpf4jnsgd1na2vs0mg"},{"bike_id":"5846e7ee-045c-466d-b02c-9cd3eadc9db6","system_id":"levelo_inurba_marseille","lat":43.29201,"lon":5.35805,"is_reserved":false,"is_disabled":true,"rental_uris":{"android":"levelo://app?vid=5846e7ee-045c-466d-b02c-9cd3eadc9db6","ios":"levelo://app?vid=5846e7ee-045c-466d-b02c-9cd3eadc9db6"},"vehicle_type_id":"4","last_reported":1732529444,"current_range_meters":38400,"station_id":"ce4bhb12rcd13ifvqel0","pricing_plan_id":"cebpf4jnsgd1na2vs0mg"},{"bike_id":"03806296-836b-4e4f-a9bd-b155dd467267","system_id":"levelo_inurba_marseille","lat":43.24069,"lon":5.37753,"is_reserved":false,"is_disabled":false,"rental_uris":{"android":"levelo://app?vid=03806296-836b-4e4f-a9bd-b155dd467267","ios":"levelo://app?vid=03806296-836b-4e4f-a9bd-b155dd467267"},