{"last_updated":1727345402,"ttl":60,"version":"2.2","data":{"bikes":[{"bike_id":"f82c8257-bab0-4d5a-b202-1064bb5dc194","system_id":"levelo_inurba_marseille","lat":43.27076,"lon":5.42277,"is_reserved":false,"is_disabled":false,"rental_uris":{"android":"levelo://app?vid=f82c8257-bab0-4d5a-b202-1064bb5dc194","ios":"levelo://app?vid=f82c8257-bab0-4d5a-b202-1064bb5dc194"},"vehicle_type_id":"4","last_reported":1727345402,"current_range_meters":12000,"station_id":"ce4bhk92rcd13ifvqgb0","pricing_plan_id":"cebpf4jnsgd1na2vs0mg"},{"bike_id":"2f3efc0e-dc90-4c60-98eb-a6d5b154f6e0","system_id":"levelo_inurba_marseille","lat":43.29842,"lon":5.36275,"is_reserved":false,"is_disabled":false,"rental_uris":{"android":"levelo://app?vid=2f3efc0e-dc90-4c60-98eb-a6d5b154f6e0","ios":"levelo://app?vid=2f3efc0e-dc90-4c60-98eb-a6d5b154f6e0"},"vehicle_type_id":"4","last_reported":1727345402,"current_range_meters":39200,"station_id":"ce4bgpp2rcd13ifvqc3g","pricing_plan_id":"cebpf4jnsgd1na2vs0mg"},{"bike_id":"56ec2c14-3439-479d-a467-8970648caa23","system_id":"levelo_inurba_marseille","lat":43.25495,"lon":5.37644,"is_reserved":false,"is_disabled":false,"rental_uris":{"android":"levelo://app?vid=56ec2c14-3439-479d-a467-8970648caa23","ios":"levelo://app?vid=56ec2c14-3439-479d-a467-8970648caa23"},"vehicle_type_id":"4","last_reported":1727345402,"current_range_meters":33600,"station_id":"ce4bhh12rcd13ifvqff0","pricing_plan_id":"cebpf4jnsgd1na2vs0mg"},{"bike_id":"74d68aab-dcd1-4d0a-976e-418b8bad0fdd","system_id":"levelo_inurba_marseille","lat":43.23149,"lon":5.43699,"is_reserved":false,"is_disabled":false,"rental_uris":{"android":"levelo://app?vid=74d68aab-dcd1-4d0a-976e-418b8bad0fdd","ios":"levelo://app?vid=74d68aab-dcd1-4d0a-976e-418b8bad0fdd"},"vehicle_type_id":"4","last_reported":1727345402,"current_range_meters":38400,"station_id":"ce4bhmp2rcd13ifvqgog","pricing_plan_id":"cebpf4jnsgd1na2vs0mg"},{"bike_id":"bcd2ae98-ab9d-4259-8697-47911a18774c","system_id":"levelo_inurba_marseille","lat":43.29031,"lon":5.375663,"is_reserved":false,"is_disabled":false,"rental_uris":{"android":"levelo://app?vid=bcd2ae98-ab9d-4259-8697-47911a18774c","ios":"levelo://app?vid=bcd2ae98-ab9d-4259-8697-47911a18774c"},"vehicle_type_id":"4","last_reported":1727345402,"current_range_meters":38800,"station_id":"ce4bh692rcd13ifvqe90","pricing_plan_id":"cebpf4jnsgd1na2vs0mg"},{"bike_id":"630abde1-7d62-486b-ac41-f76a2632946a","system_id":"levelo_inurba_marseille","lat":43.24796,"lon":5.37459,"is_reserved":false,"is_disabled":false,"rental_uris":{"android":"levelo://app?vid=630abde1-7d62-486b-ac41-f76a2632946a","ios":"levelo://app?vid=630abde1-7d62-486b-ac41-f76a2632946a"},"vehicle_type_id":"4","last_reported":1727345402,"current_range_meters":34800,"station_id":"ce4bhgh2rcd13ifvqfb0","pricing_plan_id":"cebpf4jnsgd1na2vs0mg"},{"bike_id":"3ade15d9-4038-4fe2-a9fb-2515b89ae4bd","system_id":"levelo_inurba_marseille","lat":43.24547,"lon":5.39529,"is_reserved":false,"is_disabled":false,"rental_uris":{"android":"levelo://app?vid=3ade15d9-4038-4fe2-a9fb-2515b89ae4bd","ios":"levelo://app?vid=3ade15d9-4038-4fe2-a9fb-2515b89ae4bd"},"vehicle_type_id":"4","last_reported":1727345402,"current_range_meters":33200,"station_id":"ce4bhlp2rcd13ifvqgjg","pricing_plan_id":"cebpf4jnsgd1na2vs0mg"},{"bike_id":"21e0ea13-c5d9-48ea-bca6-151e31404e82","system_id":"levelo_inurba_marseille","lat":43.28375,"lon":5.4127,"is_reserved":false,"is_disabled":false,"rental_uris":{"android":"levelo://app?vid=21e0ea13-c5d9-48ea-bca6-151e31404e82","ios":"levelo://app?vid=21e0ea13-c5d9-48ea-bca6-151e31404e82"},"vehicle_type_id":"4","last_reported":1727345402,"current_range_meters":22400,"station_id":"","pricing_plan_id":"cebpf4jnsgd1na2vs0mg"},{"bike_id":"c3dc0bfd-1047-4800-8b7c-7d8cb2ac491b","system_id":"levelo_inurba_marseille","lat":43.30539,"lon":5.36541,"is_reserved":false,"is_disabled":false,"rental_uris":{"android":"levelo://app?vid=c3dc0bfd-1047-4800-8b7c-7d8cb2ac491b","ios":"levelo://app?vid=c3dc0bfd-1047-4800-8b7c-7d8cb2ac491b"},"vehicle_type_id":"4","last_reported":1727345402,"current_range_meters":29600,"station_id":"ce4bgs12rcd13ifvqcag","pricing_plan_id":"cebpf4jnsgd1na2vs0mg"},{"bike_id":"f7817ba7-e252-458f-ae87-46b773db6a5d","system_id":"levelo_inurba_marseille","lat":43.24073,"lon":5.37741,"is_reserved":false,"is_disabled":false,"rental_uris":{"android":"levelo://app?vid=f7817ba7-e252-458f-ae87-46b773db6a5d","ios":"levelo://app?vid=f7817ba7-e252-458f-ae87-46b773db6a5d"},"vehicle_type_id":"4","last_reported":1727345402,"current_range_meters":10800,"station_id":"ce4bhnp2rcd13ifvqgvg","pricing_plan_id":"cebpf4jnsgd1na2vs0mg"},{"bike_id":"4876a312-ef1e-4e11-9b0e-1288c72f726d","system_id":"levelo_inurba_marseille","lat":43.32652,"lon":5.40983,"is_reserved":false,"is_disabled":false,"rental_uris":{"android":"levelo://app?vid=4876a312-ef1e-4e11-9b0e-1288c72f726d","ios":"levelo://app?vid=4876a312-ef1e-4e11-9b0e-1288c72f726d"},"vehicle_type_id":"4","last_reported":1727345402,"current_range_meters":38400,"station_id":"ce4bhpp2rcd13ifvqhgg","pricing_plan_id":"cebpf4jnsgd1na2vs0mg"},{"bike_id":"2ba6aa71-b41a-4ce7-b938-cc9859e487c9","system_id":"levelo_inurba_marseille","lat":43.28848,"lon":5.3932,"is_reserved":false,"is_disabled":false,"rental_uris":{"android":"levelo://app?vid=2ba6aa71-b41a-4ce7-b938-cc9859e487c9","ios":"levelo://app?vid=2ba6aa71-b41a-4ce7-b938-cc9859e487c9"},"vehicle_type_id":"4","last_reported":1727345402,"current_range_meters":30800,"station_id":"ce4bh2p2rcd13ifvqdi0","pricing_plan_id":"cebpf4jnsgd1na2vs0mg"},{"bike_id":"eb965b44-7547-4d6c-8d03-5439b5c3f4a8","system_id":"levelo_inurba_marseille","lat":43.27488,"lon":5.42457,"is_reserved":false,"is_disabled":false,"rental_uris":{"android":"levelo://app?vid=eb965b44-7547-4d6c-8d03-5439b5c3f4a8","ios":"levelo://app?vid=eb965b44-7547-4d6c-8d03-5439b5c3f4a8"},"vehicle_type_id":"4","last_reported":1727345402,"current_range_meters":14000,"station_id":"ce4bhn92rcd13ifvqgrg","pricing_plan_id":"cebpf4jnsgd1na2vs0mg"},{"bike_id":"3b8b1f92-ed32-436e-9e7c-472e6ff0fca3","system_id":"levelo_inurba_marseille","lat":43.27067,"lon":5.42279,"is_reserved":false,"is_disabled":false,"rental_uris":{"android":"levelo://app?vid=3b8b1f92-ed32-436e-9e7c-472e6ff0fca3","ios":"levelo://app?vid=3b8b1f92-ed32-436e-9e7c-472e6ff0fca3"},"vehicle_type_id":"4","last_reported":1727345402,"current_range_meters":6400,"station_id":"ce4bhk92rcd13ifvqgb0","pricing_plan_id":"cebpf4jnsgd1na2vs0mg"},{"bike_id":"818eb369-4c70-42e8-b04d-afc706498bad","system_id":"levelo_inurba_marseille","lat":43.30271,"lon":5.37699,"is_reserved":false,"is_disabled":false,"rental_uris":{"android":"levelo://app?vid=818eb369-4c70-42e8-b04d-afc706498bad","ios":"levelo://app?vid=818eb369-4c70-42e8-b04d-afc706498bad"},"vehicle_type_id":"4","last_reported":1727345402,"current_range_meters":39200,"station_id":"ce4bguh2rcd13ifvqcj0","pricing_plan_id":"cebpf4jnsgd1na2vs0mg"},{"bike_id":"9825051c-cbbc-40a9-8986-4f363859baa3","system_id":"levelo_inurba_marseille","lat":43.27965,"lon":5.3875,"is_reserved":false,"is_disabled":false,"rental_uris":{"android":"levelo://app?vid=9825051c-cbbc-40a9-8986-4f363859baa3","ios":"levelo://app?vid=9825051c-cbbc-40a9-8986-4f363859baa3"},"vehicle_type_id":"4","last_reported":1727345402,"current_range_meters":24000,"station_id":"ce4bhg12rcd13ifvqf80","pricing_plan_id":"cebpf4jnsgd1na2vs0mg"},{"bike_id":"c22e838f-f3c3-4abb-abb7-54807ae76b0d","system_id":"levelo_inurba_marseille","lat":43.25829,"lon":5.39437,"is_reserved":false,"is_disabled":false,"rental_uris":{"android":"levelo://app?vid=c22e838f-f3c3-4abb-abb7-54807ae76b0d","ios":"levelo://app?vid=c22e838f-f3c3-4abb-abb7-54807ae76b0d"},"vehicle_type_id":"4","last_reported":1727345402,"current_range_meters":28000,"station_id":"ce4bhip2rcd13ifvqft0","pricing_plan_id":"cebpf4jnsgd1na2vs0mg"},{"bike_id":"18dcc2de-6658-4930-a51b-2c944671767f","system_id":"levelo_inurba_marseille","lat":43.31336,"lon":5.36708,"is_reserved":false,"is_disabled":false,"rental_uris":{"android":"levelo://app?vid=18dcc2de-6658-4930-a51b-2c944671767f","ios":"levelo://app?vid=18dcc2de-6658-4930-a51b-2c944671767f"},"vehicle_type_id":"4","last_reported":1727345402,"current_range_meters":32000,"station_id":"ce4bgr92rcd13ifvqc6g","pricing_plan_id":"cebpf4jnsgd1na2vs0mg"},{"bike_id":"429f382d-b1c2-4f8e-94de-0317fe85f9c0","system_id":"levelo_inurba_marseille","lat":43.23152,"lon":5.4371,"is_reserved":false,"is_disabled":false,"rental_uris":{"android":"levelo://app?vid=429f382d-b1c2-4f8e-94de-0317fe85f9c0","ios":"levelo://app?vid=429f382d-b1c2-4f8e-94de-0317fe85f9c0"},"vehicle_type_id":"4","last_reported":1727345402,"current_range_meters":2000,"station_id":"ce4bhmp2rcd13ifvqgog","pricing_plan_id":"cebpf4jnsgd1na2vs0mg"},{"bike_id":"a2292079-b6ea-4c7f-81a4-f9b6dcb98714","system_id":"levelo_inurba_marseille","lat":43.26207,"lon":5.37444,"is_reserved":false,"is_disabled":false,"rental_uris":{"android":"levelo://app?vid=a2292079-b6ea-4c7f-81a4-f9b6dcb98714","ios":"levelo://app?vid=a2292079-b6ea-4c7f-81a4-f9b6dcb98714"},"vehicle_type_id":"4","last_reported":1727345402,"current_range_meters":17600,"station_id":"ce4bhgp2rcd13ifvqfc0","pricing_plan_id":"cebpf4jnsgd1na2vs0mg"},{"bike_id":"90f01120-67fa-4ef1-b4c3-3c9f7df17fa0","system_id":"levelo_inurba_marseille","lat":43.30148,"lon":5.38081,"is_reserved":false,"is_disabled":false,"rental_uris":{"android":"levelo://app?vid=90f01120-67fa-4ef1-b4c3-3c9f7df17fa0","ios":"levelo://app?vid=90f01120-67fa-4ef1-b4c3-3c9f7df17fa0"},"vehicle_type_id":"4","last_reported":1727345402,"current_range_meters":32400,"station_id":"ce4bgjp2rcd13ifvqbh0","pricing_plan_id":"cebpf4jnsgd1na2vs0mg"},{"bike_id":"eafd53b1-010f-48f5-93e8-ec1c20ebf7cc","system_id":"levelo_inurba_marseille","lat":43.30607,"lon":5.37239,"is_reserved":false,"is_disabled":false,"rental_uris":{"android":"levelo://app?vid=eafd53b1-010f-48f5-93e8-ec1c20ebf7cc","ios":"levelo://app?vid=eafd53b1-010f-48f5-93e8-ec1c20ebf7cc"},"vehicle_type_id":"4","last_reported":1727345402,"current_range_meters":26800,"station_id":"ce4bgqh2rcd13ifvqc4g","pricing_plan_id":"cebpf4jnsgd1na2vs0mg"},{"bike_id":"b0da3b8b-593c-4a97-b84c-abb310164520","system_id":"levelo_inurba_marseille","lat":43.31338,"lon":5.36713,"is_reserved":false,"is_disabled":false,"rental_uris":{"android":"levelo://app?vid=b0da3b8b-593c-4a97-b84c-abb310164520","ios":"levelo://app?vid=b0da3b8b-593c-4a97-b84c-abb310164520"},"vehicle_type_id":"4","last_reported":1727345402,"current_range_meters":30000,"station_id":"ce4bgr92rcd13ifvqc6g","pricing_plan_id":"cebpf4jnsgd1na2vs0mg"},{"bike_id":"64458427-85d5-4ac4-8859-e4ecdf247b77","system_id":"levelo_inurba_marseille","lat":43.30131,"lon":5.37414,"is_reserved":false,"is_disabled":false,"rental_uris":{"android":"levelo://app?vid=64458427-85d5-4ac4-8859-e4ecdf247b77","ios":"levelo://app?vid=64458427-85d5-4ac4-8859-e4ecdf247b77"},"vehicle_type_id":"4","last_reported":1727345402,"current_range_meters":34000,"station_id":"ce4bgs92rcd13ifvqcc0","pricing_plan_id":"cebpf4jnsgd1na2vs0mg"},{"bike_id":"7737b815-6daf-41f0-8354-4b28ba75917f","system_id":"levelo_inurba_marseille","lat":43.30195,"lon":5.39827,"is_reserved":false,"is_disabled":false,"rental_uris":{"android":"levelo://app?vid=7737b815-6daf-41f0-8354-4b28ba75917f","ios":"levelo://app?vid=7737b815-6daf-41f0-8354-4b28ba75917f"},"vehicle_type_id":"4","last_reported":1727345402,"current_range_meters":12000,"station_id":"ce4bgvp2rcd13ifvqct0","pricing_plan_id":"cebpf4jnsgd1na2vs0mg"},{"bike_id":"3df56cf6-183d-48e0-8c1c-f8eaad3a37e3","system_id":"levelo_inurba_marseille","lat":43.24078,"lon":5.37739,"is_reserved":false,"is_disabled":false,"rental_uris":{"android":"levelo://app?vid=3df56cf6-183d-48e0-8c1c-f8eaad3a37e3","ios":"levelo://app?vid=3df56cf6-183d-48e0-8c1c-f8eaad3a37e3"},"vehicle_type_id":"4","last_reported":1727345402,"current_range_meters":21600,"station_id":"ce4bhnp2rcd13ifvqgvg","pricing_plan_id":"cebpf4jnsgd1na2vs0mg"},{"bike_id":"60b91a65-eed3-4df3-8cc5-8066c06a77a1","system_id":"levelo_inurba_marseille","lat":43.29507,"lon":5.39401,"is_reserved":false,"is_disabled":false,"rental_uris":{"android":"levelo://app?vid=60b91a65-eed3-4df3-8cc5-8066c06a77a1","ios":"levelo://app?vid=60b91a65-eed3-4df3-8cc5-8066c06a77a1"},"vehicle_type_id":"4","last_reported":1727345402,"current_range_meters":7200,"station_id":"ce4bh292rcd13ifvqdf0","pricing_plan_id":"cebpf4jnsgd1na2vs0mg"},{"bike_id":"3109b08e-97cb-47e0-ba01-1d18ed43f231","system_id":"levelo_inurba_marseille","lat":43.26023,"lon":5.3755,"is_reserved":false,"is_disabled":false,"rental_uris":{"android":"levelo://app?vid=3109b08e-97cb-47e0-ba01-1d18ed43f231","ios":"levelo://app?vid=3109b08e-97cb-47e0-ba01-1d18ed43f231"},"vehicle_type_id":"4","last_reported":1727345402,"current_range_meters":38800,"station_id":"ce4bhgh2rcd13ifvqfa0","pricing_plan_id":"cebpf4jnsgd1na2vs0mg"},{"bike_id":"e14566a6-555f-4434-b8ae-bf20815898da","system_id":"levelo_inurba_marseille","lat":43.26058,"lon":5.39388,"is_reserved":false,"is_disabled":false,"rental_uris":{"android":"levelo://app?vid=e14566a6-555f-4434-b8ae-bf20815898da","ios":"levelo://app?vid=e14566a6-555f-4434-b8ae-bf20815898da"},"vehicle_type_id":"4","last_reported":1727345402,"current_range_meters":8400,"station_id":"ce4bhh92rcd13ifvqfj0","pricing_plan_id":"cebpf4jnsgd1na2vs0mg"},{"bike_id":"15f9ee7b-ac25-4586-8dcb-60c39e75be69","system_id":"levelo_inurba_marseille","lat":43.29274,"lon":5.3684,"is_reserved":false,"is_disabled":false,"rental_uris":{"android":"levelo://app?vid=15f9ee7b-ac25-4586-8dcb-60c39e75be69","ios":"levelo://app?vid=15f9ee7b-ac25-4586-8dcb-60c39e75be69"},"vehicle_type_id":"4","last_reported":1727345402,"current_range_meters":35600,"station_id":"ce4bhbp2rcd13ifvqesg","pricing_plan_id":"cebpf4jnsgd1na2vs0mg"},{"bike_id":"b6daf4df-7c90-4c5e-b397-06a87d15013f","system_id":"levelo_inurba_marseille","lat":43.33702,"lon":5.37443,"is_reserved":false,"is_disabled":false,"rental_uris":{"android":"levelo://app?vid=b6daf4df-7c90-4c5e-b397-06a87d15013f","ios":"levelo://app?vid=b6daf4df-7c90-4c5e-b397-06a87d15013f"},"vehicle_type_id":"4","last_reported":1727345402,"current_range_meters":30400,"station_id":"","pricing_plan_id":"cebpf4jnsgd1na2vs0mg"},{"bike_id":"f71e4327-68c5-4fbd-afb4-e2e415509296","system_id":"levelo_inurba_marseille","lat":43.23144,"lon":5.43719,"is_reserved":false,"is_disabled":false,"rental_uris":{"android":"levelo://app?vid=f71e4327-68c5-4fbd-afb4-e2e415509296","ios":"levelo://app?vid=f71e4327-68c5-4fbd-afb4-e2e415509296"},"vehicle_type_id":"4","last_reported":1727345402,"current_range_meters":4800,"station_id":"ce4bhmp2rcd13ifvqgog","pricing_plan_id":"cebpf4jnsgd1na2vs0mg"},{"bike_id":"6dbdbd0e-21c7-4286-b08d-23971de7f263","system_id":"levelo_inurba_marseille","lat":43.2799,"lon":5.40011,"is_reserved":false,"is_disabled":false,"rental_uris":{"android":"levelo://app?vid=6dbdbd0e-21c7-4286-b08d-23971de7f263","ios":"levelo://app?vid=6dbdbd0e-21c7-4286-b08d-23971de7f263"},"vehicle_type_id":"4","last_reported":1727345402,"current_range_meters":37600,"station_id":"ce4bho92rcd13ifvqh4g","pricing_plan_id":"cebpf4jnsgd1na2vs0mg"},{"bike_id":"dab37bf3-4a86-4251-b6a1-c4d272e4ea4d","system_id":"levelo_inurba_marseille","lat":43.33605,"lon":5.4103,"is_reserved":false,"is_disabled":false,"rental_uris":{"android":"levelo://app?vid=dab37bf3-4a86-4251-b6a1-c4d272e4ea4d","ios":"levelo://app?vid=dab37bf3-4a86-4251-b6a1-c4d272e4ea4d"},"vehicle_type_id":"4","last_reported":1727345402,"current_range_meters":38400,"station_id":"ce4bhqh2rcd13ifvqhmg","pricing_plan_id":"cebpf4jnsgd1na2vs0mg"},{"bike_id":"cd356a54-e9fa-4400-a082-24b21b83911f","system_id":"levelo_inurba_marseille","lat":43.29303,"lon":5.3744,"is_reserved":false,"is_disabled":false,"rental_uris":{"android":"levelo://app?vid=cd356a54-e9fa-4400-a082-24b21b83911f","ios":"levelo://app?vid=cd356a54-e9fa-4400-a082-24b21b83911f"},"vehicle_type_id":"4","last_reported":1727345402,"current_range_meters":38400,"station_id":"ce4bgi12rcd13ifvqb70","pricing_plan_id":"cebpf4jnsgd1na2vs0mg"},{"bike_id":"ac82d897-e001-4942-9da4-df3eb9480018","system_id":"levelo_inurba_marseille","lat":43.33605,"lon":5.41028,"is_reserved":false,"is_disabled":false,"rental_uris":{"android":"levelo://app?vid=ac82d897-e001-4942-9da4-df3eb9480018","ios":"levelo://app?vid=ac82d897-e001-4942-9da4-df3eb9480018"},"vehicle_type_id":"4","last_reported":1727345402,"current_range_meters":30800,"station_id":"ce4bhqh2rcd13ifvqhmg","pricing_plan_id":"cebpf4jnsgd1na2vs0mg"},{"bike_id":"53ba1e37-e95d-4e48-89b3-23b0f8cf9780","system_id":"levelo_inurba_marseille","lat":43.29528,"lon":5.37511,"is_reserved":false,"is_disabled":false,"rental_uris":{"android":"levelo://app?vid=53ba1e37-e95d-4e48-89b3-23b0f8cf9780","ios":"levelo://app?vid=53ba1e37-e95d-4e48-89b3-23b0f8cf9780"},"vehicle_type_id":"4","last_reported":1727345402,"current_range_meters":28000,"station_id":"ce4bgkp2rcd13ifvqbmg","pricing_plan_id":"cebpf4jnsgd1na2vs0mg"},{"bike_id":"920a992c-b9bd-467d-8738-97c73c4e43f7","system_id":"levelo_inurba_marseille","lat":43.31215,"lon":5.36866,"is_reserved":false,"is_disabled":false,"rental_uris":{"android":"levelo://app?vid=920a992c-b9bd-467d-8738-97c73c4e43f7","ios":"levelo://app?vid=920a992c-b9bd-467d-8738-97c73c4e43f7"},"vehicle_type_id":"4","last_reported":1727345402,"current_range_meters":38800,"station_id":"ce4bgl92rcd13ifvqbq0","pricing_plan_id":"cebpf4jnsgd1na2vs0mg"},{"bike_id":"57bc1e84-e83e-4198-85b5-3e7f9c3f0b0b","system_id":"levelo_inurba_marseille","lat":43.24166,"lon":5.36392,"is_reserved":false,"is_disabled":false,"rental_uris":{"android":"levelo://app?vid=57bc1e84-e83e-4198-85b5-3e7f9c3f0b0b","ios":"levelo://app?vid=57bc1e84-e83e-4198-85b5-3e7f9c3f0b0b"},"vehicle_type_id":"4","last_reported":1727345402,"current_range_meters":28000,"station_id":"cpo36qri1sfpv3e86is0","pricing_plan_id":"cebpf4jnsgd1na2vs0mg"},{"bike_id":"7a8458d5-44ac-4f2e-abef-3f01eb31f7ca","system_id":"levelo_inurba_marseille","lat":43.337444,"lon":5.374475,"is_reserved":false,"is_disabled":false,"rental_uris":{"android":"levelo://app?vid=7a8458d5-44ac-4f2e-abef-3f01eb31f7ca","ios":"levelo://app?vid=7a8458d5-44ac-4f2e-abef-3f01eb31f7ca"},"vehicle_type_id":"4","last_reported":1727345402,"current_range_meters":21600,"station_id":"","pricing_plan_id":"cebpf4jnsgd1na2vs0mg"},{"bike_id":"f006be33-3ac3-40ea-a5fb-fa6c055dc59b","system_id":"levelo_inurba_marseille","lat":43.30358,"lon":5.41876,"is_reserved":false,"is_disabled":false,"rental_uris":{"android":"levelo://app?vid=f006be33-3ac3-40ea-a5fb-fa6c055dc59b","ios":"levelo://app?vid=f006be33-3ac3-40ea-a5fb-fa6c055dc59b"},"vehicle_type_id":"4","last_reported":1727345402,"current_range_meters":6800,"station_id":"ce4bhop2rcd13ifvqh7g","pricing_plan_id":"cebpf4jnsgd1na2vs0mg"},{"bike_id":"f894c3f4-d7e3-4b5c-8815-52749c060b22","system_id":"levelo_inurba_marseille","lat":43.29031,"lon":5.35921,"is_reserved":false,"is_disabled":false,"rental_uris":{"android":"levelo://app?vid=f894c3f4-d7e3-4b5c-8815-52749c060b22","ios":"levelo://app?vid=f894c3f4-d7e3-4b5c-8815-52749c060b22"},"vehicle_type_id":"4","last_reported":1727345402,"current_range_meters":24400,"station_id":"ce4bha92rcd13ifvqeg0","pricing_plan_id":"cebpf4jnsgd1na2vs0mg"},{"bike_id":"0a5498d1-2c08-4f3d-af23-80c73fef4615","system_id":"levelo_inurba_marseille","lat":43.24074,"lon":5.37755,"is_reserved":false,"is_disabled":false,"rental_uris":{"android":"levelo://app?vid=0a5498d1-2c08-4f3d-af23-80c73fef4615","ios":"levelo://app?vid=0a5498d1-2c08-4f3d-af23-80c73fef4615"},"vehicle_type_id":"4","last_reported":1727345402,"current_range_meters":38400,"station_id":"ce4bhnp2rcd13ifvqgvg","pricing_plan_id":"cebpf4jnsgd1na2vs0mg"},{"bike_id":"388a507e-86c4-4df5-b075-d43d70469bdd","system_id":"levelo_inurba_marseille","lat":43.30185,"lon":5.3662,"is_reserved":false,"is_disabled":false,"rental_uris":{"android":"levelo://app?vid=388a507e-86c4-4df5-b075-d43d70469bdd","ios":"levelo://app?vid=388a507e-86c4-4df5-b075-d43d70469bdd"},"vehicle_type_id":"4","last_reported":1727345402,"current_range_meters":38000,"station_id":"ce4bgrh2rcd13ifvqc8g","pricing_plan_id":"cebpf4jnsgd1na2vs0mg"},{"bike_id":"b28f1536-b7e3-48cf-b8d1-86342c67eb8b","system_id":"levelo_inurba_marseille","lat":43.29876,"lon":5.39724,"is_reserved":false,"is_disabled":false,"rental_uris":{"android":"levelo://app?vid=b28f1536-b7e3-48cf-b8d1-86342c67eb8b","ios":"levelo://app?vid=b28f1536-b7e3-48cf-b8d1-86342c67eb8b"},"vehicle_type_id":"4","last_reported":1727345402,"current_range_meters":27200,"station_id":"ce4bh0h2rcd13ifvqd50","pricing_plan_id":"cebpf4jnsgd1na2vs0mg"},{"bike_id":"0ff4805d-5eb0-413d-9fd8-adffbbf2ce16","system_id":"levelo_inurba_marseille","lat":43.29841,"lon":5.36279,"is_reserved":false,"is_disabled":false,"rental_uris":{"android":"levelo://app?vid=0ff4805d-5eb0-413d-9fd8-adffbbf2ce16","ios":"levelo://app?vid=0ff4805d-5eb0-413d-9fd8-adffbbf2ce16"},"vehicle_type_id":"4","last_reported":1727345402,"current_range_meters":39200,"station_id":"ce4bgpp2rcd13ifvqc3g","pricing_plan_id":"cebpf4jnsgd1na2vs0mg"},{"bike_id":"1641169f-2609-48fc-9fa8-62b9cffac069","system_id":"levelo_inurba_marseille","lat":43.30534,"lon":5.36553,"is_reserved":false,"is_disabled":false,"rental_uris":{"android":"levelo://app?vid=1641169f-2609-48fc-9fa8-62b9cffac069","ios":"levelo://app?vid=1641169f-2609-48fc-9fa8-62b9cffac069"},"vehicle_type_id":"4","last_reported":1727345402,"current_range_meters":36800,"station_id":"ce4bgs12rcd13ifvqcag","pricing_plan_id":"cebpf4jnsgd1na2vs0mg"},{"bike_id":"ed9d69a6-a921-4251-b073-fdfe53c8cdc2","system_id":"levelo_inurba_marseille","lat":43.24074,"lon":5.37745,"is_reserved":false,"is_disabled":false,"rental_uris":{"android":"levelo://app?vid=ed9d69a6-a921-4251-b073-fdfe53c8cdc2","ios":"levelo://app?vid=ed9d69a6-a921-4251-b073-fdfe53c8cdc2"},"vehicle_type_id":"4","last_reported":1727345402,"current_range_meters":36800,"station_id":"ce4bhnp2rcd13ifvqgvg","pricing_plan_id":"cebpf4jnsgd1na2vs0mg"},{"bike_id":"50a1f8e5-6354-4d21-9d41-f96b3a73bf26","system_id":"levelo_inurba_marseille","lat":43.29972,"lon":5.38502,"is_reserved":false,"is_disabled":false,"rental_uris":{"android":"levelo://app?vid=50a1f8e5-6354-4d21-9d41-f96b3a73bf26","ios":"levelo://app?vid=50a1f8e5-6354-4d21-9d41-f96b3a73bf26"},"vehicle_type_id":"4","last_reported":1727345402,"current_range_meters":16400,"station_id":"ce4bgj92rcd13ifvqbd0","pricing_plan_id":"cebpf4jnsgd1na2vs0mg"},{"bike_id":"8d17f10b-cb18-4a62-9a7c-043318106e2d","system_id":"levelo_inurba_marseille","lat":43.30216,"lon":5.36632,"is_reserved":false,"is_disabled":false,"rental_uris":{"android":"levelo://app?vid=8d17f10b-cb18-4a62-9a7c-043318106e2d","ios":"levelo://app?vid=8d17f10b-cb18-4a62-9a7c-043318106e2d"},"vehicle_type_id":"4","last_reported":1727345402,"current_range_meters":8400,"station_id":"ce4bgrh2rcd13ifvqc8g","pricing_plan_id":"cebpf4jnsgd1na2vs0mg"},{"bike_id":"eb3b7637-175c-41db-9c2d-778c2a0c50e2","system_id":"levelo_inurba_marseille","lat":43.29006,"lon":5.35601,"is_reserved":false,"is_disabled":false,"rental_uris":{"android":"levelo://app?vid=eb3b7637-175c-41db-9c2d-778c2a0c50e2","ios":"levelo://app?vid=eb3b7637-175c-41db-9c2d-778c2a0c50e2"},"vehicle_type_id":"4","last_reported":1727345402,"current_range_meters":18000,"station_id":"ce4bhb92rcd13ifvqen0","pricing_plan_id":"cebpf4jnsgd1na2vs0mg"},{"bike_id":"6ce78276-8ec0-4d60-a72c-c0fc9ac59e97","system_id":"levelo_inurba_marseille","lat":43.24079,"lon":5.37755,"is_reserved":false,"is_disabled":false,"rental_uris":{"android":"levelo://app?vid=6ce78276-8ec0-4d60-a72c-c0fc9ac59e97","ios":"levelo://app?vid=6ce78276-8ec0-4d60-a72c-c0fc9ac59e97"},"vehicle_type_id":"4","last_reported":1727345402,"current_range_meters":36000,"station_id":"ce4bhnp2rcd13ifvqgvg","pricing_plan_id":"cebpf4jnsgd1na2vs0mg"},{"bike_id":"0b99d1fa-df06-4286-94b9-9fb5bea0909a","system_id":"levelo_inurba_marseille","lat":43.30546,"lon":5.36532,"is_reserved":false,"is_disabled":false,"rental_uris":{"android":"levelo://app?vid=0b99d1fa-df06-4286-94b9-9fb5bea0909a","ios":"levelo://app?vid=0b99d1fa-df06-4286-94b9-9fb5bea0909a"},"vehicle_type_id":"4","last_reported":1727345402,"current_range_meters":32800,"station_id":"ce4bgs12rcd13ifvqcag","pricing_plan_id":"cebpf4jnsgd1na2vs0mg"},{"bike_id":"e0321300-37ad-4bce-a17c-4bf73cb9114f","system_id":"levelo_inurba_marseille","lat":43.29896,"lon":5.43659,"is_reserved":false,"is_disabled":false,"rental_uris":{"android":"levelo://app?vid=e0321300-37ad-4bce-a17c-4bf73cb9114f","ios":"levelo://app?vid=e0321300-37ad-4bce-a17c-4bf73cb9114f"},"vehicle_type_id":"4","last_reported":1727345402,"current_range_meters":36000,"station_id":"ce4bhpp2rcd13ifvqhfg","pricing_plan_id":"cebpf4jnsgd1na2vs0mg"},{"bike_id":"fb8dbcb4-f3ca-4dc2-8469-db6b421828f0","system_id":"levelo_inurba_marseille","lat":43.30551,"lon":5.36707,"is_reserved":false,"is_disabled":false,"rental_uris":{"android":"levelo://app?vid=fb8dbcb4-f3ca-4dc2-8469-db6b421828f0","ios":"levelo://app?vid=fb8dbcb4-f3ca-4dc2-8469-db6b421828f0"},"vehicle_type_id":"4","last_reported":1727345402,"current_range_meters":31200,"station_id":"ce4bgrp2rcd13ifvqc9g","pricing_plan_id":"cebpf4jnsgd1na2vs0mg"},{"bike_id":"513dc6a5-b621-4239-8bd5-97d06a9f38d2","system_id":"levelo_inurba_marseille","lat":43.25583,"lon":5.38231,"is_reserved":false,"is_disabled":false,"rental_uris":{"android":"levelo://app?vid=513dc6a5-b621-4239-8bd5-97d06a9f38d2","ios":"levelo://app?vid=513dc6a5-b621-4239-8bd5-97d06a9f38d2"},"vehicle_type_id":"4","last_reported":1727345402,"current_range_meters":32000,"station_id":"ce4bhih2rcd13ifvqfs0","pricing_plan_id":"cebpf4jnsgd1na2vs0mg"},{"bike_id":"7473e48d-5677-4a03-a088-7a8e36575301","system_id":"levelo_inurba_marseille","lat":43.30144,"lon":5.37429,"is_reserved":false,"is_disabled":false,"rental_uris":{"android":"levelo://app?vid=7473e48d-5677-4a03-a088-7a8e36575301","ios":"levelo://app?vid=7473e48d-5677-4a03-a088-7a8e36575301"},"vehicle_type_id":"4","last_reported":1727345402,"current_range_meters":26000,"station_id":"ce4bgs92rcd13ifvqcc0","pricing_plan_id":"cebpf4jnsgd1na2vs0mg"},{"bike_id":"7a3269ef-a5a1-4d3e-add7-0c1c7292795b","system_id":"levelo_inurba_marseille","lat":43.303357,"lon":5.370113,"is_reserved":false,"is_disabled":false,"rental_uris":{"android":"levelo://app?vid=7a3269ef-a5a1-4d3e-add7-0c1c7292795b","ios":"levelo://app?vid=7a3269ef-a5a1-4d3e-add7-0c1c7292795b"},"vehicle_type_id":"4","last_reported":1727345402,"current_range_meters":30000,"station_id":"ce4bgqh2rcd13ifvqc5g","pricing_plan_id":"cebpf4jnsgd1na2vs0mg"},{"bike_id":"018668e8-a530-4d21-ab04-2b5e2f2cf015","system_id":"levelo_inurba_marseille","lat":43.2958,"lon":5.40223,"is_reserved":false,"is_disabled":false,"rental_uris":{"android":"levelo://app?vid=018668e8-a530-4d21-ab04-2b5e2f2cf015","ios":"levelo://app?vid=018668e8-a530-4d21-ab04-2b5e2f2cf015"},"vehicle_type_id":"4","last_reported":1727345402,"current_range_meters":28800,"station_id":"","pricing_plan_id":"cebpf4jnsgd1na2vs0mg"},{"bike_id":"79a05bb1-ccec-47f0-8ebd-1f95854549f8","system_id":"levelo_inurba_marseille","lat":43.31282,"lon":5.380327,"is_reserved":false,"is_disabled":false,"rental_uris":{"android":"levelo://app?vid=79a05bb1-ccec-47f0-8ebd-1f95854549f8","ios":"levelo://app?vid=79a05bb1-ccec-47f0-8ebd-1f95854549f8"},"vehicle_type_id":"4","last_reported":1727345402,"current_range_meters":8000,"station_id":"","pricing_plan_id":"cebpf4jnsgd1na2vs0mg"},{"bike_id":"30136007-4af8-4987-a9f0-08680d42d88d","system_id":"levelo_inurba_marseille","lat":43.27487,"lon":5.42457,"is_reserved":false,"is_disabled":false,"rental_uris":{"android":"levelo://app?vid=30136007-4af8-4987-a9f0-08680d42d88d","ios":"levelo://app?vid=30136007-4af8-4987-a9f0-08680d42d88d"},"vehicle_type_id":"4","last_reported":1727345402,"current_range_meters":31200,"station_id":"ce4bhn92rcd13ifvqgrg","pricing_plan_id":"cebpf4jnsgd1na2vs0mg"},{"bike_id":"29376bd1-2120-4915-9e16-a616e040a64a","system_id":"levelo_inurba_marseille","lat":43.31991,"lon":5.38158,"is_reserved":false,"is_disabled":false,"rental_uris":{"android":"levelo://app?vid=29376bd1-2120-4915-9e16-a616e040a64a","ios":"levelo://app?vid=29376bd1-2120-4915-9e16-a616e040a64a"},"vehicle_type_id":"4","last_reported":1727345402,"current_range_meters":19200,"station_id":"ce4bhr12rcd13ifvqhpg","pricing_plan_id":"cebpf4jnsgd1na2vs0mg"},{"bike_id":"4ca8f2df-d07d-4530-b77f-5472e4a1443e","system_id":"levelo_inurba_marseille","lat":43.3254,"lon":5.41439,"is_reserved":false,"is_disabled":false,"rental_uris":{"android":"levelo://app?vid=4ca8f2df-d07d-4530-b77f-5472e4a1443e","ios":"levelo://app?vid=4ca8f2df-d07d-4530-b77f-5472e4a1443e"},"vehicle_type_id":"4","last_reported":1727345402,"current_range_meters":31200,"station_id":"ce4bhq12rcd13ifvqhhg","pricing_plan_id":"cebpf4jnsgd1na2vs0mg"},{"bike_id":"ca773917-fd3d-491c-a782-60d4807ce677","system_id":"levelo_inurba_marseille","lat":43.25004,"lon":5.3891,"is_reserved":false,"is_disabled":false,"rental_uris":{"android":"levelo://app?vid=ca773917-fd3d-491c-a782-60d4807ce677","ios":"levelo://app?vid=ca773917-fd3d-491c-a782-60d4807ce677"},"vehicle_type_id":"4","last_reported":1727345402,"current_range_meters":20000,"station_id":"ce4bhgp2rcd13ifvqfd0","pricing_plan_id":"cebpf4jnsgd1na2vs0mg"},{"bike_id":"824cdc22-e045-4619-9997-a93a2a301b03","system_id":"levelo_inurba_marseille","lat":43.29985,"lon":5.38494,"is_reserved":false,"is_disabled":false,"rental_uris":{"android":"levelo://app?vid=824cdc22-e045-4619-9997-a93a2a301b03","ios":"levelo://app?vid=824cdc22-e045-4619-9997-a93a2a301b03"},"vehicle_type_id":"4","last_reported":1727345402,"current_range_meters":38000,"station_id":"ce4bhip2rcd13ifvqft0","pricing_plan_id":"cebpf4jnsgd1na2vs0mg"},{"bike_id":"3c28edab-af32-4c39-830f-c0ff1df4ac2a","system_id":"levelo_inurba_marseille","lat":43.29508,"lon":5.39049,"is_reserved":false,"is_disabled":false,"rental_uris":{"android":"levelo://app?vid=3c28edab-af32-4c39-830f-c0ff1df4ac2a","ios":"levelo://app?vid=3c28edab-af32-4c39-830f-c0ff1df4ac2a"},"vehicle_type_id":"4","last_reported":1727345402,"current_range_meters":10000,"station_id":"ce4bh3p2rcd13ifvqdp0","pricing_plan_id":"cebpf4jnsgd1na2vs0mg"},{"bike_id":"ac2b1566-a01e-4d89-83ce-4ffbc5e492cc","system_id":"levelo_inurba_marseille","lat":43.29621,"lon":5.37168,"is_reserved":false,"is_disabled":false,"rental_uris":{"android":"levelo://app?vid=ac2b1566-a01e-4d89-83ce-4ffbc5e492cc","ios":"levelo://app?vid=ac2b1566-a01e-4d89-83ce-4ffbc5e492cc"},"vehicle_type_id":"4","last_reported":1727345402,"current_range_meters":12800,"station_id":"ce4bgnh2rcd13ifvqc0g","pricing_plan_id":"cebpf4jnsgd1na2vs0mg"},{"bike_id":"ce7b3c50-121a-4a82-8e7a-ed884127d410","system_id":"levelo_inurba_marseille","lat":43.29871,"lon":5.39733,"is_reserved":false,"is_disabled":false,"rental_uris":{"android":"levelo://app?vid=ce7b3c50-121a-4a82-8e7a-ed884127d410","ios":"levelo://app?vid=ce7b3c50-121a-4a82-8e7a-ed884127d410"},"vehicle_type_id":"4","last_reported":1727345402,"current_range_meters":7200,"station_id":"ce4bh0h2rcd13ifvqd50","pricing_plan_id":"cebpf4jnsgd1na2vs0mg"},{"bike_id":"94684309-8430-4a88-9798-819abff5d61a","system_id":"levelo_inurba_marseille","lat":43.23151,"lon":5.43705,"is_reserved":false,"is_disabled":false,"rental_uris":{"android":"levelo://app?vid=94684309-8430-4a88-9798-819abff5d61a","ios":"levelo://app?vid=94684309-8430-4a88-9798-819abff5d61a"},"vehicle_type_id":"4","last_reported":1727345402,"current_range_meters":20800,"station_id":"ce4bhmp2rcd13ifvqgog","pricing_plan_id":"cebpf4jnsgd1na2vs0mg"},{"bike_id":"7f7cfb71-e29e-44f8-9bcf-1cbb0dfe5d35","system_id":"levelo_inurba_marseille","lat":43.29847,"lon":5.36276,"is_reserved":false,"is_disabled":false,"rental_uris":{"android":"levelo://app?vid=7f7cfb71-e29e-44f8-9bcf-1cbb0dfe5d35","ios":"levelo://app?vid=7f7cfb71-e29e-44f8-9bcf-1cbb0dfe5d35"},"vehicle_type_id":"4","last_reported":1727345402,"current_range_meters":32000,"station_id":"ce4bgpp2rcd13ifvqc3g","pricing_plan_id":"cebpf4jnsgd1na2vs0mg"},{"bike_id":"6d8afc51-1e06-42c4-8af4-e022774ef154","system_id":"levelo_inurba_marseille","lat":43.24631,"lon":5.43631,"is_reserved":false,"is_disabled":false,"rental_uris":{"android":"levelo://app?vid=6d8afc51-1e06-42c4-8af4-e022774ef154","ios":"levelo://app?vid=6d8afc51-1e06-42c4-8af4-e022774ef154"},"vehicle_type_id":"4","last_reported":1727345402,"current_range_meters":7200,"station_id":"","pricing_plan_id":"cebpf4jnsgd1na2vs0mg"},{"bike_id":"e2439c25-39ef-4ab9-9943-1cd0b7edb5dd","system_id":"levelo_inurba_marseille","lat":43.30542,"lon":5.36694,"is_reserved":false,"is_disabled":false,"rental_uris":{"android":"levelo://app?vid=e2439c25-39ef-4ab9-9943-1cd0b7edb5dd","ios":"levelo://app?vid=e2439c25-39ef-4ab9-9943-1cd0b7edb5dd"},"vehicle_type_id":"4","last_reported":1727345402,"current_range_meters":40000,"station_id":"ce4bgrp2rcd13ifvqc9g","pricing_plan_id":"cebpf4jnsgd1na2vs0mg"},{"bike_id":"3cb197d7-cc6c-49b7-b2cb-a811c4ccf201","system_id":"levelo_inurba_marseille","lat":43.29618,"lon":5.3717,"is_reserved":false,"is_disabled":false,"rental_uris":{"android":"levelo://app?vid=3cb197d7-cc6c-49b7-b2cb-a811c4ccf201","ios":"levelo://app?vid=3cb197d7-cc6c-49b7-b2cb-a811c4ccf201"},"vehicle_type_id":"4","last_reported":1727345402,"current_range_meters":2000,"station_id":"ce4bgnh2rcd13ifvqc0g","pricing_plan_id":"cebpf4jnsgd1na2vs0mg"},{"bike_id":"778cf1da-b1f9-4770-9dd3-7f9f6f29c740","system_id":"levelo_inurba_marseille","lat":43.31224,"lon":5.36857,"is_reserved":false,"is_disabled":false,"rental_uris":{"android":"levelo://app?vid=778cf1da-b1f9-4770-9dd3-7f9f6f29c740","ios":"levelo://app?vid=778cf1da-b1f9-4770-9dd3-7f9f6f29c740"},"vehicle_type_id":"4","last_reported":1727345402,"current_range_meters":20400,"station_id":"ce4bgl92rcd13ifvqbq0","pricing_plan_id":"cebpf4jnsgd1na2vs0mg"},{"bike_id":"12fd5c68-a189-44be-8c96-00f99e9d5e8d","system_id":"levelo_inurba_marseille","lat":43.2438,"lon":5.37046,"is_reserved":false,"is_disabled":false,"rental_uris":{"android":"levelo://app?vid=12fd5c68-a189-44be-8c96-00f99e9d5e8d","ios":"levelo://app?vid=12fd5c68-a189-44be-8c96-00f99e9d5e8d"},"vehicle_type_id":"4","last_reported":1727345402,"current_range_meters":38800,"station_id":"ce4bhhh2rcd13ifvqfk0","pricing_plan_id":"cebpf4jnsgd1na2vs0mg"},{"bike_id":"00c55a61-da74-4c36-8c8e-499983e3e52b","system_id":"levelo_inurba_marseille","lat":43.29835,"lon":5.36261,"is_reserved":false,"is_disabled":false,"rental_uris":{"android":"levelo://app?vid=00c55a61-da74-4c36-8c8e-499983e3e52b","ios":"levelo://app?vid=00c55a61-da74-4c36-8c8e-499983e3e52b"},"vehicle_type_id":"4","last_reported":1727345402,"current_range_meters":25200,"station_id":"ce4bgpp2rcd13ifvqc3g","pricing_plan_id":"cebpf4jnsgd1na2vs0mg"},{"bike_id":"691e35ce-36ad-4ede-b9f1-994e26cfb8fd","system_id":"levelo_inurba_marseille","lat":43.31329,"lon":5.39691,"is_reserved":false,"is_disabled":false,"rental_uris":{"android":"levelo://app?vid=691e35ce-36ad-4ede-b9f1-994e26cfb8fd","ios":"levelo://app?vid=691e35ce-36ad-4ede-b9f1-994e26cfb8fd"},"vehicle_type_id":"4","last_reported":1727345402,"current_range_meters":8800,"station_id":"ce4bgvp2rcd13ifvqcu0","pricing_plan_id":"cebpf4jnsgd1na2vs0mg"},{"bike_id":"085b1274-0921-48b8-8e78-61841155ac8d","system_id":"levelo_inurba_marseille","lat":43.31154,"lon":5.38726,"is_reserved":false,"is_disabled":false,"rental_uris":{"android":"levelo://app?vid=085b1274-0921-48b8-8e78-61841155ac8d","ios":"levelo://app?vid=085b1274-0921-48b8-8e78-61841155ac8d"},"vehicle_type_id":"4","last_reported":1727345402,"current_range_meters":32800,"station_id":"ce4bgv12rcd13ifvqcp0","pricing_plan_id":"cebpf4jnsgd1na2vs0mg"},{"bike_id":"c017f362-9664-45c4-b19b-7118d6bf47c1","system_id":"levelo_inurba_marseille","lat":43.28154,"lon":5.42649,"is_reserved":false,"is_disabled":false,"rental_uris":{"android":"levelo://app?vid=c017f362-9664-45c4-b19b-7118d6bf47c1","ios":"levelo://app?vid=c017f362-9664-45c4-b19b-7118d6bf47c1"},"vehicle_type_id":"4","last_reported":1727345402,"current_range_meters":40000,"station_id":"ce4bhnh2rcd13ifvqgug","pricing_plan_id":"cebpf4jnsgd1na2vs0mg"},{"bike_id":"5f5028ac-5218-4e99-9cb8-00b5aea72bcd","system_id":"levelo_inurba_marseille","lat":43.30617,"lon":5.3722,"is_reserved":false,"is_disabled":false,"rental_uris":{"android":"levelo://app?vid=5f5028ac-5218-4e99-9cb8-00b5aea72bcd","ios":"levelo://app?vid=5f5028ac-5218-4e99-9cb8-00b5aea72bcd"},"vehicle_type_id":"4","last_reported":1727345402,"current_range_meters":34000,"station_id":"ce4bgqh2rcd13ifvqc4g","pricing_plan_id":"cebpf4jnsgd1na2vs0mg"},{"bike_id":"fdfadce2-4551-4b60-9040-6ff04c37b063","system_id":"levelo_inurba_marseille","lat":43.26567,"lon":5.39002,"is_reserved":false,"is_disabled":false,"rental_uris":{"android":"levelo://app?vid=fdfadce2-4551-4b60-9040-6ff04c37b063","ios":"levelo://app?vid=fdfadce2-4551-4b60-9040-6ff04c37b063"},"vehicle_type_id":"4","last_reported":1727345402,"current_range_meters":15200,"station_id":"ce4bhe12rcd13ifvqf30","pricing_plan_id":"cebpf4jnsgd1na2vs0mg"},{"bike_id":"06511661-9dc3-42bf-bf56-3390e1e93d8a","system_id":"levelo_inurba_marseille","lat":43.2808,"lon":5.39658,"is_reserved":false,"is_disabled":false,"rental_uris":{"android":"levelo://app?vid=06511661-9dc3-42bf-bf56-3390e1e93d8a","ios":"levelo://app?vid=06511661-9dc3-42bf-bf56-3390e1e93d8a"},"vehicle_type_id":"4","last_reported":1727345402,"current_range_meters":33200,"station_id":"ce4bho12rcd13ifvqh2g","pricing_plan_id":"cebpf4jnsgd1na2vs0mg"},{"bike_id":"dae49bc7-bb46-4155-816d-8ec50c05c98f","system_id":"levelo_inurba_marseille","lat":43.31366,"lon":5.38488,"is_reserved":false,"is_disabled":false,"rental_uris":{"android":"levelo://app?vid=dae49bc7-bb46-4155-816d-8ec50c05c98f","ios":"levelo://app?vid=dae49bc7-bb46-4155-816d-8ec50c05c98f"},"vehicle_type_id":"4","last_reported":1727345402,"current_range_meters":37600,"station_id":"ce4bgt92rcd13ifvqcf0","pricing_plan_id":"cebpf4jnsgd1na2vs0mg"},{"bike_id":"ee92d654-1a9e-4b34-8634-4e6778409cfa","system_id":"levelo_inurba_marseille","lat":43.24545,"lon":5.39521,"is_reserved":false,"is_disabled":false,"rental_uris":{"android":"levelo://app?vid=ee92d654-1a9e-4b34-8634-4e6778409cfa","ios":"levelo://app?vid=ee92d654-1a9e-4b34-8634-4e6778409cfa"},"vehicle_type_id":"4","last_reported":1727345402,"current_range_meters":25200,"station_id":"ce4bhlp2rcd13ifvqgjg","pricing_plan_id":"cebpf4jnsgd1na2vs0mg"},{"bike_id":"77faf788-da78-4c68-85c9-999cef3f8514","system_id":"levelo_inurba_marseille","lat":43.29579,"lon":5.36742,"is_reserved":false,"is_disabled":false,"rental_uris":{"android":"levelo://app?vid=77faf788-da78-4c68-85c9-999cef3f8514","ios":"levelo://app?vid=77faf788-da78-4c68-85c9-999cef3f8514"},"vehicle_type_id":"4","last_reported":1727345402,"current_range_meters":36400,"station_id":"ce4bgph2rcd13ifvqc2g","pricing_plan_id":"cebpf4jnsgd1na2vs0mg"},{"bike_id":"ea3d3bfb-3474-4190-a0d8-239ead53b75f","system_id":"levelo_inurba_marseille","lat":43.2587,"lon":5.39892,"is_reserved":false,"is_disabled":false,"rental_uris":{"android":"levelo://app?vid=ea3d3bfb-3474-4190-a0d8-239ead53b75f","ios":"levelo://app?vid=ea3d3bfb-3474-4190-a0d8-239ead53b75f"},"vehicle_type_id":"4","last_reported":1727345402,"current_range_meters":32800,"station_id":"ce4bhl92rcd13ifvqghg","pricing_plan_id":"cebpf4jnsgd1na2vs0mg"},{"bike_id":"7225a926-f1b2-438c-9d2d-59fd57e8d814","system_id":"levelo_inurba_marseille","lat":43.309431,"lon":5.390275,"is_reserved":false,"is_disabled":false,"rental_uris":{"android":"levelo://app?vid=7225a926-f1b2-438c-9d2d-59fd57e8d814","ios":"levelo://app?vid=7225a926-f1b2-438c-9d2d-59fd57e8d814"},"vehicle_type_id":"4","last_reported":1727345402,"current_range_meters":29600,"station_id":"ce4bgup2rcd13ifvqco0","pricing_plan_id":"cebpf4jnsgd1na2vs0mg"},{"bike_id":"5325b546-be8c-45ee-8bcb-8af51028126d","system_id":"levelo_inurba_marseille","lat":43.31228,"lon":5.36854,"is_reserved":false,"is_disabled":false,"rental_uris":{"android":"levelo://app?vid=5325b546-be8c-45ee-8bcb-8af51028126d","ios":"levelo://app?vid=5325b546-be8c-45ee-8bcb-8af51028126d"},"vehicle_type_id":"4","last_reported":1727345402,"current_range_meters":32800,"station_id":"ce4bgl92rcd13ifvqbq0","pricing_plan_id":"cebpf4jnsgd1na2vs0mg"},{"bike_id":"38674e62-e768-405d-9590-89d89d7b7b0f","system_id":"levelo_inurba_marseille","lat":43.26062,"lon":5.39396,"is_reserved":false,"is_disabled":false,"rental_uris":{"android":"levelo://app?vid=38674e62-e768-405d-9590-89d89d7b7b0f","ios":"levelo://app?vid=38674e62-e768-405d-9590-89d89d7b7b0f"},"vehicle_type_id":"4","last_reported":1727345402,"current_range_meters":38800,"station_id":"ce4bhh92rcd13ifvqfj0","pricing_plan_id":"cebpf4jnsgd1na2vs0mg"},{"bike_id":"b0a5c5c8-b96f-4d5c-ad0a-9a4c9139d21f","system_id":"levelo_inurba_marseille","lat":43.29774,"lon":5.37112,"is_reserved":false,"is_disabled":false,"rental_uris":{"android":"levelo://app?vid=b0a5c5c8-b96f-4d5c-ad0a-9a4c9139d21f","ios":"levelo://app?vid=b0a5c5c8-b96f-4d5c-ad0a-9a4c9139d21f"},"vehicle_type_id":"4","last_reported":1727345402,"current_range_meters":19600,"station_id":"ce4bgop2rcd13ifvqc1g","pricing_plan_id":"cebpf4jnsgd1na2vs0mg"},{"bike_id":"510ca38e-0a4b-4a9a-83a5-24442e5133a6","system_id":"levelo_inurba_marseille","lat":43.29521,"lon":5.37496,"is_reserved":false,"is_disabled":false,"rental_uris":{"android":"levelo://app?vid=510ca38e-0a4b-4a9a-83a5-24442e5133a6","ios":"levelo://app?vid=510ca38e-0a4b-4a9a-83a5-24442e5133a6"},"vehicle_type_id":"4","last_reported":1727345402,"current_range_meters":22800,"station_id":"ce4bgkp2rcd13ifvqbmg","pricing_plan_id":"cebpf4jnsgd1na2vs0mg"},{"bike_id":"8be8bc42-a8a4-45db-9d5e-da0db0b86ced","system_id":"levelo_inurba_marseille","lat":43.29027,"lon":5.37568,"is_reserved":false,"is_disabled":false,"rental_uris":{"android":"levelo://app?vid=8be8bc42-a8a4-45db-9d5e-da0db0b86ced","ios":"levelo://app?vid=8be8bc42-a8a4-45db-9d5e-da0db0b86ced"},"vehicle_type_id":"4","last_reported":1727345402,"current_range_meters":38800,"station_id":"ce4bh692rcd13ifvqe90","pricing_plan_id":"cebpf4jnsgd1na2vs0mg"},{"bike_id":"598c75e1-546f-44b8-9cc0-074cd813c1cc","system_id":"levelo_inurba_marseille","lat":43.29682,"lon":5.37301,"is_reserved":false,"is_disabled":false,"rental_uris":{"android":"levelo://app?vid=598c75e1-546f-44b8-9cc0-074cd813c1cc","ios":"levelo://app?vid=598c75e1-546f-44b8-9cc0-074cd813c1cc"},"vehicle_type_id":"4","last_reported":1727345402,"current_range_meters":33600,"station_id":"ce4bgk12rcd13ifvqbj0","pricing_plan_id":"cebpf4jnsgd1na2vs0mg"},{"bike_id":"980a6e78-e57a-42f3-8e3b-e7ab987b675c","system_id":"levelo_inurba_marseille","lat":43.24078,"lon":5.3776,"is_reserved":false,"is_disabled":false,"rental_uris":{"android":"levelo://app?vid=980a6e78-e57a-42f3-8e3b-e7ab987b675c","ios":"levelo://app?vid=980a6e78-e57a-42f3-8e3b-e7ab987b675c"},"vehicle_type_id":"4","last_reported":1727345402,"current_range_meters":18000,"station_id":"ce4bhnp2rcd13ifvqgvg","pricing_plan_id":"cebpf4jnsgd1na2vs0mg"},{"bike_id":"b36d837e-7bf2-42b2-956b-db175cf17036","system_id":"levelo_inurba_marseille","lat":43.26199,"lon":5.3793,"is_reserved":false,"is_disabled":false,"rental_uris":{"android":"levelo://app?vid=b36d837e-7bf2-42b2-956b-db175cf17036","ios":"levelo://app?vid=b36d837e-7bf2-42b2-956b-db175cf17036"},"vehicle_type_id":"4","last_reported":1727345402,"current_range_meters":32000,"station_id":"ce4bhjp2rcd13ifvqg90","pricing_plan_id":"cebpf4jnsgd1na2vs0mg"},{"bike_id":"99d44a35-6595-4df5-8399-2ae2357600c8","system_id":"levelo_inurba_marseille","lat":43.2593,"lon":5.40888,"is_reserved":false,"is_disabled":false,"rental_uris":{"android":"levelo://app?vid=99d44a35-6595-4df5-8399-2ae2357600c8","ios":"levelo://app?vid=99d44a35-6595-4df5-8399-2ae2357600c8"},"vehicle_type_id":"4","last_reported":1727345402,"current_range_meters":30400,"station_id":"ce4bhm92rcd13ifvqglg","pricing_plan_id":"cebpf4jnsgd1na2vs0mg"},{"bike_id":"5e4242af-9478-44e8-8d61-79e171a206d3","system_id":"levelo_inurba_marseille","lat":43.293912,"lon":5.372834,"is_reserved":false,"is_disabled":false,"rental_uris":{"android":"levelo://app?vid=5e4242af-9478-44e8-8d61-79e171a206d3","ios":"levelo://app?vid=5e4242af-9478-44e8-8d61-79e171a206d3"},"vehicle_type_id":"4","last_reported":1727345402,"current_range_meters":30400,"station_id":"ce4bgh92rcd13ifvqb40","pricing_plan_id":"cebpf4jnsgd1na2vs0mg"},{"bike_id":"9ef630c4-b740-4af2-85dd-1b33e4b82b30","system_id":"levelo_inurba_marseille","lat":43.2743,"lon":5.39408,"is_reserved":false,"is_disabled":false,"rental_uris":{"android":"levelo://app?vid=9ef630c4-b740-4af2-85dd-1b33e4b82b30","ios":"levelo://app?vid=9ef630c4-b740-4af2-85dd-1b33e4b82b30"},"vehicle_type_id":"4","last_reported":1727345402,"current_range_meters":28000,"station_id":"ce4bhdp2rcd13ifvqf20","pricing_plan_id":"cebpf4jnsgd1na2vs0mg"},{"bike_id":"4182c563-86d3-4f43-ad87-ec8d2778d436","system_id":"levelo_inurba_marseille","lat":43.26557,"lon":5.39001,"is_reserved":false,"is_disabled":false,"rental_uris":{"android":"levelo://app?vid=4182c563-86d3-4f43-ad87-ec8d2778d436","ios":"levelo://app?vid=4182c563-86d3-4f43-ad87-ec8d2778d436"},"vehicle_type_id":"4","last_reported":1727345402,"current_range_meters":7200,"station_id":"ce4bhe12rcd13ifvqf30","pricing_plan_id":"cebpf4jnsgd1na2vs0mg"},{"bike_id":"c5294afe-99d4-483d-bcf2-94f93af0ac7b","system_id":"levelo_inurba_marseille","lat":43.2958,"lon":5.36737,"is_reserved":false,"is_disabled":false,"rental_uris":{"android":"levelo://app?vid=c5294afe-99d4-483d-bcf2-94f93af0ac7b","ios":"levelo://app?vid=c5294afe-99d4-483d-bcf2-94f93af0ac7b"},"vehicle_type_id":"4","last_reported":1727345402,"current_range_meters":30400,"station_id":"ce4bgph2rcd13ifvqc2g","pricing_plan_id":"cebpf4jnsgd1na2vs0mg"},{"bike_id":"b3f548d7-4b97-47ca-9cd4-ea7964e564c3","system_id":"levelo_inurba_marseille","lat":43.298005,"lon":5.403973,"is_reserved":false,"is_disabled":false,"rental_uris":{"android":"levelo://app?vid=b3f548d7-4b97-47ca-9cd4-ea7964e564c3","ios":"levelo://app?vid=b3f548d7-4b97-47ca-9cd4-ea7964e564c3"},"vehicle_type_id":"4","last_reported":1727345402,"current_range_meters":32000,"station_id":"ce4bh112rcd13ifvqd90","pricing_plan_id":"cebpf4jnsgd1na2vs0mg"},{"bike_id":"4e3260e0-1588-4fc3-a0c6-3e12027c7824","system_id":"levelo_inurba_marseille","lat":43.33776,"lon":5.37435,"is_reserved":false,"is_disabled":false,"rental_uris":{"android":"levelo://app?vid=4e3260e0-1588-4fc3-a0c6-3e12027c7824","ios":"levelo://app?vid=4e3260e0-1588-4fc3-a0c6-3e12027c7824"},"vehicle_type_id":"4","last_reported":1727345402,"current_range_meters":26800,"station_id":"","pricing_plan_id":"cebpf4jnsgd1na2vs0mg"},{"bike_id":"37fecb50-8314-4ea6-af9e-327f32dd6a1b","system_id":"levelo_inurba_marseille","lat":43.25826,"lon":5.39436,"is_reserved":false,"is_disabled":false,"rental_uris":{"android":"levelo://app?vid=37fecb50-8314-4ea6-af9e-327f32dd6a1b","ios":"levelo://app?vid=37fecb50-8314-4ea6-af9e-327f32dd6a1b"},"vehicle_type_id":"4","last_reported":1727345402,"current_range_meters":19200,"station_id":"ce4bhip2rcd13ifvqft0","pricing_plan_id":"cebpf4jnsgd1na2vs0mg"},{"bike_id":"91372296-66f0-4955-9ea7-af2aeb756cbd","system_id":"levelo_inurba_marseille","lat":43.29843,"lon":5.36268,"is_reserved":false,"is_disabled":false,"rental_uris":{"android":"levelo://app?vid=91372296-66f0-4955-9ea7-af2aeb756cbd","ios":"levelo://app?vid=91372296-66f0-4955-9ea7-af2aeb756cbd"},"vehicle_type_id":"4","last_reported":1727345402,"current_range_meters":38800,"station_id":"ce4bgpp2rcd13ifvqc3g","pricing_plan_id":"cebpf4jnsgd1na2vs0mg"},{"bike_id":"b5cdcddb-a8b5-45ca-ab1b-f1ccec65f8ae","system_id":"levelo_inurba_marseille","lat":43.29936,"lon":5.3655,"is_reserved":false,"is_disabled":false,"rental_uris":{"android":"levelo://app?vid=b5cdcddb-a8b5-45ca-ab1b-f1ccec65f8ae","ios":"levelo://app?vid=b5cdcddb-a8b5-45ca-ab1b-f1ccec65f8ae"},"vehicle_type_id":"4","last_reported":1727345402,"current_range_meters":37600,"station_id":"ce4bgm92rcd13ifvqbr0","pricing_plan_id":"cebpf4jnsgd1na2vs0mg"},{"bike_id":"d8898c38-d84b-4a32-81d5-f35fe017d87f","system_id":"levelo_inurba_marseille","lat":43.31217,"lon":5.36863,"is_reserved":false,"is_disabled":false,"rental_uris":{"android":"levelo://app?vid=d8898c38-d84b-4a32-81d5-f35fe017d87f","ios":"levelo://app?vid=d8898c38-d84b-4a32-81d5-f35fe017d87f"},"vehicle_type_id":"4","last_reported":1727345402,"current_range_meters":39200,"station_id":"ce4bgl92rcd13ifvqbq0","pricing_plan_id":"cebpf4jnsgd1na2vs0mg"},{"bike_id":"fdbd6c3b-749c-4bee-a87f-a612178d540a","system_id":"levelo_inurba_marseille","lat":43.29889,"lon":5.39734,"is_reserved":false,"is_disabled":false,"rental_uris":{"android":"levelo://app?vid=fdbd6c3b-749c-4bee-a87f-a612178d540a","ios":"levelo://app?vid=fdbd6c3b-749c-4bee-a87f-a612178d540a"},"vehicle_type_id":"4","last_reported":1727345402,"current_range_meters":16400,"station_id":"ce4bh0h2rcd13ifvqd50","pricing_plan_id":"cebpf4jnsgd1na2vs0mg"},{"bike_id":"d6560913-1d7a-4400-9d1e-5f8aab3df492","system_id":"levelo_inurba_marseille","lat":43.29611,"lon":5.37735,"is_reserved":false,"is_disabled":false,"rental_uris":{"android":"levelo://app?vid=d6560913-1d7a-4400-9d1e-5f8aab3df492","ios":"levelo://app?vid=d6560913-1d7a-4400-9d1e-5f8aab3df492"},"vehicle_type_id":"4","last_reported":1727345402,"current_range_meters":29600,"station_id":"ce4bgi92rcd13ifvqb90","pricing_plan_id":"cebpf4jnsgd1na2vs0mg"},{"bike_id":"b3f579e7-7c2b-4a47-b6be-5a4e9947035f","system_id":"levelo_inurba_marseille","lat":43.29529,"lon":5.38545,"is_reserved":false,"is_disabled":false,"rental_uris":{"android":"levelo://app?vid=b3f579e7-7c2b-4a47-b6be-5a4e9947035f","ios":"levelo://app?vid=b3f579e7-7c2b-4a47-b6be-5a4e9947035f"},"vehicle_type_id":"4","last_reported":1727345402,"current_range_meters":8800,"station_id":"ce4bgih2rcd13ifvqba0","pricing_plan_id":"cebpf4jnsgd1na2vs0mg"},{"bike_id":"78abe469-536b-42bc-9bee-73f10028bf3e","system_id":"levelo_inurba_marseille","lat":43.27482,"lon":5.42457,"is_reserved":false,"is_disabled":false,"rental_uris":{"android":"levelo://app?vid=78abe469-536b-42bc-9bee-73f10028bf3e","ios":"levelo://app?vid=78abe469-536b-42bc-9bee-73f10028bf3e"},"vehicle_type_id":"4","last_reported":1727345402,"current_range_meters":35200,"station_id":"ce4bhn92rcd13ifvqgrg","pricing_plan_id":"cebpf4jnsgd1na2vs0mg"},{"bike_id":"d16f415b-91b0-49f3-895b-28b198556ee1","system_id":"levelo_inurba_marseille","lat":43.309508,"lon":5.390357,"is_reserved":false,"is_disabled":false,"rental_uris":{"android":"levelo://app?vid=d16f415b-91b0-49f3-895b-28b198556ee1","ios":"levelo://app?vid=d16f415b-91b0-49f3-895b-28b198556ee1"},"vehicle_type_id":"4","last_reported":1727345402,"current_range_meters":38000,"station_id":"ce4bgup2rcd13ifvqco0","pricing_plan_id":"cebpf4jnsgd1na2vs0mg"},{"bike_id":"3fe278b2-e43a-4e55-b794-38a7695cbbab","system_id":"levelo_inurba_marseille","lat":43.31064,"lon":5.38358,"is_reserved":false,"is_disabled":false,"rental_uris":{"android":"levelo://app?vid=3fe278b2-e43a-4e55-b794-38a7695cbbab","ios":"levelo://app?vid=3fe278b2-e43a-4e55-b794-38a7695cbbab"},"vehicle_type_id":"4","last_reported":1727345402,"current_range_meters":6400,"station_id":"ce4bgv92rcd13ifvqcr0","pricing_plan_id":"cebpf4jnsgd1na2vs0mg"},{"bike_id":"f2385d2b-ef6a-4a18-a08b-9bc5e94d8cd6","system_id":"levelo_inurba_marseille","lat":43.24083,"lon":5.3774,"is_reserved":false,"is_disabled":false,"rental_uris":{"android":"levelo://app?vid=f2385d2b-ef6a-4a18-a08b-9bc5e94d8cd6","ios":"levelo://app?vid=f2385d2b-ef6a-4a18-a08b-9bc5e94d8cd6"},"vehicle_type_id":"4","last_reported":1727345402,"current_range_meters":24400,"station_id":"ce4bhnp2rcd13ifvqgvg","pricing_plan_id":"cebpf4jnsgd1na2vs0mg"},{"bike_id":"03ee95af-84cc-44ed-a76a-332d8cd751b2","system_id":"levelo_inurba_marseille","lat":43.23144,"lon":5.43715,"is_reserved":false,"is_disabled":false,"rental_uris":{"android":"levelo://app?vid=03ee95af-84cc-44ed-a76a-332d8cd751b2","ios":"levelo://app?vid=03ee95af-84cc-44ed-a76a-332d8cd751b2"},"vehicle_type_id":"4","last_reported":1727345402,"current_range_meters":4400,"station_id":"ce4bhmp2rcd13ifvqgog","pricing_plan_id":"cebpf4jnsgd1na2vs0mg"},{"bike_id":"08a5cd66-f021-4853-bec7-3221a1186d83","system_id":"levelo_inurba_marseille","lat":43.27495,"lon":5.42459,"is_reserved":false,"is_disabled":false,"rental_uris":{"android":"levelo://app?vid=08a5cd66-f021-4853-bec7-3221a1186d83","ios":"levelo://app?vid=08a5cd66-f021-4853-bec7-3221a1186d83"},"vehicle_type_id":"4","last_reported":1727345402,"current_range_meters":22000,"station_id":"ce4bhn92rcd13ifvqgrg","pricing_plan_id":"cebpf4jnsgd1na2vs0mg"},{"bike_id":"a62d0fd0-89ef-4ce2-b8e5-2cabb9bba87d","system_id":"levelo_inurba_marseille","lat":43.2951,"lon":5.37502,"is_reserved":false,"is_disabled":false,"rental_uris":{"android":"levelo://app?vid=a62d0fd0-89ef-4ce2-b8e5-2cabb9bba87d","ios":"levelo://app?vid=a62d0fd0-89ef-4ce2-b8e5-2cabb9bba87d"},"vehicle_type_id":"4","last_reported":1727345402,"current_range_meters":18000,"station_id":"ce4bgkp2rcd13ifvqbmg","pricing_plan_id":"cebpf4jnsgd1na2vs0mg"},{"bike_id":"3e92b24a-14ee-4ffc-97ea-7c83a0dde72f","system_id":"levelo_inurba_marseille","lat":43.30554,"lon":5.38412,"is_reserved":false,"is_disabled":false,"rental_uris":{"android":"levelo://app?vid=3e92b24a-14ee-4ffc-97ea-7c83a0dde72f","ios":"levelo://app?vid=3e92b24a-14ee-4ffc-97ea-7c83a0dde72f"},"vehicle_type_id":"4","last_reported":1727345402,"current_range_meters":27200,"station_id":"ce4bgg92rcd13ifvqb30","pricing_plan_id":"cebpf4jnsgd1na2vs0mg"},{"bike_id":"9fdcc767-0d4b-420c-a864-d435a679ad7f","system_id":"levelo_inurba_marseille","lat":43.304518,"lon":5.388697,"is_reserved":false,"is_disabled":false,"rental_uris":{"android":"levelo://app?vid=9fdcc767-0d4b-420c-a864-d435a679ad7f","ios":"levelo://app?vid=9fdcc767-0d4b-420c-a864-d435a679ad7f"},"vehicle_type_id":"4","last_reported":1727345402,"current_range_meters":19600,"station_id":"ce4bgk12rcd13ifvqbi0","pricing_plan_id":"cebpf4jnsgd1na2vs0mg"},{"bike_id":"d8654ec4-6c00-4844-bf03-787bfe5964d4","system_id":"levelo_inurba_marseille","lat":43.27485,"lon":5.42457,"is_reserved":false,"is_disabled":false,"rental_uris":{"android":"levelo://app?vid=d8654ec4-6c00-4844-bf03-787bfe5964d4","ios":"levelo://app?vid=d8654ec4-6c00-4844-bf03-787bfe5964d4"},"vehicle_type_id":"4","last_reported":1727345402,"current_range_meters":25200,"station_id":"ce4bhn92rcd13ifvqgrg","pricing_plan_id":"cebpf4jnsgd1na2vs0mg"},{"bike_id":"815e1ad5-78af-4ad2-b6ba-82b99bbc0f09","system_id":"levelo_inurba_marseille","lat":43.303,"lon":5.36898,"is_reserved":false,"is_disabled":false,"rental_uris":{"android":"levelo://app?vid=815e1ad5-78af-4ad2-b6ba-82b99bbc0f09","ios":"levelo://app?vid=815e1ad5-78af-4ad2-b6ba-82b99bbc0f09"},"vehicle_type_id":"4","last_reported":1727345402,"current_range_meters":19600,"station_id":"ce4bgqh2rcd13ifvqc5g","pricing_plan_id":"cebpf4jnsgd1na2vs0mg"},{"bike_id":"637beff3-55bd-4f15-99c0-4cb53d5dddb9","system_id":"levelo_inurba_marseille","lat":43.30647,"lon":5.39532,"is_reserved":false,"is_disabled":false,"rental_uris":{"android":"levelo://app?vid=637beff3-55bd-4f15-99c0-4cb53d5dddb9","ios":"levelo://app?vid=637beff3-55bd-4f15-99c0-4cb53d5dddb9"},"vehicle_type_id":"4","last_reported":1727345402,"current_range_meters":37600,"station_id":"","pricing_plan_id":"cebpf4jnsgd1na2vs0mg"},{"bike_id":"b3ca7e08-0e60-41d3-a56d-0937cdac0568","system_id":"levelo_inurba_marseille","lat":43.295746,"lon":5.367441,"is_reserved":false,"is_disabled":false,"rental_uris":{"android":"levelo://app?vid=b3ca7e08-0e60-41d3-a56d-0937cdac0568","ios":"levelo://app?vid=b3ca7e08-0e60-41d3-a56d-0937cdac0568"},"vehicle_type_id":"4","last_reported":1727345402,"current_range_meters":32800,"station_id":"ce4bgph2rcd13ifvqc2g","pricing_plan_id":"cebpf4jnsgd1na2vs0mg"},{"bike_id":"44bec4b3-65df-4224-b1d8-52e8f6467c79","system_id":"levelo_inurba_marseille","lat":43.24663,"lon":5.38159,"is_reserved":false,"is_disabled":false,"rental_uris":{"android":"levelo://app?vid=44bec4b3-65df-4224-b1d8-52e8f6467c79","ios":"levelo://app?vid=44bec4b3-65df-4224-b1d8-52e8f6467c79"},"vehicle_type_id":"4","last_reported":1727345402,"current_range_meters":24800,"station_id":"ce4bhih2rcd13ifvqfr0","pricing_plan_id":"cebpf4jnsgd1na2vs0mg"},{"bike_id":"8b7c5d69-3d9c-49a8-9703-129810f5e463","system_id":"levelo_inurba_marseille","lat":43.28153,"lon":5.4264,"is_reserved":false,"is_disabled":false,"rental_uris":{"android":"levelo://app?vid=8b7c5d69-3d9c-49a8-9703-129810f5e463","ios":"levelo://app?vid=8b7c5d69-3d9c-49a8-9703-129810f5e463"},"vehicle_type_id":"4","last_reported":1727345402,"current_range_meters":13600,"station_id":"ce4bhnh2rcd13ifvqgug","pricing_plan_id":"cebpf4jnsgd1na2vs0mg"},{"bike_id":"3c7619a0-cb05-43e4-bd1c-18414b732318","system_id":"levelo_inurba_marseille","lat":43.26554,"lon":5.39018,"is_reserved":false,"is_disabled":false,"rental_uris":{"android":"levelo://app?vid=3c7619a0-cb05-43e4-bd1c-18414b732318","ios":"levelo://app?vid=3c7619a0-cb05-43e4-bd1c-18414b732318"},"vehicle_type_id":"4","last_reported":1727345402,"current_range_meters":4000,"station_id":"ce4bhe12rcd13ifvqf30","pricing_plan_id":"cebpf4jnsgd1na2vs0mg"},{"bike_id":"b860d883-c194-47c2-a427-633aacf2d83d","system_id":"levelo_inurba_marseille","lat":43.33605,"lon":5.41023,"is_reserved":false,"is_disabled":false,"rental_uris":{"android":"levelo://app?vid=b860d883-c194-47c2-a427-633aacf2d83d","ios":"levelo://app?vid=b860d883-c194-47c2-a427-633aacf2d83d"},"vehicle_type_id":"4","last_reported":1727345402,"current_range_meters":24000,"station_id":"ce4bhqh2rcd13ifvqhmg","pricing_plan_id":"cebpf4jnsgd1na2vs0mg"},{"bike_id":"71417a4e-e058-47af-99fe-23be5a623ecf","system_id":"levelo_inurba_marseille","lat":43.27491,"lon":5.42459,"is_reserved":false,"is_disabled":false,"rental_uris":{"android":"levelo://app?vid=71417a4e-e058-47af-99fe-23be5a623ecf","ios":"levelo://app?vid=71417a4e-e058-47af-99fe-23be5a623ecf"},"vehicle_type_id":"4","last_reported":1727345402,"current_range_meters":14000,"station_id":"ce4bhn92rcd13ifvqgrg","pricing_plan_id":"cebpf4jnsgd1na2vs0mg"},{"bike_id":"36c8e788-c711-4ae7-9ff8-f7f816e7f2fb","system_id":"levelo_inurba_marseille","lat":43.24073,"lon":5.37761,"is_reserved":false,"is_disabled":false,"rental_uris":{"android":"levelo://app?vid=36c8e788-c711-4ae7-9ff8-f7f816e7f2fb","ios":"levelo://app?vid=36c8e788-c711-4ae7-9ff8-f7f816e7f2fb"},"vehicle_type_id":"4","last_reported":1727345402,"current_range_meters":20000,"station_id":"ce4bhnp2rcd13ifvqgvg","pricing_plan_id":"cebpf4jnsgd1na2vs0mg"},{"bike_id":"c48aa2e0-2186-4a27-a7a2-fc468b12cf79","system_id":"levelo_inurba_marseille","lat":43.286072,"lon":5.3706,"is_reserved":false,"is_disabled":false,"rental_uris":{"android":"levelo://app?vid=c48aa2e0-2186-4a27-a7a2-fc468b12cf79","ios":"levelo://app?vid=c48aa2e0-2186-4a27-a7a2-fc468b12cf79"},"vehicle_type_id":"4","last_reported":1727345402,"current_range_meters":18000,"station_id":"","pricing_plan_id":"cebpf4jnsgd1na2vs0mg"},{"bike_id":"77e30828-6b8b-42bd-becc-1d11dcf0c821","system_id":"levelo_inurba_marseille","lat":43.29274,"lon":5.4012,"is_reserved":false,"is_disabled":false,"rental_uris":{"android":"levelo://app?vid=77e30828-6b8b-42bd-becc-1d11dcf0c821","ios":"levelo://app?vid=77e30828-6b8b-42bd-becc-1d11dcf0c821"},"vehicle_type_id":"4","last_reported":1727345402,"current_range_meters":8800,"station_id":"ce4bh312rcd13ifvqdk0","pricing_plan_id":"cebpf4jnsgd1na2vs0mg"},{"bike_id":"d5d34a68-80eb-47d7-b046-fea1279bb652","system_id":"levelo_inurba_marseille","lat":43.33752,"lon":5.37445,"is_reserved":false,"is_disabled":false,"rental_uris":{"android":"levelo://app?vid=d5d34a68-80eb-47d7-b046-fea1279bb652","ios":"levelo://app?vid=d5d34a68-80eb-47d7-b046-fea1279bb652"},"vehicle_type_id":"4","last_reported":1727345402,"current_range_meters":6800,"station_id":"","pricing_plan_id":"cebpf4jnsgd1na2vs0mg"},{"bike_id":"0a5ef607-1314-4ea7-a547-44134686620f","system_id":"levelo_inurba_marseille","lat":43.27485,"lon":5.4246,"is_reserved":false,"is_disabled":false,"rental_uris":{"android":"levelo://app?vid=0a5ef607-1314-4ea7-a547-44134686620f","ios":"levelo://app?vid=0a5ef607-1314-4ea7-a547-44134686620f"},"vehicle_type_id":"4","last_reported":1727345402,"current_range_meters":37600,"station_id":"ce4bhn92rcd13ifvqgrg","pricing_plan_id":"cebpf4jnsgd1na2vs0mg"},{"bike_id":"e868c1c8-1da6-4beb-8a99-b79f5ec61971","system_id":"levelo_inurba_marseille","lat":43.26951,"lon":5.38631,"is_reserved":false,"is_disabled":false,"rental_uris":{"android":"levelo://app?vid=e868c1c8-1da6-4beb-8a99-b79f5ec61971","ios":"levelo://app?vid=e868c1c8-1da6-4beb-8a99-b79f5ec61971"},"vehicle_type_id":"4","last_reported":1727345402,"current_range_meters":20400,"station_id":"ce4bhh92rcd13ifvqfh0","pricing_plan_id":"cebpf4jnsgd1na2vs0mg"},{"bike_id":"acc235a4-8579-4ea1-85b1-7447f430c3ae","system_id":"levelo_inurba_marseille","lat":43.26555,"lon":5.39009,"is_reserved":false,"is_disabled":false,"rental_uris":{"android":"levelo://app?vid=acc235a4-8579-4ea1-85b1-7447f430c3ae","ios":"levelo://app?vid=acc235a4-8579-4ea1-85b1-7447f430c3ae"},"vehicle_type_id":"4","last_reported":1727345402,"current_range_meters":19600,"station_id":"ce4bhe12rcd13ifvqf30","pricing_plan_id":"cebpf4jnsgd1na2vs0mg"},{"bike_id":"2d3fbc4b-c7ba-46d9-8fd5-1dc5fa63e191","system_id":"levelo_inurba_marseille","lat":43.2783,"lon":5.39203,"is_reserved":false,"is_disabled":false,"rental_uris":{"android":"levelo://app?vid=2d3fbc4b-c7ba-46d9-8fd5-1dc5fa63e191","ios":"levelo://app?vid=2d3fbc4b-c7ba-46d9-8fd5-1dc5fa63e191"},"vehicle_type_id":"4","last_reported":1727345402,"current_range_meters":27600,"station_id":"ce4bhjp2rcd13ifvqga0","pricing_plan_id":"cebpf4jnsgd1na2vs0mg"},{"bike_id":"86cc00fb-3115-49c4-8209-a596309893f4","system_id":"levelo_inurba_marseille","lat":43.28148,"lon":5.42646,"is_reserved":false,"is_disabled":false,"rental_uris":{"android":"levelo://app?vid=86cc00fb-3115-49c4-8209-a596309893f4","ios":"levelo://app?vid=86cc00fb-3115-49c4-8209-a596309893f4"},"vehicle_type_id":"4","last_reported":1727345402,"current_range_meters":38000,"station_id":"ce4bhnh2rcd13ifvqgug","pricing_plan_id":"cebpf4jnsgd1na2vs0mg"},{"bike_id":"cdd4a971-88d1-4937-adf9-51649b8b80ee","system_id":"levelo_inurba_marseille","lat":43.30897,"lon":5.36853,"is_reserved":false,"is_disabled":false,"rental_uris":{"android":"levelo://app?vid=cdd4a971-88d1-4937-adf9-51649b8b80ee","ios":"levelo://app?vid=cdd4a971-88d1-4937-adf9-51649b8b80ee"},"vehicle_type_id":"4","last_reported":1727345402,"current_range_meters":40000,"station_id":"ce4bgn92rcd13ifvqbvg","pricing_plan_id":"cebpf4jnsgd1na2vs0mg"},{"bike_id":"a2c30071-cf26-4a67-a5bd-fe6db5795b59","system_id":"levelo_inurba_marseille","lat":43.24185,"lon":5.39723,"is_reserved":false,"is_disabled":false,"rental_uris":{"android":"levelo://app?vid=a2c30071-cf26-4a67-a5bd-fe6db5795b59","ios":"levelo://app?vid=a2c30071-cf26-4a67-a5bd-fe6db5795b59"},"vehicle_type_id":"4","last_reported":1727345402,"current_range_meters":20400,"station_id":"ce4bhn12rcd13ifvqgpg","pricing_plan_id":"cebpf4jnsgd1na2vs0mg"},{"bike_id":"2ed98b51-95b7-4b57-a44b-84e22c01b097","system_id":"levelo_inurba_marseille","lat":43.25938,"lon":5.409,"is_reserved":false,"is_disabled":false,"rental_uris":{"android":"levelo://app?vid=2ed98b51-95b7-4b57-a44b-84e22c01b097","ios":"levelo://app?vid=2ed98b51-95b7-4b57-a44b-84e22c01b097"},"vehicle_type_id":"4","last_reported":1727345402,"current_range_meters":26000,"station_id":"ce4bhm92rcd13ifvqglg","pricing_plan_id":"cebpf4jnsgd1na2vs0mg"},{"bike_id":"5ea80bfc-7d7b-4f2b-96a3-224658191814","system_id":"levelo_inurba_marseille","lat":43.28928,"lon":5.38387,"is_reserved":false,"is_disabled":false,"rental_uris":{"android":"levelo://app?vid=5ea80bfc-7d7b-4f2b-96a3-224658191814","ios":"levelo://app?vid=5ea80bfc-7d7b-4f2b-96a3-224658191814"},"vehicle_type_id":"4","last_reported":1727345402,"current_range_meters":33200,"station_id":"ce4bh612rcd13ifvqe6g","pricing_plan_id":"cebpf4jnsgd1na2vs0mg"},{"bike_id":"db901e4b-152d-44f9-bf8e-0ac06b2af6fe","system_id":"levelo_inurba_marseille","lat":43.30528,"lon":5.367,"is_reserved":false,"is_disabled":false,"rental_uris":{"android":"levelo://app?vid=db901e4b-152d-44f9-bf8e-0ac06b2af6fe","ios":"levelo://app?vid=db901e4b-152d-44f9-bf8e-0ac06b2af6fe"},"vehicle_type_id":"4","last_reported":1727345402,"current_range_meters":30000,"station_id":"ce4bgrp2rcd13ifvqc9g","pricing_plan_id":"cebpf4jnsgd1na2vs0mg"},{"bike_id":"aa854054-8172-4ebb-a052-d32db433e771","system_id":"levelo_inurba_marseille","lat":43.23154,"lon":5.43697,"is_reserved":false,"is_disabled":false,"rental_uris":{"android":"levelo://app?vid=aa854054-8172-4ebb-a052-d32db433e771","ios":"levelo://app?vid=aa854054-8172-4ebb-a052-d32db433e771"},"vehicle_type_id":"4","last_reported":1727345402,"current_range_meters":12800,"station_id":"ce4bhmp2rcd13ifvqgog","pricing_plan_id":"cebpf4jnsgd1na2vs0mg"},{"bike_id":"c859838e-9668-46a6-9add-c65973b9865a","system_id":"levelo_inurba_marseille","lat":43.2707,"lon":5.42272,"is_reserved":false,"is_disabled":false,"rental_uris":{"android":"levelo://app?vid=c859838e-9668-46a6-9add-c65973b9865a","ios":"levelo://app?vid=c859838e-9668-46a6-9add-c65973b9865a"},"vehicle_type_id":"4","last_reported":1727345402,"current_range_meters":28800,"station_id":"ce4bhk92rcd13ifvqgb0","pricing_plan_id":"cebpf4jnsgd1na2vs0mg"},{"bike_id":"d825028d-0676-4732-a74a-3900ef280c11","system_id":"levelo_inurba_marseille","lat":43.30908,"lon":5.36845,"is_reserved":false,"is_disabled":false,"rental_uris":{"android":"levelo://app?vid=d825028d-0676-4732-a74a-3900ef280c11","ios":"levelo://app?vid=d825028d-0676-4732-a74a-3900ef280c11"},"vehicle_type_id":"4","last_reported":1727345402,"current_range_meters":32400,"station_id":"ce4bgn92rcd13ifvqbvg","pricing_plan_id":"cebpf4jnsgd1na2vs0mg"},{"bike_id":"609a249e-f1c3-4f26-95d0-758d36bd0a3c","system_id":"levelo_inurba_marseille","lat":43.25582,"lon":5.38231,"is_reserved":false,"is_disabled":false,"rental_uris":{"android":"levelo://app?vid=609a249e-f1c3-4f26-95d0-758d36bd0a3c","ios":"levelo://app?vid=609a249e-f1c3-4f26-95d0-758d36bd0a3c"},"vehicle_type_id":"4","last_reported":1727345402,"current_range_meters":20400,"station_id":"ce4bhih2rcd13ifvqfs0","pricing_plan_id":"cebpf4jnsgd1na2vs0mg"},{"bike_id":"e9a8dbaf-57f8-49f9-b8b9-f8977d9d8a8f","system_id":"levelo_inurba_marseille","lat":43.32473,"lon":5.36565,"is_reserved":false,"is_disabled":false,"rental_uris":{"android":"levelo://app?vid=e9a8dbaf-57f8-49f9-b8b9-f8977d9d8a8f","ios":"levelo://app?vid=e9a8dbaf-57f8-49f9-b8b9-f8977d9d8a8f"},"vehicle_type_id":"4","last_reported":1727345402,"current_range_meters":9600,"station_id":"ce4bhs12rcd13ifvqhvg","pricing_plan_id":"cebpf4jnsgd1na2vs0mg"},{"bike_id":"3cb02a9d-51f6-457a-aa3c-0ee2d9aa03bd","system_id":"levelo_inurba_marseille","lat":43.30143,"lon":5.38077,"is_reserved":false,"is_disabled":false,"rental_uris":{"android":"levelo://app?vid=3cb02a9d-51f6-457a-aa3c-0ee2d9aa03bd","ios":"levelo://app?vid=3cb02a9d-51f6-457a-aa3c-0ee2d9aa03bd"},"vehicle_type_id":"4","last_reported":1727345402,"current_range_meters":23200,"station_id":"ce4bgjp2rcd13ifvqbh0","pricing_plan_id":"cebpf4jnsgd1na2vs0mg"},{"bike_id":"32f2ee49-0647-4da0-a723-7687c3b8c1c9","system_id":"levelo_inurba_marseille","lat":43.23145,"lon":5.43713,"is_reserved":false,"is_disabled":false,"rental_uris":{"android":"levelo://app?vid=32f2ee49-0647-4da0-a723-7687c3b8c1c9","ios":"levelo://app?vid=32f2ee49-0647-4da0-a723-7687c3b8c1c9"},"vehicle_type_id":"4","last_reported":1727345402,"current_range_meters":11600,"station_id":"ce4bhmp2rcd13ifvqgog","pricing_plan_id":"cebpf4jnsgd1na2vs0mg"},{"bike_id":"22e78102-e61a-40ce-aa23-528aa9929fe6","system_id":"levelo_inurba_marseille","lat":43.27067,"lon":5.42272,"is_reserved":false,"is_disabled":false,"rental_uris":{"android":"levelo://app?vid=22e78102-e61a-40ce-aa23-528aa9929fe6","ios":"levelo://app?vid=22e78102-e61a-40ce-aa23-528aa9929fe6"},"vehicle_type_id":"4","last_reported":1727345402,"current_range_meters":8000,"station_id":"ce4bhk92rcd13ifvqgb0","pricing_plan_id":"cebpf4jnsgd1na2vs0mg"},{"bike_id":"a0610759-c3de-4b79-b26f-e918039f4f8f","system_id":"levelo_inurba_marseille","lat":43.28269,"lon":5.35059,"is_reserved":false,"is_disabled":false,"rental_uris":{"android":"levelo://app?vid=a0610759-c3de-4b79-b26f-e918039f4f8f","ios":"levelo://app?vid=a0610759-c3de-4b79-b26f-e918039f4f8f"},"vehicle_type_id":"4","last_reported":1727345402,"current_range_meters":36400,"station_id":"ce4bhbp2rcd13ifvqerg","pricing_plan_id":"cebpf4jnsgd1na2vs0mg"},{"bike_id":"83a36a9f-9334-4ac7-9001-decf1cb87617","system_id":"levelo_inurba_marseille","lat":43.33606,"lon":5.41029,"is_reserved":false,"is_disabled":false,"rental_uris":{"android":"levelo://app?vid=83a36a9f-9334-4ac7-9001-decf1cb87617","ios":"levelo://app?vid=83a36a9f-9334-4ac7-9001-decf1cb87617"},"vehicle_type_id":"4","last_reported":1727345402,"current_range_meters":24800,"station_id":"ce4bhqh2rcd13ifvqhmg","pricing_plan_id":"cebpf4jnsgd1na2vs0mg"},{"bike_id":"eaf27e0d-4914-4948-8b08-1a32655e371f","system_id":"levelo_inurba_marseille","lat":43.29564,"lon":5.3751,"is_reserved":false,"is_disabled":false,"rental_uris":{"android":"levelo://app?vid=eaf27e0d-4914-4948-8b08-1a32655e371f","ios":"levelo://app?vid=eaf27e0d-4914-4948-8b08-1a32655e371f"},"vehicle_type_id":"4","last_reported":1727345402,"current_range_meters":23200,"station_id":"ce4bgh92rcd13ifvqb50","pricing_plan_id":"cebpf4jnsgd1na2vs0mg"},{"bike_id":"5053a250-4d9a-4a0c-84fb-f9d6a2d2e515","system_id":"levelo_inurba_marseille","lat":43.31486,"lon":5.37293,"is_reserved":false,"is_disabled":false,"rental_uris":{"android":"levelo://app?vid=5053a250-4d9a-4a0c-84fb-f9d6a2d2e515","ios":"levelo://app?vid=5053a250-4d9a-4a0c-84fb-f9d6a2d2e515"},"vehicle_type_id":"4","last_reported":1727345402,"current_range_meters":7200,"station_id":"ce4bgt12rcd13ifvqcd0","pricing_plan_id":"cebpf4jnsgd1na2vs0mg"},{"bike_id":"e744ace1-a576-4c38-8de8-78fba16df8d4","system_id":"levelo_inurba_marseille","lat":43.33756,"lon":5.37438,"is_reserved":false,"is_disabled":false,"rental_uris":{"android":"levelo://app?vid=e744ace1-a576-4c38-8de8-78fba16df8d4","ios":"levelo://app?vid=e744ace1-a576-4c38-8de8-78fba16df8d4"},"vehicle_type_id":"4","last_reported":1727345402,"current_range_meters":30400,"station_id":"","pricing_plan_id":"cebpf4jnsgd1na2vs0mg"},{"bike_id":"04243385-cef7-4580-a7bb-cde4428a2ddc","system_id":"levelo_inurba_marseille","lat":43.303153,"lon":5.369008,"is_reserved":false,"is_disabled":false,"rental_uris":{"android":"levelo://app?vid=04243385-cef7-4580-a7bb-cde4428a2ddc","ios":"levelo://app?vid=04243385-cef7-4580-a7bb-cde4428a2ddc"},"vehicle_type_id":"4","last_reported":1727345402,"current_range_meters":8400,"station_id":"ce4bgqh2rcd13ifvqc5g","pricing_plan_id":"cebpf4jnsgd1na2vs0mg"},{"bike_id":"730a8251-d94a-4277-99a9-1c8f6d01216c","system_id":"levelo_inurba_marseille","lat":43.25932,"lon":5.40913,"is_reserved":false,"is_disabled":false,"rental_uris":{"android":"levelo://app?vid=730a8251-d94a-4277-99a9-1c8f6d01216c","ios":"levelo://app?vid=730a8251-d94a-4277-99a9-1c8f6d01216c"},"vehicle_type_id":"4","last_reported":1727345402,"current_range_meters":18000,"station_id":"ce4bhm92rcd13ifvqglg","pricing_plan_id":"cebpf4jnsgd1na2vs0mg"},{"bike_id":"5f6c79fc-4a32-4034-b731-a210b1c8c48d","system_id":"levelo_inurba_marseille","lat":43.30518,"lon":5.36701,"is_reserved":false,"is_disabled":false,"rental_uris":{"android":"levelo://app?vid=5f6c79fc-4a32-4034-b731-a210b1c8c48d","ios":"levelo://app?vid=5f6c79fc-4a32-4034-b731-a210b1c8c48d"},"vehicle_type_id":"4","last_reported":1727345402,"current_range_meters":9200,"station_id":"ce4bgrp2rcd13ifvqc9g","pricing_plan_id":"cebpf4jnsgd1na2vs0mg"},{"bike_id":"78b9129e-a744-4324-85c5-bd0f43ab7765","system_id":"levelo_inurba_marseille","lat":43.33609,"lon":5.41038,"is_reserved":false,"is_disabled":false,"rental_uris":{"android":"levelo://app?vid=78b9129e-a744-4324-85c5-bd0f43ab7765","ios":"levelo://app?vid=78b9129e-a744-4324-85c5-bd0f43ab7765"},"vehicle_type_id":"4","last_reported":1727345402,"current_range_meters":32400,"station_id":"ce4bhqh2rcd13ifvqhmg","pricing_plan_id":"cebpf4jnsgd1na2vs0mg"},{"bike_id":"1de41ee2-b859-4346-824d-ed394262bb03","system_id":"levelo_inurba_marseille","lat":43.33761,"lon":5.37449,"is_reserved":false,"is_disabled":false,"rental_uris":{"android":"levelo://app?vid=1de41ee2-b859-4346-824d-ed394262bb03","ios":"levelo://app?vid=1de41ee2-b859-4346-824d-ed394262bb03"},"vehicle_type_id":"4","last_reported":1727345402,"current_range_meters":12000,"station_id":"","pricing_plan_id":"cebpf4jnsgd1na2vs0mg"},{"bike_id":"77c97b80-03e6-4816-abec-8831ed02cb98","system_id":"levelo_inurba_marseille","lat":43.24076,"lon":5.37761,"is_reserved":false,"is_disabled":false,"rental_uris":{"android":"levelo://app?vid=77c97b80-03e6-4816-abec-8831ed02cb98","ios":"levelo://app?vid=77c97b80-03e6-4816-abec-8831ed02cb98"},"vehicle_type_id":"4","last_reported":1727345402,"current_range_meters":10000,"station_id":"ce4bhnp2rcd13ifvqgvg","pricing_plan_id":"cebpf4jnsgd1na2vs0mg"},{"bike_id":"751bff45-76c1-4c5f-b949-27cb0e9aacd7","system_id":"levelo_inurba_marseille","lat":43.33787,"lon":5.37447,"is_reserved":false,"is_disabled":false,"rental_uris":{"android":"levelo://app?vid=751bff45-76c1-4c5f-b949-27cb0e9aacd7","ios":"levelo://app?vid=751bff45-76c1-4c5f-b949-27cb0e9aacd7"},"vehicle_type_id":"4","last_reported":1727345402,"current_range_meters":38400,"station_id":"","pricing_plan_id":"cebpf4jnsgd1na2vs0mg"},{"bike_id":"8d9c6ed5-96e9-4a18-8b86-7b149395fb80","system_id":"levelo_inurba_marseille","lat":43.30541,"lon":5.36711,"is_reserved":false,"is_disabled":false,"rental_uris":{"android":"levelo://app?vid=8d9c6ed5-96e9-4a18-8b86-7b149395fb80","ios":"levelo://app?vid=8d9c6ed5-96e9-4a18-8b86-7b149395fb80"},"vehicle_type_id":"4","last_reported":1727345402,"current_range_meters":16000,"station_id":"ce4bgrp2rcd13ifvqc9g","pricing_plan_id":"cebpf4jnsgd1na2vs0mg"},{"bike_id":"be6597c7-36df-467d-8d7f-8202a760e6f4","system_id":"levelo_inurba_marseille","lat":43.31351,"lon":5.36708,"is_reserved":false,"is_disabled":false,"rental_uris":{"android":"levelo://app?vid=be6597c7-36df-467d-8d7f-8202a760e6f4","ios":"levelo://app?vid=be6597c7-36df-467d-8d7f-8202a760e6f4"},"vehicle_type_id":"4","last_reported":1727345402,"current_range_meters":11200,"station_id":"ce4bgr92rcd13ifvqc6g","pricing_plan_id":"cebpf4jnsgd1na2vs0mg"},{"bike_id":"40e2ce9d-a24c-4626-9cf6-96d4f1146d3a","system_id":"levelo_inurba_marseille","lat":43.290619,"lon":5.371595,"is_reserved":false,"is_disabled":false,"rental_uris":{"android":"levelo://app?vid=40e2ce9d-a24c-4626-9cf6-96d4f1146d3a","ios":"levelo://app?vid=40e2ce9d-a24c-4626-9cf6-96d4f1146d3a"},"vehicle_type_id":"4","last_reported":1727345402,"current_range_meters":22800,"station_id":"ce4bh5p2rcd13ifvqe4g","pricing_plan_id":"cebpf4jnsgd1na2vs0mg"},{"bike_id":"1a4252c3-05b9-4471-8eed-398eca369e49","system_id":"levelo_inurba_marseille","lat":43.24078,"lon":5.37754,"is_reserved":false,"is_disabled":false,"rental_uris":{"android":"levelo://app?vid=1a4252c3-05b9-4471-8eed-398eca369e49","ios":"levelo://app?vid=1a4252c3-05b9-4471-8eed-398eca369e49"},"vehicle_type_id":"4","last_reported":1727345402,"current_range_meters":18800,"station_id":"ce4bhnp2rcd13ifvqgvg","pricing_plan_id":"cebpf4jnsgd1na2vs0mg"},{"bike_id":"b89f3c75-62ef-439a-891a-3e5717a4b61a","system_id":"levelo_inurba_marseille","lat":43.27938,"lon":5.37944,"is_reserved":false,"is_disabled":false,"rental_uris":{"android":"levelo://app?vid=b89f3c75-62ef-439a-891a-3e5717a4b61a","ios":"levelo://app?vid=b89f3c75-62ef-439a-891a-3e5717a4b61a"},"vehicle_type_id":"4","last_reported":1727345402,"current_range_meters":24000,"station_id":"","pricing_plan_id":"cebpf4jnsgd1na2vs0mg"},{"bike_id":"b07aa6fe-8894-4679-b844-55c53371e427","system_id":"levelo_inurba_marseille","lat":43.27614,"lon":5.36116,"is_reserved":false,"is_disabled":false,"rental_uris":{"android":"levelo://app?vid=b07aa6fe-8894-4679-b844-55c53371e427","ios":"levelo://app?vid=b07aa6fe-8894-4679-b844-55c53371e427"},"vehicle_type_id":"4","last_reported":1727345402,"current_range_meters":38800,"station_id":"ce4bgj92rcd13ifvqbe0","pricing_plan_id":"cebpf4jnsgd1na2vs0mg"},{"bike_id":"65388a9d-b365-41c2-8ef0-5bed6d6863f8","system_id":"levelo_inurba_marseille","lat":43.337444,"lon":5.374475,"is_reserved":false,"is_disabled":false,"rental_uris":{"android":"levelo://app?vid=65388a9d-b365-41c2-8ef0-5bed6d6863f8","ios":"levelo://app?vid=65388a9d-b365-41c2-8ef0-5bed6d6863f8"},"vehicle_type_id":"4","last_reported":1727345402,"current_range_meters":24000,"station_id":"ce4bh0h2rcd13ifvqd50","pricing_plan_id":"cebpf4jnsgd1na2vs0mg"},{"bike_id":"9df61aab-fdd0-41b6-9f84-05ed48053d56","system_id":"levelo_inurba_marseille","lat":43.30886,"lon":5.37203,"is_reserved":false,"is_disabled":false,"rental_uris":{"android":"levelo://app?vid=9df61aab-fdd0-41b6-9f84-05ed48053d56","ios":"levelo://app?vid=9df61aab-fdd0-41b6-9f84-05ed48053d56"},"vehicle_type_id":"4","last_reported":1727345402,"current_range_meters":38800,"station_id":"ce4bguh2rcd13ifvqckg","pricing_plan_id":"cebpf4jnsgd1na2vs0mg"},{"bike_id":"8a8c323e-f269-498d-bbed-48fef51ffdcd","system_id":"levelo_inurba_marseille","lat":43.30142,"lon":5.38082,"is_reserved":false,"is_disabled":false,"rental_uris":{"android":"levelo://app?vid=8a8c323e-f269-498d-bbed-48fef51ffdcd","ios":"levelo://app?vid=8a8c323e-f269-498d-bbed-48fef51ffdcd"},"vehicle_type_id":"4","last_reported":1727345402,"current_range_meters":9600,"station_id":"ce4bgjp2rcd13ifvqbh0","pricing_plan_id":"cebpf4jnsgd1na2vs0mg"},{"bike_id":"235024ea-823b-43f0-a223-3e703f9a9ef0","system_id":"levelo_inurba_marseille","lat":43.24386,"lon":5.37053,"is_reserved":false,"is_disabled":false,"rental_uris":{"android":"levelo://app?vid=235024ea-823b-43f0-a223-3e703f9a9ef0","ios":"levelo://app?vid=235024ea-823b-43f0-a223-3e703f9a9ef0"},"vehicle_type_id":"4","last_reported":1727345402,"current_range_meters":29600,"station_id":"ce4bhhh2rcd13ifvqfk0","pricing_plan_id":"cebpf4jnsgd1na2vs0mg"},{"bike_id":"15091c48-fa1f-42b0-a263-2568d4978cd4","system_id":"levelo_inurba_marseille","lat":43.24074,"lon":5.37764,"is_reserved":false,"is_disabled":false,"rental_uris":{"android":"levelo://app?vid=15091c48-fa1f-42b0-a263-2568d4978cd4","ios":"levelo://app?vid=15091c48-fa1f-42b0-a263-2568d4978cd4"},"vehicle_type_id":"4","last_reported":1727345402,"current_range_meters":14400,"station_id":"ce4bhnp2rcd13ifvqgvg","pricing_plan_id":"cebpf4jnsgd1na2vs0mg"},{"bike_id":"9238ad14-e0d5-4c32-9a08-f97260c3768d","system_id":"levelo_inurba_marseille","lat":43.32481,"lon":5.3657,"is_reserved":false,"is_disabled":false,"rental_uris":{"android":"levelo://app?vid=9238ad14-e0d5-4c32-9a08-f97260c3768d","ios":"levelo://app?vid=9238ad14-e0d5-4c32-9a08-f97260c3768d"},"vehicle_type_id":"4","last_reported":1727345402,"current_range_meters":28800,"station_id":"ce4bhs12rcd13ifvqhvg","pricing_plan_id":"cebpf4jnsgd1na2vs0mg"},{"bike_id":"c2e5a81e-6912-4cb0-98ad-5f3df477fa43","system_id":"levelo_inurba_marseille","lat":43.28987,"lon":5.37588,"is_reserved":false,"is_disabled":false,"rental_uris":{"android":"levelo://app?vid=c2e5a81e-6912-4cb0-98ad-5f3df477fa43","ios":"levelo://app?vid=c2e5a81e-6912-4cb0-98ad-5f3df477fa43"},"vehicle_type_id":"4","last_reported":1727345402,"current_range_meters":38000,"station_id":"","pricing_plan_id":"cebpf4jnsgd1na2vs0mg"},{"bike_id":"3f8308e1-7d6c-4759-b3e7-86f24d3853c1","system_id":"levelo_inurba_marseille","lat":43.24807,"lon":5.37455,"is_reserved":false,"is_disabled":false,"rental_uris":{"android":"levelo://app?vid=3f8308e1-7d6c-4759-b3e7-86f24d3853c1","ios":"levelo://app?vid=3f8308e1-7d6c-4759-b3e7-86f24d3853c1"},"vehicle_type_id":"4","last_reported":1727345402,"current_range_meters":30400,"station_id":"ce4bhgh2rcd13ifvqfb0","pricing_plan_id":"cebpf4jnsgd1na2vs0mg"},{"bike_id":"8342097b-c3f3-4565-885b-b4c3f72abd8c","system_id":"levelo_inurba_marseille","lat":43.24672,"lon":5.3816,"is_reserved":false,"is_disabled":false,"rental_uris":{"android":"levelo://app?vid=8342097b-c3f3-4565-885b-b4c3f72abd8c","ios":"levelo://app?vid=8342097b-c3f3-4565-885b-b4c3f72abd8c"},"vehicle_type_id":"4","last_reported":1727345402,"current_range_meters":35200,"station_id":"ce4bhih2rcd13ifvqfr0","pricing_plan_id":"cebpf4jnsgd1na2vs0mg"},{"bike_id":"e4d55da8-9a0e-4c4d-8c5f-3b668bd4aeae","system_id":"levelo_inurba_marseille","lat":43.23155,"lon":5.43699,"is_reserved":false,"is_disabled":false,"rental_uris":{"android":"levelo://app?vid=e4d55da8-9a0e-4c4d-8c5f-3b668bd4aeae","ios":"levelo://app?vid=e4d55da8-9a0e-4c4d-8c5f-3b668bd4aeae"},"vehicle_type_id":"4","last_reported":1727345402,"current_range_meters":16000,"station_id":"ce4bhmp2rcd13ifvqgog","pricing_plan_id":"cebpf4jnsgd1na2vs0mg"},{"bike_id":"8460a7e8-1a9d-4ecf-8e31-4e5a3fd8d5e0","system_id":"levelo_inurba_marseille","lat":43.29932,"lon":5.36539,"is_reserved":false,"is_disabled":false,"rental_uris":{"android":"levelo://app?vid=8460a7e8-1a9d-4ecf-8e31-4e5a3fd8d5e0","ios":"levelo://app?vid=8460a7e8-1a9d-4ecf-8e31-4e5a3fd8d5e0"},"vehicle_type_id":"4","last_reported":1727345402,"current_range_meters":16800,"station_id":"ce4bgm92rcd13ifvqbr0","pricing_plan_id":"cebpf4jnsgd1na2vs0mg"},{"bike_id":"3d08bd30-6cc9-4f80-8c6e-edc3f496cc90","system_id":"levelo_inurba_marseille","lat":43.29267,"lon":5.36841,"is_reserved":false,"is_disabled":false,"rental_uris":{"android":"levelo://app?vid=3d08bd30-6cc9-4f80-8c6e-edc3f496cc90","ios":"levelo://app?vid=3d08bd30-6cc9-4f80-8c6e-edc3f496cc90"},"vehicle_type_id":"4","last_reported":1727345402,"current_range_meters":26000,"station_id":"ce4bhbp2rcd13ifvqesg","pricing_plan_id":"cebpf4jnsgd1na2vs0mg"},{"bike_id":"ba28c655-7b18-4e97-988d-7b8744ba7e35","system_id":"levelo_inurba_marseille","lat":43.30545,"lon":5.3654,"is_reserved":false,"is_disabled":false,"rental_uris":{"android":"levelo://app?vid=ba28c655-7b18-4e97-988d-7b8744ba7e35","ios":"levelo://app?vid=ba28c655-7b18-4e97-988d-7b8744ba7e35"},"vehicle_type_id":"4","last_reported":1727345402,"current_range_meters":24400,"station_id":"ce4bgs12rcd13ifvqcag","pricing_plan_id":"cebpf4jnsgd1na2vs0mg"},{"bike_id":"594336af-f8d4-47d1-a7ea-0aff55eb199a","system_id":"levelo_inurba_marseille","lat":43.246582,"lon":5.381665,"is_reserved":false,"is_disabled":false,"rental_uris":{"android":"levelo://app?vid=594336af-f8d4-47d1-a7ea-0aff55eb199a","ios":"levelo://app?vid=594336af-f8d4-47d1-a7ea-0aff55eb199a"},"vehicle_type_id":"4","last_reported":1727345402,"current_range_meters":24000,"station_id":"ce4bhih2rcd13ifvqfr0","pricing_plan_id":"cebpf4jnsgd1na2vs0mg"},{"bike_id":"7a6b9e09-99b2-4b09-9605-c81f91c64195","system_id":"levelo_inurba_marseille","lat":43.300476,"lon":5.3861,"is_reserved":false,"is_disabled":false,"rental_uris":{"android":"levelo://app?vid=7a6b9e09-99b2-4b09-9605-c81f91c64195","ios":"levelo://app?vid=7a6b9e09-99b2-4b09-9605-c81f91c64195"},"vehicle_type_id":"4","last_reported":1727345402,"current_range_meters":28800,"station_id":"ce4bgup2rcd13ifvqco0","pricing_plan_id":"cebpf4jnsgd1na2vs0mg"},{"bike_id":"64577474-503b-47b8-ba02-db6057494fc8","system_id":"levelo_inurba_marseille","lat":43.25941,"lon":5.40906,"is_reserved":false,"is_disabled":false,"rental_uris":{"android":"levelo://app?vid=64577474-503b-47b8-ba02-db6057494fc8","ios":"levelo://app?vid=64577474-503b-47b8-ba02-db6057494fc8"},"vehicle_type_id":"4","last_reported":1727345402,"current_range_meters":34800,"station_id":"ce4bhm92rcd13ifvqglg","pricing_plan_id":"cebpf4jnsgd1na2vs0mg"},{"bike_id":"2838c3b1-75b7-40b1-8f0c-0d005fb9dee7","system_id":"levelo_inurba_marseille","lat":43.32537,"lon":5.41435,"is_reserved":false,"is_disabled":false,"rental_uris":{"android":"levelo://app?vid=2838c3b1-75b7-40b1-8f0c-0d005fb9dee7","ios":"levelo://app?vid=2838c3b1-75b7-40b1-8f0c-0d005fb9dee7"},"vehicle_type_id":"4","last_reported":1727345402,"current_range_meters":14800,"station_id":"ce4bhq12rcd13ifvqhhg","pricing_plan_id":"cebpf4jnsgd1na2vs0mg"},{"bike_id":"2c6be182-3b3b-4300-bf27-127fb8f58a7f","system_id":"levelo_inurba_marseille","lat":43.24073,"lon":5.37747,"is_reserved":false,"is_disabled":false,"rental_uris":{"android":"levelo://app?vid=2c6be182-3b3b-4300-bf27-127fb8f58a7f","ios":"levelo://app?vid=2c6be182-3b3b-4300-bf27-127fb8f58a7f"},"vehicle_type_id":"4","last_reported":1727345402,"current_range_meters":6800,"station_id":"ce4bhnp2rcd13ifvqgvg","pricing_plan_id":"cebpf4jnsgd1na2vs0mg"},{"bike_id":"8daa29e7-59b8-4d33-b3a3-84845f7aff9b","system_id":"levelo_inurba_marseille","lat":43.26193,"lon":5.37927,"is_reserved":false,"is_disabled":false,"rental_uris":{"android":"levelo://app?vid=8daa29e7-59b8-4d33-b3a3-84845f7aff9b","ios":"levelo://app?vid=8daa29e7-59b8-4d33-b3a3-84845f7aff9b"},"vehicle_type_id":"4","last_reported":1727345402,"current_range_meters":38800,"station_id":"ce4bhjp2rcd13ifvqg90","pricing_plan_id":"cebpf4jnsgd1na2vs0mg"},{"bike_id":"c6ebdc49-4729-4e81-a2ad-ad9c2b48e60f","system_id":"levelo_inurba_marseille","lat":43.29932,"lon":5.36541,"is_reserved":false,"is_disabled":false,"rental_uris":{"android":"levelo://app?vid=c6ebdc49-4729-4e81-a2ad-ad9c2b48e60f","ios":"levelo://app?vid=c6ebdc49-4729-4e81-a2ad-ad9c2b48e60f"},"vehicle_type_id":"4","last_reported":1727345402,"current_range_meters":32000,"station_id":"ce4bgm92rcd13ifvqbr0","pricing_plan_id":"cebpf4jnsgd1na2vs0mg"},{"bike_id":"c029c5c7-7c08-40b0-8f5b-4234eae40036","system_id":"levelo_inurba_marseille","lat":43.30012,"lon":5.37167,"is_reserved":false,"is_disabled":false,"rental_uris":{"android":"levelo://app?vid=c029c5c7-7c08-40b0-8f5b-4234eae40036","ios":"levelo://app?vid=c029c5c7-7c08-40b0-8f5b-4234eae40036"},"vehicle_type_id":"4","last_reported":1727345402,"current_range_meters":14800,"station_id":"ce4bgr92rcd13ifvqc7g","pricing_plan_id":"cebpf4jnsgd1na2vs0mg"},{"bike_id":"6b2d6110-047a-4374-b820-0abaa9613131","system_id":"levelo_inurba_marseille","lat":43.32485,"lon":5.36563,"is_reserved":false,"is_disabled":false,"rental_uris":{"android":"levelo://app?vid=6b2d6110-047a-4374-b820-0abaa9613131","ios":"levelo://app?vid=6b2d6110-047a-4374-b820-0abaa9613131"},"vehicle_type_id":"4","last_reported":1727345402,"current_range_meters":36800,"station_id":"ce4bhs12rcd13ifvqhvg","pricing_plan_id":"cebpf4jnsgd1na2vs0mg"},{"bike_id":"b90aebb6-9350-4611-bb73-5ffa7602d9ca","system_id":"levelo_inurba_marseille","lat":43.26681,"lon":5.38266,"is_reserved":false,"is_disabled":false,"rental_uris":{"android":"levelo://app?vid=b90aebb6-9350-4611-bb73-5ffa7602d9ca","ios":"levelo://app?vid=b90aebb6-9350-4611-bb73-5ffa7602d9ca"},"vehicle_type_id":"4","last_reported":1727345402,"current_range_meters":25200,"station_id":"ce4bhg92rcd13ifvqf90","pricing_plan_id":"cebpf4jnsgd1na2vs0mg"},{"bike_id":"a7bca3df-0344-4204-86d7-b742d4769839","system_id":"levelo_inurba_marseille","lat":43.30863,"lon":5.3685,"is_reserved":false,"is_disabled":false,"rental_uris":{"android":"levelo://app?vid=a7bca3df-0344-4204-86d7-b742d4769839","ios":"levelo://app?vid=a7bca3df-0344-4204-86d7-b742d4769839"},"vehicle_type_id":"4","last_reported":1727345402,"current_range_meters":24000,"station_id":"ce4bgn92rcd13ifvqbvg","pricing_plan_id":"cebpf4jnsgd1na2vs0mg"},{"bike_id":"5c5d6480-15ef-41d1-819d-f6b78d27575d","system_id":"levelo_inurba_marseille","lat":43.29843,"lon":5.36261,"is_reserved":false,"is_disabled":false,"rental_uris":{"android":"levelo://app?vid=5c5d6480-15ef-41d1-819d-f6b78d27575d","ios":"levelo://app?vid=5c5d6480-15ef-41d1-819d-f6b78d27575d"},"vehicle_type_id":"4","last_reported":1727345402,"current_range_meters":24400,"station_id":"ce4bgpp2rcd13ifvqc3g","pricing_plan_id":"cebpf4jnsgd1na2vs0mg"},{"bike_id":"b2eaefb3-38a9-4f3e-a3d2-026dcff570ab","system_id":"levelo_inurba_marseille","lat":43.27998,"lon":5.40012,"is_reserved":false,"is_disabled":false,"rental_uris":{"android":"levelo://app?vid=b2eaefb3-38a9-4f3e-a3d2-026dcff570ab","ios":"levelo://app?vid=b2eaefb3-38a9-4f3e-a3d2-026dcff570ab"},"vehicle_type_id":"4","last_reported":1727345402,"current_range_meters":6400,"station_id":"ce4bho92rcd13ifvqh4g","pricing_plan_id":"cebpf4jnsgd1na2vs0mg"},{"bike_id":"7eb9ce67-a47c-4f95-9e57-af5e0f346d25","system_id":"levelo_inurba_marseille","lat":43.31348,"lon":5.36709,"is_reserved":false,"is_disabled":false,"rental_uris":{"android":"levelo://app?vid=7eb9ce67-a47c-4f95-9e57-af5e0f346d25","ios":"levelo://app?vid=7eb9ce67-a47c-4f95-9e57-af5e0f346d25"},"vehicle_type_id":"4","last_reported":1727345402,"current_range_meters":37600,"station_id":"ce4bgr92rcd13ifvqc6g","pricing_plan_id":"cebpf4jnsgd1na2vs0mg"},{"bike_id":"80d1d5df-61ca-4f88-bada-c65e746a68df","system_id":"levelo_inurba_marseille","lat":43.29842,"lon":5.36267,"is_reserved":false,"is_disabled":false,"rental_uris":{"android":"levelo://app?vid=80d1d5df-61ca-4f88-bada-c65e746a68df","ios":"levelo://app?vid=80d1d5df-61ca-4f88-bada-c65e746a68df"},"vehicle_type_id":"4","last_reported":1727345402,"current_range_meters":39200,"station_id":"ce4bgpp2rcd13ifvqc3g","pricing_plan_id":"cebpf4jnsgd1na2vs0mg"},{"bike_id":"7827170f-fe53-4f76-acc5-1f9d10e67145","system_id":"levelo_inurba_marseille","lat":43.22928,"lon":5.35377,"is_reserved":false,"is_disabled":false,"rental_uris":{"android":"levelo://app?vid=7827170f-fe53-4f76-acc5-1f9d10e67145","ios":"levelo://app?vid=7827170f-fe53-4f76-acc5-1f9d10e67145"},"vehicle_type_id":"4","last_reported":1727345402,"current_range_meters":34000,"station_id":"cpo3532slgdg3j2ikp40","pricing_plan_id":"cebpf4jnsgd1na2vs0mg"},{"bike_id":"bf78e5c0-111a-40a9-9129-973bd5d044d3","system_id":"levelo_inurba_marseille","lat":43.23186,"lon":5.39977,"is_reserved":false,"is_disabled":false,"rental_uris":{"android":"levelo://app?vid=bf78e5c0-111a-40a9-9129-973bd5d044d3","ios":"levelo://app?vid=bf78e5c0-111a-40a9-9129-973bd5d044d3"},"vehicle_type_id":"4","last_reported":1727345402,"current_range_meters":17600,"station_id":"ce4bhn12rcd13ifvqgqg","pricing_plan_id":"cebpf4jnsgd1na2vs0mg"},{"bike_id":"04d80200-2dd3-4d4a-b330-c465b1aaa7a4","system_id":"levelo_inurba_marseille","lat":43.302978,"lon":5.368975,"is_reserved":false,"is_disabled":false,"rental_uris":{"android":"levelo://app?vid=04d80200-2dd3-4d4a-b330-c465b1aaa7a4","ios":"levelo://app?vid=04d80200-2dd3-4d4a-b330-c465b1aaa7a4"},"vehicle_type_id":"4","last_reported":1727345402,"current_range_meters":29600,"station_id":"ce4bhs12rcd13ifvqhvg","pricing_plan_id":"cebpf4jnsgd1na2vs0mg"},{"bike_id":"038f80b5-65f0-47ef-9d43-617ee9f0ac37","system_id":"levelo_inurba_marseille","lat":43.30533,"lon":5.36544,"is_reserved":false,"is_disabled":false,"rental_uris":{"android":"levelo://app?vid=038f80b5-65f0-47ef-9d43-617ee9f0ac37","ios":"levelo://app?vid=038f80b5-65f0-47ef-9d43-617ee9f0ac37"},"vehicle_type_id":"4","last_reported":1727345402,"current_range_meters":38800,"station_id":"ce4bgs12rcd13ifvqcag","pricing_plan_id":"cebpf4jnsgd1na2vs0mg"},{"bike_id":"4a4bfd88-bdfc-4802-b3a8-e798e4274727","system_id":"levelo_inurba_marseille","lat":43.32285,"lon":5.38258,"is_reserved":false,"is_disabled":false,"rental_uris":{"android":"levelo://app?vid=4a4bfd88-bdfc-4802-b3a8-e798e4274727","ios":"levelo://app?vid=4a4bfd88-bdfc-4802-b3a8-e798e4274727"},"vehicle_type_id":"4","last_reported":1727345402,"current_range_meters":24800,"station_id":"ce4bhr12rcd13ifvqhqg","pricing_plan_id":"cebpf4jnsgd1na2vs0mg"},{"bike_id":"d66a4195-867e-4bfb-ba88-b3cd6797fa0f","system_id":"levelo_inurba_marseille","lat":43.27489,"lon":5.42451,"is_reserved":false,"is_disabled":false,"rental_uris":{"android":"levelo://app?vid=d66a4195-867e-4bfb-ba88-b3cd6797fa0f","ios":"levelo://app?vid=d66a4195-867e-4bfb-ba88-b3cd6797fa0f"},"vehicle_type_id":"4","last_reported":1727345402,"current_range_meters":30400,"station_id":"ce4bhn92rcd13ifvqgrg","pricing_plan_id":"cebpf4jnsgd1na2vs0mg"},{"bike_id":"e4ab057a-bb4f-47b8-88d6-0bcb0e4598c6","system_id":"levelo_inurba_marseille","lat":43.30169,"lon":5.36606,"is_reserved":false,"is_disabled":false,"rental_uris":{"android":"levelo://app?vid=e4ab057a-bb4f-47b8-88d6-0bcb0e4598c6","ios":"levelo://app?vid=e4ab057a-bb4f-47b8-88d6-0bcb0e4598c6"},"vehicle_type_id":"4","last_reported":1727345402,"current_range_meters":16800,"station_id":"ce4bgpp2rcd13ifvqc3g","pricing_plan_id":"cebpf4jnsgd1na2vs0mg"},{"bike_id":"81c79a5f-f1a7-4420-97f8-092caaa8c88e","system_id":"levelo_inurba_marseille","lat":43.30547,"lon":5.36711,"is_reserved":false,"is_disabled":false,"rental_uris":{"android":"levelo://app?vid=81c79a5f-f1a7-4420-97f8-092caaa8c88e","ios":"levelo://app?vid=81c79a5f-f1a7-4420-97f8-092caaa8c88e"},"vehicle_type_id":"4","last_reported":1727345402,"current_range_meters":16800,"station_id":"ce4bgrp2rcd13ifvqc9g","pricing_plan_id":"cebpf4jnsgd1na2vs0mg"},{"bike_id":"7199f745-be0e-476e-aa6d-d0a7a35bbf05","system_id":"levelo_inurba_marseille","lat":43.30552,"lon":5.36548,"is_reserved":false,"is_disabled":false,"rental_uris":{"android":"levelo://app?vid=7199f745-be0e-476e-aa6d-d0a7a35bbf05","ios":"levelo://app?vid=7199f745-be0e-476e-aa6d-d0a7a35bbf05"},"vehicle_type_id":"4","last_reported":1727345402,"current_range_meters":35200,"station_id":"ce4bgs12rcd13ifvqcag","pricing_plan_id":"cebpf4jnsgd1na2vs0mg"},{"bike_id":"ad119e17-9b4e-4793-a1f8-88388051fd50","system_id":"levelo_inurba_marseille","lat":43.30567,"lon":5.36532,"is_reserved":false,"is_disabled":false,"rental_uris":{"android":"levelo://app?vid=ad119e17-9b4e-4793-a1f8-88388051fd50","ios":"levelo://app?vid=ad119e17-9b4e-4793-a1f8-88388051fd50"},"vehicle_type_id":"4","last_reported":1727345402,"current_range_meters":2800,"station_id":"ce4bgs12rcd13ifvqcag","pricing_plan_id":"cebpf4jnsgd1na2vs0mg"},{"bike_id":"4756d760-5a84-4c60-9fe2-4553229ea5dd","system_id":"levelo_inurba_marseille","lat":43.298573,"lon":5.362598,"is_reserved":false,"is_disabled":false,"rental_uris":{"android":"levelo://app?vid=4756d760-5a84-4c60-9fe2-4553229ea5dd","ios":"levelo://app?vid=4756d760-5a84-4c60-9fe2-4553229ea5dd"},"vehicle_type_id":"4","last_reported":1727345402,"current_range_meters":18000,"station_id":"ce4bgpp2rcd13ifvqc3g","pricing_plan_id":"cebpf4jnsgd1na2vs0mg"},{"bike_id":"39ba35d1-5d57-4a24-8694-6c219f2a0cf6","system_id":"levelo_inurba_marseille","lat":43.29253,"lon":5.3844,"is_reserved":false,"is_disabled":false,"rental_uris":{"android":"levelo://app?vid=39ba35d1-5d57-4a24-8694-6c219f2a0cf6","ios":"levelo://app?vid=39ba35d1-5d57-4a24-8694-6c219f2a0cf6"},"vehicle_type_id":"4","last_reported":1727345402,"current_range_meters":37600,"station_id":"ce4bh692rcd13ifvqea0","pricing_plan_id":"cebpf4jnsgd1na2vs0mg"},{"bike_id":"98e41583-259b-49a5-9279-aa1bac1ed566","system_id":"levelo_inurba_marseille","lat":43.30543,"lon":5.36536,"is_reserved":false,"is_disabled":false,"rental_uris":{"android":"levelo://app?vid=98e41583-259b-49a5-9279-aa1bac1ed566","ios":"levelo://app?vid=98e41583-259b-49a5-9279-aa1bac1ed566"},"vehicle_type_id":"4","last_reported":1727345402,"current_range_meters":36400,"station_id":"ce4bgs12rcd13ifvqcag","pricing_plan_id":"cebpf4jnsgd1na2vs0mg"},{"bike_id":"8b1c6698-cd99-42a4-8f7c-970d46686118","system_id":"levelo_inurba_marseille","lat":43.26677,"lon":5.38265,"is_reserved":false,"is_disabled":false,"rental_uris":{"android":"levelo://app?vid=8b1c6698-cd99-42a4-8f7c-970d46686118","ios":"levelo://app?vid=8b1c6698-cd99-42a4-8f7c-970d46686118"},"vehicle_type_id":"4","last_reported":1727345402,"current_range_meters":36400,"station_id":"ce4bhg92rcd13ifvqf90","pricing_plan_id":"cebpf4jnsgd1na2vs0mg"},{"bike_id":"49e3f26f-7495-4130-95c3-46ec2c4c41d3","system_id":"levelo_inurba_marseille","lat":43.33615,"lon":5.4102,"is_reserved":false,"is_disabled":false,"rental_uris":{"android":"levelo://app?vid=49e3f26f-7495-4130-95c3-46ec2c4c41d3","ios":"levelo://app?vid=49e3f26f-7495-4130-95c3-46ec2c4c41d3"},"vehicle_type_id":"4","last_reported":1727345402,"current_range_meters":33200,"station_id":"ce4bhqh2rcd13ifvqhmg","pricing_plan_id":"cebpf4jnsgd1na2vs0mg"},{"bike_id":"bc7cab11-b0dd-4a42-9999-31fe6a17dee2","system_id":"levelo_inurba_marseille","lat":43.2984,"lon":5.3626,"is_reserved":false,"is_disabled":false,"rental_uris":{"android":"levelo://app?vid=bc7cab11-b0dd-4a42-9999-31fe6a17dee2","ios":"levelo://app?vid=bc7cab11-b0dd-4a42-9999-31fe6a17dee2"},"vehicle_type_id":"4","last_reported":1727345402,"current_range_meters":37600,"station_id":"ce4bgpp2rcd13ifvqc3g","pricing_plan_id":"cebpf4jnsgd1na2vs0mg"},{"bike_id":"a68353b7-b837-42c4-b491-9118d8153d8e","system_id":"levelo_inurba_marseille","lat":43.30608,"lon":5.3723,"is_reserved":false,"is_disabled":false,"rental_uris":{"android":"levelo://app?vid=a68353b7-b837-42c4-b491-9118d8153d8e","ios":"levelo://app?vid=a68353b7-b837-42c4-b491-9118d8153d8e"},"vehicle_type_id":"4","last_reported":1727345402,"current_range_meters":28400,"station_id":"ce4bgqh2rcd13ifvqc4g","pricing_plan_id":"cebpf4jnsgd1na2vs0mg"},{"bike_id":"eda8bcde-5e1d-4538-802b-7a2e14d9f52d","system_id":"levelo_inurba_marseille","lat":43.22926,"lon":5.3537,"is_reserved":false,"is_disabled":false,"rental_uris":{"android":"levelo://app?vid=eda8bcde-5e1d-4538-802b-7a2e14d9f52d","ios":"levelo://app?vid=eda8bcde-5e1d-4538-802b-7a2e14d9f52d"},"vehicle_type_id":"4","last_reported":1727345402,"current_range_meters":22800,"station_id":"cpo3532slgdg3j2ikp40","pricing_plan_id":"cebpf4jnsgd1na2vs0mg"},{"bike_id":"1e6b0c16-c6ca-44c3-8633-a751ebbb6842","system_id":"levelo_inurba_marseille","lat":43.28609,"lon":5.37069,"is_reserved":false,"is_disabled":false,"rental_uris":{"android":"levelo://app?vid=1e6b0c16-c6ca-44c3-8633-a751ebbb6842","ios":"levelo://app?vid=1e6b0c16-c6ca-44c3-8633-a751ebbb6842"},"vehicle_type_id":"4","last_reported":1727345402,"current_range_meters":32000,"station_id":"ce4bht12rcd13ifvqi60","pricing_plan_id":"cebpf4jnsgd1na2vs0mg"},{"bike_id":"d561d796-0d99-46eb-b581-758243053ac6","system_id":"levelo_inurba_marseille","lat":43.29224,"lon":5.3605,"is_reserved":false,"is_disabled":false,"rental_uris":{"android":"levelo://app?vid=d561d796-0d99-46eb-b581-758243053ac6","ios":"levelo://app?vid=d561d796-0d99-46eb-b581-758243053ac6"},"vehicle_type_id":"4","last_reported":1727345402,"current_range_meters":37600,"station_id":"ce4bhbh2rcd13ifvqeqg","pricing_plan_id":"cebpf4jnsgd1na2vs0mg"},{"bike_id":"7e06aaaa-a3eb-45f3-b488-d847eb00575d","system_id":"levelo_inurba_marseille","lat":43.30533,"lon":5.36541,"is_reserved":false,"is_disabled":false,"rental_uris":{"android":"levelo://app?vid=7e06aaaa-a3eb-45f3-b488-d847eb00575d","ios":"levelo://app?vid=7e06aaaa-a3eb-45f3-b488-d847eb00575d"},"vehicle_type_id":"4","last_reported":1727345402,"current_range_meters":38800,"station_id":"ce4bgs12rcd13ifvqcag","pricing_plan_id":"cebpf4jnsgd1na2vs0mg"},{"bike_id":"49944727-cba5-4e3c-9932-9a69821399bd","system_id":"levelo_inurba_marseille","lat":43.301469,"lon":5.374055,"is_reserved":false,"is_disabled":false,"rental_uris":{"android":"levelo://app?vid=49944727-cba5-4e3c-9932-9a69821399bd","ios":"levelo://app?vid=49944727-cba5-4e3c-9932-9a69821399bd"},"vehicle_type_id":"4","last_reported":1727345402,"current_range_meters":28800,"station_id":"ce4bgs92rcd13ifvqcc0","pricing_plan_id":"cebpf4jnsgd1na2vs0mg"},{"bike_id":"80b47960-913f-41dd-92b6-b416a7ba96d1","system_id":"levelo_inurba_marseille","lat":43.30924,"lon":5.36843,"is_reserved":false,"is_disabled":false,"rental_uris":{"android":"levelo://app?vid=80b47960-913f-41dd-92b6-b416a7ba96d1","ios":"levelo://app?vid=80b47960-913f-41dd-92b6-b416a7ba96d1"},"vehicle_type_id":"4","last_reported":1727345402,"current_range_meters":35200,"station_id":"ce4bgn92rcd13ifvqbvg","pricing_plan_id":"cebpf4jnsgd1na2vs0mg"},{"bike_id":"b346460b-67e9-49d6-8bf1-75645a62cdbf","system_id":"levelo_inurba_marseille","lat":43.25577,"lon":5.38235,"is_reserved":false,"is_disabled":false,"rental_uris":{"android":"levelo://app?vid=b346460b-67e9-49d6-8bf1-75645a62cdbf","ios":"levelo://app?vid=b346460b-67e9-49d6-8bf1-75645a62cdbf"},"vehicle_type_id":"4","last_reported":1727345402,"current_range_meters":38800,"station_id":"ce4bhih2rcd13ifvqfs0","pricing_plan_id":"cebpf4jnsgd1na2vs0mg"},