{"last_updated":1704229584,"ttl":30,"version":"2.2","data":{"bikes":[{"bike_id":"d5aff0cb-4646-4b8d-bb49-252bfcc34f56","system_id":"levelo_inurba_marseille","lat":43.309039,"lon":5.371797,"is_reserved":false,"is_disabled":false,"rental_uris":{"android":"levelo://app?vid=d5aff0cb-4646-4b8d-bb49-252bfcc34f56","ios":"levelo://app?vid=d5aff0cb-4646-4b8d-bb49-252bfcc34f56"},"vehicle_type_id":"4","last_reported":1704229584,"current_range_meters":30800,"station_id":"ce4bguh2rcd13ifvqckg","pricing_plan_id":"free"},{"bike_id":"b67355a2-2710-4d85-a32e-96da2e5fa644","system_id":"levelo_inurba_marseille","lat":43.305989,"lon":5.37225,"is_reserved":false,"is_disabled":false,"rental_uris":{"android":"levelo://app?vid=b67355a2-2710-4d85-a32e-96da2e5fa644","ios":"levelo://app?vid=b67355a2-2710-4d85-a32e-96da2e5fa644"},"vehicle_type_id":"4","last_reported":1704229584,"current_range_meters":23200,"station_id":"ce4bgqh2rcd13ifvqc4g","pricing_plan_id":"free"},{"bike_id":"51f6610a-f1e7-4cf1-a66a-fd8ace52c464","system_id":"levelo_inurba_marseille","lat":43.305989,"lon":5.37225,"is_reserved":false,"is_disabled":false,"rental_uris":{"android":"levelo://app?vid=51f6610a-f1e7-4cf1-a66a-fd8ace52c464","ios":"levelo://app?vid=51f6610a-f1e7-4cf1-a66a-fd8ace52c464"},"vehicle_type_id":"4","last_reported":1704229584,"current_range_meters":26000,"station_id":"ce4bgqh2rcd13ifvqc4g","pricing_plan_id":"free"},{"bike_id":"3eba7ecc-f935-4c5b-b118-f1cbfb940304","system_id":"levelo_inurba_marseille","lat":43.311131,"lon":5.377651,"is_reserved":false,"is_disabled":false,"rental_uris":{"android":"levelo://app?vid=3eba7ecc-f935-4c5b-b118-f1cbfb940304","ios":"levelo://app?vid=3eba7ecc-f935-4c5b-b118-f1cbfb940304"},"vehicle_type_id":"4","last_reported":1704229584,"current_range_meters":22000,"station_id":"ce4bgt92rcd13ifvqcg0","pricing_plan_id":"free"},{"bike_id":"94b5725e-4db9-425e-b494-5fa36b1de2cd","system_id":"levelo_inurba_marseille","lat":43.311131,"lon":5.377651,"is_reserved":false,"is_disabled":false,"rental_uris":{"android":"levelo://app?vid=94b5725e-4db9-425e-b494-5fa36b1de2cd","ios":"levelo://app?vid=94b5725e-4db9-425e-b494-5fa36b1de2cd"},"vehicle_type_id":"4","last_reported":1704229584,"current_range_meters":27600,"station_id":"ce4bgt92rcd13ifvqcg0","pricing_plan_id":"free"},{"bike_id":"f79f74eb-d6d1-44cf-bc5b-4bebecf35b4e","system_id":"levelo_inurba_marseille","lat":43.307945,"lon":5.376487,"is_reserved":false,"is_disabled":false,"rental_uris":{"android":"levelo://app?vid=f79f74eb-d6d1-44cf-bc5b-4bebecf35b4e","ios":"levelo://app?vid=f79f74eb-d6d1-44cf-bc5b-4bebecf35b4e"},"vehicle_type_id":"4","last_reported":1704229584,"current_range_meters":5200,"station_id":"ce4bgv92rcd13ifvqcq0","pricing_plan_id":"free"},{"bike_id":"25af9e1c-886c-4f64-92f2-5ca68e46ae4a","system_id":"levelo_inurba_marseille","lat":43.31722,"lon":5.37668,"is_reserved":false,"is_disabled":false,"rental_uris":{"android":"levelo://app?vid=25af9e1c-886c-4f64-92f2-5ca68e46ae4a","ios":"levelo://app?vid=25af9e1c-886c-4f64-92f2-5ca68e46ae4a"},"vehicle_type_id":"4","last_reported":1704229584,"current_range_meters":13200,"station_id":"","pricing_plan_id":"free"},{"bike_id":"5b1f5aa2-72db-4746-9c78-8f99e72b8e4f","system_id":"levelo_inurba_marseille","lat":43.307945,"lon":5.376487,"is_reserved":false,"is_disabled":false,"rental_uris":{"android":"levelo://app?vid=5b1f5aa2-72db-4746-9c78-8f99e72b8e4f","ios":"levelo://app?vid=5b1f5aa2-72db-4746-9c78-8f99e72b8e4f"},"vehicle_type_id":"4","last_reported":1704229584,"current_range_meters":18000,"station_id":"ce4bgv92rcd13ifvqcq0","pricing_plan_id":"free"},{"bike_id":"377c8254-82f4-487c-b5e0-397493086885","system_id":"levelo_inurba_marseille","lat":43.307945,"lon":5.376487,"is_reserved":false,"is_disabled":false,"rental_uris":{"android":"levelo://app?vid=377c8254-82f4-487c-b5e0-397493086885","ios":"levelo://app?vid=377c8254-82f4-487c-b5e0-397493086885"},"vehicle_type_id":"4","last_reported":1704229584,"current_range_meters":28400,"station_id":"ce4bgv92rcd13ifvqcq0","pricing_plan_id":"free"},{"bike_id":"0f6bc925-3f6d-49ee-9d89-6c03e52f46af","system_id":"levelo_inurba_marseille","lat":43.31521,"lon":5.3804,"is_reserved":false,"is_disabled":false,"rental_uris":{"android":"levelo://app?vid=0f6bc925-3f6d-49ee-9d89-6c03e52f46af","ios":"levelo://app?vid=0f6bc925-3f6d-49ee-9d89-6c03e52f46af"},"vehicle_type_id":"4","last_reported":1704229584,"current_range_meters":24400,"station_id":"ce4bhsp2rcd13ifvqi50","pricing_plan_id":"free"},{"bike_id":"7437da4f-60f9-4c4e-8610-7f28098550a8","system_id":"levelo_inurba_marseille","lat":43.301939,"lon":5.366286,"is_reserved":false,"is_disabled":false,"rental_uris":{"android":"levelo://app?vid=7437da4f-60f9-4c4e-8610-7f28098550a8","ios":"levelo://app?vid=7437da4f-60f9-4c4e-8610-7f28098550a8"},"vehicle_type_id":"4","last_reported":1704229584,"current_range_meters":31600,"station_id":"ce4bgrh2rcd13ifvqc8g","pricing_plan_id":"free"},{"bike_id":"72e6da57-e363-4c7e-9695-92c9db75123e","system_id":"levelo_inurba_marseille","lat":43.308012,"lon":5.381511,"is_reserved":false,"is_disabled":false,"rental_uris":{"android":"levelo://app?vid=72e6da57-e363-4c7e-9695-92c9db75123e","ios":"levelo://app?vid=72e6da57-e363-4c7e-9695-92c9db75123e"},"vehicle_type_id":"4","last_reported":1704229584,"current_range_meters":21200,"station_id":"ce4bgt12rcd13ifvqce0","pricing_plan_id":"free"},{"bike_id":"2e962a94-bd7d-4c6c-a2fb-efe33353f35d","system_id":"levelo_inurba_marseille","lat":43.308012,"lon":5.381511,"is_reserved":false,"is_disabled":false,"rental_uris":{"android":"levelo://app?vid=2e962a94-bd7d-4c6c-a2fb-efe33353f35d","ios":"levelo://app?vid=2e962a94-bd7d-4c6c-a2fb-efe33353f35d"},"vehicle_type_id":"4","last_reported":1704229584,"current_range_meters":3200,"station_id":"ce4bgt12rcd13ifvqce0","pricing_plan_id":"free"},{"bike_id":"f884ccca-e0a2-4394-8f85-374ec39c7753","system_id":"levelo_inurba_marseille","lat":43.308012,"lon":5.381511,"is_reserved":false,"is_disabled":false,"rental_uris":{"android":"levelo://app?vid=f884ccca-e0a2-4394-8f85-374ec39c7753","ios":"levelo://app?vid=f884ccca-e0a2-4394-8f85-374ec39c7753"},"vehicle_type_id":"4","last_reported":1704229584,"current_range_meters":28000,"station_id":"ce4bgt12rcd13ifvqce0","pricing_plan_id":"free"},{"bike_id":"92f2bb19-9024-4482-90e2-8d317b55e19d","system_id":"levelo_inurba_marseille","lat":43.304708,"lon":5.379038,"is_reserved":false,"is_disabled":false,"rental_uris":{"android":"levelo://app?vid=92f2bb19-9024-4482-90e2-8d317b55e19d","ios":"levelo://app?vid=92f2bb19-9024-4482-90e2-8d317b55e19d"},"vehicle_type_id":"4","last_reported":1704229584,"current_range_meters":7600,"station_id":"ce4bgup2rcd13ifvqcn0","pricing_plan_id":"free"},{"bike_id":"5377074b-30e2-4d67-825b-9deb3b1dbed3","system_id":"levelo_inurba_marseille","lat":43.304708,"lon":5.379039,"is_reserved":false,"is_disabled":false,"rental_uris":{"android":"levelo://app?vid=5377074b-30e2-4d67-825b-9deb3b1dbed3","ios":"levelo://app?vid=5377074b-30e2-4d67-825b-9deb3b1dbed3"},"vehicle_type_id":"4","last_reported":1704229584,"current_range_meters":9600,"station_id":"","pricing_plan_id":"free"},{"bike_id":"4fd61088-6c40-4a9a-be8f-a9eb5ec82138","system_id":"levelo_inurba_marseille","lat":43.319935,"lon":5.381699,"is_reserved":false,"is_disabled":false,"rental_uris":{"android":"levelo://app?vid=4fd61088-6c40-4a9a-be8f-a9eb5ec82138","ios":"levelo://app?vid=4fd61088-6c40-4a9a-be8f-a9eb5ec82138"},"vehicle_type_id":"4","last_reported":1704229584,"current_range_meters":14000,"station_id":"ce4bhr12rcd13ifvqhpg","pricing_plan_id":"free"},{"bike_id":"46c55e44-38ac-4c19-9373-8a3342a01177","system_id":"levelo_inurba_marseille","lat":43.31302,"lon":5.385,"is_reserved":false,"is_disabled":false,"rental_uris":{"android":"levelo://app?vid=46c55e44-38ac-4c19-9373-8a3342a01177","ios":"levelo://app?vid=46c55e44-38ac-4c19-9373-8a3342a01177"},"vehicle_type_id":"4","last_reported":1704229584,"current_range_meters":14400,"station_id":"","pricing_plan_id":"free"},{"bike_id":"d60c186d-8dd5-4367-932d-c10a72aed291","system_id":"levelo_inurba_marseille","lat":43.313571,"lon":5.384829,"is_reserved":false,"is_disabled":false,"rental_uris":{"android":"levelo://app?vid=d60c186d-8dd5-4367-932d-c10a72aed291","ios":"levelo://app?vid=d60c186d-8dd5-4367-932d-c10a72aed291"},"vehicle_type_id":"4","last_reported":1704229584,"current_range_meters":22000,"station_id":"ce4bgt92rcd13ifvqcf0","pricing_plan_id":"free"},{"bike_id":"918b0c4f-9f90-4a33-8454-b6b062a47494","system_id":"levelo_inurba_marseille","lat":43.313571,"lon":5.384829,"is_reserved":false,"is_disabled":false,"rental_uris":{"android":"levelo://app?vid=918b0c4f-9f90-4a33-8454-b6b062a47494","ios":"levelo://app?vid=918b0c4f-9f90-4a33-8454-b6b062a47494"},"vehicle_type_id":"4","last_reported":1704229584,"current_range_meters":12400,"station_id":"ce4bgt92rcd13ifvqcf0","pricing_plan_id":"free"},{"bike_id":"17504bde-947a-4cd6-98b3-9a4c66aca99b","system_id":"levelo_inurba_marseille","lat":43.313827,"lon":5.385007,"is_reserved":false,"is_disabled":false,"rental_uris":{"android":"levelo://app?vid=17504bde-947a-4cd6-98b3-9a4c66aca99b","ios":"levelo://app?vid=17504bde-947a-4cd6-98b3-9a4c66aca99b"},"vehicle_type_id":"4","last_reported":1704229584,"current_range_meters":19600,"station_id":"ce4bgt92rcd13ifvqcf0","pricing_plan_id":"free"},{"bike_id":"e5573ed6-a4d6-4737-8acc-e585b57e0427","system_id":"levelo_inurba_marseille","lat":43.313571,"lon":5.384829,"is_reserved":false,"is_disabled":false,"rental_uris":{"android":"levelo://app?vid=e5573ed6-a4d6-4737-8acc-e585b57e0427","ios":"levelo://app?vid=e5573ed6-a4d6-4737-8acc-e585b57e0427"},"vehicle_type_id":"4","last_reported":1704229584,"current_range_meters":1200,"station_id":"ce4bgt92rcd13ifvqcf0","pricing_plan_id":"free"},{"bike_id":"7048b17d-088a-487a-9730-fc5e75c7a1ec","system_id":"levelo_inurba_marseille","lat":43.313571,"lon":5.384829,"is_reserved":false,"is_disabled":false,"rental_uris":{"android":"levelo://app?vid=7048b17d-088a-487a-9730-fc5e75c7a1ec","ios":"levelo://app?vid=7048b17d-088a-487a-9730-fc5e75c7a1ec"},"vehicle_type_id":"4","last_reported":1704229584,"current_range_meters":22000,"station_id":"ce4bgt92rcd13ifvqcf0","pricing_plan_id":"free"},{"bike_id":"ea8dd7d5-08f4-413f-bff9-8f3c1a713d75","system_id":"levelo_inurba_marseille","lat":43.313571,"lon":5.384829,"is_reserved":false,"is_disabled":false,"rental_uris":{"android":"levelo://app?vid=ea8dd7d5-08f4-413f-bff9-8f3c1a713d75","ios":"levelo://app?vid=ea8dd7d5-08f4-413f-bff9-8f3c1a713d75"},"vehicle_type_id":"4","last_reported":1704229584,"current_range_meters":800,"station_id":"ce4bgt92rcd13ifvqcf0","pricing_plan_id":"free"},{"bike_id":"2db87c88-e576-4960-b756-94fdeffbbfdd","system_id":"levelo_inurba_marseille","lat":43.299222,"lon":5.365554,"is_reserved":false,"is_disabled":false,"rental_uris":{"android":"levelo://app?vid=2db87c88-e576-4960-b756-94fdeffbbfdd","ios":"levelo://app?vid=2db87c88-e576-4960-b756-94fdeffbbfdd"},"vehicle_type_id":"4","last_reported":1704229584,"current_range_meters":14800,"station_id":"ce4bgm92rcd13ifvqbr0","pricing_plan_id":"free"},{"bike_id":"ab91c59d-cb60-4786-b67d-2957dfe43dc1","system_id":"levelo_inurba_marseille","lat":43.298433,"lon":5.362774,"is_reserved":false,"is_disabled":false,"rental_uris":{"android":"levelo://app?vid=ab91c59d-cb60-4786-b67d-2957dfe43dc1","ios":"levelo://app?vid=ab91c59d-cb60-4786-b67d-2957dfe43dc1"},"vehicle_type_id":"4","last_reported":1704229584,"current_range_meters":27200,"station_id":"ce4bgpp2rcd13ifvqc3g","pricing_plan_id":"free"},{"bike_id":"38d45fe3-c81a-41b1-beb2-ac02bf76c25d","system_id":"levelo_inurba_marseille","lat":43.311722,"lon":5.387247,"is_reserved":false,"is_disabled":false,"rental_uris":{"android":"levelo://app?vid=38d45fe3-c81a-41b1-beb2-ac02bf76c25d","ios":"levelo://app?vid=38d45fe3-c81a-41b1-beb2-ac02bf76c25d"},"vehicle_type_id":"4","last_reported":1704229584,"current_range_meters":20400,"station_id":"ce4bgv12rcd13ifvqcp0","pricing_plan_id":"free"},{"bike_id":"55ef0d3a-76db-43f2-a8fc-7d1979f095e7","system_id":"levelo_inurba_marseille","lat":43.311722,"lon":5.387247,"is_reserved":false,"is_disabled":false,"rental_uris":{"android":"levelo://app?vid=55ef0d3a-76db-43f2-a8fc-7d1979f095e7","ios":"levelo://app?vid=55ef0d3a-76db-43f2-a8fc-7d1979f095e7"},"vehicle_type_id":"4","last_reported":1704229584,"current_range_meters":13600,"station_id":"ce4bgv12rcd13ifvqcp0","pricing_plan_id":"free"},{"bike_id":"9e316ee8-7f02-4c13-8183-4d9c57cafd93","system_id":"levelo_inurba_marseille","lat":43.311722,"lon":5.387247,"is_reserved":false,"is_disabled":false,"rental_uris":{"android":"levelo://app?vid=9e316ee8-7f02-4c13-8183-4d9c57cafd93","ios":"levelo://app?vid=9e316ee8-7f02-4c13-8183-4d9c57cafd93"},"vehicle_type_id":"4","last_reported":1704229584,"current_range_meters":22000,"station_id":"ce4bgv12rcd13ifvqcp0","pricing_plan_id":"free"},{"bike_id":"302bbdd7-6967-4b54-9cb9-e7551a131cf0","system_id":"levelo_inurba_marseille","lat":43.311722,"lon":5.387247,"is_reserved":false,"is_disabled":false,"rental_uris":{"android":"levelo://app?vid=302bbdd7-6967-4b54-9cb9-e7551a131cf0","ios":"levelo://app?vid=302bbdd7-6967-4b54-9cb9-e7551a131cf0"},"vehicle_type_id":"4","last_reported":1704229584,"current_range_meters":10800,"station_id":"ce4bgv12rcd13ifvqcp0","pricing_plan_id":"free"},{"bike_id":"309bd82c-59cf-4e46-88b1-ff9890441619","system_id":"levelo_inurba_marseille","lat":43.311722,"lon":5.387247,"is_reserved":false,"is_disabled":false,"rental_uris":{"android":"levelo://app?vid=309bd82c-59cf-4e46-88b1-ff9890441619","ios":"levelo://app?vid=309bd82c-59cf-4e46-88b1-ff9890441619"},"vehicle_type_id":"4","last_reported":1704229584,"current_range_meters":3600,"station_id":"ce4bgv12rcd13ifvqcp0","pricing_plan_id":"free"},{"bike_id":"b0c1a9e7-56dc-4b8d-b008-70e58612174a","system_id":"levelo_inurba_marseille","lat":43.311722,"lon":5.387247,"is_reserved":false,"is_disabled":false,"rental_uris":{"android":"levelo://app?vid=b0c1a9e7-56dc-4b8d-b008-70e58612174a","ios":"levelo://app?vid=b0c1a9e7-56dc-4b8d-b008-70e58612174a"},"vehicle_type_id":"4","last_reported":1704229584,"current_range_meters":12000,"station_id":"ce4bgv12rcd13ifvqcp0","pricing_plan_id":"free"},{"bike_id":"c2e37c1a-0678-4f11-a1e2-2f3c1cf93638","system_id":"levelo_inurba_marseille","lat":43.311722,"lon":5.387247,"is_reserved":false,"is_disabled":false,"rental_uris":{"android":"levelo://app?vid=c2e37c1a-0678-4f11-a1e2-2f3c1cf93638","ios":"levelo://app?vid=c2e37c1a-0678-4f11-a1e2-2f3c1cf93638"},"vehicle_type_id":"4","last_reported":1704229584,"current_range_meters":11600,"station_id":"ce4bgv12rcd13ifvqcp0","pricing_plan_id":"free"},{"bike_id":"a860ee3b-0d14-4f2e-b915-5c86078b558a","system_id":"levelo_inurba_marseille","lat":43.311722,"lon":5.387247,"is_reserved":false,"is_disabled":false,"rental_uris":{"android":"levelo://app?vid=a860ee3b-0d14-4f2e-b915-5c86078b558a","ios":"levelo://app?vid=a860ee3b-0d14-4f2e-b915-5c86078b558a"},"vehicle_type_id":"4","last_reported":1704229584,"current_range_meters":21200,"station_id":"ce4bgv12rcd13ifvqcp0","pricing_plan_id":"free"},{"bike_id":"32017a6d-23ea-40ad-9cae-c15467ecc4b1","system_id":"levelo_inurba_marseille","lat":43.311722,"lon":5.387247,"is_reserved":false,"is_disabled":false,"rental_uris":{"android":"levelo://app?vid=32017a6d-23ea-40ad-9cae-c15467ecc4b1","ios":"levelo://app?vid=32017a6d-23ea-40ad-9cae-c15467ecc4b1"},"vehicle_type_id":"4","last_reported":1704229584,"current_range_meters":10800,"station_id":"ce4bgv12rcd13ifvqcp0","pricing_plan_id":"free"},{"bike_id":"9108a465-9635-4eec-bd75-f8031a6d05ed","system_id":"levelo_inurba_marseille","lat":43.311722,"lon":5.387247,"is_reserved":false,"is_disabled":false,"rental_uris":{"android":"levelo://app?vid=9108a465-9635-4eec-bd75-f8031a6d05ed","ios":"levelo://app?vid=9108a465-9635-4eec-bd75-f8031a6d05ed"},"vehicle_type_id":"4","last_reported":1704229584,"current_range_meters":22800,"station_id":"ce4bgv12rcd13ifvqcp0","pricing_plan_id":"free"},{"bike_id":"3b379c4a-a87a-42b2-b7a1-deaf312adf2a","system_id":"levelo_inurba_marseille","lat":43.311722,"lon":5.387247,"is_reserved":false,"is_disabled":false,"rental_uris":{"android":"levelo://app?vid=3b379c4a-a87a-42b2-b7a1-deaf312adf2a","ios":"levelo://app?vid=3b379c4a-a87a-42b2-b7a1-deaf312adf2a"},"vehicle_type_id":"4","last_reported":1704229584,"current_range_meters":24400,"station_id":"ce4bgv12rcd13ifvqcp0","pricing_plan_id":"free"},{"bike_id":"f629bdd7-11a7-4b7c-9182-6332f4076f6b","system_id":"levelo_inurba_marseille","lat":43.325517,"lon":5.377383,"is_reserved":false,"is_disabled":false,"rental_uris":{"android":"levelo://app?vid=f629bdd7-11a7-4b7c-9182-6332f4076f6b","ios":"levelo://app?vid=f629bdd7-11a7-4b7c-9182-6332f4076f6b"},"vehicle_type_id":"4","last_reported":1704229584,"current_range_meters":17600,"station_id":"","pricing_plan_id":"free"},{"bike_id":"926a1caf-2164-42c0-93f6-8cacf423c384","system_id":"levelo_inurba_marseille","lat":43.297794,"lon":5.370888,"is_reserved":false,"is_disabled":false,"rental_uris":{"android":"levelo://app?vid=926a1caf-2164-42c0-93f6-8cacf423c384","ios":"levelo://app?vid=926a1caf-2164-42c0-93f6-8cacf423c384"},"vehicle_type_id":"4","last_reported":1704229584,"current_range_meters":4800,"station_id":"ce4bgop2rcd13ifvqc1g","pricing_plan_id":"free"},{"bike_id":"8c6bdf02-a0f4-4369-bde2-2d78ebb33537","system_id":"levelo_inurba_marseille","lat":43.322872,"lon":5.382756,"is_reserved":false,"is_disabled":false,"rental_uris":{"android":"levelo://app?vid=8c6bdf02-a0f4-4369-bde2-2d78ebb33537","ios":"levelo://app?vid=8c6bdf02-a0f4-4369-bde2-2d78ebb33537"},"vehicle_type_id":"4","last_reported":1704229584,"current_range_meters":20000,"station_id":"ce4bhr12rcd13ifvqhqg","pricing_plan_id":"free"},{"bike_id":"7119f263-c5ca-4882-8f31-b96126972ee4","system_id":"levelo_inurba_marseille","lat":43.297794,"lon":5.370888,"is_reserved":false,"is_disabled":false,"rental_uris":{"android":"levelo://app?vid=7119f263-c5ca-4882-8f31-b96126972ee4","ios":"levelo://app?vid=7119f263-c5ca-4882-8f31-b96126972ee4"},"vehicle_type_id":"4","last_reported":1704229584,"current_range_meters":24400,"station_id":"ce4bgop2rcd13ifvqc1g","pricing_plan_id":"free"},{"bike_id":"8752a032-5a63-4551-8b69-590b5f45408e","system_id":"levelo_inurba_marseille","lat":43.322872,"lon":5.382756,"is_reserved":false,"is_disabled":false,"rental_uris":{"android":"levelo://app?vid=8752a032-5a63-4551-8b69-590b5f45408e","ios":"levelo://app?vid=8752a032-5a63-4551-8b69-590b5f45408e"},"vehicle_type_id":"4","last_reported":1704229584,"current_range_meters":24800,"station_id":"ce4bhr12rcd13ifvqhqg","pricing_plan_id":"free"},{"bike_id":"e25879d8-1688-47e8-8a17-f3fd5e5877cc","system_id":"levelo_inurba_marseille","lat":43.328371,"lon":5.366912,"is_reserved":false,"is_disabled":false,"rental_uris":{"android":"levelo://app?vid=e25879d8-1688-47e8-8a17-f3fd5e5877cc","ios":"levelo://app?vid=e25879d8-1688-47e8-8a17-f3fd5e5877cc"},"vehicle_type_id":"4","last_reported":1704229584,"current_range_meters":8800,"station_id":"ce4bhs92rcd13ifvqi0g","pricing_plan_id":"free"},{"bike_id":"db9a3172-0444-44e1-98b7-ca7a2f84f3e8","system_id":"levelo_inurba_marseille","lat":43.328371,"lon":5.366912,"is_reserved":false,"is_disabled":false,"rental_uris":{"android":"levelo://app?vid=db9a3172-0444-44e1-98b7-ca7a2f84f3e8","ios":"levelo://app?vid=db9a3172-0444-44e1-98b7-ca7a2f84f3e8"},"vehicle_type_id":"4","last_reported":1704229584,"current_range_meters":22400,"station_id":"ce4bhs92rcd13ifvqi0g","pricing_plan_id":"free"},{"bike_id":"2c34cac5-58a3-4ec6-a51a-0e680d5b2c4e","system_id":"levelo_inurba_marseille","lat":43.328371,"lon":5.366912,"is_reserved":false,"is_disabled":false,"rental_uris":{"android":"levelo://app?vid=2c34cac5-58a3-4ec6-a51a-0e680d5b2c4e","ios":"levelo://app?vid=2c34cac5-58a3-4ec6-a51a-0e680d5b2c4e"},"vehicle_type_id":"4","last_reported":1704229584,"current_range_meters":18400,"station_id":"ce4bhs92rcd13ifvqi0g","pricing_plan_id":"free"},{"bike_id":"2b06df78-a4c1-486a-a736-ddc81ebff8e0","system_id":"levelo_inurba_marseille","lat":43.328371,"lon":5.366912,"is_reserved":false,"is_disabled":false,"rental_uris":{"android":"levelo://app?vid=2b06df78-a4c1-486a-a736-ddc81ebff8e0","ios":"levelo://app?vid=2b06df78-a4c1-486a-a736-ddc81ebff8e0"},"vehicle_type_id":"4","last_reported":1704229584,"current_range_meters":10400,"station_id":"ce4bhs92rcd13ifvqi0g","pricing_plan_id":"free"},{"bike_id":"98fd740c-da1c-45aa-a4bb-91192fa701c6","system_id":"levelo_inurba_marseille","lat":43.328371,"lon":5.366912,"is_reserved":false,"is_disabled":false,"rental_uris":{"android":"levelo://app?vid=98fd740c-da1c-45aa-a4bb-91192fa701c6","ios":"levelo://app?vid=98fd740c-da1c-45aa-a4bb-91192fa701c6"},"vehicle_type_id":"4","last_reported":1704229584,"current_range_meters":10400,"station_id":"ce4bhs92rcd13ifvqi0g","pricing_plan_id":"free"},{"bike_id":"f206342c-38bc-4948-a4e1-517e8437b144","system_id":"levelo_inurba_marseille","lat":43.328371,"lon":5.366912,"is_reserved":false,"is_disabled":false,"rental_uris":{"android":"levelo://app?vid=f206342c-38bc-4948-a4e1-517e8437b144","ios":"levelo://app?vid=f206342c-38bc-4948-a4e1-517e8437b144"},"vehicle_type_id":"4","last_reported":1704229584,"current_range_meters":10800,"station_id":"ce4bhs92rcd13ifvqi0g","pricing_plan_id":"free"},{"bike_id":"370cccf7-c9ba-46c2-819b-c8e8cacc4c21","system_id":"levelo_inurba_marseille","lat":43.3277,"lon":5.37458,"is_reserved":false,"is_disabled":false,"rental_uris":{"android":"levelo://app?vid=370cccf7-c9ba-46c2-819b-c8e8cacc4c21","ios":"levelo://app?vid=370cccf7-c9ba-46c2-819b-c8e8cacc4c21"},"vehicle_type_id":"4","last_reported":1704229584,"current_range_meters":7600,"station_id":"","pricing_plan_id":"free"},{"bike_id":"89373544-1011-429c-a352-0620da4bd70a","system_id":"levelo_inurba_marseille","lat":43.29624,"lon":5.3717,"is_reserved":false,"is_disabled":false,"rental_uris":{"android":"levelo://app?vid=89373544-1011-429c-a352-0620da4bd70a","ios":"levelo://app?vid=89373544-1011-429c-a352-0620da4bd70a"},"vehicle_type_id":"4","last_reported":1704229584,"current_range_meters":25200,"station_id":"ce4bgnh2rcd13ifvqc0g","pricing_plan_id":"free"},{"bike_id":"3f26fecc-85d8-4350-a40c-fc3f9fcf0cc2","system_id":"levelo_inurba_marseille","lat":43.296129,"lon":5.370777,"is_reserved":false,"is_disabled":false,"rental_uris":{"android":"levelo://app?vid=3f26fecc-85d8-4350-a40c-fc3f9fcf0cc2","ios":"levelo://app?vid=3f26fecc-85d8-4350-a40c-fc3f9fcf0cc2"},"vehicle_type_id":"4","last_reported":1704229584,"current_range_meters":10000,"station_id":"ce4bgnh2rcd13ifvqc0g","pricing_plan_id":"free"},{"bike_id":"56ab9998-8e70-42b8-8a9c-db9eb9bfbd53","system_id":"levelo_inurba_marseille","lat":43.309589,"lon":5.390258,"is_reserved":false,"is_disabled":false,"rental_uris":{"android":"levelo://app?vid=56ab9998-8e70-42b8-8a9c-db9eb9bfbd53","ios":"levelo://app?vid=56ab9998-8e70-42b8-8a9c-db9eb9bfbd53"},"vehicle_type_id":"4","last_reported":1704229584,"current_range_meters":12400,"station_id":"ce4bgup2rcd13ifvqco0","pricing_plan_id":"free"},{"bike_id":"d30892ed-fff9-452b-8e88-40c42bdd8755","system_id":"levelo_inurba_marseille","lat":43.317557,"lon":5.390173,"is_reserved":false,"is_disabled":false,"rental_uris":{"android":"levelo://app?vid=d30892ed-fff9-452b-8e88-40c42bdd8755","ios":"levelo://app?vid=d30892ed-fff9-452b-8e88-40c42bdd8755"},"vehicle_type_id":"4","last_reported":1704229584,"current_range_meters":11600,"station_id":"ce4bhqp2rcd13ifvqhng","pricing_plan_id":"free"},{"bike_id":"0eb73cc6-5f0c-4ec4-a733-5a219c159f57","system_id":"levelo_inurba_marseille","lat":43.317557,"lon":5.390173,"is_reserved":false,"is_disabled":false,"rental_uris":{"android":"levelo://app?vid=0eb73cc6-5f0c-4ec4-a733-5a219c159f57","ios":"levelo://app?vid=0eb73cc6-5f0c-4ec4-a733-5a219c159f57"},"vehicle_type_id":"4","last_reported":1704229584,"current_range_meters":31200,"station_id":"ce4bhqp2rcd13ifvqhng","pricing_plan_id":"free"},{"bike_id":"e9dfd98d-d24d-47aa-9523-919ae7c8a368","system_id":"levelo_inurba_marseille","lat":43.317557,"lon":5.390173,"is_reserved":false,"is_disabled":false,"rental_uris":{"android":"levelo://app?vid=e9dfd98d-d24d-47aa-9523-919ae7c8a368","ios":"levelo://app?vid=e9dfd98d-d24d-47aa-9523-919ae7c8a368"},"vehicle_type_id":"4","last_reported":1704229584,"current_range_meters":2000,"station_id":"ce4bhqp2rcd13ifvqhng","pricing_plan_id":"free"},{"bike_id":"ddb8f620-eee6-447b-9f26-57a6d8a7834a","system_id":"levelo_inurba_marseille","lat":43.31755,"lon":5.39028,"is_reserved":false,"is_disabled":false,"rental_uris":{"android":"levelo://app?vid=ddb8f620-eee6-447b-9f26-57a6d8a7834a","ios":"levelo://app?vid=ddb8f620-eee6-447b-9f26-57a6d8a7834a"},"vehicle_type_id":"4","last_reported":1704229584,"current_range_meters":5200,"station_id":"ce4bhqp2rcd13ifvqhng","pricing_plan_id":"free"},{"bike_id":"7c12c8b5-6c55-4638-ae3a-812a2d2cb453","system_id":"levelo_inurba_marseille","lat":43.295748,"lon":5.37522,"is_reserved":false,"is_disabled":false,"rental_uris":{"android":"levelo://app?vid=7c12c8b5-6c55-4638-ae3a-812a2d2cb453","ios":"levelo://app?vid=7c12c8b5-6c55-4638-ae3a-812a2d2cb453"},"vehicle_type_id":"4","last_reported":1704229584,"current_range_meters":0,"station_id":"ce4bgh92rcd13ifvqb50","pricing_plan_id":"free"},{"bike_id":"d60802d6-4f47-444a-b234-883690eec05b","system_id":"levelo_inurba_marseille","lat":43.33062,"lon":5.3627,"is_reserved":false,"is_disabled":false,"rental_uris":{"android":"levelo://app?vid=d60802d6-4f47-444a-b234-883690eec05b","ios":"levelo://app?vid=d60802d6-4f47-444a-b234-883690eec05b"},"vehicle_type_id":"4","last_reported":1704229584,"current_range_meters":14400,"station_id":"","pricing_plan_id":"free"},{"bike_id":"f67b4ce4-0c9c-4cd2-b119-b472dfee5204","system_id":"levelo_inurba_marseille","lat":43.29538,"lon":5.375,"is_reserved":false,"is_disabled":false,"rental_uris":{"android":"levelo://app?vid=f67b4ce4-0c9c-4cd2-b119-b472dfee5204","ios":"levelo://app?vid=f67b4ce4-0c9c-4cd2-b119-b472dfee5204"},"vehicle_type_id":"4","last_reported":1704229584,"current_range_meters":20800,"station_id":"ce4bgi92rcd13ifvqb90","pricing_plan_id":"free"},{"bike_id":"7119845d-00aa-4d9f-be8c-fc97d41f1380","system_id":"levelo_inurba_marseille","lat":43.297594,"lon":5.381134,"is_reserved":false,"is_disabled":false,"rental_uris":{"android":"levelo://app?vid=7119845d-00aa-4d9f-be8c-fc97d41f1380","ios":"levelo://app?vid=7119845d-00aa-4d9f-be8c-fc97d41f1380"},"vehicle_type_id":"4","last_reported":1704229584,"current_range_meters":2800,"station_id":"ce4bgip2rcd13ifvqbb0","pricing_plan_id":"free"},{"bike_id":"74a229bc-114b-4c48-b891-39a55deb7a18","system_id":"levelo_inurba_marseille","lat":43.32367,"lon":5.388836,"is_reserved":false,"is_disabled":false,"rental_uris":{"android":"levelo://app?vid=74a229bc-114b-4c48-b891-39a55deb7a18","ios":"levelo://app?vid=74a229bc-114b-4c48-b891-39a55deb7a18"},"vehicle_type_id":"4","last_reported":1704229584,"current_range_meters":24400,"station_id":"ce4bhqp2rcd13ifvqhog","pricing_plan_id":"free"},{"bike_id":"6e1cfaf3-c919-4223-a34d-ab2a56b53bd4","system_id":"levelo_inurba_marseille","lat":43.32367,"lon":5.38878,"is_reserved":false,"is_disabled":false,"rental_uris":{"android":"levelo://app?vid=6e1cfaf3-c919-4223-a34d-ab2a56b53bd4","ios":"levelo://app?vid=6e1cfaf3-c919-4223-a34d-ab2a56b53bd4"},"vehicle_type_id":"4","last_reported":1704229584,"current_range_meters":0,"station_id":"ce4bhqp2rcd13ifvqhog","pricing_plan_id":"free"},{"bike_id":"2826100b-e30d-4c47-bda3-9b8cbf3e5cf7","system_id":"levelo_inurba_marseille","lat":43.32367,"lon":5.388836,"is_reserved":false,"is_disabled":false,"rental_uris":{"android":"levelo://app?vid=2826100b-e30d-4c47-bda3-9b8cbf3e5cf7","ios":"levelo://app?vid=2826100b-e30d-4c47-bda3-9b8cbf3e5cf7"},"vehicle_type_id":"4","last_reported":1704229584,"current_range_meters":2000,"station_id":"ce4bhqp2rcd13ifvqhog","pricing_plan_id":"free"},{"bike_id":"6708a5b5-13c0-4d12-80c0-d3dd5e200e56","system_id":"levelo_inurba_marseille","lat":43.32367,"lon":5.388836,"is_reserved":false,"is_disabled":false,"rental_uris":{"android":"levelo://app?vid=6708a5b5-13c0-4d12-80c0-d3dd5e200e56","ios":"levelo://app?vid=6708a5b5-13c0-4d12-80c0-d3dd5e200e56"},"vehicle_type_id":"4","last_reported":1704229584,"current_range_meters":3200,"station_id":"ce4bhqp2rcd13ifvqhog","pricing_plan_id":"free"},{"bike_id":"2698bcfb-5314-4bbe-9831-92d2b0c2215d","system_id":"levelo_inurba_marseille","lat":43.29601,"lon":5.381084,"is_reserved":false,"is_disabled":false,"rental_uris":{"android":"levelo://app?vid=2698bcfb-5314-4bbe-9831-92d2b0c2215d","ios":"levelo://app?vid=2698bcfb-5314-4bbe-9831-92d2b0c2215d"},"vehicle_type_id":"4","last_reported":1704229584,"current_range_meters":30000,"station_id":"ce4bgl12rcd13ifvqbo0","pricing_plan_id":"free"},{"bike_id":"852edd5e-1dc2-4924-907d-5f0ed0e9a6ca","system_id":"levelo_inurba_marseille","lat":43.293259,"lon":5.371586,"is_reserved":false,"is_disabled":false,"rental_uris":{"android":"levelo://app?vid=852edd5e-1dc2-4924-907d-5f0ed0e9a6ca","ios":"levelo://app?vid=852edd5e-1dc2-4924-907d-5f0ed0e9a6ca"},"vehicle_type_id":"4","last_reported":1704229584,"current_range_meters":0,"station_id":"ce4bgh92rcd13ifvqb40","pricing_plan_id":"free"},{"bike_id":"751437c9-51b7-493a-8bde-aef315bb98f1","system_id":"levelo_inurba_marseille","lat":43.292749,"lon":5.368402,"is_reserved":false,"is_disabled":false,"rental_uris":{"android":"levelo://app?vid=751437c9-51b7-493a-8bde-aef315bb98f1","ios":"levelo://app?vid=751437c9-51b7-493a-8bde-aef315bb98f1"},"vehicle_type_id":"4","last_reported":1704229584,"current_range_meters":0,"station_id":"ce4bhbp2rcd13ifvqesg","pricing_plan_id":"free"},{"bike_id":"0c16783e-b816-4100-b17f-550a06128e22","system_id":"levelo_inurba_marseille","lat":43.2936,"lon":5.37835,"is_reserved":false,"is_disabled":false,"rental_uris":{"android":"levelo://app?vid=0c16783e-b816-4100-b17f-550a06128e22","ios":"levelo://app?vid=0c16783e-b816-4100-b17f-550a06128e22"},"vehicle_type_id":"4","last_reported":1704229584,"current_range_meters":2400,"station_id":"ce4bgjh2rcd13ifvqbf0","pricing_plan_id":"free"},{"bike_id":"429d8474-1034-4820-812c-0358e6d2a2cb","system_id":"levelo_inurba_marseille","lat":43.292311,"lon":5.360731,"is_reserved":false,"is_disabled":false,"rental_uris":{"android":"levelo://app?vid=429d8474-1034-4820-812c-0358e6d2a2cb","ios":"levelo://app?vid=429d8474-1034-4820-812c-0358e6d2a2cb"},"vehicle_type_id":"4","last_reported":1704229584,"current_range_meters":30400,"station_id":"ce4bhbh2rcd13ifvqeqg","pricing_plan_id":"free"},{"bike_id":"d0dbeb73-3b0a-4499-b1c4-d96a0f72659e","system_id":"levelo_inurba_marseille","lat":43.300914,"lon":5.390838,"is_reserved":false,"is_disabled":false,"rental_uris":{"android":"levelo://app?vid=d0dbeb73-3b0a-4499-b1c4-d96a0f72659e","ios":"levelo://app?vid=d0dbeb73-3b0a-4499-b1c4-d96a0f72659e"},"vehicle_type_id":"4","last_reported":1704229584,"current_range_meters":0,"station_id":"ce4bh192rcd13ifvqdb0","pricing_plan_id":"free"},{"bike_id":"6a81b50f-ae4b-4c12-a481-44b003323491","system_id":"levelo_inurba_marseille","lat":43.312916,"lon":5.396755,"is_reserved":false,"is_disabled":false,"rental_uris":{"android":"levelo://app?vid=6a81b50f-ae4b-4c12-a481-44b003323491","ios":"levelo://app?vid=6a81b50f-ae4b-4c12-a481-44b003323491"},"vehicle_type_id":"4","last_reported":1704229584,"current_range_meters":17200,"station_id":"ce4bgvp2rcd13ifvqcu0","pricing_plan_id":"free"},{"bike_id":"20842fd5-a13a-4bf0-8e4e-fbcf56dcf6a4","system_id":"levelo_inurba_marseille","lat":43.291994,"lon":5.357886,"is_reserved":false,"is_disabled":false,"rental_uris":{"android":"levelo://app?vid=20842fd5-a13a-4bf0-8e4e-fbcf56dcf6a4","ios":"levelo://app?vid=20842fd5-a13a-4bf0-8e4e-fbcf56dcf6a4"},"vehicle_type_id":"4","last_reported":1704229584,"current_range_meters":14000,"station_id":"ce4bhb12rcd13ifvqel0","pricing_plan_id":"free"},{"bike_id":"fa48146b-b929-46bc-87fb-86a43b5b982d","system_id":"levelo_inurba_marseille","lat":43.313291,"lon":5.396838,"is_reserved":false,"is_disabled":false,"rental_uris":{"android":"levelo://app?vid=fa48146b-b929-46bc-87fb-86a43b5b982d","ios":"levelo://app?vid=fa48146b-b929-46bc-87fb-86a43b5b982d"},"vehicle_type_id":"4","last_reported":1704229584,"current_range_meters":27200,"station_id":"ce4bgvp2rcd13ifvqcu0","pricing_plan_id":"free"},{"bike_id":"a8ebda3b-af54-4f6d-9de3-3a9ee0f5b286","system_id":"levelo_inurba_marseille","lat":43.291994,"lon":5.357886,"is_reserved":false,"is_disabled":false,"rental_uris":{"android":"levelo://app?vid=a8ebda3b-af54-4f6d-9de3-3a9ee0f5b286","ios":"levelo://app?vid=a8ebda3b-af54-4f6d-9de3-3a9ee0f5b286"},"vehicle_type_id":"4","last_reported":1704229584,"current_range_meters":5200,"station_id":"ce4bhb12rcd13ifvqel0","pricing_plan_id":"free"},{"bike_id":"ce653502-0266-4511-b2b6-55a9b5a10b8a","system_id":"levelo_inurba_marseille","lat":43.29193,"lon":5.35795,"is_reserved":false,"is_disabled":false,"rental_uris":{"android":"levelo://app?vid=ce653502-0266-4511-b2b6-55a9b5a10b8a","ios":"levelo://app?vid=ce653502-0266-4511-b2b6-55a9b5a10b8a"},"vehicle_type_id":"4","last_reported":1704229584,"current_range_meters":800,"station_id":"ce4bhb12rcd13ifvqel0","pricing_plan_id":"free"},{"bike_id":"e8ffd969-92d6-44df-9cef-a36bf78e388a","system_id":"levelo_inurba_marseille","lat":43.313291,"lon":5.396838,"is_reserved":false,"is_disabled":false,"rental_uris":{"android":"levelo://app?vid=e8ffd969-92d6-44df-9cef-a36bf78e388a","ios":"levelo://app?vid=e8ffd969-92d6-44df-9cef-a36bf78e388a"},"vehicle_type_id":"4","last_reported":1704229584,"current_range_meters":11200,"station_id":"ce4bgvp2rcd13ifvqcu0","pricing_plan_id":"free"},{"bike_id":"a034d94e-e5f9-4f3e-b8a5-6d24034f55da","system_id":"levelo_inurba_marseille","lat":43.309038,"lon":5.396546,"is_reserved":false,"is_disabled":false,"rental_uris":{"android":"levelo://app?vid=a034d94e-e5f9-4f3e-b8a5-6d24034f55da","ios":"levelo://app?vid=a034d94e-e5f9-4f3e-b8a5-6d24034f55da"},"vehicle_type_id":"4","last_reported":1704229584,"current_range_meters":20000,"station_id":"ce4bh012rcd13ifvqcv0","pricing_plan_id":"free"},{"bike_id":"d82dc90b-70b7-43ad-ac77-9ca3dfb98c90","system_id":"levelo_inurba_marseille","lat":43.313291,"lon":5.396838,"is_reserved":false,"is_disabled":false,"rental_uris":{"android":"levelo://app?vid=d82dc90b-70b7-43ad-ac77-9ca3dfb98c90","ios":"levelo://app?vid=d82dc90b-70b7-43ad-ac77-9ca3dfb98c90"},"vehicle_type_id":"4","last_reported":1704229584,"current_range_meters":24400,"station_id":"ce4bgvp2rcd13ifvqcu0","pricing_plan_id":"free"},{"bike_id":"964a1b41-bec8-450d-9a5a-3d73d47d159c","system_id":"levelo_inurba_marseille","lat":43.309038,"lon":5.396546,"is_reserved":false,"is_disabled":false,"rental_uris":{"android":"levelo://app?vid=964a1b41-bec8-450d-9a5a-3d73d47d159c","ios":"levelo://app?vid=964a1b41-bec8-450d-9a5a-3d73d47d159c"},"vehicle_type_id":"4","last_reported":1704229584,"current_range_meters":28400,"station_id":"ce4bh012rcd13ifvqcv0","pricing_plan_id":"free"},{"bike_id":"0eaefdc9-d513-4514-8c2f-dccffefb1d21","system_id":"levelo_inurba_marseille","lat":43.29529,"lon":5.385581,"is_reserved":false,"is_disabled":false,"rental_uris":{"android":"levelo://app?vid=0eaefdc9-d513-4514-8c2f-dccffefb1d21","ios":"levelo://app?vid=0eaefdc9-d513-4514-8c2f-dccffefb1d21"},"vehicle_type_id":"4","last_reported":1704229584,"current_range_meters":6000,"station_id":"ce4bgih2rcd13ifvqba0","pricing_plan_id":"free"},{"bike_id":"c923fef6-9ba2-49c2-b893-99aad532f69f","system_id":"levelo_inurba_marseille","lat":43.295323,"lon":5.385472,"is_reserved":false,"is_disabled":false,"rental_uris":{"android":"levelo://app?vid=c923fef6-9ba2-49c2-b893-99aad532f69f","ios":"levelo://app?vid=c923fef6-9ba2-49c2-b893-99aad532f69f"},"vehicle_type_id":"4","last_reported":1704229584,"current_range_meters":16000,"station_id":"ce4bgih2rcd13ifvqba0","pricing_plan_id":"free"},{"bike_id":"07a973df-ceec-4bd2-98ad-531925f1829a","system_id":"levelo_inurba_marseille","lat":43.29529,"lon":5.385581,"is_reserved":false,"is_disabled":false,"rental_uris":{"android":"levelo://app?vid=07a973df-ceec-4bd2-98ad-531925f1829a","ios":"levelo://app?vid=07a973df-ceec-4bd2-98ad-531925f1829a"},"vehicle_type_id":"4","last_reported":1704229584,"current_range_meters":24400,"station_id":"ce4bgih2rcd13ifvqba0","pricing_plan_id":"free"},{"bike_id":"29b76f56-9c5f-4f8b-a465-a582d3fc3e9c","system_id":"levelo_inurba_marseille","lat":43.295273,"lon":5.385467,"is_reserved":false,"is_disabled":false,"rental_uris":{"android":"levelo://app?vid=29b76f56-9c5f-4f8b-a465-a582d3fc3e9c","ios":"levelo://app?vid=29b76f56-9c5f-4f8b-a465-a582d3fc3e9c"},"vehicle_type_id":"4","last_reported":1704229584,"current_range_meters":8400,"station_id":"ce4bgih2rcd13ifvqba0","pricing_plan_id":"free"},{"bike_id":"7970ed44-884e-400b-b320-9cf2c08cde45","system_id":"levelo_inurba_marseille","lat":43.29526,"lon":5.3855,"is_reserved":false,"is_disabled":false,"rental_uris":{"android":"levelo://app?vid=7970ed44-884e-400b-b320-9cf2c08cde45","ios":"levelo://app?vid=7970ed44-884e-400b-b320-9cf2c08cde45"},"vehicle_type_id":"4","last_reported":1704229584,"current_range_meters":1600,"station_id":"ce4bgih2rcd13ifvqba0","pricing_plan_id":"free"},{"bike_id":"42f709e7-b965-49ad-a599-239ab8cf0722","system_id":"levelo_inurba_marseille","lat":43.290676,"lon":5.371613,"is_reserved":false,"is_disabled":false,"rental_uris":{"android":"levelo://app?vid=42f709e7-b965-49ad-a599-239ab8cf0722","ios":"levelo://app?vid=42f709e7-b965-49ad-a599-239ab8cf0722"},"vehicle_type_id":"4","last_reported":1704229584,"current_range_meters":0,"station_id":"ce4bh5p2rcd13ifvqe4g","pricing_plan_id":"free"},{"bike_id":"9f655ae1-4f65-42d6-8612-6ea686351f24","system_id":"levelo_inurba_marseille","lat":43.290779,"lon":5.371482,"is_reserved":false,"is_disabled":false,"rental_uris":{"android":"levelo://app?vid=9f655ae1-4f65-42d6-8612-6ea686351f24","ios":"levelo://app?vid=9f655ae1-4f65-42d6-8612-6ea686351f24"},"vehicle_type_id":"4","last_reported":1704229584,"current_range_meters":29200,"station_id":"ce4bh5p2rcd13ifvqe4g","pricing_plan_id":"free"},{"bike_id":"e19f6c84-8214-41df-8f10-1734b73b204e","system_id":"levelo_inurba_marseille","lat":43.290779,"lon":5.371482,"is_reserved":false,"is_disabled":false,"rental_uris":{"android":"levelo://app?vid=e19f6c84-8214-41df-8f10-1734b73b204e","ios":"levelo://app?vid=e19f6c84-8214-41df-8f10-1734b73b204e"},"vehicle_type_id":"4","last_reported":1704229584,"current_range_meters":14000,"station_id":"ce4bh5p2rcd13ifvqe4g","pricing_plan_id":"free"},{"bike_id":"a3f16aa7-937e-4326-be61-94820f1710ca","system_id":"levelo_inurba_marseille","lat":43.302008,"lon":5.394694,"is_reserved":false,"is_disabled":false,"rental_uris":{"android":"levelo://app?vid=a3f16aa7-937e-4326-be61-94820f1710ca","ios":"levelo://app?vid=a3f16aa7-937e-4326-be61-94820f1710ca"},"vehicle_type_id":"4","last_reported":1704229584,"current_range_meters":31600,"station_id":"ce4bh0p2rcd13ifvqd70","pricing_plan_id":"free"},{"bike_id":"58878144-fa4c-42cc-bb5f-7a5fa7b7e58b","system_id":"levelo_inurba_marseille","lat":43.302008,"lon":5.394694,"is_reserved":false,"is_disabled":false,"rental_uris":{"android":"levelo://app?vid=58878144-fa4c-42cc-bb5f-7a5fa7b7e58b","ios":"levelo://app?vid=58878144-fa4c-42cc-bb5f-7a5fa7b7e58b"},"vehicle_type_id":"4","last_reported":1704229584,"current_range_meters":4800,"station_id":"ce4bh0p2rcd13ifvqd70","pricing_plan_id":"free"},{"bike_id":"ba7fc896-8154-4fc2-9c7b-b437db5c8626","system_id":"levelo_inurba_marseille","lat":43.302008,"lon":5.394694,"is_reserved":false,"is_disabled":false,"rental_uris":{"android":"levelo://app?vid=ba7fc896-8154-4fc2-9c7b-b437db5c8626","ios":"levelo://app?vid=ba7fc896-8154-4fc2-9c7b-b437db5c8626"},"vehicle_type_id":"4","last_reported":1704229584,"current_range_meters":20800,"station_id":"ce4bh0p2rcd13ifvqd70","pricing_plan_id":"free"},{"bike_id":"4fa2af7e-c7d4-43d5-87d9-328c47c204cc","system_id":"levelo_inurba_marseille","lat":43.302008,"lon":5.394694,"is_reserved":false,"is_disabled":false,"rental_uris":{"android":"levelo://app?vid=4fa2af7e-c7d4-43d5-87d9-328c47c204cc","ios":"levelo://app?vid=4fa2af7e-c7d4-43d5-87d9-328c47c204cc"},"vehicle_type_id":"4","last_reported":1704229584,"current_range_meters":16800,"station_id":"ce4bh0p2rcd13ifvqd70","pricing_plan_id":"free"},{"bike_id":"2aa69697-0349-4ebe-8c1c-2cc80e98b834","system_id":"levelo_inurba_marseille","lat":43.290426,"lon":5.35914,"is_reserved":false,"is_disabled":false,"rental_uris":{"android":"levelo://app?vid=2aa69697-0349-4ebe-8c1c-2cc80e98b834","ios":"levelo://app?vid=2aa69697-0349-4ebe-8c1c-2cc80e98b834"},"vehicle_type_id":"4","last_reported":1704229584,"current_range_meters":31200,"station_id":"ce4bha92rcd13ifvqeg0","pricing_plan_id":"free"},{"bike_id":"9dc07b3d-ecb2-44e1-a760-c44e02c0fb05","system_id":"levelo_inurba_marseille","lat":43.29419,"lon":5.38614,"is_reserved":false,"is_disabled":false,"rental_uris":{"android":"levelo://app?vid=9dc07b3d-ecb2-44e1-a760-c44e02c0fb05","ios":"levelo://app?vid=9dc07b3d-ecb2-44e1-a760-c44e02c0fb05"},"vehicle_type_id":"4","last_reported":1704229584,"current_range_meters":8000,"station_id":"ce4bh2h2rcd13ifvqdh0","pricing_plan_id":"free"},{"bike_id":"6c61228e-0437-44d9-b7fa-bc4bbd308ddb","system_id":"levelo_inurba_marseille","lat":43.294153,"lon":5.386305,"is_reserved":false,"is_disabled":false,"rental_uris":{"android":"levelo://app?vid=6c61228e-0437-44d9-b7fa-bc4bbd308ddb","ios":"levelo://app?vid=6c61228e-0437-44d9-b7fa-bc4bbd308ddb"},"vehicle_type_id":"4","last_reported":1704229584,"current_range_meters":24000,"station_id":"ce4bh2h2rcd13ifvqdh0","pricing_plan_id":"free"},{"bike_id":"28267b26-1ae3-4d31-bebe-6fba786ca0e8","system_id":"levelo_inurba_marseille","lat":43.290327,"lon":5.375711,"is_reserved":false,"is_disabled":false,"rental_uris":{"android":"levelo://app?vid=28267b26-1ae3-4d31-bebe-6fba786ca0e8","ios":"levelo://app?vid=28267b26-1ae3-4d31-bebe-6fba786ca0e8"},"vehicle_type_id":"4","last_reported":1704229584,"current_range_meters":30800,"station_id":"ce4bh692rcd13ifvqe90","pricing_plan_id":"free"},{"bike_id":"8785661b-35e7-4c0e-aa30-85300d63b1c9","system_id":"levelo_inurba_marseille","lat":43.294153,"lon":5.386305,"is_reserved":false,"is_disabled":false,"rental_uris":{"android":"levelo://app?vid=8785661b-35e7-4c0e-aa30-85300d63b1c9","ios":"levelo://app?vid=8785661b-35e7-4c0e-aa30-85300d63b1c9"},"vehicle_type_id":"4","last_reported":1704229584,"current_range_meters":19200,"station_id":"ce4bh2h2rcd13ifvqdh0","pricing_plan_id":"free"},{"bike_id":"6a433bc9-1959-45d7-8611-1ceb18fa272f","system_id":"levelo_inurba_marseille","lat":43.294162,"lon":5.386292,"is_reserved":false,"is_disabled":false,"rental_uris":{"android":"levelo://app?vid=6a433bc9-1959-45d7-8611-1ceb18fa272f","ios":"levelo://app?vid=6a433bc9-1959-45d7-8611-1ceb18fa272f"},"vehicle_type_id":"4","last_reported":1704229584,"current_range_meters":24800,"station_id":"ce4bh2h2rcd13ifvqdh0","pricing_plan_id":"free"},{"bike_id":"667177bd-2970-4a25-9482-13e07b6dbda6","system_id":"levelo_inurba_marseille","lat":43.294162,"lon":5.386292,"is_reserved":false,"is_disabled":false,"rental_uris":{"android":"levelo://app?vid=667177bd-2970-4a25-9482-13e07b6dbda6","ios":"levelo://app?vid=667177bd-2970-4a25-9482-13e07b6dbda6"},"vehicle_type_id":"4","last_reported":1704229584,"current_range_meters":14400,"station_id":"ce4bh2h2rcd13ifvqdh0","pricing_plan_id":"free"},{"bike_id":"c20b365b-8e39-4b90-9760-b8fd3eb255b4","system_id":"levelo_inurba_marseille","lat":43.289184,"lon":5.366408,"is_reserved":false,"is_disabled":false,"rental_uris":{"android":"levelo://app?vid=c20b365b-8e39-4b90-9760-b8fd3eb255b4","ios":"levelo://app?vid=c20b365b-8e39-4b90-9760-b8fd3eb255b4"},"vehicle_type_id":"4","last_reported":1704229584,"current_range_meters":28400,"station_id":"ce4bhap2rcd13ifvqek0","pricing_plan_id":"free"},{"bike_id":"41ee84d8-3660-48ec-bd66-7fa1bb8205cb","system_id":"levelo_inurba_marseille","lat":43.292642,"lon":5.384254,"is_reserved":false,"is_disabled":false,"rental_uris":{"android":"levelo://app?vid=41ee84d8-3660-48ec-bd66-7fa1bb8205cb","ios":"levelo://app?vid=41ee84d8-3660-48ec-bd66-7fa1bb8205cb"},"vehicle_type_id":"4","last_reported":1704229584,"current_range_meters":14400,"station_id":"ce4bh692rcd13ifvqea0","pricing_plan_id":"free"},{"bike_id":"7468694b-970d-4df3-8e80-96a6ddc05fda","system_id":"levelo_inurba_marseille","lat":43.292644,"lon":5.384257,"is_reserved":false,"is_disabled":false,"rental_uris":{"android":"levelo://app?vid=7468694b-970d-4df3-8e80-96a6ddc05fda","ios":"levelo://app?vid=7468694b-970d-4df3-8e80-96a6ddc05fda"},"vehicle_type_id":"4","last_reported":1704229584,"current_range_meters":24400,"station_id":"ce4bh692rcd13ifvqea0","pricing_plan_id":"free"},{"bike_id":"4a4c5995-6db6-46f2-b1f6-fb292b06e7dc","system_id":"levelo_inurba_marseille","lat":43.29264,"lon":5.38435,"is_reserved":false,"is_disabled":false,"rental_uris":{"android":"levelo://app?vid=4a4c5995-6db6-46f2-b1f6-fb292b06e7dc","ios":"levelo://app?vid=4a4c5995-6db6-46f2-b1f6-fb292b06e7dc"},"vehicle_type_id":"4","last_reported":1704229584,"current_range_meters":22800,"station_id":"ce4bh692rcd13ifvqea0","pricing_plan_id":"free"},{"bike_id":"8b7fe88f-3fc2-4ef0-9ef9-27b37604b216","system_id":"levelo_inurba_marseille","lat":43.292644,"lon":5.384257,"is_reserved":false,"is_disabled":false,"rental_uris":{"android":"levelo://app?vid=8b7fe88f-3fc2-4ef0-9ef9-27b37604b216","ios":"levelo://app?vid=8b7fe88f-3fc2-4ef0-9ef9-27b37604b216"},"vehicle_type_id":"4","last_reported":1704229584,"current_range_meters":4800,"station_id":"ce4bh692rcd13ifvqea0","pricing_plan_id":"free"},{"bike_id":"2c442d99-ff9b-41a2-af46-fd5d2f20bd47","system_id":"levelo_inurba_marseille","lat":43.292617,"lon":5.384373,"is_reserved":false,"is_disabled":false,"rental_uris":{"android":"levelo://app?vid=2c442d99-ff9b-41a2-af46-fd5d2f20bd47","ios":"levelo://app?vid=2c442d99-ff9b-41a2-af46-fd5d2f20bd47"},"vehicle_type_id":"4","last_reported":1704229584,"current_range_meters":0,"station_id":"ce4bh692rcd13ifvqea0","pricing_plan_id":"free"},{"bike_id":"6af8edee-07bf-420e-8364-a18386aa61fb","system_id":"levelo_inurba_marseille","lat":43.292644,"lon":5.384257,"is_reserved":false,"is_disabled":false,"rental_uris":{"android":"levelo://app?vid=6af8edee-07bf-420e-8364-a18386aa61fb","ios":"levelo://app?vid=6af8edee-07bf-420e-8364-a18386aa61fb"},"vehicle_type_id":"4","last_reported":1704229584,"current_range_meters":25200,"station_id":"ce4bh692rcd13ifvqea0","pricing_plan_id":"free"},{"bike_id":"bfe744ba-34dc-45db-b41f-b12620d10c83","system_id":"levelo_inurba_marseille","lat":43.292642,"lon":5.384254,"is_reserved":false,"is_disabled":false,"rental_uris":{"android":"levelo://app?vid=bfe744ba-34dc-45db-b41f-b12620d10c83","ios":"levelo://app?vid=bfe744ba-34dc-45db-b41f-b12620d10c83"},"vehicle_type_id":"4","last_reported":1704229584,"current_range_meters":21200,"station_id":"ce4bh692rcd13ifvqea0","pricing_plan_id":"free"},{"bike_id":"00c8c147-3c08-4012-8adb-468874e58349","system_id":"levelo_inurba_marseille","lat":43.292642,"lon":5.384254,"is_reserved":false,"is_disabled":false,"rental_uris":{"android":"levelo://app?vid=00c8c147-3c08-4012-8adb-468874e58349","ios":"levelo://app?vid=00c8c147-3c08-4012-8adb-468874e58349"},"vehicle_type_id":"4","last_reported":1704229584,"current_range_meters":25200,"station_id":"ce4bh692rcd13ifvqea0","pricing_plan_id":"free"},{"bike_id":"15c13b40-3ff4-4e77-bc88-9c081f09028d","system_id":"levelo_inurba_marseille","lat":43.292644,"lon":5.384257,"is_reserved":false,"is_disabled":false,"rental_uris":{"android":"levelo://app?vid=15c13b40-3ff4-4e77-bc88-9c081f09028d","ios":"levelo://app?vid=15c13b40-3ff4-4e77-bc88-9c081f09028d"},"vehicle_type_id":"4","last_reported":1704229584,"current_range_meters":30000,"station_id":"ce4bh692rcd13ifvqea0","pricing_plan_id":"free"},{"bike_id":"d5df786e-5883-410f-bfb0-e9c0fd9b342a","system_id":"levelo_inurba_marseille","lat":43.29257,"lon":5.38434,"is_reserved":false,"is_disabled":false,"rental_uris":{"android":"levelo://app?vid=d5df786e-5883-410f-bfb0-e9c0fd9b342a","ios":"levelo://app?vid=d5df786e-5883-410f-bfb0-e9c0fd9b342a"},"vehicle_type_id":"4","last_reported":1704229584,"current_range_meters":10800,"station_id":"ce4bh692rcd13ifvqea0","pricing_plan_id":"free"},{"bike_id":"f010b130-2c54-427b-a94d-969a52eee86e","system_id":"levelo_inurba_marseille","lat":43.29255,"lon":5.38433,"is_reserved":false,"is_disabled":false,"rental_uris":{"android":"levelo://app?vid=f010b130-2c54-427b-a94d-969a52eee86e","ios":"levelo://app?vid=f010b130-2c54-427b-a94d-969a52eee86e"},"vehicle_type_id":"4","last_reported":1704229584,"current_range_meters":12400,"station_id":"ce4bh692rcd13ifvqea0","pricing_plan_id":"free"},{"bike_id":"e8bce316-0ba7-4a8d-be1a-6471e5169a71","system_id":"levelo_inurba_marseille","lat":43.292644,"lon":5.384257,"is_reserved":false,"is_disabled":false,"rental_uris":{"android":"levelo://app?vid=e8bce316-0ba7-4a8d-be1a-6471e5169a71","ios":"levelo://app?vid=e8bce316-0ba7-4a8d-be1a-6471e5169a71"},"vehicle_type_id":"4","last_reported":1704229584,"current_range_meters":1600,"station_id":"ce4bh692rcd13ifvqea0","pricing_plan_id":"free"},{"bike_id":"db85b329-f81f-41b8-8a7a-a88e06de116c","system_id":"levelo_inurba_marseille","lat":43.292642,"lon":5.384254,"is_reserved":false,"is_disabled":false,"rental_uris":{"android":"levelo://app?vid=db85b329-f81f-41b8-8a7a-a88e06de116c","ios":"levelo://app?vid=db85b329-f81f-41b8-8a7a-a88e06de116c"},"vehicle_type_id":"4","last_reported":1704229584,"current_range_meters":30000,"station_id":"ce4bh692rcd13ifvqea0","pricing_plan_id":"free"},{"bike_id":"681aad2e-6d77-4b7d-952f-caa51c61155b","system_id":"levelo_inurba_marseille","lat":43.292642,"lon":5.384254,"is_reserved":false,"is_disabled":false,"rental_uris":{"android":"levelo://app?vid=681aad2e-6d77-4b7d-952f-caa51c61155b","ios":"levelo://app?vid=681aad2e-6d77-4b7d-952f-caa51c61155b"},"vehicle_type_id":"4","last_reported":1704229584,"current_range_meters":25600,"station_id":"ce4bh692rcd13ifvqea0","pricing_plan_id":"free"},{"bike_id":"11889e0d-8983-45b6-808f-9249a1b05295","system_id":"levelo_inurba_marseille","lat":43.290048,"lon":5.35632,"is_reserved":false,"is_disabled":false,"rental_uris":{"android":"levelo://app?vid=11889e0d-8983-45b6-808f-9249a1b05295","ios":"levelo://app?vid=11889e0d-8983-45b6-808f-9249a1b05295"},"vehicle_type_id":"4","last_reported":1704229584,"current_range_meters":31200,"station_id":"ce4bhb92rcd13ifvqen0","pricing_plan_id":"free"},{"bike_id":"51617e5e-0c29-4616-ac46-b8d222d6bc85","system_id":"levelo_inurba_marseille","lat":43.30471,"lon":5.39797,"is_reserved":false,"is_disabled":false,"rental_uris":{"android":"levelo://app?vid=51617e5e-0c29-4616-ac46-b8d222d6bc85","ios":"levelo://app?vid=51617e5e-0c29-4616-ac46-b8d222d6bc85"},"vehicle_type_id":"4","last_reported":1704229584,"current_range_meters":22800,"station_id":"","pricing_plan_id":"free"},{"bike_id":"5da8fb6a-1f7d-4288-8f79-e464fa61494e","system_id":"levelo_inurba_marseille","lat":43.297815,"lon":5.393548,"is_reserved":false,"is_disabled":false,"rental_uris":{"android":"levelo://app?vid=5da8fb6a-1f7d-4288-8f79-e464fa61494e","ios":"levelo://app?vid=5da8fb6a-1f7d-4288-8f79-e464fa61494e"},"vehicle_type_id":"4","last_reported":1704229584,"current_range_meters":21200,"station_id":"chh1huq6cuj3fo74tm60","pricing_plan_id":"free"},{"bike_id":"8e9169d1-9597-48c6-aab9-61b2290c7f7b","system_id":"levelo_inurba_marseille","lat":43.29794,"lon":5.39346,"is_reserved":false,"is_disabled":false,"rental_uris":{"android":"levelo://app?vid=8e9169d1-9597-48c6-aab9-61b2290c7f7b","ios":"levelo://app?vid=8e9169d1-9597-48c6-aab9-61b2290c7f7b"},"vehicle_type_id":"4","last_reported":1704229584,"current_range_meters":27200,"station_id":"chh1huq6cuj3fo74tm60","pricing_plan_id":"free"},{"bike_id":"1b661565-d788-4b59-a09f-ab587564e4a4","system_id":"levelo_inurba_marseille","lat":43.297881,"lon":5.393414,"is_reserved":false,"is_disabled":false,"rental_uris":{"android":"levelo://app?vid=1b661565-d788-4b59-a09f-ab587564e4a4","ios":"levelo://app?vid=1b661565-d788-4b59-a09f-ab587564e4a4"},"vehicle_type_id":"4","last_reported":1704229584,"current_range_meters":0,"station_id":"chh1huq6cuj3fo74tm60","pricing_plan_id":"free"},{"bike_id":"1f1c9e0b-697c-4060-8e0f-34e48a3be76b","system_id":"levelo_inurba_marseille","lat":43.297815,"lon":5.393548,"is_reserved":false,"is_disabled":false,"rental_uris":{"android":"levelo://app?vid=1f1c9e0b-697c-4060-8e0f-34e48a3be76b","ios":"levelo://app?vid=1f1c9e0b-697c-4060-8e0f-34e48a3be76b"},"vehicle_type_id":"4","last_reported":1704229584,"current_range_meters":25200,"station_id":"chh1huq6cuj3fo74tm60","pricing_plan_id":"free"},{"bike_id":"a1ee3364-28ae-4153-943e-13e8db98a605","system_id":"levelo_inurba_marseille","lat":43.330442,"lon":5.389148,"is_reserved":false,"is_disabled":false,"rental_uris":{"android":"levelo://app?vid=a1ee3364-28ae-4153-943e-13e8db98a605","ios":"levelo://app?vid=a1ee3364-28ae-4153-943e-13e8db98a605"},"vehicle_type_id":"4","last_reported":1704229584,"current_range_meters":6800,"station_id":"ce4bhr92rcd13ifvqhrg","pricing_plan_id":"free"},{"bike_id":"4ec83b75-31d2-49f4-8abd-12d5771e1dd3","system_id":"levelo_inurba_marseille","lat":43.289741,"lon":5.378306,"is_reserved":false,"is_disabled":false,"rental_uris":{"android":"levelo://app?vid=4ec83b75-31d2-49f4-8abd-12d5771e1dd3","ios":"levelo://app?vid=4ec83b75-31d2-49f4-8abd-12d5771e1dd3"},"vehicle_type_id":"4","last_reported":1704229584,"current_range_meters":0,"station_id":"ce4bh9p2rcd13ifvqed0","pricing_plan_id":"free"},{"bike_id":"a45508dc-3e20-4dc2-a3f2-c48092cac22d","system_id":"levelo_inurba_marseille","lat":43.330442,"lon":5.389148,"is_reserved":false,"is_disabled":false,"rental_uris":{"android":"levelo://app?vid=a45508dc-3e20-4dc2-a3f2-c48092cac22d","ios":"levelo://app?vid=a45508dc-3e20-4dc2-a3f2-c48092cac22d"},"vehicle_type_id":"4","last_reported":1704229584,"current_range_meters":10400,"station_id":"ce4bhr92rcd13ifvqhrg","pricing_plan_id":"free"},{"bike_id":"7d648605-b64d-49d5-ba7f-0758ee42cea0","system_id":"levelo_inurba_marseille","lat":43.28856,"lon":5.358371,"is_reserved":false,"is_disabled":false,"rental_uris":{"android":"levelo://app?vid=7d648605-b64d-49d5-ba7f-0758ee42cea0","ios":"levelo://app?vid=7d648605-b64d-49d5-ba7f-0758ee42cea0"},"vehicle_type_id":"4","last_reported":1704229584,"current_range_meters":21200,"station_id":"ce4bhb12rcd13ifvqem0","pricing_plan_id":"free"},{"bike_id":"e6c75395-75e4-46e1-8058-b1fe639f10da","system_id":"levelo_inurba_marseille","lat":43.309371,"lon":5.401449,"is_reserved":false,"is_disabled":false,"rental_uris":{"android":"levelo://app?vid=e6c75395-75e4-46e1-8058-b1fe639f10da","ios":"levelo://app?vid=e6c75395-75e4-46e1-8058-b1fe639f10da"},"vehicle_type_id":"4","last_reported":1704229584,"current_range_meters":7200,"station_id":"ce4bgvp2rcd13ifvqct0","pricing_plan_id":"free"},{"bike_id":"b57b4a9f-be20-4338-a99b-0f24a5e4032f","system_id":"levelo_inurba_marseille","lat":43.33752,"lon":5.37466,"is_reserved":false,"is_disabled":false,"rental_uris":{"android":"levelo://app?vid=b57b4a9f-be20-4338-a99b-0f24a5e4032f","ios":"levelo://app?vid=b57b4a9f-be20-4338-a99b-0f24a5e4032f"},"vehicle_type_id":"4","last_reported":1704229584,"current_range_meters":25600,"station_id":"","pricing_plan_id":"free"},{"bike_id":"7bff5d96-c9da-413f-9076-7fbeec946e12","system_id":"levelo_inurba_marseille","lat":43.337562,"lon":5.374648,"is_reserved":false,"is_disabled":false,"rental_uris":{"android":"levelo://app?vid=7bff5d96-c9da-413f-9076-7fbeec946e12","ios":"levelo://app?vid=7bff5d96-c9da-413f-9076-7fbeec946e12"},"vehicle_type_id":"4","last_reported":1704229584,"current_range_meters":24800,"station_id":"","pricing_plan_id":"free"},{"bike_id":"1c86c5a0-cffc-4faa-94a1-6cf5f93206ea","system_id":"levelo_inurba_marseille","lat":43.337605,"lon":5.374572,"is_reserved":false,"is_disabled":false,"rental_uris":{"android":"levelo://app?vid=1c86c5a0-cffc-4faa-94a1-6cf5f93206ea","ios":"levelo://app?vid=1c86c5a0-cffc-4faa-94a1-6cf5f93206ea"},"vehicle_type_id":"4","last_reported":1704229584,"current_range_meters":5200,"station_id":"","pricing_plan_id":"free"},{"bike_id":"e9b17cc2-ca5a-4161-9ff2-1c1d56a18a37","system_id":"levelo_inurba_marseille","lat":43.30642,"lon":5.401031,"is_reserved":false,"is_disabled":false,"rental_uris":{"android":"levelo://app?vid=e9b17cc2-ca5a-4161-9ff2-1c1d56a18a37","ios":"levelo://app?vid=e9b17cc2-ca5a-4161-9ff2-1c1d56a18a37"},"vehicle_type_id":"4","last_reported":1704229584,"current_range_meters":4000,"station_id":"ce4bh112rcd13ifvqda0","pricing_plan_id":"free"},{"bike_id":"46bcbd8a-0b5f-4b89-aac9-34812a85cd49","system_id":"levelo_inurba_marseille","lat":43.337681,"lon":5.374847,"is_reserved":false,"is_disabled":false,"rental_uris":{"android":"levelo://app?vid=46bcbd8a-0b5f-4b89-aac9-34812a85cd49","ios":"levelo://app?vid=46bcbd8a-0b5f-4b89-aac9-34812a85cd49"},"vehicle_type_id":"4","last_reported":1704229584,"current_range_meters":13600,"station_id":"","pricing_plan_id":"free"},{"bike_id":"2698b1cc-9d8f-4af1-9d41-a07e93bd5755","system_id":"levelo_inurba_marseille","lat":43.33767,"lon":5.37497,"is_reserved":false,"is_disabled":false,"rental_uris":{"android":"levelo://app?vid=2698b1cc-9d8f-4af1-9d41-a07e93bd5755","ios":"levelo://app?vid=2698b1cc-9d8f-4af1-9d41-a07e93bd5755"},"vehicle_type_id":"4","last_reported":1704229584,"current_range_meters":28000,"station_id":"","pricing_plan_id":"free"},{"bike_id":"c07229e6-157f-49c8-8730-fa3966cc9e7c","system_id":"levelo_inurba_marseille","lat":43.301117,"lon":5.398795,"is_reserved":false,"is_disabled":false,"rental_uris":{"android":"levelo://app?vid=c07229e6-157f-49c8-8730-fa3966cc9e7c","ios":"levelo://app?vid=c07229e6-157f-49c8-8730-fa3966cc9e7c"},"vehicle_type_id":"4","last_reported":1704229584,"current_range_meters":26800,"station_id":"ce4bh0h2rcd13ifvqd40","pricing_plan_id":"free"},{"bike_id":"51fbb03a-a0f7-4fa5-96da-84e1789a163c","system_id":"levelo_inurba_marseille","lat":43.304678,"lon":5.400636,"is_reserved":false,"is_disabled":false,"rental_uris":{"android":"levelo://app?vid=51fbb03a-a0f7-4fa5-96da-84e1789a163c","ios":"levelo://app?vid=51fbb03a-a0f7-4fa5-96da-84e1789a163c"},"vehicle_type_id":"4","last_reported":1704229584,"current_range_meters":0,"station_id":"","pricing_plan_id":"free"},{"bike_id":"25143700-3da5-46c3-8329-221bb4a7bc16","system_id":"levelo_inurba_marseille","lat":43.28727,"lon":5.36078,"is_reserved":false,"is_disabled":false,"rental_uris":{"android":"levelo://app?vid=25143700-3da5-46c3-8329-221bb4a7bc16","ios":"levelo://app?vid=25143700-3da5-46c3-8329-221bb4a7bc16"},"vehicle_type_id":"4","last_reported":1704229584,"current_range_meters":28800,"station_id":"cki0cbj6b192h4jlfktg","pricing_plan_id":"free"},{"bike_id":"43b50400-bf73-455a-a63e-2224febf021d","system_id":"levelo_inurba_marseille","lat":43.28727,"lon":5.36078,"is_reserved":false,"is_disabled":false,"rental_uris":{"android":"levelo://app?vid=43b50400-bf73-455a-a63e-2224febf021d","ios":"levelo://app?vid=43b50400-bf73-455a-a63e-2224febf021d"},"vehicle_type_id":"4","last_reported":1704229584,"current_range_meters":28800,"station_id":"cki0cbj6b192h4jlfktg","pricing_plan_id":"free"},{"bike_id":"ad3145bf-918d-42eb-8fc3-f480e216050d","system_id":"levelo_inurba_marseille","lat":43.295194,"lon":5.39397,"is_reserved":false,"is_disabled":false,"rental_uris":{"android":"levelo://app?vid=ad3145bf-918d-42eb-8fc3-f480e216050d","ios":"levelo://app?vid=ad3145bf-918d-42eb-8fc3-f480e216050d"},"vehicle_type_id":"4","last_reported":1704229584,"current_range_meters":9200,"station_id":"ce4bh292rcd13ifvqdf0","pricing_plan_id":"free"},{"bike_id":"9d7f358d-cfc8-4ba7-b1b9-ac2504b458ef","system_id":"levelo_inurba_marseille","lat":43.295196,"lon":5.39397,"is_reserved":false,"is_disabled":false,"rental_uris":{"android":"levelo://app?vid=9d7f358d-cfc8-4ba7-b1b9-ac2504b458ef","ios":"levelo://app?vid=9d7f358d-cfc8-4ba7-b1b9-ac2504b458ef"},"vehicle_type_id":"4","last_reported":1704229584,"current_range_meters":19600,"station_id":"ce4bh292rcd13ifvqdf0","pricing_plan_id":"free"},{"bike_id":"ace69451-5736-4172-9ec1-584b335eb4cb","system_id":"levelo_inurba_marseille","lat":43.286961,"lon":5.373785,"is_reserved":false,"is_disabled":false,"rental_uris":{"android":"levelo://app?vid=ace69451-5736-4172-9ec1-584b335eb4cb","ios":"levelo://app?vid=ace69451-5736-4172-9ec1-584b335eb4cb"},"vehicle_type_id":"4","last_reported":1704229584,"current_range_meters":17600,"station_id":"ce4bh3p2rcd13ifvqdq0","pricing_plan_id":"free"},{"bike_id":"91b33d7e-e05c-47f4-89de-266867365c39","system_id":"levelo_inurba_marseille","lat":43.314583,"lon":5.403171,"is_reserved":false,"is_disabled":false,"rental_uris":{"android":"levelo://app?vid=91b33d7e-e05c-47f4-89de-266867365c39","ios":"levelo://app?vid=91b33d7e-e05c-47f4-89de-266867365c39"},"vehicle_type_id":"4","last_reported":1704229584,"current_range_meters":0,"station_id":"","pricing_plan_id":"free"},{"bike_id":"9f220087-fd36-4ab9-99d5-019ec48923f1","system_id":"levelo_inurba_marseille","lat":43.295194,"lon":5.39397,"is_reserved":false,"is_disabled":false,"rental_uris":{"android":"levelo://app?vid=9f220087-fd36-4ab9-99d5-019ec48923f1","ios":"levelo://app?vid=9f220087-fd36-4ab9-99d5-019ec48923f1"},"vehicle_type_id":"4","last_reported":1704229584,"current_range_meters":7600,"station_id":"ce4bh292rcd13ifvqdf0","pricing_plan_id":"free"},{"bike_id":"4c9bee6e-7f67-4e33-9bdf-2ad46096a165","system_id":"levelo_inurba_marseille","lat":43.290345,"lon":5.38646,"is_reserved":false,"is_disabled":false,"rental_uris":{"android":"levelo://app?vid=4c9bee6e-7f67-4e33-9bdf-2ad46096a165","ios":"levelo://app?vid=4c9bee6e-7f67-4e33-9bdf-2ad46096a165"},"vehicle_type_id":"4","last_reported":1704229584,"current_range_meters":26400,"station_id":"ce4bh4p2rcd13ifvqe0g","pricing_plan_id":"free"},{"bike_id":"814ff3c4-64ad-4534-bcf2-d593e0ba5264","system_id":"levelo_inurba_marseille","lat":43.290345,"lon":5.38646,"is_reserved":false,"is_disabled":false,"rental_uris":{"android":"levelo://app?vid=814ff3c4-64ad-4534-bcf2-d593e0ba5264","ios":"levelo://app?vid=814ff3c4-64ad-4534-bcf2-d593e0ba5264"},"vehicle_type_id":"4","last_reported":1704229584,"current_range_meters":17600,"station_id":"ce4bh4p2rcd13ifvqe0g","pricing_plan_id":"free"},{"bike_id":"816562be-f5a0-4340-a936-bf1a41cb1df9","system_id":"levelo_inurba_marseille","lat":43.290345,"lon":5.38646,"is_reserved":false,"is_disabled":false,"rental_uris":{"android":"levelo://app?vid=816562be-f5a0-4340-a936-bf1a41cb1df9","ios":"levelo://app?vid=816562be-f5a0-4340-a936-bf1a41cb1df9"},"vehicle_type_id":"4","last_reported":1704229584,"current_range_meters":18000,"station_id":"ce4bh4p2rcd13ifvqe0g","pricing_plan_id":"free"},{"bike_id":"53260b08-8d00-4ae7-bc71-17191fe9aae1","system_id":"levelo_inurba_marseille","lat":43.289307,"lon":5.38406,"is_reserved":false,"is_disabled":false,"rental_uris":{"android":"levelo://app?vid=53260b08-8d00-4ae7-bc71-17191fe9aae1","ios":"levelo://app?vid=53260b08-8d00-4ae7-bc71-17191fe9aae1"},"vehicle_type_id":"4","last_reported":1704229584,"current_range_meters":9200,"station_id":"ce4bh612rcd13ifvqe6g","pricing_plan_id":"free"},{"bike_id":"ad00fead-263d-43d9-8a54-c7ebb41f72e7","system_id":"levelo_inurba_marseille","lat":43.290345,"lon":5.38646,"is_reserved":false,"is_disabled":false,"rental_uris":{"android":"levelo://app?vid=ad00fead-263d-43d9-8a54-c7ebb41f72e7","ios":"levelo://app?vid=ad00fead-263d-43d9-8a54-c7ebb41f72e7"},"vehicle_type_id":"4","last_reported":1704229584,"current_range_meters":0,"station_id":"ce4bh4p2rcd13ifvqe0g","pricing_plan_id":"free"},{"bike_id":"1693088a-2f6f-4e82-b76c-ba677724ea18","system_id":"levelo_inurba_marseille","lat":43.286039,"lon":5.370679,"is_reserved":false,"is_disabled":false,"rental_uris":{"android":"levelo://app?vid=1693088a-2f6f-4e82-b76c-ba677724ea18","ios":"levelo://app?vid=1693088a-2f6f-4e82-b76c-ba677724ea18"},"vehicle_type_id":"4","last_reported":1704229584,"current_range_meters":30400,"station_id":"ce4bht12rcd13ifvqi60","pricing_plan_id":"free"},{"bike_id":"b0b6a8f3-0b17-4de6-91a3-2dbdb8222327","system_id":"levelo_inurba_marseille","lat":43.316821,"lon":5.404737,"is_reserved":false,"is_disabled":false,"rental_uris":{"android":"levelo://app?vid=b0b6a8f3-0b17-4de6-91a3-2dbdb8222327","ios":"levelo://app?vid=b0b6a8f3-0b17-4de6-91a3-2dbdb8222327"},"vehicle_type_id":"4","last_reported":1704229584,"current_range_meters":17600,"station_id":"ce4bh012rcd13ifvqd00","pricing_plan_id":"free"},{"bike_id":"380c4b7b-bd38-4bdd-84dd-ac615ef98790","system_id":"levelo_inurba_marseille","lat":43.291994,"lon":5.392907,"is_reserved":false,"is_disabled":false,"rental_uris":{"android":"levelo://app?vid=380c4b7b-bd38-4bdd-84dd-ac615ef98790","ios":"levelo://app?vid=380c4b7b-bd38-4bdd-84dd-ac615ef98790"},"vehicle_type_id":"4","last_reported":1704229584,"current_range_meters":4400,"station_id":"ce4bh192rcd13ifvqdd0","pricing_plan_id":"free"},{"bike_id":"4b0c18fd-1547-4f9e-9d73-a9d057735b7e","system_id":"levelo_inurba_marseille","lat":43.291994,"lon":5.392907,"is_reserved":false,"is_disabled":false,"rental_uris":{"android":"levelo://app?vid=4b0c18fd-1547-4f9e-9d73-a9d057735b7e","ios":"levelo://app?vid=4b0c18fd-1547-4f9e-9d73-a9d057735b7e"},"vehicle_type_id":"4","last_reported":1704229584,"current_range_meters":30000,"station_id":"ce4bh192rcd13ifvqdd0","pricing_plan_id":"free"},{"bike_id":"bac2d31f-e0c6-422d-b679-165ce9b847c4","system_id":"levelo_inurba_marseille","lat":43.284538,"lon":5.358657,"is_reserved":false,"is_disabled":false,"rental_uris":{"android":"levelo://app?vid=bac2d31f-e0c6-422d-b679-165ce9b847c4","ios":"levelo://app?vid=bac2d31f-e0c6-422d-b679-165ce9b847c4"},"vehicle_type_id":"4","last_reported":1704229584,"current_range_meters":22400,"station_id":"ce4bhah2rcd13ifvqei0","pricing_plan_id":"free"},{"bike_id":"2538e493-5564-4c26-8e5d-8e70dfa83cd0","system_id":"levelo_inurba_marseille","lat":43.284538,"lon":5.358657,"is_reserved":false,"is_disabled":false,"rental_uris":{"android":"levelo://app?vid=2538e493-5564-4c26-8e5d-8e70dfa83cd0","ios":"levelo://app?vid=2538e493-5564-4c26-8e5d-8e70dfa83cd0"},"vehicle_type_id":"4","last_reported":1704229584,"current_range_meters":20000,"station_id":"ce4bhah2rcd13ifvqei0","pricing_plan_id":"free"},{"bike_id":"1231e52b-e7ba-4390-8033-3560b880ab6c","system_id":"levelo_inurba_marseille","lat":43.284534,"lon":5.358662,"is_reserved":false,"is_disabled":false,"rental_uris":{"android":"levelo://app?vid=1231e52b-e7ba-4390-8033-3560b880ab6c","ios":"levelo://app?vid=1231e52b-e7ba-4390-8033-3560b880ab6c"},"vehicle_type_id":"4","last_reported":1704229584,"current_range_meters":23200,"station_id":"ce4bhah2rcd13ifvqei0","pricing_plan_id":"free"},{"bike_id":"9c99319d-37d5-47dc-84a2-902f7d6bf403","system_id":"levelo_inurba_marseille","lat":43.284538,"lon":5.358657,"is_reserved":false,"is_disabled":false,"rental_uris":{"android":"levelo://app?vid=9c99319d-37d5-47dc-84a2-902f7d6bf403","ios":"levelo://app?vid=9c99319d-37d5-47dc-84a2-902f7d6bf403"},"vehicle_type_id":"4","last_reported":1704229584,"current_range_meters":13600,"station_id":"ce4bhah2rcd13ifvqei0","pricing_plan_id":"free"},{"bike_id":"dc3cde15-e15f-4189-82ce-191679f1e53b","system_id":"levelo_inurba_marseille","lat":43.294314,"lon":5.397498,"is_reserved":false,"is_disabled":false,"rental_uris":{"android":"levelo://app?vid=dc3cde15-e15f-4189-82ce-191679f1e53b","ios":"levelo://app?vid=dc3cde15-e15f-4189-82ce-191679f1e53b"},"vehicle_type_id":"4","last_reported":1704229584,"current_range_meters":4000,"station_id":"ce4bh3h2rcd13ifvqdo0","pricing_plan_id":"free"},{"bike_id":"1255e503-662a-4d42-9752-c6053393c057","system_id":"levelo_inurba_marseille","lat":43.284538,"lon":5.358657,"is_reserved":false,"is_disabled":false,"rental_uris":{"android":"levelo://app?vid=1255e503-662a-4d42-9752-c6053393c057","ios":"levelo://app?vid=1255e503-662a-4d42-9752-c6053393c057"},"vehicle_type_id":"4","last_reported":1704229584,"current_range_meters":9200,"station_id":"ce4bhah2rcd13ifvqei0","pricing_plan_id":"free"},{"bike_id":"96401517-13bd-4b0a-a9aa-172550979af3","system_id":"levelo_inurba_marseille","lat":43.284534,"lon":5.358662,"is_reserved":false,"is_disabled":false,"rental_uris":{"android":"levelo://app?vid=96401517-13bd-4b0a-a9aa-172550979af3","ios":"levelo://app?vid=96401517-13bd-4b0a-a9aa-172550979af3"},"vehicle_type_id":"4","last_reported":1704229584,"current_range_meters":6400,"station_id":"ce4bhah2rcd13ifvqei0","pricing_plan_id":"free"},{"bike_id":"da83c696-1560-46ef-849a-744338060e2d","system_id":"levelo_inurba_marseille","lat":43.285856,"lon":5.350771,"is_reserved":false,"is_disabled":false,"rental_uris":{"android":"levelo://app?vid=da83c696-1560-46ef-849a-744338060e2d","ios":"levelo://app?vid=da83c696-1560-46ef-849a-744338060e2d"},"vehicle_type_id":"4","last_reported":1704229584,"current_range_meters":24000,"station_id":"ce4bhch2rcd13ifvqeug","pricing_plan_id":"free"},{"bike_id":"48e908df-9ca7-4c39-be98-5f1da33c5b54","system_id":"levelo_inurba_marseille","lat":43.285856,"lon":5.350771,"is_reserved":false,"is_disabled":false,"rental_uris":{"android":"levelo://app?vid=48e908df-9ca7-4c39-be98-5f1da33c5b54","ios":"levelo://app?vid=48e908df-9ca7-4c39-be98-5f1da33c5b54"},"vehicle_type_id":"4","last_reported":1704229584,"current_range_meters":28400,"station_id":"ce4bhch2rcd13ifvqeug","pricing_plan_id":"free"},{"bike_id":"1b3079d0-9be2-4262-8fe2-ff996a2e9bc6","system_id":"levelo_inurba_marseille","lat":43.285856,"lon":5.350771,"is_reserved":false,"is_disabled":false,"rental_uris":{"android":"levelo://app?vid=1b3079d0-9be2-4262-8fe2-ff996a2e9bc6","ios":"levelo://app?vid=1b3079d0-9be2-4262-8fe2-ff996a2e9bc6"},"vehicle_type_id":"4","last_reported":1704229584,"current_range_meters":0,"station_id":"ce4bhch2rcd13ifvqeug","pricing_plan_id":"free"},{"bike_id":"20290e13-2243-407f-9871-8bd25c2968df","system_id":"levelo_inurba_marseille","lat":43.283998,"lon":5.375062,"is_reserved":false,"is_disabled":false,"rental_uris":{"android":"levelo://app?vid=20290e13-2243-407f-9871-8bd25c2968df","ios":"levelo://app?vid=20290e13-2243-407f-9871-8bd25c2968df"},"vehicle_type_id":"4","last_reported":1704229584,"current_range_meters":4000,"station_id":"ce4bh412rcd13ifvqds0","pricing_plan_id":"free"},{"bike_id":"3aac2baf-5ccd-4c78-bc9b-8694b089c204","system_id":"levelo_inurba_marseille","lat":43.283998,"lon":5.375062,"is_reserved":false,"is_disabled":false,"rental_uris":{"android":"levelo://app?vid=3aac2baf-5ccd-4c78-bc9b-8694b089c204","ios":"levelo://app?vid=3aac2baf-5ccd-4c78-bc9b-8694b089c204"},"vehicle_type_id":"4","last_reported":1704229584,"current_range_meters":0,"station_id":"ce4bh412rcd13ifvqds0","pricing_plan_id":"free"},{"bike_id":"878befdb-838d-4ff1-b971-1dba7292732b","system_id":"levelo_inurba_marseille","lat":43.295713,"lon":5.399639,"is_reserved":false,"is_disabled":false,"rental_uris":{"android":"levelo://app?vid=878befdb-838d-4ff1-b971-1dba7292732b","ios":"levelo://app?vid=878befdb-838d-4ff1-b971-1dba7292732b"},"vehicle_type_id":"4","last_reported":1704229584,"current_range_meters":28000,"station_id":"ce4bh312rcd13ifvqdj0","pricing_plan_id":"free"},{"bike_id":"6d1770cb-86cf-44ec-bfc9-920cdfcc5d0b","system_id":"levelo_inurba_marseille","lat":43.283998,"lon":5.375062,"is_reserved":false,"is_disabled":false,"rental_uris":{"android":"levelo://app?vid=6d1770cb-86cf-44ec-bfc9-920cdfcc5d0b","ios":"levelo://app?vid=6d1770cb-86cf-44ec-bfc9-920cdfcc5d0b"},"vehicle_type_id":"4","last_reported":1704229584,"current_range_meters":9600,"station_id":"ce4bh412rcd13ifvqds0","pricing_plan_id":"free"},{"bike_id":"168e5b13-134c-4c8a-b42a-40c79b77b1f2","system_id":"levelo_inurba_marseille","lat":43.283998,"lon":5.375062,"is_reserved":false,"is_disabled":false,"rental_uris":{"android":"levelo://app?vid=168e5b13-134c-4c8a-b42a-40c79b77b1f2","ios":"levelo://app?vid=168e5b13-134c-4c8a-b42a-40c79b77b1f2"},"vehicle_type_id":"4","last_reported":1704229584,"current_range_meters":23200,"station_id":"ce4bh412rcd13ifvqds0","pricing_plan_id":"free"},{"bike_id":"106bdef0-cb9d-49d9-9a2b-2bdd69928932","system_id":"levelo_inurba_marseille","lat":43.283998,"lon":5.375062,"is_reserved":false,"is_disabled":false,"rental_uris":{"android":"levelo://app?vid=106bdef0-cb9d-49d9-9a2b-2bdd69928932","ios":"levelo://app?vid=106bdef0-cb9d-49d9-9a2b-2bdd69928932"},"vehicle_type_id":"4","last_reported":1704229584,"current_range_meters":14000,"station_id":"ce4bh412rcd13ifvqds0","pricing_plan_id":"free"},{"bike_id":"f7d079b0-dc95-46a1-9db7-26438438739f","system_id":"levelo_inurba_marseille","lat":43.295713,"lon":5.399639,"is_reserved":false,"is_disabled":false,"rental_uris":{"android":"levelo://app?vid=f7d079b0-dc95-46a1-9db7-26438438739f","ios":"levelo://app?vid=f7d079b0-dc95-46a1-9db7-26438438739f"},"vehicle_type_id":"4","last_reported":1704229584,"current_range_meters":12400,"station_id":"ce4bh312rcd13ifvqdj0","pricing_plan_id":"free"},{"bike_id":"bee571ae-77cd-4d6a-9b31-fbd74d901a7e","system_id":"levelo_inurba_marseille","lat":43.286595,"lon":5.386795,"is_reserved":false,"is_disabled":false,"rental_uris":{"android":"levelo://app?vid=bee571ae-77cd-4d6a-9b31-fbd74d901a7e","ios":"levelo://app?vid=bee571ae-77cd-4d6a-9b31-fbd74d901a7e"},"vehicle_type_id":"4","last_reported":1704229584,"current_range_meters":4800,"station_id":"ce4bh492rcd13ifvqdug","pricing_plan_id":"free"},{"bike_id":"cb22166f-f745-45c7-ba04-12949ca802b8","system_id":"levelo_inurba_marseille","lat":43.32339,"lon":5.40617,"is_reserved":false,"is_disabled":false,"rental_uris":{"android":"levelo://app?vid=cb22166f-f745-45c7-ba04-12949ca802b8","ios":"levelo://app?vid=cb22166f-f745-45c7-ba04-12949ca802b8"},"vehicle_type_id":"4","last_reported":1704229584,"current_range_meters":17600,"station_id":"ce4bhq92rcd13ifvqhjg","pricing_plan_id":"free"},{"bike_id":"cceb7d57-b024-4cf4-a504-5b77f5db55c4","system_id":"levelo_inurba_marseille","lat":43.33717,"lon":5.391857,"is_reserved":false,"is_disabled":false,"rental_uris":{"android":"levelo://app?vid=cceb7d57-b024-4cf4-a504-5b77f5db55c4","ios":"levelo://app?vid=cceb7d57-b024-4cf4-a504-5b77f5db55c4"},"vehicle_type_id":"4","last_reported":1704229584,"current_range_meters":30400,"station_id":"ce4bhr92rcd13ifvqhsg","pricing_plan_id":"free"},{"bike_id":"a4e0ac97-33ec-41b4-b3a3-66e2c1116404","system_id":"levelo_inurba_marseille","lat":43.284787,"lon":5.384116,"is_reserved":false,"is_disabled":false,"rental_uris":{"android":"levelo://app?vid=a4e0ac97-33ec-41b4-b3a3-66e2c1116404","ios":"levelo://app?vid=a4e0ac97-33ec-41b4-b3a3-66e2c1116404"},"vehicle_type_id":"4","last_reported":1704229584,"current_range_meters":26400,"station_id":"ce4bh512rcd13ifvqe3g","pricing_plan_id":"free"},{"bike_id":"6c6ee70a-518d-462d-a84f-56a846eea0f2","system_id":"levelo_inurba_marseille","lat":43.284787,"lon":5.384116,"is_reserved":false,"is_disabled":false,"rental_uris":{"android":"levelo://app?vid=6c6ee70a-518d-462d-a84f-56a846eea0f2","ios":"levelo://app?vid=6c6ee70a-518d-462d-a84f-56a846eea0f2"},"vehicle_type_id":"4","last_reported":1704229584,"current_range_meters":23600,"station_id":"ce4bh512rcd13ifvqe3g","pricing_plan_id":"free"},{"bike_id":"1e755e27-5bec-44f5-9bc5-07d1b1956aa6","system_id":"levelo_inurba_marseille","lat":43.297946,"lon":5.404063,"is_reserved":false,"is_disabled":false,"rental_uris":{"android":"levelo://app?vid=1e755e27-5bec-44f5-9bc5-07d1b1956aa6","ios":"levelo://app?vid=1e755e27-5bec-44f5-9bc5-07d1b1956aa6"},"vehicle_type_id":"4","last_reported":1704229584,"current_range_meters":28400,"station_id":"ce4bh112rcd13ifvqd90","pricing_plan_id":"free"},{"bike_id":"d8016319-a09f-4d9a-bf25-363e6270d7b1","system_id":"levelo_inurba_marseille","lat":43.288501,"lon":5.393087,"is_reserved":false,"is_disabled":false,"rental_uris":{"android":"levelo://app?vid=d8016319-a09f-4d9a-bf25-363e6270d7b1","ios":"levelo://app?vid=d8016319-a09f-4d9a-bf25-363e6270d7b1"},"vehicle_type_id":"4","last_reported":1704229584,"current_range_meters":25200,"station_id":"ce4bh2p2rcd13ifvqdi0","pricing_plan_id":"free"},{"bike_id":"8a64bd4f-be44-4fbf-8ff0-ffbc837321ff","system_id":"levelo_inurba_marseille","lat":43.283494,"lon":5.380945,"is_reserved":false,"is_disabled":false,"rental_uris":{"android":"levelo://app?vid=8a64bd4f-be44-4fbf-8ff0-ffbc837321ff","ios":"levelo://app?vid=8a64bd4f-be44-4fbf-8ff0-ffbc837321ff"},"vehicle_type_id":"4","last_reported":1704229584,"current_range_meters":27200,"station_id":"ce4bh412rcd13ifvqdr0","pricing_plan_id":"free"},{"bike_id":"b3d5b2ae-5bd7-4f38-b681-9ea9aac8372c","system_id":"levelo_inurba_marseille","lat":43.284219,"lon":5.3497,"is_reserved":false,"is_disabled":false,"rental_uris":{"android":"levelo://app?vid=b3d5b2ae-5bd7-4f38-b681-9ea9aac8372c","ios":"levelo://app?vid=b3d5b2ae-5bd7-4f38-b681-9ea9aac8372c"},"vehicle_type_id":"4","last_reported":1704229584,"current_range_meters":31200,"station_id":"ce4bhbh2rcd13ifvqepg","pricing_plan_id":"free"},{"bike_id":"86a053f6-9984-4c05-b30c-3959941be1bf","system_id":"levelo_inurba_marseille","lat":43.284219,"lon":5.3497,"is_reserved":false,"is_disabled":false,"rental_uris":{"android":"levelo://app?vid=86a053f6-9984-4c05-b30c-3959941be1bf","ios":"levelo://app?vid=86a053f6-9984-4c05-b30c-3959941be1bf"},"vehicle_type_id":"4","last_reported":1704229584,"current_range_meters":23600,"station_id":"ce4bhbh2rcd13ifvqepg","pricing_plan_id":"free"},{"bike_id":"fcd0dbb3-ece7-42b0-a15b-ac9f07a41bd5","system_id":"levelo_inurba_marseille","lat":43.289363,"lon":5.396322,"is_reserved":false,"is_disabled":false,"rental_uris":{"android":"levelo://app?vid=fcd0dbb3-ece7-42b0-a15b-ac9f07a41bd5","ios":"levelo://app?vid=fcd0dbb3-ece7-42b0-a15b-ac9f07a41bd5"},"vehicle_type_id":"4","last_reported":1704229584,"current_range_meters":25200,"station_id":"ce4bh3h2rcd13ifvqdn0","pricing_plan_id":"free"},{"bike_id":"ab9d4a9c-efd8-4545-b839-5befeab3b777","system_id":"levelo_inurba_marseille","lat":43.282744,"lon":5.350533,"is_reserved":false,"is_disabled":false,"rental_uris":{"android":"levelo://app?vid=ab9d4a9c-efd8-4545-b839-5befeab3b777","ios":"levelo://app?vid=ab9d4a9c-efd8-4545-b839-5befeab3b777"},"vehicle_type_id":"4","last_reported":1704229584,"current_range_meters":19200,"station_id":"ce4bhbp2rcd13ifvqerg","pricing_plan_id":"free"},{"bike_id":"2f3daca4-0199-4e1e-9077-9ebe075b47c2","system_id":"levelo_inurba_marseille","lat":43.282744,"lon":5.350533,"is_reserved":false,"is_disabled":false,"rental_uris":{"android":"levelo://app?vid=2f3daca4-0199-4e1e-9077-9ebe075b47c2","ios":"levelo://app?vid=2f3daca4-0199-4e1e-9077-9ebe075b47c2"},"vehicle_type_id":"4","last_reported":1704229584,"current_range_meters":24400,"station_id":"ce4bhbp2rcd13ifvqerg","pricing_plan_id":"free"},{"bike_id":"040fa358-1831-4cad-bbb2-981603c63acb","system_id":"levelo_inurba_marseille","lat":43.280382,"lon":5.369291,"is_reserved":false,"is_disabled":false,"rental_uris":{"android":"levelo://app?vid=040fa358-1831-4cad-bbb2-981603c63acb","ios":"levelo://app?vid=040fa358-1831-4cad-bbb2-981603c63acb"},"vehicle_type_id":"4","last_reported":1704229584,"current_range_meters":27200,"station_id":"ce4bha12rcd13ifvqef0","pricing_plan_id":"free"},{"bike_id":"d2208532-7957-4839-b0c3-16eab64181d5","system_id":"levelo_inurba_marseille","lat":43.29041,"lon":5.399634,"is_reserved":false,"is_disabled":false,"rental_uris":{"android":"levelo://app?vid=d2208532-7957-4839-b0c3-16eab64181d5","ios":"levelo://app?vid=d2208532-7957-4839-b0c3-16eab64181d5"},"vehicle_type_id":"4","last_reported":1704229584,"current_range_meters":22800,"station_id":"ce4bh392rcd13ifvqdm0","pricing_plan_id":"free"},{"bike_id":"d824537f-0bb5-4e3b-9875-cf4972223680","system_id":"levelo_inurba_marseille","lat":43.296263,"lon":5.40601,"is_reserved":false,"is_disabled":false,"rental_uris":{"android":"levelo://app?vid=d824537f-0bb5-4e3b-9875-cf4972223680","ios":"levelo://app?vid=d824537f-0bb5-4e3b-9875-cf4972223680"},"vehicle_type_id":"4","last_reported":1704229584,"current_range_meters":16800,"station_id":"ce4bh0h2rcd13ifvqd60","pricing_plan_id":"free"},{"bike_id":"67008a38-0901-4259-b758-d82e8fc10efe","system_id":"levelo_inurba_marseille","lat":43.29041,"lon":5.399634,"is_reserved":false,"is_disabled":false,"rental_uris":{"android":"levelo://app?vid=67008a38-0901-4259-b758-d82e8fc10efe","ios":"levelo://app?vid=67008a38-0901-4259-b758-d82e8fc10efe"},"vehicle_type_id":"4","last_reported":1704229584,"current_range_meters":22400,"station_id":"ce4bh392rcd13ifvqdm0","pricing_plan_id":"free"},{"bike_id":"eaa67933-531d-4e9f-b401-7ed91afe25aa","system_id":"levelo_inurba_marseille","lat":43.284462,"lon":5.392121,"is_reserved":false,"is_disabled":false,"rental_uris":{"android":"levelo://app?vid=eaa67933-531d-4e9f-b401-7ed91afe25aa","ios":"levelo://app?vid=eaa67933-531d-4e9f-b401-7ed91afe25aa"},"vehicle_type_id":"4","last_reported":1704229584,"current_range_meters":24000,"station_id":"ce4bhoh2rcd13ifvqh5g","pricing_plan_id":"free"},{"bike_id":"2f19c8ee-abba-4206-86d5-a796fd16787f","system_id":"levelo_inurba_marseille","lat":43.284462,"lon":5.392121,"is_reserved":false,"is_disabled":false,"rental_uris":{"android":"levelo://app?vid=2f19c8ee-abba-4206-86d5-a796fd16787f","ios":"levelo://app?vid=2f19c8ee-abba-4206-86d5-a796fd16787f"},"vehicle_type_id":"4","last_reported":1704229584,"current_range_meters":26400,"station_id":"ce4bhoh2rcd13ifvqh5g","pricing_plan_id":"free"},{"bike_id":"c6e02fb7-b4da-4f16-93f0-f5ad1203684c","system_id":"levelo_inurba_marseille","lat":43.284462,"lon":5.392121,"is_reserved":false,"is_disabled":false,"rental_uris":{"android":"levelo://app?vid=c6e02fb7-b4da-4f16-93f0-f5ad1203684c","ios":"levelo://app?vid=c6e02fb7-b4da-4f16-93f0-f5ad1203684c"},"vehicle_type_id":"4","last_reported":1704229584,"current_range_meters":27200,"station_id":"ce4bhoh2rcd13ifvqh5g","pricing_plan_id":"free"},{"bike_id":"f72b83d7-5b8c-456f-987b-58c88e419a20","system_id":"levelo_inurba_marseille","lat":43.285742,"lon":5.395004,"is_reserved":false,"is_disabled":false,"rental_uris":{"android":"levelo://app?vid=f72b83d7-5b8c-456f-987b-58c88e419a20","ios":"levelo://app?vid=f72b83d7-5b8c-456f-987b-58c88e419a20"},"vehicle_type_id":"4","last_reported":1704229584,"current_range_meters":4800,"station_id":"ce4bh292rcd13ifvqdg0","pricing_plan_id":"free"},{"bike_id":"bf5eea47-b5d5-4b33-95bd-9e486eafd2b8","system_id":"levelo_inurba_marseille","lat":43.285742,"lon":5.395004,"is_reserved":false,"is_disabled":false,"rental_uris":{"android":"levelo://app?vid=bf5eea47-b5d5-4b33-95bd-9e486eafd2b8","ios":"levelo://app?vid=bf5eea47-b5d5-4b33-95bd-9e486eafd2b8"},"vehicle_type_id":"4","last_reported":1704229584,"current_range_meters":23200,"station_id":"ce4bh292rcd13ifvqdg0","pricing_plan_id":"free"},{"bike_id":"8d6a1088-326d-4d13-855d-59558595c6fe","system_id":"levelo_inurba_marseille","lat":43.28573,"lon":5.394992,"is_reserved":false,"is_disabled":false,"rental_uris":{"android":"levelo://app?vid=8d6a1088-326d-4d13-855d-59558595c6fe","ios":"levelo://app?vid=8d6a1088-326d-4d13-855d-59558595c6fe"},"vehicle_type_id":"4","last_reported":1704229584,"current_range_meters":26000,"station_id":"ce4bh292rcd13ifvqdg0","pricing_plan_id":"free"},{"bike_id":"e7df4b96-71b7-480f-b1ea-d9cd759592bf","system_id":"levelo_inurba_marseille","lat":43.28573,"lon":5.394992,"is_reserved":false,"is_disabled":false,"rental_uris":{"android":"levelo://app?vid=e7df4b96-71b7-480f-b1ea-d9cd759592bf","ios":"levelo://app?vid=e7df4b96-71b7-480f-b1ea-d9cd759592bf"},"vehicle_type_id":"4","last_reported":1704229584,"current_range_meters":25200,"station_id":"ce4bh292rcd13ifvqdg0","pricing_plan_id":"free"},{"bike_id":"ce388a99-2ab1-41b7-ae86-b40c471c3cbf","system_id":"levelo_inurba_marseille","lat":43.30416,"lon":5.41283,"is_reserved":false,"is_disabled":false,"rental_uris":{"android":"levelo://app?vid=ce388a99-2ab1-41b7-ae86-b40c471c3cbf","ios":"levelo://app?vid=ce388a99-2ab1-41b7-ae86-b40c471c3cbf"},"vehicle_type_id":"4","last_reported":1704229584,"current_range_meters":4000,"station_id":"ce4bhop2rcd13ifvqh8g","pricing_plan_id":"free"},{"bike_id":"c935cc26-978c-4b7b-84bc-089b603c6282","system_id":"levelo_inurba_marseille","lat":43.279087,"lon":5.380114,"is_reserved":false,"is_disabled":false,"rental_uris":{"android":"levelo://app?vid=c935cc26-978c-4b7b-84bc-089b603c6282","ios":"levelo://app?vid=c935cc26-978c-4b7b-84bc-089b603c6282"},"vehicle_type_id":"4","last_reported":1704229584,"current_range_meters":26400,"station_id":"ce4bhf92rcd13ifvqf50","pricing_plan_id":"free"},{"bike_id":"f0d70c60-5f1e-4529-8664-3cbd80432697","system_id":"levelo_inurba_marseille","lat":43.287154,"lon":5.399979,"is_reserved":false,"is_disabled":false,"rental_uris":{"android":"levelo://app?vid=f0d70c60-5f1e-4529-8664-3cbd80432697","ios":"levelo://app?vid=f0d70c60-5f1e-4529-8664-3cbd80432697"},"vehicle_type_id":"4","last_reported":1704229584,"current_range_meters":15600,"station_id":"ce4bho92rcd13ifvqh3g","pricing_plan_id":"free"},{"bike_id":"b0f03711-e639-4d6d-97d1-49ec392837dd","system_id":"levelo_inurba_marseille","lat":43.287154,"lon":5.399979,"is_reserved":false,"is_disabled":false,"rental_uris":{"android":"levelo://app?vid=b0f03711-e639-4d6d-97d1-49ec392837dd","ios":"levelo://app?vid=b0f03711-e639-4d6d-97d1-49ec392837dd"},"vehicle_type_id":"4","last_reported":1704229584,"current_range_meters":26800,"station_id":"ce4bho92rcd13ifvqh3g","pricing_plan_id":"free"},{"bike_id":"264aed10-74f0-49fc-8476-5bd4afa824db","system_id":"levelo_inurba_marseille","lat":43.279087,"lon":5.380114,"is_reserved":false,"is_disabled":false,"rental_uris":{"android":"levelo://app?vid=264aed10-74f0-49fc-8476-5bd4afa824db","ios":"levelo://app?vid=264aed10-74f0-49fc-8476-5bd4afa824db"},"vehicle_type_id":"4","last_reported":1704229584,"current_range_meters":22800,"station_id":"ce4bhf92rcd13ifvqf50","pricing_plan_id":"free"},{"bike_id":"dfe44e7e-d566-40f6-a546-768dfe0e78a7","system_id":"levelo_inurba_marseille","lat":43.287154,"lon":5.399979,"is_reserved":false,"is_disabled":false,"rental_uris":{"android":"levelo://app?vid=dfe44e7e-d566-40f6-a546-768dfe0e78a7","ios":"levelo://app?vid=dfe44e7e-d566-40f6-a546-768dfe0e78a7"},"vehicle_type_id":"4","last_reported":1704229584,"current_range_meters":21200,"station_id":"ce4bho92rcd13ifvqh3g","pricing_plan_id":"free"},{"bike_id":"66bc737f-199c-46e9-a871-4d7292807260","system_id":"levelo_inurba_marseille","lat":43.320045,"lon":5.415046,"is_reserved":false,"is_disabled":false,"rental_uris":{"android":"levelo://app?vid=66bc737f-199c-46e9-a871-4d7292807260","ios":"levelo://app?vid=66bc737f-199c-46e9-a871-4d7292807260"},"vehicle_type_id":"4","last_reported":1704229584,"current_range_meters":30400,"station_id":"ce4bhq92rcd13ifvqhkg","pricing_plan_id":"free"},{"bike_id":"6e6658d0-c148-4e77-885a-818b2a313fca","system_id":"levelo_inurba_marseille","lat":43.320472,"lon":5.41549,"is_reserved":false,"is_disabled":false,"rental_uris":{"android":"levelo://app?vid=6e6658d0-c148-4e77-885a-818b2a313fca","ios":"levelo://app?vid=6e6658d0-c148-4e77-885a-818b2a313fca"},"vehicle_type_id":"4","last_reported":1704229584,"current_range_meters":28800,"station_id":"ce4bhq92rcd13ifvqhkg","pricing_plan_id":"free"},{"bike_id":"39475dad-6913-4ece-9a38-eab38ca9c283","system_id":"levelo_inurba_marseille","lat":43.279742,"lon":5.38744,"is_reserved":false,"is_disabled":false,"rental_uris":{"android":"levelo://app?vid=39475dad-6913-4ece-9a38-eab38ca9c283","ios":"levelo://app?vid=39475dad-6913-4ece-9a38-eab38ca9c283"},"vehicle_type_id":"4","last_reported":1704229584,"current_range_meters":26000,"station_id":"ce4bhg12rcd13ifvqf80","pricing_plan_id":"free"},{"bike_id":"1ae8bf38-787c-4353-a7f5-069d2a4dfe37","system_id":"levelo_inurba_marseille","lat":43.292569,"lon":5.409107,"is_reserved":false,"is_disabled":false,"rental_uris":{"android":"levelo://app?vid=1ae8bf38-787c-4353-a7f5-069d2a4dfe37","ios":"levelo://app?vid=1ae8bf38-787c-4353-a7f5-069d2a4dfe37"},"vehicle_type_id":"4","last_reported":1704229584,"current_range_meters":16000,"station_id":"ce4bh192rcd13ifvqdc0","pricing_plan_id":"free"},{"bike_id":"cf259e9d-e91d-4494-bf38-9c2294f724dc","system_id":"levelo_inurba_marseille","lat":43.280784,"lon":5.396622,"is_reserved":false,"is_disabled":false,"rental_uris":{"android":"levelo://app?vid=cf259e9d-e91d-4494-bf38-9c2294f724dc","ios":"levelo://app?vid=cf259e9d-e91d-4494-bf38-9c2294f724dc"},"vehicle_type_id":"4","last_reported":1704229584,"current_range_meters":30400,"station_id":"ce4bho12rcd13ifvqh2g","pricing_plan_id":"free"},{"bike_id":"024eb4f9-bc93-495e-9194-e6d67a1e04ce","system_id":"levelo_inurba_marseille","lat":43.280784,"lon":5.396622,"is_reserved":false,"is_disabled":false,"rental_uris":{"android":"levelo://app?vid=024eb4f9-bc93-495e-9194-e6d67a1e04ce","ios":"levelo://app?vid=024eb4f9-bc93-495e-9194-e6d67a1e04ce"},"vehicle_type_id":"4","last_reported":1704229584,"current_range_meters":30000,"station_id":"ce4bho12rcd13ifvqh2g","pricing_plan_id":"free"},{"bike_id":"2f07b6ec-cb19-4393-848e-201add03b747","system_id":"levelo_inurba_marseille","lat":43.280784,"lon":5.396622,"is_reserved":false,"is_disabled":false,"rental_uris":{"android":"levelo://app?vid=2f07b6ec-cb19-4393-848e-201add03b747","ios":"levelo://app?vid=2f07b6ec-cb19-4393-848e-201add03b747"},"vehicle_type_id":"4","last_reported":1704229584,"current_range_meters":30000,"station_id":"ce4bho12rcd13ifvqh2g","pricing_plan_id":"free"},{"bike_id":"ed420f1b-7d98-48b1-aa16-56195c71017c","system_id":"levelo_inurba_marseille","lat":43.303837,"lon":5.418724,"is_reserved":false,"is_disabled":false,"rental_uris":{"android":"levelo://app?vid=ed420f1b-7d98-48b1-aa16-56195c71017c","ios":"levelo://app?vid=ed420f1b-7d98-48b1-aa16-56195c71017c"},"vehicle_type_id":"4","last_reported":1704229584,"current_range_meters":26400,"station_id":"ce4bhop2rcd13ifvqh7g","pricing_plan_id":"free"},{"bike_id":"31b3f32b-d77c-4342-8769-1470f7a752a5","system_id":"levelo_inurba_marseille","lat":43.278401,"lon":5.392152,"is_reserved":false,"is_disabled":false,"rental_uris":{"android":"levelo://app?vid=31b3f32b-d77c-4342-8769-1470f7a752a5","ios":"levelo://app?vid=31b3f32b-d77c-4342-8769-1470f7a752a5"},"vehicle_type_id":"4","last_reported":1704229584,"current_range_meters":8400,"station_id":"ce4bhjp2rcd13ifvqga0","pricing_plan_id":"free"},{"bike_id":"c9b265f3-3d7a-4da9-a365-3897bf5319b9","system_id":"levelo_inurba_marseille","lat":43.273613,"lon":5.362705,"is_reserved":false,"is_disabled":false,"rental_uris":{"android":"levelo://app?vid=c9b265f3-3d7a-4da9-a365-3897bf5319b9","ios":"levelo://app?vid=c9b265f3-3d7a-4da9-a365-3897bf5319b9"},"vehicle_type_id":"4","last_reported":1704229584,"current_range_meters":26800,"station_id":"ce4bhbh2rcd13ifvqeo0","pricing_plan_id":"free"},{"bike_id":"c40295f0-e224-44bf-bf3c-646881759496","system_id":"levelo_inurba_marseille","lat":43.273613,"lon":5.362705,"is_reserved":false,"is_disabled":false,"rental_uris":{"android":"levelo://app?vid=c40295f0-e224-44bf-bf3c-646881759496","ios":"levelo://app?vid=c40295f0-e224-44bf-bf3c-646881759496"},"vehicle_type_id":"4","last_reported":1704229584,"current_range_meters":20800,"station_id":"ce4bhbh2rcd13ifvqeo0","pricing_plan_id":"free"},{"bike_id":"a6eef64b-9ccb-4ece-9fff-9eb9aa01cfc8","system_id":"levelo_inurba_marseille","lat":43.27566,"lon":5.38419,"is_reserved":false,"is_disabled":false,"rental_uris":{"android":"levelo://app?vid=a6eef64b-9ccb-4ece-9fff-9eb9aa01cfc8","ios":"levelo://app?vid=a6eef64b-9ccb-4ece-9fff-9eb9aa01cfc8"},"vehicle_type_id":"4","last_reported":1704229584,"current_range_meters":24800,"station_id":"ce4bhh92rcd13ifvqfi0","pricing_plan_id":"free"},{"bike_id":"2e21ede0-198c-4be4-bfa4-3f304253ad71","system_id":"levelo_inurba_marseille","lat":43.275625,"lon":5.384392,"is_reserved":false,"is_disabled":false,"rental_uris":{"android":"levelo://app?vid=2e21ede0-198c-4be4-bfa4-3f304253ad71","ios":"levelo://app?vid=2e21ede0-198c-4be4-bfa4-3f304253ad71"},"vehicle_type_id":"4","last_reported":1704229584,"current_range_meters":19600,"station_id":"ce4bhh92rcd13ifvqfi0","pricing_plan_id":"free"},{"bike_id":"c0404cda-1b40-4c16-9c9e-0e9ff2ff802a","system_id":"levelo_inurba_marseille","lat":43.27569,"lon":5.38435,"is_reserved":false,"is_disabled":false,"rental_uris":{"android":"levelo://app?vid=c0404cda-1b40-4c16-9c9e-0e9ff2ff802a","ios":"levelo://app?vid=c0404cda-1b40-4c16-9c9e-0e9ff2ff802a"},"vehicle_type_id":"4","last_reported":1704229584,"current_range_meters":16800,"station_id":"ce4bhh92rcd13ifvqfi0","pricing_plan_id":"free"},{"bike_id":"1e900dff-6021-4492-b3ea-4bfe12e3cc94","system_id":"levelo_inurba_marseille","lat":43.279975,"lon":5.40009,"is_reserved":false,"is_disabled":false,"rental_uris":{"android":"levelo://app?vid=1e900dff-6021-4492-b3ea-4bfe12e3cc94","ios":"levelo://app?vid=1e900dff-6021-4492-b3ea-4bfe12e3cc94"},"vehicle_type_id":"4","last_reported":1704229584,"current_range_meters":22000,"station_id":"ce4bho92rcd13ifvqh4g","pricing_plan_id":"free"},{"bike_id":"fbf53502-4604-4ae7-9411-28015770cd7b","system_id":"levelo_inurba_marseille","lat":43.279952,"lon":5.400085,"is_reserved":false,"is_disabled":false,"rental_uris":{"android":"levelo://app?vid=fbf53502-4604-4ae7-9411-28015770cd7b","ios":"levelo://app?vid=fbf53502-4604-4ae7-9411-28015770cd7b"},"vehicle_type_id":"4","last_reported":1704229584,"current_range_meters":29600,"station_id":"ce4bho92rcd13ifvqh4g","pricing_plan_id":"free"},{"bike_id":"2774f0d0-ce20-4035-bcbf-3fc04f618288","system_id":"levelo_inurba_marseille","lat":43.279975,"lon":5.40009,"is_reserved":false,"is_disabled":false,"rental_uris":{"android":"levelo://app?vid=2774f0d0-ce20-4035-bcbf-3fc04f618288","ios":"levelo://app?vid=2774f0d0-ce20-4035-bcbf-3fc04f618288"},"vehicle_type_id":"4","last_reported":1704229584,"current_range_meters":31200,"station_id":"ce4bho92rcd13ifvqh4g","pricing_plan_id":"free"},{"bike_id":"9c4dd5ee-6757-4c29-98c5-ece56c7532c0","system_id":"levelo_inurba_marseille","lat":43.317121,"lon":5.423936,"is_reserved":false,"is_disabled":false,"rental_uris":{"android":"levelo://app?vid=9c4dd5ee-6757-4c29-98c5-ece56c7532c0","ios":"levelo://app?vid=9c4dd5ee-6757-4c29-98c5-ece56c7532c0"},"vehicle_type_id":"4","last_reported":1704229584,"current_range_meters":2000,"station_id":"ce4bhp92rcd13ifvqhbg","pricing_plan_id":"free"},{"bike_id":"575dab36-6090-4ba0-b893-e3f7e28cfb60","system_id":"levelo_inurba_marseille","lat":43.317121,"lon":5.423936,"is_reserved":false,"is_disabled":false,"rental_uris":{"android":"levelo://app?vid=575dab36-6090-4ba0-b893-e3f7e28cfb60","ios":"levelo://app?vid=575dab36-6090-4ba0-b893-e3f7e28cfb60"},"vehicle_type_id":"4","last_reported":1704229584,"current_range_meters":15200,"station_id":"ce4bhp92rcd13ifvqhbg","pricing_plan_id":"free"},{"bike_id":"5e3452d0-bbc8-463b-8852-ec98e809d5a0","system_id":"levelo_inurba_marseille","lat":43.317121,"lon":5.423936,"is_reserved":false,"is_disabled":false,"rental_uris":{"android":"levelo://app?vid=5e3452d0-bbc8-463b-8852-ec98e809d5a0","ios":"levelo://app?vid=5e3452d0-bbc8-463b-8852-ec98e809d5a0"},"vehicle_type_id":"4","last_reported":1704229584,"current_range_meters":31600,"station_id":"ce4bhp92rcd13ifvqhbg","pricing_plan_id":"free"},{"bike_id":"f3e351f0-7ca3-497e-a450-69da3118abd7","system_id":"levelo_inurba_marseille","lat":43.317121,"lon":5.423936,"is_reserved":false,"is_disabled":false,"rental_uris":{"android":"levelo://app?vid=f3e351f0-7ca3-497e-a450-69da3118abd7","ios":"levelo://app?vid=f3e351f0-7ca3-497e-a450-69da3118abd7"},"vehicle_type_id":"4","last_reported":1704229584,"current_range_meters":31600,"station_id":"ce4bhp92rcd13ifvqhbg","pricing_plan_id":"free"},{"bike_id":"c2f050c8-5829-4d0e-9d3b-560f9daeb30d","system_id":"levelo_inurba_marseille","lat":43.310785,"lon":5.424305,"is_reserved":false,"is_disabled":false,"rental_uris":{"android":"levelo://app?vid=c2f050c8-5829-4d0e-9d3b-560f9daeb30d","ios":"levelo://app?vid=c2f050c8-5829-4d0e-9d3b-560f9daeb30d"},"vehicle_type_id":"4","last_reported":1704229584,"current_range_meters":31200,"station_id":"ce4bhp92rcd13ifvqhag","pricing_plan_id":"free"},{"bike_id":"537de52f-fbf7-4ccb-979b-67cc22a43136","system_id":"levelo_inurba_marseille","lat":43.310785,"lon":5.424305,"is_reserved":false,"is_disabled":false,"rental_uris":{"android":"levelo://app?vid=537de52f-fbf7-4ccb-979b-67cc22a43136","ios":"levelo://app?vid=537de52f-fbf7-4ccb-979b-67cc22a43136"},"vehicle_type_id":"4","last_reported":1704229584,"current_range_meters":7200,"station_id":"ce4bhp92rcd13ifvqhag","pricing_plan_id":"free"},{"bike_id":"d109887b-93ba-466a-aaad-a1981d394c10","system_id":"levelo_inurba_marseille","lat":43.304096,"lon":5.425385,"is_reserved":false,"is_disabled":false,"rental_uris":{"android":"levelo://app?vid=d109887b-93ba-466a-aaad-a1981d394c10","ios":"levelo://app?vid=d109887b-93ba-466a-aaad-a1981d394c10"},"vehicle_type_id":"4","last_reported":1704229584,"current_range_meters":22800,"station_id":"ce4bhoh2rcd13ifvqh6g","pricing_plan_id":"free"},{"bike_id":"b3efae7d-ef94-4c9b-ba37-6490d1e96973","system_id":"levelo_inurba_marseille","lat":43.304096,"lon":5.425385,"is_reserved":false,"is_disabled":false,"rental_uris":{"android":"levelo://app?vid=b3efae7d-ef94-4c9b-ba37-6490d1e96973","ios":"levelo://app?vid=b3efae7d-ef94-4c9b-ba37-6490d1e96973"},"vehicle_type_id":"4","last_reported":1704229584,"current_range_meters":4000,"station_id":"ce4bhoh2rcd13ifvqh6g","pricing_plan_id":"free"},{"bike_id":"f0489890-e96a-4deb-92e7-26f06d10b6d8","system_id":"levelo_inurba_marseille","lat":43.295523,"lon":5.422926,"is_reserved":false,"is_disabled":false,"rental_uris":{"android":"levelo://app?vid=f0489890-e96a-4deb-92e7-26f06d10b6d8","ios":"levelo://app?vid=f0489890-e96a-4deb-92e7-26f06d10b6d8"},"vehicle_type_id":"4","last_reported":1704229584,"current_range_meters":22800,"station_id":"ce4bhph2rcd13ifvqhdg","pricing_plan_id":"free"},{"bike_id":"1c7fc254-513e-4e48-b328-96597f351885","system_id":"levelo_inurba_marseille","lat":43.295511,"lon":5.422926,"is_reserved":false,"is_disabled":false,"rental_uris":{"android":"levelo://app?vid=1c7fc254-513e-4e48-b328-96597f351885","ios":"levelo://app?vid=1c7fc254-513e-4e48-b328-96597f351885"},"vehicle_type_id":"4","last_reported":1704229584,"current_range_meters":24400,"station_id":"ce4bhph2rcd13ifvqhdg","pricing_plan_id":"free"},{"bike_id":"b701f046-c0f9-4723-9e32-fc4e5bdea61e","system_id":"levelo_inurba_marseille","lat":43.295523,"lon":5.422926,"is_reserved":false,"is_disabled":false,"rental_uris":{"android":"levelo://app?vid=b701f046-c0f9-4723-9e32-fc4e5bdea61e","ios":"levelo://app?vid=b701f046-c0f9-4723-9e32-fc4e5bdea61e"},"vehicle_type_id":"4","last_reported":1704229584,"current_range_meters":0,"station_id":"ce4bhph2rcd13ifvqhdg","pricing_plan_id":"free"},{"bike_id":"51572267-e8e5-49fc-9f36-c651c211745f","system_id":"levelo_inurba_marseille","lat":43.2955,"lon":5.4229,"is_reserved":false,"is_disabled":false,"rental_uris":{"android":"levelo://app?vid=51572267-e8e5-49fc-9f36-c651c211745f","ios":"levelo://app?vid=51572267-e8e5-49fc-9f36-c651c211745f"},"vehicle_type_id":"4","last_reported":1704229584,"current_range_meters":29600,"station_id":"ce4bhph2rcd13ifvqhdg","pricing_plan_id":"free"},{"bike_id":"8fde798f-1a53-4ae7-acbe-6359ff17d07e","system_id":"levelo_inurba_marseille","lat":43.295523,"lon":5.422926,"is_reserved":false,"is_disabled":false,"rental_uris":{"android":"levelo://app?vid=8fde798f-1a53-4ae7-acbe-6359ff17d07e","ios":"levelo://app?vid=8fde798f-1a53-4ae7-acbe-6359ff17d07e"},"vehicle_type_id":"4","last_reported":1704229584,"current_range_meters":10000,"station_id":"ce4bhph2rcd13ifvqhdg","pricing_plan_id":"free"},{"bike_id":"5739d156-7dd4-484d-97ed-16fcdd68d703","system_id":"levelo_inurba_marseille","lat":43.295473,"lon":5.422924,"is_reserved":false,"is_disabled":false,"rental_uris":{"android":"levelo://app?vid=5739d156-7dd4-484d-97ed-16fcdd68d703","ios":"levelo://app?vid=5739d156-7dd4-484d-97ed-16fcdd68d703"},"vehicle_type_id":"4","last_reported":1704229584,"current_range_meters":23600,"station_id":"ce4bhph2rcd13ifvqhdg","pricing_plan_id":"free"},