{"last_updated":1701025474,"ttl":30,"version":"2.2","data":{"bikes":[{"bike_id":"716b9d15-66fe-4da3-8b0e-b85d329235ff","system_id":"levelo_inurba_marseille","lat":43.314811,"lon":5.373103,"is_reserved":false,"is_disabled":false,"rental_uris":{"android":"levelo://app?vid=716b9d15-66fe-4da3-8b0e-b85d329235ff","ios":"levelo://app?vid=716b9d15-66fe-4da3-8b0e-b85d329235ff"},"vehicle_type_id":"4","last_reported":1701025474,"current_range_meters":3200,"station_id":"ce4bgt12rcd13ifvqcd0","pricing_plan_id":"free"},{"bike_id":"160a70ef-56e4-47ac-9f82-f8d18bab91ce","system_id":"levelo_inurba_marseille","lat":43.314811,"lon":5.373103,"is_reserved":false,"is_disabled":false,"rental_uris":{"android":"levelo://app?vid=160a70ef-56e4-47ac-9f82-f8d18bab91ce","ios":"levelo://app?vid=160a70ef-56e4-47ac-9f82-f8d18bab91ce"},"vehicle_type_id":"4","last_reported":1701025474,"current_range_meters":13600,"station_id":"ce4bgt12rcd13ifvqcd0","pricing_plan_id":"free"},{"bike_id":"34702138-f19f-4f11-8cb2-19967550521a","system_id":"levelo_inurba_marseille","lat":43.314811,"lon":5.373104,"is_reserved":false,"is_disabled":false,"rental_uris":{"android":"levelo://app?vid=34702138-f19f-4f11-8cb2-19967550521a","ios":"levelo://app?vid=34702138-f19f-4f11-8cb2-19967550521a"},"vehicle_type_id":"4","last_reported":1701025474,"current_range_meters":400,"station_id":"ce4bgt12rcd13ifvqcd0","pricing_plan_id":"free"},{"bike_id":"9e254fb1-0a84-4708-acee-ed1fc071c1e8","system_id":"levelo_inurba_marseille","lat":43.30891,"lon":5.3718,"is_reserved":false,"is_disabled":false,"rental_uris":{"android":"levelo://app?vid=9e254fb1-0a84-4708-acee-ed1fc071c1e8","ios":"levelo://app?vid=9e254fb1-0a84-4708-acee-ed1fc071c1e8"},"vehicle_type_id":"4","last_reported":1701025474,"current_range_meters":10000,"station_id":"ce4bguh2rcd13ifvqckg","pricing_plan_id":"free"},{"bike_id":"e92166d1-7d01-4ce5-ac38-4e3d4f79fa71","system_id":"levelo_inurba_marseille","lat":43.3089,"lon":5.37183,"is_reserved":false,"is_disabled":false,"rental_uris":{"android":"levelo://app?vid=e92166d1-7d01-4ce5-ac38-4e3d4f79fa71","ios":"levelo://app?vid=e92166d1-7d01-4ce5-ac38-4e3d4f79fa71"},"vehicle_type_id":"4","last_reported":1701025474,"current_range_meters":12800,"station_id":"ce4bguh2rcd13ifvqckg","pricing_plan_id":"free"},{"bike_id":"3915a6ba-0b77-433a-8f18-c10bc3bc9055","system_id":"levelo_inurba_marseille","lat":43.30527,"lon":5.3672,"is_reserved":false,"is_disabled":false,"rental_uris":{"android":"levelo://app?vid=3915a6ba-0b77-433a-8f18-c10bc3bc9055","ios":"levelo://app?vid=3915a6ba-0b77-433a-8f18-c10bc3bc9055"},"vehicle_type_id":"4","last_reported":1701025474,"current_range_meters":0,"station_id":"ce4bgrp2rcd13ifvqc9g","pricing_plan_id":"free"},{"bike_id":"9ebec130-a4a3-49c0-8622-5b999d72710b","system_id":"levelo_inurba_marseille","lat":43.311202,"lon":5.377725,"is_reserved":false,"is_disabled":false,"rental_uris":{"android":"levelo://app?vid=9ebec130-a4a3-49c0-8622-5b999d72710b","ios":"levelo://app?vid=9ebec130-a4a3-49c0-8622-5b999d72710b"},"vehicle_type_id":"4","last_reported":1701025474,"current_range_meters":0,"station_id":"ce4bgt92rcd13ifvqcg0","pricing_plan_id":"free"},{"bike_id":"573a870a-b6c4-429d-8587-8103772b84bc","system_id":"levelo_inurba_marseille","lat":43.308207,"lon":5.376599,"is_reserved":false,"is_disabled":false,"rental_uris":{"android":"levelo://app?vid=573a870a-b6c4-429d-8587-8103772b84bc","ios":"levelo://app?vid=573a870a-b6c4-429d-8587-8103772b84bc"},"vehicle_type_id":"4","last_reported":1701025474,"current_range_meters":0,"station_id":"ce4bgv92rcd13ifvqcq0","pricing_plan_id":"free"},{"bike_id":"f427a2c3-6e4a-446b-ae2f-9be8aa7f4122","system_id":"levelo_inurba_marseille","lat":43.31719,"lon":5.376813,"is_reserved":false,"is_disabled":false,"rental_uris":{"android":"levelo://app?vid=f427a2c3-6e4a-446b-ae2f-9be8aa7f4122","ios":"levelo://app?vid=f427a2c3-6e4a-446b-ae2f-9be8aa7f4122"},"vehicle_type_id":"4","last_reported":1701025474,"current_range_meters":20000,"station_id":"ce4bgth2rcd13ifvqch0","pricing_plan_id":"free"},{"bike_id":"b898b018-f57d-4901-bab2-fdd15d391de9","system_id":"levelo_inurba_marseille","lat":43.317168,"lon":5.376883,"is_reserved":false,"is_disabled":false,"rental_uris":{"android":"levelo://app?vid=b898b018-f57d-4901-bab2-fdd15d391de9","ios":"levelo://app?vid=b898b018-f57d-4901-bab2-fdd15d391de9"},"vehicle_type_id":"4","last_reported":1701025474,"current_range_meters":22400,"station_id":"ce4bgth2rcd13ifvqch0","pricing_plan_id":"free"},{"bike_id":"3afd03cb-2a8f-45fe-8f15-50696615a52a","system_id":"levelo_inurba_marseille","lat":43.307945,"lon":5.376487,"is_reserved":false,"is_disabled":false,"rental_uris":{"android":"levelo://app?vid=3afd03cb-2a8f-45fe-8f15-50696615a52a","ios":"levelo://app?vid=3afd03cb-2a8f-45fe-8f15-50696615a52a"},"vehicle_type_id":"4","last_reported":1701025474,"current_range_meters":800,"station_id":"ce4bgv92rcd13ifvqcq0","pricing_plan_id":"free"},{"bike_id":"cc52def7-a981-472b-8f64-759de902619d","system_id":"levelo_inurba_marseille","lat":43.307945,"lon":5.376487,"is_reserved":false,"is_disabled":false,"rental_uris":{"android":"levelo://app?vid=cc52def7-a981-472b-8f64-759de902619d","ios":"levelo://app?vid=cc52def7-a981-472b-8f64-759de902619d"},"vehicle_type_id":"4","last_reported":1701025474,"current_range_meters":6800,"station_id":"ce4bgv92rcd13ifvqcq0","pricing_plan_id":"free"},{"bike_id":"a80f348a-adbe-415b-8175-efc5cebf9a3a","system_id":"levelo_inurba_marseille","lat":43.317075,"lon":5.377367,"is_reserved":false,"is_disabled":false,"rental_uris":{"android":"levelo://app?vid=a80f348a-adbe-415b-8175-efc5cebf9a3a","ios":"levelo://app?vid=a80f348a-adbe-415b-8175-efc5cebf9a3a"},"vehicle_type_id":"4","last_reported":1701025474,"current_range_meters":8800,"station_id":"ce4bgth2rcd13ifvqch0","pricing_plan_id":"free"},{"bike_id":"93476d61-529e-4fe5-9fcd-ca8912eb21f8","system_id":"levelo_inurba_marseille","lat":43.303046,"lon":5.368981,"is_reserved":false,"is_disabled":false,"rental_uris":{"android":"levelo://app?vid=93476d61-529e-4fe5-9fcd-ca8912eb21f8","ios":"levelo://app?vid=93476d61-529e-4fe5-9fcd-ca8912eb21f8"},"vehicle_type_id":"4","last_reported":1701025474,"current_range_meters":14800,"station_id":"ce4bgqh2rcd13ifvqc5g","pricing_plan_id":"free"},{"bike_id":"9dd512cb-1da4-425d-942e-c20474143127","system_id":"levelo_inurba_marseille","lat":43.32181,"lon":5.37482,"is_reserved":false,"is_disabled":false,"rental_uris":{"android":"levelo://app?vid=9dd512cb-1da4-425d-942e-c20474143127","ios":"levelo://app?vid=9dd512cb-1da4-425d-942e-c20474143127"},"vehicle_type_id":"4","last_reported":1701025474,"current_range_meters":5600,"station_id":"","pricing_plan_id":"free"},{"bike_id":"8ef87ac3-8a0d-4ac6-80c0-266e2621bf7f","system_id":"levelo_inurba_marseille","lat":43.32178,"lon":5.37505,"is_reserved":false,"is_disabled":false,"rental_uris":{"android":"levelo://app?vid=8ef87ac3-8a0d-4ac6-80c0-266e2621bf7f","ios":"levelo://app?vid=8ef87ac3-8a0d-4ac6-80c0-266e2621bf7f"},"vehicle_type_id":"4","last_reported":1701025474,"current_range_meters":14800,"station_id":"","pricing_plan_id":"free"},{"bike_id":"f852916f-8890-4fa9-a9b3-e7c61af9734f","system_id":"levelo_inurba_marseille","lat":43.301939,"lon":5.366286,"is_reserved":false,"is_disabled":false,"rental_uris":{"android":"levelo://app?vid=f852916f-8890-4fa9-a9b3-e7c61af9734f","ios":"levelo://app?vid=f852916f-8890-4fa9-a9b3-e7c61af9734f"},"vehicle_type_id":"4","last_reported":1701025474,"current_range_meters":4000,"station_id":"ce4bgrh2rcd13ifvqc8g","pricing_plan_id":"free"},{"bike_id":"c5f8d405-6205-46cd-b6e0-a312cd799f1e","system_id":"levelo_inurba_marseille","lat":43.304606,"lon":5.379026,"is_reserved":false,"is_disabled":false,"rental_uris":{"android":"levelo://app?vid=c5f8d405-6205-46cd-b6e0-a312cd799f1e","ios":"levelo://app?vid=c5f8d405-6205-46cd-b6e0-a312cd799f1e"},"vehicle_type_id":"4","last_reported":1701025474,"current_range_meters":23200,"station_id":"ce4bgup2rcd13ifvqcn0","pricing_plan_id":"free"},{"bike_id":"d08500a3-971c-45c5-9111-7cfbe38ee926","system_id":"levelo_inurba_marseille","lat":43.304612,"lon":5.379017,"is_reserved":false,"is_disabled":false,"rental_uris":{"android":"levelo://app?vid=d08500a3-971c-45c5-9111-7cfbe38ee926","ios":"levelo://app?vid=d08500a3-971c-45c5-9111-7cfbe38ee926"},"vehicle_type_id":"4","last_reported":1701025474,"current_range_meters":0,"station_id":"ce4bgup2rcd13ifvqcn0","pricing_plan_id":"free"},{"bike_id":"4960cd84-5f51-4fcb-bf4f-043f77c0faa0","system_id":"levelo_inurba_marseille","lat":43.31477,"lon":5.38402,"is_reserved":false,"is_disabled":false,"rental_uris":{"android":"levelo://app?vid=4960cd84-5f51-4fcb-bf4f-043f77c0faa0","ios":"levelo://app?vid=4960cd84-5f51-4fcb-bf4f-043f77c0faa0"},"vehicle_type_id":"4","last_reported":1701025474,"current_range_meters":16800,"station_id":"","pricing_plan_id":"free"},{"bike_id":"e1c5179b-1edf-4c62-9406-4fcf9e0f97a4","system_id":"levelo_inurba_marseille","lat":43.3199,"lon":5.38166,"is_reserved":false,"is_disabled":false,"rental_uris":{"android":"levelo://app?vid=e1c5179b-1edf-4c62-9406-4fcf9e0f97a4","ios":"levelo://app?vid=e1c5179b-1edf-4c62-9406-4fcf9e0f97a4"},"vehicle_type_id":"4","last_reported":1701025474,"current_range_meters":2000,"station_id":"ce4bhr12rcd13ifvqhpg","pricing_plan_id":"free"},{"bike_id":"e08b5d1c-2ea1-4a55-a707-e51c43c87bf1","system_id":"levelo_inurba_marseille","lat":43.313571,"lon":5.384829,"is_reserved":false,"is_disabled":false,"rental_uris":{"android":"levelo://app?vid=e08b5d1c-2ea1-4a55-a707-e51c43c87bf1","ios":"levelo://app?vid=e08b5d1c-2ea1-4a55-a707-e51c43c87bf1"},"vehicle_type_id":"4","last_reported":1701025474,"current_range_meters":24800,"station_id":"ce4bgt92rcd13ifvqcf0","pricing_plan_id":"free"},{"bike_id":"226e9f74-a000-4c0e-921d-92c18c491bc8","system_id":"levelo_inurba_marseille","lat":43.299222,"lon":5.365554,"is_reserved":false,"is_disabled":false,"rental_uris":{"android":"levelo://app?vid=226e9f74-a000-4c0e-921d-92c18c491bc8","ios":"levelo://app?vid=226e9f74-a000-4c0e-921d-92c18c491bc8"},"vehicle_type_id":"4","last_reported":1701025474,"current_range_meters":8800,"station_id":"ce4bgm92rcd13ifvqbr0","pricing_plan_id":"free"},{"bike_id":"f1cba095-3c08-40f8-8f66-31322db71ad2","system_id":"levelo_inurba_marseille","lat":43.299736,"lon":5.371761,"is_reserved":false,"is_disabled":false,"rental_uris":{"android":"levelo://app?vid=f1cba095-3c08-40f8-8f66-31322db71ad2","ios":"levelo://app?vid=f1cba095-3c08-40f8-8f66-31322db71ad2"},"vehicle_type_id":"4","last_reported":1701025474,"current_range_meters":6400,"station_id":"ce4bgr92rcd13ifvqc7g","pricing_plan_id":"free"},{"bike_id":"21133b70-8146-4c41-86c8-fe2f71bc2199","system_id":"levelo_inurba_marseille","lat":43.305364,"lon":5.384119,"is_reserved":false,"is_disabled":false,"rental_uris":{"android":"levelo://app?vid=21133b70-8146-4c41-86c8-fe2f71bc2199","ios":"levelo://app?vid=21133b70-8146-4c41-86c8-fe2f71bc2199"},"vehicle_type_id":"4","last_reported":1701025474,"current_range_meters":4000,"station_id":"ce4bgg92rcd13ifvqb30","pricing_plan_id":"free"},{"bike_id":"42a98906-e03e-4d5c-aa8b-4acff73fffc8","system_id":"levelo_inurba_marseille","lat":43.30304,"lon":5.368987,"is_reserved":false,"is_disabled":false,"rental_uris":{"android":"levelo://app?vid=42a98906-e03e-4d5c-aa8b-4acff73fffc8","ios":"levelo://app?vid=42a98906-e03e-4d5c-aa8b-4acff73fffc8"},"vehicle_type_id":"4","last_reported":1701025474,"current_range_meters":18800,"station_id":"ce4bgqh2rcd13ifvqc5g","pricing_plan_id":"free"},{"bike_id":"3caed994-1894-4bb5-bd01-c6fbe545d782","system_id":"levelo_inurba_marseille","lat":43.299243,"lon":5.374807,"is_reserved":false,"is_disabled":false,"rental_uris":{"android":"levelo://app?vid=3caed994-1894-4bb5-bd01-c6fbe545d782","ios":"levelo://app?vid=3caed994-1894-4bb5-bd01-c6fbe545d782"},"vehicle_type_id":"4","last_reported":1701025474,"current_range_meters":18400,"station_id":"ce4bgjh2rcd13ifvqbg0","pricing_plan_id":"free"},{"bike_id":"d2a94ad2-b370-487f-b868-d885e8e59ec8","system_id":"levelo_inurba_marseille","lat":43.311722,"lon":5.387247,"is_reserved":false,"is_disabled":false,"rental_uris":{"android":"levelo://app?vid=d2a94ad2-b370-487f-b868-d885e8e59ec8","ios":"levelo://app?vid=d2a94ad2-b370-487f-b868-d885e8e59ec8"},"vehicle_type_id":"4","last_reported":1701025474,"current_range_meters":14000,"station_id":"ce4bgv12rcd13ifvqcp0","pricing_plan_id":"free"},{"bike_id":"84e79bc2-f872-4461-b5dc-11392b156935","system_id":"levelo_inurba_marseille","lat":43.3283,"lon":5.3669,"is_reserved":false,"is_disabled":false,"rental_uris":{"android":"levelo://app?vid=84e79bc2-f872-4461-b5dc-11392b156935","ios":"levelo://app?vid=84e79bc2-f872-4461-b5dc-11392b156935"},"vehicle_type_id":"4","last_reported":1701025474,"current_range_meters":19200,"station_id":"ce4bhs92rcd13ifvqi0g","pricing_plan_id":"free"},{"bike_id":"20b48e7c-44f1-4ba3-b6b2-257a6bdff23e","system_id":"levelo_inurba_marseille","lat":43.328371,"lon":5.366909,"is_reserved":false,"is_disabled":false,"rental_uris":{"android":"levelo://app?vid=20b48e7c-44f1-4ba3-b6b2-257a6bdff23e","ios":"levelo://app?vid=20b48e7c-44f1-4ba3-b6b2-257a6bdff23e"},"vehicle_type_id":"4","last_reported":1701025474,"current_range_meters":3600,"station_id":"ce4bhs92rcd13ifvqi0g","pricing_plan_id":"free"},{"bike_id":"7e8f4e29-a58a-48e4-bfdb-a5e43f42f365","system_id":"levelo_inurba_marseille","lat":43.297163,"lon":5.365866,"is_reserved":false,"is_disabled":false,"rental_uris":{"android":"levelo://app?vid=7e8f4e29-a58a-48e4-bfdb-a5e43f42f365","ios":"levelo://app?vid=7e8f4e29-a58a-48e4-bfdb-a5e43f42f365"},"vehicle_type_id":"4","last_reported":1701025474,"current_range_meters":23200,"station_id":"ce4bgn12rcd13ifvqbt0","pricing_plan_id":"free"},{"bike_id":"ac08b88e-7fd0-43df-a44f-6a6764184126","system_id":"levelo_inurba_marseille","lat":43.297163,"lon":5.365866,"is_reserved":false,"is_disabled":false,"rental_uris":{"android":"levelo://app?vid=ac08b88e-7fd0-43df-a44f-6a6764184126","ios":"levelo://app?vid=ac08b88e-7fd0-43df-a44f-6a6764184126"},"vehicle_type_id":"4","last_reported":1701025474,"current_range_meters":8000,"station_id":"ce4bgn12rcd13ifvqbt0","pricing_plan_id":"free"},{"bike_id":"5028f56d-c7ad-4d21-9d37-36b3da921171","system_id":"levelo_inurba_marseille","lat":43.297163,"lon":5.365866,"is_reserved":false,"is_disabled":false,"rental_uris":{"android":"levelo://app?vid=5028f56d-c7ad-4d21-9d37-36b3da921171","ios":"levelo://app?vid=5028f56d-c7ad-4d21-9d37-36b3da921171"},"vehicle_type_id":"4","last_reported":1701025474,"current_range_meters":21200,"station_id":"ce4bgn12rcd13ifvqbt0","pricing_plan_id":"free"},{"bike_id":"1e31f1da-b974-4527-82e9-a4d160a41255","system_id":"levelo_inurba_marseille","lat":43.317557,"lon":5.390173,"is_reserved":false,"is_disabled":false,"rental_uris":{"android":"levelo://app?vid=1e31f1da-b974-4527-82e9-a4d160a41255","ios":"levelo://app?vid=1e31f1da-b974-4527-82e9-a4d160a41255"},"vehicle_type_id":"4","last_reported":1701025474,"current_range_meters":14400,"station_id":"ce4bhqp2rcd13ifvqhng","pricing_plan_id":"free"},{"bike_id":"82e8da02-0053-46ea-b6f3-b90cf5bbb87d","system_id":"levelo_inurba_marseille","lat":43.298037,"lon":5.381066,"is_reserved":false,"is_disabled":false,"rental_uris":{"android":"levelo://app?vid=82e8da02-0053-46ea-b6f3-b90cf5bbb87d","ios":"levelo://app?vid=82e8da02-0053-46ea-b6f3-b90cf5bbb87d"},"vehicle_type_id":"4","last_reported":1701025474,"current_range_meters":0,"station_id":"ce4bgip2rcd13ifvqbb0","pricing_plan_id":"free"},{"bike_id":"010996c0-4348-4c0b-8c0b-4f0a340e11a0","system_id":"levelo_inurba_marseille","lat":43.304278,"lon":5.388868,"is_reserved":false,"is_disabled":false,"rental_uris":{"android":"levelo://app?vid=010996c0-4348-4c0b-8c0b-4f0a340e11a0","ios":"levelo://app?vid=010996c0-4348-4c0b-8c0b-4f0a340e11a0"},"vehicle_type_id":"4","last_reported":1701025474,"current_range_meters":24000,"station_id":"ce4bgk12rcd13ifvqbi0","pricing_plan_id":"free"},{"bike_id":"072a24f3-dcb7-4c10-bb45-8946d01258c3","system_id":"levelo_inurba_marseille","lat":43.299717,"lon":5.384845,"is_reserved":false,"is_disabled":false,"rental_uris":{"android":"levelo://app?vid=072a24f3-dcb7-4c10-bb45-8946d01258c3","ios":"levelo://app?vid=072a24f3-dcb7-4c10-bb45-8946d01258c3"},"vehicle_type_id":"4","last_reported":1701025474,"current_range_meters":16800,"station_id":"ce4bgj92rcd13ifvqbd0","pricing_plan_id":"free"},{"bike_id":"eecdb1b3-b761-4873-be8a-1d1cb0160450","system_id":"levelo_inurba_marseille","lat":43.299717,"lon":5.384845,"is_reserved":false,"is_disabled":false,"rental_uris":{"android":"levelo://app?vid=eecdb1b3-b761-4873-be8a-1d1cb0160450","ios":"levelo://app?vid=eecdb1b3-b761-4873-be8a-1d1cb0160450"},"vehicle_type_id":"4","last_reported":1701025474,"current_range_meters":23600,"station_id":"ce4bgj92rcd13ifvqbd0","pricing_plan_id":"free"},{"bike_id":"52d3ef3f-b6a4-4475-8d31-20d486183472","system_id":"levelo_inurba_marseille","lat":43.299724,"lon":5.384848,"is_reserved":false,"is_disabled":false,"rental_uris":{"android":"levelo://app?vid=52d3ef3f-b6a4-4475-8d31-20d486183472","ios":"levelo://app?vid=52d3ef3f-b6a4-4475-8d31-20d486183472"},"vehicle_type_id":"4","last_reported":1701025474,"current_range_meters":0,"station_id":"ce4bgj92rcd13ifvqbd0","pricing_plan_id":"free"},{"bike_id":"6b621983-5e9e-42f7-990d-ad5a093820d2","system_id":"levelo_inurba_marseille","lat":43.293801,"lon":5.363066,"is_reserved":false,"is_disabled":false,"rental_uris":{"android":"levelo://app?vid=6b621983-5e9e-42f7-990d-ad5a093820d2","ios":"levelo://app?vid=6b621983-5e9e-42f7-990d-ad5a093820d2"},"vehicle_type_id":"4","last_reported":1701025474,"current_range_meters":0,"station_id":"","pricing_plan_id":"free"},{"bike_id":"df25f6c2-d285-4e87-97d4-41e0630e71fc","system_id":"levelo_inurba_marseille","lat":43.32367,"lon":5.388836,"is_reserved":false,"is_disabled":false,"rental_uris":{"android":"levelo://app?vid=df25f6c2-d285-4e87-97d4-41e0630e71fc","ios":"levelo://app?vid=df25f6c2-d285-4e87-97d4-41e0630e71fc"},"vehicle_type_id":"4","last_reported":1701025474,"current_range_meters":10000,"station_id":"ce4bhqp2rcd13ifvqhog","pricing_plan_id":"free"},{"bike_id":"220fbc58-b4d8-4266-ad0c-5373115a323e","system_id":"levelo_inurba_marseille","lat":43.32367,"lon":5.388836,"is_reserved":false,"is_disabled":false,"rental_uris":{"android":"levelo://app?vid=220fbc58-b4d8-4266-ad0c-5373115a323e","ios":"levelo://app?vid=220fbc58-b4d8-4266-ad0c-5373115a323e"},"vehicle_type_id":"4","last_reported":1701025474,"current_range_meters":11200,"station_id":"ce4bhqp2rcd13ifvqhog","pricing_plan_id":"free"},{"bike_id":"c91caa24-ccd9-44a0-a7dc-ef3dd0691d85","system_id":"levelo_inurba_marseille","lat":43.295318,"lon":5.379055,"is_reserved":false,"is_disabled":false,"rental_uris":{"android":"levelo://app?vid=c91caa24-ccd9-44a0-a7dc-ef3dd0691d85","ios":"levelo://app?vid=c91caa24-ccd9-44a0-a7dc-ef3dd0691d85"},"vehicle_type_id":"4","last_reported":1701025474,"current_range_meters":15200,"station_id":"","pricing_plan_id":"free"},{"bike_id":"3695a90c-3a6c-420b-9784-d84a35b6578a","system_id":"levelo_inurba_marseille","lat":43.302992,"lon":5.392136,"is_reserved":false,"is_disabled":false,"rental_uris":{"android":"levelo://app?vid=3695a90c-3a6c-420b-9784-d84a35b6578a","ios":"levelo://app?vid=3695a90c-3a6c-420b-9784-d84a35b6578a"},"vehicle_type_id":"4","last_reported":1701025474,"current_range_meters":21600,"station_id":"ce4bgkh2rcd13ifvqbk0","pricing_plan_id":"free"},{"bike_id":"c86c13e7-47dd-4d54-9115-c316d9d1adb7","system_id":"levelo_inurba_marseille","lat":43.2936,"lon":5.37835,"is_reserved":false,"is_disabled":false,"rental_uris":{"android":"levelo://app?vid=c86c13e7-47dd-4d54-9115-c316d9d1adb7","ios":"levelo://app?vid=c86c13e7-47dd-4d54-9115-c316d9d1adb7"},"vehicle_type_id":"4","last_reported":1701025474,"current_range_meters":8400,"station_id":"ce4bgjh2rcd13ifvqbf0","pricing_plan_id":"free"},{"bike_id":"96845b3f-a3c4-48ba-86e4-dace7036cfeb","system_id":"levelo_inurba_marseille","lat":43.291675,"lon":5.371583,"is_reserved":false,"is_disabled":false,"rental_uris":{"android":"levelo://app?vid=96845b3f-a3c4-48ba-86e4-dace7036cfeb","ios":"levelo://app?vid=96845b3f-a3c4-48ba-86e4-dace7036cfeb"},"vehicle_type_id":"4","last_reported":1701025474,"current_range_meters":25200,"station_id":"ce4bha92rcd13ifvqeh0","pricing_plan_id":"free"},{"bike_id":"c0cd5854-defc-4d71-8959-f455554f06e5","system_id":"levelo_inurba_marseille","lat":43.291671,"lon":5.371575,"is_reserved":false,"is_disabled":false,"rental_uris":{"android":"levelo://app?vid=c0cd5854-defc-4d71-8959-f455554f06e5","ios":"levelo://app?vid=c0cd5854-defc-4d71-8959-f455554f06e5"},"vehicle_type_id":"4","last_reported":1701025474,"current_range_meters":27200,"station_id":"ce4bha92rcd13ifvqeh0","pricing_plan_id":"free"},{"bike_id":"41301c0a-8785-4dcf-bcbe-915da2ab25ab","system_id":"levelo_inurba_marseille","lat":43.292066,"lon":5.358606,"is_reserved":false,"is_disabled":false,"rental_uris":{"android":"levelo://app?vid=41301c0a-8785-4dcf-bcbe-915da2ab25ab","ios":"levelo://app?vid=41301c0a-8785-4dcf-bcbe-915da2ab25ab"},"vehicle_type_id":"4","last_reported":1701025474,"current_range_meters":18800,"station_id":"","pricing_plan_id":"free"},{"bike_id":"229325de-1865-4bf1-9139-b0ebfe1551e4","system_id":"levelo_inurba_marseille","lat":43.291994,"lon":5.357886,"is_reserved":false,"is_disabled":false,"rental_uris":{"android":"levelo://app?vid=229325de-1865-4bf1-9139-b0ebfe1551e4","ios":"levelo://app?vid=229325de-1865-4bf1-9139-b0ebfe1551e4"},"vehicle_type_id":"4","last_reported":1701025474,"current_range_meters":23200,"station_id":"ce4bhb12rcd13ifvqel0","pricing_plan_id":"free"},{"bike_id":"dfa2cb77-50cd-4655-a3e3-3f1b190e3453","system_id":"levelo_inurba_marseille","lat":43.309047,"lon":5.396551,"is_reserved":false,"is_disabled":false,"rental_uris":{"android":"levelo://app?vid=dfa2cb77-50cd-4655-a3e3-3f1b190e3453","ios":"levelo://app?vid=dfa2cb77-50cd-4655-a3e3-3f1b190e3453"},"vehicle_type_id":"4","last_reported":1701025474,"current_range_meters":18000,"station_id":"ce4bh012rcd13ifvqcv0","pricing_plan_id":"free"},{"bike_id":"6bbafb0e-de5a-4e53-8fdf-6383a175b2b5","system_id":"levelo_inurba_marseille","lat":43.313291,"lon":5.396838,"is_reserved":false,"is_disabled":false,"rental_uris":{"android":"levelo://app?vid=6bbafb0e-de5a-4e53-8fdf-6383a175b2b5","ios":"levelo://app?vid=6bbafb0e-de5a-4e53-8fdf-6383a175b2b5"},"vehicle_type_id":"4","last_reported":1701025474,"current_range_meters":13600,"station_id":"ce4bgvp2rcd13ifvqcu0","pricing_plan_id":"free"},{"bike_id":"39609844-9429-4611-85a0-0b3fab6f2ea9","system_id":"levelo_inurba_marseille","lat":43.309047,"lon":5.396551,"is_reserved":false,"is_disabled":false,"rental_uris":{"android":"levelo://app?vid=39609844-9429-4611-85a0-0b3fab6f2ea9","ios":"levelo://app?vid=39609844-9429-4611-85a0-0b3fab6f2ea9"},"vehicle_type_id":"4","last_reported":1701025474,"current_range_meters":14400,"station_id":"ce4bh012rcd13ifvqcv0","pricing_plan_id":"free"},{"bike_id":"a9185b0c-f524-4acc-8618-ed48811f1e0a","system_id":"levelo_inurba_marseille","lat":43.309038,"lon":5.396546,"is_reserved":false,"is_disabled":false,"rental_uris":{"android":"levelo://app?vid=a9185b0c-f524-4acc-8618-ed48811f1e0a","ios":"levelo://app?vid=a9185b0c-f524-4acc-8618-ed48811f1e0a"},"vehicle_type_id":"4","last_reported":1701025474,"current_range_meters":30400,"station_id":"ce4bh012rcd13ifvqcv0","pricing_plan_id":"free"},{"bike_id":"20894f0c-a016-4e6c-91a2-42eaf42972c0","system_id":"levelo_inurba_marseille","lat":43.29188,"lon":5.35797,"is_reserved":false,"is_disabled":false,"rental_uris":{"android":"levelo://app?vid=20894f0c-a016-4e6c-91a2-42eaf42972c0","ios":"levelo://app?vid=20894f0c-a016-4e6c-91a2-42eaf42972c0"},"vehicle_type_id":"4","last_reported":1701025474,"current_range_meters":25600,"station_id":"ce4bhb12rcd13ifvqel0","pricing_plan_id":"free"},{"bike_id":"671bd9cd-e961-4631-b707-bbdd5cdcd4d3","system_id":"levelo_inurba_marseille","lat":43.309038,"lon":5.396546,"is_reserved":false,"is_disabled":false,"rental_uris":{"android":"levelo://app?vid=671bd9cd-e961-4631-b707-bbdd5cdcd4d3","ios":"levelo://app?vid=671bd9cd-e961-4631-b707-bbdd5cdcd4d3"},"vehicle_type_id":"4","last_reported":1701025474,"current_range_meters":14800,"station_id":"ce4bh012rcd13ifvqcv0","pricing_plan_id":"free"},{"bike_id":"65520eb6-3979-4055-a310-f09b716c408d","system_id":"levelo_inurba_marseille","lat":43.309047,"lon":5.396551,"is_reserved":false,"is_disabled":false,"rental_uris":{"android":"levelo://app?vid=65520eb6-3979-4055-a310-f09b716c408d","ios":"levelo://app?vid=65520eb6-3979-4055-a310-f09b716c408d"},"vehicle_type_id":"4","last_reported":1701025474,"current_range_meters":5600,"station_id":"ce4bh012rcd13ifvqcv0","pricing_plan_id":"free"},{"bike_id":"27a1fb51-e2a2-46ec-8e2c-944133fc787d","system_id":"levelo_inurba_marseille","lat":43.29536,"lon":5.38549,"is_reserved":false,"is_disabled":false,"rental_uris":{"android":"levelo://app?vid=27a1fb51-e2a2-46ec-8e2c-944133fc787d","ios":"levelo://app?vid=27a1fb51-e2a2-46ec-8e2c-944133fc787d"},"vehicle_type_id":"4","last_reported":1701025474,"current_range_meters":0,"station_id":"ce4bgih2rcd13ifvqba0","pricing_plan_id":"free"},{"bike_id":"a5de6161-6660-4bdc-bb1c-6b74f55eeaed","system_id":"levelo_inurba_marseille","lat":43.289425,"lon":5.3664,"is_reserved":false,"is_disabled":false,"rental_uris":{"android":"levelo://app?vid=a5de6161-6660-4bdc-bb1c-6b74f55eeaed","ios":"levelo://app?vid=a5de6161-6660-4bdc-bb1c-6b74f55eeaed"},"vehicle_type_id":"4","last_reported":1701025474,"current_range_meters":5600,"station_id":"ce4bhap2rcd13ifvqek0","pricing_plan_id":"free"},{"bike_id":"c395b8e8-fb4e-4ba8-8b8c-69b2950a1b7b","system_id":"levelo_inurba_marseille","lat":43.330442,"lon":5.389148,"is_reserved":false,"is_disabled":false,"rental_uris":{"android":"levelo://app?vid=c395b8e8-fb4e-4ba8-8b8c-69b2950a1b7b","ios":"levelo://app?vid=c395b8e8-fb4e-4ba8-8b8c-69b2950a1b7b"},"vehicle_type_id":"4","last_reported":1701025474,"current_range_meters":20000,"station_id":"ce4bhr92rcd13ifvqhrg","pricing_plan_id":"free"},{"bike_id":"60fd990c-f2cb-4d12-ab95-4f04e60d367a","system_id":"levelo_inurba_marseille","lat":43.290995,"lon":5.381361,"is_reserved":false,"is_disabled":false,"rental_uris":{"android":"levelo://app?vid=60fd990c-f2cb-4d12-ab95-4f04e60d367a","ios":"levelo://app?vid=60fd990c-f2cb-4d12-ab95-4f04e60d367a"},"vehicle_type_id":"4","last_reported":1701025474,"current_range_meters":26800,"station_id":"ce4bh512rcd13ifvqe2g","pricing_plan_id":"free"},{"bike_id":"8c8ef7b8-d18c-45af-99a2-f5e7693c25bf","system_id":"levelo_inurba_marseille","lat":43.29788,"lon":5.39347,"is_reserved":false,"is_disabled":false,"rental_uris":{"android":"levelo://app?vid=8c8ef7b8-d18c-45af-99a2-f5e7693c25bf","ios":"levelo://app?vid=8c8ef7b8-d18c-45af-99a2-f5e7693c25bf"},"vehicle_type_id":"4","last_reported":1701025474,"current_range_meters":20800,"station_id":"chh1huq6cuj3fo74tm60","pricing_plan_id":"free"},{"bike_id":"fd3fbb7a-9091-4994-ae40-434292d3d50e","system_id":"levelo_inurba_marseille","lat":43.295169,"lon":5.390426,"is_reserved":false,"is_disabled":false,"rental_uris":{"android":"levelo://app?vid=fd3fbb7a-9091-4994-ae40-434292d3d50e","ios":"levelo://app?vid=fd3fbb7a-9091-4994-ae40-434292d3d50e"},"vehicle_type_id":"4","last_reported":1701025474,"current_range_meters":21600,"station_id":"ce4bh3p2rcd13ifvqdp0","pricing_plan_id":"free"},{"bike_id":"e163c8ea-34f8-48fd-a28a-080c2d9171f8","system_id":"levelo_inurba_marseille","lat":43.29519,"lon":5.39039,"is_reserved":false,"is_disabled":false,"rental_uris":{"android":"levelo://app?vid=e163c8ea-34f8-48fd-a28a-080c2d9171f8","ios":"levelo://app?vid=e163c8ea-34f8-48fd-a28a-080c2d9171f8"},"vehicle_type_id":"4","last_reported":1701025474,"current_range_meters":17200,"station_id":"ce4bh3p2rcd13ifvqdp0","pricing_plan_id":"free"},{"bike_id":"210c4882-2793-4187-83fd-567291c9d8f8","system_id":"levelo_inurba_marseille","lat":43.295169,"lon":5.390426,"is_reserved":false,"is_disabled":false,"rental_uris":{"android":"levelo://app?vid=210c4882-2793-4187-83fd-567291c9d8f8","ios":"levelo://app?vid=210c4882-2793-4187-83fd-567291c9d8f8"},"vehicle_type_id":"4","last_reported":1701025474,"current_range_meters":0,"station_id":"ce4bh3p2rcd13ifvqdp0","pricing_plan_id":"free"},{"bike_id":"2a6656e2-3ce0-44d6-b004-d6976c905509","system_id":"levelo_inurba_marseille","lat":43.2901,"lon":5.381269,"is_reserved":false,"is_disabled":false,"rental_uris":{"android":"levelo://app?vid=2a6656e2-3ce0-44d6-b004-d6976c905509","ios":"levelo://app?vid=2a6656e2-3ce0-44d6-b004-d6976c905509"},"vehicle_type_id":"4","last_reported":1701025474,"current_range_meters":27600,"station_id":"ce4bh4p2rcd13ifvqe1g","pricing_plan_id":"free"},{"bike_id":"ccfd446b-bf58-4aa7-b1c6-caee20d10745","system_id":"levelo_inurba_marseille","lat":43.28871,"lon":5.358397,"is_reserved":false,"is_disabled":false,"rental_uris":{"android":"levelo://app?vid=ccfd446b-bf58-4aa7-b1c6-caee20d10745","ios":"levelo://app?vid=ccfd446b-bf58-4aa7-b1c6-caee20d10745"},"vehicle_type_id":"4","last_reported":1701025474,"current_range_meters":22400,"station_id":"","pricing_plan_id":"free"},{"bike_id":"13735ab5-8eca-436c-9f99-e624cc282702","system_id":"levelo_inurba_marseille","lat":43.28856,"lon":5.358371,"is_reserved":false,"is_disabled":false,"rental_uris":{"android":"levelo://app?vid=13735ab5-8eca-436c-9f99-e624cc282702","ios":"levelo://app?vid=13735ab5-8eca-436c-9f99-e624cc282702"},"vehicle_type_id":"4","last_reported":1701025474,"current_range_meters":13200,"station_id":"ce4bhb12rcd13ifvqem0","pricing_plan_id":"free"},{"bike_id":"d6138e24-297a-421b-ba2e-3d81bf9c8604","system_id":"levelo_inurba_marseille","lat":43.31275,"lon":5.40159,"is_reserved":false,"is_disabled":false,"rental_uris":{"android":"levelo://app?vid=d6138e24-297a-421b-ba2e-3d81bf9c8604","ios":"levelo://app?vid=d6138e24-297a-421b-ba2e-3d81bf9c8604"},"vehicle_type_id":"4","last_reported":1701025474,"current_range_meters":10000,"station_id":"ce4bh092rcd13ifvqd30","pricing_plan_id":"free"},{"bike_id":"73fee5be-3380-40d6-aac2-57c1aa25c685","system_id":"levelo_inurba_marseille","lat":43.31269,"lon":5.40164,"is_reserved":false,"is_disabled":false,"rental_uris":{"android":"levelo://app?vid=73fee5be-3380-40d6-aac2-57c1aa25c685","ios":"levelo://app?vid=73fee5be-3380-40d6-aac2-57c1aa25c685"},"vehicle_type_id":"4","last_reported":1701025474,"current_range_meters":1200,"station_id":"ce4bh092rcd13ifvqd30","pricing_plan_id":"free"},{"bike_id":"1a75b6da-3082-4b7f-8965-31451ab0ea9f","system_id":"levelo_inurba_marseille","lat":43.31267,"lon":5.40171,"is_reserved":false,"is_disabled":false,"rental_uris":{"android":"levelo://app?vid=1a75b6da-3082-4b7f-8965-31451ab0ea9f","ios":"levelo://app?vid=1a75b6da-3082-4b7f-8965-31451ab0ea9f"},"vehicle_type_id":"4","last_reported":1701025474,"current_range_meters":12800,"station_id":"ce4bh092rcd13ifvqd30","pricing_plan_id":"free"},{"bike_id":"f2eb090e-3cf3-4143-b62c-aa0c926eaef1","system_id":"levelo_inurba_marseille","lat":43.309371,"lon":5.401449,"is_reserved":false,"is_disabled":false,"rental_uris":{"android":"levelo://app?vid=f2eb090e-3cf3-4143-b62c-aa0c926eaef1","ios":"levelo://app?vid=f2eb090e-3cf3-4143-b62c-aa0c926eaef1"},"vehicle_type_id":"4","last_reported":1701025474,"current_range_meters":17600,"station_id":"ce4bgvp2rcd13ifvqct0","pricing_plan_id":"free"},{"bike_id":"f6b0238c-5a7f-4064-87ce-ff1ff6083977","system_id":"levelo_inurba_marseille","lat":43.309371,"lon":5.401449,"is_reserved":false,"is_disabled":false,"rental_uris":{"android":"levelo://app?vid=f6b0238c-5a7f-4064-87ce-ff1ff6083977","ios":"levelo://app?vid=f6b0238c-5a7f-4064-87ce-ff1ff6083977"},"vehicle_type_id":"4","last_reported":1701025474,"current_range_meters":17200,"station_id":"ce4bgvp2rcd13ifvqct0","pricing_plan_id":"free"},{"bike_id":"b4a932d8-3f23-4eb4-b358-6c9940527cf3","system_id":"levelo_inurba_marseille","lat":43.29975,"lon":5.39765,"is_reserved":false,"is_disabled":false,"rental_uris":{"android":"levelo://app?vid=b4a932d8-3f23-4eb4-b358-6c9940527cf3","ios":"levelo://app?vid=b4a932d8-3f23-4eb4-b358-6c9940527cf3"},"vehicle_type_id":"4","last_reported":1701025474,"current_range_meters":8400,"station_id":"","pricing_plan_id":"free"},{"bike_id":"2e46bdc4-6ca9-492e-a039-67d62d664d65","system_id":"levelo_inurba_marseille","lat":43.28727,"lon":5.36078,"is_reserved":false,"is_disabled":false,"rental_uris":{"android":"levelo://app?vid=2e46bdc4-6ca9-492e-a039-67d62d664d65","ios":"levelo://app?vid=2e46bdc4-6ca9-492e-a039-67d62d664d65"},"vehicle_type_id":"4","last_reported":1701025474,"current_range_meters":27200,"station_id":"cki0cbj6b192h4jlfktg","pricing_plan_id":"free"},{"bike_id":"ca25d9c1-4f19-424d-807d-70610c016d13","system_id":"levelo_inurba_marseille","lat":43.28727,"lon":5.36078,"is_reserved":false,"is_disabled":false,"rental_uris":{"android":"levelo://app?vid=ca25d9c1-4f19-424d-807d-70610c016d13","ios":"levelo://app?vid=ca25d9c1-4f19-424d-807d-70610c016d13"},"vehicle_type_id":"4","last_reported":1701025474,"current_range_meters":23200,"station_id":"cki0cbj6b192h4jlfktg","pricing_plan_id":"free"},{"bike_id":"1b7298a9-7379-406b-912d-156327dc0948","system_id":"levelo_inurba_marseille","lat":43.28727,"lon":5.36078,"is_reserved":false,"is_disabled":false,"rental_uris":{"android":"levelo://app?vid=1b7298a9-7379-406b-912d-156327dc0948","ios":"levelo://app?vid=1b7298a9-7379-406b-912d-156327dc0948"},"vehicle_type_id":"4","last_reported":1701025474,"current_range_meters":11200,"station_id":"cki0cbj6b192h4jlfktg","pricing_plan_id":"free"},{"bike_id":"6ad298fa-f49c-461a-b002-e1ed806a452f","system_id":"levelo_inurba_marseille","lat":43.28727,"lon":5.36078,"is_reserved":false,"is_disabled":false,"rental_uris":{"android":"levelo://app?vid=6ad298fa-f49c-461a-b002-e1ed806a452f","ios":"levelo://app?vid=6ad298fa-f49c-461a-b002-e1ed806a452f"},"vehicle_type_id":"4","last_reported":1701025474,"current_range_meters":22800,"station_id":"cki0cbj6b192h4jlfktg","pricing_plan_id":"free"},{"bike_id":"01c564d2-6af3-4dff-b228-c9c253208d15","system_id":"levelo_inurba_marseille","lat":43.298681,"lon":5.397225,"is_reserved":false,"is_disabled":false,"rental_uris":{"android":"levelo://app?vid=01c564d2-6af3-4dff-b228-c9c253208d15","ios":"levelo://app?vid=01c564d2-6af3-4dff-b228-c9c253208d15"},"vehicle_type_id":"4","last_reported":1701025474,"current_range_meters":32000,"station_id":"ce4bh0h2rcd13ifvqd50","pricing_plan_id":"free"},{"bike_id":"57af6cba-84e8-41d2-a016-b1f1d1e8f811","system_id":"levelo_inurba_marseille","lat":43.298681,"lon":5.397225,"is_reserved":false,"is_disabled":false,"rental_uris":{"android":"levelo://app?vid=57af6cba-84e8-41d2-a016-b1f1d1e8f811","ios":"levelo://app?vid=57af6cba-84e8-41d2-a016-b1f1d1e8f811"},"vehicle_type_id":"4","last_reported":1701025474,"current_range_meters":16800,"station_id":"ce4bh0h2rcd13ifvqd50","pricing_plan_id":"free"},{"bike_id":"5b60fe13-059e-495a-b221-cb63e55f7d29","system_id":"levelo_inurba_marseille","lat":43.295196,"lon":5.39397,"is_reserved":false,"is_disabled":false,"rental_uris":{"android":"levelo://app?vid=5b60fe13-059e-495a-b221-cb63e55f7d29","ios":"levelo://app?vid=5b60fe13-059e-495a-b221-cb63e55f7d29"},"vehicle_type_id":"4","last_reported":1701025474,"current_range_meters":19200,"station_id":"ce4bh292rcd13ifvqdf0","pricing_plan_id":"free"},{"bike_id":"6c89e253-b94e-4a16-88be-2f0785878d7f","system_id":"levelo_inurba_marseille","lat":43.295196,"lon":5.39397,"is_reserved":false,"is_disabled":false,"rental_uris":{"android":"levelo://app?vid=6c89e253-b94e-4a16-88be-2f0785878d7f","ios":"levelo://app?vid=6c89e253-b94e-4a16-88be-2f0785878d7f"},"vehicle_type_id":"4","last_reported":1701025474,"current_range_meters":17200,"station_id":"ce4bh292rcd13ifvqdf0","pricing_plan_id":"free"},{"bike_id":"c9b8721c-6a44-4bc8-96fe-63e088dd516a","system_id":"levelo_inurba_marseille","lat":43.28931,"lon":5.3838,"is_reserved":false,"is_disabled":false,"rental_uris":{"android":"levelo://app?vid=c9b8721c-6a44-4bc8-96fe-63e088dd516a","ios":"levelo://app?vid=c9b8721c-6a44-4bc8-96fe-63e088dd516a"},"vehicle_type_id":"4","last_reported":1701025474,"current_range_meters":26400,"station_id":"ce4bh612rcd13ifvqe6g","pricing_plan_id":"free"},{"bike_id":"aac3b7c1-c156-4058-b4db-e872c3050caa","system_id":"levelo_inurba_marseille","lat":43.290323,"lon":5.386277,"is_reserved":false,"is_disabled":false,"rental_uris":{"android":"levelo://app?vid=aac3b7c1-c156-4058-b4db-e872c3050caa","ios":"levelo://app?vid=aac3b7c1-c156-4058-b4db-e872c3050caa"},"vehicle_type_id":"4","last_reported":1701025474,"current_range_meters":0,"station_id":"","pricing_plan_id":"free"},{"bike_id":"c7691a79-ef10-473f-b227-e898b1759ad6","system_id":"levelo_inurba_marseille","lat":43.29028,"lon":5.38626,"is_reserved":false,"is_disabled":false,"rental_uris":{"android":"levelo://app?vid=c7691a79-ef10-473f-b227-e898b1759ad6","ios":"levelo://app?vid=c7691a79-ef10-473f-b227-e898b1759ad6"},"vehicle_type_id":"4","last_reported":1701025474,"current_range_meters":6400,"station_id":"ce4bh4p2rcd13ifvqe0g","pricing_plan_id":"free"},{"bike_id":"272673d6-30ae-4d2b-98ee-03a51f634c83","system_id":"levelo_inurba_marseille","lat":43.302759,"lon":5.400793,"is_reserved":false,"is_disabled":false,"rental_uris":{"android":"levelo://app?vid=272673d6-30ae-4d2b-98ee-03a51f634c83","ios":"levelo://app?vid=272673d6-30ae-4d2b-98ee-03a51f634c83"},"vehicle_type_id":"4","last_reported":1701025474,"current_range_meters":28000,"station_id":"ce4bgvh2rcd13ifvqcs0","pricing_plan_id":"free"},{"bike_id":"ec3a305d-b922-4ecb-81b4-c9b466982eb2","system_id":"levelo_inurba_marseille","lat":43.286103,"lon":5.370674,"is_reserved":false,"is_disabled":false,"rental_uris":{"android":"levelo://app?vid=ec3a305d-b922-4ecb-81b4-c9b466982eb2","ios":"levelo://app?vid=ec3a305d-b922-4ecb-81b4-c9b466982eb2"},"vehicle_type_id":"4","last_reported":1701025474,"current_range_meters":6000,"station_id":"ce4bht12rcd13ifvqi60","pricing_plan_id":"free"},{"bike_id":"02a7c1c9-d17d-4595-a7a8-c9ad956d524d","system_id":"levelo_inurba_marseille","lat":43.286039,"lon":5.370679,"is_reserved":false,"is_disabled":false,"rental_uris":{"android":"levelo://app?vid=02a7c1c9-d17d-4595-a7a8-c9ad956d524d","ios":"levelo://app?vid=02a7c1c9-d17d-4595-a7a8-c9ad956d524d"},"vehicle_type_id":"4","last_reported":1701025474,"current_range_meters":7200,"station_id":"ce4bht12rcd13ifvqi60","pricing_plan_id":"free"},{"bike_id":"e759da6d-46e9-4f6c-be84-c5aa1b715af3","system_id":"levelo_inurba_marseille","lat":43.291994,"lon":5.392907,"is_reserved":false,"is_disabled":false,"rental_uris":{"android":"levelo://app?vid=e759da6d-46e9-4f6c-be84-c5aa1b715af3","ios":"levelo://app?vid=e759da6d-46e9-4f6c-be84-c5aa1b715af3"},"vehicle_type_id":"4","last_reported":1701025474,"current_range_meters":0,"station_id":"ce4bh192rcd13ifvqdd0","pricing_plan_id":"free"},{"bike_id":"c2267585-6099-44fd-8c74-85997bcc0857","system_id":"levelo_inurba_marseille","lat":43.284538,"lon":5.358657,"is_reserved":false,"is_disabled":false,"rental_uris":{"android":"levelo://app?vid=c2267585-6099-44fd-8c74-85997bcc0857","ios":"levelo://app?vid=c2267585-6099-44fd-8c74-85997bcc0857"},"vehicle_type_id":"4","last_reported":1701025474,"current_range_meters":8400,"station_id":"ce4bhah2rcd13ifvqei0","pricing_plan_id":"free"},{"bike_id":"b50ae186-df09-4f5a-b559-f9ad162971a5","system_id":"levelo_inurba_marseille","lat":43.284534,"lon":5.358662,"is_reserved":false,"is_disabled":false,"rental_uris":{"android":"levelo://app?vid=b50ae186-df09-4f5a-b559-f9ad162971a5","ios":"levelo://app?vid=b50ae186-df09-4f5a-b559-f9ad162971a5"},"vehicle_type_id":"4","last_reported":1701025474,"current_range_meters":24400,"station_id":"ce4bhah2rcd13ifvqei0","pricing_plan_id":"free"},{"bike_id":"8e0b5282-9b0f-4114-9cd7-12caf327ac6b","system_id":"levelo_inurba_marseille","lat":43.284538,"lon":5.358657,"is_reserved":false,"is_disabled":false,"rental_uris":{"android":"levelo://app?vid=8e0b5282-9b0f-4114-9cd7-12caf327ac6b","ios":"levelo://app?vid=8e0b5282-9b0f-4114-9cd7-12caf327ac6b"},"vehicle_type_id":"4","last_reported":1701025474,"current_range_meters":26000,"station_id":"ce4bhah2rcd13ifvqei0","pricing_plan_id":"free"},{"bike_id":"3a12544e-6647-4f7d-916e-8dd35fbfa4a7","system_id":"levelo_inurba_marseille","lat":43.284538,"lon":5.358657,"is_reserved":false,"is_disabled":false,"rental_uris":{"android":"levelo://app?vid=3a12544e-6647-4f7d-916e-8dd35fbfa4a7","ios":"levelo://app?vid=3a12544e-6647-4f7d-916e-8dd35fbfa4a7"},"vehicle_type_id":"4","last_reported":1701025474,"current_range_meters":25200,"station_id":"ce4bhah2rcd13ifvqei0","pricing_plan_id":"free"},{"bike_id":"3b1acaa6-131d-4c7d-925c-ce75c27018a2","system_id":"levelo_inurba_marseille","lat":43.284534,"lon":5.358662,"is_reserved":false,"is_disabled":false,"rental_uris":{"android":"levelo://app?vid=3b1acaa6-131d-4c7d-925c-ce75c27018a2","ios":"levelo://app?vid=3b1acaa6-131d-4c7d-925c-ce75c27018a2"},"vehicle_type_id":"4","last_reported":1701025474,"current_range_meters":0,"station_id":"ce4bhah2rcd13ifvqei0","pricing_plan_id":"free"},{"bike_id":"06016045-5bd7-4335-8b56-8b07aea36e29","system_id":"levelo_inurba_marseille","lat":43.283998,"lon":5.375062,"is_reserved":false,"is_disabled":false,"rental_uris":{"android":"levelo://app?vid=06016045-5bd7-4335-8b56-8b07aea36e29","ios":"levelo://app?vid=06016045-5bd7-4335-8b56-8b07aea36e29"},"vehicle_type_id":"4","last_reported":1701025474,"current_range_meters":24400,"station_id":"ce4bh412rcd13ifvqds0","pricing_plan_id":"free"},{"bike_id":"c3ab4408-4ace-48b8-a0ef-8aa9c3c9e5b2","system_id":"levelo_inurba_marseille","lat":43.295713,"lon":5.399639,"is_reserved":false,"is_disabled":false,"rental_uris":{"android":"levelo://app?vid=c3ab4408-4ace-48b8-a0ef-8aa9c3c9e5b2","ios":"levelo://app?vid=c3ab4408-4ace-48b8-a0ef-8aa9c3c9e5b2"},"vehicle_type_id":"4","last_reported":1701025474,"current_range_meters":10000,"station_id":"ce4bh312rcd13ifvqdj0","pricing_plan_id":"free"},{"bike_id":"d7291cda-b47c-4b21-ad1d-adea30d670c7","system_id":"levelo_inurba_marseille","lat":43.319179,"lon":5.407725,"is_reserved":false,"is_disabled":false,"rental_uris":{"android":"levelo://app?vid=d7291cda-b47c-4b21-ad1d-adea30d670c7","ios":"levelo://app?vid=d7291cda-b47c-4b21-ad1d-adea30d670c7"},"vehicle_type_id":"4","last_reported":1701025474,"current_range_meters":30800,"station_id":"ce4bhq12rcd13ifvqhig","pricing_plan_id":"free"},{"bike_id":"5b3bb01f-e6fd-486d-94d5-0af0ba6741fa","system_id":"levelo_inurba_marseille","lat":43.323464,"lon":5.406297,"is_reserved":false,"is_disabled":false,"rental_uris":{"android":"levelo://app?vid=5b3bb01f-e6fd-486d-94d5-0af0ba6741fa","ios":"levelo://app?vid=5b3bb01f-e6fd-486d-94d5-0af0ba6741fa"},"vehicle_type_id":"4","last_reported":1701025474,"current_range_meters":25600,"station_id":"ce4bhq92rcd13ifvqhjg","pricing_plan_id":"free"},{"bike_id":"77d647fd-4941-4bd8-a161-46dcddf6b879","system_id":"levelo_inurba_marseille","lat":43.28463,"lon":5.38395,"is_reserved":false,"is_disabled":false,"rental_uris":{"android":"levelo://app?vid=77d647fd-4941-4bd8-a161-46dcddf6b879","ios":"levelo://app?vid=77d647fd-4941-4bd8-a161-46dcddf6b879"},"vehicle_type_id":"4","last_reported":1701025474,"current_range_meters":8800,"station_id":"ce4bh512rcd13ifvqe3g","pricing_plan_id":"free"},{"bike_id":"e33f3624-6f3f-4aaa-bb2f-fb6a15016547","system_id":"levelo_inurba_marseille","lat":43.283498,"lon":5.380948,"is_reserved":false,"is_disabled":false,"rental_uris":{"android":"levelo://app?vid=e33f3624-6f3f-4aaa-bb2f-fb6a15016547","ios":"levelo://app?vid=e33f3624-6f3f-4aaa-bb2f-fb6a15016547"},"vehicle_type_id":"4","last_reported":1701025474,"current_range_meters":20400,"station_id":"ce4bh412rcd13ifvqdr0","pricing_plan_id":"free"},{"bike_id":"e2284003-4e46-4e0a-93e7-73d05c3666d9","system_id":"levelo_inurba_marseille","lat":43.33508,"lon":5.397755,"is_reserved":false,"is_disabled":false,"rental_uris":{"android":"levelo://app?vid=e2284003-4e46-4e0a-93e7-73d05c3666d9","ios":"levelo://app?vid=e2284003-4e46-4e0a-93e7-73d05c3666d9"},"vehicle_type_id":"4","last_reported":1701025474,"current_range_meters":17600,"station_id":"","pricing_plan_id":"free"},{"bike_id":"b79fcaa7-c964-4223-9658-a23ecbc4d3b4","system_id":"levelo_inurba_marseille","lat":43.28274,"lon":5.35073,"is_reserved":false,"is_disabled":false,"rental_uris":{"android":"levelo://app?vid=b79fcaa7-c964-4223-9658-a23ecbc4d3b4","ios":"levelo://app?vid=b79fcaa7-c964-4223-9658-a23ecbc4d3b4"},"vehicle_type_id":"4","last_reported":1701025474,"current_range_meters":31200,"station_id":"ce4bhbp2rcd13ifvqerg","pricing_plan_id":"free"},{"bike_id":"bac6088f-6bc3-42d3-8bba-42726760c5cd","system_id":"levelo_inurba_marseille","lat":43.282754,"lon":5.350519,"is_reserved":false,"is_disabled":false,"rental_uris":{"android":"levelo://app?vid=bac6088f-6bc3-42d3-8bba-42726760c5cd","ios":"levelo://app?vid=bac6088f-6bc3-42d3-8bba-42726760c5cd"},"vehicle_type_id":"4","last_reported":1701025474,"current_range_meters":11600,"station_id":"ce4bhbp2rcd13ifvqerg","pricing_plan_id":"free"},{"bike_id":"00584029-8953-4993-b331-cbca650b790e","system_id":"levelo_inurba_marseille","lat":43.28271,"lon":5.3506,"is_reserved":false,"is_disabled":false,"rental_uris":{"android":"levelo://app?vid=00584029-8953-4993-b331-cbca650b790e","ios":"levelo://app?vid=00584029-8953-4993-b331-cbca650b790e"},"vehicle_type_id":"4","last_reported":1701025474,"current_range_meters":22800,"station_id":"ce4bhbp2rcd13ifvqerg","pricing_plan_id":"free"},{"bike_id":"6b0f7bb4-d7c0-4aec-9bc1-3e53a2e8a5bd","system_id":"levelo_inurba_marseille","lat":43.282744,"lon":5.350533,"is_reserved":false,"is_disabled":false,"rental_uris":{"android":"levelo://app?vid=6b0f7bb4-d7c0-4aec-9bc1-3e53a2e8a5bd","ios":"levelo://app?vid=6b0f7bb4-d7c0-4aec-9bc1-3e53a2e8a5bd"},"vehicle_type_id":"4","last_reported":1701025474,"current_range_meters":27200,"station_id":"ce4bhbp2rcd13ifvqerg","pricing_plan_id":"free"},{"bike_id":"9da362a8-ca99-49f2-aa37-8e35a69e2e8e","system_id":"levelo_inurba_marseille","lat":43.28039,"lon":5.369297,"is_reserved":false,"is_disabled":false,"rental_uris":{"android":"levelo://app?vid=9da362a8-ca99-49f2-aa37-8e35a69e2e8e","ios":"levelo://app?vid=9da362a8-ca99-49f2-aa37-8e35a69e2e8e"},"vehicle_type_id":"4","last_reported":1701025474,"current_range_meters":30000,"station_id":"ce4bha12rcd13ifvqef0","pricing_plan_id":"free"},{"bike_id":"59774753-ee6f-4231-9434-3d844a52292e","system_id":"levelo_inurba_marseille","lat":43.280382,"lon":5.369291,"is_reserved":false,"is_disabled":false,"rental_uris":{"android":"levelo://app?vid=59774753-ee6f-4231-9434-3d844a52292e","ios":"levelo://app?vid=59774753-ee6f-4231-9434-3d844a52292e"},"vehicle_type_id":"4","last_reported":1701025474,"current_range_meters":29600,"station_id":"ce4bha12rcd13ifvqef0","pricing_plan_id":"free"},{"bike_id":"0899a500-b3e6-467f-9582-11323a78ae2d","system_id":"levelo_inurba_marseille","lat":43.28039,"lon":5.369297,"is_reserved":false,"is_disabled":false,"rental_uris":{"android":"levelo://app?vid=0899a500-b3e6-467f-9582-11323a78ae2d","ios":"levelo://app?vid=0899a500-b3e6-467f-9582-11323a78ae2d"},"vehicle_type_id":"4","last_reported":1701025474,"current_range_meters":31200,"station_id":"ce4bha12rcd13ifvqef0","pricing_plan_id":"free"},{"bike_id":"77e2e818-f7b1-4cb5-8029-fbcbcafefa21","system_id":"levelo_inurba_marseille","lat":43.282744,"lon":5.350533,"is_reserved":false,"is_disabled":false,"rental_uris":{"android":"levelo://app?vid=77e2e818-f7b1-4cb5-8029-fbcbcafefa21","ios":"levelo://app?vid=77e2e818-f7b1-4cb5-8029-fbcbcafefa21"},"vehicle_type_id":"4","last_reported":1701025474,"current_range_meters":26400,"station_id":"ce4bhbp2rcd13ifvqerg","pricing_plan_id":"free"},{"bike_id":"df038a87-9989-4a47-b5ce-691d1256c22b","system_id":"levelo_inurba_marseille","lat":43.290412,"lon":5.399633,"is_reserved":false,"is_disabled":false,"rental_uris":{"android":"levelo://app?vid=df038a87-9989-4a47-b5ce-691d1256c22b","ios":"levelo://app?vid=df038a87-9989-4a47-b5ce-691d1256c22b"},"vehicle_type_id":"4","last_reported":1701025474,"current_range_meters":16000,"station_id":"ce4bh392rcd13ifvqdm0","pricing_plan_id":"free"},{"bike_id":"da1c80e6-7246-4802-896c-9f9d067906dc","system_id":"levelo_inurba_marseille","lat":43.281044,"lon":5.378308,"is_reserved":false,"is_disabled":false,"rental_uris":{"android":"levelo://app?vid=da1c80e6-7246-4802-896c-9f9d067906dc","ios":"levelo://app?vid=da1c80e6-7246-4802-896c-9f9d067906dc"},"vehicle_type_id":"4","last_reported":1701025474,"current_range_meters":20000,"station_id":"ce4bha12rcd13ifvqee0","pricing_plan_id":"free"},{"bike_id":"8b73fa6b-82d5-4d9c-bd8f-831195f7cb83","system_id":"levelo_inurba_marseille","lat":43.284462,"lon":5.392121,"is_reserved":false,"is_disabled":false,"rental_uris":{"android":"levelo://app?vid=8b73fa6b-82d5-4d9c-bd8f-831195f7cb83","ios":"levelo://app?vid=8b73fa6b-82d5-4d9c-bd8f-831195f7cb83"},"vehicle_type_id":"4","last_reported":1701025474,"current_range_meters":14800,"station_id":"ce4bhoh2rcd13ifvqh5g","pricing_plan_id":"free"},{"bike_id":"3931939f-6dc7-4b16-abe4-fda1c8e1fb92","system_id":"levelo_inurba_marseille","lat":43.304188,"lon":5.412904,"is_reserved":false,"is_disabled":false,"rental_uris":{"android":"levelo://app?vid=3931939f-6dc7-4b16-abe4-fda1c8e1fb92","ios":"levelo://app?vid=3931939f-6dc7-4b16-abe4-fda1c8e1fb92"},"vehicle_type_id":"4","last_reported":1701025474,"current_range_meters":30400,"station_id":"ce4bhop2rcd13ifvqh8g","pricing_plan_id":"free"},{"bike_id":"064cf4cb-d40a-47a3-bb84-802c2defe67c","system_id":"levelo_inurba_marseille","lat":43.304188,"lon":5.412904,"is_reserved":false,"is_disabled":false,"rental_uris":{"android":"levelo://app?vid=064cf4cb-d40a-47a3-bb84-802c2defe67c","ios":"levelo://app?vid=064cf4cb-d40a-47a3-bb84-802c2defe67c"},"vehicle_type_id":"4","last_reported":1701025474,"current_range_meters":26400,"station_id":"ce4bhop2rcd13ifvqh8g","pricing_plan_id":"free"},{"bike_id":"4eafc249-a85d-4181-aeba-e8fcc9e94f4e","system_id":"levelo_inurba_marseille","lat":43.279087,"lon":5.380114,"is_reserved":false,"is_disabled":false,"rental_uris":{"android":"levelo://app?vid=4eafc249-a85d-4181-aeba-e8fcc9e94f4e","ios":"levelo://app?vid=4eafc249-a85d-4181-aeba-e8fcc9e94f4e"},"vehicle_type_id":"4","last_reported":1701025474,"current_range_meters":14000,"station_id":"ce4bhf92rcd13ifvqf50","pricing_plan_id":"free"},{"bike_id":"b20f0108-436f-47f7-bb1f-edd5a0bb8632","system_id":"levelo_inurba_marseille","lat":43.279087,"lon":5.380114,"is_reserved":false,"is_disabled":false,"rental_uris":{"android":"levelo://app?vid=b20f0108-436f-47f7-bb1f-edd5a0bb8632","ios":"levelo://app?vid=b20f0108-436f-47f7-bb1f-edd5a0bb8632"},"vehicle_type_id":"4","last_reported":1701025474,"current_range_meters":25200,"station_id":"ce4bhf92rcd13ifvqf50","pricing_plan_id":"free"},{"bike_id":"75597bfa-bfd6-4455-ad96-621216d1bace","system_id":"levelo_inurba_marseille","lat":43.287154,"lon":5.399979,"is_reserved":false,"is_disabled":false,"rental_uris":{"android":"levelo://app?vid=75597bfa-bfd6-4455-ad96-621216d1bace","ios":"levelo://app?vid=75597bfa-bfd6-4455-ad96-621216d1bace"},"vehicle_type_id":"4","last_reported":1701025474,"current_range_meters":4000,"station_id":"ce4bho92rcd13ifvqh3g","pricing_plan_id":"free"},{"bike_id":"e6f83cc5-127e-47b8-8b4d-fe697cf7d4ab","system_id":"levelo_inurba_marseille","lat":43.287154,"lon":5.399979,"is_reserved":false,"is_disabled":false,"rental_uris":{"android":"levelo://app?vid=e6f83cc5-127e-47b8-8b4d-fe697cf7d4ab","ios":"levelo://app?vid=e6f83cc5-127e-47b8-8b4d-fe697cf7d4ab"},"vehicle_type_id":"4","last_reported":1701025474,"current_range_meters":14000,"station_id":"ce4bho92rcd13ifvqh3g","pricing_plan_id":"free"},{"bike_id":"837f4d9f-402e-4e14-b221-f6553b99d7e1","system_id":"levelo_inurba_marseille","lat":43.320045,"lon":5.415046,"is_reserved":false,"is_disabled":false,"rental_uris":{"android":"levelo://app?vid=837f4d9f-402e-4e14-b221-f6553b99d7e1","ios":"levelo://app?vid=837f4d9f-402e-4e14-b221-f6553b99d7e1"},"vehicle_type_id":"4","last_reported":1701025474,"current_range_meters":24800,"station_id":"ce4bhq92rcd13ifvqhkg","pricing_plan_id":"free"},{"bike_id":"c103b530-9c6d-4ac7-adf6-4ae019cb5aa9","system_id":"levelo_inurba_marseille","lat":43.299579,"lon":5.413255,"is_reserved":false,"is_disabled":false,"rental_uris":{"android":"levelo://app?vid=c103b530-9c6d-4ac7-adf6-4ae019cb5aa9","ios":"levelo://app?vid=c103b530-9c6d-4ac7-adf6-4ae019cb5aa9"},"vehicle_type_id":"4","last_reported":1701025474,"current_range_meters":30400,"station_id":"ce4bhp12rcd13ifvqh9g","pricing_plan_id":"free"},{"bike_id":"6526cad1-2f4b-4db1-8d6b-ce04bc407b31","system_id":"levelo_inurba_marseille","lat":43.34883,"lon":5.37501,"is_reserved":false,"is_disabled":false,"rental_uris":{"android":"levelo://app?vid=6526cad1-2f4b-4db1-8d6b-ce04bc407b31","ios":"levelo://app?vid=6526cad1-2f4b-4db1-8d6b-ce04bc407b31"},"vehicle_type_id":"4","last_reported":1701025474,"current_range_meters":0,"station_id":"","pricing_plan_id":"free"},{"bike_id":"40b9a1fb-ab63-49a6-877d-6e83737869d3","system_id":"levelo_inurba_marseille","lat":43.292571,"lon":5.409107,"is_reserved":false,"is_disabled":false,"rental_uris":{"android":"levelo://app?vid=40b9a1fb-ab63-49a6-877d-6e83737869d3","ios":"levelo://app?vid=40b9a1fb-ab63-49a6-877d-6e83737869d3"},"vehicle_type_id":"4","last_reported":1701025474,"current_range_meters":29200,"station_id":"ce4bh192rcd13ifvqdc0","pricing_plan_id":"free"},{"bike_id":"ea97ff8c-669e-4c95-8b1d-a9d6b5aa2231","system_id":"levelo_inurba_marseille","lat":43.27618,"lon":5.361009,"is_reserved":false,"is_disabled":false,"rental_uris":{"android":"levelo://app?vid=ea97ff8c-669e-4c95-8b1d-a9d6b5aa2231","ios":"levelo://app?vid=ea97ff8c-669e-4c95-8b1d-a9d6b5aa2231"},"vehicle_type_id":"4","last_reported":1701025474,"current_range_meters":6400,"station_id":"ce4bgj92rcd13ifvqbe0","pricing_plan_id":"free"},{"bike_id":"7b3f2857-4020-4e9a-9572-5065d96ebff7","system_id":"levelo_inurba_marseille","lat":43.27617,"lon":5.36108,"is_reserved":false,"is_disabled":false,"rental_uris":{"android":"levelo://app?vid=7b3f2857-4020-4e9a-9572-5065d96ebff7","ios":"levelo://app?vid=7b3f2857-4020-4e9a-9572-5065d96ebff7"},"vehicle_type_id":"4","last_reported":1701025474,"current_range_meters":23200,"station_id":"ce4bgj92rcd13ifvqbe0","pricing_plan_id":"free"},{"bike_id":"dc5d04d2-2b09-4dea-8be4-a32c69f01655","system_id":"levelo_inurba_marseille","lat":43.276155,"lon":5.36108,"is_reserved":false,"is_disabled":false,"rental_uris":{"android":"levelo://app?vid=dc5d04d2-2b09-4dea-8be4-a32c69f01655","ios":"levelo://app?vid=dc5d04d2-2b09-4dea-8be4-a32c69f01655"},"vehicle_type_id":"4","last_reported":1701025474,"current_range_meters":400,"station_id":"ce4bgj92rcd13ifvqbe0","pricing_plan_id":"free"},{"bike_id":"c25ea147-e804-4786-9d25-91f61a8ed59a","system_id":"levelo_inurba_marseille","lat":43.293651,"lon":5.41268,"is_reserved":false,"is_disabled":false,"rental_uris":{"android":"levelo://app?vid=c25ea147-e804-4786-9d25-91f61a8ed59a","ios":"levelo://app?vid=c25ea147-e804-4786-9d25-91f61a8ed59a"},"vehicle_type_id":"4","last_reported":1701025474,"current_range_meters":0,"station_id":"","pricing_plan_id":"free"},{"bike_id":"df690db2-78f4-4f38-b187-78245c82cf01","system_id":"levelo_inurba_marseille","lat":43.280784,"lon":5.396622,"is_reserved":false,"is_disabled":false,"rental_uris":{"android":"levelo://app?vid=df690db2-78f4-4f38-b187-78245c82cf01","ios":"levelo://app?vid=df690db2-78f4-4f38-b187-78245c82cf01"},"vehicle_type_id":"4","last_reported":1701025474,"current_range_meters":24800,"station_id":"ce4bho12rcd13ifvqh2g","pricing_plan_id":"free"},{"bike_id":"085626ed-9f6f-4464-8606-58c32e520b52","system_id":"levelo_inurba_marseille","lat":43.280784,"lon":5.396622,"is_reserved":false,"is_disabled":false,"rental_uris":{"android":"levelo://app?vid=085626ed-9f6f-4464-8606-58c32e520b52","ios":"levelo://app?vid=085626ed-9f6f-4464-8606-58c32e520b52"},"vehicle_type_id":"4","last_reported":1701025474,"current_range_meters":18000,"station_id":"ce4bho12rcd13ifvqh2g","pricing_plan_id":"free"},{"bike_id":"c46ead31-db15-4e00-8746-5d6960427e80","system_id":"levelo_inurba_marseille","lat":43.280784,"lon":5.396622,"is_reserved":false,"is_disabled":false,"rental_uris":{"android":"levelo://app?vid=c46ead31-db15-4e00-8746-5d6960427e80","ios":"levelo://app?vid=c46ead31-db15-4e00-8746-5d6960427e80"},"vehicle_type_id":"4","last_reported":1701025474,"current_range_meters":14400,"station_id":"ce4bho12rcd13ifvqh2g","pricing_plan_id":"free"},{"bike_id":"5ee57155-df57-4962-9544-56ad6c09b1e3","system_id":"levelo_inurba_marseille","lat":43.3035,"lon":5.41875,"is_reserved":false,"is_disabled":false,"rental_uris":{"android":"levelo://app?vid=5ee57155-df57-4962-9544-56ad6c09b1e3","ios":"levelo://app?vid=5ee57155-df57-4962-9544-56ad6c09b1e3"},"vehicle_type_id":"4","last_reported":1701025474,"current_range_meters":26400,"station_id":"ce4bhop2rcd13ifvqh7g","pricing_plan_id":"free"},{"bike_id":"d7d5ad38-a706-46bf-a9f7-837653392e36","system_id":"levelo_inurba_marseille","lat":43.30348,"lon":5.41882,"is_reserved":false,"is_disabled":false,"rental_uris":{"android":"levelo://app?vid=d7d5ad38-a706-46bf-a9f7-837653392e36","ios":"levelo://app?vid=d7d5ad38-a706-46bf-a9f7-837653392e36"},"vehicle_type_id":"4","last_reported":1701025474,"current_range_meters":15600,"station_id":"ce4bhop2rcd13ifvqh7g","pricing_plan_id":"free"},{"bike_id":"b0ed4a91-f4d2-43e8-b684-e4e09d3127b8","system_id":"levelo_inurba_marseille","lat":43.30354,"lon":5.41885,"is_reserved":false,"is_disabled":false,"rental_uris":{"android":"levelo://app?vid=b0ed4a91-f4d2-43e8-b684-e4e09d3127b8","ios":"levelo://app?vid=b0ed4a91-f4d2-43e8-b684-e4e09d3127b8"},"vehicle_type_id":"4","last_reported":1701025474,"current_range_meters":7600,"station_id":"ce4bhop2rcd13ifvqh7g","pricing_plan_id":"free"},{"bike_id":"d6be39f1-5e59-4cda-ab7b-ecb230360f11","system_id":"levelo_inurba_marseille","lat":43.278401,"lon":5.392152,"is_reserved":false,"is_disabled":false,"rental_uris":{"android":"levelo://app?vid=d6be39f1-5e59-4cda-ab7b-ecb230360f11","ios":"levelo://app?vid=d6be39f1-5e59-4cda-ab7b-ecb230360f11"},"vehicle_type_id":"4","last_reported":1701025474,"current_range_meters":2400,"station_id":"ce4bhjp2rcd13ifvqga0","pricing_plan_id":"free"},{"bike_id":"4faac8db-40e9-44d8-ba2b-248de2f4ffb0","system_id":"levelo_inurba_marseille","lat":43.278399,"lon":5.392139,"is_reserved":false,"is_disabled":false,"rental_uris":{"android":"levelo://app?vid=4faac8db-40e9-44d8-ba2b-248de2f4ffb0","ios":"levelo://app?vid=4faac8db-40e9-44d8-ba2b-248de2f4ffb0"},"vehicle_type_id":"4","last_reported":1701025474,"current_range_meters":12400,"station_id":"ce4bhjp2rcd13ifvqga0","pricing_plan_id":"free"},{"bike_id":"4a2ad0ab-e32a-4e68-89e8-c4dcf1651a42","system_id":"levelo_inurba_marseille","lat":43.275569,"lon":5.384174,"is_reserved":false,"is_disabled":false,"rental_uris":{"android":"levelo://app?vid=4a2ad0ab-e32a-4e68-89e8-c4dcf1651a42","ios":"levelo://app?vid=4a2ad0ab-e32a-4e68-89e8-c4dcf1651a42"},"vehicle_type_id":"4","last_reported":1701025474,"current_range_meters":0,"station_id":"ce4bhh92rcd13ifvqfi0","pricing_plan_id":"free"},{"bike_id":"4e046f2f-6d5a-48ae-a7ef-ad917e1d50b0","system_id":"levelo_inurba_marseille","lat":43.279952,"lon":5.400085,"is_reserved":false,"is_disabled":false,"rental_uris":{"android":"levelo://app?vid=4e046f2f-6d5a-48ae-a7ef-ad917e1d50b0","ios":"levelo://app?vid=4e046f2f-6d5a-48ae-a7ef-ad917e1d50b0"},"vehicle_type_id":"4","last_reported":1701025474,"current_range_meters":8800,"station_id":"ce4bho92rcd13ifvqh4g","pricing_plan_id":"free"},{"bike_id":"a7eb0564-379f-4948-82dd-e79ec8392f9e","system_id":"levelo_inurba_marseille","lat":43.279952,"lon":5.400085,"is_reserved":false,"is_disabled":false,"rental_uris":{"android":"levelo://app?vid=a7eb0564-379f-4948-82dd-e79ec8392f9e","ios":"levelo://app?vid=a7eb0564-379f-4948-82dd-e79ec8392f9e"},"vehicle_type_id":"4","last_reported":1701025474,"current_range_meters":16400,"station_id":"ce4bho92rcd13ifvqh4g","pricing_plan_id":"free"},{"bike_id":"1cb3efbc-7ae5-4c1f-b63b-a26cb1bf82fb","system_id":"levelo_inurba_marseille","lat":43.279952,"lon":5.400085,"is_reserved":false,"is_disabled":false,"rental_uris":{"android":"levelo://app?vid=1cb3efbc-7ae5-4c1f-b63b-a26cb1bf82fb","ios":"levelo://app?vid=1cb3efbc-7ae5-4c1f-b63b-a26cb1bf82fb"},"vehicle_type_id":"4","last_reported":1701025474,"current_range_meters":3200,"station_id":"ce4bho92rcd13ifvqh4g","pricing_plan_id":"free"},{"bike_id":"effb185b-90d2-4d52-8928-7a1f2044aea7","system_id":"levelo_inurba_marseille","lat":43.27996,"lon":5.4001,"is_reserved":false,"is_disabled":false,"rental_uris":{"android":"levelo://app?vid=effb185b-90d2-4d52-8928-7a1f2044aea7","ios":"levelo://app?vid=effb185b-90d2-4d52-8928-7a1f2044aea7"},"vehicle_type_id":"4","last_reported":1701025474,"current_range_meters":30400,"station_id":"ce4bho92rcd13ifvqh4g","pricing_plan_id":"free"},{"bike_id":"21f4e7d6-ef7a-48e2-9647-153eda6f8f21","system_id":"levelo_inurba_marseille","lat":43.279952,"lon":5.400085,"is_reserved":false,"is_disabled":false,"rental_uris":{"android":"levelo://app?vid=21f4e7d6-ef7a-48e2-9647-153eda6f8f21","ios":"levelo://app?vid=21f4e7d6-ef7a-48e2-9647-153eda6f8f21"},"vehicle_type_id":"4","last_reported":1701025474,"current_range_meters":0,"station_id":"ce4bho92rcd13ifvqh4g","pricing_plan_id":"free"},{"bike_id":"6429ba20-232e-4b5f-aaee-b1d1c1be9e1e","system_id":"levelo_inurba_marseille","lat":43.27996,"lon":5.40011,"is_reserved":false,"is_disabled":false,"rental_uris":{"android":"levelo://app?vid=6429ba20-232e-4b5f-aaee-b1d1c1be9e1e","ios":"levelo://app?vid=6429ba20-232e-4b5f-aaee-b1d1c1be9e1e"},"vehicle_type_id":"4","last_reported":1701025474,"current_range_meters":22000,"station_id":"ce4bho92rcd13ifvqh4g","pricing_plan_id":"free"},{"bike_id":"82df2174-145e-45ab-b9e5-7d702aa7ff08","system_id":"levelo_inurba_marseille","lat":43.27995,"lon":5.40016,"is_reserved":false,"is_disabled":false,"rental_uris":{"android":"levelo://app?vid=82df2174-145e-45ab-b9e5-7d702aa7ff08","ios":"levelo://app?vid=82df2174-145e-45ab-b9e5-7d702aa7ff08"},"vehicle_type_id":"4","last_reported":1701025474,"current_range_meters":10000,"station_id":"ce4bho92rcd13ifvqh4g","pricing_plan_id":"free"},{"bike_id":"7293d802-2a86-4cd7-884c-8c7c8624822c","system_id":"levelo_inurba_marseille","lat":43.279952,"lon":5.400085,"is_reserved":false,"is_disabled":false,"rental_uris":{"android":"levelo://app?vid=7293d802-2a86-4cd7-884c-8c7c8624822c","ios":"levelo://app?vid=7293d802-2a86-4cd7-884c-8c7c8624822c"},"vehicle_type_id":"4","last_reported":1701025474,"current_range_meters":12800,"station_id":"ce4bho92rcd13ifvqh4g","pricing_plan_id":"free"},{"bike_id":"7e3063ea-913b-44ca-86d6-1cd4a8d4bf98","system_id":"levelo_inurba_marseille","lat":43.279952,"lon":5.400085,"is_reserved":false,"is_disabled":false,"rental_uris":{"android":"levelo://app?vid=7e3063ea-913b-44ca-86d6-1cd4a8d4bf98","ios":"levelo://app?vid=7e3063ea-913b-44ca-86d6-1cd4a8d4bf98"},"vehicle_type_id":"4","last_reported":1701025474,"current_range_meters":31600,"station_id":"ce4bho92rcd13ifvqh4g","pricing_plan_id":"free"},{"bike_id":"f3efd8f4-44d5-4cba-9800-3dee2cdf11d7","system_id":"levelo_inurba_marseille","lat":43.27991,"lon":5.40014,"is_reserved":false,"is_disabled":false,"rental_uris":{"android":"levelo://app?vid=f3efd8f4-44d5-4cba-9800-3dee2cdf11d7","ios":"levelo://app?vid=f3efd8f4-44d5-4cba-9800-3dee2cdf11d7"},"vehicle_type_id":"4","last_reported":1701025474,"current_range_meters":14400,"station_id":"ce4bho92rcd13ifvqh4g","pricing_plan_id":"free"},{"bike_id":"2bac63be-2248-4f83-9913-6fa6e719b914","system_id":"levelo_inurba_marseille","lat":43.31082,"lon":5.42427,"is_reserved":false,"is_disabled":false,"rental_uris":{"android":"levelo://app?vid=2bac63be-2248-4f83-9913-6fa6e719b914","ios":"levelo://app?vid=2bac63be-2248-4f83-9913-6fa6e719b914"},"vehicle_type_id":"4","last_reported":1701025474,"current_range_meters":11600,"station_id":"ce4bhp92rcd13ifvqhag","pricing_plan_id":"free"},{"bike_id":"7424a429-0fb8-48ee-b6d6-d90c89061a07","system_id":"levelo_inurba_marseille","lat":43.31084,"lon":5.42428,"is_reserved":false,"is_disabled":false,"rental_uris":{"android":"levelo://app?vid=7424a429-0fb8-48ee-b6d6-d90c89061a07","ios":"levelo://app?vid=7424a429-0fb8-48ee-b6d6-d90c89061a07"},"vehicle_type_id":"4","last_reported":1701025474,"current_range_meters":27600,"station_id":"ce4bhp92rcd13ifvqhag","pricing_plan_id":"free"},{"bike_id":"73c4b3a7-78f1-4de0-8816-83b9e1b2047e","system_id":"levelo_inurba_marseille","lat":43.31079,"lon":5.4243,"is_reserved":false,"is_disabled":false,"rental_uris":{"android":"levelo://app?vid=73c4b3a7-78f1-4de0-8816-83b9e1b2047e","ios":"levelo://app?vid=73c4b3a7-78f1-4de0-8816-83b9e1b2047e"},"vehicle_type_id":"4","last_reported":1701025474,"current_range_meters":0,"station_id":"ce4bhp92rcd13ifvqhag","pricing_plan_id":"free"},{"bike_id":"8eb5bdb0-5c9b-4999-93c3-a1a499ccf536","system_id":"levelo_inurba_marseille","lat":43.31083,"lon":5.42432,"is_reserved":false,"is_disabled":false,"rental_uris":{"android":"levelo://app?vid=8eb5bdb0-5c9b-4999-93c3-a1a499ccf536","ios":"levelo://app?vid=8eb5bdb0-5c9b-4999-93c3-a1a499ccf536"},"vehicle_type_id":"4","last_reported":1701025474,"current_range_meters":30000,"station_id":"ce4bhp92rcd13ifvqhag","pricing_plan_id":"free"},{"bike_id":"956ba346-5ecd-400b-a5ec-d1812886f5f5","system_id":"levelo_inurba_marseille","lat":43.340804,"lon":5.410219,"is_reserved":false,"is_disabled":false,"rental_uris":{"android":"levelo://app?vid=956ba346-5ecd-400b-a5ec-d1812886f5f5","ios":"levelo://app?vid=956ba346-5ecd-400b-a5ec-d1812886f5f5"},"vehicle_type_id":"4","last_reported":1701025474,"current_range_meters":24000,"station_id":"ce4bhqh2rcd13ifvqhlg","pricing_plan_id":"free"},{"bike_id":"41dcae60-2c28-4a0f-83a9-e8df85c25bef","system_id":"levelo_inurba_marseille","lat":43.340804,"lon":5.410219,"is_reserved":false,"is_disabled":false,"rental_uris":{"android":"levelo://app?vid=41dcae60-2c28-4a0f-83a9-e8df85c25bef","ios":"levelo://app?vid=41dcae60-2c28-4a0f-83a9-e8df85c25bef"},"vehicle_type_id":"4","last_reported":1701025474,"current_range_meters":23200,"station_id":"ce4bhqh2rcd13ifvqhlg","pricing_plan_id":"free"},{"bike_id":"d53f32a6-814f-4f07-94f0-385ab9644adc","system_id":"levelo_inurba_marseille","lat":43.274021,"lon":5.390579,"is_reserved":false,"is_disabled":false,"rental_uris":{"android":"levelo://app?vid=d53f32a6-814f-4f07-94f0-385ab9644adc","ios":"levelo://app?vid=d53f32a6-814f-4f07-94f0-385ab9644adc"},"vehicle_type_id":"4","last_reported":1701025474,"current_range_meters":21200,"station_id":"","pricing_plan_id":"free"},{"bike_id":"bc252c12-3fb2-4403-a49d-cea449b2aa21","system_id":"levelo_inurba_marseille","lat":43.274099,"lon":5.394019,"is_reserved":false,"is_disabled":false,"rental_uris":{"android":"levelo://app?vid=bc252c12-3fb2-4403-a49d-cea449b2aa21","ios":"levelo://app?vid=bc252c12-3fb2-4403-a49d-cea449b2aa21"},"vehicle_type_id":"4","last_reported":1701025474,"current_range_meters":16400,"station_id":"ce4bhdp2rcd13ifvqf20","pricing_plan_id":"free"},{"bike_id":"487e8935-2222-4e65-8507-6d483307a42a","system_id":"levelo_inurba_marseille","lat":43.295511,"lon":5.422926,"is_reserved":false,"is_disabled":false,"rental_uris":{"android":"levelo://app?vid=487e8935-2222-4e65-8507-6d483307a42a","ios":"levelo://app?vid=487e8935-2222-4e65-8507-6d483307a42a"},"vehicle_type_id":"4","last_reported":1701025474,"current_range_meters":29200,"station_id":"ce4bhph2rcd13ifvqhdg","pricing_plan_id":"free"},{"bike_id":"3029bb9c-a722-4a0b-80d7-eaec226f56af","system_id":"levelo_inurba_marseille","lat":43.295511,"lon":5.422926,"is_reserved":false,"is_disabled":false,"rental_uris":{"android":"levelo://app?vid=3029bb9c-a722-4a0b-80d7-eaec226f56af","ios":"levelo://app?vid=3029bb9c-a722-4a0b-80d7-eaec226f56af"},"vehicle_type_id":"4","last_reported":1701025474,"current_range_meters":25600,"station_id":"ce4bhph2rcd13ifvqhdg","pricing_plan_id":"free"},{"bike_id":"0e727ae0-81ac-41d0-98a9-2ce963d63335","system_id":"levelo_inurba_marseille","lat":43.27206,"lon":5.39135,"is_reserved":false,"is_disabled":false,"rental_uris":{"android":"levelo://app?vid=0e727ae0-81ac-41d0-98a9-2ce963d63335","ios":"levelo://app?vid=0e727ae0-81ac-41d0-98a9-2ce963d63335"},"vehicle_type_id":"4","last_reported":1701025474,"current_range_meters":2000,"station_id":"ce4bhhp2rcd13ifvqfm0","pricing_plan_id":"free"},{"bike_id":"11c530ef-3a1e-4341-9786-f43509d01bc1","system_id":"levelo_inurba_marseille","lat":43.2993,"lon":5.42563,"is_reserved":false,"is_disabled":false,"rental_uris":{"android":"levelo://app?vid=11c530ef-3a1e-4341-9786-f43509d01bc1","ios":"levelo://app?vid=11c530ef-3a1e-4341-9786-f43509d01bc1"},"vehicle_type_id":"4","last_reported":1701025474,"current_range_meters":3600,"station_id":"","pricing_plan_id":"free"},{"bike_id":"d3f9b56c-4022-43c0-b699-a707b1facdb4","system_id":"levelo_inurba_marseille","lat":43.278128,"lon":5.407195,"is_reserved":false,"is_disabled":false,"rental_uris":{"android":"levelo://app?vid=d3f9b56c-4022-43c0-b699-a707b1facdb4","ios":"levelo://app?vid=d3f9b56c-4022-43c0-b699-a707b1facdb4"},"vehicle_type_id":"4","last_reported":1701025474,"current_range_meters":22800,"station_id":"ce4bhnh2rcd13ifvqgtg","pricing_plan_id":"free"},{"bike_id":"437874cc-a3d6-48d1-acea-3a7fd02d0a08","system_id":"levelo_inurba_marseille","lat":43.278128,"lon":5.407195,"is_reserved":false,"is_disabled":false,"rental_uris":{"android":"levelo://app?vid=437874cc-a3d6-48d1-acea-3a7fd02d0a08","ios":"levelo://app?vid=437874cc-a3d6-48d1-acea-3a7fd02d0a08"},"vehicle_type_id":"4","last_reported":1701025474,"current_range_meters":9600,"station_id":"ce4bhnh2rcd13ifvqgtg","pricing_plan_id":"free"},{"bike_id":"0d37c74b-b317-4b8b-9dae-c96829bfd787","system_id":"levelo_inurba_marseille","lat":43.278128,"lon":5.407195,"is_reserved":false,"is_disabled":false,"rental_uris":{"android":"levelo://app?vid=0d37c74b-b317-4b8b-9dae-c96829bfd787","ios":"levelo://app?vid=0d37c74b-b317-4b8b-9dae-c96829bfd787"},"vehicle_type_id":"4","last_reported":1701025474,"current_range_meters":19200,"station_id":"ce4bhnh2rcd13ifvqgtg","pricing_plan_id":"free"},{"bike_id":"041d94ef-3cdd-4585-b795-7c52a1adbe3f","system_id":"levelo_inurba_marseille","lat":43.269467,"lon":5.386439,"is_reserved":false,"is_disabled":false,"rental_uris":{"android":"levelo://app?vid=041d94ef-3cdd-4585-b795-7c52a1adbe3f","ios":"levelo://app?vid=041d94ef-3cdd-4585-b795-7c52a1adbe3f"},"vehicle_type_id":"4","last_reported":1701025474,"current_range_meters":26400,"station_id":"ce4bhh92rcd13ifvqfh0","pricing_plan_id":"free"},{"bike_id":"80c2c34b-eb76-453f-b596-bdb4b8001cdc","system_id":"levelo_inurba_marseille","lat":43.269467,"lon":5.386439,"is_reserved":false,"is_disabled":false,"rental_uris":{"android":"levelo://app?vid=80c2c34b-eb76-453f-b596-bdb4b8001cdc","ios":"levelo://app?vid=80c2c34b-eb76-453f-b596-bdb4b8001cdc"},"vehicle_type_id":"4","last_reported":1701025474,"current_range_meters":15200,"station_id":"ce4bhh92rcd13ifvqfh0","pricing_plan_id":"free"},{"bike_id":"83a04496-8d8a-4892-baba-abdbed3d5c8a","system_id":"levelo_inurba_marseille","lat":43.279465,"lon":5.410561,"is_reserved":false,"is_disabled":false,"rental_uris":{"android":"levelo://app?vid=83a04496-8d8a-4892-baba-abdbed3d5c8a","ios":"levelo://app?vid=83a04496-8d8a-4892-baba-abdbed3d5c8a"},"vehicle_type_id":"4","last_reported":1701025474,"current_range_meters":800,"station_id":"ce4bhnp2rcd13ifvqh0g","pricing_plan_id":"free"},{"bike_id":"5696de41-a78d-4b0f-baac-569d8717d1ad","system_id":"levelo_inurba_marseille","lat":43.27311,"lon":5.39942,"is_reserved":false,"is_disabled":false,"rental_uris":{"android":"levelo://app?vid=5696de41-a78d-4b0f-baac-569d8717d1ad","ios":"levelo://app?vid=5696de41-a78d-4b0f-baac-569d8717d1ad"},"vehicle_type_id":"4","last_reported":1701025474,"current_range_meters":22000,"station_id":"","pricing_plan_id":"free"},{"bike_id":"f23d8119-b478-4639-98c5-6883279f9f84","system_id":"levelo_inurba_marseille","lat":43.32592,"lon":5.43067,"is_reserved":false,"is_disabled":false,"rental_uris":{"android":"levelo://app?vid=f23d8119-b478-4639-98c5-6883279f9f84","ios":"levelo://app?vid=f23d8119-b478-4639-98c5-6883279f9f84"},"vehicle_type_id":"4","last_reported":1701025474,"current_range_meters":22000,"station_id":"","pricing_plan_id":"free"},{"bike_id":"ed30d6a1-b23a-49e5-9c83-5546be72a734","system_id":"levelo_inurba_marseille","lat":43.3259,"lon":5.43075,"is_reserved":false,"is_disabled":false,"rental_uris":{"android":"levelo://app?vid=ed30d6a1-b23a-49e5-9c83-5546be72a734","ios":"levelo://app?vid=ed30d6a1-b23a-49e5-9c83-5546be72a734"},"vehicle_type_id":"4","last_reported":1701025474,"current_range_meters":16800,"station_id":"","pricing_plan_id":"free"},{"bike_id":"d67469ee-5362-4610-a163-fe05ae3cf4f7","system_id":"levelo_inurba_marseille","lat":43.32604,"lon":5.430817,"is_reserved":false,"is_disabled":false,"rental_uris":{"android":"levelo://app?vid=d67469ee-5362-4610-a163-fe05ae3cf4f7","ios":"levelo://app?vid=d67469ee-5362-4610-a163-fe05ae3cf4f7"},"vehicle_type_id":"4","last_reported":1701025474,"current_range_meters":5200,"station_id":"","pricing_plan_id":"free"},{"bike_id":"3c201c87-5807-42b1-acc1-bb2635631804","system_id":"levelo_inurba_marseille","lat":43.27996,"lon":5.416624,"is_reserved":false,"is_disabled":false,"rental_uris":{"android":"levelo://app?vid=3c201c87-5807-42b1-acc1-bb2635631804","ios":"levelo://app?vid=3c201c87-5807-42b1-acc1-bb2635631804"},"vehicle_type_id":"4","last_reported":1701025474,"current_range_meters":0,"station_id":"ce4bho12rcd13ifvqh1g","pricing_plan_id":"free"},{"bike_id":"bbfcd2e3-0225-418b-b426-52e91ae6a9b1","system_id":"levelo_inurba_marseille","lat":43.27996,"lon":5.416624,"is_reserved":false,"is_disabled":false,"rental_uris":{"android":"levelo://app?vid=bbfcd2e3-0225-418b-b426-52e91ae6a9b1","ios":"levelo://app?vid=bbfcd2e3-0225-418b-b426-52e91ae6a9b1"},"vehicle_type_id":"4","last_reported":1701025474,"current_range_meters":31600,"station_id":"ce4bho12rcd13ifvqh1g","pricing_plan_id":"free"},{"bike_id":"2b5f0b27-ae58-4e9e-bd76-c585f78e8a73","system_id":"levelo_inurba_marseille","lat":43.26386,"lon":5.37454,"is_reserved":false,"is_disabled":false,"rental_uris":{"android":"levelo://app?vid=2b5f0b27-ae58-4e9e-bd76-c585f78e8a73","ios":"levelo://app?vid=2b5f0b27-ae58-4e9e-bd76-c585f78e8a73"},"vehicle_type_id":"4","last_reported":1701025474,"current_range_meters":6000,"station_id":"","pricing_plan_id":"free"},{"bike_id":"81417be7-c0f3-482c-a0f1-9cf2b55f2dfc","system_id":"levelo_inurba_marseille","lat":43.265477,"lon":5.389987,"is_reserved":false,"is_disabled":false,"rental_uris":{"android":"levelo://app?vid=81417be7-c0f3-482c-a0f1-9cf2b55f2dfc","ios":"levelo://app?vid=81417be7-c0f3-482c-a0f1-9cf2b55f2dfc"},"vehicle_type_id":"4","last_reported":1701025474,"current_range_meters":25200,"station_id":"ce4bhe12rcd13ifvqf30","pricing_plan_id":"free"},{"bike_id":"4e51360c-c0f2-4ec8-9cc6-e51aefb6dc54","system_id":"levelo_inurba_marseille","lat":43.265482,"lon":5.390041,"is_reserved":false,"is_disabled":false,"rental_uris":{"android":"levelo://app?vid=4e51360c-c0f2-4ec8-9cc6-e51aefb6dc54","ios":"levelo://app?vid=4e51360c-c0f2-4ec8-9cc6-e51aefb6dc54"},"vehicle_type_id":"4","last_reported":1701025474,"current_range_meters":11600,"station_id":"ce4bhe12rcd13ifvqf30","pricing_plan_id":"free"},{"bike_id":"34e9d94a-a716-4b0c-93f4-cd00b136e1d7","system_id":"levelo_inurba_marseille","lat":43.3171,"lon":5.43709,"is_reserved":false,"is_disabled":false,"rental_uris":{"android":"levelo://app?vid=34e9d94a-a716-4b0c-93f4-cd00b136e1d7","ios":"levelo://app?vid=34e9d94a-a716-4b0c-93f4-cd00b136e1d7"},"vehicle_type_id":"4","last_reported":1701025474,"current_range_meters":0,"station_id":"ce4bhp92rcd13ifvqhcg","pricing_plan_id":"free"},{"bike_id":"9995a9fc-147c-4c65-be8e-894b818b2b01","system_id":"levelo_inurba_marseille","lat":43.271388,"lon":5.409269,"is_reserved":false,"is_disabled":false,"rental_uris":{"android":"levelo://app?vid=9995a9fc-147c-4c65-be8e-894b818b2b01","ios":"levelo://app?vid=9995a9fc-147c-4c65-be8e-894b818b2b01"},"vehicle_type_id":"4","last_reported":1701025474,"current_range_meters":22400,"station_id":"ce4bhl12rcd13ifvqgf0","pricing_plan_id":"free"},{"bike_id":"cdf2c497-f033-4c0f-80f4-b4e51e4970c2","system_id":"levelo_inurba_marseille","lat":43.271752,"lon":5.409953,"is_reserved":false,"is_disabled":false,"rental_uris":{"android":"levelo://app?vid=cdf2c497-f033-4c0f-80f4-b4e51e4970c2","ios":"levelo://app?vid=cdf2c497-f033-4c0f-80f4-b4e51e4970c2"},"vehicle_type_id":"4","last_reported":1701025474,"current_range_meters":22000,"station_id":"ce4bhl12rcd13ifvqgf0","pricing_plan_id":"free"},{"bike_id":"6486a652-dc78-4f86-b884-a8279240274a","system_id":"levelo_inurba_marseille","lat":43.271708,"lon":5.409888,"is_reserved":false,"is_disabled":false,"rental_uris":{"android":"levelo://app?vid=6486a652-dc78-4f86-b884-a8279240274a","ios":"levelo://app?vid=6486a652-dc78-4f86-b884-a8279240274a"},"vehicle_type_id":"4","last_reported":1701025474,"current_range_meters":12400,"station_id":"ce4bhl12rcd13ifvqgf0","pricing_plan_id":"free"},{"bike_id":"3b0d8a85-757d-4e5a-8804-f98915973b25","system_id":"levelo_inurba_marseille","lat":43.267959,"lon":5.402687,"is_reserved":false,"is_disabled":false,"rental_uris":{"android":"levelo://app?vid=3b0d8a85-757d-4e5a-8804-f98915973b25","ios":"levelo://app?vid=3b0d8a85-757d-4e5a-8804-f98915973b25"},"vehicle_type_id":"4","last_reported":1701025474,"current_range_meters":30800,"station_id":"ce501612rcd8frsf0b60","pricing_plan_id":"free"},{"bike_id":"13efbc1c-d5e6-4098-8f82-49cd483b6f29","system_id":"levelo_inurba_marseille","lat":43.267959,"lon":5.402687,"is_reserved":false,"is_disabled":false,"rental_uris":{"android":"levelo://app?vid=13efbc1c-d5e6-4098-8f82-49cd483b6f29","ios":"levelo://app?vid=13efbc1c-d5e6-4098-8f82-49cd483b6f29"},"vehicle_type_id":"4","last_reported":1701025474,"current_range_meters":31200,"station_id":"ce501612rcd8frsf0b60","pricing_plan_id":"free"},{"bike_id":"dfbe7ccb-60b5-4ede-8244-bb94470c5d84","system_id":"levelo_inurba_marseille","lat":43.28208,"lon":5.42547,"is_reserved":false,"is_disabled":false,"rental_uris":{"android":"levelo://app?vid=dfbe7ccb-60b5-4ede-8244-bb94470c5d84","ios":"levelo://app?vid=dfbe7ccb-60b5-4ede-8244-bb94470c5d84"},"vehicle_type_id":"4","last_reported":1701025474,"current_range_meters":30000,"station_id":"","pricing_plan_id":"free"},{"bike_id":"f4f2e1d5-dafa-412d-9b3a-3611814786ce","system_id":"levelo_inurba_marseille","lat":43.298768,"lon":5.43643,"is_reserved":false,"is_disabled":false,"rental_uris":{"android":"levelo://app?vid=f4f2e1d5-dafa-412d-9b3a-3611814786ce","ios":"levelo://app?vid=f4f2e1d5-dafa-412d-9b3a-3611814786ce"},"vehicle_type_id":"4","last_reported":1701025474,"current_range_meters":31600,"station_id":"ce4bhpp2rcd13ifvqhfg","pricing_plan_id":"free"},{"bike_id":"423b9c0d-328c-4eca-a1f3-0028615d1395","system_id":"levelo_inurba_marseille","lat":43.298768,"lon":5.43643,"is_reserved":false,"is_disabled":false,"rental_uris":{"android":"levelo://app?vid=423b9c0d-328c-4eca-a1f3-0028615d1395","ios":"levelo://app?vid=423b9c0d-328c-4eca-a1f3-0028615d1395"},"vehicle_type_id":"4","last_reported":1701025474,"current_range_meters":27200,"station_id":"ce4bhpp2rcd13ifvqhfg","pricing_plan_id":"free"},{"bike_id":"7c5a83ac-336c-4b91-a5ea-82b3c6d6127d","system_id":"levelo_inurba_marseille","lat":43.298768,"lon":5.43643,"is_reserved":false,"is_disabled":false,"rental_uris":{"android":"levelo://app?vid=7c5a83ac-336c-4b91-a5ea-82b3c6d6127d","ios":"levelo://app?vid=7c5a83ac-336c-4b91-a5ea-82b3c6d6127d"},"vehicle_type_id":"4","last_reported":1701025474,"current_range_meters":31600,"station_id":"ce4bhpp2rcd13ifvqhfg","pricing_plan_id":"free"},{"bike_id":"9a5ca6f0-6f31-4d5e-bf3e-7f028d92f2c5","system_id":"levelo_inurba_marseille","lat":43.298768,"lon":5.43643,"is_reserved":false,"is_disabled":false,"rental_uris":{"android":"levelo://app?vid=9a5ca6f0-6f31-4d5e-bf3e-7f028d92f2c5","ios":"levelo://app?vid=9a5ca6f0-6f31-4d5e-bf3e-7f028d92f2c5"},"vehicle_type_id":"4","last_reported":1701025474,"current_range_meters":28800,"station_id":"ce4bhpp2rcd13ifvqhfg","pricing_plan_id":"free"},{"bike_id":"a1b74692-2b7b-4a2d-967d-a59faaed1e73","system_id":"levelo_inurba_marseille","lat":43.26022,"lon":5.37549,"is_reserved":false,"is_disabled":false,"rental_uris":{"android":"levelo://app?vid=a1b74692-2b7b-4a2d-967d-a59faaed1e73","ios":"levelo://app?vid=a1b74692-2b7b-4a2d-967d-a59faaed1e73"},"vehicle_type_id":"4","last_reported":1701025474,"current_range_meters":23200,"station_id":"ce4bhgh2rcd13ifvqfa0","pricing_plan_id":"free"},{"bike_id":"3f341b3a-760d-4088-a3d9-99bad999f571","system_id":"levelo_inurba_marseille","lat":43.281548,"lon":5.42643,"is_reserved":false,"is_disabled":false,"rental_uris":{"android":"levelo://app?vid=3f341b3a-760d-4088-a3d9-99bad999f571","ios":"levelo://app?vid=3f341b3a-760d-4088-a3d9-99bad999f571"},"vehicle_type_id":"4","last_reported":1701025474,"current_range_meters":27600,"station_id":"ce4bhnh2rcd13ifvqgug","pricing_plan_id":"free"},{"bike_id":"7ffa4dfa-0463-41ba-8ecc-516a8c5479de","system_id":"levelo_inurba_marseille","lat":43.281548,"lon":5.42643,"is_reserved":false,"is_disabled":false,"rental_uris":{"android":"levelo://app?vid=7ffa4dfa-0463-41ba-8ecc-516a8c5479de","ios":"levelo://app?vid=7ffa4dfa-0463-41ba-8ecc-516a8c5479de"},"vehicle_type_id":"4","last_reported":1701025474,"current_range_meters":18000,"station_id":"ce4bhnh2rcd13ifvqgug","pricing_plan_id":"free"},{"bike_id":"4bde6c20-2dbd-45f6-bbf4-21e9f766e141","system_id":"levelo_inurba_marseille","lat":43.281548,"lon":5.42643,"is_reserved":false,"is_disabled":false,"rental_uris":{"android":"levelo://app?vid=4bde6c20-2dbd-45f6-bbf4-21e9f766e141","ios":"levelo://app?vid=4bde6c20-2dbd-45f6-bbf4-21e9f766e141"},"vehicle_type_id":"4","last_reported":1701025474,"current_range_meters":18400,"station_id":"ce4bhnh2rcd13ifvqgug","pricing_plan_id":"free"},{"bike_id":"130e1dbc-732f-459e-acdd-737bb198bc0d","system_id":"levelo_inurba_marseille","lat":43.281548,"lon":5.42643,"is_reserved":false,"is_disabled":false,"rental_uris":{"android":"levelo://app?vid=130e1dbc-732f-459e-acdd-737bb198bc0d","ios":"levelo://app?vid=130e1dbc-732f-459e-acdd-737bb198bc0d"},"vehicle_type_id":"4","last_reported":1701025474,"current_range_meters":12400,"station_id":"ce4bhnh2rcd13ifvqgug","pricing_plan_id":"free"},{"bike_id":"0b2028e1-203e-4516-9904-d1a8ab768044","system_id":"levelo_inurba_marseille","lat":43.281548,"lon":5.42643,"is_reserved":false,"is_disabled":false,"rental_uris":{"android":"levelo://app?vid=0b2028e1-203e-4516-9904-d1a8ab768044","ios":"levelo://app?vid=0b2028e1-203e-4516-9904-d1a8ab768044"},"vehicle_type_id":"4","last_reported":1701025474,"current_range_meters":26400,"station_id":"ce4bhnh2rcd13ifvqgug","pricing_plan_id":"free"},{"bike_id":"fb1efbc6-c4c2-46ab-9c63-f25a6f13b967","system_id":"levelo_inurba_marseille","lat":43.2607,"lon":5.393983,"is_reserved":false,"is_disabled":false,"rental_uris":{"android":"levelo://app?vid=fb1efbc6-c4c2-46ab-9c63-f25a6f13b967","ios":"levelo://app?vid=fb1efbc6-c4c2-46ab-9c63-f25a6f13b967"},"vehicle_type_id":"4","last_reported":1701025474,"current_range_meters":28800,"station_id":"ce4bhh92rcd13ifvqfj0","pricing_plan_id":"free"},{"bike_id":"54d29be5-022c-4c87-9572-ac929b9765af","system_id":"levelo_inurba_marseille","lat":43.2607,"lon":5.393983,"is_reserved":false,"is_disabled":false,"rental_uris":{"android":"levelo://app?vid=54d29be5-022c-4c87-9572-ac929b9765af","ios":"levelo://app?vid=54d29be5-022c-4c87-9572-ac929b9765af"},"vehicle_type_id":"4","last_reported":1701025474,"current_range_meters":21200,"station_id":"ce4bhh92rcd13ifvqfj0","pricing_plan_id":"free"},{"bike_id":"7c40cdd1-cfc2-4f54-96cb-485b584babfc","system_id":"levelo_inurba_marseille","lat":43.260944,"lon":5.39765,"is_reserved":false,"is_disabled":false,"rental_uris":{"android":"levelo://app?vid=7c40cdd1-cfc2-4f54-96cb-485b584babfc","ios":"levelo://app?vid=7c40cdd1-cfc2-4f54-96cb-485b584babfc"},"vehicle_type_id":"4","last_reported":1701025474,"current_range_meters":26800,"station_id":"ce4bhi12rcd13ifvqfq0","pricing_plan_id":"free"},{"bike_id":"f2918d52-8710-4f1e-a460-a1ae61a3e995","system_id":"levelo_inurba_marseille","lat":43.260909,"lon":5.397591,"is_reserved":false,"is_disabled":false,"rental_uris":{"android":"levelo://app?vid=f2918d52-8710-4f1e-a460-a1ae61a3e995","ios":"levelo://app?vid=f2918d52-8710-4f1e-a460-a1ae61a3e995"},"vehicle_type_id":"4","last_reported":1701025474,"current_range_meters":6400,"station_id":"ce4bhi12rcd13ifvqfq0","pricing_plan_id":"free"},{"bike_id":"5d9b1c63-a266-4038-ac5a-e5fefb7ab6dc","system_id":"levelo_inurba_marseille","lat":43.260909,"lon":5.397591,"is_reserved":false,"is_disabled":false,"rental_uris":{"android":"levelo://app?vid=5d9b1c63-a266-4038-ac5a-e5fefb7ab6dc","ios":"levelo://app?vid=5d9b1c63-a266-4038-ac5a-e5fefb7ab6dc"},"vehicle_type_id":"4","last_reported":1701025474,"current_range_meters":12800,"station_id":"ce4bhi12rcd13ifvqfq0","pricing_plan_id":"free"},{"bike_id":"c85f7616-3a9e-47a4-ae16-28a03e51ab4f","system_id":"levelo_inurba_marseille","lat":43.28929,"lon":5.438754,"is_reserved":false,"is_disabled":false,"rental_uris":{"android":"levelo://app?vid=c85f7616-3a9e-47a4-ae16-28a03e51ab4f","ios":"levelo://app?vid=c85f7616-3a9e-47a4-ae16-28a03e51ab4f"},"vehicle_type_id":"4","last_reported":1701025474,"current_range_meters":8000,"station_id":"","pricing_plan_id":"free"},{"bike_id":"86edd296-d832-4200-ae1c-a993e8c7d603","system_id":"levelo_inurba_marseille","lat":43.258224,"lon":5.394369,"is_reserved":false,"is_disabled":false,"rental_uris":{"android":"levelo://app?vid=86edd296-d832-4200-ae1c-a993e8c7d603","ios":"levelo://app?vid=86edd296-d832-4200-ae1c-a993e8c7d603"},"vehicle_type_id":"4","last_reported":1701025474,"current_range_meters":6000,"station_id":"ce4bhip2rcd13ifvqft0","pricing_plan_id":"free"},{"bike_id":"ca3aa7fa-c33a-4359-9b56-05bd0bc1310f","system_id":"levelo_inurba_marseille","lat":43.25579,"lon":5.38226,"is_reserved":false,"is_disabled":false,"rental_uris":{"android":"levelo://app?vid=ca3aa7fa-c33a-4359-9b56-05bd0bc1310f","ios":"levelo://app?vid=ca3aa7fa-c33a-4359-9b56-05bd0bc1310f"},"vehicle_type_id":"4","last_reported":1701025474,"current_range_meters":28000,"station_id":"ce4bhih2rcd13ifvqfs0","pricing_plan_id":"free"},{"bike_id":"3c8fbc00-c565-4df5-b5b0-3feb6ddef792","system_id":"levelo_inurba_marseille","lat":43.25576,"lon":5.38229,"is_reserved":false,"is_disabled":false,"rental_uris":{"android":"levelo://app?vid=3c8fbc00-c565-4df5-b5b0-3feb6ddef792","ios":"levelo://app?vid=3c8fbc00-c565-4df5-b5b0-3feb6ddef792"},"vehicle_type_id":"4","last_reported":1701025474,"current_range_meters":24400,"station_id":"ce4bhih2rcd13ifvqfs0","pricing_plan_id":"free"},{"bike_id":"c9f2b3f8-5e82-4dcb-a514-0009dca3b716","system_id":"levelo_inurba_marseille","lat":43.25577,"lon":5.38242,"is_reserved":false,"is_disabled":false,"rental_uris":{"android":"levelo://app?vid=c9f2b3f8-5e82-4dcb-a514-0009dca3b716","ios":"levelo://app?vid=c9f2b3f8-5e82-4dcb-a514-0009dca3b716"},"vehicle_type_id":"4","last_reported":1701025474,"current_range_meters":0,"station_id":"ce4bhih2rcd13ifvqfs0","pricing_plan_id":"free"},{"bike_id":"bb03d128-ef00-4706-a798-f82ccd3fae64","system_id":"levelo_inurba_marseille","lat":43.25572,"lon":5.38234,"is_reserved":false,"is_disabled":false,"rental_uris":{"android":"levelo://app?vid=bb03d128-ef00-4706-a798-f82ccd3fae64","ios":"levelo://app?vid=bb03d128-ef00-4706-a798-f82ccd3fae64"},"vehicle_type_id":"4","last_reported":1701025474,"current_range_meters":1600,"station_id":"ce4bhih2rcd13ifvqfs0","pricing_plan_id":"free"},{"bike_id":"30037609-efcd-44dc-ba68-9de7e7b7d615","system_id":"levelo_inurba_marseille","lat":43.254947,"lon":5.376454,"is_reserved":false,"is_disabled":false,"rental_uris":{"android":"levelo://app?vid=30037609-efcd-44dc-ba68-9de7e7b7d615","ios":"levelo://app?vid=30037609-efcd-44dc-ba68-9de7e7b7d615"},"vehicle_type_id":"4","last_reported":1701025474,"current_range_meters":25600,"station_id":"ce4bhh12rcd13ifvqff0","pricing_plan_id":"free"},{"bike_id":"d0318e61-b981-41f0-87a7-7f9a4fa60a8b","system_id":"levelo_inurba_marseille","lat":43.254971,"lon":5.376449,"is_reserved":false,"is_disabled":false,"rental_uris":{"android":"levelo://app?vid=d0318e61-b981-41f0-87a7-7f9a4fa60a8b","ios":"levelo://app?vid=d0318e61-b981-41f0-87a7-7f9a4fa60a8b"},"vehicle_type_id":"4","last_reported":1701025474,"current_range_meters":0,"station_id":"ce4bhh12rcd13ifvqff0","pricing_plan_id":"free"},{"bike_id":"86be688d-0790-456c-bce2-39e503103536","system_id":"levelo_inurba_marseille","lat":43.254947,"lon":5.376454,"is_reserved":false,"is_disabled":false,"rental_uris":{"android":"levelo://app?vid=86be688d-0790-456c-bce2-39e503103536","ios":"levelo://app?vid=86be688d-0790-456c-bce2-39e503103536"},"vehicle_type_id":"4","last_reported":1701025474,"current_range_meters":6800,"station_id":"ce4bhh12rcd13ifvqff0","pricing_plan_id":"free"},{"bike_id":"c49ff095-410c-4623-8b74-684b0fd5056a","system_id":"levelo_inurba_marseille","lat":43.27072,"lon":5.42277,"is_reserved":false,"is_disabled":false,"rental_uris":{"android":"levelo://app?vid=c49ff095-410c-4623-8b74-684b0fd5056a","ios":"levelo://app?vid=c49ff095-410c-4623-8b74-684b0fd5056a"},"vehicle_type_id":"4","last_reported":1701025474,"current_range_meters":7600,"station_id":"ce4bhk92rcd13ifvqgb0","pricing_plan_id":"free"},{"bike_id":"d9afc35e-94de-472b-bd32-ff0959bca2db","system_id":"levelo_inurba_marseille","lat":43.270721,"lon":5.422764,"is_reserved":false,"is_disabled":false,"rental_uris":{"android":"levelo://app?vid=d9afc35e-94de-472b-bd32-ff0959bca2db","ios":"levelo://app?vid=d9afc35e-94de-472b-bd32-ff0959bca2db"},"vehicle_type_id":"4","last_reported":1701025474,"current_range_meters":23200,"station_id":"ce4bhk92rcd13ifvqgb0","pricing_plan_id":"free"},{"bike_id":"fa94e1b3-924d-484c-aa3a-070aacbdbbfd","system_id":"levelo_inurba_marseille","lat":43.27066,"lon":5.422734,"is_reserved":false,"is_disabled":false,"rental_uris":{"android":"levelo://app?vid=fa94e1b3-924d-484c-aa3a-070aacbdbbfd","ios":"levelo://app?vid=fa94e1b3-924d-484c-aa3a-070aacbdbbfd"},"vehicle_type_id":"4","last_reported":1701025474,"current_range_meters":28000,"station_id":"ce4bhk92rcd13ifvqgb0","pricing_plan_id":"free"},{"bike_id":"ec3a6c11-b085-4a4f-b1c2-436439ca84c2","system_id":"levelo_inurba_marseille","lat":43.270721,"lon":5.422764,"is_reserved":false,"is_disabled":false,"rental_uris":{"android":"levelo://app?vid=ec3a6c11-b085-4a4f-b1c2-436439ca84c2","ios":"levelo://app?vid=ec3a6c11-b085-4a4f-b1c2-436439ca84c2"},"vehicle_type_id":"4","last_reported":1701025474,"current_range_meters":0,"station_id":"ce4bhk92rcd13ifvqgb0","pricing_plan_id":"free"},{"bike_id":"2fe108bb-34ec-4d55-a017-f8b460872c4b","system_id":"levelo_inurba_marseille","lat":43.27066,"lon":5.42277,"is_reserved":false,"is_disabled":false,"rental_uris":{"android":"levelo://app?vid=2fe108bb-34ec-4d55-a017-f8b460872c4b","ios":"levelo://app?vid=2fe108bb-34ec-4d55-a017-f8b460872c4b"},"vehicle_type_id":"4","last_reported":1701025474,"current_range_meters":29200,"station_id":"ce4bhk92rcd13ifvqgb0","pricing_plan_id":"free"},{"bike_id":"3764d48b-8e61-4222-bf2f-e0a7f6536aa8","system_id":"levelo_inurba_marseille","lat":43.270639,"lon":5.422741,"is_reserved":false,"is_disabled":false,"rental_uris":{"android":"levelo://app?vid=3764d48b-8e61-4222-bf2f-e0a7f6536aa8","ios":"levelo://app?vid=3764d48b-8e61-4222-bf2f-e0a7f6536aa8"},"vehicle_type_id":"4","last_reported":1701025474,"current_range_meters":29200,"station_id":"ce4bhk92rcd13ifvqgb0","pricing_plan_id":"free"},{"bike_id":"50c0c05e-8b46-4cec-ac3a-7160dcbfd7be","system_id":"levelo_inurba_marseille","lat":43.258658,"lon":5.398935,"is_reserved":false,"is_disabled":false,"rental_uris":{"android":"levelo://app?vid=50c0c05e-8b46-4cec-ac3a-7160dcbfd7be","ios":"levelo://app?vid=50c0c05e-8b46-4cec-ac3a-7160dcbfd7be"},"vehicle_type_id":"4","last_reported":1701025474,"current_range_meters":25600,"station_id":"ce4bhl92rcd13ifvqghg","pricing_plan_id":"free"},{"bike_id":"23688042-04a3-41ce-8402-7680d754251a","system_id":"levelo_inurba_marseille","lat":43.259009,"lon":5.40929,"is_reserved":false,"is_disabled":false,"rental_uris":{"android":"levelo://app?vid=23688042-04a3-41ce-8402-7680d754251a","ios":"levelo://app?vid=23688042-04a3-41ce-8402-7680d754251a"},"vehicle_type_id":"4","last_reported":1701025474,"current_range_meters":6800,"station_id":"ce4bhm92rcd13ifvqglg","pricing_plan_id":"free"},{"bike_id":"e9b6a1d5-c740-405d-a6f8-282eec5a3660","system_id":"levelo_inurba_marseille","lat":43.25729,"lon":5.41106,"is_reserved":false,"is_disabled":false,"rental_uris":{"android":"levelo://app?vid=e9b6a1d5-c740-405d-a6f8-282eec5a3660","ios":"levelo://app?vid=e9b6a1d5-c740-405d-a6f8-282eec5a3660"},"vehicle_type_id":"4","last_reported":1701025474,"current_range_meters":15600,"station_id":"ce4bhkp2rcd13ifvqgd0","pricing_plan_id":"free"},{"bike_id":"b67cb6de-687a-4860-8aa6-aea88805a2a8","system_id":"levelo_inurba_marseille","lat":43.257079,"lon":5.411051,"is_reserved":false,"is_disabled":false,"rental_uris":{"android":"levelo://app?vid=b67cb6de-687a-4860-8aa6-aea88805a2a8","ios":"levelo://app?vid=b67cb6de-687a-4860-8aa6-aea88805a2a8"},"vehicle_type_id":"4","last_reported":1701025474,"current_range_meters":29600,"station_id":"ce4bhkp2rcd13ifvqgd0","pricing_plan_id":"free"},{"bike_id":"543aa29a-345d-44be-9327-080150278834","system_id":"levelo_inurba_marseille","lat":43.257079,"lon":5.411051,"is_reserved":false,"is_disabled":false,"rental_uris":{"android":"levelo://app?vid=543aa29a-345d-44be-9327-080150278834","ios":"levelo://app?vid=543aa29a-345d-44be-9327-080150278834"},"vehicle_type_id":"4","last_reported":1701025474,"current_range_meters":31200,"station_id":"ce4bhkp2rcd13ifvqgd0","pricing_plan_id":"free"},{"bike_id":"a3db2d3f-7cb8-4611-8b38-01ed171cfc8d","system_id":"levelo_inurba_marseille","lat":43.250009,"lon":5.389195,"is_reserved":false,"is_disabled":false,"rental_uris":{"android":"levelo://app?vid=a3db2d3f-7cb8-4611-8b38-01ed171cfc8d","ios":"levelo://app?vid=a3db2d3f-7cb8-4611-8b38-01ed171cfc8d"},"vehicle_type_id":"4","last_reported":1701025474,"current_range_meters":28400,"station_id":"ce4bhgp2rcd13ifvqfd0","pricing_plan_id":"free"},{"bike_id":"b3c7c365-e2e2-4c34-95dd-1d2bc661a53c","system_id":"levelo_inurba_marseille","lat":43.250009,"lon":5.389195,"is_reserved":false,"is_disabled":false,"rental_uris":{"android":"levelo://app?vid=b3c7c365-e2e2-4c34-95dd-1d2bc661a53c","ios":"levelo://app?vid=b3c7c365-e2e2-4c34-95dd-1d2bc661a53c"},"vehicle_type_id":"4","last_reported":1701025474,"current_range_meters":17600,"station_id":"ce4bhgp2rcd13ifvqfd0","pricing_plan_id":"free"},{"bike_id":"21e75d00-8156-4063-a5a2-0428cfc125a8","system_id":"levelo_inurba_marseille","lat":43.24811,"lon":5.37459,"is_reserved":false,"is_disabled":false,"rental_uris":{"android":"levelo://app?vid=21e75d00-8156-4063-a5a2-0428cfc125a8","ios":"levelo://app?vid=21e75d00-8156-4063-a5a2-0428cfc125a8"},"vehicle_type_id":"4","last_reported":1701025474,"current_range_meters":30400,"station_id":"ce4bhgh2rcd13ifvqfb0","pricing_plan_id":"free"},{"bike_id":"8a7b3992-4ce0-4349-9bae-f95f62e5bce5","system_id":"levelo_inurba_marseille","lat":43.250023,"lon":5.38919,"is_reserved":false,"is_disabled":false,"rental_uris":{"android":"levelo://app?vid=8a7b3992-4ce0-4349-9bae-f95f62e5bce5","ios":"levelo://app?vid=8a7b3992-4ce0-4349-9bae-f95f62e5bce5"},"vehicle_type_id":"4","last_reported":1701025474,"current_range_meters":25200,"station_id":"ce4bhgp2rcd13ifvqfd0","pricing_plan_id":"free"},{"bike_id":"aa8c7b19-ca86-4fd1-900f-948796423058","system_id":"levelo_inurba_marseille","lat":43.2479,"lon":5.374457,"is_reserved":false,"is_disabled":false,"rental_uris":{"android":"levelo://app?vid=aa8c7b19-ca86-4fd1-900f-948796423058","ios":"levelo://app?vid=aa8c7b19-ca86-4fd1-900f-948796423058"},"vehicle_type_id":"4","last_reported":1701025474,"current_range_meters":28000,"station_id":"ce4bhgh2rcd13ifvqfb0","pricing_plan_id":"free"},{"bike_id":"79a5ae71-c76c-4399-b25d-fe09e3864c72","system_id":"levelo_inurba_marseille","lat":43.24805,"lon":5.37456,"is_reserved":false,"is_disabled":false,"rental_uris":{"android":"levelo://app?vid=79a5ae71-c76c-4399-b25d-fe09e3864c72","ios":"levelo://app?vid=79a5ae71-c76c-4399-b25d-fe09e3864c72"},"vehicle_type_id":"4","last_reported":1701025474,"current_range_meters":14800,"station_id":"ce4bhgh2rcd13ifvqfb0","pricing_plan_id":"free"},{"bike_id":"4f0efb12-87f5-4d11-ad98-fe64cc7903d6","system_id":"levelo_inurba_marseille","lat":43.24805,"lon":5.37465,"is_reserved":false,"is_disabled":false,"rental_uris":{"android":"levelo://app?vid=4f0efb12-87f5-4d11-ad98-fe64cc7903d6","ios":"levelo://app?vid=4f0efb12-87f5-4d11-ad98-fe64cc7903d6"},"vehicle_type_id":"4","last_reported":1701025474,"current_range_meters":30400,"station_id":"ce4bhgh2rcd13ifvqfb0","pricing_plan_id":"free"},{"bike_id":"c98b5d95-31ff-44d5-888b-053d002d6be5","system_id":"levelo_inurba_marseille","lat":43.2479,"lon":5.374457,"is_reserved":false,"is_disabled":false,"rental_uris":{"android":"levelo://app?vid=c98b5d95-31ff-44d5-888b-053d002d6be5","ios":"levelo://app?vid=c98b5d95-31ff-44d5-888b-053d002d6be5"},"vehicle_type_id":"4","last_reported":1701025474,"current_range_meters":19200,"station_id":"ce4bhgh2rcd13ifvqfb0","pricing_plan_id":"free"},{"bike_id":"976642f9-07a6-42c1-98ea-3112272ce277","system_id":"levelo_inurba_marseille","lat":43.2479,"lon":5.374457,"is_reserved":false,"is_disabled":false,"rental_uris":{"android":"levelo://app?vid=976642f9-07a6-42c1-98ea-3112272ce277","ios":"levelo://app?vid=976642f9-07a6-42c1-98ea-3112272ce277"},"vehicle_type_id":"4","last_reported":1701025474,"current_range_meters":29200,"station_id":"ce4bhgh2rcd13ifvqfb0","pricing_plan_id":"free"},{"bike_id":"66739f60-8921-490b-8824-d05cf89b1172","system_id":"levelo_inurba_marseille","lat":43.250897,"lon":5.395161,"is_reserved":false,"is_disabled":false,"rental_uris":{"android":"levelo://app?vid=66739f60-8921-490b-8824-d05cf89b1172","ios":"levelo://app?vid=66739f60-8921-490b-8824-d05cf89b1172"},"vehicle_type_id":"4","last_reported":1701025474,"current_range_meters":23200,"station_id":"ce4bhm12rcd13ifvqgkg","pricing_plan_id":"free"},{"bike_id":"3643499a-993b-4e15-b4b9-f571e6c950ca","system_id":"levelo_inurba_marseille","lat":43.24693,"lon":5.382096,"is_reserved":false,"is_disabled":false,"rental_uris":{"android":"levelo://app?vid=3643499a-993b-4e15-b4b9-f571e6c950ca","ios":"levelo://app?vid=3643499a-993b-4e15-b4b9-f571e6c950ca"},"vehicle_type_id":"4","last_reported":1701025474,"current_range_meters":26000,"station_id":"ce4bhih2rcd13ifvqfr0","pricing_plan_id":"free"},{"bike_id":"6c11779b-604a-46dd-bd48-42d55d02602f","system_id":"levelo_inurba_marseille","lat":43.24693,"lon":5.382096,"is_reserved":false,"is_disabled":false,"rental_uris":{"android":"levelo://app?vid=6c11779b-604a-46dd-bd48-42d55d02602f","ios":"levelo://app?vid=6c11779b-604a-46dd-bd48-42d55d02602f"},"vehicle_type_id":"4","last_reported":1701025474,"current_range_meters":25600,"station_id":"ce4bhih2rcd13ifvqfr0","pricing_plan_id":"free"},{"bike_id":"8877bff2-8f30-4ace-b9f5-1ea132d2ed9c","system_id":"levelo_inurba_marseille","lat":43.24693,"lon":5.382096,"is_reserved":false,"is_disabled":false,"rental_uris":{"android":"levelo://app?vid=8877bff2-8f30-4ace-b9f5-1ea132d2ed9c","ios":"levelo://app?vid=8877bff2-8f30-4ace-b9f5-1ea132d2ed9c"},"vehicle_type_id":"4","last_reported":1701025474,"current_range_meters":20800,"station_id":"ce4bhih2rcd13ifvqfr0","pricing_plan_id":"free"},{"bike_id":"dd496758-a15e-4cc3-9d38-e7996ffc1954","system_id":"levelo_inurba_marseille","lat":43.24693,"lon":5.382096,"is_reserved":false,"is_disabled":false,"rental_uris":{"android":"levelo://app?vid=dd496758-a15e-4cc3-9d38-e7996ffc1954","ios":"levelo://app?vid=dd496758-a15e-4cc3-9d38-e7996ffc1954"},"vehicle_type_id":"4","last_reported":1701025474,"current_range_meters":4400,"station_id":"ce4bhih2rcd13ifvqfr0","pricing_plan_id":"free"},