{"last_updated":1721149645,"ttl":30,"version":"2.2","data":{"bikes":[{"bike_id":"6954c984-9769-49bc-bb47-ec5b446843f4","system_id":"levelo_inurba_marseille","lat":43.312239,"lon":5.368562,"is_reserved":false,"is_disabled":false,"rental_uris":{"android":"levelo://app?vid=6954c984-9769-49bc-bb47-ec5b446843f4","ios":"levelo://app?vid=6954c984-9769-49bc-bb47-ec5b446843f4"},"vehicle_type_id":"4","last_reported":1721149645,"current_range_meters":12000,"station_id":"ce4bgl92rcd13ifvqbq0","pricing_plan_id":"cebpf4jnsgd1na2vs0mg"},{"bike_id":"2f3d44cb-3ade-46a1-a7bb-a2c2016eb16f","system_id":"levelo_inurba_marseille","lat":43.314811,"lon":5.373104,"is_reserved":false,"is_disabled":false,"rental_uris":{"android":"levelo://app?vid=2f3d44cb-3ade-46a1-a7bb-a2c2016eb16f","ios":"levelo://app?vid=2f3d44cb-3ade-46a1-a7bb-a2c2016eb16f"},"vehicle_type_id":"4","last_reported":1721149645,"current_range_meters":2000,"station_id":"ce4bgt12rcd13ifvqcd0","pricing_plan_id":"cebpf4jnsgd1na2vs0mg"},{"bike_id":"cf56e52f-59fb-4c67-9da0-e5afd1431740","system_id":"levelo_inurba_marseille","lat":43.314811,"lon":5.373104,"is_reserved":false,"is_disabled":false,"rental_uris":{"android":"levelo://app?vid=cf56e52f-59fb-4c67-9da0-e5afd1431740","ios":"levelo://app?vid=cf56e52f-59fb-4c67-9da0-e5afd1431740"},"vehicle_type_id":"4","last_reported":1721149645,"current_range_meters":17200,"station_id":"ce4bgt12rcd13ifvqcd0","pricing_plan_id":"cebpf4jnsgd1na2vs0mg"},{"bike_id":"2b73955f-b798-4f41-8481-7c8bf2f09908","system_id":"levelo_inurba_marseille","lat":43.305989,"lon":5.37225,"is_reserved":false,"is_disabled":false,"rental_uris":{"android":"levelo://app?vid=2b73955f-b798-4f41-8481-7c8bf2f09908","ios":"levelo://app?vid=2b73955f-b798-4f41-8481-7c8bf2f09908"},"vehicle_type_id":"4","last_reported":1721149645,"current_range_meters":1600,"station_id":"ce4bgqh2rcd13ifvqc4g","pricing_plan_id":"cebpf4jnsgd1na2vs0mg"},{"bike_id":"aa9d151f-7337-4d9b-9309-e41c6f060b6a","system_id":"levelo_inurba_marseille","lat":43.31127,"lon":5.37763,"is_reserved":false,"is_disabled":false,"rental_uris":{"android":"levelo://app?vid=aa9d151f-7337-4d9b-9309-e41c6f060b6a","ios":"levelo://app?vid=aa9d151f-7337-4d9b-9309-e41c6f060b6a"},"vehicle_type_id":"4","last_reported":1721149645,"current_range_meters":0,"station_id":"ce4bgt92rcd13ifvqcg0","pricing_plan_id":"cebpf4jnsgd1na2vs0mg"},{"bike_id":"e7d57a90-e112-4bbd-8be0-040753c438e5","system_id":"levelo_inurba_marseille","lat":43.311131,"lon":5.377651,"is_reserved":false,"is_disabled":false,"rental_uris":{"android":"levelo://app?vid=e7d57a90-e112-4bbd-8be0-040753c438e5","ios":"levelo://app?vid=e7d57a90-e112-4bbd-8be0-040753c438e5"},"vehicle_type_id":"4","last_reported":1721149645,"current_range_meters":26400,"station_id":"ce4bgt92rcd13ifvqcg0","pricing_plan_id":"cebpf4jnsgd1na2vs0mg"},{"bike_id":"8ed14c93-7793-4de8-aaa6-e565c4611148","system_id":"levelo_inurba_marseille","lat":43.317075,"lon":5.377367,"is_reserved":false,"is_disabled":false,"rental_uris":{"android":"levelo://app?vid=8ed14c93-7793-4de8-aaa6-e565c4611148","ios":"levelo://app?vid=8ed14c93-7793-4de8-aaa6-e565c4611148"},"vehicle_type_id":"4","last_reported":1721149645,"current_range_meters":0,"station_id":"ce4bgth2rcd13ifvqch0","pricing_plan_id":"cebpf4jnsgd1na2vs0mg"},{"bike_id":"5acc7e1f-f9c0-4bf6-8072-4b1ca061d024","system_id":"levelo_inurba_marseille","lat":43.317075,"lon":5.377367,"is_reserved":false,"is_disabled":false,"rental_uris":{"android":"levelo://app?vid=5acc7e1f-f9c0-4bf6-8072-4b1ca061d024","ios":"levelo://app?vid=5acc7e1f-f9c0-4bf6-8072-4b1ca061d024"},"vehicle_type_id":"4","last_reported":1721149645,"current_range_meters":4400,"station_id":"ce4bgth2rcd13ifvqch0","pricing_plan_id":"cebpf4jnsgd1na2vs0mg"},{"bike_id":"41b3f9ea-af8d-4e7b-9f4d-16ad8b4e3391","system_id":"levelo_inurba_marseille","lat":43.316918,"lon":5.377774,"is_reserved":false,"is_disabled":false,"rental_uris":{"android":"levelo://app?vid=41b3f9ea-af8d-4e7b-9f4d-16ad8b4e3391","ios":"levelo://app?vid=41b3f9ea-af8d-4e7b-9f4d-16ad8b4e3391"},"vehicle_type_id":"4","last_reported":1721149645,"current_range_meters":8400,"station_id":"","pricing_plan_id":"cebpf4jnsgd1na2vs0mg"},{"bike_id":"0393e822-2978-4df8-92fe-c41ad6a4db49","system_id":"levelo_inurba_marseille","lat":43.315289,"lon":5.380349,"is_reserved":false,"is_disabled":false,"rental_uris":{"android":"levelo://app?vid=0393e822-2978-4df8-92fe-c41ad6a4db49","ios":"levelo://app?vid=0393e822-2978-4df8-92fe-c41ad6a4db49"},"vehicle_type_id":"4","last_reported":1721149645,"current_range_meters":5200,"station_id":"ce4bhsp2rcd13ifvqi50","pricing_plan_id":"cebpf4jnsgd1na2vs0mg"},{"bike_id":"d89e05d4-1ec6-48f1-948b-bbca82680765","system_id":"levelo_inurba_marseille","lat":43.30911,"lon":5.38032,"is_reserved":false,"is_disabled":false,"rental_uris":{"android":"levelo://app?vid=d89e05d4-1ec6-48f1-948b-bbca82680765","ios":"levelo://app?vid=d89e05d4-1ec6-48f1-948b-bbca82680765"},"vehicle_type_id":"4","last_reported":1721149645,"current_range_meters":4400,"station_id":"","pricing_plan_id":"cebpf4jnsgd1na2vs0mg"},{"bike_id":"d28e7481-ee98-4b91-8132-9d4c955b9eec","system_id":"levelo_inurba_marseille","lat":43.304606,"lon":5.379026,"is_reserved":false,"is_disabled":false,"rental_uris":{"android":"levelo://app?vid=d28e7481-ee98-4b91-8132-9d4c955b9eec","ios":"levelo://app?vid=d28e7481-ee98-4b91-8132-9d4c955b9eec"},"vehicle_type_id":"4","last_reported":1721149645,"current_range_meters":3600,"station_id":"ce4bgup2rcd13ifvqcn0","pricing_plan_id":"cebpf4jnsgd1na2vs0mg"},{"bike_id":"e6f01fc3-90c0-4a40-b15f-9509de2e5d81","system_id":"levelo_inurba_marseille","lat":43.324771,"lon":5.36557,"is_reserved":false,"is_disabled":false,"rental_uris":{"android":"levelo://app?vid=e6f01fc3-90c0-4a40-b15f-9509de2e5d81","ios":"levelo://app?vid=e6f01fc3-90c0-4a40-b15f-9509de2e5d81"},"vehicle_type_id":"4","last_reported":1721149645,"current_range_meters":2800,"station_id":"ce4bhs12rcd13ifvqhvg","pricing_plan_id":"cebpf4jnsgd1na2vs0mg"},{"bike_id":"57e1a5c5-167c-4b26-875c-cad5081ccb4c","system_id":"levelo_inurba_marseille","lat":43.324771,"lon":5.36557,"is_reserved":false,"is_disabled":false,"rental_uris":{"android":"levelo://app?vid=57e1a5c5-167c-4b26-875c-cad5081ccb4c","ios":"levelo://app?vid=57e1a5c5-167c-4b26-875c-cad5081ccb4c"},"vehicle_type_id":"4","last_reported":1721149645,"current_range_meters":17600,"station_id":"ce4bhs12rcd13ifvqhvg","pricing_plan_id":"cebpf4jnsgd1na2vs0mg"},{"bike_id":"a9bd770c-f7c2-4e42-b207-9afc1dc1cbbd","system_id":"levelo_inurba_marseille","lat":43.324771,"lon":5.36557,"is_reserved":false,"is_disabled":false,"rental_uris":{"android":"levelo://app?vid=a9bd770c-f7c2-4e42-b207-9afc1dc1cbbd","ios":"levelo://app?vid=a9bd770c-f7c2-4e42-b207-9afc1dc1cbbd"},"vehicle_type_id":"4","last_reported":1721149645,"current_range_meters":6400,"station_id":"ce4bhs12rcd13ifvqhvg","pricing_plan_id":"cebpf4jnsgd1na2vs0mg"},{"bike_id":"ddb7b39b-dc50-4ae4-bf75-b4a69a916f58","system_id":"levelo_inurba_marseille","lat":43.290624,"lon":5.359245,"is_reserved":false,"is_disabled":false,"rental_uris":{"android":"levelo://app?vid=ddb7b39b-dc50-4ae4-bf75-b4a69a916f58","ios":"levelo://app?vid=ddb7b39b-dc50-4ae4-bf75-b4a69a916f58"},"vehicle_type_id":"4","last_reported":1721149645,"current_range_meters":18800,"station_id":"ce4bha92rcd13ifvqeg0","pricing_plan_id":"cebpf4jnsgd1na2vs0mg"},{"bike_id":"2dd725bc-3ac2-48cb-aad5-212146af771a","system_id":"levelo_inurba_marseille","lat":43.310804,"lon":5.38359,"is_reserved":false,"is_disabled":false,"rental_uris":{"android":"levelo://app?vid=2dd725bc-3ac2-48cb-aad5-212146af771a","ios":"levelo://app?vid=2dd725bc-3ac2-48cb-aad5-212146af771a"},"vehicle_type_id":"4","last_reported":1721149645,"current_range_meters":23200,"station_id":"ce4bgv92rcd13ifvqcr0","pricing_plan_id":"cebpf4jnsgd1na2vs0mg"},{"bike_id":"197b660c-52be-4011-a3a1-d32b58713c5a","system_id":"levelo_inurba_marseille","lat":43.310804,"lon":5.38359,"is_reserved":false,"is_disabled":false,"rental_uris":{"android":"levelo://app?vid=197b660c-52be-4011-a3a1-d32b58713c5a","ios":"levelo://app?vid=197b660c-52be-4011-a3a1-d32b58713c5a"},"vehicle_type_id":"4","last_reported":1721149645,"current_range_meters":25200,"station_id":"ce4bgv92rcd13ifvqcr0","pricing_plan_id":"cebpf4jnsgd1na2vs0mg"},{"bike_id":"03ee3390-7ddf-4816-9c01-323f5671c468","system_id":"levelo_inurba_marseille","lat":43.310804,"lon":5.38359,"is_reserved":false,"is_disabled":false,"rental_uris":{"android":"levelo://app?vid=03ee3390-7ddf-4816-9c01-323f5671c468","ios":"levelo://app?vid=03ee3390-7ddf-4816-9c01-323f5671c468"},"vehicle_type_id":"4","last_reported":1721149645,"current_range_meters":21600,"station_id":"ce4bgv92rcd13ifvqcr0","pricing_plan_id":"cebpf4jnsgd1na2vs0mg"},{"bike_id":"92e1b0e8-3341-48a7-b6db-34d93a22f5bf","system_id":"levelo_inurba_marseille","lat":43.317557,"lon":5.390173,"is_reserved":false,"is_disabled":false,"rental_uris":{"android":"levelo://app?vid=92e1b0e8-3341-48a7-b6db-34d93a22f5bf","ios":"levelo://app?vid=92e1b0e8-3341-48a7-b6db-34d93a22f5bf"},"vehicle_type_id":"4","last_reported":1721149645,"current_range_meters":6800,"station_id":"ce4bhqp2rcd13ifvqhng","pricing_plan_id":"cebpf4jnsgd1na2vs0mg"},{"bike_id":"526a2a2e-6984-449c-b7cf-7d7555fc28a2","system_id":"levelo_inurba_marseille","lat":43.319935,"lon":5.381699,"is_reserved":false,"is_disabled":false,"rental_uris":{"android":"levelo://app?vid=526a2a2e-6984-449c-b7cf-7d7555fc28a2","ios":"levelo://app?vid=526a2a2e-6984-449c-b7cf-7d7555fc28a2"},"vehicle_type_id":"4","last_reported":1721149645,"current_range_meters":400,"station_id":"ce4bhr12rcd13ifvqhpg","pricing_plan_id":"cebpf4jnsgd1na2vs0mg"},{"bike_id":"f85a34c3-7490-4619-a238-618428bf9182","system_id":"levelo_inurba_marseille","lat":43.313571,"lon":5.384829,"is_reserved":false,"is_disabled":false,"rental_uris":{"android":"levelo://app?vid=f85a34c3-7490-4619-a238-618428bf9182","ios":"levelo://app?vid=f85a34c3-7490-4619-a238-618428bf9182"},"vehicle_type_id":"4","last_reported":1721149645,"current_range_meters":800,"station_id":"ce4bgt92rcd13ifvqcf0","pricing_plan_id":"cebpf4jnsgd1na2vs0mg"},{"bike_id":"b128c508-3dff-4e5e-83ce-08ba8fc809f5","system_id":"levelo_inurba_marseille","lat":43.313571,"lon":5.384829,"is_reserved":false,"is_disabled":false,"rental_uris":{"android":"levelo://app?vid=b128c508-3dff-4e5e-83ce-08ba8fc809f5","ios":"levelo://app?vid=b128c508-3dff-4e5e-83ce-08ba8fc809f5"},"vehicle_type_id":"4","last_reported":1721149645,"current_range_meters":21200,"station_id":"ce4bgt92rcd13ifvqcf0","pricing_plan_id":"cebpf4jnsgd1na2vs0mg"},{"bike_id":"c51fc313-ad1a-401e-b600-da92d01df623","system_id":"levelo_inurba_marseille","lat":43.31369,"lon":5.38497,"is_reserved":false,"is_disabled":false,"rental_uris":{"android":"levelo://app?vid=c51fc313-ad1a-401e-b600-da92d01df623","ios":"levelo://app?vid=c51fc313-ad1a-401e-b600-da92d01df623"},"vehicle_type_id":"4","last_reported":1721149645,"current_range_meters":10400,"station_id":"ce4bgt92rcd13ifvqcf0","pricing_plan_id":"cebpf4jnsgd1na2vs0mg"},{"bike_id":"b2a4547f-68b6-41c6-aa1c-1ac748255c2f","system_id":"levelo_inurba_marseille","lat":43.31361,"lon":5.38524,"is_reserved":false,"is_disabled":false,"rental_uris":{"android":"levelo://app?vid=b2a4547f-68b6-41c6-aa1c-1ac748255c2f","ios":"levelo://app?vid=b2a4547f-68b6-41c6-aa1c-1ac748255c2f"},"vehicle_type_id":"4","last_reported":1721149645,"current_range_meters":6800,"station_id":"ce4bgt92rcd13ifvqcf0","pricing_plan_id":"cebpf4jnsgd1na2vs0mg"},{"bike_id":"a7eb54a2-29d7-4dc1-9e41-a38535bed7fa","system_id":"levelo_inurba_marseille","lat":43.299209,"lon":5.365547,"is_reserved":false,"is_disabled":false,"rental_uris":{"android":"levelo://app?vid=a7eb54a2-29d7-4dc1-9e41-a38535bed7fa","ios":"levelo://app?vid=a7eb54a2-29d7-4dc1-9e41-a38535bed7fa"},"vehicle_type_id":"4","last_reported":1721149645,"current_range_meters":0,"station_id":"ce4bgm92rcd13ifvqbr0","pricing_plan_id":"cebpf4jnsgd1na2vs0mg"},{"bike_id":"c4f9b826-f862-43e5-8637-0dc30c7016b3","system_id":"levelo_inurba_marseille","lat":43.299724,"lon":5.371829,"is_reserved":false,"is_disabled":false,"rental_uris":{"android":"levelo://app?vid=c4f9b826-f862-43e5-8637-0dc30c7016b3","ios":"levelo://app?vid=c4f9b826-f862-43e5-8637-0dc30c7016b3"},"vehicle_type_id":"4","last_reported":1721149645,"current_range_meters":12400,"station_id":"ce4bgr92rcd13ifvqc7g","pricing_plan_id":"cebpf4jnsgd1na2vs0mg"},{"bike_id":"ca73a6c2-11ad-4c39-b376-25a1a7808262","system_id":"levelo_inurba_marseille","lat":43.309419,"lon":5.386314,"is_reserved":false,"is_disabled":false,"rental_uris":{"android":"levelo://app?vid=ca73a6c2-11ad-4c39-b376-25a1a7808262","ios":"levelo://app?vid=ca73a6c2-11ad-4c39-b376-25a1a7808262"},"vehicle_type_id":"4","last_reported":1721149645,"current_range_meters":25600,"station_id":"","pricing_plan_id":"cebpf4jnsgd1na2vs0mg"},{"bike_id":"fa3cff62-a099-4b46-8855-0f7960e919af","system_id":"levelo_inurba_marseille","lat":43.311722,"lon":5.387247,"is_reserved":false,"is_disabled":false,"rental_uris":{"android":"levelo://app?vid=fa3cff62-a099-4b46-8855-0f7960e919af","ios":"levelo://app?vid=fa3cff62-a099-4b46-8855-0f7960e919af"},"vehicle_type_id":"4","last_reported":1721149645,"current_range_meters":18800,"station_id":"ce4bgv12rcd13ifvqcp0","pricing_plan_id":"cebpf4jnsgd1na2vs0mg"},{"bike_id":"d97be1d6-10df-47e5-b1ca-c45d629362e1","system_id":"levelo_inurba_marseille","lat":43.311722,"lon":5.387247,"is_reserved":false,"is_disabled":false,"rental_uris":{"android":"levelo://app?vid=d97be1d6-10df-47e5-b1ca-c45d629362e1","ios":"levelo://app?vid=d97be1d6-10df-47e5-b1ca-c45d629362e1"},"vehicle_type_id":"4","last_reported":1721149645,"current_range_meters":1600,"station_id":"ce4bgv12rcd13ifvqcp0","pricing_plan_id":"cebpf4jnsgd1na2vs0mg"},{"bike_id":"2a1c2886-c8d6-4da5-a470-aeb8ccea7dfe","system_id":"levelo_inurba_marseille","lat":43.311722,"lon":5.387247,"is_reserved":false,"is_disabled":false,"rental_uris":{"android":"levelo://app?vid=2a1c2886-c8d6-4da5-a470-aeb8ccea7dfe","ios":"levelo://app?vid=2a1c2886-c8d6-4da5-a470-aeb8ccea7dfe"},"vehicle_type_id":"4","last_reported":1721149645,"current_range_meters":3600,"station_id":"ce4bgv12rcd13ifvqcp0","pricing_plan_id":"cebpf4jnsgd1na2vs0mg"},{"bike_id":"9946c2b1-182c-4c4e-ac55-7bd7b8811bed","system_id":"levelo_inurba_marseille","lat":43.311722,"lon":5.387247,"is_reserved":false,"is_disabled":false,"rental_uris":{"android":"levelo://app?vid=9946c2b1-182c-4c4e-ac55-7bd7b8811bed","ios":"levelo://app?vid=9946c2b1-182c-4c4e-ac55-7bd7b8811bed"},"vehicle_type_id":"4","last_reported":1721149645,"current_range_meters":5600,"station_id":"ce4bgv12rcd13ifvqcp0","pricing_plan_id":"cebpf4jnsgd1na2vs0mg"},{"bike_id":"54d96034-5e4e-4d9e-ba2e-f95c904392b7","system_id":"levelo_inurba_marseille","lat":43.311722,"lon":5.387247,"is_reserved":false,"is_disabled":false,"rental_uris":{"android":"levelo://app?vid=54d96034-5e4e-4d9e-ba2e-f95c904392b7","ios":"levelo://app?vid=54d96034-5e4e-4d9e-ba2e-f95c904392b7"},"vehicle_type_id":"4","last_reported":1721149645,"current_range_meters":3200,"station_id":"ce4bgv12rcd13ifvqcp0","pricing_plan_id":"cebpf4jnsgd1na2vs0mg"},{"bike_id":"7e9ae29c-7d09-450f-a17b-04143b0819e5","system_id":"levelo_inurba_marseille","lat":43.311722,"lon":5.387247,"is_reserved":false,"is_disabled":false,"rental_uris":{"android":"levelo://app?vid=7e9ae29c-7d09-450f-a17b-04143b0819e5","ios":"levelo://app?vid=7e9ae29c-7d09-450f-a17b-04143b0819e5"},"vehicle_type_id":"4","last_reported":1721149645,"current_range_meters":10000,"station_id":"ce4bgv12rcd13ifvqcp0","pricing_plan_id":"cebpf4jnsgd1na2vs0mg"},{"bike_id":"8a845816-d486-4feb-8115-40567089a0a5","system_id":"levelo_inurba_marseille","lat":43.311722,"lon":5.387247,"is_reserved":false,"is_disabled":false,"rental_uris":{"android":"levelo://app?vid=8a845816-d486-4feb-8115-40567089a0a5","ios":"levelo://app?vid=8a845816-d486-4feb-8115-40567089a0a5"},"vehicle_type_id":"4","last_reported":1721149645,"current_range_meters":17600,"station_id":"ce4bgv12rcd13ifvqcp0","pricing_plan_id":"cebpf4jnsgd1na2vs0mg"},{"bike_id":"cd91e7a7-1581-43d4-8872-c051dd4706f6","system_id":"levelo_inurba_marseille","lat":43.311722,"lon":5.387247,"is_reserved":false,"is_disabled":false,"rental_uris":{"android":"levelo://app?vid=cd91e7a7-1581-43d4-8872-c051dd4706f6","ios":"levelo://app?vid=cd91e7a7-1581-43d4-8872-c051dd4706f6"},"vehicle_type_id":"4","last_reported":1721149645,"current_range_meters":11600,"station_id":"ce4bgv12rcd13ifvqcp0","pricing_plan_id":"cebpf4jnsgd1na2vs0mg"},{"bike_id":"e363747f-fb79-4094-8fbd-30e94ca4a5b0","system_id":"levelo_inurba_marseille","lat":43.311722,"lon":5.387247,"is_reserved":false,"is_disabled":false,"rental_uris":{"android":"levelo://app?vid=e363747f-fb79-4094-8fbd-30e94ca4a5b0","ios":"levelo://app?vid=e363747f-fb79-4094-8fbd-30e94ca4a5b0"},"vehicle_type_id":"4","last_reported":1721149645,"current_range_meters":2000,"station_id":"ce4bgv12rcd13ifvqcp0","pricing_plan_id":"cebpf4jnsgd1na2vs0mg"},{"bike_id":"1c69c7ff-ab68-4f65-a5ee-a6f544f23dcc","system_id":"levelo_inurba_marseille","lat":43.311722,"lon":5.387247,"is_reserved":false,"is_disabled":false,"rental_uris":{"android":"levelo://app?vid=1c69c7ff-ab68-4f65-a5ee-a6f544f23dcc","ios":"levelo://app?vid=1c69c7ff-ab68-4f65-a5ee-a6f544f23dcc"},"vehicle_type_id":"4","last_reported":1721149645,"current_range_meters":5600,"station_id":"ce4bgv12rcd13ifvqcp0","pricing_plan_id":"cebpf4jnsgd1na2vs0mg"},{"bike_id":"5c500bed-dab2-499a-a6f4-b900bb968e7c","system_id":"levelo_inurba_marseille","lat":43.29784,"lon":5.37083,"is_reserved":false,"is_disabled":false,"rental_uris":{"android":"levelo://app?vid=5c500bed-dab2-499a-a6f4-b900bb968e7c","ios":"levelo://app?vid=5c500bed-dab2-499a-a6f4-b900bb968e7c"},"vehicle_type_id":"4","last_reported":1721149645,"current_range_meters":0,"station_id":"ce4bgop2rcd13ifvqc1g","pricing_plan_id":"cebpf4jnsgd1na2vs0mg"},{"bike_id":"42dfb20e-0dc3-41be-bfbb-5201f21c6b54","system_id":"levelo_inurba_marseille","lat":43.297163,"lon":5.365866,"is_reserved":false,"is_disabled":false,"rental_uris":{"android":"levelo://app?vid=42dfb20e-0dc3-41be-bfbb-5201f21c6b54","ios":"levelo://app?vid=42dfb20e-0dc3-41be-bfbb-5201f21c6b54"},"vehicle_type_id":"4","last_reported":1721149645,"current_range_meters":0,"station_id":"ce4bgn12rcd13ifvqbt0","pricing_plan_id":"cebpf4jnsgd1na2vs0mg"},{"bike_id":"625a8f9b-f60e-447e-ad11-06c5ac98d602","system_id":"levelo_inurba_marseille","lat":43.2968,"lon":5.37291,"is_reserved":false,"is_disabled":false,"rental_uris":{"android":"levelo://app?vid=625a8f9b-f60e-447e-ad11-06c5ac98d602","ios":"levelo://app?vid=625a8f9b-f60e-447e-ad11-06c5ac98d602"},"vehicle_type_id":"4","last_reported":1721149645,"current_range_meters":0,"station_id":"ce4bgk12rcd13ifvqbj0","pricing_plan_id":"cebpf4jnsgd1na2vs0mg"},{"bike_id":"8d599089-53a2-4ece-ad65-6db43e172517","system_id":"levelo_inurba_marseille","lat":43.2968,"lon":5.37291,"is_reserved":false,"is_disabled":false,"rental_uris":{"android":"levelo://app?vid=8d599089-53a2-4ece-ad65-6db43e172517","ios":"levelo://app?vid=8d599089-53a2-4ece-ad65-6db43e172517"},"vehicle_type_id":"4","last_reported":1721149645,"current_range_meters":1600,"station_id":"ce4bgk12rcd13ifvqbj0","pricing_plan_id":"cebpf4jnsgd1na2vs0mg"},{"bike_id":"3405e1cb-4916-4859-9bf0-7ca7608737b8","system_id":"levelo_inurba_marseille","lat":43.2968,"lon":5.37291,"is_reserved":false,"is_disabled":false,"rental_uris":{"android":"levelo://app?vid=3405e1cb-4916-4859-9bf0-7ca7608737b8","ios":"levelo://app?vid=3405e1cb-4916-4859-9bf0-7ca7608737b8"},"vehicle_type_id":"4","last_reported":1721149645,"current_range_meters":400,"station_id":"ce4bgk12rcd13ifvqbj0","pricing_plan_id":"cebpf4jnsgd1na2vs0mg"},{"bike_id":"0bca1545-2965-4926-b9b2-eefe2d5027a5","system_id":"levelo_inurba_marseille","lat":43.296131,"lon":5.370773,"is_reserved":false,"is_disabled":false,"rental_uris":{"android":"levelo://app?vid=0bca1545-2965-4926-b9b2-eefe2d5027a5","ios":"levelo://app?vid=0bca1545-2965-4926-b9b2-eefe2d5027a5"},"vehicle_type_id":"4","last_reported":1721149645,"current_range_meters":0,"station_id":"ce4bgnh2rcd13ifvqc0g","pricing_plan_id":"cebpf4jnsgd1na2vs0mg"},{"bike_id":"f88353cd-8fbc-4af9-98f0-f3e7a21fa537","system_id":"levelo_inurba_marseille","lat":43.296129,"lon":5.370777,"is_reserved":false,"is_disabled":false,"rental_uris":{"android":"levelo://app?vid=f88353cd-8fbc-4af9-98f0-f3e7a21fa537","ios":"levelo://app?vid=f88353cd-8fbc-4af9-98f0-f3e7a21fa537"},"vehicle_type_id":"4","last_reported":1721149645,"current_range_meters":0,"station_id":"ce4bgnh2rcd13ifvqc0g","pricing_plan_id":"cebpf4jnsgd1na2vs0mg"},{"bike_id":"dadce4c6-9b2b-4ab5-ad6b-d57aa061aa88","system_id":"levelo_inurba_marseille","lat":43.296921,"lon":5.376579,"is_reserved":false,"is_disabled":false,"rental_uris":{"android":"levelo://app?vid=dadce4c6-9b2b-4ab5-ad6b-d57aa061aa88","ios":"levelo://app?vid=dadce4c6-9b2b-4ab5-ad6b-d57aa061aa88"},"vehicle_type_id":"4","last_reported":1721149645,"current_range_meters":14400,"station_id":"ce4bgkh2rcd13ifvqbl0","pricing_plan_id":"cebpf4jnsgd1na2vs0mg"},{"bike_id":"9bba1310-52e1-4b58-8d72-4ecbaa904bc3","system_id":"levelo_inurba_marseille","lat":43.317557,"lon":5.390173,"is_reserved":false,"is_disabled":false,"rental_uris":{"android":"levelo://app?vid=9bba1310-52e1-4b58-8d72-4ecbaa904bc3","ios":"levelo://app?vid=9bba1310-52e1-4b58-8d72-4ecbaa904bc3"},"vehicle_type_id":"4","last_reported":1721149645,"current_range_meters":17200,"station_id":"ce4bhqp2rcd13ifvqhng","pricing_plan_id":"cebpf4jnsgd1na2vs0mg"},{"bike_id":"5ad264c2-fcb9-4df4-84d3-debe323cc7dd","system_id":"levelo_inurba_marseille","lat":43.317557,"lon":5.390173,"is_reserved":false,"is_disabled":false,"rental_uris":{"android":"levelo://app?vid=5ad264c2-fcb9-4df4-84d3-debe323cc7dd","ios":"levelo://app?vid=5ad264c2-fcb9-4df4-84d3-debe323cc7dd"},"vehicle_type_id":"4","last_reported":1721149645,"current_range_meters":27200,"station_id":"ce4bhqp2rcd13ifvqhng","pricing_plan_id":"cebpf4jnsgd1na2vs0mg"},{"bike_id":"a3f16a1e-01d4-4ade-b26d-54f275d0fb61","system_id":"levelo_inurba_marseille","lat":43.298037,"lon":5.381066,"is_reserved":false,"is_disabled":false,"rental_uris":{"android":"levelo://app?vid=a3f16a1e-01d4-4ade-b26d-54f275d0fb61","ios":"levelo://app?vid=a3f16a1e-01d4-4ade-b26d-54f275d0fb61"},"vehicle_type_id":"4","last_reported":1721149645,"current_range_meters":0,"station_id":"ce4bgip2rcd13ifvqbb0","pricing_plan_id":"cebpf4jnsgd1na2vs0mg"},{"bike_id":"a3480020-c0cb-4568-bd8f-0101108a8cc5","system_id":"levelo_inurba_marseille","lat":43.29579,"lon":5.37497,"is_reserved":false,"is_disabled":false,"rental_uris":{"android":"levelo://app?vid=a3480020-c0cb-4568-bd8f-0101108a8cc5","ios":"levelo://app?vid=a3480020-c0cb-4568-bd8f-0101108a8cc5"},"vehicle_type_id":"4","last_reported":1721149645,"current_range_meters":0,"station_id":"ce4bgh92rcd13ifvqb50","pricing_plan_id":"cebpf4jnsgd1na2vs0mg"},{"bike_id":"2600f4ca-f894-446c-9289-9a2d09b41af6","system_id":"levelo_inurba_marseille","lat":43.296277,"lon":5.377108,"is_reserved":false,"is_disabled":false,"rental_uris":{"android":"levelo://app?vid=2600f4ca-f894-446c-9289-9a2d09b41af6","ios":"levelo://app?vid=2600f4ca-f894-446c-9289-9a2d09b41af6"},"vehicle_type_id":"4","last_reported":1721149645,"current_range_meters":0,"station_id":"ce4bgi92rcd13ifvqb90","pricing_plan_id":"cebpf4jnsgd1na2vs0mg"},{"bike_id":"66d5f629-f2bc-4d8f-a435-57250d0df1be","system_id":"levelo_inurba_marseille","lat":43.304274,"lon":5.388873,"is_reserved":false,"is_disabled":false,"rental_uris":{"android":"levelo://app?vid=66d5f629-f2bc-4d8f-a435-57250d0df1be","ios":"levelo://app?vid=66d5f629-f2bc-4d8f-a435-57250d0df1be"},"vehicle_type_id":"4","last_reported":1721149645,"current_range_meters":2800,"station_id":"ce4bgk12rcd13ifvqbi0","pricing_plan_id":"cebpf4jnsgd1na2vs0mg"},{"bike_id":"e93d34ad-9219-40a7-a2a9-770a11b614ea","system_id":"levelo_inurba_marseille","lat":43.295748,"lon":5.37522,"is_reserved":false,"is_disabled":false,"rental_uris":{"android":"levelo://app?vid=e93d34ad-9219-40a7-a2a9-770a11b614ea","ios":"levelo://app?vid=e93d34ad-9219-40a7-a2a9-770a11b614ea"},"vehicle_type_id":"4","last_reported":1721149645,"current_range_meters":26800,"station_id":"ce4bgh92rcd13ifvqb50","pricing_plan_id":"cebpf4jnsgd1na2vs0mg"},{"bike_id":"387df68d-6f23-4a0d-afb0-03f93828ab34","system_id":"levelo_inurba_marseille","lat":43.295279,"lon":5.375048,"is_reserved":false,"is_disabled":false,"rental_uris":{"android":"levelo://app?vid=387df68d-6f23-4a0d-afb0-03f93828ab34","ios":"levelo://app?vid=387df68d-6f23-4a0d-afb0-03f93828ab34"},"vehicle_type_id":"4","last_reported":1721149645,"current_range_meters":0,"station_id":"ce4bgkp2rcd13ifvqbmg","pricing_plan_id":"cebpf4jnsgd1na2vs0mg"},{"bike_id":"143752e9-42b5-4352-ac76-5185a035037a","system_id":"levelo_inurba_marseille","lat":43.29975,"lon":5.38492,"is_reserved":false,"is_disabled":false,"rental_uris":{"android":"levelo://app?vid=143752e9-42b5-4352-ac76-5185a035037a","ios":"levelo://app?vid=143752e9-42b5-4352-ac76-5185a035037a"},"vehicle_type_id":"4","last_reported":1721149645,"current_range_meters":0,"station_id":"ce4bgj92rcd13ifvqbd0","pricing_plan_id":"cebpf4jnsgd1na2vs0mg"},{"bike_id":"26b9a8cb-6f31-4a07-97b7-f7452ea540ef","system_id":"levelo_inurba_marseille","lat":43.29975,"lon":5.38495,"is_reserved":false,"is_disabled":false,"rental_uris":{"android":"levelo://app?vid=26b9a8cb-6f31-4a07-97b7-f7452ea540ef","ios":"levelo://app?vid=26b9a8cb-6f31-4a07-97b7-f7452ea540ef"},"vehicle_type_id":"4","last_reported":1721149645,"current_range_meters":0,"station_id":"ce4bgj92rcd13ifvqbd0","pricing_plan_id":"cebpf4jnsgd1na2vs0mg"},{"bike_id":"272c2a1f-7114-4357-8be8-d1209f074392","system_id":"levelo_inurba_marseille","lat":43.299724,"lon":5.384848,"is_reserved":false,"is_disabled":false,"rental_uris":{"android":"levelo://app?vid=272c2a1f-7114-4357-8be8-d1209f074392","ios":"levelo://app?vid=272c2a1f-7114-4357-8be8-d1209f074392"},"vehicle_type_id":"4","last_reported":1721149645,"current_range_meters":0,"station_id":"ce4bgj92rcd13ifvqbd0","pricing_plan_id":"cebpf4jnsgd1na2vs0mg"},{"bike_id":"dadf0266-f3f3-4c70-a7aa-0f58f56d3b7a","system_id":"levelo_inurba_marseille","lat":43.299707,"lon":5.384859,"is_reserved":false,"is_disabled":false,"rental_uris":{"android":"levelo://app?vid=dadf0266-f3f3-4c70-a7aa-0f58f56d3b7a","ios":"levelo://app?vid=dadf0266-f3f3-4c70-a7aa-0f58f56d3b7a"},"vehicle_type_id":"4","last_reported":1721149645,"current_range_meters":0,"station_id":"ce4bgj92rcd13ifvqbd0","pricing_plan_id":"cebpf4jnsgd1na2vs0mg"},{"bike_id":"239e0100-b84f-4d5b-85c7-945abfb4d8fa","system_id":"levelo_inurba_marseille","lat":43.29553,"lon":5.37723,"is_reserved":false,"is_disabled":false,"rental_uris":{"android":"levelo://app?vid=239e0100-b84f-4d5b-85c7-945abfb4d8fa","ios":"levelo://app?vid=239e0100-b84f-4d5b-85c7-945abfb4d8fa"},"vehicle_type_id":"4","last_reported":1721149645,"current_range_meters":4400,"station_id":"","pricing_plan_id":"cebpf4jnsgd1na2vs0mg"},{"bike_id":"feeed9a0-810e-4903-8537-c069eb064158","system_id":"levelo_inurba_marseille","lat":43.315502,"lon":5.392456,"is_reserved":false,"is_disabled":false,"rental_uris":{"android":"levelo://app?vid=feeed9a0-810e-4903-8537-c069eb064158","ios":"levelo://app?vid=feeed9a0-810e-4903-8537-c069eb064158"},"vehicle_type_id":"4","last_reported":1721149645,"current_range_meters":0,"station_id":"","pricing_plan_id":"cebpf4jnsgd1na2vs0mg"},{"bike_id":"ed58c10a-db35-4d9f-8eb4-056423dfa9b3","system_id":"levelo_inurba_marseille","lat":43.301396,"lon":5.387812,"is_reserved":false,"is_disabled":false,"rental_uris":{"android":"levelo://app?vid=ed58c10a-db35-4d9f-8eb4-056423dfa9b3","ios":"levelo://app?vid=ed58c10a-db35-4d9f-8eb4-056423dfa9b3"},"vehicle_type_id":"4","last_reported":1721149645,"current_range_meters":4000,"station_id":"ce4bghh2rcd13ifvqb60","pricing_plan_id":"cebpf4jnsgd1na2vs0mg"},{"bike_id":"b738ebcf-a7d9-4937-9702-ba972dae2ce3","system_id":"levelo_inurba_marseille","lat":43.311722,"lon":5.387247,"is_reserved":false,"is_disabled":false,"rental_uris":{"android":"levelo://app?vid=b738ebcf-a7d9-4937-9702-ba972dae2ce3","ios":"levelo://app?vid=b738ebcf-a7d9-4937-9702-ba972dae2ce3"},"vehicle_type_id":"4","last_reported":1721149645,"current_range_meters":10400,"station_id":"ce4bgv12rcd13ifvqcp0","pricing_plan_id":"cebpf4jnsgd1na2vs0mg"},{"bike_id":"130e92ae-7d08-4bbf-9600-ad76d8135a70","system_id":"levelo_inurba_marseille","lat":43.32367,"lon":5.388836,"is_reserved":false,"is_disabled":false,"rental_uris":{"android":"levelo://app?vid=130e92ae-7d08-4bbf-9600-ad76d8135a70","ios":"levelo://app?vid=130e92ae-7d08-4bbf-9600-ad76d8135a70"},"vehicle_type_id":"4","last_reported":1721149645,"current_range_meters":23200,"station_id":"ce4bhqp2rcd13ifvqhog","pricing_plan_id":"cebpf4jnsgd1na2vs0mg"},{"bike_id":"93caa171-7e15-47a3-9c37-7255178aa401","system_id":"levelo_inurba_marseille","lat":43.32371,"lon":5.38882,"is_reserved":false,"is_disabled":false,"rental_uris":{"android":"levelo://app?vid=93caa171-7e15-47a3-9c37-7255178aa401","ios":"levelo://app?vid=93caa171-7e15-47a3-9c37-7255178aa401"},"vehicle_type_id":"4","last_reported":1721149645,"current_range_meters":2000,"station_id":"ce4bhqp2rcd13ifvqhog","pricing_plan_id":"cebpf4jnsgd1na2vs0mg"},{"bike_id":"cd2ec312-9de5-488d-b816-f4f566a595c1","system_id":"levelo_inurba_marseille","lat":43.317557,"lon":5.390173,"is_reserved":false,"is_disabled":false,"rental_uris":{"android":"levelo://app?vid=cd2ec312-9de5-488d-b816-f4f566a595c1","ios":"levelo://app?vid=cd2ec312-9de5-488d-b816-f4f566a595c1"},"vehicle_type_id":"4","last_reported":1721149645,"current_range_meters":28000,"station_id":"ce4bhqp2rcd13ifvqhng","pricing_plan_id":"cebpf4jnsgd1na2vs0mg"},{"bike_id":"42760949-0e8b-4c96-89af-209d188e428f","system_id":"levelo_inurba_marseille","lat":43.29602,"lon":5.381084,"is_reserved":false,"is_disabled":false,"rental_uris":{"android":"levelo://app?vid=42760949-0e8b-4c96-89af-209d188e428f","ios":"levelo://app?vid=42760949-0e8b-4c96-89af-209d188e428f"},"vehicle_type_id":"4","last_reported":1721149645,"current_range_meters":8400,"station_id":"ce4bgl12rcd13ifvqbo0","pricing_plan_id":"cebpf4jnsgd1na2vs0mg"},{"bike_id":"edcfd9e1-ccb2-4db5-9cbb-0b04916e814f","system_id":"levelo_inurba_marseille","lat":43.29602,"lon":5.381084,"is_reserved":false,"is_disabled":false,"rental_uris":{"android":"levelo://app?vid=edcfd9e1-ccb2-4db5-9cbb-0b04916e814f","ios":"levelo://app?vid=edcfd9e1-ccb2-4db5-9cbb-0b04916e814f"},"vehicle_type_id":"4","last_reported":1721149645,"current_range_meters":24400,"station_id":"ce4bgl12rcd13ifvqbo0","pricing_plan_id":"cebpf4jnsgd1na2vs0mg"},{"bike_id":"1cb8b52e-3daa-4913-bff8-b900e041b2fe","system_id":"levelo_inurba_marseille","lat":43.29275,"lon":5.36842,"is_reserved":false,"is_disabled":false,"rental_uris":{"android":"levelo://app?vid=1cb8b52e-3daa-4913-bff8-b900e041b2fe","ios":"levelo://app?vid=1cb8b52e-3daa-4913-bff8-b900e041b2fe"},"vehicle_type_id":"4","last_reported":1721149645,"current_range_meters":0,"station_id":"ce4bhbp2rcd13ifvqesg","pricing_plan_id":"cebpf4jnsgd1na2vs0mg"},{"bike_id":"97d12ca0-fa39-4aeb-b9ab-fc1d6426f9dd","system_id":"levelo_inurba_marseille","lat":43.29275,"lon":5.36842,"is_reserved":false,"is_disabled":false,"rental_uris":{"android":"levelo://app?vid=97d12ca0-fa39-4aeb-b9ab-fc1d6426f9dd","ios":"levelo://app?vid=97d12ca0-fa39-4aeb-b9ab-fc1d6426f9dd"},"vehicle_type_id":"4","last_reported":1721149645,"current_range_meters":0,"station_id":"ce4bhbp2rcd13ifvqesg","pricing_plan_id":"cebpf4jnsgd1na2vs0mg"},{"bike_id":"8fff0ef1-838c-414f-89e5-1a3176fd2ff6","system_id":"levelo_inurba_marseille","lat":43.292749,"lon":5.368402,"is_reserved":false,"is_disabled":false,"rental_uris":{"android":"levelo://app?vid=8fff0ef1-838c-414f-89e5-1a3176fd2ff6","ios":"levelo://app?vid=8fff0ef1-838c-414f-89e5-1a3176fd2ff6"},"vehicle_type_id":"4","last_reported":1721149645,"current_range_meters":400,"station_id":"ce4bhbp2rcd13ifvqesg","pricing_plan_id":"cebpf4jnsgd1na2vs0mg"},{"bike_id":"b11e8db0-508e-40ef-aeb1-474624cde31a","system_id":"levelo_inurba_marseille","lat":43.302992,"lon":5.392136,"is_reserved":false,"is_disabled":false,"rental_uris":{"android":"levelo://app?vid=b11e8db0-508e-40ef-aeb1-474624cde31a","ios":"levelo://app?vid=b11e8db0-508e-40ef-aeb1-474624cde31a"},"vehicle_type_id":"4","last_reported":1721149645,"current_range_meters":12400,"station_id":"ce4bgkh2rcd13ifvqbk0","pricing_plan_id":"cebpf4jnsgd1na2vs0mg"},{"bike_id":"66d0a300-6737-4ddb-b0af-caa305f3f313","system_id":"levelo_inurba_marseille","lat":43.30309,"lon":5.39209,"is_reserved":false,"is_disabled":false,"rental_uris":{"android":"levelo://app?vid=66d0a300-6737-4ddb-b0af-caa305f3f313","ios":"levelo://app?vid=66d0a300-6737-4ddb-b0af-caa305f3f313"},"vehicle_type_id":"4","last_reported":1721149645,"current_range_meters":0,"station_id":"ce4bgkh2rcd13ifvqbk0","pricing_plan_id":"cebpf4jnsgd1na2vs0mg"},{"bike_id":"e15a4247-b5ad-43b0-95d4-bd8ffc0089f9","system_id":"levelo_inurba_marseille","lat":43.303002,"lon":5.392142,"is_reserved":false,"is_disabled":false,"rental_uris":{"android":"levelo://app?vid=e15a4247-b5ad-43b0-95d4-bd8ffc0089f9","ios":"levelo://app?vid=e15a4247-b5ad-43b0-95d4-bd8ffc0089f9"},"vehicle_type_id":"4","last_reported":1721149645,"current_range_meters":0,"station_id":"ce4bgkh2rcd13ifvqbk0","pricing_plan_id":"cebpf4jnsgd1na2vs0mg"},{"bike_id":"de80b302-1491-4c98-b9e8-510ab2bf03a1","system_id":"levelo_inurba_marseille","lat":43.29233,"lon":5.3606,"is_reserved":false,"is_disabled":false,"rental_uris":{"android":"levelo://app?vid=de80b302-1491-4c98-b9e8-510ab2bf03a1","ios":"levelo://app?vid=de80b302-1491-4c98-b9e8-510ab2bf03a1"},"vehicle_type_id":"4","last_reported":1721149645,"current_range_meters":0,"station_id":"ce4bhbh2rcd13ifvqeqg","pricing_plan_id":"cebpf4jnsgd1na2vs0mg"},{"bike_id":"f24e7c2d-ae3a-4ce7-9475-43190f48a55b","system_id":"levelo_inurba_marseille","lat":43.29227,"lon":5.360703,"is_reserved":false,"is_disabled":false,"rental_uris":{"android":"levelo://app?vid=f24e7c2d-ae3a-4ce7-9475-43190f48a55b","ios":"levelo://app?vid=f24e7c2d-ae3a-4ce7-9475-43190f48a55b"},"vehicle_type_id":"4","last_reported":1721149645,"current_range_meters":0,"station_id":"ce4bhbh2rcd13ifvqeqg","pricing_plan_id":"cebpf4jnsgd1na2vs0mg"},{"bike_id":"1ef2326f-cdf5-4ac3-aa0f-ea3eb4c3ad43","system_id":"levelo_inurba_marseille","lat":43.292311,"lon":5.360731,"is_reserved":false,"is_disabled":false,"rental_uris":{"android":"levelo://app?vid=1ef2326f-cdf5-4ac3-aa0f-ea3eb4c3ad43","ios":"levelo://app?vid=1ef2326f-cdf5-4ac3-aa0f-ea3eb4c3ad43"},"vehicle_type_id":"4","last_reported":1721149645,"current_range_meters":24000,"station_id":"ce4bhbh2rcd13ifvqeqg","pricing_plan_id":"cebpf4jnsgd1na2vs0mg"},{"bike_id":"0f2c558f-8db4-4987-be90-b49855544e96","system_id":"levelo_inurba_marseille","lat":43.292311,"lon":5.360731,"is_reserved":false,"is_disabled":false,"rental_uris":{"android":"levelo://app?vid=0f2c558f-8db4-4987-be90-b49855544e96","ios":"levelo://app?vid=0f2c558f-8db4-4987-be90-b49855544e96"},"vehicle_type_id":"4","last_reported":1721149645,"current_range_meters":0,"station_id":"ce4bhbh2rcd13ifvqeqg","pricing_plan_id":"cebpf4jnsgd1na2vs0mg"},{"bike_id":"dc0079b1-7ba6-4b0c-a26c-7593afd2a431","system_id":"levelo_inurba_marseille","lat":43.298764,"lon":5.388973,"is_reserved":false,"is_disabled":false,"rental_uris":{"android":"levelo://app?vid=dc0079b1-7ba6-4b0c-a26c-7593afd2a431","ios":"levelo://app?vid=dc0079b1-7ba6-4b0c-a26c-7593afd2a431"},"vehicle_type_id":"4","last_reported":1721149645,"current_range_meters":0,"station_id":"ce4bh392rcd13ifvqdl0","pricing_plan_id":"cebpf4jnsgd1na2vs0mg"},{"bike_id":"12b8459a-6a87-4648-bb13-5fdd4422523f","system_id":"levelo_inurba_marseille","lat":43.298764,"lon":5.388973,"is_reserved":false,"is_disabled":false,"rental_uris":{"android":"levelo://app?vid=12b8459a-6a87-4648-bb13-5fdd4422523f","ios":"levelo://app?vid=12b8459a-6a87-4648-bb13-5fdd4422523f"},"vehicle_type_id":"4","last_reported":1721149645,"current_range_meters":18800,"station_id":"ce4bh392rcd13ifvqdl0","pricing_plan_id":"cebpf4jnsgd1na2vs0mg"},{"bike_id":"65e8266d-a4b2-42d6-a9fa-ff4b98dd1ba9","system_id":"levelo_inurba_marseille","lat":43.298764,"lon":5.388973,"is_reserved":false,"is_disabled":false,"rental_uris":{"android":"levelo://app?vid=65e8266d-a4b2-42d6-a9fa-ff4b98dd1ba9","ios":"levelo://app?vid=65e8266d-a4b2-42d6-a9fa-ff4b98dd1ba9"},"vehicle_type_id":"4","last_reported":1721149645,"current_range_meters":0,"station_id":"ce4bh392rcd13ifvqdl0","pricing_plan_id":"cebpf4jnsgd1na2vs0mg"},{"bike_id":"d0e4b405-d452-4902-b91a-9783e8af68ba","system_id":"levelo_inurba_marseille","lat":43.291994,"lon":5.357886,"is_reserved":false,"is_disabled":false,"rental_uris":{"android":"levelo://app?vid=d0e4b405-d452-4902-b91a-9783e8af68ba","ios":"levelo://app?vid=d0e4b405-d452-4902-b91a-9783e8af68ba"},"vehicle_type_id":"4","last_reported":1721149645,"current_range_meters":0,"station_id":"ce4bhb12rcd13ifvqel0","pricing_plan_id":"cebpf4jnsgd1na2vs0mg"},{"bike_id":"e44dec26-e9de-442a-8ef6-30523ede323d","system_id":"levelo_inurba_marseille","lat":43.291994,"lon":5.357886,"is_reserved":false,"is_disabled":false,"rental_uris":{"android":"levelo://app?vid=e44dec26-e9de-442a-8ef6-30523ede323d","ios":"levelo://app?vid=e44dec26-e9de-442a-8ef6-30523ede323d"},"vehicle_type_id":"4","last_reported":1721149645,"current_range_meters":0,"station_id":"ce4bhb12rcd13ifvqel0","pricing_plan_id":"cebpf4jnsgd1na2vs0mg"},{"bike_id":"63fbac77-d7df-4b9c-85ed-aae2707dbfe3","system_id":"levelo_inurba_marseille","lat":43.290779,"lon":5.371482,"is_reserved":false,"is_disabled":false,"rental_uris":{"android":"levelo://app?vid=63fbac77-d7df-4b9c-85ed-aae2707dbfe3","ios":"levelo://app?vid=63fbac77-d7df-4b9c-85ed-aae2707dbfe3"},"vehicle_type_id":"4","last_reported":1721149645,"current_range_meters":0,"station_id":"ce4bh5p2rcd13ifvqe4g","pricing_plan_id":"cebpf4jnsgd1na2vs0mg"},{"bike_id":"dcc56629-28e9-4b8c-9d85-9d8bd83f1218","system_id":"levelo_inurba_marseille","lat":43.290779,"lon":5.371482,"is_reserved":false,"is_disabled":false,"rental_uris":{"android":"levelo://app?vid=dcc56629-28e9-4b8c-9d85-9d8bd83f1218","ios":"levelo://app?vid=dcc56629-28e9-4b8c-9d85-9d8bd83f1218"},"vehicle_type_id":"4","last_reported":1721149645,"current_range_meters":26400,"station_id":"ce4bh5p2rcd13ifvqe4g","pricing_plan_id":"cebpf4jnsgd1na2vs0mg"},{"bike_id":"1c8d1f4c-1301-4545-bd83-488b7dfaf379","system_id":"levelo_inurba_marseille","lat":43.29341,"lon":5.38246,"is_reserved":false,"is_disabled":false,"rental_uris":{"android":"levelo://app?vid=1c8d1f4c-1301-4545-bd83-488b7dfaf379","ios":"levelo://app?vid=1c8d1f4c-1301-4545-bd83-488b7dfaf379"},"vehicle_type_id":"4","last_reported":1721149645,"current_range_meters":4800,"station_id":"","pricing_plan_id":"cebpf4jnsgd1na2vs0mg"},{"bike_id":"14a2ccd3-51a3-44d4-8a38-da66449fe25f","system_id":"levelo_inurba_marseille","lat":43.29316,"lon":5.38248,"is_reserved":false,"is_disabled":false,"rental_uris":{"android":"levelo://app?vid=14a2ccd3-51a3-44d4-8a38-da66449fe25f","ios":"levelo://app?vid=14a2ccd3-51a3-44d4-8a38-da66449fe25f"},"vehicle_type_id":"4","last_reported":1721149645,"current_range_meters":6000,"station_id":"","pricing_plan_id":"cebpf4jnsgd1na2vs0mg"},{"bike_id":"4894fad1-838f-4546-b75b-1369ca3eb646","system_id":"levelo_inurba_marseille","lat":43.302008,"lon":5.394694,"is_reserved":false,"is_disabled":false,"rental_uris":{"android":"levelo://app?vid=4894fad1-838f-4546-b75b-1369ca3eb646","ios":"levelo://app?vid=4894fad1-838f-4546-b75b-1369ca3eb646"},"vehicle_type_id":"4","last_reported":1721149645,"current_range_meters":0,"station_id":"ce4bh0p2rcd13ifvqd70","pricing_plan_id":"cebpf4jnsgd1na2vs0mg"},{"bike_id":"74de7725-7b8e-4f5b-b257-5b81e7d508a9","system_id":"levelo_inurba_marseille","lat":43.290624,"lon":5.359245,"is_reserved":false,"is_disabled":false,"rental_uris":{"android":"levelo://app?vid=74de7725-7b8e-4f5b-b257-5b81e7d508a9","ios":"levelo://app?vid=74de7725-7b8e-4f5b-b257-5b81e7d508a9"},"vehicle_type_id":"4","last_reported":1721149645,"current_range_meters":10400,"station_id":"ce4bha92rcd13ifvqeg0","pricing_plan_id":"cebpf4jnsgd1na2vs0mg"},{"bike_id":"cacdc1b9-71af-4b98-897e-444d853cffea","system_id":"levelo_inurba_marseille","lat":43.2904,"lon":5.359117,"is_reserved":false,"is_disabled":false,"rental_uris":{"android":"levelo://app?vid=cacdc1b9-71af-4b98-897e-444d853cffea","ios":"levelo://app?vid=cacdc1b9-71af-4b98-897e-444d853cffea"},"vehicle_type_id":"4","last_reported":1721149645,"current_range_meters":0,"station_id":"ce4bha92rcd13ifvqeg0","pricing_plan_id":"cebpf4jnsgd1na2vs0mg"},{"bike_id":"cfebc5a0-e706-4c76-af09-0d9ea273c5cd","system_id":"levelo_inurba_marseille","lat":43.294153,"lon":5.386305,"is_reserved":false,"is_disabled":false,"rental_uris":{"android":"levelo://app?vid=cfebc5a0-e706-4c76-af09-0d9ea273c5cd","ios":"levelo://app?vid=cfebc5a0-e706-4c76-af09-0d9ea273c5cd"},"vehicle_type_id":"4","last_reported":1721149645,"current_range_meters":0,"station_id":"ce4bh2h2rcd13ifvqdh0","pricing_plan_id":"cebpf4jnsgd1na2vs0mg"},{"bike_id":"dccee282-7629-4837-9e35-cf76f9573999","system_id":"levelo_inurba_marseille","lat":43.29418,"lon":5.3863,"is_reserved":false,"is_disabled":false,"rental_uris":{"android":"levelo://app?vid=dccee282-7629-4837-9e35-cf76f9573999","ios":"levelo://app?vid=dccee282-7629-4837-9e35-cf76f9573999"},"vehicle_type_id":"4","last_reported":1721149645,"current_range_meters":0,"station_id":"ce4bh2h2rcd13ifvqdh0","pricing_plan_id":"cebpf4jnsgd1na2vs0mg"},{"bike_id":"93aee315-43ac-4277-a223-ea3bf6898b23","system_id":"levelo_inurba_marseille","lat":43.29418,"lon":5.38635,"is_reserved":false,"is_disabled":false,"rental_uris":{"android":"levelo://app?vid=93aee315-43ac-4277-a223-ea3bf6898b23","ios":"levelo://app?vid=93aee315-43ac-4277-a223-ea3bf6898b23"},"vehicle_type_id":"4","last_reported":1721149645,"current_range_meters":0,"station_id":"ce4bh2h2rcd13ifvqdh0","pricing_plan_id":"cebpf4jnsgd1na2vs0mg"},{"bike_id":"e07f3224-f9a5-4b73-ab60-14a6869a1d5f","system_id":"levelo_inurba_marseille","lat":43.289468,"lon":5.363719,"is_reserved":false,"is_disabled":false,"rental_uris":{"android":"levelo://app?vid=e07f3224-f9a5-4b73-ab60-14a6869a1d5f","ios":"levelo://app?vid=e07f3224-f9a5-4b73-ab60-14a6869a1d5f"},"vehicle_type_id":"4","last_reported":1721149645,"current_range_meters":4000,"station_id":"ce4bhc92rcd13ifvqetg","pricing_plan_id":"cebpf4jnsgd1na2vs0mg"},{"bike_id":"fffb70e1-69a4-409a-80b7-98d57eb574a8","system_id":"levelo_inurba_marseille","lat":43.289184,"lon":5.366408,"is_reserved":false,"is_disabled":false,"rental_uris":{"android":"levelo://app?vid=fffb70e1-69a4-409a-80b7-98d57eb574a8","ios":"levelo://app?vid=fffb70e1-69a4-409a-80b7-98d57eb574a8"},"vehicle_type_id":"4","last_reported":1721149645,"current_range_meters":0,"station_id":"ce4bhap2rcd13ifvqek0","pricing_plan_id":"cebpf4jnsgd1na2vs0mg"},{"bike_id":"716c6d23-96cb-4f9f-87c9-2f446a0adf58","system_id":"levelo_inurba_marseille","lat":43.31555,"lon":5.39883,"is_reserved":false,"is_disabled":false,"rental_uris":{"android":"levelo://app?vid=716c6d23-96cb-4f9f-87c9-2f446a0adf58","ios":"levelo://app?vid=716c6d23-96cb-4f9f-87c9-2f446a0adf58"},"vehicle_type_id":"4","last_reported":1721149645,"current_range_meters":13200,"station_id":"","pricing_plan_id":"cebpf4jnsgd1na2vs0mg"},{"bike_id":"0b208807-33d3-4d6e-8b36-23f85a773d22","system_id":"levelo_inurba_marseille","lat":43.289468,"lon":5.363719,"is_reserved":false,"is_disabled":false,"rental_uris":{"android":"levelo://app?vid=0b208807-33d3-4d6e-8b36-23f85a773d22","ios":"levelo://app?vid=0b208807-33d3-4d6e-8b36-23f85a773d22"},"vehicle_type_id":"4","last_reported":1721149645,"current_range_meters":17600,"station_id":"ce4bhc92rcd13ifvqetg","pricing_plan_id":"cebpf4jnsgd1na2vs0mg"},{"bike_id":"392fb4c0-31ef-45f7-831c-93710885b0cf","system_id":"levelo_inurba_marseille","lat":43.289468,"lon":5.363719,"is_reserved":false,"is_disabled":false,"rental_uris":{"android":"levelo://app?vid=392fb4c0-31ef-45f7-831c-93710885b0cf","ios":"levelo://app?vid=392fb4c0-31ef-45f7-831c-93710885b0cf"},"vehicle_type_id":"4","last_reported":1721149645,"current_range_meters":14800,"station_id":"ce4bhc92rcd13ifvqetg","pricing_plan_id":"cebpf4jnsgd1na2vs0mg"},{"bike_id":"2a8dcc31-3a7f-4326-8eef-6d190642228d","system_id":"levelo_inurba_marseille","lat":43.292641,"lon":5.38366,"is_reserved":false,"is_disabled":false,"rental_uris":{"android":"levelo://app?vid=2a8dcc31-3a7f-4326-8eef-6d190642228d","ios":"levelo://app?vid=2a8dcc31-3a7f-4326-8eef-6d190642228d"},"vehicle_type_id":"4","last_reported":1721149645,"current_range_meters":800,"station_id":"ce4bh692rcd13ifvqea0","pricing_plan_id":"cebpf4jnsgd1na2vs0mg"},{"bike_id":"4ca72f6e-e1fb-4dc8-b6c3-03263289c003","system_id":"levelo_inurba_marseille","lat":43.304274,"lon":5.397513,"is_reserved":false,"is_disabled":false,"rental_uris":{"android":"levelo://app?vid=4ca72f6e-e1fb-4dc8-b6c3-03263289c003","ios":"levelo://app?vid=4ca72f6e-e1fb-4dc8-b6c3-03263289c003"},"vehicle_type_id":"4","last_reported":1721149645,"current_range_meters":14800,"station_id":"ce4bh092rcd13ifvqd20","pricing_plan_id":"cebpf4jnsgd1na2vs0mg"},{"bike_id":"08a028d4-b015-4493-b711-654d5cf665d9","system_id":"levelo_inurba_marseille","lat":43.29263,"lon":5.38451,"is_reserved":false,"is_disabled":false,"rental_uris":{"android":"levelo://app?vid=08a028d4-b015-4493-b711-654d5cf665d9","ios":"levelo://app?vid=08a028d4-b015-4493-b711-654d5cf665d9"},"vehicle_type_id":"4","last_reported":1721149645,"current_range_meters":0,"station_id":"ce4bh692rcd13ifvqea0","pricing_plan_id":"cebpf4jnsgd1na2vs0mg"},{"bike_id":"0e084ce3-61fd-4d01-b1aa-d989117bac0b","system_id":"levelo_inurba_marseille","lat":43.29009,"lon":5.35611,"is_reserved":false,"is_disabled":false,"rental_uris":{"android":"levelo://app?vid=0e084ce3-61fd-4d01-b1aa-d989117bac0b","ios":"levelo://app?vid=0e084ce3-61fd-4d01-b1aa-d989117bac0b"},"vehicle_type_id":"4","last_reported":1721149645,"current_range_meters":0,"station_id":"ce4bhb92rcd13ifvqen0","pricing_plan_id":"cebpf4jnsgd1na2vs0mg"},{"bike_id":"699030f8-54b6-4761-861f-7a838889bac9","system_id":"levelo_inurba_marseille","lat":43.290104,"lon":5.356111,"is_reserved":false,"is_disabled":false,"rental_uris":{"android":"levelo://app?vid=699030f8-54b6-4761-861f-7a838889bac9","ios":"levelo://app?vid=699030f8-54b6-4761-861f-7a838889bac9"},"vehicle_type_id":"4","last_reported":1721149645,"current_range_meters":4000,"station_id":"ce4bhb92rcd13ifvqen0","pricing_plan_id":"cebpf4jnsgd1na2vs0mg"},{"bike_id":"d421d3d0-1a90-45a7-b72b-415c2b159aa8","system_id":"levelo_inurba_marseille","lat":43.29007,"lon":5.35612,"is_reserved":false,"is_disabled":false,"rental_uris":{"android":"levelo://app?vid=d421d3d0-1a90-45a7-b72b-415c2b159aa8","ios":"levelo://app?vid=d421d3d0-1a90-45a7-b72b-415c2b159aa8"},"vehicle_type_id":"4","last_reported":1721149645,"current_range_meters":0,"station_id":"ce4bhb92rcd13ifvqen0","pricing_plan_id":"cebpf4jnsgd1na2vs0mg"},{"bike_id":"1e58c950-8e8b-41db-b62f-acfbd1dc73b8","system_id":"levelo_inurba_marseille","lat":43.290104,"lon":5.356111,"is_reserved":false,"is_disabled":false,"rental_uris":{"android":"levelo://app?vid=1e58c950-8e8b-41db-b62f-acfbd1dc73b8","ios":"levelo://app?vid=1e58c950-8e8b-41db-b62f-acfbd1dc73b8"},"vehicle_type_id":"4","last_reported":1721149645,"current_range_meters":11200,"station_id":"ce4bhb92rcd13ifvqen0","pricing_plan_id":"cebpf4jnsgd1na2vs0mg"},{"bike_id":"1f69ed57-c65c-4c70-90af-285616a120a2","system_id":"levelo_inurba_marseille","lat":43.29006,"lon":5.35614,"is_reserved":false,"is_disabled":false,"rental_uris":{"android":"levelo://app?vid=1f69ed57-c65c-4c70-90af-285616a120a2","ios":"levelo://app?vid=1f69ed57-c65c-4c70-90af-285616a120a2"},"vehicle_type_id":"4","last_reported":1721149645,"current_range_meters":31600,"station_id":"ce4bhb92rcd13ifvqen0","pricing_plan_id":"cebpf4jnsgd1na2vs0mg"},{"bike_id":"cf3b6f6a-6e19-4b9c-9a9a-7b908df5410a","system_id":"levelo_inurba_marseille","lat":43.290995,"lon":5.381361,"is_reserved":false,"is_disabled":false,"rental_uris":{"android":"levelo://app?vid=cf3b6f6a-6e19-4b9c-9a9a-7b908df5410a","ios":"levelo://app?vid=cf3b6f6a-6e19-4b9c-9a9a-7b908df5410a"},"vehicle_type_id":"4","last_reported":1721149645,"current_range_meters":3600,"station_id":"ce4bh512rcd13ifvqe2g","pricing_plan_id":"cebpf4jnsgd1na2vs0mg"},{"bike_id":"4d849b5b-ac5d-41d7-bf48-f33c67d59101","system_id":"levelo_inurba_marseille","lat":43.29002,"lon":5.35611,"is_reserved":false,"is_disabled":false,"rental_uris":{"android":"levelo://app?vid=4d849b5b-ac5d-41d7-bf48-f33c67d59101","ios":"levelo://app?vid=4d849b5b-ac5d-41d7-bf48-f33c67d59101"},"vehicle_type_id":"4","last_reported":1721149645,"current_range_meters":27600,"station_id":"ce4bhb92rcd13ifvqen0","pricing_plan_id":"cebpf4jnsgd1na2vs0mg"},{"bike_id":"64d48e3f-9c95-407d-9fac-08b4bed52f46","system_id":"levelo_inurba_marseille","lat":43.28998,"lon":5.35612,"is_reserved":false,"is_disabled":false,"rental_uris":{"android":"levelo://app?vid=64d48e3f-9c95-407d-9fac-08b4bed52f46","ios":"levelo://app?vid=64d48e3f-9c95-407d-9fac-08b4bed52f46"},"vehicle_type_id":"4","last_reported":1721149645,"current_range_meters":31200,"station_id":"ce4bhb92rcd13ifvqen0","pricing_plan_id":"cebpf4jnsgd1na2vs0mg"},{"bike_id":"08874771-cbf2-4d12-b07f-b093a8872455","system_id":"levelo_inurba_marseille","lat":43.297807,"lon":5.393533,"is_reserved":false,"is_disabled":false,"rental_uris":{"android":"levelo://app?vid=08874771-cbf2-4d12-b07f-b093a8872455","ios":"levelo://app?vid=08874771-cbf2-4d12-b07f-b093a8872455"},"vehicle_type_id":"4","last_reported":1721149645,"current_range_meters":16800,"station_id":"chh1huq6cuj3fo74tm60","pricing_plan_id":"cebpf4jnsgd1na2vs0mg"},{"bike_id":"653221a7-7445-4bac-859b-5d4aebcf844b","system_id":"levelo_inurba_marseille","lat":43.2898,"lon":5.378317,"is_reserved":false,"is_disabled":false,"rental_uris":{"android":"levelo://app?vid=653221a7-7445-4bac-859b-5d4aebcf844b","ios":"levelo://app?vid=653221a7-7445-4bac-859b-5d4aebcf844b"},"vehicle_type_id":"4","last_reported":1721149645,"current_range_meters":0,"station_id":"ce4bh9p2rcd13ifvqed0","pricing_plan_id":"cebpf4jnsgd1na2vs0mg"},{"bike_id":"6fbb33f3-f293-41d9-bcdc-96bae87e773c","system_id":"levelo_inurba_marseille","lat":43.330442,"lon":5.389148,"is_reserved":false,"is_disabled":false,"rental_uris":{"android":"levelo://app?vid=6fbb33f3-f293-41d9-bcdc-96bae87e773c","ios":"levelo://app?vid=6fbb33f3-f293-41d9-bcdc-96bae87e773c"},"vehicle_type_id":"4","last_reported":1721149645,"current_range_meters":22400,"station_id":"ce4bhr92rcd13ifvqhrg","pricing_plan_id":"cebpf4jnsgd1na2vs0mg"},{"bike_id":"e8883de8-a48b-40f9-bb99-6fe292f8ed4a","system_id":"levelo_inurba_marseille","lat":43.330442,"lon":5.389148,"is_reserved":false,"is_disabled":false,"rental_uris":{"android":"levelo://app?vid=e8883de8-a48b-40f9-bb99-6fe292f8ed4a","ios":"levelo://app?vid=e8883de8-a48b-40f9-bb99-6fe292f8ed4a"},"vehicle_type_id":"4","last_reported":1721149645,"current_range_meters":23600,"station_id":"ce4bhr92rcd13ifvqhrg","pricing_plan_id":"cebpf4jnsgd1na2vs0mg"},{"bike_id":"a40a1eb4-4932-4543-ab54-fdc38dc75d84","system_id":"levelo_inurba_marseille","lat":43.31081,"lon":5.400835,"is_reserved":false,"is_disabled":false,"rental_uris":{"android":"levelo://app?vid=a40a1eb4-4932-4543-ab54-fdc38dc75d84","ios":"levelo://app?vid=a40a1eb4-4932-4543-ab54-fdc38dc75d84"},"vehicle_type_id":"4","last_reported":1721149645,"current_range_meters":22000,"station_id":"","pricing_plan_id":"cebpf4jnsgd1na2vs0mg"},{"bike_id":"ba6d23dc-f440-4e25-ab42-12a65e4c3b32","system_id":"levelo_inurba_marseille","lat":43.2901,"lon":5.381269,"is_reserved":false,"is_disabled":false,"rental_uris":{"android":"levelo://app?vid=ba6d23dc-f440-4e25-ab42-12a65e4c3b32","ios":"levelo://app?vid=ba6d23dc-f440-4e25-ab42-12a65e4c3b32"},"vehicle_type_id":"4","last_reported":1721149645,"current_range_meters":0,"station_id":"ce4bh4p2rcd13ifvqe1g","pricing_plan_id":"cebpf4jnsgd1na2vs0mg"},{"bike_id":"241f7f64-d95b-4d83-b196-88d05a14b91a","system_id":"levelo_inurba_marseille","lat":43.28848,"lon":5.35848,"is_reserved":false,"is_disabled":false,"rental_uris":{"android":"levelo://app?vid=241f7f64-d95b-4d83-b196-88d05a14b91a","ios":"levelo://app?vid=241f7f64-d95b-4d83-b196-88d05a14b91a"},"vehicle_type_id":"4","last_reported":1721149645,"current_range_meters":31200,"station_id":"ce4bhb12rcd13ifvqem0","pricing_plan_id":"cebpf4jnsgd1na2vs0mg"},{"bike_id":"fc26dd4d-75fe-4849-b6f6-c543960fe285","system_id":"levelo_inurba_marseille","lat":43.288423,"lon":5.358372,"is_reserved":false,"is_disabled":false,"rental_uris":{"android":"levelo://app?vid=fc26dd4d-75fe-4849-b6f6-c543960fe285","ios":"levelo://app?vid=fc26dd4d-75fe-4849-b6f6-c543960fe285"},"vehicle_type_id":"4","last_reported":1721149645,"current_range_meters":31200,"station_id":"ce4bhb12rcd13ifvqem0","pricing_plan_id":"cebpf4jnsgd1na2vs0mg"},{"bike_id":"5ad1fbaa-afe9-4b10-a690-baba241f1f40","system_id":"levelo_inurba_marseille","lat":43.30933,"lon":5.40136,"is_reserved":false,"is_disabled":false,"rental_uris":{"android":"levelo://app?vid=5ad1fbaa-afe9-4b10-a690-baba241f1f40","ios":"levelo://app?vid=5ad1fbaa-afe9-4b10-a690-baba241f1f40"},"vehicle_type_id":"4","last_reported":1721149645,"current_range_meters":0,"station_id":"ce4bgvp2rcd13ifvqct0","pricing_plan_id":"cebpf4jnsgd1na2vs0mg"},{"bike_id":"ffba9479-7cfc-4efd-be77-29da7a0badae","system_id":"levelo_inurba_marseille","lat":43.33743,"lon":5.37482,"is_reserved":false,"is_disabled":false,"rental_uris":{"android":"levelo://app?vid=ffba9479-7cfc-4efd-be77-29da7a0badae","ios":"levelo://app?vid=ffba9479-7cfc-4efd-be77-29da7a0badae"},"vehicle_type_id":"4","last_reported":1721149645,"current_range_meters":28000,"station_id":"","pricing_plan_id":"cebpf4jnsgd1na2vs0mg"},{"bike_id":"0091de75-016b-45ba-9fb9-87214e1f255e","system_id":"levelo_inurba_marseille","lat":43.337526,"lon":5.374499,"is_reserved":false,"is_disabled":false,"rental_uris":{"android":"levelo://app?vid=0091de75-016b-45ba-9fb9-87214e1f255e","ios":"levelo://app?vid=0091de75-016b-45ba-9fb9-87214e1f255e"},"vehicle_type_id":"4","last_reported":1721149645,"current_range_meters":20800,"station_id":"","pricing_plan_id":"cebpf4jnsgd1na2vs0mg"},{"bike_id":"1af5f287-d103-48a7-b5e1-e8059521cf33","system_id":"levelo_inurba_marseille","lat":43.337572,"lon":5.37456,"is_reserved":false,"is_disabled":false,"rental_uris":{"android":"levelo://app?vid=1af5f287-d103-48a7-b5e1-e8059521cf33","ios":"levelo://app?vid=1af5f287-d103-48a7-b5e1-e8059521cf33"},"vehicle_type_id":"4","last_reported":1721149645,"current_range_meters":29600,"station_id":"","pricing_plan_id":"cebpf4jnsgd1na2vs0mg"},{"bike_id":"6d86028a-7fba-4d34-8c2b-1bb6866deb60","system_id":"levelo_inurba_marseille","lat":43.337579,"lon":5.374557,"is_reserved":false,"is_disabled":false,"rental_uris":{"android":"levelo://app?vid=6d86028a-7fba-4d34-8c2b-1bb6866deb60","ios":"levelo://app?vid=6d86028a-7fba-4d34-8c2b-1bb6866deb60"},"vehicle_type_id":"4","last_reported":1721149645,"current_range_meters":19200,"station_id":"","pricing_plan_id":"cebpf4jnsgd1na2vs0mg"},{"bike_id":"efea0c1a-9233-4ab8-a745-eca80a25a57b","system_id":"levelo_inurba_marseille","lat":43.33758,"lon":5.37486,"is_reserved":false,"is_disabled":false,"rental_uris":{"android":"levelo://app?vid=efea0c1a-9233-4ab8-a745-eca80a25a57b","ios":"levelo://app?vid=efea0c1a-9233-4ab8-a745-eca80a25a57b"},"vehicle_type_id":"4","last_reported":1721149645,"current_range_meters":5600,"station_id":"","pricing_plan_id":"cebpf4jnsgd1na2vs0mg"},{"bike_id":"59d3ee0a-15e6-4bb5-88d9-262f805555c4","system_id":"levelo_inurba_marseille","lat":43.337661,"lon":5.374567,"is_reserved":false,"is_disabled":false,"rental_uris":{"android":"levelo://app?vid=59d3ee0a-15e6-4bb5-88d9-262f805555c4","ios":"levelo://app?vid=59d3ee0a-15e6-4bb5-88d9-262f805555c4"},"vehicle_type_id":"4","last_reported":1721149645,"current_range_meters":26800,"station_id":"","pricing_plan_id":"cebpf4jnsgd1na2vs0mg"},{"bike_id":"7084d9f0-e423-4e4a-b248-7c0acc689dc5","system_id":"levelo_inurba_marseille","lat":43.3377,"lon":5.37476,"is_reserved":false,"is_disabled":false,"rental_uris":{"android":"levelo://app?vid=7084d9f0-e423-4e4a-b248-7c0acc689dc5","ios":"levelo://app?vid=7084d9f0-e423-4e4a-b248-7c0acc689dc5"},"vehicle_type_id":"4","last_reported":1721149645,"current_range_meters":28400,"station_id":"","pricing_plan_id":"cebpf4jnsgd1na2vs0mg"},{"bike_id":"615362c3-adf7-479f-ad13-f59812cb2fcf","system_id":"levelo_inurba_marseille","lat":43.337785,"lon":5.374382,"is_reserved":false,"is_disabled":false,"rental_uris":{"android":"levelo://app?vid=615362c3-adf7-479f-ad13-f59812cb2fcf","ios":"levelo://app?vid=615362c3-adf7-479f-ad13-f59812cb2fcf"},"vehicle_type_id":"4","last_reported":1721149645,"current_range_meters":27600,"station_id":"","pricing_plan_id":"cebpf4jnsgd1na2vs0mg"},{"bike_id":"31656011-fc01-4769-87c2-bc27d7ca4d25","system_id":"levelo_inurba_marseille","lat":43.301117,"lon":5.398795,"is_reserved":false,"is_disabled":false,"rental_uris":{"android":"levelo://app?vid=31656011-fc01-4769-87c2-bc27d7ca4d25","ios":"levelo://app?vid=31656011-fc01-4769-87c2-bc27d7ca4d25"},"vehicle_type_id":"4","last_reported":1721149645,"current_range_meters":0,"station_id":"ce4bh0h2rcd13ifvqd40","pricing_plan_id":"cebpf4jnsgd1na2vs0mg"},{"bike_id":"6c4a8f47-fcbb-486d-89f7-0683505df807","system_id":"levelo_inurba_marseille","lat":43.301117,"lon":5.398795,"is_reserved":false,"is_disabled":false,"rental_uris":{"android":"levelo://app?vid=6c4a8f47-fcbb-486d-89f7-0683505df807","ios":"levelo://app?vid=6c4a8f47-fcbb-486d-89f7-0683505df807"},"vehicle_type_id":"4","last_reported":1721149645,"current_range_meters":7600,"station_id":"ce4bh0h2rcd13ifvqd40","pricing_plan_id":"cebpf4jnsgd1na2vs0mg"},{"bike_id":"e3546c4f-6828-48ec-9b24-bbaf8156cf01","system_id":"levelo_inurba_marseille","lat":43.28728,"lon":5.36088,"is_reserved":false,"is_disabled":false,"rental_uris":{"android":"levelo://app?vid=e3546c4f-6828-48ec-9b24-bbaf8156cf01","ios":"levelo://app?vid=e3546c4f-6828-48ec-9b24-bbaf8156cf01"},"vehicle_type_id":"4","last_reported":1721149645,"current_range_meters":0,"station_id":"cki0cbj6b192h4jlfktg","pricing_plan_id":"cebpf4jnsgd1na2vs0mg"},{"bike_id":"c445f74a-3c76-47c9-aae0-f23b1f365c28","system_id":"levelo_inurba_marseille","lat":43.288627,"lon":5.380189,"is_reserved":false,"is_disabled":false,"rental_uris":{"android":"levelo://app?vid=c445f74a-3c76-47c9-aae0-f23b1f365c28","ios":"levelo://app?vid=c445f74a-3c76-47c9-aae0-f23b1f365c28"},"vehicle_type_id":"4","last_reported":1721149645,"current_range_meters":0,"station_id":"","pricing_plan_id":"cebpf4jnsgd1na2vs0mg"},{"bike_id":"5d141993-93ee-4160-ab83-d0822185534a","system_id":"levelo_inurba_marseille","lat":43.286961,"lon":5.373785,"is_reserved":false,"is_disabled":false,"rental_uris":{"android":"levelo://app?vid=5d141993-93ee-4160-ab83-d0822185534a","ios":"levelo://app?vid=5d141993-93ee-4160-ab83-d0822185534a"},"vehicle_type_id":"4","last_reported":1721149645,"current_range_meters":0,"station_id":"ce4bh3p2rcd13ifvqdq0","pricing_plan_id":"cebpf4jnsgd1na2vs0mg"},{"bike_id":"ed2aaf82-37fe-4a0d-96c2-5d206fbefc10","system_id":"levelo_inurba_marseille","lat":43.30242,"lon":5.40046,"is_reserved":false,"is_disabled":false,"rental_uris":{"android":"levelo://app?vid=ed2aaf82-37fe-4a0d-96c2-5d206fbefc10","ios":"levelo://app?vid=ed2aaf82-37fe-4a0d-96c2-5d206fbefc10"},"vehicle_type_id":"4","last_reported":1721149645,"current_range_meters":24400,"station_id":"","pricing_plan_id":"cebpf4jnsgd1na2vs0mg"},{"bike_id":"f3f3adbf-e413-4c37-80ac-bc14c2920192","system_id":"levelo_inurba_marseille","lat":43.290336,"lon":5.386425,"is_reserved":false,"is_disabled":false,"rental_uris":{"android":"levelo://app?vid=f3f3adbf-e413-4c37-80ac-bc14c2920192","ios":"levelo://app?vid=f3f3adbf-e413-4c37-80ac-bc14c2920192"},"vehicle_type_id":"4","last_reported":1721149645,"current_range_meters":0,"station_id":"ce4bh4p2rcd13ifvqe0g","pricing_plan_id":"cebpf4jnsgd1na2vs0mg"},{"bike_id":"942ab965-c07d-4218-9605-ff80659806f1","system_id":"levelo_inurba_marseille","lat":43.287184,"lon":5.37937,"is_reserved":false,"is_disabled":false,"rental_uris":{"android":"levelo://app?vid=942ab965-c07d-4218-9605-ff80659806f1","ios":"levelo://app?vid=942ab965-c07d-4218-9605-ff80659806f1"},"vehicle_type_id":"4","last_reported":1721149645,"current_range_meters":0,"station_id":"ce4bh9p2rcd13ifvqec0","pricing_plan_id":"cebpf4jnsgd1na2vs0mg"},{"bike_id":"54d832e6-9316-498b-b9d3-cfda035a1c3f","system_id":"levelo_inurba_marseille","lat":43.287184,"lon":5.37937,"is_reserved":false,"is_disabled":false,"rental_uris":{"android":"levelo://app?vid=54d832e6-9316-498b-b9d3-cfda035a1c3f","ios":"levelo://app?vid=54d832e6-9316-498b-b9d3-cfda035a1c3f"},"vehicle_type_id":"4","last_reported":1721149645,"current_range_meters":0,"station_id":"ce4bh9p2rcd13ifvqec0","pricing_plan_id":"cebpf4jnsgd1na2vs0mg"},{"bike_id":"e3dfdfaf-94fe-45cd-88fc-ef70eed494f8","system_id":"levelo_inurba_marseille","lat":43.291994,"lon":5.392907,"is_reserved":false,"is_disabled":false,"rental_uris":{"android":"levelo://app?vid=e3dfdfaf-94fe-45cd-88fc-ef70eed494f8","ios":"levelo://app?vid=e3dfdfaf-94fe-45cd-88fc-ef70eed494f8"},"vehicle_type_id":"4","last_reported":1721149645,"current_range_meters":1200,"station_id":"ce4bh192rcd13ifvqdd0","pricing_plan_id":"cebpf4jnsgd1na2vs0mg"},{"bike_id":"fc3b8016-d55c-48b3-8545-b7ee1de1d366","system_id":"levelo_inurba_marseille","lat":43.291994,"lon":5.392907,"is_reserved":false,"is_disabled":false,"rental_uris":{"android":"levelo://app?vid=fc3b8016-d55c-48b3-8545-b7ee1de1d366","ios":"levelo://app?vid=fc3b8016-d55c-48b3-8545-b7ee1de1d366"},"vehicle_type_id":"4","last_reported":1721149645,"current_range_meters":2000,"station_id":"ce4bh192rcd13ifvqdd0","pricing_plan_id":"cebpf4jnsgd1na2vs0mg"},{"bike_id":"c80ef7e7-97ab-45d1-b36f-359fb8d7310d","system_id":"levelo_inurba_marseille","lat":43.29193,"lon":5.39317,"is_reserved":false,"is_disabled":false,"rental_uris":{"android":"levelo://app?vid=c80ef7e7-97ab-45d1-b36f-359fb8d7310d","ios":"levelo://app?vid=c80ef7e7-97ab-45d1-b36f-359fb8d7310d"},"vehicle_type_id":"4","last_reported":1721149645,"current_range_meters":0,"station_id":"ce4bh192rcd13ifvqdd0","pricing_plan_id":"cebpf4jnsgd1na2vs0mg"},{"bike_id":"bf87dd19-245f-44a6-a733-e495c450efcd","system_id":"levelo_inurba_marseille","lat":43.284534,"lon":5.358662,"is_reserved":false,"is_disabled":false,"rental_uris":{"android":"levelo://app?vid=bf87dd19-245f-44a6-a733-e495c450efcd","ios":"levelo://app?vid=bf87dd19-245f-44a6-a733-e495c450efcd"},"vehicle_type_id":"4","last_reported":1721149645,"current_range_meters":13200,"station_id":"ce4bhah2rcd13ifvqei0","pricing_plan_id":"cebpf4jnsgd1na2vs0mg"},{"bike_id":"24c6a306-775f-4f68-b313-4d4736683434","system_id":"levelo_inurba_marseille","lat":43.28624,"lon":5.35112,"is_reserved":false,"is_disabled":false,"rental_uris":{"android":"levelo://app?vid=24c6a306-775f-4f68-b313-4d4736683434","ios":"levelo://app?vid=24c6a306-775f-4f68-b313-4d4736683434"},"vehicle_type_id":"4","last_reported":1721149645,"current_range_meters":30800,"station_id":"ce4bhch2rcd13ifvqeug","pricing_plan_id":"cebpf4jnsgd1na2vs0mg"},{"bike_id":"5e2dd270-9a3f-40c3-a44c-d244cd40f87f","system_id":"levelo_inurba_marseille","lat":43.28624,"lon":5.3511,"is_reserved":false,"is_disabled":false,"rental_uris":{"android":"levelo://app?vid=5e2dd270-9a3f-40c3-a44c-d244cd40f87f","ios":"levelo://app?vid=5e2dd270-9a3f-40c3-a44c-d244cd40f87f"},"vehicle_type_id":"4","last_reported":1721149645,"current_range_meters":31200,"station_id":"ce4bhch2rcd13ifvqeug","pricing_plan_id":"cebpf4jnsgd1na2vs0mg"},{"bike_id":"d526d484-3dc7-46cf-8dec-99f1d478e32c","system_id":"levelo_inurba_marseille","lat":43.28623,"lon":5.35112,"is_reserved":false,"is_disabled":false,"rental_uris":{"android":"levelo://app?vid=d526d484-3dc7-46cf-8dec-99f1d478e32c","ios":"levelo://app?vid=d526d484-3dc7-46cf-8dec-99f1d478e32c"},"vehicle_type_id":"4","last_reported":1721149645,"current_range_meters":12000,"station_id":"ce4bhch2rcd13ifvqeug","pricing_plan_id":"cebpf4jnsgd1na2vs0mg"},{"bike_id":"fb28542c-3967-4a51-968c-a0555b1d7cc5","system_id":"levelo_inurba_marseille","lat":43.285856,"lon":5.350771,"is_reserved":false,"is_disabled":false,"rental_uris":{"android":"levelo://app?vid=fb28542c-3967-4a51-968c-a0555b1d7cc5","ios":"levelo://app?vid=fb28542c-3967-4a51-968c-a0555b1d7cc5"},"vehicle_type_id":"4","last_reported":1721149645,"current_range_meters":7200,"station_id":"ce4bhch2rcd13ifvqeug","pricing_plan_id":"cebpf4jnsgd1na2vs0mg"},{"bike_id":"faa8712a-be62-4be2-830d-638dda8e3b33","system_id":"levelo_inurba_marseille","lat":43.285856,"lon":5.350771,"is_reserved":false,"is_disabled":false,"rental_uris":{"android":"levelo://app?vid=faa8712a-be62-4be2-830d-638dda8e3b33","ios":"levelo://app?vid=faa8712a-be62-4be2-830d-638dda8e3b33"},"vehicle_type_id":"4","last_reported":1721149645,"current_range_meters":400,"station_id":"ce4bhch2rcd13ifvqeug","pricing_plan_id":"cebpf4jnsgd1na2vs0mg"},{"bike_id":"8c35244a-c8a6-4132-a2d2-c746a3628d45","system_id":"levelo_inurba_marseille","lat":43.28622,"lon":5.35108,"is_reserved":false,"is_disabled":false,"rental_uris":{"android":"levelo://app?vid=8c35244a-c8a6-4132-a2d2-c746a3628d45","ios":"levelo://app?vid=8c35244a-c8a6-4132-a2d2-c746a3628d45"},"vehicle_type_id":"4","last_reported":1721149645,"current_range_meters":0,"station_id":"ce4bhch2rcd13ifvqeug","pricing_plan_id":"cebpf4jnsgd1na2vs0mg"},{"bike_id":"6f9346d7-a763-4d72-9cb9-da843b926ae5","system_id":"levelo_inurba_marseille","lat":43.285856,"lon":5.350771,"is_reserved":false,"is_disabled":false,"rental_uris":{"android":"levelo://app?vid=6f9346d7-a763-4d72-9cb9-da843b926ae5","ios":"levelo://app?vid=6f9346d7-a763-4d72-9cb9-da843b926ae5"},"vehicle_type_id":"4","last_reported":1721149645,"current_range_meters":12400,"station_id":"ce4bhch2rcd13ifvqeug","pricing_plan_id":"cebpf4jnsgd1na2vs0mg"},{"bike_id":"59a1a062-d91b-416c-b052-f536978f9ac4","system_id":"levelo_inurba_marseille","lat":43.285856,"lon":5.350771,"is_reserved":false,"is_disabled":false,"rental_uris":{"android":"levelo://app?vid=59a1a062-d91b-416c-b052-f536978f9ac4","ios":"levelo://app?vid=59a1a062-d91b-416c-b052-f536978f9ac4"},"vehicle_type_id":"4","last_reported":1721149645,"current_range_meters":20400,"station_id":"ce4bhch2rcd13ifvqeug","pricing_plan_id":"cebpf4jnsgd1na2vs0mg"},{"bike_id":"a0d6fb5a-ea69-4f18-9a62-d4907e3483e4","system_id":"levelo_inurba_marseille","lat":43.285856,"lon":5.350771,"is_reserved":false,"is_disabled":false,"rental_uris":{"android":"levelo://app?vid=a0d6fb5a-ea69-4f18-9a62-d4907e3483e4","ios":"levelo://app?vid=a0d6fb5a-ea69-4f18-9a62-d4907e3483e4"},"vehicle_type_id":"4","last_reported":1721149645,"current_range_meters":6000,"station_id":"ce4bhch2rcd13ifvqeug","pricing_plan_id":"cebpf4jnsgd1na2vs0mg"},{"bike_id":"bad06e9e-77b0-4484-8dd3-37d4d585d8a3","system_id":"levelo_inurba_marseille","lat":43.285856,"lon":5.350771,"is_reserved":false,"is_disabled":false,"rental_uris":{"android":"levelo://app?vid=bad06e9e-77b0-4484-8dd3-37d4d585d8a3","ios":"levelo://app?vid=bad06e9e-77b0-4484-8dd3-37d4d585d8a3"},"vehicle_type_id":"4","last_reported":1721149645,"current_range_meters":2000,"station_id":"ce4bhch2rcd13ifvqeug","pricing_plan_id":"cebpf4jnsgd1na2vs0mg"},{"bike_id":"4aebe56a-ab8e-439d-a8d0-5df8ace4d6df","system_id":"levelo_inurba_marseille","lat":43.2862,"lon":5.35108,"is_reserved":false,"is_disabled":false,"rental_uris":{"android":"levelo://app?vid=4aebe56a-ab8e-439d-a8d0-5df8ace4d6df","ios":"levelo://app?vid=4aebe56a-ab8e-439d-a8d0-5df8ace4d6df"},"vehicle_type_id":"4","last_reported":1721149645,"current_range_meters":31200,"station_id":"ce4bhch2rcd13ifvqeug","pricing_plan_id":"cebpf4jnsgd1na2vs0mg"},{"bike_id":"ae6ae208-f228-4dc1-897b-55076bc8502d","system_id":"levelo_inurba_marseille","lat":43.286198,"lon":5.351073,"is_reserved":false,"is_disabled":false,"rental_uris":{"android":"levelo://app?vid=ae6ae208-f228-4dc1-897b-55076bc8502d","ios":"levelo://app?vid=ae6ae208-f228-4dc1-897b-55076bc8502d"},"vehicle_type_id":"4","last_reported":1721149645,"current_range_meters":31200,"station_id":"ce4bhch2rcd13ifvqeug","pricing_plan_id":"cebpf4jnsgd1na2vs0mg"},{"bike_id":"3fe0794b-4bc5-40de-bd84-3d56beb371ff","system_id":"levelo_inurba_marseille","lat":43.28617,"lon":5.35114,"is_reserved":false,"is_disabled":false,"rental_uris":{"android":"levelo://app?vid=3fe0794b-4bc5-40de-bd84-3d56beb371ff","ios":"levelo://app?vid=3fe0794b-4bc5-40de-bd84-3d56beb371ff"},"vehicle_type_id":"4","last_reported":1721149645,"current_range_meters":24000,"station_id":"","pricing_plan_id":"cebpf4jnsgd1na2vs0mg"},{"bike_id":"f55ef841-f187-4c7f-945a-d11f27ede85c","system_id":"levelo_inurba_marseille","lat":43.285856,"lon":5.350771,"is_reserved":false,"is_disabled":false,"rental_uris":{"android":"levelo://app?vid=f55ef841-f187-4c7f-945a-d11f27ede85c","ios":"levelo://app?vid=f55ef841-f187-4c7f-945a-d11f27ede85c"},"vehicle_type_id":"4","last_reported":1721149645,"current_range_meters":10400,"station_id":"ce4bhch2rcd13ifvqeug","pricing_plan_id":"cebpf4jnsgd1na2vs0mg"},{"bike_id":"1481753a-9f9d-41f9-a0ac-f64acbb0f4e6","system_id":"levelo_inurba_marseille","lat":43.28618,"lon":5.3511,"is_reserved":false,"is_disabled":false,"rental_uris":{"android":"levelo://app?vid=1481753a-9f9d-41f9-a0ac-f64acbb0f4e6","ios":"levelo://app?vid=1481753a-9f9d-41f9-a0ac-f64acbb0f4e6"},"vehicle_type_id":"4","last_reported":1721149645,"current_range_meters":14800,"station_id":"ce4bhch2rcd13ifvqeug","pricing_plan_id":"cebpf4jnsgd1na2vs0mg"},{"bike_id":"379fd974-d3a9-413f-8e33-2c3e60acb8b1","system_id":"levelo_inurba_marseille","lat":43.28619,"lon":5.35106,"is_reserved":false,"is_disabled":false,"rental_uris":{"android":"levelo://app?vid=379fd974-d3a9-413f-8e33-2c3e60acb8b1","ios":"levelo://app?vid=379fd974-d3a9-413f-8e33-2c3e60acb8b1"},"vehicle_type_id":"4","last_reported":1721149645,"current_range_meters":30400,"station_id":"ce4bhch2rcd13ifvqeug","pricing_plan_id":"cebpf4jnsgd1na2vs0mg"},{"bike_id":"b566480e-abf5-42de-9858-c95a922cc5cd","system_id":"levelo_inurba_marseille","lat":43.2862,"lon":5.35102,"is_reserved":false,"is_disabled":false,"rental_uris":{"android":"levelo://app?vid=b566480e-abf5-42de-9858-c95a922cc5cd","ios":"levelo://app?vid=b566480e-abf5-42de-9858-c95a922cc5cd"},"vehicle_type_id":"4","last_reported":1721149645,"current_range_meters":31200,"station_id":"ce4bhch2rcd13ifvqeug","pricing_plan_id":"cebpf4jnsgd1na2vs0mg"},{"bike_id":"e4399a94-9626-42e3-919f-55bc1fab779a","system_id":"levelo_inurba_marseille","lat":43.285856,"lon":5.350771,"is_reserved":false,"is_disabled":false,"rental_uris":{"android":"levelo://app?vid=e4399a94-9626-42e3-919f-55bc1fab779a","ios":"levelo://app?vid=e4399a94-9626-42e3-919f-55bc1fab779a"},"vehicle_type_id":"4","last_reported":1721149645,"current_range_meters":10400,"station_id":"ce4bhch2rcd13ifvqeug","pricing_plan_id":"cebpf4jnsgd1na2vs0mg"},{"bike_id":"02b1e0dc-5c27-409e-b0cd-578d308f9432","system_id":"levelo_inurba_marseille","lat":43.28619,"lon":5.35105,"is_reserved":false,"is_disabled":false,"rental_uris":{"android":"levelo://app?vid=02b1e0dc-5c27-409e-b0cd-578d308f9432","ios":"levelo://app?vid=02b1e0dc-5c27-409e-b0cd-578d308f9432"},"vehicle_type_id":"4","last_reported":1721149645,"current_range_meters":31200,"station_id":"ce4bhch2rcd13ifvqeug","pricing_plan_id":"cebpf4jnsgd1na2vs0mg"},{"bike_id":"3b7f46fb-9c30-45cc-86ce-1d1b8e2f7d85","system_id":"levelo_inurba_marseille","lat":43.285856,"lon":5.350771,"is_reserved":false,"is_disabled":false,"rental_uris":{"android":"levelo://app?vid=3b7f46fb-9c30-45cc-86ce-1d1b8e2f7d85","ios":"levelo://app?vid=3b7f46fb-9c30-45cc-86ce-1d1b8e2f7d85"},"vehicle_type_id":"4","last_reported":1721149645,"current_range_meters":14400,"station_id":"ce4bhch2rcd13ifvqeug","pricing_plan_id":"cebpf4jnsgd1na2vs0mg"},{"bike_id":"1f55326b-ca03-432f-8de8-7c390db0e253","system_id":"levelo_inurba_marseille","lat":43.285856,"lon":5.350771,"is_reserved":false,"is_disabled":false,"rental_uris":{"android":"levelo://app?vid=1f55326b-ca03-432f-8de8-7c390db0e253","ios":"levelo://app?vid=1f55326b-ca03-432f-8de8-7c390db0e253"},"vehicle_type_id":"4","last_reported":1721149645,"current_range_meters":6800,"station_id":"ce4bhch2rcd13ifvqeug","pricing_plan_id":"cebpf4jnsgd1na2vs0mg"},{"bike_id":"47f7a41d-503b-4805-be4f-3d68afbfab4b","system_id":"levelo_inurba_marseille","lat":43.2862,"lon":5.35097,"is_reserved":false,"is_disabled":false,"rental_uris":{"android":"levelo://app?vid=47f7a41d-503b-4805-be4f-3d68afbfab4b","ios":"levelo://app?vid=47f7a41d-503b-4805-be4f-3d68afbfab4b"},"vehicle_type_id":"4","last_reported":1721149645,"current_range_meters":26800,"station_id":"ce4bhch2rcd13ifvqeug","pricing_plan_id":"cebpf4jnsgd1na2vs0mg"},{"bike_id":"7cef5041-34ff-40a5-81c8-0eada65d8498","system_id":"levelo_inurba_marseille","lat":43.28616,"lon":5.35107,"is_reserved":false,"is_disabled":false,"rental_uris":{"android":"levelo://app?vid=7cef5041-34ff-40a5-81c8-0eada65d8498","ios":"levelo://app?vid=7cef5041-34ff-40a5-81c8-0eada65d8498"},"vehicle_type_id":"4","last_reported":1721149645,"current_range_meters":19600,"station_id":"ce4bhch2rcd13ifvqeug","pricing_plan_id":"cebpf4jnsgd1na2vs0mg"},{"bike_id":"6d950131-f34e-484e-8f21-7ae44deab45c","system_id":"levelo_inurba_marseille","lat":43.285856,"lon":5.350771,"is_reserved":false,"is_disabled":false,"rental_uris":{"android":"levelo://app?vid=6d950131-f34e-484e-8f21-7ae44deab45c","ios":"levelo://app?vid=6d950131-f34e-484e-8f21-7ae44deab45c"},"vehicle_type_id":"4","last_reported":1721149645,"current_range_meters":16400,"station_id":"ce4bhch2rcd13ifvqeug","pricing_plan_id":"cebpf4jnsgd1na2vs0mg"},{"bike_id":"30be74bf-718b-4732-89fb-3332c507d839","system_id":"levelo_inurba_marseille","lat":43.28615,"lon":5.35106,"is_reserved":false,"is_disabled":false,"rental_uris":{"android":"levelo://app?vid=30be74bf-718b-4732-89fb-3332c507d839","ios":"levelo://app?vid=30be74bf-718b-4732-89fb-3332c507d839"},"vehicle_type_id":"4","last_reported":1721149645,"current_range_meters":6000,"station_id":"ce4bhch2rcd13ifvqeug","pricing_plan_id":"cebpf4jnsgd1na2vs0mg"},{"bike_id":"0664bca1-7164-46e1-861a-756dca1d5800","system_id":"levelo_inurba_marseille","lat":43.28615,"lon":5.35105,"is_reserved":false,"is_disabled":false,"rental_uris":{"android":"levelo://app?vid=0664bca1-7164-46e1-861a-756dca1d5800","ios":"levelo://app?vid=0664bca1-7164-46e1-861a-756dca1d5800"},"vehicle_type_id":"4","last_reported":1721149645,"current_range_meters":5600,"station_id":"ce4bhch2rcd13ifvqeug","pricing_plan_id":"cebpf4jnsgd1na2vs0mg"},{"bike_id":"97f115ed-d382-49ec-bc15-112bb1161496","system_id":"levelo_inurba_marseille","lat":43.285856,"lon":5.350771,"is_reserved":false,"is_disabled":false,"rental_uris":{"android":"levelo://app?vid=97f115ed-d382-49ec-bc15-112bb1161496","ios":"levelo://app?vid=97f115ed-d382-49ec-bc15-112bb1161496"},"vehicle_type_id":"4","last_reported":1721149645,"current_range_meters":11600,"station_id":"ce4bhch2rcd13ifvqeug","pricing_plan_id":"cebpf4jnsgd1na2vs0mg"},{"bike_id":"b8b344e6-4c05-4334-91d9-7f3b77374707","system_id":"levelo_inurba_marseille","lat":43.28614,"lon":5.35105,"is_reserved":false,"is_disabled":false,"rental_uris":{"android":"levelo://app?vid=b8b344e6-4c05-4334-91d9-7f3b77374707","ios":"levelo://app?vid=b8b344e6-4c05-4334-91d9-7f3b77374707"},"vehicle_type_id":"4","last_reported":1721149645,"current_range_meters":0,"station_id":"ce4bhch2rcd13ifvqeug","pricing_plan_id":"cebpf4jnsgd1na2vs0mg"},{"bike_id":"ec58b304-2fe1-4998-8542-7b2852b5c02f","system_id":"levelo_inurba_marseille","lat":43.28616,"lon":5.35098,"is_reserved":false,"is_disabled":false,"rental_uris":{"android":"levelo://app?vid=ec58b304-2fe1-4998-8542-7b2852b5c02f","ios":"levelo://app?vid=ec58b304-2fe1-4998-8542-7b2852b5c02f"},"vehicle_type_id":"4","last_reported":1721149645,"current_range_meters":30800,"station_id":"ce4bhch2rcd13ifvqeug","pricing_plan_id":"cebpf4jnsgd1na2vs0mg"},{"bike_id":"10916c92-65b7-49d5-b90b-e6b7017e01f7","system_id":"levelo_inurba_marseille","lat":43.28615,"lon":5.35101,"is_reserved":false,"is_disabled":false,"rental_uris":{"android":"levelo://app?vid=10916c92-65b7-49d5-b90b-e6b7017e01f7","ios":"levelo://app?vid=10916c92-65b7-49d5-b90b-e6b7017e01f7"},"vehicle_type_id":"4","last_reported":1721149645,"current_range_meters":22400,"station_id":"ce4bhch2rcd13ifvqeug","pricing_plan_id":"cebpf4jnsgd1na2vs0mg"},{"bike_id":"81d771bf-6da4-4acf-8337-ff9a57ce4990","system_id":"levelo_inurba_marseille","lat":43.28614,"lon":5.35103,"is_reserved":false,"is_disabled":false,"rental_uris":{"android":"levelo://app?vid=81d771bf-6da4-4acf-8337-ff9a57ce4990","ios":"levelo://app?vid=81d771bf-6da4-4acf-8337-ff9a57ce4990"},"vehicle_type_id":"4","last_reported":1721149645,"current_range_meters":23200,"station_id":"ce4bhch2rcd13ifvqeug","pricing_plan_id":"cebpf4jnsgd1na2vs0mg"},{"bike_id":"16c5cbff-a1e5-4214-a6df-8868feb170bf","system_id":"levelo_inurba_marseille","lat":43.285856,"lon":5.350771,"is_reserved":false,"is_disabled":false,"rental_uris":{"android":"levelo://app?vid=16c5cbff-a1e5-4214-a6df-8868feb170bf","ios":"levelo://app?vid=16c5cbff-a1e5-4214-a6df-8868feb170bf"},"vehicle_type_id":"4","last_reported":1721149645,"current_range_meters":25200,"station_id":"ce4bhch2rcd13ifvqeug","pricing_plan_id":"cebpf4jnsgd1na2vs0mg"},{"bike_id":"f3a67c5d-d765-47c4-a275-509a56e88a0f","system_id":"levelo_inurba_marseille","lat":43.285856,"lon":5.350771,"is_reserved":false,"is_disabled":false,"rental_uris":{"android":"levelo://app?vid=f3a67c5d-d765-47c4-a275-509a56e88a0f","ios":"levelo://app?vid=f3a67c5d-d765-47c4-a275-509a56e88a0f"},"vehicle_type_id":"4","last_reported":1721149645,"current_range_meters":0,"station_id":"ce4bhch2rcd13ifvqeug","pricing_plan_id":"cebpf4jnsgd1na2vs0mg"},{"bike_id":"b6c01977-8345-448b-846e-94c5e5faab53","system_id":"levelo_inurba_marseille","lat":43.28613,"lon":5.351,"is_reserved":false,"is_disabled":false,"rental_uris":{"android":"levelo://app?vid=b6c01977-8345-448b-846e-94c5e5faab53","ios":"levelo://app?vid=b6c01977-8345-448b-846e-94c5e5faab53"},"vehicle_type_id":"4","last_reported":1721149645,"current_range_meters":31200,"station_id":"ce4bhch2rcd13ifvqeug","pricing_plan_id":"cebpf4jnsgd1na2vs0mg"},{"bike_id":"b2244f57-d571-4b1e-abd6-c2c61ae06592","system_id":"levelo_inurba_marseille","lat":43.28613,"lon":5.35098,"is_reserved":false,"is_disabled":false,"rental_uris":{"android":"levelo://app?vid=b2244f57-d571-4b1e-abd6-c2c61ae06592","ios":"levelo://app?vid=b2244f57-d571-4b1e-abd6-c2c61ae06592"},"vehicle_type_id":"4","last_reported":1721149645,"current_range_meters":14400,"station_id":"ce4bhch2rcd13ifvqeug","pricing_plan_id":"cebpf4jnsgd1na2vs0mg"},{"bike_id":"70e37ba4-e4b2-44a2-a2fe-feedb1fecbdd","system_id":"levelo_inurba_marseille","lat":43.285856,"lon":5.350771,"is_reserved":false,"is_disabled":false,"rental_uris":{"android":"levelo://app?vid=70e37ba4-e4b2-44a2-a2fe-feedb1fecbdd","ios":"levelo://app?vid=70e37ba4-e4b2-44a2-a2fe-feedb1fecbdd"},"vehicle_type_id":"4","last_reported":1721149645,"current_range_meters":30800,"station_id":"ce4bhch2rcd13ifvqeug","pricing_plan_id":"cebpf4jnsgd1na2vs0mg"},{"bike_id":"5eecd9cc-1e71-4a6a-8a4e-ca957456f86c","system_id":"levelo_inurba_marseille","lat":43.283998,"lon":5.375062,"is_reserved":false,"is_disabled":false,"rental_uris":{"android":"levelo://app?vid=5eecd9cc-1e71-4a6a-8a4e-ca957456f86c","ios":"levelo://app?vid=5eecd9cc-1e71-4a6a-8a4e-ca957456f86c"},"vehicle_type_id":"4","last_reported":1721149645,"current_range_meters":25200,"station_id":"ce4bh412rcd13ifvqds0","pricing_plan_id":"cebpf4jnsgd1na2vs0mg"},{"bike_id":"541442ea-7e6b-4928-bdd2-8cdbc8804ab9","system_id":"levelo_inurba_marseille","lat":43.283998,"lon":5.375062,"is_reserved":false,"is_disabled":false,"rental_uris":{"android":"levelo://app?vid=541442ea-7e6b-4928-bdd2-8cdbc8804ab9","ios":"levelo://app?vid=541442ea-7e6b-4928-bdd2-8cdbc8804ab9"},"vehicle_type_id":"4","last_reported":1721149645,"current_range_meters":28400,"station_id":"ce4bh412rcd13ifvqds0","pricing_plan_id":"cebpf4jnsgd1na2vs0mg"},{"bike_id":"5dadddbf-e02b-406f-b7be-3e8cc0138d93","system_id":"levelo_inurba_marseille","lat":43.295713,"lon":5.399639,"is_reserved":false,"is_disabled":false,"rental_uris":{"android":"levelo://app?vid=5dadddbf-e02b-406f-b7be-3e8cc0138d93","ios":"levelo://app?vid=5dadddbf-e02b-406f-b7be-3e8cc0138d93"},"vehicle_type_id":"4","last_reported":1721149645,"current_range_meters":400,"station_id":"ce4bh312rcd13ifvqdj0","pricing_plan_id":"cebpf4jnsgd1na2vs0mg"},{"bike_id":"e55d367d-dc0a-4d8d-88de-c2331b3c9667","system_id":"levelo_inurba_marseille","lat":43.295713,"lon":5.399639,"is_reserved":false,"is_disabled":false,"rental_uris":{"android":"levelo://app?vid=e55d367d-dc0a-4d8d-88de-c2331b3c9667","ios":"levelo://app?vid=e55d367d-dc0a-4d8d-88de-c2331b3c9667"},"vehicle_type_id":"4","last_reported":1721149645,"current_range_meters":0,"station_id":"ce4bh312rcd13ifvqdj0","pricing_plan_id":"cebpf4jnsgd1na2vs0mg"},{"bike_id":"ba759314-e4c2-4063-924a-cbb456975cb9","system_id":"levelo_inurba_marseille","lat":43.295713,"lon":5.399639,"is_reserved":false,"is_disabled":false,"rental_uris":{"android":"levelo://app?vid=ba759314-e4c2-4063-924a-cbb456975cb9","ios":"levelo://app?vid=ba759314-e4c2-4063-924a-cbb456975cb9"},"vehicle_type_id":"4","last_reported":1721149645,"current_range_meters":0,"station_id":"ce4bh312rcd13ifvqdj0","pricing_plan_id":"cebpf4jnsgd1na2vs0mg"},{"bike_id":"869b7881-61f3-4f70-9c72-ef07c4de29dc","system_id":"levelo_inurba_marseille","lat":43.286595,"lon":5.386795,"is_reserved":false,"is_disabled":false,"rental_uris":{"android":"levelo://app?vid=869b7881-61f3-4f70-9c72-ef07c4de29dc","ios":"levelo://app?vid=869b7881-61f3-4f70-9c72-ef07c4de29dc"},"vehicle_type_id":"4","last_reported":1721149645,"current_range_meters":22400,"station_id":"ce4bh492rcd13ifvqdug","pricing_plan_id":"cebpf4jnsgd1na2vs0mg"},{"bike_id":"15350122-ecd4-48ac-81fb-20297f296e47","system_id":"levelo_inurba_marseille","lat":43.28671,"lon":5.38679,"is_reserved":false,"is_disabled":false,"rental_uris":{"android":"levelo://app?vid=15350122-ecd4-48ac-81fb-20297f296e47","ios":"levelo://app?vid=15350122-ecd4-48ac-81fb-20297f296e47"},"vehicle_type_id":"4","last_reported":1721149645,"current_range_meters":21600,"station_id":"","pricing_plan_id":"cebpf4jnsgd1na2vs0mg"},{"bike_id":"bf2896eb-aa36-4837-ba7e-1eb786b03e00","system_id":"levelo_inurba_marseille","lat":43.298037,"lon":5.381066,"is_reserved":false,"is_disabled":false,"rental_uris":{"android":"levelo://app?vid=bf2896eb-aa36-4837-ba7e-1eb786b03e00","ios":"levelo://app?vid=bf2896eb-aa36-4837-ba7e-1eb786b03e00"},"vehicle_type_id":"4","last_reported":1721149645,"current_range_meters":18400,"station_id":"ce4bgip2rcd13ifvqbb0","pricing_plan_id":"cebpf4jnsgd1na2vs0mg"},{"bike_id":"b6abd658-f4c7-41d8-97e5-b6271cc254ee","system_id":"levelo_inurba_marseille","lat":43.286595,"lon":5.386795,"is_reserved":false,"is_disabled":false,"rental_uris":{"android":"levelo://app?vid=b6abd658-f4c7-41d8-97e5-b6271cc254ee","ios":"levelo://app?vid=b6abd658-f4c7-41d8-97e5-b6271cc254ee"},"vehicle_type_id":"4","last_reported":1721149645,"current_range_meters":800,"station_id":"ce4bh492rcd13ifvqdug","pricing_plan_id":"cebpf4jnsgd1na2vs0mg"},{"bike_id":"88a79bc8-1241-4a71-b58b-d75b2cff9f6e","system_id":"levelo_inurba_marseille","lat":43.31892,"lon":5.40742,"is_reserved":false,"is_disabled":false,"rental_uris":{"android":"levelo://app?vid=88a79bc8-1241-4a71-b58b-d75b2cff9f6e","ios":"levelo://app?vid=88a79bc8-1241-4a71-b58b-d75b2cff9f6e"},"vehicle_type_id":"4","last_reported":1721149645,"current_range_meters":29200,"station_id":"ce4bhq12rcd13ifvqhig","pricing_plan_id":"cebpf4jnsgd1na2vs0mg"},{"bike_id":"15d5aaf0-ed88-4cbd-8012-c35e762bddd3","system_id":"levelo_inurba_marseille","lat":43.337168,"lon":5.391825,"is_reserved":false,"is_disabled":false,"rental_uris":{"android":"levelo://app?vid=15d5aaf0-ed88-4cbd-8012-c35e762bddd3","ios":"levelo://app?vid=15d5aaf0-ed88-4cbd-8012-c35e762bddd3"},"vehicle_type_id":"4","last_reported":1721149645,"current_range_meters":11600,"station_id":"ce4bhr92rcd13ifvqhsg","pricing_plan_id":"cebpf4jnsgd1na2vs0mg"},{"bike_id":"3639068f-2f5e-4c3b-8fa9-aa7fbdbd23e7","system_id":"levelo_inurba_marseille","lat":43.33717,"lon":5.391857,"is_reserved":false,"is_disabled":false,"rental_uris":{"android":"levelo://app?vid=3639068f-2f5e-4c3b-8fa9-aa7fbdbd23e7","ios":"levelo://app?vid=3639068f-2f5e-4c3b-8fa9-aa7fbdbd23e7"},"vehicle_type_id":"4","last_reported":1721149645,"current_range_meters":13200,"station_id":"ce4bhr92rcd13ifvqhsg","pricing_plan_id":"cebpf4jnsgd1na2vs0mg"},{"bike_id":"687d1c91-0d83-4dc6-ace0-985a03ce4ebb","system_id":"levelo_inurba_marseille","lat":43.288497,"lon":5.393089,"is_reserved":false,"is_disabled":false,"rental_uris":{"android":"levelo://app?vid=687d1c91-0d83-4dc6-ace0-985a03ce4ebb","ios":"levelo://app?vid=687d1c91-0d83-4dc6-ace0-985a03ce4ebb"},"vehicle_type_id":"4","last_reported":1721149645,"current_range_meters":4400,"station_id":"ce4bh2p2rcd13ifvqdi0","pricing_plan_id":"cebpf4jnsgd1na2vs0mg"},{"bike_id":"1751b7bc-7d5e-4d5e-aa02-97f268131fd9","system_id":"levelo_inurba_marseille","lat":43.33717,"lon":5.391857,"is_reserved":false,"is_disabled":false,"rental_uris":{"android":"levelo://app?vid=1751b7bc-7d5e-4d5e-aa02-97f268131fd9","ios":"levelo://app?vid=1751b7bc-7d5e-4d5e-aa02-97f268131fd9"},"vehicle_type_id":"4","last_reported":1721149645,"current_range_meters":9200,"station_id":"ce4bhr92rcd13ifvqhsg","pricing_plan_id":"cebpf4jnsgd1na2vs0mg"},{"bike_id":"fa36c732-437e-4f56-ab2b-75a66754cc4b","system_id":"levelo_inurba_marseille","lat":43.283494,"lon":5.380945,"is_reserved":false,"is_disabled":false,"rental_uris":{"android":"levelo://app?vid=fa36c732-437e-4f56-ab2b-75a66754cc4b","ios":"levelo://app?vid=fa36c732-437e-4f56-ab2b-75a66754cc4b"},"vehicle_type_id":"4","last_reported":1721149645,"current_range_meters":26000,"station_id":"ce4bh412rcd13ifvqdr0","pricing_plan_id":"cebpf4jnsgd1na2vs0mg"},{"bike_id":"741a1e15-8acc-4b20-a8e8-5e9e9235d1d9","system_id":"levelo_inurba_marseille","lat":43.288501,"lon":5.393087,"is_reserved":false,"is_disabled":false,"rental_uris":{"android":"levelo://app?vid=741a1e15-8acc-4b20-a8e8-5e9e9235d1d9","ios":"levelo://app?vid=741a1e15-8acc-4b20-a8e8-5e9e9235d1d9"},"vehicle_type_id":"4","last_reported":1721149645,"current_range_meters":0,"station_id":"ce4bh2p2rcd13ifvqdi0","pricing_plan_id":"cebpf4jnsgd1na2vs0mg"},{"bike_id":"e855a5e0-bade-449b-bdd2-56f8550fc2c2","system_id":"levelo_inurba_marseille","lat":43.284776,"lon":5.385603,"is_reserved":false,"is_disabled":false,"rental_uris":{"android":"levelo://app?vid=e855a5e0-bade-449b-bdd2-56f8550fc2c2","ios":"levelo://app?vid=e855a5e0-bade-449b-bdd2-56f8550fc2c2"},"vehicle_type_id":"4","last_reported":1721149645,"current_range_meters":11200,"station_id":"ce4bh8p2rcd13ifvqeb0","pricing_plan_id":"cebpf4jnsgd1na2vs0mg"},{"bike_id":"afc98c0f-c4c9-4c93-b338-a38434d6a41b","system_id":"levelo_inurba_marseille","lat":43.283494,"lon":5.380945,"is_reserved":false,"is_disabled":false,"rental_uris":{"android":"levelo://app?vid=afc98c0f-c4c9-4c93-b338-a38434d6a41b","ios":"levelo://app?vid=afc98c0f-c4c9-4c93-b338-a38434d6a41b"},"vehicle_type_id":"4","last_reported":1721149645,"current_range_meters":10400,"station_id":"ce4bh412rcd13ifvqdr0","pricing_plan_id":"cebpf4jnsgd1na2vs0mg"},{"bike_id":"170d10cb-b195-49e4-963c-adf8dbda3d91","system_id":"levelo_inurba_marseille","lat":43.28439,"lon":5.3497,"is_reserved":false,"is_disabled":false,"rental_uris":{"android":"levelo://app?vid=170d10cb-b195-49e4-963c-adf8dbda3d91","ios":"levelo://app?vid=170d10cb-b195-49e4-963c-adf8dbda3d91"},"vehicle_type_id":"4","last_reported":1721149645,"current_range_meters":10400,"station_id":"ce4bhbh2rcd13ifvqepg","pricing_plan_id":"cebpf4jnsgd1na2vs0mg"},{"bike_id":"0313392b-d31a-471f-a70a-195fbda67cbe","system_id":"levelo_inurba_marseille","lat":43.28426,"lon":5.35,"is_reserved":false,"is_disabled":false,"rental_uris":{"android":"levelo://app?vid=0313392b-d31a-471f-a70a-195fbda67cbe","ios":"levelo://app?vid=0313392b-d31a-471f-a70a-195fbda67cbe"},"vehicle_type_id":"4","last_reported":1721149645,"current_range_meters":11200,"station_id":"ce4bhbh2rcd13ifvqepg","pricing_plan_id":"cebpf4jnsgd1na2vs0mg"},{"bike_id":"31a02619-0c9c-4354-924a-69e7bbe6bf07","system_id":"levelo_inurba_marseille","lat":43.284776,"lon":5.385603,"is_reserved":false,"is_disabled":false,"rental_uris":{"android":"levelo://app?vid=31a02619-0c9c-4354-924a-69e7bbe6bf07","ios":"levelo://app?vid=31a02619-0c9c-4354-924a-69e7bbe6bf07"},"vehicle_type_id":"4","last_reported":1721149645,"current_range_meters":0,"station_id":"ce4bh8p2rcd13ifvqeb0","pricing_plan_id":"cebpf4jnsgd1na2vs0mg"},{"bike_id":"1abb6c91-fd6d-470a-81a6-fae451e10b11","system_id":"levelo_inurba_marseille","lat":43.284219,"lon":5.3497,"is_reserved":false,"is_disabled":false,"rental_uris":{"android":"levelo://app?vid=1abb6c91-fd6d-470a-81a6-fae451e10b11","ios":"levelo://app?vid=1abb6c91-fd6d-470a-81a6-fae451e10b11"},"vehicle_type_id":"4","last_reported":1721149645,"current_range_meters":31600,"station_id":"ce4bhbh2rcd13ifvqepg","pricing_plan_id":"cebpf4jnsgd1na2vs0mg"},{"bike_id":"f0994eaa-52ce-48d2-905d-2a8ebc264758","system_id":"levelo_inurba_marseille","lat":43.28425,"lon":5.34998,"is_reserved":false,"is_disabled":false,"rental_uris":{"android":"levelo://app?vid=f0994eaa-52ce-48d2-905d-2a8ebc264758","ios":"levelo://app?vid=f0994eaa-52ce-48d2-905d-2a8ebc264758"},"vehicle_type_id":"4","last_reported":1721149645,"current_range_meters":20800,"station_id":"ce4bhbh2rcd13ifvqepg","pricing_plan_id":"cebpf4jnsgd1na2vs0mg"},{"bike_id":"b2ba1708-edaf-45f8-81d5-f3a3ad3a3d0a","system_id":"levelo_inurba_marseille","lat":43.28431,"lon":5.34976,"is_reserved":false,"is_disabled":false,"rental_uris":{"android":"levelo://app?vid=b2ba1708-edaf-45f8-81d5-f3a3ad3a3d0a","ios":"levelo://app?vid=b2ba1708-edaf-45f8-81d5-f3a3ad3a3d0a"},"vehicle_type_id":"4","last_reported":1721149645,"current_range_meters":0,"station_id":"ce4bhbh2rcd13ifvqepg","pricing_plan_id":"cebpf4jnsgd1na2vs0mg"},{"bike_id":"7c4ec844-3a33-4167-ae4d-0de550a7d38d","system_id":"levelo_inurba_marseille","lat":43.284219,"lon":5.3497,"is_reserved":false,"is_disabled":false,"rental_uris":{"android":"levelo://app?vid=7c4ec844-3a33-4167-ae4d-0de550a7d38d","ios":"levelo://app?vid=7c4ec844-3a33-4167-ae4d-0de550a7d38d"},"vehicle_type_id":"4","last_reported":1721149645,"current_range_meters":23600,"station_id":"ce4bhbh2rcd13ifvqepg","pricing_plan_id":"cebpf4jnsgd1na2vs0mg"},{"bike_id":"aa7e182a-bc9d-4334-934d-dd537027ee7c","system_id":"levelo_inurba_marseille","lat":43.284219,"lon":5.3497,"is_reserved":false,"is_disabled":false,"rental_uris":{"android":"levelo://app?vid=aa7e182a-bc9d-4334-934d-dd537027ee7c","ios":"levelo://app?vid=aa7e182a-bc9d-4334-934d-dd537027ee7c"},"vehicle_type_id":"4","last_reported":1721149645,"current_range_meters":2800,"station_id":"ce4bhbh2rcd13ifvqepg","pricing_plan_id":"cebpf4jnsgd1na2vs0mg"},{"bike_id":"6d3cb5df-0d9b-470c-893e-35edd0c79bd0","system_id":"levelo_inurba_marseille","lat":43.28425,"lon":5.34989,"is_reserved":false,"is_disabled":false,"rental_uris":{"android":"levelo://app?vid=6d3cb5df-0d9b-470c-893e-35edd0c79bd0","ios":"levelo://app?vid=6d3cb5df-0d9b-470c-893e-35edd0c79bd0"},"vehicle_type_id":"4","last_reported":1721149645,"current_range_meters":0,"station_id":"ce4bhbh2rcd13ifvqepg","pricing_plan_id":"cebpf4jnsgd1na2vs0mg"},{"bike_id":"f27433a5-3caf-48ed-897e-62ab358ddd00","system_id":"levelo_inurba_marseille","lat":43.284214,"lon":5.349706,"is_reserved":false,"is_disabled":false,"rental_uris":{"android":"levelo://app?vid=f27433a5-3caf-48ed-897e-62ab358ddd00","ios":"levelo://app?vid=f27433a5-3caf-48ed-897e-62ab358ddd00"},"vehicle_type_id":"4","last_reported":1721149645,"current_range_meters":30800,"station_id":"ce4bhbh2rcd13ifvqepg","pricing_plan_id":"cebpf4jnsgd1na2vs0mg"},{"bike_id":"da9c2e00-5174-4a82-a71f-a4bd9f1b6ea6","system_id":"levelo_inurba_marseille","lat":43.284236,"lon":5.349923,"is_reserved":false,"is_disabled":false,"rental_uris":{"android":"levelo://app?vid=da9c2e00-5174-4a82-a71f-a4bd9f1b6ea6","ios":"levelo://app?vid=da9c2e00-5174-4a82-a71f-a4bd9f1b6ea6"},"vehicle_type_id":"4","last_reported":1721149645,"current_range_meters":22400,"station_id":"ce4bhbh2rcd13ifvqepg","pricing_plan_id":"cebpf4jnsgd1na2vs0mg"},{"bike_id":"ef417811-1271-4f89-9713-b77befbc9ec5","system_id":"levelo_inurba_marseille","lat":43.284217,"lon":5.349697,"is_reserved":false,"is_disabled":false,"rental_uris":{"android":"levelo://app?vid=ef417811-1271-4f89-9713-b77befbc9ec5","ios":"levelo://app?vid=ef417811-1271-4f89-9713-b77befbc9ec5"},"vehicle_type_id":"4","last_reported":1721149645,"current_range_meters":23600,"station_id":"ce4bhbh2rcd13ifvqepg","pricing_plan_id":"cebpf4jnsgd1na2vs0mg"},{"bike_id":"4981ebd3-5136-4429-98f6-8eff81af20d2","system_id":"levelo_inurba_marseille","lat":43.284219,"lon":5.3497,"is_reserved":false,"is_disabled":false,"rental_uris":{"android":"levelo://app?vid=4981ebd3-5136-4429-98f6-8eff81af20d2","ios":"levelo://app?vid=4981ebd3-5136-4429-98f6-8eff81af20d2"},"vehicle_type_id":"4","last_reported":1721149645,"current_range_meters":8400,"station_id":"ce4bhbh2rcd13ifvqepg","pricing_plan_id":"cebpf4jnsgd1na2vs0mg"},{"bike_id":"529cc023-ad1a-4b70-9710-c6609a3f6824","system_id":"levelo_inurba_marseille","lat":43.284219,"lon":5.3497,"is_reserved":false,"is_disabled":false,"rental_uris":{"android":"levelo://app?vid=529cc023-ad1a-4b70-9710-c6609a3f6824","ios":"levelo://app?vid=529cc023-ad1a-4b70-9710-c6609a3f6824"},"vehicle_type_id":"4","last_reported":1721149645,"current_range_meters":5200,"station_id":"ce4bhbh2rcd13ifvqepg","pricing_plan_id":"cebpf4jnsgd1na2vs0mg"},{"bike_id":"f644e294-961a-4c37-b18b-a5ee3b18a2dd","system_id":"levelo_inurba_marseille","lat":43.28423,"lon":5.34992,"is_reserved":false,"is_disabled":false,"rental_uris":{"android":"levelo://app?vid=f644e294-961a-4c37-b18b-a5ee3b18a2dd","ios":"levelo://app?vid=f644e294-961a-4c37-b18b-a5ee3b18a2dd"},"vehicle_type_id":"4","last_reported":1721149645,"current_range_meters":0,"station_id":"ce4bhbh2rcd13ifvqepg","pricing_plan_id":"cebpf4jnsgd1na2vs0mg"},{"bike_id":"061fb7fe-369a-4a14-9755-16e00440af2b","system_id":"levelo_inurba_marseille","lat":43.28422,"lon":5.34995,"is_reserved":false,"is_disabled":false,"rental_uris":{"android":"levelo://app?vid=061fb7fe-369a-4a14-9755-16e00440af2b","ios":"levelo://app?vid=061fb7fe-369a-4a14-9755-16e00440af2b"},"vehicle_type_id":"4","last_reported":1721149645,"current_range_meters":0,"station_id":"ce4bhbh2rcd13ifvqepg","pricing_plan_id":"cebpf4jnsgd1na2vs0mg"},{"bike_id":"a0a7f92f-65a8-4fc9-b820-512e457a2aa7","system_id":"levelo_inurba_marseille","lat":43.28424,"lon":5.349887,"is_reserved":false,"is_disabled":false,"rental_uris":{"android":"levelo://app?vid=a0a7f92f-65a8-4fc9-b820-512e457a2aa7","ios":"levelo://app?vid=a0a7f92f-65a8-4fc9-b820-512e457a2aa7"},"vehicle_type_id":"4","last_reported":1721149645,"current_range_meters":30400,"station_id":"ce4bhbh2rcd13ifvqepg","pricing_plan_id":"cebpf4jnsgd1na2vs0mg"},{"bike_id":"882c24f6-e4a6-4a6d-8397-cefb9ffe7802","system_id":"levelo_inurba_marseille","lat":43.28423,"lon":5.34991,"is_reserved":false,"is_disabled":false,"rental_uris":{"android":"levelo://app?vid=882c24f6-e4a6-4a6d-8397-cefb9ffe7802","ios":"levelo://app?vid=882c24f6-e4a6-4a6d-8397-cefb9ffe7802"},"vehicle_type_id":"4","last_reported":1721149645,"current_range_meters":14800,"station_id":"ce4bhbh2rcd13ifvqepg","pricing_plan_id":"cebpf4jnsgd1na2vs0mg"},{"bike_id":"83fe76c1-c788-4312-993f-001ac4c24f51","system_id":"levelo_inurba_marseille","lat":43.28424,"lon":5.34987,"is_reserved":false,"is_disabled":false,"rental_uris":{"android":"levelo://app?vid=83fe76c1-c788-4312-993f-001ac4c24f51","ios":"levelo://app?vid=83fe76c1-c788-4312-993f-001ac4c24f51"},"vehicle_type_id":"4","last_reported":1721149645,"current_range_meters":8000,"station_id":"ce4bhbh2rcd13ifvqepg","pricing_plan_id":"cebpf4jnsgd1na2vs0mg"},{"bike_id":"d6d2377a-c1a0-4511-aa10-19bfa75d22c6","system_id":"levelo_inurba_marseille","lat":43.28427,"lon":5.34977,"is_reserved":false,"is_disabled":false,"rental_uris":{"android":"levelo://app?vid=d6d2377a-c1a0-4511-aa10-19bfa75d22c6","ios":"levelo://app?vid=d6d2377a-c1a0-4511-aa10-19bfa75d22c6"},"vehicle_type_id":"4","last_reported":1721149645,"current_range_meters":3600,"station_id":"ce4bhbh2rcd13ifvqepg","pricing_plan_id":"cebpf4jnsgd1na2vs0mg"},{"bike_id":"4c15a931-fc20-4d35-8b06-e4a3e858dcf2","system_id":"levelo_inurba_marseille","lat":43.284214,"lon":5.349706,"is_reserved":false,"is_disabled":false,"rental_uris":{"android":"levelo://app?vid=4c15a931-fc20-4d35-8b06-e4a3e858dcf2","ios":"levelo://app?vid=4c15a931-fc20-4d35-8b06-e4a3e858dcf2"},"vehicle_type_id":"4","last_reported":1721149645,"current_range_meters":25200,"station_id":"ce4bhbh2rcd13ifvqepg","pricing_plan_id":"cebpf4jnsgd1na2vs0mg"},{"bike_id":"b5309b77-c416-4b91-ab06-1ee242600763","system_id":"levelo_inurba_marseille","lat":43.28421,"lon":5.34993,"is_reserved":false,"is_disabled":false,"rental_uris":{"android":"levelo://app?vid=b5309b77-c416-4b91-ab06-1ee242600763","ios":"levelo://app?vid=b5309b77-c416-4b91-ab06-1ee242600763"},"vehicle_type_id":"4","last_reported":1721149645,"current_range_meters":14400,"station_id":"ce4bhbh2rcd13ifvqepg","pricing_plan_id":"cebpf4jnsgd1na2vs0mg"},{"bike_id":"52ffd274-24cf-4187-81d9-f0ab45bae3d1","system_id":"levelo_inurba_marseille","lat":43.284219,"lon":5.3497,"is_reserved":false,"is_disabled":false,"rental_uris":{"android":"levelo://app?vid=52ffd274-24cf-4187-81d9-f0ab45bae3d1","ios":"levelo://app?vid=52ffd274-24cf-4187-81d9-f0ab45bae3d1"},"vehicle_type_id":"4","last_reported":1721149645,"current_range_meters":8800,"station_id":"ce4bhbh2rcd13ifvqepg","pricing_plan_id":"cebpf4jnsgd1na2vs0mg"},{"bike_id":"348a6d96-973f-4764-b25e-6a4b3c4bf522","system_id":"levelo_inurba_marseille","lat":43.2842,"lon":5.34991,"is_reserved":false,"is_disabled":false,"rental_uris":{"android":"levelo://app?vid=348a6d96-973f-4764-b25e-6a4b3c4bf522","ios":"levelo://app?vid=348a6d96-973f-4764-b25e-6a4b3c4bf522"},"vehicle_type_id":"4","last_reported":1721149645,"current_range_meters":18800,"station_id":"ce4bhbh2rcd13ifvqepg","pricing_plan_id":"cebpf4jnsgd1na2vs0mg"},{"bike_id":"4a0041fb-ec88-4cec-91aa-fb18eecc075d","system_id":"levelo_inurba_marseille","lat":43.28421,"lon":5.34986,"is_reserved":false,"is_disabled":false,"rental_uris":{"android":"levelo://app?vid=4a0041fb-ec88-4cec-91aa-fb18eecc075d","ios":"levelo://app?vid=4a0041fb-ec88-4cec-91aa-fb18eecc075d"},"vehicle_type_id":"4","last_reported":1721149645,"current_range_meters":4000,"station_id":"ce4bhbh2rcd13ifvqepg","pricing_plan_id":"cebpf4jnsgd1na2vs0mg"},{"bike_id":"f9a2d18b-1bc0-437c-88ec-cf3deef28441","system_id":"levelo_inurba_marseille","lat":43.284219,"lon":5.3497,"is_reserved":false,"is_disabled":false,"rental_uris":{"android":"levelo://app?vid=f9a2d18b-1bc0-437c-88ec-cf3deef28441","ios":"levelo://app?vid=f9a2d18b-1bc0-437c-88ec-cf3deef28441"},"vehicle_type_id":"4","last_reported":1721149645,"current_range_meters":7200,"station_id":"ce4bhbh2rcd13ifvqepg","pricing_plan_id":"cebpf4jnsgd1na2vs0mg"},{"bike_id":"f8142d17-a05a-41c6-bf46-f7b0ba0a3d1c","system_id":"levelo_inurba_marseille","lat":43.284214,"lon":5.349706,"is_reserved":false,"is_disabled":false,"rental_uris":{"android":"levelo://app?vid=f8142d17-a05a-41c6-bf46-f7b0ba0a3d1c","ios":"levelo://app?vid=f8142d17-a05a-41c6-bf46-f7b0ba0a3d1c"},"vehicle_type_id":"4","last_reported":1721149645,"current_range_meters":12000,"station_id":"ce4bhbh2rcd13ifvqepg","pricing_plan_id":"cebpf4jnsgd1na2vs0mg"},{"bike_id":"f99689f9-d80a-422e-a824-f0024afe6686","system_id":"levelo_inurba_marseille","lat":43.2842,"lon":5.34988,"is_reserved":false,"is_disabled":false,"rental_uris":{"android":"levelo://app?vid=f99689f9-d80a-422e-a824-f0024afe6686","ios":"levelo://app?vid=f99689f9-d80a-422e-a824-f0024afe6686"},