{"last_updated":1711652721,"ttl":30,"version":"2.2","data":{"bikes":[{"bike_id":"e7dd8f8c-b3bc-41e4-81b4-af3a008c9715","system_id":"levelo_inurba_marseille","lat":43.31341,"lon":5.367098,"is_reserved":false,"is_disabled":false,"rental_uris":{"android":"levelo://app?vid=e7dd8f8c-b3bc-41e4-81b4-af3a008c9715","ios":"levelo://app?vid=e7dd8f8c-b3bc-41e4-81b4-af3a008c9715"},"vehicle_type_id":"4","last_reported":1711652721,"current_range_meters":10000,"station_id":"ce4bgr92rcd13ifvqc6g","pricing_plan_id":"cebpf4jnsgd1na2vs0mg"},{"bike_id":"6c2d5cc6-3cbe-469c-8b4c-eec93ea19f7d","system_id":"levelo_inurba_marseille","lat":43.313391,"lon":5.36706,"is_reserved":false,"is_disabled":false,"rental_uris":{"android":"levelo://app?vid=6c2d5cc6-3cbe-469c-8b4c-eec93ea19f7d","ios":"levelo://app?vid=6c2d5cc6-3cbe-469c-8b4c-eec93ea19f7d"},"vehicle_type_id":"4","last_reported":1711652721,"current_range_meters":0,"station_id":"ce4bgr92rcd13ifvqc6g","pricing_plan_id":"cebpf4jnsgd1na2vs0mg"},{"bike_id":"6973ff12-a2c1-4f42-8990-768983a27399","system_id":"levelo_inurba_marseille","lat":43.313391,"lon":5.36706,"is_reserved":false,"is_disabled":false,"rental_uris":{"android":"levelo://app?vid=6973ff12-a2c1-4f42-8990-768983a27399","ios":"levelo://app?vid=6973ff12-a2c1-4f42-8990-768983a27399"},"vehicle_type_id":"4","last_reported":1711652721,"current_range_meters":3200,"station_id":"ce4bgr92rcd13ifvqc6g","pricing_plan_id":"cebpf4jnsgd1na2vs0mg"},{"bike_id":"566ade26-3e30-428d-8606-280fca248d6a","system_id":"levelo_inurba_marseille","lat":43.31256,"lon":5.3685,"is_reserved":false,"is_disabled":false,"rental_uris":{"android":"levelo://app?vid=566ade26-3e30-428d-8606-280fca248d6a","ios":"levelo://app?vid=566ade26-3e30-428d-8606-280fca248d6a"},"vehicle_type_id":"4","last_reported":1711652721,"current_range_meters":10800,"station_id":"ce4bgl92rcd13ifvqbq0","pricing_plan_id":"cebpf4jnsgd1na2vs0mg"},{"bike_id":"62a9befa-b93d-4164-b591-70e62995753a","system_id":"levelo_inurba_marseille","lat":43.312239,"lon":5.368562,"is_reserved":false,"is_disabled":false,"rental_uris":{"android":"levelo://app?vid=62a9befa-b93d-4164-b591-70e62995753a","ios":"levelo://app?vid=62a9befa-b93d-4164-b591-70e62995753a"},"vehicle_type_id":"4","last_reported":1711652721,"current_range_meters":17600,"station_id":"ce4bgl92rcd13ifvqbq0","pricing_plan_id":"cebpf4jnsgd1na2vs0mg"},{"bike_id":"db014a6a-ddd0-46f1-81d3-bee429faba1e","system_id":"levelo_inurba_marseille","lat":43.30908,"lon":5.3685,"is_reserved":false,"is_disabled":false,"rental_uris":{"android":"levelo://app?vid=db014a6a-ddd0-46f1-81d3-bee429faba1e","ios":"levelo://app?vid=db014a6a-ddd0-46f1-81d3-bee429faba1e"},"vehicle_type_id":"4","last_reported":1711652721,"current_range_meters":16800,"station_id":"ce4bgn92rcd13ifvqbvg","pricing_plan_id":"cebpf4jnsgd1na2vs0mg"},{"bike_id":"dc644691-f312-445e-a1ec-61f575e6918d","system_id":"levelo_inurba_marseille","lat":43.3091,"lon":5.3686,"is_reserved":false,"is_disabled":false,"rental_uris":{"android":"levelo://app?vid=dc644691-f312-445e-a1ec-61f575e6918d","ios":"levelo://app?vid=dc644691-f312-445e-a1ec-61f575e6918d"},"vehicle_type_id":"4","last_reported":1711652721,"current_range_meters":0,"station_id":"ce4bgn92rcd13ifvqbvg","pricing_plan_id":"cebpf4jnsgd1na2vs0mg"},{"bike_id":"5f78b8c6-b5a2-4d92-a702-7cb054bca063","system_id":"levelo_inurba_marseille","lat":43.30906,"lon":5.36845,"is_reserved":false,"is_disabled":false,"rental_uris":{"android":"levelo://app?vid=5f78b8c6-b5a2-4d92-a702-7cb054bca063","ios":"levelo://app?vid=5f78b8c6-b5a2-4d92-a702-7cb054bca063"},"vehicle_type_id":"4","last_reported":1711652721,"current_range_meters":6400,"station_id":"ce4bgn92rcd13ifvqbvg","pricing_plan_id":"cebpf4jnsgd1na2vs0mg"},{"bike_id":"cf5315a6-b6a3-4b06-ad4d-c702f6ebee29","system_id":"levelo_inurba_marseille","lat":43.314811,"lon":5.373103,"is_reserved":false,"is_disabled":false,"rental_uris":{"android":"levelo://app?vid=cf5315a6-b6a3-4b06-ad4d-c702f6ebee29","ios":"levelo://app?vid=cf5315a6-b6a3-4b06-ad4d-c702f6ebee29"},"vehicle_type_id":"4","last_reported":1711652721,"current_range_meters":31600,"station_id":"ce4bgt12rcd13ifvqcd0","pricing_plan_id":"cebpf4jnsgd1na2vs0mg"},{"bike_id":"259c081b-1fe4-4fcf-9e04-1188005974ee","system_id":"levelo_inurba_marseille","lat":43.314811,"lon":5.373103,"is_reserved":false,"is_disabled":false,"rental_uris":{"android":"levelo://app?vid=259c081b-1fe4-4fcf-9e04-1188005974ee","ios":"levelo://app?vid=259c081b-1fe4-4fcf-9e04-1188005974ee"},"vehicle_type_id":"4","last_reported":1711652721,"current_range_meters":1600,"station_id":"ce4bgt12rcd13ifvqcd0","pricing_plan_id":"cebpf4jnsgd1na2vs0mg"},{"bike_id":"5d8166b7-84fe-449a-a4ce-c64c5013d25c","system_id":"levelo_inurba_marseille","lat":43.314811,"lon":5.373103,"is_reserved":false,"is_disabled":false,"rental_uris":{"android":"levelo://app?vid=5d8166b7-84fe-449a-a4ce-c64c5013d25c","ios":"levelo://app?vid=5d8166b7-84fe-449a-a4ce-c64c5013d25c"},"vehicle_type_id":"4","last_reported":1711652721,"current_range_meters":16400,"station_id":"ce4bgt12rcd13ifvqcd0","pricing_plan_id":"cebpf4jnsgd1na2vs0mg"},{"bike_id":"cc397b1f-865e-46c0-8b4b-028cb78e8c42","system_id":"levelo_inurba_marseille","lat":43.314811,"lon":5.373103,"is_reserved":false,"is_disabled":false,"rental_uris":{"android":"levelo://app?vid=cc397b1f-865e-46c0-8b4b-028cb78e8c42","ios":"levelo://app?vid=cc397b1f-865e-46c0-8b4b-028cb78e8c42"},"vehicle_type_id":"4","last_reported":1711652721,"current_range_meters":0,"station_id":"ce4bgt12rcd13ifvqcd0","pricing_plan_id":"cebpf4jnsgd1na2vs0mg"},{"bike_id":"1f402ea2-1735-4c7b-a5a5-13eb352915de","system_id":"levelo_inurba_marseille","lat":43.31487,"lon":5.37303,"is_reserved":false,"is_disabled":false,"rental_uris":{"android":"levelo://app?vid=1f402ea2-1735-4c7b-a5a5-13eb352915de","ios":"levelo://app?vid=1f402ea2-1735-4c7b-a5a5-13eb352915de"},"vehicle_type_id":"4","last_reported":1711652721,"current_range_meters":2400,"station_id":"ce4bgt12rcd13ifvqcd0","pricing_plan_id":"cebpf4jnsgd1na2vs0mg"},{"bike_id":"d71926af-d7e2-47bc-985e-5f821e6683d4","system_id":"levelo_inurba_marseille","lat":43.314811,"lon":5.373103,"is_reserved":false,"is_disabled":false,"rental_uris":{"android":"levelo://app?vid=d71926af-d7e2-47bc-985e-5f821e6683d4","ios":"levelo://app?vid=d71926af-d7e2-47bc-985e-5f821e6683d4"},"vehicle_type_id":"4","last_reported":1711652721,"current_range_meters":21200,"station_id":"ce4bgt12rcd13ifvqcd0","pricing_plan_id":"cebpf4jnsgd1na2vs0mg"},{"bike_id":"6d16cd8b-bc61-442d-9911-2a1cfbae64fb","system_id":"levelo_inurba_marseille","lat":43.314811,"lon":5.373104,"is_reserved":false,"is_disabled":false,"rental_uris":{"android":"levelo://app?vid=6d16cd8b-bc61-442d-9911-2a1cfbae64fb","ios":"levelo://app?vid=6d16cd8b-bc61-442d-9911-2a1cfbae64fb"},"vehicle_type_id":"4","last_reported":1711652721,"current_range_meters":31200,"station_id":"ce4bgt12rcd13ifvqcd0","pricing_plan_id":"cebpf4jnsgd1na2vs0mg"},{"bike_id":"da659122-8556-4864-818a-927bc946980a","system_id":"levelo_inurba_marseille","lat":43.314811,"lon":5.373103,"is_reserved":false,"is_disabled":false,"rental_uris":{"android":"levelo://app?vid=da659122-8556-4864-818a-927bc946980a","ios":"levelo://app?vid=da659122-8556-4864-818a-927bc946980a"},"vehicle_type_id":"4","last_reported":1711652721,"current_range_meters":2800,"station_id":"ce4bgt12rcd13ifvqcd0","pricing_plan_id":"cebpf4jnsgd1na2vs0mg"},{"bike_id":"487f9b2a-8e22-4a5d-bb84-5d2c3cd6c73a","system_id":"levelo_inurba_marseille","lat":43.314811,"lon":5.373103,"is_reserved":false,"is_disabled":false,"rental_uris":{"android":"levelo://app?vid=487f9b2a-8e22-4a5d-bb84-5d2c3cd6c73a","ios":"levelo://app?vid=487f9b2a-8e22-4a5d-bb84-5d2c3cd6c73a"},"vehicle_type_id":"4","last_reported":1711652721,"current_range_meters":0,"station_id":"ce4bgt12rcd13ifvqcd0","pricing_plan_id":"cebpf4jnsgd1na2vs0mg"},{"bike_id":"f45ca928-8919-4287-b7b7-5d15bf1d66b1","system_id":"levelo_inurba_marseille","lat":43.314811,"lon":5.373104,"is_reserved":false,"is_disabled":false,"rental_uris":{"android":"levelo://app?vid=f45ca928-8919-4287-b7b7-5d15bf1d66b1","ios":"levelo://app?vid=f45ca928-8919-4287-b7b7-5d15bf1d66b1"},"vehicle_type_id":"4","last_reported":1711652721,"current_range_meters":31200,"station_id":"ce4bgt12rcd13ifvqcd0","pricing_plan_id":"cebpf4jnsgd1na2vs0mg"},{"bike_id":"3a3c5801-38ea-4675-b53f-97bedb17ff0a","system_id":"levelo_inurba_marseille","lat":43.314811,"lon":5.373103,"is_reserved":false,"is_disabled":false,"rental_uris":{"android":"levelo://app?vid=3a3c5801-38ea-4675-b53f-97bedb17ff0a","ios":"levelo://app?vid=3a3c5801-38ea-4675-b53f-97bedb17ff0a"},"vehicle_type_id":"4","last_reported":1711652721,"current_range_meters":19600,"station_id":"ce4bgt12rcd13ifvqcd0","pricing_plan_id":"cebpf4jnsgd1na2vs0mg"},{"bike_id":"6dcd76ec-7f8c-45f4-8e4f-da00f74c6195","system_id":"levelo_inurba_marseille","lat":43.314811,"lon":5.373103,"is_reserved":false,"is_disabled":false,"rental_uris":{"android":"levelo://app?vid=6dcd76ec-7f8c-45f4-8e4f-da00f74c6195","ios":"levelo://app?vid=6dcd76ec-7f8c-45f4-8e4f-da00f74c6195"},"vehicle_type_id":"4","last_reported":1711652721,"current_range_meters":18800,"station_id":"ce4bgt12rcd13ifvqcd0","pricing_plan_id":"cebpf4jnsgd1na2vs0mg"},{"bike_id":"f3da0304-6d14-4d86-aa59-21a9c391de06","system_id":"levelo_inurba_marseille","lat":43.314811,"lon":5.373104,"is_reserved":false,"is_disabled":false,"rental_uris":{"android":"levelo://app?vid=f3da0304-6d14-4d86-aa59-21a9c391de06","ios":"levelo://app?vid=f3da0304-6d14-4d86-aa59-21a9c391de06"},"vehicle_type_id":"4","last_reported":1711652721,"current_range_meters":31200,"station_id":"ce4bgt12rcd13ifvqcd0","pricing_plan_id":"cebpf4jnsgd1na2vs0mg"},{"bike_id":"5e1e7046-4d0c-4c27-998b-7d9083d2ebcc","system_id":"levelo_inurba_marseille","lat":43.314811,"lon":5.373104,"is_reserved":false,"is_disabled":false,"rental_uris":{"android":"levelo://app?vid=5e1e7046-4d0c-4c27-998b-7d9083d2ebcc","ios":"levelo://app?vid=5e1e7046-4d0c-4c27-998b-7d9083d2ebcc"},"vehicle_type_id":"4","last_reported":1711652721,"current_range_meters":18400,"station_id":"ce4bgt12rcd13ifvqcd0","pricing_plan_id":"cebpf4jnsgd1na2vs0mg"},{"bike_id":"a9347e62-727e-4ef2-b779-d6a8f9a2ff3e","system_id":"levelo_inurba_marseille","lat":43.31497,"lon":5.37312,"is_reserved":false,"is_disabled":false,"rental_uris":{"android":"levelo://app?vid=a9347e62-727e-4ef2-b779-d6a8f9a2ff3e","ios":"levelo://app?vid=a9347e62-727e-4ef2-b779-d6a8f9a2ff3e"},"vehicle_type_id":"4","last_reported":1711652721,"current_range_meters":24400,"station_id":"ce4bgt12rcd13ifvqcd0","pricing_plan_id":"cebpf4jnsgd1na2vs0mg"},{"bike_id":"7ae14033-89e2-4bd7-bd01-d4b9549b87bd","system_id":"levelo_inurba_marseille","lat":43.305427,"lon":5.367179,"is_reserved":false,"is_disabled":false,"rental_uris":{"android":"levelo://app?vid=7ae14033-89e2-4bd7-bd01-d4b9549b87bd","ios":"levelo://app?vid=7ae14033-89e2-4bd7-bd01-d4b9549b87bd"},"vehicle_type_id":"4","last_reported":1711652721,"current_range_meters":1200,"station_id":"ce4bgrp2rcd13ifvqc9g","pricing_plan_id":"cebpf4jnsgd1na2vs0mg"},{"bike_id":"6c51b647-6501-4ef7-808e-db7897101837","system_id":"levelo_inurba_marseille","lat":43.305443,"lon":5.365435,"is_reserved":false,"is_disabled":false,"rental_uris":{"android":"levelo://app?vid=6c51b647-6501-4ef7-808e-db7897101837","ios":"levelo://app?vid=6c51b647-6501-4ef7-808e-db7897101837"},"vehicle_type_id":"4","last_reported":1711652721,"current_range_meters":0,"station_id":"ce4bgs12rcd13ifvqcag","pricing_plan_id":"cebpf4jnsgd1na2vs0mg"},{"bike_id":"a85998bb-f37b-4d1e-877e-ef8d5bcfdb70","system_id":"levelo_inurba_marseille","lat":43.305989,"lon":5.37225,"is_reserved":false,"is_disabled":false,"rental_uris":{"android":"levelo://app?vid=a85998bb-f37b-4d1e-877e-ef8d5bcfdb70","ios":"levelo://app?vid=a85998bb-f37b-4d1e-877e-ef8d5bcfdb70"},"vehicle_type_id":"4","last_reported":1711652721,"current_range_meters":10000,"station_id":"ce4bgqh2rcd13ifvqc4g","pricing_plan_id":"cebpf4jnsgd1na2vs0mg"},{"bike_id":"e425313e-71f9-4bb8-8e17-71c1db61858b","system_id":"levelo_inurba_marseille","lat":43.305989,"lon":5.37225,"is_reserved":false,"is_disabled":false,"rental_uris":{"android":"levelo://app?vid=e425313e-71f9-4bb8-8e17-71c1db61858b","ios":"levelo://app?vid=e425313e-71f9-4bb8-8e17-71c1db61858b"},"vehicle_type_id":"4","last_reported":1711652721,"current_range_meters":10000,"station_id":"ce4bgqh2rcd13ifvqc4g","pricing_plan_id":"cebpf4jnsgd1na2vs0mg"},{"bike_id":"ea581a77-e58b-4328-8163-9214d2d3fbb2","system_id":"levelo_inurba_marseille","lat":43.305989,"lon":5.37225,"is_reserved":false,"is_disabled":false,"rental_uris":{"android":"levelo://app?vid=ea581a77-e58b-4328-8163-9214d2d3fbb2","ios":"levelo://app?vid=ea581a77-e58b-4328-8163-9214d2d3fbb2"},"vehicle_type_id":"4","last_reported":1711652721,"current_range_meters":7600,"station_id":"ce4bgqh2rcd13ifvqc4g","pricing_plan_id":"cebpf4jnsgd1na2vs0mg"},{"bike_id":"3e599b6c-0319-4bb2-a71d-dc2e1fb8698d","system_id":"levelo_inurba_marseille","lat":43.305989,"lon":5.37225,"is_reserved":false,"is_disabled":false,"rental_uris":{"android":"levelo://app?vid=3e599b6c-0319-4bb2-a71d-dc2e1fb8698d","ios":"levelo://app?vid=3e599b6c-0319-4bb2-a71d-dc2e1fb8698d"},"vehicle_type_id":"4","last_reported":1711652721,"current_range_meters":21600,"station_id":"ce4bgqh2rcd13ifvqc4g","pricing_plan_id":"cebpf4jnsgd1na2vs0mg"},{"bike_id":"a6849f47-8f9b-478d-b7b1-414aaba28be6","system_id":"levelo_inurba_marseille","lat":43.311125,"lon":5.377624,"is_reserved":false,"is_disabled":false,"rental_uris":{"android":"levelo://app?vid=a6849f47-8f9b-478d-b7b1-414aaba28be6","ios":"levelo://app?vid=a6849f47-8f9b-478d-b7b1-414aaba28be6"},"vehicle_type_id":"4","last_reported":1711652721,"current_range_meters":1600,"station_id":"ce4bgt92rcd13ifvqcg0","pricing_plan_id":"cebpf4jnsgd1na2vs0mg"},{"bike_id":"bc37a91f-9492-45f4-9225-731e795c0928","system_id":"levelo_inurba_marseille","lat":43.311125,"lon":5.377624,"is_reserved":false,"is_disabled":false,"rental_uris":{"android":"levelo://app?vid=bc37a91f-9492-45f4-9225-731e795c0928","ios":"levelo://app?vid=bc37a91f-9492-45f4-9225-731e795c0928"},"vehicle_type_id":"4","last_reported":1711652721,"current_range_meters":25200,"station_id":"ce4bgt92rcd13ifvqcg0","pricing_plan_id":"cebpf4jnsgd1na2vs0mg"},{"bike_id":"c2161c94-e0b2-4121-a717-126b42e0098f","system_id":"levelo_inurba_marseille","lat":43.311174,"lon":5.377694,"is_reserved":false,"is_disabled":false,"rental_uris":{"android":"levelo://app?vid=c2161c94-e0b2-4121-a717-126b42e0098f","ios":"levelo://app?vid=c2161c94-e0b2-4121-a717-126b42e0098f"},"vehicle_type_id":"4","last_reported":1711652721,"current_range_meters":0,"station_id":"ce4bgt92rcd13ifvqcg0","pricing_plan_id":"cebpf4jnsgd1na2vs0mg"},{"bike_id":"8ca7779c-886c-483f-8c9d-25dd34ff749e","system_id":"levelo_inurba_marseille","lat":43.307945,"lon":5.376487,"is_reserved":false,"is_disabled":false,"rental_uris":{"android":"levelo://app?vid=8ca7779c-886c-483f-8c9d-25dd34ff749e","ios":"levelo://app?vid=8ca7779c-886c-483f-8c9d-25dd34ff749e"},"vehicle_type_id":"4","last_reported":1711652721,"current_range_meters":7600,"station_id":"ce4bgv92rcd13ifvqcq0","pricing_plan_id":"cebpf4jnsgd1na2vs0mg"},{"bike_id":"bbfed310-f5ca-41c8-bf3a-f83cd6959697","system_id":"levelo_inurba_marseille","lat":43.31335,"lon":5.378742,"is_reserved":false,"is_disabled":false,"rental_uris":{"android":"levelo://app?vid=bbfed310-f5ca-41c8-bf3a-f83cd6959697","ios":"levelo://app?vid=bbfed310-f5ca-41c8-bf3a-f83cd6959697"},"vehicle_type_id":"4","last_reported":1711652721,"current_range_meters":27600,"station_id":"","pricing_plan_id":"cebpf4jnsgd1na2vs0mg"},{"bike_id":"5cbfd4c0-f04e-46a5-8a34-49703ffe229d","system_id":"levelo_inurba_marseille","lat":43.317075,"lon":5.377367,"is_reserved":false,"is_disabled":false,"rental_uris":{"android":"levelo://app?vid=5cbfd4c0-f04e-46a5-8a34-49703ffe229d","ios":"levelo://app?vid=5cbfd4c0-f04e-46a5-8a34-49703ffe229d"},"vehicle_type_id":"4","last_reported":1711652721,"current_range_meters":28400,"station_id":"ce4bgth2rcd13ifvqch0","pricing_plan_id":"cebpf4jnsgd1na2vs0mg"},{"bike_id":"57d2a38c-789b-4b47-9c68-cb8f23eb6e2b","system_id":"levelo_inurba_marseille","lat":43.317075,"lon":5.377367,"is_reserved":false,"is_disabled":false,"rental_uris":{"android":"levelo://app?vid=57d2a38c-789b-4b47-9c68-cb8f23eb6e2b","ios":"levelo://app?vid=57d2a38c-789b-4b47-9c68-cb8f23eb6e2b"},"vehicle_type_id":"4","last_reported":1711652721,"current_range_meters":16000,"station_id":"ce4bgth2rcd13ifvqch0","pricing_plan_id":"cebpf4jnsgd1na2vs0mg"},{"bike_id":"3ed2df49-b2a5-4776-92e1-a1aa558dfb80","system_id":"levelo_inurba_marseille","lat":43.311722,"lon":5.379843,"is_reserved":false,"is_disabled":false,"rental_uris":{"android":"levelo://app?vid=3ed2df49-b2a5-4776-92e1-a1aa558dfb80","ios":"levelo://app?vid=3ed2df49-b2a5-4776-92e1-a1aa558dfb80"},"vehicle_type_id":"4","last_reported":1711652721,"current_range_meters":0,"station_id":"","pricing_plan_id":"cebpf4jnsgd1na2vs0mg"},{"bike_id":"c172662a-bee3-4c2d-963d-2ca8c8fd4e8d","system_id":"levelo_inurba_marseille","lat":43.303046,"lon":5.368981,"is_reserved":false,"is_disabled":false,"rental_uris":{"android":"levelo://app?vid=c172662a-bee3-4c2d-963d-2ca8c8fd4e8d","ios":"levelo://app?vid=c172662a-bee3-4c2d-963d-2ca8c8fd4e8d"},"vehicle_type_id":"4","last_reported":1711652721,"current_range_meters":1600,"station_id":"ce4bgqh2rcd13ifvqc5g","pricing_plan_id":"cebpf4jnsgd1na2vs0mg"},{"bike_id":"48eff216-1378-4aa9-aee2-051ca7e75abf","system_id":"levelo_inurba_marseille","lat":43.303046,"lon":5.368981,"is_reserved":false,"is_disabled":false,"rental_uris":{"android":"levelo://app?vid=48eff216-1378-4aa9-aee2-051ca7e75abf","ios":"levelo://app?vid=48eff216-1378-4aa9-aee2-051ca7e75abf"},"vehicle_type_id":"4","last_reported":1711652721,"current_range_meters":2800,"station_id":"ce4bgqh2rcd13ifvqc5g","pricing_plan_id":"cebpf4jnsgd1na2vs0mg"},{"bike_id":"f3cf0b4b-c8e6-4e3a-acbd-b69c53063734","system_id":"levelo_inurba_marseille","lat":43.302623,"lon":5.3691,"is_reserved":false,"is_disabled":false,"rental_uris":{"android":"levelo://app?vid=f3cf0b4b-c8e6-4e3a-acbd-b69c53063734","ios":"levelo://app?vid=f3cf0b4b-c8e6-4e3a-acbd-b69c53063734"},"vehicle_type_id":"4","last_reported":1711652721,"current_range_meters":29600,"station_id":"","pricing_plan_id":"cebpf4jnsgd1na2vs0mg"},{"bike_id":"c5e699e6-eebf-4d26-8034-84a00ccb6f45","system_id":"levelo_inurba_marseille","lat":43.301972,"lon":5.366258,"is_reserved":false,"is_disabled":false,"rental_uris":{"android":"levelo://app?vid=c5e699e6-eebf-4d26-8034-84a00ccb6f45","ios":"levelo://app?vid=c5e699e6-eebf-4d26-8034-84a00ccb6f45"},"vehicle_type_id":"4","last_reported":1711652721,"current_range_meters":0,"station_id":"ce4bgrh2rcd13ifvqc8g","pricing_plan_id":"cebpf4jnsgd1na2vs0mg"},{"bike_id":"917bbf15-9872-4774-b0e5-991899ce8178","system_id":"levelo_inurba_marseille","lat":43.30466,"lon":5.37908,"is_reserved":false,"is_disabled":false,"rental_uris":{"android":"levelo://app?vid=917bbf15-9872-4774-b0e5-991899ce8178","ios":"levelo://app?vid=917bbf15-9872-4774-b0e5-991899ce8178"},"vehicle_type_id":"4","last_reported":1711652721,"current_range_meters":0,"station_id":"ce4bgup2rcd13ifvqcn0","pricing_plan_id":"cebpf4jnsgd1na2vs0mg"},{"bike_id":"1bf0e086-200f-4676-aa95-1c2ee6866574","system_id":"levelo_inurba_marseille","lat":43.324771,"lon":5.36557,"is_reserved":false,"is_disabled":false,"rental_uris":{"android":"levelo://app?vid=1bf0e086-200f-4676-aa95-1c2ee6866574","ios":"levelo://app?vid=1bf0e086-200f-4676-aa95-1c2ee6866574"},"vehicle_type_id":"4","last_reported":1711652721,"current_range_meters":7600,"station_id":"ce4bhs12rcd13ifvqhvg","pricing_plan_id":"cebpf4jnsgd1na2vs0mg"},{"bike_id":"097efd98-a822-4dba-9e65-4e37aa449e76","system_id":"levelo_inurba_marseille","lat":43.3045,"lon":5.379067,"is_reserved":false,"is_disabled":false,"rental_uris":{"android":"levelo://app?vid=097efd98-a822-4dba-9e65-4e37aa449e76","ios":"levelo://app?vid=097efd98-a822-4dba-9e65-4e37aa449e76"},"vehicle_type_id":"4","last_reported":1711652721,"current_range_meters":0,"station_id":"ce4bgup2rcd13ifvqcn0","pricing_plan_id":"cebpf4jnsgd1na2vs0mg"},{"bike_id":"df1abeda-a3c0-4b6c-a55d-7726b899ac52","system_id":"levelo_inurba_marseille","lat":43.324805,"lon":5.36572,"is_reserved":false,"is_disabled":false,"rental_uris":{"android":"levelo://app?vid=df1abeda-a3c0-4b6c-a55d-7726b899ac52","ios":"levelo://app?vid=df1abeda-a3c0-4b6c-a55d-7726b899ac52"},"vehicle_type_id":"4","last_reported":1711652721,"current_range_meters":2000,"station_id":"ce4bhs12rcd13ifvqhvg","pricing_plan_id":"cebpf4jnsgd1na2vs0mg"},{"bike_id":"130e069b-8fc6-4ee8-97cd-0c4f45529b1e","system_id":"levelo_inurba_marseille","lat":43.324771,"lon":5.36557,"is_reserved":false,"is_disabled":false,"rental_uris":{"android":"levelo://app?vid=130e069b-8fc6-4ee8-97cd-0c4f45529b1e","ios":"levelo://app?vid=130e069b-8fc6-4ee8-97cd-0c4f45529b1e"},"vehicle_type_id":"4","last_reported":1711652721,"current_range_meters":10000,"station_id":"ce4bhs12rcd13ifvqhvg","pricing_plan_id":"cebpf4jnsgd1na2vs0mg"},{"bike_id":"f6f72ee2-3f0f-4fe4-910a-0ab1c3a2398f","system_id":"levelo_inurba_marseille","lat":43.324771,"lon":5.36557,"is_reserved":false,"is_disabled":false,"rental_uris":{"android":"levelo://app?vid=f6f72ee2-3f0f-4fe4-910a-0ab1c3a2398f","ios":"levelo://app?vid=f6f72ee2-3f0f-4fe4-910a-0ab1c3a2398f"},"vehicle_type_id":"4","last_reported":1711652721,"current_range_meters":10000,"station_id":"ce4bhs12rcd13ifvqhvg","pricing_plan_id":"cebpf4jnsgd1na2vs0mg"},{"bike_id":"d7e593ae-0e04-4801-88d6-585d610f28a0","system_id":"levelo_inurba_marseille","lat":43.324771,"lon":5.36557,"is_reserved":false,"is_disabled":false,"rental_uris":{"android":"levelo://app?vid=d7e593ae-0e04-4801-88d6-585d610f28a0","ios":"levelo://app?vid=d7e593ae-0e04-4801-88d6-585d610f28a0"},"vehicle_type_id":"4","last_reported":1711652721,"current_range_meters":9200,"station_id":"ce4bhs12rcd13ifvqhvg","pricing_plan_id":"cebpf4jnsgd1na2vs0mg"},{"bike_id":"efba47c0-0371-4a8b-b1a3-18cb5de7595a","system_id":"levelo_inurba_marseille","lat":43.310696,"lon":5.383581,"is_reserved":false,"is_disabled":false,"rental_uris":{"android":"levelo://app?vid=efba47c0-0371-4a8b-b1a3-18cb5de7595a","ios":"levelo://app?vid=efba47c0-0371-4a8b-b1a3-18cb5de7595a"},"vehicle_type_id":"4","last_reported":1711652721,"current_range_meters":0,"station_id":"ce4bgv92rcd13ifvqcr0","pricing_plan_id":"cebpf4jnsgd1na2vs0mg"},{"bike_id":"6458ded8-b0ea-4208-8108-bf4cf46393d5","system_id":"levelo_inurba_marseille","lat":43.308012,"lon":5.381511,"is_reserved":false,"is_disabled":false,"rental_uris":{"android":"levelo://app?vid=6458ded8-b0ea-4208-8108-bf4cf46393d5","ios":"levelo://app?vid=6458ded8-b0ea-4208-8108-bf4cf46393d5"},"vehicle_type_id":"4","last_reported":1711652721,"current_range_meters":18000,"station_id":"ce4bgt12rcd13ifvqce0","pricing_plan_id":"cebpf4jnsgd1na2vs0mg"},{"bike_id":"664325a9-9ff3-464f-9c5f-b84ee08904d8","system_id":"levelo_inurba_marseille","lat":43.30281,"lon":5.37702,"is_reserved":false,"is_disabled":false,"rental_uris":{"android":"levelo://app?vid=664325a9-9ff3-464f-9c5f-b84ee08904d8","ios":"levelo://app?vid=664325a9-9ff3-464f-9c5f-b84ee08904d8"},"vehicle_type_id":"4","last_reported":1711652721,"current_range_meters":3600,"station_id":"ce4bguh2rcd13ifvqcj0","pricing_plan_id":"cebpf4jnsgd1na2vs0mg"},{"bike_id":"2ddce645-6c92-4121-8b01-2b6522641649","system_id":"levelo_inurba_marseille","lat":43.30272,"lon":5.3772,"is_reserved":false,"is_disabled":false,"rental_uris":{"android":"levelo://app?vid=2ddce645-6c92-4121-8b01-2b6522641649","ios":"levelo://app?vid=2ddce645-6c92-4121-8b01-2b6522641649"},"vehicle_type_id":"4","last_reported":1711652721,"current_range_meters":10800,"station_id":"ce4bguh2rcd13ifvqcj0","pricing_plan_id":"cebpf4jnsgd1na2vs0mg"},{"bike_id":"bd231c0a-2e9a-4753-9143-34a921226e99","system_id":"levelo_inurba_marseille","lat":43.319924,"lon":5.381484,"is_reserved":false,"is_disabled":false,"rental_uris":{"android":"levelo://app?vid=bd231c0a-2e9a-4753-9143-34a921226e99","ios":"levelo://app?vid=bd231c0a-2e9a-4753-9143-34a921226e99"},"vehicle_type_id":"4","last_reported":1711652721,"current_range_meters":30000,"station_id":"","pricing_plan_id":"cebpf4jnsgd1na2vs0mg"},{"bike_id":"8b8c6300-4212-4ac4-9069-67ea75b4870b","system_id":"levelo_inurba_marseille","lat":43.319935,"lon":5.381699,"is_reserved":false,"is_disabled":false,"rental_uris":{"android":"levelo://app?vid=8b8c6300-4212-4ac4-9069-67ea75b4870b","ios":"levelo://app?vid=8b8c6300-4212-4ac4-9069-67ea75b4870b"},"vehicle_type_id":"4","last_reported":1711652721,"current_range_meters":26800,"station_id":"ce4bhr12rcd13ifvqhpg","pricing_plan_id":"cebpf4jnsgd1na2vs0mg"},{"bike_id":"d83131e9-d0e9-4575-a002-863fd07a027f","system_id":"levelo_inurba_marseille","lat":43.319935,"lon":5.381699,"is_reserved":false,"is_disabled":false,"rental_uris":{"android":"levelo://app?vid=d83131e9-d0e9-4575-a002-863fd07a027f","ios":"levelo://app?vid=d83131e9-d0e9-4575-a002-863fd07a027f"},"vehicle_type_id":"4","last_reported":1711652721,"current_range_meters":2000,"station_id":"ce4bhr12rcd13ifvqhpg","pricing_plan_id":"cebpf4jnsgd1na2vs0mg"},{"bike_id":"f1a54125-3819-4398-bfe1-38963f6cc47c","system_id":"levelo_inurba_marseille","lat":43.29994,"lon":5.36572,"is_reserved":false,"is_disabled":false,"rental_uris":{"android":"levelo://app?vid=f1a54125-3819-4398-bfe1-38963f6cc47c","ios":"levelo://app?vid=f1a54125-3819-4398-bfe1-38963f6cc47c"},"vehicle_type_id":"4","last_reported":1711652721,"current_range_meters":5200,"station_id":"","pricing_plan_id":"cebpf4jnsgd1na2vs0mg"},{"bike_id":"a263493d-bdcb-4178-8daa-6a519ed8256b","system_id":"levelo_inurba_marseille","lat":43.319935,"lon":5.381699,"is_reserved":false,"is_disabled":false,"rental_uris":{"android":"levelo://app?vid=a263493d-bdcb-4178-8daa-6a519ed8256b","ios":"levelo://app?vid=a263493d-bdcb-4178-8daa-6a519ed8256b"},"vehicle_type_id":"4","last_reported":1711652721,"current_range_meters":11200,"station_id":"ce4bhr12rcd13ifvqhpg","pricing_plan_id":"cebpf4jnsgd1na2vs0mg"},{"bike_id":"2ae5a75f-5fbf-4f46-a5ac-b50798bc8faf","system_id":"levelo_inurba_marseille","lat":43.319935,"lon":5.381699,"is_reserved":false,"is_disabled":false,"rental_uris":{"android":"levelo://app?vid=2ae5a75f-5fbf-4f46-a5ac-b50798bc8faf","ios":"levelo://app?vid=2ae5a75f-5fbf-4f46-a5ac-b50798bc8faf"},"vehicle_type_id":"4","last_reported":1711652721,"current_range_meters":8000,"station_id":"ce4bhr12rcd13ifvqhpg","pricing_plan_id":"cebpf4jnsgd1na2vs0mg"},{"bike_id":"2af1d108-4dc8-44a3-bcf4-a0e0ba937b8d","system_id":"levelo_inurba_marseille","lat":43.319935,"lon":5.381699,"is_reserved":false,"is_disabled":false,"rental_uris":{"android":"levelo://app?vid=2af1d108-4dc8-44a3-bcf4-a0e0ba937b8d","ios":"levelo://app?vid=2af1d108-4dc8-44a3-bcf4-a0e0ba937b8d"},"vehicle_type_id":"4","last_reported":1711652721,"current_range_meters":17600,"station_id":"ce4bhr12rcd13ifvqhpg","pricing_plan_id":"cebpf4jnsgd1na2vs0mg"},{"bike_id":"025d23b1-87d1-4525-90ad-12caa2232c62","system_id":"levelo_inurba_marseille","lat":43.319935,"lon":5.381699,"is_reserved":false,"is_disabled":false,"rental_uris":{"android":"levelo://app?vid=025d23b1-87d1-4525-90ad-12caa2232c62","ios":"levelo://app?vid=025d23b1-87d1-4525-90ad-12caa2232c62"},"vehicle_type_id":"4","last_reported":1711652721,"current_range_meters":12400,"station_id":"ce4bhr12rcd13ifvqhpg","pricing_plan_id":"cebpf4jnsgd1na2vs0mg"},{"bike_id":"ae653ebc-2cb7-4d32-aeb5-9accc5b2c8eb","system_id":"levelo_inurba_marseille","lat":43.319935,"lon":5.381699,"is_reserved":false,"is_disabled":false,"rental_uris":{"android":"levelo://app?vid=ae653ebc-2cb7-4d32-aeb5-9accc5b2c8eb","ios":"levelo://app?vid=ae653ebc-2cb7-4d32-aeb5-9accc5b2c8eb"},"vehicle_type_id":"4","last_reported":1711652721,"current_range_meters":7600,"station_id":"ce4bhr12rcd13ifvqhpg","pricing_plan_id":"cebpf4jnsgd1na2vs0mg"},{"bike_id":"82e0ac95-19ac-44d1-a4e4-74cef857f1ae","system_id":"levelo_inurba_marseille","lat":43.31368,"lon":5.38486,"is_reserved":false,"is_disabled":false,"rental_uris":{"android":"levelo://app?vid=82e0ac95-19ac-44d1-a4e4-74cef857f1ae","ios":"levelo://app?vid=82e0ac95-19ac-44d1-a4e4-74cef857f1ae"},"vehicle_type_id":"4","last_reported":1711652721,"current_range_meters":400,"station_id":"ce4bgt92rcd13ifvqcf0","pricing_plan_id":"cebpf4jnsgd1na2vs0mg"},{"bike_id":"8b08e89f-3eeb-413b-bc74-e6f2384e1496","system_id":"levelo_inurba_marseille","lat":43.313612,"lon":5.38487,"is_reserved":false,"is_disabled":false,"rental_uris":{"android":"levelo://app?vid=8b08e89f-3eeb-413b-bc74-e6f2384e1496","ios":"levelo://app?vid=8b08e89f-3eeb-413b-bc74-e6f2384e1496"},"vehicle_type_id":"4","last_reported":1711652721,"current_range_meters":400,"station_id":"ce4bgt92rcd13ifvqcf0","pricing_plan_id":"cebpf4jnsgd1na2vs0mg"},{"bike_id":"2278ca68-19a7-46b0-9aa4-8c8ba78015cb","system_id":"levelo_inurba_marseille","lat":43.313571,"lon":5.384829,"is_reserved":false,"is_disabled":false,"rental_uris":{"android":"levelo://app?vid=2278ca68-19a7-46b0-9aa4-8c8ba78015cb","ios":"levelo://app?vid=2278ca68-19a7-46b0-9aa4-8c8ba78015cb"},"vehicle_type_id":"4","last_reported":1711652721,"current_range_meters":14000,"station_id":"ce4bgt92rcd13ifvqcf0","pricing_plan_id":"cebpf4jnsgd1na2vs0mg"},{"bike_id":"0082a250-6e13-4d7c-b847-331d80e74e23","system_id":"levelo_inurba_marseille","lat":43.313571,"lon":5.384829,"is_reserved":false,"is_disabled":false,"rental_uris":{"android":"levelo://app?vid=0082a250-6e13-4d7c-b847-331d80e74e23","ios":"levelo://app?vid=0082a250-6e13-4d7c-b847-331d80e74e23"},"vehicle_type_id":"4","last_reported":1711652721,"current_range_meters":8800,"station_id":"ce4bgt92rcd13ifvqcf0","pricing_plan_id":"cebpf4jnsgd1na2vs0mg"},{"bike_id":"1b363d3c-0ecd-4da3-9e29-2529566988f0","system_id":"levelo_inurba_marseille","lat":43.313571,"lon":5.384829,"is_reserved":false,"is_disabled":false,"rental_uris":{"android":"levelo://app?vid=1b363d3c-0ecd-4da3-9e29-2529566988f0","ios":"levelo://app?vid=1b363d3c-0ecd-4da3-9e29-2529566988f0"},"vehicle_type_id":"4","last_reported":1711652721,"current_range_meters":800,"station_id":"ce4bgt92rcd13ifvqcf0","pricing_plan_id":"cebpf4jnsgd1na2vs0mg"},{"bike_id":"49f57797-3dc6-40c9-8085-3a1c890e11ae","system_id":"levelo_inurba_marseille","lat":43.313571,"lon":5.384829,"is_reserved":false,"is_disabled":false,"rental_uris":{"android":"levelo://app?vid=49f57797-3dc6-40c9-8085-3a1c890e11ae","ios":"levelo://app?vid=49f57797-3dc6-40c9-8085-3a1c890e11ae"},"vehicle_type_id":"4","last_reported":1711652721,"current_range_meters":28400,"station_id":"ce4bgt92rcd13ifvqcf0","pricing_plan_id":"cebpf4jnsgd1na2vs0mg"},{"bike_id":"df3c8f94-57cc-4c79-8123-74f1f85d213a","system_id":"levelo_inurba_marseille","lat":43.313643,"lon":5.384967,"is_reserved":false,"is_disabled":false,"rental_uris":{"android":"levelo://app?vid=df3c8f94-57cc-4c79-8123-74f1f85d213a","ios":"levelo://app?vid=df3c8f94-57cc-4c79-8123-74f1f85d213a"},"vehicle_type_id":"4","last_reported":1711652721,"current_range_meters":0,"station_id":"ce4bgt92rcd13ifvqcf0","pricing_plan_id":"cebpf4jnsgd1na2vs0mg"},{"bike_id":"b1665ffb-5eca-4fe4-a1fb-a1775f1ce528","system_id":"levelo_inurba_marseille","lat":43.313571,"lon":5.384829,"is_reserved":false,"is_disabled":false,"rental_uris":{"android":"levelo://app?vid=b1665ffb-5eca-4fe4-a1fb-a1775f1ce528","ios":"levelo://app?vid=b1665ffb-5eca-4fe4-a1fb-a1775f1ce528"},"vehicle_type_id":"4","last_reported":1711652721,"current_range_meters":15600,"station_id":"ce4bgt92rcd13ifvqcf0","pricing_plan_id":"cebpf4jnsgd1na2vs0mg"},{"bike_id":"c28b1cf1-c19c-4db1-a1f8-8fcedcf43efd","system_id":"levelo_inurba_marseille","lat":43.31362,"lon":5.38499,"is_reserved":false,"is_disabled":false,"rental_uris":{"android":"levelo://app?vid=c28b1cf1-c19c-4db1-a1f8-8fcedcf43efd","ios":"levelo://app?vid=c28b1cf1-c19c-4db1-a1f8-8fcedcf43efd"},"vehicle_type_id":"4","last_reported":1711652721,"current_range_meters":2000,"station_id":"ce4bgt92rcd13ifvqcf0","pricing_plan_id":"cebpf4jnsgd1na2vs0mg"},{"bike_id":"8558530c-44fe-481f-bedb-4dec7116c0b9","system_id":"levelo_inurba_marseille","lat":43.313571,"lon":5.384829,"is_reserved":false,"is_disabled":false,"rental_uris":{"android":"levelo://app?vid=8558530c-44fe-481f-bedb-4dec7116c0b9","ios":"levelo://app?vid=8558530c-44fe-481f-bedb-4dec7116c0b9"},"vehicle_type_id":"4","last_reported":1711652721,"current_range_meters":0,"station_id":"ce4bgt92rcd13ifvqcf0","pricing_plan_id":"cebpf4jnsgd1na2vs0mg"},{"bike_id":"e579c225-273b-4622-b284-4ab06091d381","system_id":"levelo_inurba_marseille","lat":43.299368,"lon":5.365474,"is_reserved":false,"is_disabled":false,"rental_uris":{"android":"levelo://app?vid=e579c225-273b-4622-b284-4ab06091d381","ios":"levelo://app?vid=e579c225-273b-4622-b284-4ab06091d381"},"vehicle_type_id":"4","last_reported":1711652721,"current_range_meters":0,"station_id":"ce4bgm92rcd13ifvqbr0","pricing_plan_id":"cebpf4jnsgd1na2vs0mg"},{"bike_id":"ebf0da0e-14e7-4eaf-9dd3-7831c96ce4aa","system_id":"levelo_inurba_marseille","lat":43.29041,"lon":5.399634,"is_reserved":false,"is_disabled":false,"rental_uris":{"android":"levelo://app?vid=ebf0da0e-14e7-4eaf-9dd3-7831c96ce4aa","ios":"levelo://app?vid=ebf0da0e-14e7-4eaf-9dd3-7831c96ce4aa"},"vehicle_type_id":"4","last_reported":1711652721,"current_range_meters":0,"station_id":"ce4bh392rcd13ifvqdm0","pricing_plan_id":"cebpf4jnsgd1na2vs0mg"},{"bike_id":"86ec3253-34d3-48b4-9782-9e27d49d30b5","system_id":"levelo_inurba_marseille","lat":43.299222,"lon":5.365554,"is_reserved":false,"is_disabled":false,"rental_uris":{"android":"levelo://app?vid=86ec3253-34d3-48b4-9782-9e27d49d30b5","ios":"levelo://app?vid=86ec3253-34d3-48b4-9782-9e27d49d30b5"},"vehicle_type_id":"4","last_reported":1711652721,"current_range_meters":10800,"station_id":"ce4bgm92rcd13ifvqbr0","pricing_plan_id":"cebpf4jnsgd1na2vs0mg"},{"bike_id":"b2a9595f-b53c-4b32-999c-ad6337241ce4","system_id":"levelo_inurba_marseille","lat":43.299222,"lon":5.365554,"is_reserved":false,"is_disabled":false,"rental_uris":{"android":"levelo://app?vid=b2a9595f-b53c-4b32-999c-ad6337241ce4","ios":"levelo://app?vid=b2a9595f-b53c-4b32-999c-ad6337241ce4"},"vehicle_type_id":"4","last_reported":1711652721,"current_range_meters":10000,"station_id":"ce4bgm92rcd13ifvqbr0","pricing_plan_id":"cebpf4jnsgd1na2vs0mg"},{"bike_id":"d30a2478-3b7e-4179-a2be-f6239e12111f","system_id":"levelo_inurba_marseille","lat":43.299222,"lon":5.365554,"is_reserved":false,"is_disabled":false,"rental_uris":{"android":"levelo://app?vid=d30a2478-3b7e-4179-a2be-f6239e12111f","ios":"levelo://app?vid=d30a2478-3b7e-4179-a2be-f6239e12111f"},"vehicle_type_id":"4","last_reported":1711652721,"current_range_meters":8400,"station_id":"ce4bgm92rcd13ifvqbr0","pricing_plan_id":"cebpf4jnsgd1na2vs0mg"},{"bike_id":"9c9be7d6-f2bf-4910-922a-e63a15907962","system_id":"levelo_inurba_marseille","lat":43.299222,"lon":5.365554,"is_reserved":false,"is_disabled":false,"rental_uris":{"android":"levelo://app?vid=9c9be7d6-f2bf-4910-922a-e63a15907962","ios":"levelo://app?vid=9c9be7d6-f2bf-4910-922a-e63a15907962"},"vehicle_type_id":"4","last_reported":1711652721,"current_range_meters":0,"station_id":"ce4bgm92rcd13ifvqbr0","pricing_plan_id":"cebpf4jnsgd1na2vs0mg"},{"bike_id":"7445a02a-c6c3-49ec-8dba-37e8f0b79b6d","system_id":"levelo_inurba_marseille","lat":43.3055,"lon":5.38419,"is_reserved":false,"is_disabled":false,"rental_uris":{"android":"levelo://app?vid=7445a02a-c6c3-49ec-8dba-37e8f0b79b6d","ios":"levelo://app?vid=7445a02a-c6c3-49ec-8dba-37e8f0b79b6d"},"vehicle_type_id":"4","last_reported":1711652721,"current_range_meters":0,"station_id":"ce4bgg92rcd13ifvqb30","pricing_plan_id":"cebpf4jnsgd1na2vs0mg"},{"bike_id":"a825d99f-cc7c-4e2b-8d5c-599c650b0a3e","system_id":"levelo_inurba_marseille","lat":43.305364,"lon":5.384119,"is_reserved":false,"is_disabled":false,"rental_uris":{"android":"levelo://app?vid=a825d99f-cc7c-4e2b-8d5c-599c650b0a3e","ios":"levelo://app?vid=a825d99f-cc7c-4e2b-8d5c-599c650b0a3e"},"vehicle_type_id":"4","last_reported":1711652721,"current_range_meters":4400,"station_id":"ce4bgg92rcd13ifvqb30","pricing_plan_id":"cebpf4jnsgd1na2vs0mg"},{"bike_id":"4d7fc676-4e9c-46a4-98a4-a2b2bc47e736","system_id":"levelo_inurba_marseille","lat":43.305364,"lon":5.384119,"is_reserved":false,"is_disabled":false,"rental_uris":{"android":"levelo://app?vid=4d7fc676-4e9c-46a4-98a4-a2b2bc47e736","ios":"levelo://app?vid=4d7fc676-4e9c-46a4-98a4-a2b2bc47e736"},"vehicle_type_id":"4","last_reported":1711652721,"current_range_meters":2400,"station_id":"ce4bgg92rcd13ifvqb30","pricing_plan_id":"cebpf4jnsgd1na2vs0mg"},{"bike_id":"a5913e78-052c-4b83-91c4-a927c8446299","system_id":"levelo_inurba_marseille","lat":43.298433,"lon":5.362774,"is_reserved":false,"is_disabled":false,"rental_uris":{"android":"levelo://app?vid=a5913e78-052c-4b83-91c4-a927c8446299","ios":"levelo://app?vid=a5913e78-052c-4b83-91c4-a927c8446299"},"vehicle_type_id":"4","last_reported":1711652721,"current_range_meters":28400,"station_id":"ce4bgpp2rcd13ifvqc3g","pricing_plan_id":"cebpf4jnsgd1na2vs0mg"},{"bike_id":"89a9e3f4-b166-4154-a977-7585c3382080","system_id":"levelo_inurba_marseille","lat":43.29919,"lon":5.37469,"is_reserved":false,"is_disabled":false,"rental_uris":{"android":"levelo://app?vid=89a9e3f4-b166-4154-a977-7585c3382080","ios":"levelo://app?vid=89a9e3f4-b166-4154-a977-7585c3382080"},"vehicle_type_id":"4","last_reported":1711652721,"current_range_meters":0,"station_id":"ce4bgjh2rcd13ifvqbg0","pricing_plan_id":"cebpf4jnsgd1na2vs0mg"},{"bike_id":"50db5a8c-4dd1-4182-9b7d-01b0464cd338","system_id":"levelo_inurba_marseille","lat":43.311722,"lon":5.387247,"is_reserved":false,"is_disabled":false,"rental_uris":{"android":"levelo://app?vid=50db5a8c-4dd1-4182-9b7d-01b0464cd338","ios":"levelo://app?vid=50db5a8c-4dd1-4182-9b7d-01b0464cd338"},"vehicle_type_id":"4","last_reported":1711652721,"current_range_meters":14800,"station_id":"ce4bgv12rcd13ifvqcp0","pricing_plan_id":"cebpf4jnsgd1na2vs0mg"},{"bike_id":"d870ba66-19e9-4bd1-bef4-314b21135ccd","system_id":"levelo_inurba_marseille","lat":43.299243,"lon":5.37481,"is_reserved":false,"is_disabled":false,"rental_uris":{"android":"levelo://app?vid=d870ba66-19e9-4bd1-bef4-314b21135ccd","ios":"levelo://app?vid=d870ba66-19e9-4bd1-bef4-314b21135ccd"},"vehicle_type_id":"4","last_reported":1711652721,"current_range_meters":400,"station_id":"ce4bgjh2rcd13ifvqbg0","pricing_plan_id":"cebpf4jnsgd1na2vs0mg"},{"bike_id":"38f1a639-8cf7-49d0-b93e-6357ea0a9b6b","system_id":"levelo_inurba_marseille","lat":43.322872,"lon":5.382756,"is_reserved":false,"is_disabled":false,"rental_uris":{"android":"levelo://app?vid=38f1a639-8cf7-49d0-b93e-6357ea0a9b6b","ios":"levelo://app?vid=38f1a639-8cf7-49d0-b93e-6357ea0a9b6b"},"vehicle_type_id":"4","last_reported":1711652721,"current_range_meters":22000,"station_id":"ce4bhr12rcd13ifvqhqg","pricing_plan_id":"cebpf4jnsgd1na2vs0mg"},{"bike_id":"e1332fa5-1ca0-4f7f-88ac-b8b7cdf218e8","system_id":"levelo_inurba_marseille","lat":43.32288,"lon":5.3827,"is_reserved":false,"is_disabled":false,"rental_uris":{"android":"levelo://app?vid=e1332fa5-1ca0-4f7f-88ac-b8b7cdf218e8","ios":"levelo://app?vid=e1332fa5-1ca0-4f7f-88ac-b8b7cdf218e8"},"vehicle_type_id":"4","last_reported":1711652721,"current_range_meters":0,"station_id":"ce4bhr12rcd13ifvqhqg","pricing_plan_id":"cebpf4jnsgd1na2vs0mg"},{"bike_id":"317519cd-ef36-403f-bba6-2177a25028b5","system_id":"levelo_inurba_marseille","lat":43.322872,"lon":5.382756,"is_reserved":false,"is_disabled":false,"rental_uris":{"android":"levelo://app?vid=317519cd-ef36-403f-bba6-2177a25028b5","ios":"levelo://app?vid=317519cd-ef36-403f-bba6-2177a25028b5"},"vehicle_type_id":"4","last_reported":1711652721,"current_range_meters":31600,"station_id":"ce4bhr12rcd13ifvqhqg","pricing_plan_id":"cebpf4jnsgd1na2vs0mg"},{"bike_id":"41d6ed59-32a2-4d73-8e7d-4df4fef1ad39","system_id":"levelo_inurba_marseille","lat":43.322872,"lon":5.382756,"is_reserved":false,"is_disabled":false,"rental_uris":{"android":"levelo://app?vid=41d6ed59-32a2-4d73-8e7d-4df4fef1ad39","ios":"levelo://app?vid=41d6ed59-32a2-4d73-8e7d-4df4fef1ad39"},"vehicle_type_id":"4","last_reported":1711652721,"current_range_meters":26000,"station_id":"ce4bhr12rcd13ifvqhqg","pricing_plan_id":"cebpf4jnsgd1na2vs0mg"},{"bike_id":"5fe179a4-68ba-439a-88aa-12906cbed460","system_id":"levelo_inurba_marseille","lat":43.322872,"lon":5.382756,"is_reserved":false,"is_disabled":false,"rental_uris":{"android":"levelo://app?vid=5fe179a4-68ba-439a-88aa-12906cbed460","ios":"levelo://app?vid=5fe179a4-68ba-439a-88aa-12906cbed460"},"vehicle_type_id":"4","last_reported":1711652721,"current_range_meters":23200,"station_id":"ce4bhr12rcd13ifvqhqg","pricing_plan_id":"cebpf4jnsgd1na2vs0mg"},{"bike_id":"07431bbb-b567-47a9-ac0a-f955c1a3e829","system_id":"levelo_inurba_marseille","lat":43.297172,"lon":5.365748,"is_reserved":false,"is_disabled":false,"rental_uris":{"android":"levelo://app?vid=07431bbb-b567-47a9-ac0a-f955c1a3e829","ios":"levelo://app?vid=07431bbb-b567-47a9-ac0a-f955c1a3e829"},"vehicle_type_id":"4","last_reported":1711652721,"current_range_meters":0,"station_id":"ce4bgn12rcd13ifvqbt0","pricing_plan_id":"cebpf4jnsgd1na2vs0mg"},{"bike_id":"0dc88b79-c621-4fee-9587-7d3e109e817b","system_id":"levelo_inurba_marseille","lat":43.297132,"lon":5.366136,"is_reserved":false,"is_disabled":false,"rental_uris":{"android":"levelo://app?vid=0dc88b79-c621-4fee-9587-7d3e109e817b","ios":"levelo://app?vid=0dc88b79-c621-4fee-9587-7d3e109e817b"},"vehicle_type_id":"4","last_reported":1711652721,"current_range_meters":0,"station_id":"ce4bgn12rcd13ifvqbt0","pricing_plan_id":"cebpf4jnsgd1na2vs0mg"},{"bike_id":"c321cc7d-84d6-4541-a61e-1a2cb8fc3734","system_id":"levelo_inurba_marseille","lat":43.297058,"lon":5.366016,"is_reserved":false,"is_disabled":false,"rental_uris":{"android":"levelo://app?vid=c321cc7d-84d6-4541-a61e-1a2cb8fc3734","ios":"levelo://app?vid=c321cc7d-84d6-4541-a61e-1a2cb8fc3734"},"vehicle_type_id":"4","last_reported":1711652721,"current_range_meters":13200,"station_id":"ce4bgn12rcd13ifvqbt0","pricing_plan_id":"cebpf4jnsgd1na2vs0mg"},{"bike_id":"b55483c7-5e79-4e88-9f14-f5bebeec9e29","system_id":"levelo_inurba_marseille","lat":43.294153,"lon":5.386305,"is_reserved":false,"is_disabled":false,"rental_uris":{"android":"levelo://app?vid=b55483c7-5e79-4e88-9f14-f5bebeec9e29","ios":"levelo://app?vid=b55483c7-5e79-4e88-9f14-f5bebeec9e29"},"vehicle_type_id":"4","last_reported":1711652721,"current_range_meters":12400,"station_id":"ce4bh2h2rcd13ifvqdh0","pricing_plan_id":"cebpf4jnsgd1na2vs0mg"},{"bike_id":"df1e6ea2-2d2a-4468-bf41-ca2da1e31172","system_id":"levelo_inurba_marseille","lat":43.31556,"lon":5.38842,"is_reserved":false,"is_disabled":false,"rental_uris":{"android":"levelo://app?vid=df1e6ea2-2d2a-4468-bf41-ca2da1e31172","ios":"levelo://app?vid=df1e6ea2-2d2a-4468-bf41-ca2da1e31172"},"vehicle_type_id":"4","last_reported":1711652721,"current_range_meters":0,"station_id":"","pricing_plan_id":"cebpf4jnsgd1na2vs0mg"},{"bike_id":"dabe3db4-2799-4509-8127-743c9266ea50","system_id":"levelo_inurba_marseille","lat":43.297156,"lon":5.362509,"is_reserved":false,"is_disabled":false,"rental_uris":{"android":"levelo://app?vid=dabe3db4-2799-4509-8127-743c9266ea50","ios":"levelo://app?vid=dabe3db4-2799-4509-8127-743c9266ea50"},"vehicle_type_id":"4","last_reported":1711652721,"current_range_meters":4400,"station_id":"","pricing_plan_id":"cebpf4jnsgd1na2vs0mg"},{"bike_id":"a789b0fe-1a9a-443d-85aa-58af42df46be","system_id":"levelo_inurba_marseille","lat":43.319935,"lon":5.381699,"is_reserved":false,"is_disabled":false,"rental_uris":{"android":"levelo://app?vid=a789b0fe-1a9a-443d-85aa-58af42df46be","ios":"levelo://app?vid=a789b0fe-1a9a-443d-85aa-58af42df46be"},"vehicle_type_id":"4","last_reported":1711652721,"current_range_meters":5600,"station_id":"ce4bhr12rcd13ifvqhpg","pricing_plan_id":"cebpf4jnsgd1na2vs0mg"},{"bike_id":"52181591-2cf1-4d67-8e91-be517970101d","system_id":"levelo_inurba_marseille","lat":43.296131,"lon":5.370791,"is_reserved":false,"is_disabled":false,"rental_uris":{"android":"levelo://app?vid=52181591-2cf1-4d67-8e91-be517970101d","ios":"levelo://app?vid=52181591-2cf1-4d67-8e91-be517970101d"},"vehicle_type_id":"4","last_reported":1711652721,"current_range_meters":12800,"station_id":"ce4bgnh2rcd13ifvqc0g","pricing_plan_id":"cebpf4jnsgd1na2vs0mg"},{"bike_id":"cf97afc2-812d-4771-b25a-53df60e17694","system_id":"levelo_inurba_marseille","lat":43.29578,"lon":5.36734,"is_reserved":false,"is_disabled":false,"rental_uris":{"android":"levelo://app?vid=cf97afc2-812d-4771-b25a-53df60e17694","ios":"levelo://app?vid=cf97afc2-812d-4771-b25a-53df60e17694"},"vehicle_type_id":"4","last_reported":1711652721,"current_range_meters":6000,"station_id":"ce4bgph2rcd13ifvqc2g","pricing_plan_id":"cebpf4jnsgd1na2vs0mg"},{"bike_id":"a29ae128-00db-4444-b61d-abe2a6f63b12","system_id":"levelo_inurba_marseille","lat":43.29573,"lon":5.367355,"is_reserved":false,"is_disabled":false,"rental_uris":{"android":"levelo://app?vid=a29ae128-00db-4444-b61d-abe2a6f63b12","ios":"levelo://app?vid=a29ae128-00db-4444-b61d-abe2a6f63b12"},"vehicle_type_id":"4","last_reported":1711652721,"current_range_meters":19600,"station_id":"ce4bgph2rcd13ifvqc2g","pricing_plan_id":"cebpf4jnsgd1na2vs0mg"},{"bike_id":"668bbed1-08dc-4780-b2dc-9d0d3b0b15f5","system_id":"levelo_inurba_marseille","lat":43.29729,"lon":5.37689,"is_reserved":false,"is_disabled":false,"rental_uris":{"android":"levelo://app?vid=668bbed1-08dc-4780-b2dc-9d0d3b0b15f5","ios":"levelo://app?vid=668bbed1-08dc-4780-b2dc-9d0d3b0b15f5"},"vehicle_type_id":"4","last_reported":1711652721,"current_range_meters":4000,"station_id":"","pricing_plan_id":"cebpf4jnsgd1na2vs0mg"},{"bike_id":"8cfe17d5-a6e1-41ec-be47-63be13eed27a","system_id":"levelo_inurba_marseille","lat":43.308012,"lon":5.381511,"is_reserved":false,"is_disabled":false,"rental_uris":{"android":"levelo://app?vid=8cfe17d5-a6e1-41ec-be47-63be13eed27a","ios":"levelo://app?vid=8cfe17d5-a6e1-41ec-be47-63be13eed27a"},"vehicle_type_id":"4","last_reported":1711652721,"current_range_meters":11200,"station_id":"ce4bgt12rcd13ifvqce0","pricing_plan_id":"cebpf4jnsgd1na2vs0mg"},{"bike_id":"0e244e93-65f7-4f46-8201-4bc3f48ed172","system_id":"levelo_inurba_marseille","lat":43.29718,"lon":5.37689,"is_reserved":false,"is_disabled":false,"rental_uris":{"android":"levelo://app?vid=0e244e93-65f7-4f46-8201-4bc3f48ed172","ios":"levelo://app?vid=0e244e93-65f7-4f46-8201-4bc3f48ed172"},"vehicle_type_id":"4","last_reported":1711652721,"current_range_meters":17600,"station_id":"","pricing_plan_id":"cebpf4jnsgd1na2vs0mg"},{"bike_id":"ad1ad264-cf9a-4c4d-a16d-b7d7ce96c5a8","system_id":"levelo_inurba_marseille","lat":43.309589,"lon":5.390258,"is_reserved":false,"is_disabled":false,"rental_uris":{"android":"levelo://app?vid=ad1ad264-cf9a-4c4d-a16d-b7d7ce96c5a8","ios":"levelo://app?vid=ad1ad264-cf9a-4c4d-a16d-b7d7ce96c5a8"},"vehicle_type_id":"4","last_reported":1711652721,"current_range_meters":4000,"station_id":"ce4bgup2rcd13ifvqco0","pricing_plan_id":"cebpf4jnsgd1na2vs0mg"},{"bike_id":"ece6a773-0b70-4cf8-a2f4-c08b6bada2c2","system_id":"levelo_inurba_marseille","lat":43.296935,"lon":5.376544,"is_reserved":false,"is_disabled":false,"rental_uris":{"android":"levelo://app?vid=ece6a773-0b70-4cf8-a2f4-c08b6bada2c2","ios":"levelo://app?vid=ece6a773-0b70-4cf8-a2f4-c08b6bada2c2"},"vehicle_type_id":"4","last_reported":1711652721,"current_range_meters":3200,"station_id":"ce4bgkh2rcd13ifvqbl0","pricing_plan_id":"cebpf4jnsgd1na2vs0mg"},{"bike_id":"15f933f1-f946-47d9-bdbd-51c605f1a3ed","system_id":"levelo_inurba_marseille","lat":43.29697,"lon":5.376573,"is_reserved":false,"is_disabled":false,"rental_uris":{"android":"levelo://app?vid=15f933f1-f946-47d9-bdbd-51c605f1a3ed","ios":"levelo://app?vid=15f933f1-f946-47d9-bdbd-51c605f1a3ed"},"vehicle_type_id":"4","last_reported":1711652721,"current_range_meters":8400,"station_id":"ce4bgkh2rcd13ifvqbl0","pricing_plan_id":"cebpf4jnsgd1na2vs0mg"},{"bike_id":"0b31b7a8-f2d2-44f2-b3f8-c3cd7406175e","system_id":"levelo_inurba_marseille","lat":43.296935,"lon":5.376544,"is_reserved":false,"is_disabled":false,"rental_uris":{"android":"levelo://app?vid=0b31b7a8-f2d2-44f2-b3f8-c3cd7406175e","ios":"levelo://app?vid=0b31b7a8-f2d2-44f2-b3f8-c3cd7406175e"},"vehicle_type_id":"4","last_reported":1711652721,"current_range_meters":25600,"station_id":"ce4bgkh2rcd13ifvqbl0","pricing_plan_id":"cebpf4jnsgd1na2vs0mg"},{"bike_id":"d2c47ef0-3af8-4eff-b279-52b8f1ed303b","system_id":"levelo_inurba_marseille","lat":43.309589,"lon":5.390258,"is_reserved":false,"is_disabled":false,"rental_uris":{"android":"levelo://app?vid=d2c47ef0-3af8-4eff-b279-52b8f1ed303b","ios":"levelo://app?vid=d2c47ef0-3af8-4eff-b279-52b8f1ed303b"},"vehicle_type_id":"4","last_reported":1711652721,"current_range_meters":22400,"station_id":"ce4bgup2rcd13ifvqco0","pricing_plan_id":"cebpf4jnsgd1na2vs0mg"},{"bike_id":"d406cc07-e82c-4afe-a36f-882d58a01989","system_id":"levelo_inurba_marseille","lat":43.309589,"lon":5.390258,"is_reserved":false,"is_disabled":false,"rental_uris":{"android":"levelo://app?vid=d406cc07-e82c-4afe-a36f-882d58a01989","ios":"levelo://app?vid=d406cc07-e82c-4afe-a36f-882d58a01989"},"vehicle_type_id":"4","last_reported":1711652721,"current_range_meters":10800,"station_id":"ce4bgup2rcd13ifvqco0","pricing_plan_id":"cebpf4jnsgd1na2vs0mg"},{"bike_id":"37ad0ccf-bc28-4de4-9e73-3a0649ee4cd6","system_id":"levelo_inurba_marseille","lat":43.309589,"lon":5.390258,"is_reserved":false,"is_disabled":false,"rental_uris":{"android":"levelo://app?vid=37ad0ccf-bc28-4de4-9e73-3a0649ee4cd6","ios":"levelo://app?vid=37ad0ccf-bc28-4de4-9e73-3a0649ee4cd6"},"vehicle_type_id":"4","last_reported":1711652721,"current_range_meters":6800,"station_id":"ce4bgup2rcd13ifvqco0","pricing_plan_id":"cebpf4jnsgd1na2vs0mg"},{"bike_id":"e5fb2870-16ef-4f85-b878-c78c8e27b537","system_id":"levelo_inurba_marseille","lat":43.309589,"lon":5.390258,"is_reserved":false,"is_disabled":false,"rental_uris":{"android":"levelo://app?vid=e5fb2870-16ef-4f85-b878-c78c8e27b537","ios":"levelo://app?vid=e5fb2870-16ef-4f85-b878-c78c8e27b537"},"vehicle_type_id":"4","last_reported":1711652721,"current_range_meters":7200,"station_id":"ce4bgup2rcd13ifvqco0","pricing_plan_id":"cebpf4jnsgd1na2vs0mg"},{"bike_id":"a5b3fcbf-da88-4697-89d2-87e6ec805704","system_id":"levelo_inurba_marseille","lat":43.31762,"lon":5.39007,"is_reserved":false,"is_disabled":false,"rental_uris":{"android":"levelo://app?vid=a5b3fcbf-da88-4697-89d2-87e6ec805704","ios":"levelo://app?vid=a5b3fcbf-da88-4697-89d2-87e6ec805704"},"vehicle_type_id":"4","last_reported":1711652721,"current_range_meters":31200,"station_id":"ce4bhqp2rcd13ifvqhng","pricing_plan_id":"cebpf4jnsgd1na2vs0mg"},{"bike_id":"d0dd0085-c414-456f-95f1-f92ecddea43b","system_id":"levelo_inurba_marseille","lat":43.31757,"lon":5.39011,"is_reserved":false,"is_disabled":false,"rental_uris":{"android":"levelo://app?vid=d0dd0085-c414-456f-95f1-f92ecddea43b","ios":"levelo://app?vid=d0dd0085-c414-456f-95f1-f92ecddea43b"},"vehicle_type_id":"4","last_reported":1711652721,"current_range_meters":0,"station_id":"ce4bhqp2rcd13ifvqhng","pricing_plan_id":"cebpf4jnsgd1na2vs0mg"},{"bike_id":"b2bc132d-80f6-42b1-8bd7-bc67f76456a6","system_id":"levelo_inurba_marseille","lat":43.31761,"lon":5.39012,"is_reserved":false,"is_disabled":false,"rental_uris":{"android":"levelo://app?vid=b2bc132d-80f6-42b1-8bd7-bc67f76456a6","ios":"levelo://app?vid=b2bc132d-80f6-42b1-8bd7-bc67f76456a6"},"vehicle_type_id":"4","last_reported":1711652721,"current_range_meters":23600,"station_id":"ce4bhqp2rcd13ifvqhng","pricing_plan_id":"cebpf4jnsgd1na2vs0mg"},{"bike_id":"14b25ab4-d3a1-44e6-8abb-31afe39ac129","system_id":"levelo_inurba_marseille","lat":43.31761,"lon":5.39013,"is_reserved":false,"is_disabled":false,"rental_uris":{"android":"levelo://app?vid=14b25ab4-d3a1-44e6-8abb-31afe39ac129","ios":"levelo://app?vid=14b25ab4-d3a1-44e6-8abb-31afe39ac129"},"vehicle_type_id":"4","last_reported":1711652721,"current_range_meters":4000,"station_id":"ce4bhqp2rcd13ifvqhng","pricing_plan_id":"cebpf4jnsgd1na2vs0mg"},{"bike_id":"5476f617-6acd-4623-a373-b5da9e3b2d22","system_id":"levelo_inurba_marseille","lat":43.3176,"lon":5.39016,"is_reserved":false,"is_disabled":false,"rental_uris":{"android":"levelo://app?vid=5476f617-6acd-4623-a373-b5da9e3b2d22","ios":"levelo://app?vid=5476f617-6acd-4623-a373-b5da9e3b2d22"},"vehicle_type_id":"4","last_reported":1711652721,"current_range_meters":0,"station_id":"ce4bhqp2rcd13ifvqhng","pricing_plan_id":"cebpf4jnsgd1na2vs0mg"},{"bike_id":"26ff9772-7999-47f8-b30d-e8a6c19e273d","system_id":"levelo_inurba_marseille","lat":43.31758,"lon":5.39017,"is_reserved":false,"is_disabled":false,"rental_uris":{"android":"levelo://app?vid=26ff9772-7999-47f8-b30d-e8a6c19e273d","ios":"levelo://app?vid=26ff9772-7999-47f8-b30d-e8a6c19e273d"},"vehicle_type_id":"4","last_reported":1711652721,"current_range_meters":18400,"station_id":"ce4bhqp2rcd13ifvqhng","pricing_plan_id":"cebpf4jnsgd1na2vs0mg"},{"bike_id":"ae27ded8-ead6-4dc4-8155-68bebdee1bf1","system_id":"levelo_inurba_marseille","lat":43.31759,"lon":5.39017,"is_reserved":false,"is_disabled":false,"rental_uris":{"android":"levelo://app?vid=ae27ded8-ead6-4dc4-8155-68bebdee1bf1","ios":"levelo://app?vid=ae27ded8-ead6-4dc4-8155-68bebdee1bf1"},"vehicle_type_id":"4","last_reported":1711652721,"current_range_meters":4400,"station_id":"ce4bhqp2rcd13ifvqhng","pricing_plan_id":"cebpf4jnsgd1na2vs0mg"},{"bike_id":"63d7e23f-6216-414f-8d05-021df6249fa9","system_id":"levelo_inurba_marseille","lat":43.317624,"lon":5.390165,"is_reserved":false,"is_disabled":false,"rental_uris":{"android":"levelo://app?vid=63d7e23f-6216-414f-8d05-021df6249fa9","ios":"levelo://app?vid=63d7e23f-6216-414f-8d05-021df6249fa9"},"vehicle_type_id":"4","last_reported":1711652721,"current_range_meters":18800,"station_id":"ce4bhqp2rcd13ifvqhng","pricing_plan_id":"cebpf4jnsgd1na2vs0mg"},{"bike_id":"7b9d52ad-a7cb-4cdd-aa76-431ae84e5770","system_id":"levelo_inurba_marseille","lat":43.31758,"lon":5.39019,"is_reserved":false,"is_disabled":false,"rental_uris":{"android":"levelo://app?vid=7b9d52ad-a7cb-4cdd-aa76-431ae84e5770","ios":"levelo://app?vid=7b9d52ad-a7cb-4cdd-aa76-431ae84e5770"},"vehicle_type_id":"4","last_reported":1711652721,"current_range_meters":10800,"station_id":"ce4bhqp2rcd13ifvqhng","pricing_plan_id":"cebpf4jnsgd1na2vs0mg"},{"bike_id":"e4042505-b127-4f06-bb1e-39cb28acf2ea","system_id":"levelo_inurba_marseille","lat":43.317598,"lon":5.390207,"is_reserved":false,"is_disabled":false,"rental_uris":{"android":"levelo://app?vid=e4042505-b127-4f06-bb1e-39cb28acf2ea","ios":"levelo://app?vid=e4042505-b127-4f06-bb1e-39cb28acf2ea"},"vehicle_type_id":"4","last_reported":1711652721,"current_range_meters":6800,"station_id":"ce4bhqp2rcd13ifvqhng","pricing_plan_id":"cebpf4jnsgd1na2vs0mg"},{"bike_id":"6eae7506-b4c5-4f63-9f99-57aa4358f341","system_id":"levelo_inurba_marseille","lat":43.317586,"lon":5.390226,"is_reserved":false,"is_disabled":false,"rental_uris":{"android":"levelo://app?vid=6eae7506-b4c5-4f63-9f99-57aa4358f341","ios":"levelo://app?vid=6eae7506-b4c5-4f63-9f99-57aa4358f341"},"vehicle_type_id":"4","last_reported":1711652721,"current_range_meters":0,"station_id":"","pricing_plan_id":"cebpf4jnsgd1na2vs0mg"},{"bike_id":"7bfb1ca9-8509-4f08-8279-82b89f9181d6","system_id":"levelo_inurba_marseille","lat":43.317495,"lon":5.39031,"is_reserved":false,"is_disabled":false,"rental_uris":{"android":"levelo://app?vid=7bfb1ca9-8509-4f08-8279-82b89f9181d6","ios":"levelo://app?vid=7bfb1ca9-8509-4f08-8279-82b89f9181d6"},"vehicle_type_id":"4","last_reported":1711652721,"current_range_meters":28000,"station_id":"ce4bhqp2rcd13ifvqhng","pricing_plan_id":"cebpf4jnsgd1na2vs0mg"},{"bike_id":"f9e26199-094c-4b06-b0ad-4be1a38ed7be","system_id":"levelo_inurba_marseille","lat":43.31748,"lon":5.39032,"is_reserved":false,"is_disabled":false,"rental_uris":{"android":"levelo://app?vid=f9e26199-094c-4b06-b0ad-4be1a38ed7be","ios":"levelo://app?vid=f9e26199-094c-4b06-b0ad-4be1a38ed7be"},"vehicle_type_id":"4","last_reported":1711652721,"current_range_meters":15600,"station_id":"ce4bhqp2rcd13ifvqhng","pricing_plan_id":"cebpf4jnsgd1na2vs0mg"},{"bike_id":"05d511fa-6cc7-4a6c-b823-97afcbcac524","system_id":"levelo_inurba_marseille","lat":43.298037,"lon":5.381066,"is_reserved":false,"is_disabled":false,"rental_uris":{"android":"levelo://app?vid=05d511fa-6cc7-4a6c-b823-97afcbcac524","ios":"levelo://app?vid=05d511fa-6cc7-4a6c-b823-97afcbcac524"},"vehicle_type_id":"4","last_reported":1711652721,"current_range_meters":0,"station_id":"ce4bgip2rcd13ifvqbb0","pricing_plan_id":"cebpf4jnsgd1na2vs0mg"},{"bike_id":"dbb2cb7a-20d0-4907-a60d-3a3814701564","system_id":"levelo_inurba_marseille","lat":43.29799,"lon":5.38088,"is_reserved":false,"is_disabled":false,"rental_uris":{"android":"levelo://app?vid=dbb2cb7a-20d0-4907-a60d-3a3814701564","ios":"levelo://app?vid=dbb2cb7a-20d0-4907-a60d-3a3814701564"},"vehicle_type_id":"4","last_reported":1711652721,"current_range_meters":6800,"station_id":"ce4bgip2rcd13ifvqbb0","pricing_plan_id":"cebpf4jnsgd1na2vs0mg"},{"bike_id":"868cd4ca-1397-4111-b8f5-665f25391026","system_id":"levelo_inurba_marseille","lat":43.29796,"lon":5.38088,"is_reserved":false,"is_disabled":false,"rental_uris":{"android":"levelo://app?vid=868cd4ca-1397-4111-b8f5-665f25391026","ios":"levelo://app?vid=868cd4ca-1397-4111-b8f5-665f25391026"},"vehicle_type_id":"4","last_reported":1711652721,"current_range_meters":26400,"station_id":"ce4bgip2rcd13ifvqbb0","pricing_plan_id":"cebpf4jnsgd1na2vs0mg"},{"bike_id":"976d86d1-5985-4824-ae89-acb0d13fee61","system_id":"levelo_inurba_marseille","lat":43.29794,"lon":5.38089,"is_reserved":false,"is_disabled":false,"rental_uris":{"android":"levelo://app?vid=976d86d1-5985-4824-ae89-acb0d13fee61","ios":"levelo://app?vid=976d86d1-5985-4824-ae89-acb0d13fee61"},"vehicle_type_id":"4","last_reported":1711652721,"current_range_meters":2800,"station_id":"ce4bgip2rcd13ifvqbb0","pricing_plan_id":"cebpf4jnsgd1na2vs0mg"},{"bike_id":"86093f0a-ec87-4584-8e8b-9da1c19a7921","system_id":"levelo_inurba_marseille","lat":43.29795,"lon":5.38094,"is_reserved":false,"is_disabled":false,"rental_uris":{"android":"levelo://app?vid=86093f0a-ec87-4584-8e8b-9da1c19a7921","ios":"levelo://app?vid=86093f0a-ec87-4584-8e8b-9da1c19a7921"},"vehicle_type_id":"4","last_reported":1711652721,"current_range_meters":13200,"station_id":"ce4bgip2rcd13ifvqbb0","pricing_plan_id":"cebpf4jnsgd1na2vs0mg"},{"bike_id":"dace17fb-df5d-4c08-86d6-db3210fada78","system_id":"levelo_inurba_marseille","lat":43.309034,"lon":5.371783,"is_reserved":false,"is_disabled":false,"rental_uris":{"android":"levelo://app?vid=dace17fb-df5d-4c08-86d6-db3210fada78","ios":"levelo://app?vid=dace17fb-df5d-4c08-86d6-db3210fada78"},"vehicle_type_id":"4","last_reported":1711652721,"current_range_meters":1600,"station_id":"ce4bguh2rcd13ifvqckg","pricing_plan_id":"cebpf4jnsgd1na2vs0mg"},{"bike_id":"ec47c687-f20f-4be4-bdce-80c9e1470778","system_id":"levelo_inurba_marseille","lat":43.304274,"lon":5.388873,"is_reserved":false,"is_disabled":false,"rental_uris":{"android":"levelo://app?vid=ec47c687-f20f-4be4-bdce-80c9e1470778","ios":"levelo://app?vid=ec47c687-f20f-4be4-bdce-80c9e1470778"},"vehicle_type_id":"4","last_reported":1711652721,"current_range_meters":18800,"station_id":"ce4bgk12rcd13ifvqbi0","pricing_plan_id":"cebpf4jnsgd1na2vs0mg"},{"bike_id":"e3c10228-f733-4cd7-991f-3489ae54047c","system_id":"levelo_inurba_marseille","lat":43.298037,"lon":5.381066,"is_reserved":false,"is_disabled":false,"rental_uris":{"android":"levelo://app?vid=e3c10228-f733-4cd7-991f-3489ae54047c","ios":"levelo://app?vid=e3c10228-f733-4cd7-991f-3489ae54047c"},"vehicle_type_id":"4","last_reported":1711652721,"current_range_meters":4000,"station_id":"ce4bgip2rcd13ifvqbb0","pricing_plan_id":"cebpf4jnsgd1na2vs0mg"},{"bike_id":"bd43ec09-f696-490b-9635-d5750ac655ff","system_id":"levelo_inurba_marseille","lat":43.29791,"lon":5.38097,"is_reserved":false,"is_disabled":false,"rental_uris":{"android":"levelo://app?vid=bd43ec09-f696-490b-9635-d5750ac655ff","ios":"levelo://app?vid=bd43ec09-f696-490b-9635-d5750ac655ff"},"vehicle_type_id":"4","last_reported":1711652721,"current_range_meters":0,"station_id":"ce4bgip2rcd13ifvqbb0","pricing_plan_id":"cebpf4jnsgd1na2vs0mg"},{"bike_id":"95fb6bbb-cabc-4944-b0ba-f471807f2994","system_id":"levelo_inurba_marseille","lat":43.304274,"lon":5.388873,"is_reserved":false,"is_disabled":false,"rental_uris":{"android":"levelo://app?vid=95fb6bbb-cabc-4944-b0ba-f471807f2994","ios":"levelo://app?vid=95fb6bbb-cabc-4944-b0ba-f471807f2994"},"vehicle_type_id":"4","last_reported":1711652721,"current_range_meters":28800,"station_id":"ce4bgk12rcd13ifvqbi0","pricing_plan_id":"cebpf4jnsgd1na2vs0mg"},{"bike_id":"ef1f3a91-4a8d-416a-9f5e-45fec64fd346","system_id":"levelo_inurba_marseille","lat":43.2979,"lon":5.38104,"is_reserved":false,"is_disabled":false,"rental_uris":{"android":"levelo://app?vid=ef1f3a91-4a8d-416a-9f5e-45fec64fd346","ios":"levelo://app?vid=ef1f3a91-4a8d-416a-9f5e-45fec64fd346"},"vehicle_type_id":"4","last_reported":1711652721,"current_range_meters":4000,"station_id":"ce4bgip2rcd13ifvqbb0","pricing_plan_id":"cebpf4jnsgd1na2vs0mg"},{"bike_id":"1954028a-6eed-49c2-af3c-6304f18a142d","system_id":"levelo_inurba_marseille","lat":43.30423,"lon":5.388808,"is_reserved":false,"is_disabled":false,"rental_uris":{"android":"levelo://app?vid=1954028a-6eed-49c2-af3c-6304f18a142d","ios":"levelo://app?vid=1954028a-6eed-49c2-af3c-6304f18a142d"},"vehicle_type_id":"4","last_reported":1711652721,"current_range_meters":0,"station_id":"ce4bgk12rcd13ifvqbi0","pricing_plan_id":"cebpf4jnsgd1na2vs0mg"},{"bike_id":"438c0399-e83e-4802-bb8a-f8c2dac12a8e","system_id":"levelo_inurba_marseille","lat":43.304274,"lon":5.388873,"is_reserved":false,"is_disabled":false,"rental_uris":{"android":"levelo://app?vid=438c0399-e83e-4802-bb8a-f8c2dac12a8e","ios":"levelo://app?vid=438c0399-e83e-4802-bb8a-f8c2dac12a8e"},"vehicle_type_id":"4","last_reported":1711652721,"current_range_meters":10000,"station_id":"ce4bgk12rcd13ifvqbi0","pricing_plan_id":"cebpf4jnsgd1na2vs0mg"},{"bike_id":"94883c6d-6dda-4beb-bec9-86755a9a1696","system_id":"levelo_inurba_marseille","lat":43.301429,"lon":5.37413,"is_reserved":false,"is_disabled":false,"rental_uris":{"android":"levelo://app?vid=94883c6d-6dda-4beb-bec9-86755a9a1696","ios":"levelo://app?vid=94883c6d-6dda-4beb-bec9-86755a9a1696"},"vehicle_type_id":"4","last_reported":1711652721,"current_range_meters":2800,"station_id":"ce4bgs92rcd13ifvqcc0","pricing_plan_id":"cebpf4jnsgd1na2vs0mg"},{"bike_id":"010796f2-5803-4ba7-8bb3-8b37830af4cf","system_id":"levelo_inurba_marseille","lat":43.29788,"lon":5.38112,"is_reserved":false,"is_disabled":false,"rental_uris":{"android":"levelo://app?vid=010796f2-5803-4ba7-8bb3-8b37830af4cf","ios":"levelo://app?vid=010796f2-5803-4ba7-8bb3-8b37830af4cf"},"vehicle_type_id":"4","last_reported":1711652721,"current_range_meters":0,"station_id":"ce4bgip2rcd13ifvqbb0","pricing_plan_id":"cebpf4jnsgd1na2vs0mg"},{"bike_id":"91617139-7c94-440a-97f0-0cb977adfd23","system_id":"levelo_inurba_marseille","lat":43.2978,"lon":5.38104,"is_reserved":false,"is_disabled":false,"rental_uris":{"android":"levelo://app?vid=91617139-7c94-440a-97f0-0cb977adfd23","ios":"levelo://app?vid=91617139-7c94-440a-97f0-0cb977adfd23"},"vehicle_type_id":"4","last_reported":1711652721,"current_range_meters":0,"station_id":"ce4bgip2rcd13ifvqbb0","pricing_plan_id":"cebpf4jnsgd1na2vs0mg"},{"bike_id":"9966f537-eb8d-44ba-8334-e175946f7703","system_id":"levelo_inurba_marseille","lat":43.297815,"lon":5.393548,"is_reserved":false,"is_disabled":false,"rental_uris":{"android":"levelo://app?vid=9966f537-eb8d-44ba-8334-e175946f7703","ios":"levelo://app?vid=9966f537-eb8d-44ba-8334-e175946f7703"},"vehicle_type_id":"4","last_reported":1711652721,"current_range_meters":19600,"station_id":"chh1huq6cuj3fo74tm60","pricing_plan_id":"cebpf4jnsgd1na2vs0mg"},{"bike_id":"2dffc380-a748-4a64-ad2f-bf8428217f41","system_id":"levelo_inurba_marseille","lat":43.309589,"lon":5.390258,"is_reserved":false,"is_disabled":false,"rental_uris":{"android":"levelo://app?vid=2dffc380-a748-4a64-ad2f-bf8428217f41","ios":"levelo://app?vid=2dffc380-a748-4a64-ad2f-bf8428217f41"},"vehicle_type_id":"4","last_reported":1711652721,"current_range_meters":17600,"station_id":"ce4bgup2rcd13ifvqco0","pricing_plan_id":"cebpf4jnsgd1na2vs0mg"},{"bike_id":"1a4573b1-6b47-452c-bcdf-4741ac90fd35","system_id":"levelo_inurba_marseille","lat":43.295339,"lon":5.374422,"is_reserved":false,"is_disabled":false,"rental_uris":{"android":"levelo://app?vid=1a4573b1-6b47-452c-bcdf-4741ac90fd35","ios":"levelo://app?vid=1a4573b1-6b47-452c-bcdf-4741ac90fd35"},"vehicle_type_id":"4","last_reported":1711652721,"current_range_meters":0,"station_id":"","pricing_plan_id":"cebpf4jnsgd1na2vs0mg"},{"bike_id":"62aeec34-33a1-47c0-bf6f-415736e77864","system_id":"levelo_inurba_marseille","lat":43.29616,"lon":5.37737,"is_reserved":false,"is_disabled":false,"rental_uris":{"android":"levelo://app?vid=62aeec34-33a1-47c0-bf6f-415736e77864","ios":"levelo://app?vid=62aeec34-33a1-47c0-bf6f-415736e77864"},"vehicle_type_id":"4","last_reported":1711652721,"current_range_meters":30400,"station_id":"ce4bgi92rcd13ifvqb90","pricing_plan_id":"cebpf4jnsgd1na2vs0mg"},{"bike_id":"b55982cb-a125-4570-860a-93c2fc9c05a3","system_id":"levelo_inurba_marseille","lat":43.29605,"lon":5.37713,"is_reserved":false,"is_disabled":false,"rental_uris":{"android":"levelo://app?vid=b55982cb-a125-4570-860a-93c2fc9c05a3","ios":"levelo://app?vid=b55982cb-a125-4570-860a-93c2fc9c05a3"},"vehicle_type_id":"4","last_reported":1711652721,"current_range_meters":0,"station_id":"ce4bgi92rcd13ifvqb90","pricing_plan_id":"cebpf4jnsgd1na2vs0mg"},{"bike_id":"730d9cc0-87bc-462d-a107-83c034711031","system_id":"levelo_inurba_marseille","lat":43.299707,"lon":5.384859,"is_reserved":false,"is_disabled":false,"rental_uris":{"android":"levelo://app?vid=730d9cc0-87bc-462d-a107-83c034711031","ios":"levelo://app?vid=730d9cc0-87bc-462d-a107-83c034711031"},"vehicle_type_id":"4","last_reported":1711652721,"current_range_meters":0,"station_id":"ce4bgj92rcd13ifvqbd0","pricing_plan_id":"cebpf4jnsgd1na2vs0mg"},{"bike_id":"cf030bd4-4040-4d45-9112-b0bc17746e95","system_id":"levelo_inurba_marseille","lat":43.295279,"lon":5.375048,"is_reserved":false,"is_disabled":false,"rental_uris":{"android":"levelo://app?vid=cf030bd4-4040-4d45-9112-b0bc17746e95","ios":"levelo://app?vid=cf030bd4-4040-4d45-9112-b0bc17746e95"},"vehicle_type_id":"4","last_reported":1711652721,"current_range_meters":0,"station_id":"ce4bgkp2rcd13ifvqbmg","pricing_plan_id":"cebpf4jnsgd1na2vs0mg"},{"bike_id":"3e409826-6abb-4b8a-a252-89ea0dcde357","system_id":"levelo_inurba_marseille","lat":43.29522,"lon":5.375003,"is_reserved":false,"is_disabled":false,"rental_uris":{"android":"levelo://app?vid=3e409826-6abb-4b8a-a252-89ea0dcde357","ios":"levelo://app?vid=3e409826-6abb-4b8a-a252-89ea0dcde357"},"vehicle_type_id":"4","last_reported":1711652721,"current_range_meters":0,"station_id":"ce4bgkp2rcd13ifvqbmg","pricing_plan_id":"cebpf4jnsgd1na2vs0mg"},{"bike_id":"c376457f-9975-491d-89aa-27b0a08a2d08","system_id":"levelo_inurba_marseille","lat":43.299724,"lon":5.384848,"is_reserved":false,"is_disabled":false,"rental_uris":{"android":"levelo://app?vid=c376457f-9975-491d-89aa-27b0a08a2d08","ios":"levelo://app?vid=c376457f-9975-491d-89aa-27b0a08a2d08"},"vehicle_type_id":"4","last_reported":1711652721,"current_range_meters":20000,"station_id":"ce4bgj92rcd13ifvqbd0","pricing_plan_id":"cebpf4jnsgd1na2vs0mg"},{"bike_id":"4bee18e0-ec50-4f46-991e-89940fe07714","system_id":"levelo_inurba_marseille","lat":43.32367,"lon":5.388836,"is_reserved":false,"is_disabled":false,"rental_uris":{"android":"levelo://app?vid=4bee18e0-ec50-4f46-991e-89940fe07714","ios":"levelo://app?vid=4bee18e0-ec50-4f46-991e-89940fe07714"},"vehicle_type_id":"4","last_reported":1711652721,"current_range_meters":8800,"station_id":"ce4bhqp2rcd13ifvqhog","pricing_plan_id":"cebpf4jnsgd1na2vs0mg"},{"bike_id":"05305c88-e413-4cbd-9dc5-6d4f0a24c09f","system_id":"levelo_inurba_marseille","lat":43.32367,"lon":5.388836,"is_reserved":false,"is_disabled":false,"rental_uris":{"android":"levelo://app?vid=05305c88-e413-4cbd-9dc5-6d4f0a24c09f","ios":"levelo://app?vid=05305c88-e413-4cbd-9dc5-6d4f0a24c09f"},"vehicle_type_id":"4","last_reported":1711652721,"current_range_meters":7200,"station_id":"ce4bhqp2rcd13ifvqhog","pricing_plan_id":"cebpf4jnsgd1na2vs0mg"},{"bike_id":"f4f06a98-fad7-4671-b11e-16c23a8e2b3d","system_id":"levelo_inurba_marseille","lat":43.32367,"lon":5.388836,"is_reserved":false,"is_disabled":false,"rental_uris":{"android":"levelo://app?vid=f4f06a98-fad7-4671-b11e-16c23a8e2b3d","ios":"levelo://app?vid=f4f06a98-fad7-4671-b11e-16c23a8e2b3d"},"vehicle_type_id":"4","last_reported":1711652721,"current_range_meters":12400,"station_id":"ce4bhqp2rcd13ifvqhog","pricing_plan_id":"cebpf4jnsgd1na2vs0mg"},{"bike_id":"f5f1a870-2efe-4f1a-b8d8-e342b746a405","system_id":"levelo_inurba_marseille","lat":43.32367,"lon":5.388836,"is_reserved":false,"is_disabled":false,"rental_uris":{"android":"levelo://app?vid=f5f1a870-2efe-4f1a-b8d8-e342b746a405","ios":"levelo://app?vid=f5f1a870-2efe-4f1a-b8d8-e342b746a405"},"vehicle_type_id":"4","last_reported":1711652721,"current_range_meters":22000,"station_id":"ce4bhqp2rcd13ifvqhog","pricing_plan_id":"cebpf4jnsgd1na2vs0mg"},{"bike_id":"6648a5a4-a9a8-49eb-be44-5b62fa4b1ce4","system_id":"levelo_inurba_marseille","lat":43.32367,"lon":5.388836,"is_reserved":false,"is_disabled":false,"rental_uris":{"android":"levelo://app?vid=6648a5a4-a9a8-49eb-be44-5b62fa4b1ce4","ios":"levelo://app?vid=6648a5a4-a9a8-49eb-be44-5b62fa4b1ce4"},"vehicle_type_id":"4","last_reported":1711652721,"current_range_meters":21200,"station_id":"ce4bhqp2rcd13ifvqhog","pricing_plan_id":"cebpf4jnsgd1na2vs0mg"},{"bike_id":"d15381f7-6688-4bf6-87c1-20054670f7ae","system_id":"levelo_inurba_marseille","lat":43.294322,"lon":5.37546,"is_reserved":false,"is_disabled":false,"rental_uris":{"android":"levelo://app?vid=d15381f7-6688-4bf6-87c1-20054670f7ae","ios":"levelo://app?vid=d15381f7-6688-4bf6-87c1-20054670f7ae"},"vehicle_type_id":"4","last_reported":1711652721,"current_range_meters":1200,"station_id":"","pricing_plan_id":"cebpf4jnsgd1na2vs0mg"},{"bike_id":"08447f01-d246-4153-9f64-0d39a84dc74b","system_id":"levelo_inurba_marseille","lat":43.29602,"lon":5.381084,"is_reserved":false,"is_disabled":false,"rental_uris":{"android":"levelo://app?vid=08447f01-d246-4153-9f64-0d39a84dc74b","ios":"levelo://app?vid=08447f01-d246-4153-9f64-0d39a84dc74b"},"vehicle_type_id":"4","last_reported":1711652721,"current_range_meters":2800,"station_id":"ce4bgl12rcd13ifvqbo0","pricing_plan_id":"cebpf4jnsgd1na2vs0mg"},{"bike_id":"4c95fb36-323d-40c2-9ea5-0fe226e0bee4","system_id":"levelo_inurba_marseille","lat":43.29601,"lon":5.381084,"is_reserved":false,"is_disabled":false,"rental_uris":{"android":"levelo://app?vid=4c95fb36-323d-40c2-9ea5-0fe226e0bee4","ios":"levelo://app?vid=4c95fb36-323d-40c2-9ea5-0fe226e0bee4"},"vehicle_type_id":"4","last_reported":1711652721,"current_range_meters":4800,"station_id":"ce4bgl12rcd13ifvqbo0","pricing_plan_id":"cebpf4jnsgd1na2vs0mg"},{"bike_id":"05d04fbc-fac4-41bf-9dbe-c47bc3cea5c0","system_id":"levelo_inurba_marseille","lat":43.29602,"lon":5.381084,"is_reserved":false,"is_disabled":false,"rental_uris":{"android":"levelo://app?vid=05d04fbc-fac4-41bf-9dbe-c47bc3cea5c0","ios":"levelo://app?vid=05d04fbc-fac4-41bf-9dbe-c47bc3cea5c0"},"vehicle_type_id":"4","last_reported":1711652721,"current_range_meters":5600,"station_id":"ce4bgl12rcd13ifvqbo0","pricing_plan_id":"cebpf4jnsgd1na2vs0mg"},{"bike_id":"535ecb8d-d0fc-4435-9348-c8ac80a099ec","system_id":"levelo_inurba_marseille","lat":43.293097,"lon":5.371265,"is_reserved":false,"is_disabled":false,"rental_uris":{"android":"levelo://app?vid=535ecb8d-d0fc-4435-9348-c8ac80a099ec","ios":"levelo://app?vid=535ecb8d-d0fc-4435-9348-c8ac80a099ec"},"vehicle_type_id":"4","last_reported":1711652721,"current_range_meters":0,"station_id":"","pricing_plan_id":"cebpf4jnsgd1na2vs0mg"},{"bike_id":"628c2283-7f01-43af-9124-c19ccecb9742","system_id":"levelo_inurba_marseille","lat":43.292749,"lon":5.368402,"is_reserved":false,"is_disabled":false,"rental_uris":{"android":"levelo://app?vid=628c2283-7f01-43af-9124-c19ccecb9742","ios":"levelo://app?vid=628c2283-7f01-43af-9124-c19ccecb9742"},"vehicle_type_id":"4","last_reported":1711652721,"current_range_meters":9600,"station_id":"ce4bhbp2rcd13ifvqesg","pricing_plan_id":"cebpf4jnsgd1na2vs0mg"},{"bike_id":"1d8beb79-b174-4e1b-956d-f8af8275525d","system_id":"levelo_inurba_marseille","lat":43.292749,"lon":5.368402,"is_reserved":false,"is_disabled":false,"rental_uris":{"android":"levelo://app?vid=1d8beb79-b174-4e1b-956d-f8af8275525d","ios":"levelo://app?vid=1d8beb79-b174-4e1b-956d-f8af8275525d"},"vehicle_type_id":"4","last_reported":1711652721,"current_range_meters":0,"station_id":"ce4bhbp2rcd13ifvqesg","pricing_plan_id":"cebpf4jnsgd1na2vs0mg"},{"bike_id":"3b089a12-a011-4405-b85a-edd8b699660b","system_id":"levelo_inurba_marseille","lat":43.292749,"lon":5.368402,"is_reserved":false,"is_disabled":false,"rental_uris":{"android":"levelo://app?vid=3b089a12-a011-4405-b85a-edd8b699660b","ios":"levelo://app?vid=3b089a12-a011-4405-b85a-edd8b699660b"},"vehicle_type_id":"4","last_reported":1711652721,"current_range_meters":22000,"station_id":"ce4bhbp2rcd13ifvqesg","pricing_plan_id":"cebpf4jnsgd1na2vs0mg"},{"bike_id":"c8faa6e3-bf90-445e-8e90-cea1782242f5","system_id":"levelo_inurba_marseille","lat":43.293259,"lon":5.371586,"is_reserved":false,"is_disabled":false,"rental_uris":{"android":"levelo://app?vid=c8faa6e3-bf90-445e-8e90-cea1782242f5","ios":"levelo://app?vid=c8faa6e3-bf90-445e-8e90-cea1782242f5"},"vehicle_type_id":"4","last_reported":1711652721,"current_range_meters":13200,"station_id":"ce4bgh92rcd13ifvqb40","pricing_plan_id":"cebpf4jnsgd1na2vs0mg"},{"bike_id":"d04c1343-55b6-4f54-b987-bb42dadf0b1f","system_id":"levelo_inurba_marseille","lat":43.293259,"lon":5.371586,"is_reserved":false,"is_disabled":false,"rental_uris":{"android":"levelo://app?vid=d04c1343-55b6-4f54-b987-bb42dadf0b1f","ios":"levelo://app?vid=d04c1343-55b6-4f54-b987-bb42dadf0b1f"},"vehicle_type_id":"4","last_reported":1711652721,"current_range_meters":30400,"station_id":"ce4bgh92rcd13ifvqb40","pricing_plan_id":"cebpf4jnsgd1na2vs0mg"},{"bike_id":"0e02f24a-20a3-4965-b00b-15249fbcbf67","system_id":"levelo_inurba_marseille","lat":43.292749,"lon":5.368402,"is_reserved":false,"is_disabled":false,"rental_uris":{"android":"levelo://app?vid=0e02f24a-20a3-4965-b00b-15249fbcbf67","ios":"levelo://app?vid=0e02f24a-20a3-4965-b00b-15249fbcbf67"},"vehicle_type_id":"4","last_reported":1711652721,"current_range_meters":4000,"station_id":"ce4bhbp2rcd13ifvqesg","pricing_plan_id":"cebpf4jnsgd1na2vs0mg"},{"bike_id":"1eddbe9b-3d60-40ce-ad15-ca5fa1cc05f7","system_id":"levelo_inurba_marseille","lat":43.292749,"lon":5.368402,"is_reserved":false,"is_disabled":false,"rental_uris":{"android":"levelo://app?vid=1eddbe9b-3d60-40ce-ad15-ca5fa1cc05f7","ios":"levelo://app?vid=1eddbe9b-3d60-40ce-ad15-ca5fa1cc05f7"},"vehicle_type_id":"4","last_reported":1711652721,"current_range_meters":6800,"station_id":"ce4bhbp2rcd13ifvqesg","pricing_plan_id":"cebpf4jnsgd1na2vs0mg"},{"bike_id":"878fb2ef-3882-4900-b46a-413cc55947b7","system_id":"levelo_inurba_marseille","lat":43.292749,"lon":5.368402,"is_reserved":false,"is_disabled":false,"rental_uris":{"android":"levelo://app?vid=878fb2ef-3882-4900-b46a-413cc55947b7","ios":"levelo://app?vid=878fb2ef-3882-4900-b46a-413cc55947b7"},"vehicle_type_id":"4","last_reported":1711652721,"current_range_meters":20400,"station_id":"ce4bhbp2rcd13ifvqesg","pricing_plan_id":"cebpf4jnsgd1na2vs0mg"},{"bike_id":"b3832fd5-8259-4103-a586-ad7d58d6fb61","system_id":"levelo_inurba_marseille","lat":43.293259,"lon":5.371586,"is_reserved":false,"is_disabled":false,"rental_uris":{"android":"levelo://app?vid=b3832fd5-8259-4103-a586-ad7d58d6fb61","ios":"levelo://app?vid=b3832fd5-8259-4103-a586-ad7d58d6fb61"},"vehicle_type_id":"4","last_reported":1711652721,"current_range_meters":6400,"station_id":"ce4bgh92rcd13ifvqb40","pricing_plan_id":"cebpf4jnsgd1na2vs0mg"},{"bike_id":"2ca8c4f5-6cc9-47b7-b089-f3ccea8af170","system_id":"levelo_inurba_marseille","lat":43.293259,"lon":5.371586,"is_reserved":false,"is_disabled":false,"rental_uris":{"android":"levelo://app?vid=2ca8c4f5-6cc9-47b7-b089-f3ccea8af170","ios":"levelo://app?vid=2ca8c4f5-6cc9-47b7-b089-f3ccea8af170"},"vehicle_type_id":"4","last_reported":1711652721,"current_range_meters":5200,"station_id":"ce4bgh92rcd13ifvqb40","pricing_plan_id":"cebpf4jnsgd1na2vs0mg"},{"bike_id":"773e336a-ac77-4ade-af7e-308543cd14cd","system_id":"levelo_inurba_marseille","lat":43.292749,"lon":5.368402,"is_reserved":false,"is_disabled":false,"rental_uris":{"android":"levelo://app?vid=773e336a-ac77-4ade-af7e-308543cd14cd","ios":"levelo://app?vid=773e336a-ac77-4ade-af7e-308543cd14cd"},"vehicle_type_id":"4","last_reported":1711652721,"current_range_meters":12400,"station_id":"ce4bhbp2rcd13ifvqesg","pricing_plan_id":"cebpf4jnsgd1na2vs0mg"},{"bike_id":"94103ef5-b610-4457-b53d-19accd315e4a","system_id":"levelo_inurba_marseille","lat":43.292749,"lon":5.368402,"is_reserved":false,"is_disabled":false,"rental_uris":{"android":"levelo://app?vid=94103ef5-b610-4457-b53d-19accd315e4a","ios":"levelo://app?vid=94103ef5-b610-4457-b53d-19accd315e4a"},"vehicle_type_id":"4","last_reported":1711652721,"current_range_meters":23600,"station_id":"ce4bhbp2rcd13ifvqesg","pricing_plan_id":"cebpf4jnsgd1na2vs0mg"},{"bike_id":"28e43733-f971-4fd7-a105-d4770765d6bc","system_id":"levelo_inurba_marseille","lat":43.292749,"lon":5.368402,"is_reserved":false,"is_disabled":false,"rental_uris":{"android":"levelo://app?vid=28e43733-f971-4fd7-a105-d4770765d6bc","ios":"levelo://app?vid=28e43733-f971-4fd7-a105-d4770765d6bc"},"vehicle_type_id":"4","last_reported":1711652721,"current_range_meters":14800,"station_id":"ce4bhbp2rcd13ifvqesg","pricing_plan_id":"cebpf4jnsgd1na2vs0mg"},{"bike_id":"6df5e78f-35b6-4fab-b527-9f4a86b71860","system_id":"levelo_inurba_marseille","lat":43.292749,"lon":5.368402,"is_reserved":false,"is_disabled":false,"rental_uris":{"android":"levelo://app?vid=6df5e78f-35b6-4fab-b527-9f4a86b71860","ios":"levelo://app?vid=6df5e78f-35b6-4fab-b527-9f4a86b71860"},"vehicle_type_id":"4","last_reported":1711652721,"current_range_meters":12000,"station_id":"ce4bhbp2rcd13ifvqesg","pricing_plan_id":"cebpf4jnsgd1na2vs0mg"},{"bike_id":"be01263e-fac2-4ec6-bd33-04c93421476a","system_id":"levelo_inurba_marseille","lat":43.292749,"lon":5.368402,"is_reserved":false,"is_disabled":false,"rental_uris":{"android":"levelo://app?vid=be01263e-fac2-4ec6-bd33-04c93421476a","ios":"levelo://app?vid=be01263e-fac2-4ec6-bd33-04c93421476a"},"vehicle_type_id":"4","last_reported":1711652721,"current_range_meters":14000,"station_id":"ce4bhbp2rcd13ifvqesg","pricing_plan_id":"cebpf4jnsgd1na2vs0mg"},{"bike_id":"8c793a7d-d76a-43cb-b2d8-8117e54782bf","system_id":"levelo_inurba_marseille","lat":43.292749,"lon":5.368402,"is_reserved":false,"is_disabled":false,"rental_uris":{"android":"levelo://app?vid=8c793a7d-d76a-43cb-b2d8-8117e54782bf","ios":"levelo://app?vid=8c793a7d-d76a-43cb-b2d8-8117e54782bf"},"vehicle_type_id":"4","last_reported":1711652721,"current_range_meters":4400,"station_id":"ce4bhbp2rcd13ifvqesg","pricing_plan_id":"cebpf4jnsgd1na2vs0mg"},{"bike_id":"61df8ce3-a5e3-437b-91e6-0231824ce0ba","system_id":"levelo_inurba_marseille","lat":43.293249,"lon":5.371578,"is_reserved":false,"is_disabled":false,"rental_uris":{"android":"levelo://app?vid=61df8ce3-a5e3-437b-91e6-0231824ce0ba","ios":"levelo://app?vid=61df8ce3-a5e3-437b-91e6-0231824ce0ba"},"vehicle_type_id":"4","last_reported":1711652721,"current_range_meters":9600,"station_id":"ce4bgh92rcd13ifvqb40","pricing_plan_id":"cebpf4jnsgd1na2vs0mg"},{"bike_id":"1cccb042-3527-41c3-a17c-f1bc1cf56e05","system_id":"levelo_inurba_marseille","lat":43.292749,"lon":5.368402,"is_reserved":false,"is_disabled":false,"rental_uris":{"android":"levelo://app?vid=1cccb042-3527-41c3-a17c-f1bc1cf56e05","ios":"levelo://app?vid=1cccb042-3527-41c3-a17c-f1bc1cf56e05"},"vehicle_type_id":"4","last_reported":1711652721,"current_range_meters":4000,"station_id":"ce4bhbp2rcd13ifvqesg","pricing_plan_id":"cebpf4jnsgd1na2vs0mg"},{"bike_id":"a10cbed6-4130-4bd2-8b65-b944d2350e68","system_id":"levelo_inurba_marseille","lat":43.292749,"lon":5.368402,"is_reserved":false,"is_disabled":false,"rental_uris":{"android":"levelo://app?vid=a10cbed6-4130-4bd2-8b65-b944d2350e68","ios":"levelo://app?vid=a10cbed6-4130-4bd2-8b65-b944d2350e68"},"vehicle_type_id":"4","last_reported":1711652721,"current_range_meters":2000,"station_id":"ce4bhbp2rcd13ifvqesg","pricing_plan_id":"cebpf4jnsgd1na2vs0mg"},{"bike_id":"9b7c7ab6-ed9f-4c11-86c0-5a84c88558a9","system_id":"levelo_inurba_marseille","lat":43.292749,"lon":5.368402,"is_reserved":false,"is_disabled":false,"rental_uris":{"android":"levelo://app?vid=9b7c7ab6-ed9f-4c11-86c0-5a84c88558a9","ios":"levelo://app?vid=9b7c7ab6-ed9f-4c11-86c0-5a84c88558a9"},"vehicle_type_id":"4","last_reported":1711652721,"current_range_meters":2000,"station_id":"ce4bhbp2rcd13ifvqesg","pricing_plan_id":"cebpf4jnsgd1na2vs0mg"},{"bike_id":"e254f5d5-cc88-40cb-b95f-ae483630a116","system_id":"levelo_inurba_marseille","lat":43.292749,"lon":5.368402,"is_reserved":false,"is_disabled":false,"rental_uris":{"android":"levelo://app?vid=e254f5d5-cc88-40cb-b95f-ae483630a116","ios":"levelo://app?vid=e254f5d5-cc88-40cb-b95f-ae483630a116"},"vehicle_type_id":"4","last_reported":1711652721,"current_range_meters":0,"station_id":"ce4bhbp2rcd13ifvqesg","pricing_plan_id":"cebpf4jnsgd1na2vs0mg"},{"bike_id":"acf95947-5d70-4b05-adb6-d9258b429f65","system_id":"levelo_inurba_marseille","lat":43.292749,"lon":5.368402,"is_reserved":false,"is_disabled":false,"rental_uris":{"android":"levelo://app?vid=acf95947-5d70-4b05-adb6-d9258b429f65","ios":"levelo://app?vid=acf95947-5d70-4b05-adb6-d9258b429f65"},"vehicle_type_id":"4","last_reported":1711652721,"current_range_meters":4400,"station_id":"ce4bhbp2rcd13ifvqesg","pricing_plan_id":"cebpf4jnsgd1na2vs0mg"},{"bike_id":"d879ae9f-5377-4498-a0ed-e6b0d625ad2d","system_id":"levelo_inurba_marseille","lat":43.305994,"lon":5.393687,"is_reserved":false,"is_disabled":false,"rental_uris":{"android":"levelo://app?vid=d879ae9f-5377-4498-a0ed-e6b0d625ad2d","ios":"levelo://app?vid=d879ae9f-5377-4498-a0ed-e6b0d625ad2d"},"vehicle_type_id":"4","last_reported":1711652721,"current_range_meters":0,"station_id":"ce4bh0p2rcd13ifvqd80","pricing_plan_id":"cebpf4jnsgd1na2vs0mg"},{"bike_id":"db991c93-5e96-4823-9f49-d92a16c7e195","system_id":"levelo_inurba_marseille","lat":43.291675,"lon":5.371583,"is_reserved":false,"is_disabled":false,"rental_uris":{"android":"levelo://app?vid=db991c93-5e96-4823-9f49-d92a16c7e195","ios":"levelo://app?vid=db991c93-5e96-4823-9f49-d92a16c7e195"},"vehicle_type_id":"4","last_reported":1711652721,"current_range_meters":24400,"station_id":"ce4bha92rcd13ifvqeh0","pricing_plan_id":"cebpf4jnsgd1na2vs0mg"},{"bike_id":"70d07e70-3c63-4c60-a4e4-fc2d344bbe66","system_id":"levelo_inurba_marseille","lat":43.293009,"lon":5.374584,"is_reserved":false,"is_disabled":false,"rental_uris":{"android":"levelo://app?vid=70d07e70-3c63-4c60-a4e4-fc2d344bbe66","ios":"levelo://app?vid=70d07e70-3c63-4c60-a4e4-fc2d344bbe66"},"vehicle_type_id":"4","last_reported":1711652721,"current_range_meters":13600,"station_id":"ce4bgi12rcd13ifvqb70","pricing_plan_id":"cebpf4jnsgd1na2vs0mg"},{"bike_id":"bbeac050-7640-41cf-a965-1c7af12737a7","system_id":"levelo_inurba_marseille","lat":43.29569,"lon":5.38274,"is_reserved":false,"is_disabled":false,"rental_uris":{"android":"levelo://app?vid=bbeac050-7640-41cf-a965-1c7af12737a7","ios":"levelo://app?vid=bbeac050-7640-41cf-a965-1c7af12737a7"},"vehicle_type_id":"4","last_reported":1711652721,"current_range_meters":0,"station_id":"","pricing_plan_id":"cebpf4jnsgd1na2vs0mg"},{"bike_id":"3b9acbd5-af2b-4ed1-81dc-0dfb3f703617","system_id":"levelo_inurba_marseille","lat":43.305994,"lon":5.393687,"is_reserved":false,"is_disabled":false,"rental_uris":{"android":"levelo://app?vid=3b9acbd5-af2b-4ed1-81dc-0dfb3f703617","ios":"levelo://app?vid=3b9acbd5-af2b-4ed1-81dc-0dfb3f703617"},"vehicle_type_id":"4","last_reported":1711652721,"current_range_meters":19600,"station_id":"ce4bh0p2rcd13ifvqd80","pricing_plan_id":"cebpf4jnsgd1na2vs0mg"},{"bike_id":"3d8f225a-d5c0-494f-8c80-731f7f9bab94","system_id":"levelo_inurba_marseille","lat":43.298764,"lon":5.388973,"is_reserved":false,"is_disabled":false,"rental_uris":{"android":"levelo://app?vid=3d8f225a-d5c0-494f-8c80-731f7f9bab94","ios":"levelo://app?vid=3d8f225a-d5c0-494f-8c80-731f7f9bab94"},"vehicle_type_id":"4","last_reported":1711652721,"current_range_meters":12800,"station_id":"ce4bh392rcd13ifvqdl0","pricing_plan_id":"cebpf4jnsgd1na2vs0mg"},{"bike_id":"f2abfd08-8545-4f8b-b10f-c1e2b82bb13a","system_id":"levelo_inurba_marseille","lat":43.30299,"lon":5.39198,"is_reserved":false,"is_disabled":false,"rental_uris":{"android":"levelo://app?vid=f2abfd08-8545-4f8b-b10f-c1e2b82bb13a","ios":"levelo://app?vid=f2abfd08-8545-4f8b-b10f-c1e2b82bb13a"},"vehicle_type_id":"4","last_reported":1711652721,"current_range_meters":0,"station_id":"ce4bgkh2rcd13ifvqbk0","pricing_plan_id":"cebpf4jnsgd1na2vs0mg"},{"bike_id":"6d2b0010-4b3e-46f6-9d9e-a944f02c78d8","system_id":"levelo_inurba_marseille","lat":43.303002,"lon":5.392142,"is_reserved":false,"is_disabled":false,"rental_uris":{"android":"levelo://app?vid=6d2b0010-4b3e-46f6-9d9e-a944f02c78d8","ios":"levelo://app?vid=6d2b0010-4b3e-46f6-9d9e-a944f02c78d8"},"vehicle_type_id":"4","last_reported":1711652721,"current_range_meters":1200,"station_id":"ce4bgkh2rcd13ifvqbk0","pricing_plan_id":"cebpf4jnsgd1na2vs0mg"},{"bike_id":"8e95ef59-3a2c-48da-812e-51e155c43862","system_id":"levelo_inurba_marseille","lat":43.2936,"lon":5.37835,"is_reserved":false,"is_disabled":false,"rental_uris":{"android":"levelo://app?vid=8e95ef59-3a2c-48da-812e-51e155c43862","ios":"levelo://app?vid=8e95ef59-3a2c-48da-812e-51e155c43862"},"vehicle_type_id":"4","last_reported":1711652721,"current_range_meters":20800,"station_id":"ce4bgjh2rcd13ifvqbf0","pricing_plan_id":"cebpf4jnsgd1na2vs0mg"},{"bike_id":"42f7a543-40d2-406e-9834-5d517988d65b","system_id":"levelo_inurba_marseille","lat":43.300998,"lon":5.390747,"is_reserved":false,"is_disabled":false,"rental_uris":{"android":"levelo://app?vid=42f7a543-40d2-406e-9834-5d517988d65b","ios":"levelo://app?vid=42f7a543-40d2-406e-9834-5d517988d65b"},"vehicle_type_id":"4","last_reported":1711652721,"current_range_meters":0,"station_id":"ce4bh192rcd13ifvqdb0","pricing_plan_id":"cebpf4jnsgd1na2vs0mg"},{"bike_id":"a745db81-3c76-4fb0-b1bd-64f4db34ab4f","system_id":"levelo_inurba_marseille","lat":43.300852,"lon":5.390859,"is_reserved":false,"is_disabled":false,"rental_uris":{"android":"levelo://app?vid=a745db81-3c76-4fb0-b1bd-64f4db34ab4f","ios":"levelo://app?vid=a745db81-3c76-4fb0-b1bd-64f4db34ab4f"},"vehicle_type_id":"4","last_reported":1711652721,"current_range_meters":6800,"station_id":"ce4bh192rcd13ifvqdb0","pricing_plan_id":"cebpf4jnsgd1na2vs0mg"},{"bike_id":"dbfc1d57-1fee-4a9d-8c8f-a722c606ca3b","system_id":"levelo_inurba_marseille","lat":43.298764,"lon":5.388973,"is_reserved":false,"is_disabled":false,"rental_uris":{"android":"levelo://app?vid=dbfc1d57-1fee-4a9d-8c8f-a722c606ca3b","ios":"levelo://app?vid=dbfc1d57-1fee-4a9d-8c8f-a722c606ca3b"},"vehicle_type_id":"4","last_reported":1711652721,"current_range_meters":5200,"station_id":"ce4bh392rcd13ifvqdl0","pricing_plan_id":"cebpf4jnsgd1na2vs0mg"},{"bike_id":"26226e35-a79d-4e20-a243-fd78ca300135","system_id":"levelo_inurba_marseille","lat":43.291671,"lon":5.371575,"is_reserved":false,"is_disabled":false,"rental_uris":{"android":"levelo://app?vid=26226e35-a79d-4e20-a243-fd78ca300135","ios":"levelo://app?vid=26226e35-a79d-4e20-a243-fd78ca300135"},"vehicle_type_id":"4","last_reported":1711652721,"current_range_meters":0,"station_id":"ce4bha92rcd13ifvqeh0","pricing_plan_id":"cebpf4jnsgd1na2vs0mg"},{"bike_id":"c51b6ebc-01d7-47c8-a8d7-bf9b4626de2d","system_id":"levelo_inurba_marseille","lat":43.291671,"lon":5.371575,"is_reserved":false,"is_disabled":false,"rental_uris":{"android":"levelo://app?vid=c51b6ebc-01d7-47c8-a8d7-bf9b4626de2d","ios":"levelo://app?vid=c51b6ebc-01d7-47c8-a8d7-bf9b4626de2d"},"vehicle_type_id":"4","last_reported":1711652721,"current_range_meters":5600,"station_id":"ce4bha92rcd13ifvqeh0","pricing_plan_id":"cebpf4jnsgd1na2vs0mg"},{"bike_id":"47078e1c-97f9-436b-8f67-909716934fd2","system_id":"levelo_inurba_marseille","lat":43.291675,"lon":5.371583,"is_reserved":false,"is_disabled":false,"rental_uris":{"android":"levelo://app?vid=47078e1c-97f9-436b-8f67-909716934fd2","ios":"levelo://app?vid=47078e1c-97f9-436b-8f67-909716934fd2"},"vehicle_type_id":"4","last_reported":1711652721,"current_range_meters":1600,"station_id":"ce4bha92rcd13ifvqeh0","pricing_plan_id":"cebpf4jnsgd1na2vs0mg"},{"bike_id":"99148dfa-fdc9-41bc-b76b-750aeca24668","system_id":"levelo_inurba_marseille","lat":43.292593,"lon":5.37633,"is_reserved":false,"is_disabled":false,"rental_uris":{"android":"levelo://app?vid=99148dfa-fdc9-41bc-b76b-750aeca24668","ios":"levelo://app?vid=99148dfa-fdc9-41bc-b76b-750aeca24668"},"vehicle_type_id":"4","last_reported":1711652721,"current_range_meters":4400,"station_id":"","pricing_plan_id":"cebpf4jnsgd1na2vs0mg"},{"bike_id":"28449022-df55-4d2a-950c-e4a764bd6e9d","system_id":"levelo_inurba_marseille","lat":43.29169,"lon":5.37149,"is_reserved":false,"is_disabled":false,"rental_uris":{"android":"levelo://app?vid=28449022-df55-4d2a-950c-e4a764bd6e9d","ios":"levelo://app?vid=28449022-df55-4d2a-950c-e4a764bd6e9d"},"vehicle_type_id":"4","last_reported":1711652721,"current_range_meters":0,"station_id":"ce4bha92rcd13ifvqeh0","pricing_plan_id":"cebpf4jnsgd1na2vs0mg"},{"bike_id":"c6441d7c-562c-46e5-b3f0-0ae81502f059","system_id":"levelo_inurba_marseille","lat":43.298764,"lon":5.388973,"is_reserved":false,"is_disabled":false,"rental_uris":{"android":"levelo://app?vid=c6441d7c-562c-46e5-b3f0-0ae81502f059","ios":"levelo://app?vid=c6441d7c-562c-46e5-b3f0-0ae81502f059"},"vehicle_type_id":"4","last_reported":1711652721,"current_range_meters":27200,"station_id":"ce4bh392rcd13ifvqdl0","pricing_plan_id":"cebpf4jnsgd1na2vs0mg"},{"bike_id":"03c345d4-375b-4f7a-b3e0-2c3f71a68c31","system_id":"levelo_inurba_marseille","lat":43.291675,"lon":5.371583,"is_reserved":false,"is_disabled":false,"rental_uris":{"android":"levelo://app?vid=03c345d4-375b-4f7a-b3e0-2c3f71a68c31","ios":"levelo://app?vid=03c345d4-375b-4f7a-b3e0-2c3f71a68c31"},"vehicle_type_id":"4","last_reported":1711652721,"current_range_meters":4000,"station_id":"ce4bha92rcd13ifvqeh0","pricing_plan_id":"cebpf4jnsgd1na2vs0mg"},{"bike_id":"8f77174a-56ac-485c-b809-d85dde86205a","system_id":"levelo_inurba_marseille","lat":43.298764,"lon":5.388973,"is_reserved":false,"is_disabled":false,"rental_uris":{"android":"levelo://app?vid=8f77174a-56ac-485c-b809-d85dde86205a","ios":"levelo://app?vid=8f77174a-56ac-485c-b809-d85dde86205a"},"vehicle_type_id":"4","last_reported":1711652721,"current_range_meters":1600,"station_id":"ce4bh392rcd13ifvqdl0","pricing_plan_id":"cebpf4jnsgd1na2vs0mg"},{"bike_id":"28f8513b-5fdf-499b-bb7a-5cea095a336f","system_id":"levelo_inurba_marseille","lat":43.298764,"lon":5.388973,"is_reserved":false,"is_disabled":false,"rental_uris":{"android":"levelo://app?vid=28f8513b-5fdf-499b-bb7a-5cea095a336f","ios":"levelo://app?vid=28f8513b-5fdf-499b-bb7a-5cea095a336f"},"vehicle_type_id":"4","last_reported":1711652721,"current_range_meters":2000,"station_id":"ce4bh392rcd13ifvqdl0","pricing_plan_id":"cebpf4jnsgd1na2vs0mg"},{"bike_id":"58f8d4b1-32c7-4e20-a4dc-d7a8680fa30c","system_id":"levelo_inurba_marseille","lat":43.29872,"lon":5.38908,"is_reserved":false,"is_disabled":false,"rental_uris":{"android":"levelo://app?vid=58f8d4b1-32c7-4e20-a4dc-d7a8680fa30c","ios":"levelo://app?vid=58f8d4b1-32c7-4e20-a4dc-d7a8680fa30c"},"vehicle_type_id":"4","last_reported":1711652721,"current_range_meters":7600,"station_id":"ce4bh392rcd13ifvqdl0","pricing_plan_id":"cebpf4jnsgd1na2vs0mg"},{"bike_id":"0d054889-3804-4e70-9ec6-72a74a82d368","system_id":"levelo_inurba_marseille","lat":43.291675,"lon":5.371583,"is_reserved":false,"is_disabled":false,"rental_uris":{"android":"levelo://app?vid=0d054889-3804-4e70-9ec6-72a74a82d368","ios":"levelo://app?vid=0d054889-3804-4e70-9ec6-72a74a82d368"},"vehicle_type_id":"4","last_reported":1711652721,"current_range_meters":25600,"station_id":"ce4bha92rcd13ifvqeh0","pricing_plan_id":"cebpf4jnsgd1na2vs0mg"},{"bike_id":"8d5fdec0-fbfc-4dea-a7f4-ba9702b0bf01","system_id":"levelo_inurba_marseille","lat":43.291994,"lon":5.357886,"is_reserved":false,"is_disabled":false,"rental_uris":{"android":"levelo://app?vid=8d5fdec0-fbfc-4dea-a7f4-ba9702b0bf01","ios":"levelo://app?vid=8d5fdec0-fbfc-4dea-a7f4-ba9702b0bf01"},"vehicle_type_id":"4","last_reported":1711652721,"current_range_meters":23600,"station_id":"ce4bhb12rcd13ifvqel0","pricing_plan_id":"cebpf4jnsgd1na2vs0mg"},{"bike_id":"e0785e2e-1cda-4c93-be1e-9b07469724ee","system_id":"levelo_inurba_marseille","lat":43.31326,"lon":5.39684,"is_reserved":false,"is_disabled":false,"rental_uris":{"android":"levelo://app?vid=e0785e2e-1cda-4c93-be1e-9b07469724ee","ios":"levelo://app?vid=e0785e2e-1cda-4c93-be1e-9b07469724ee"},"vehicle_type_id":"4","last_reported":1711652721,"current_range_meters":26000,"station_id":"ce4bgvp2rcd13ifvqcu0","pricing_plan_id":"cebpf4jnsgd1na2vs0mg"},{"bike_id":"05bb1342-a329-4bfa-a25d-e1ea2b50d2c1","system_id":"levelo_inurba_marseille","lat":43.29193,"lon":5.35808,"is_reserved":false,"is_disabled":false,"rental_uris":{"android":"levelo://app?vid=05bb1342-a329-4bfa-a25d-e1ea2b50d2c1","ios":"levelo://app?vid=05bb1342-a329-4bfa-a25d-e1ea2b50d2c1"},"vehicle_type_id":"4","last_reported":1711652721,"current_range_meters":0,"station_id":"ce4bhb12rcd13ifvqel0","pricing_plan_id":"cebpf4jnsgd1na2vs0mg"},{"bike_id":"43864cd7-17dc-4252-877f-f0ce261f6a68","system_id":"levelo_inurba_marseille","lat":43.30879,"lon":5.39639,"is_reserved":false,"is_disabled":false,"rental_uris":{"android":"levelo://app?vid=43864cd7-17dc-4252-877f-f0ce261f6a68","ios":"levelo://app?vid=43864cd7-17dc-4252-877f-f0ce261f6a68"},"vehicle_type_id":"4","last_reported":1711652721,"current_range_meters":0,"station_id":"ce4bh012rcd13ifvqcv0","pricing_plan_id":"cebpf4jnsgd1na2vs0mg"},{"bike_id":"3373e596-95e0-44bd-a832-29d1cad92c09","system_id":"levelo_inurba_marseille","lat":43.313291,"lon":5.396838,"is_reserved":false,"is_disabled":false,"rental_uris":{"android":"levelo://app?vid=3373e596-95e0-44bd-a832-29d1cad92c09","ios":"levelo://app?vid=3373e596-95e0-44bd-a832-29d1cad92c09"},"vehicle_type_id":"4","last_reported":1711652721,"current_range_meters":16000,"station_id":"ce4bgvp2rcd13ifvqcu0","pricing_plan_id":"cebpf4jnsgd1na2vs0mg"},{"bike_id":"8e5f6abb-9b60-4bc9-844c-6d6e5d5964b9","system_id":"levelo_inurba_marseille","lat":43.313291,"lon":5.396838,"is_reserved":false,"is_disabled":false,"rental_uris":{"android":"levelo://app?vid=8e5f6abb-9b60-4bc9-844c-6d6e5d5964b9","ios":"levelo://app?vid=8e5f6abb-9b60-4bc9-844c-6d6e5d5964b9"},"vehicle_type_id":"4","last_reported":1711652721,"current_range_meters":32000,"station_id":"ce4bgvp2rcd13ifvqcu0","pricing_plan_id":"cebpf4jnsgd1na2vs0mg"},{"bike_id":"82afc1e0-1fe3-4b1c-bcca-3f4f8d64d201","system_id":"levelo_inurba_marseille","lat":43.313291,"lon":5.396838,"is_reserved":false,"is_disabled":false,"rental_uris":{"android":"levelo://app?vid=82afc1e0-1fe3-4b1c-bcca-3f4f8d64d201","ios":"levelo://app?vid=82afc1e0-1fe3-4b1c-bcca-3f4f8d64d201"},"vehicle_type_id":"4","last_reported":1711652721,"current_range_meters":8800,"station_id":"ce4bgvp2rcd13ifvqcu0","pricing_plan_id":"cebpf4jnsgd1na2vs0mg"},{"bike_id":"24663d5c-6a02-412d-87d0-b4bbc85977a2","system_id":"levelo_inurba_marseille","lat":43.313291,"lon":5.396838,"is_reserved":false,"is_disabled":false,"rental_uris":{"android":"levelo://app?vid=24663d5c-6a02-412d-87d0-b4bbc85977a2","ios":"levelo://app?vid=24663d5c-6a02-412d-87d0-b4bbc85977a2"},"vehicle_type_id":"4","last_reported":1711652721,"current_range_meters":11600,"station_id":"ce4bgvp2rcd13ifvqcu0","pricing_plan_id":"cebpf4jnsgd1na2vs0mg"},{"bike_id":"2d7e90e5-0fe5-47d9-b652-74c4ccc28477","system_id":"levelo_inurba_marseille","lat":43.313291,"lon":5.396838,"is_reserved":false,"is_disabled":false,"rental_uris":{"android":"levelo://app?vid=2d7e90e5-0fe5-47d9-b652-74c4ccc28477","ios":"levelo://app?vid=2d7e90e5-0fe5-47d9-b652-74c4ccc28477"},"vehicle_type_id":"4","last_reported":1711652721,"current_range_meters":32000,"station_id":"ce4bgvp2rcd13ifvqcu0","pricing_plan_id":"cebpf4jnsgd1na2vs0mg"},{"bike_id":"c4a1ba26-3bfd-476a-9f27-4b07557da504","system_id":"levelo_inurba_marseille","lat":43.30881,"lon":5.39644,"is_reserved":false,"is_disabled":false,"rental_uris":{"android":"levelo://app?vid=c4a1ba26-3bfd-476a-9f27-4b07557da504","ios":"levelo://app?vid=c4a1ba26-3bfd-476a-9f27-4b07557da504"},"vehicle_type_id":"4","last_reported":1711652721,"current_range_meters":0,"station_id":"ce4bh012rcd13ifvqcv0","pricing_plan_id":"cebpf4jnsgd1na2vs0mg"},{"bike_id":"4848517b-9778-4be3-a6bd-4d75a7756f84","system_id":"levelo_inurba_marseille","lat":43.313291,"lon":5.396838,"is_reserved":false,"is_disabled":false,"rental_uris":{"android":"levelo://app?vid=4848517b-9778-4be3-a6bd-4d75a7756f84","ios":"levelo://app?vid=4848517b-9778-4be3-a6bd-4d75a7756f84"},"vehicle_type_id":"4","last_reported":1711652721,"current_range_meters":22400,"station_id":"ce4bgvp2rcd13ifvqcu0","pricing_plan_id":"cebpf4jnsgd1na2vs0mg"},{"bike_id":"d3fbe4d8-af5c-4cb0-bc16-b010f8a46d0e","system_id":"levelo_inurba_marseille","lat":43.313291,"lon":5.396838,"is_reserved":false,"is_disabled":false,"rental_uris":{"android":"levelo://app?vid=d3fbe4d8-af5c-4cb0-bc16-b010f8a46d0e","ios":"levelo://app?vid=d3fbe4d8-af5c-4cb0-bc16-b010f8a46d0e"},"vehicle_type_id":"4","last_reported":1711652721,"current_range_meters":30000,"station_id":"ce4bgvp2rcd13ifvqcu0","pricing_plan_id":"cebpf4jnsgd1na2vs0mg"},{"bike_id":"7a59bc2c-31aa-4162-9b9d-406f79a7d201","system_id":"levelo_inurba_marseille","lat":43.309038,"lon":5.396546,"is_reserved":false,"is_disabled":false,"rental_uris":{"android":"levelo://app?vid=7a59bc2c-31aa-4162-9b9d-406f79a7d201","ios":"levelo://app?vid=7a59bc2c-31aa-4162-9b9d-406f79a7d201"},"vehicle_type_id":"4","last_reported":1711652721,"current_range_meters":10000,"station_id":"ce4bh012rcd13ifvqcv0","pricing_plan_id":"cebpf4jnsgd1na2vs0mg"},{"bike_id":"f13a32be-ed15-46d7-b4ec-096e4cd8bc71","system_id":"levelo_inurba_marseille","lat":43.313291,"lon":5.396838,"is_reserved":false,"is_disabled":false,"rental_uris":{"android":"levelo://app?vid=f13a32be-ed15-46d7-b4ec-096e4cd8bc71","ios":"levelo://app?vid=f13a32be-ed15-46d7-b4ec-096e4cd8bc71"},"vehicle_type_id":"4","last_reported":1711652721,"current_range_meters":0,"station_id":"ce4bgvp2rcd13ifvqcu0","pricing_plan_id":"cebpf4jnsgd1na2vs0mg"},{"bike_id":"e458e35f-b5ed-484c-a026-f9fa6aa76987","system_id":"levelo_inurba_marseille","lat":43.313291,"lon":5.396838,"is_reserved":false,"is_disabled":false,"rental_uris":{"android":"levelo://app?vid=e458e35f-b5ed-484c-a026-f9fa6aa76987","ios":"levelo://app?vid=e458e35f-b5ed-484c-a026-f9fa6aa76987"},"vehicle_type_id":"4","last_reported":1711652721,"current_range_meters":32000,"station_id":"ce4bgvp2rcd13ifvqcu0","pricing_plan_id":"cebpf4jnsgd1na2vs0mg"},{"bike_id":"5a5d056e-3b15-431e-a542-3ac20a5332f3","system_id":"levelo_inurba_marseille","lat":43.31326,"lon":5.39696,"is_reserved":false,"is_disabled":false,"rental_uris":{"android":"levelo://app?vid=5a5d056e-3b15-431e-a542-3ac20a5332f3","ios":"levelo://app?vid=5a5d056e-3b15-431e-a542-3ac20a5332f3"},"vehicle_type_id":"4","last_reported":1711652721,"current_range_meters":4000,"station_id":"ce4bgvp2rcd13ifvqcu0","pricing_plan_id":"cebpf4jnsgd1na2vs0mg"},