{"last_updated":1686607576,"ttl":30,"version":"2.2","data":{"bikes":[{"bike_id":"a142fcc1-dd44-4e45-a4d3-f750f9811ffe","system_id":"levelo_inurba_marseille","lat":43.3123,"lon":5.36806,"is_reserved":false,"is_disabled":false,"rental_uris":{"android":"levelo://app?vid=a142fcc1-dd44-4e45-a4d3-f750f9811ffe","ios":"levelo://app?vid=a142fcc1-dd44-4e45-a4d3-f750f9811ffe"},"vehicle_type_id":"4","last_reported":1686607576,"current_range_meters":15200,"station_id":"","pricing_plan_id":"free"},{"bike_id":"76d93ffc-26bc-4aec-b215-2456f3f73553","system_id":"levelo_inurba_marseille","lat":43.31223,"lon":5.36859,"is_reserved":false,"is_disabled":false,"rental_uris":{"android":"levelo://app?vid=76d93ffc-26bc-4aec-b215-2456f3f73553","ios":"levelo://app?vid=76d93ffc-26bc-4aec-b215-2456f3f73553"},"vehicle_type_id":"4","last_reported":1686607576,"current_range_meters":11600,"station_id":"ce4bgl92rcd13ifvqbq0","pricing_plan_id":"free"},{"bike_id":"4792b473-85e2-4fdd-83a4-302c95f6ac67","system_id":"levelo_inurba_marseille","lat":43.31101,"lon":5.36746,"is_reserved":false,"is_disabled":false,"rental_uris":{"android":"levelo://app?vid=4792b473-85e2-4fdd-83a4-302c95f6ac67","ios":"levelo://app?vid=4792b473-85e2-4fdd-83a4-302c95f6ac67"},"vehicle_type_id":"4","last_reported":1686607576,"current_range_meters":29600,"station_id":"","pricing_plan_id":"free"},{"bike_id":"2236174f-9b48-4e77-bc47-17f9275c2cb6","system_id":"levelo_inurba_marseille","lat":43.309076,"lon":5.368465,"is_reserved":false,"is_disabled":false,"rental_uris":{"android":"levelo://app?vid=2236174f-9b48-4e77-bc47-17f9275c2cb6","ios":"levelo://app?vid=2236174f-9b48-4e77-bc47-17f9275c2cb6"},"vehicle_type_id":"4","last_reported":1686607576,"current_range_meters":4400,"station_id":"ce4bgn92rcd13ifvqbvg","pricing_plan_id":"free"},{"bike_id":"fe5717a7-3d01-46bc-ac09-99fa2b8ef008","system_id":"levelo_inurba_marseille","lat":43.31486,"lon":5.37304,"is_reserved":false,"is_disabled":false,"rental_uris":{"android":"levelo://app?vid=fe5717a7-3d01-46bc-ac09-99fa2b8ef008","ios":"levelo://app?vid=fe5717a7-3d01-46bc-ac09-99fa2b8ef008"},"vehicle_type_id":"4","last_reported":1686607576,"current_range_meters":22800,"station_id":"ce4bgt12rcd13ifvqcd0","pricing_plan_id":"free"},{"bike_id":"e97173c8-2e4b-466e-ad53-3e22453baabe","system_id":"levelo_inurba_marseille","lat":43.314811,"lon":5.373103,"is_reserved":false,"is_disabled":false,"rental_uris":{"android":"levelo://app?vid=e97173c8-2e4b-466e-ad53-3e22453baabe","ios":"levelo://app?vid=e97173c8-2e4b-466e-ad53-3e22453baabe"},"vehicle_type_id":"4","last_reported":1686607576,"current_range_meters":27200,"station_id":"ce4bgt12rcd13ifvqcd0","pricing_plan_id":"free"},{"bike_id":"e94b5a11-31ef-4e8d-99c8-005532119ff4","system_id":"levelo_inurba_marseille","lat":43.314811,"lon":5.373104,"is_reserved":false,"is_disabled":false,"rental_uris":{"android":"levelo://app?vid=e94b5a11-31ef-4e8d-99c8-005532119ff4","ios":"levelo://app?vid=e94b5a11-31ef-4e8d-99c8-005532119ff4"},"vehicle_type_id":"4","last_reported":1686607576,"current_range_meters":29200,"station_id":"ce4bgt12rcd13ifvqcd0","pricing_plan_id":"free"},{"bike_id":"01a90b33-9a3b-4ac2-a1e3-31e11ec78eef","system_id":"levelo_inurba_marseille","lat":43.308606,"lon":5.372099,"is_reserved":false,"is_disabled":false,"rental_uris":{"android":"levelo://app?vid=01a90b33-9a3b-4ac2-a1e3-31e11ec78eef","ios":"levelo://app?vid=01a90b33-9a3b-4ac2-a1e3-31e11ec78eef"},"vehicle_type_id":"4","last_reported":1686607576,"current_range_meters":6800,"station_id":"ce4bguh2rcd13ifvqckg","pricing_plan_id":"free"},{"bike_id":"2f12a08a-7d7f-4e31-9e1a-cbb88529b85c","system_id":"levelo_inurba_marseille","lat":43.308606,"lon":5.372099,"is_reserved":false,"is_disabled":false,"rental_uris":{"android":"levelo://app?vid=2f12a08a-7d7f-4e31-9e1a-cbb88529b85c","ios":"levelo://app?vid=2f12a08a-7d7f-4e31-9e1a-cbb88529b85c"},"vehicle_type_id":"4","last_reported":1686607576,"current_range_meters":24000,"station_id":"ce4bguh2rcd13ifvqckg","pricing_plan_id":"free"},{"bike_id":"b9655435-dbcb-4551-a012-29bead6f0b19","system_id":"levelo_inurba_marseille","lat":43.308606,"lon":5.372099,"is_reserved":false,"is_disabled":false,"rental_uris":{"android":"levelo://app?vid=b9655435-dbcb-4551-a012-29bead6f0b19","ios":"levelo://app?vid=b9655435-dbcb-4551-a012-29bead6f0b19"},"vehicle_type_id":"4","last_reported":1686607576,"current_range_meters":15600,"station_id":"ce4bguh2rcd13ifvqckg","pricing_plan_id":"free"},{"bike_id":"01613d7a-7b81-4c69-833b-21dcf87dfcd8","system_id":"levelo_inurba_marseille","lat":43.30876,"lon":5.37195,"is_reserved":false,"is_disabled":false,"rental_uris":{"android":"levelo://app?vid=01613d7a-7b81-4c69-833b-21dcf87dfcd8","ios":"levelo://app?vid=01613d7a-7b81-4c69-833b-21dcf87dfcd8"},"vehicle_type_id":"4","last_reported":1686607576,"current_range_meters":31200,"station_id":"ce4bguh2rcd13ifvqckg","pricing_plan_id":"free"},{"bike_id":"c1fb032f-fb08-4a02-aedc-39d3c7c6c011","system_id":"levelo_inurba_marseille","lat":43.306,"lon":5.36574,"is_reserved":false,"is_disabled":false,"rental_uris":{"android":"levelo://app?vid=c1fb032f-fb08-4a02-aedc-39d3c7c6c011","ios":"levelo://app?vid=c1fb032f-fb08-4a02-aedc-39d3c7c6c011"},"vehicle_type_id":"4","last_reported":1686607576,"current_range_meters":0,"station_id":"","pricing_plan_id":"free"},{"bike_id":"dff1b0e2-7c5c-414a-846b-2ef60e70ea3e","system_id":"levelo_inurba_marseille","lat":43.31311,"lon":5.3763,"is_reserved":false,"is_disabled":false,"rental_uris":{"android":"levelo://app?vid=dff1b0e2-7c5c-414a-846b-2ef60e70ea3e","ios":"levelo://app?vid=dff1b0e2-7c5c-414a-846b-2ef60e70ea3e"},"vehicle_type_id":"4","last_reported":1686607576,"current_range_meters":22800,"station_id":"","pricing_plan_id":"free"},{"bike_id":"8cc90081-76af-433a-8401-bdddafd5d1a6","system_id":"levelo_inurba_marseille","lat":43.305706,"lon":5.365654,"is_reserved":false,"is_disabled":false,"rental_uris":{"android":"levelo://app?vid=8cc90081-76af-433a-8401-bdddafd5d1a6","ios":"levelo://app?vid=8cc90081-76af-433a-8401-bdddafd5d1a6"},"vehicle_type_id":"4","last_reported":1686607576,"current_range_meters":14400,"station_id":"ce4bgs12rcd13ifvqcag","pricing_plan_id":"free"},{"bike_id":"6ca192a1-6c82-49d2-83f8-90c94c504a17","system_id":"levelo_inurba_marseille","lat":43.305706,"lon":5.365654,"is_reserved":false,"is_disabled":false,"rental_uris":{"android":"levelo://app?vid=6ca192a1-6c82-49d2-83f8-90c94c504a17","ios":"levelo://app?vid=6ca192a1-6c82-49d2-83f8-90c94c504a17"},"vehicle_type_id":"4","last_reported":1686607576,"current_range_meters":31200,"station_id":"ce4bgs12rcd13ifvqcag","pricing_plan_id":"free"},{"bike_id":"0e8337b5-c341-414e-b7f8-c62fe5e06415","system_id":"levelo_inurba_marseille","lat":43.305714,"lon":5.365633,"is_reserved":false,"is_disabled":false,"rental_uris":{"android":"levelo://app?vid=0e8337b5-c341-414e-b7f8-c62fe5e06415","ios":"levelo://app?vid=0e8337b5-c341-414e-b7f8-c62fe5e06415"},"vehicle_type_id":"4","last_reported":1686607576,"current_range_meters":31200,"station_id":"ce4bgs12rcd13ifvqcag","pricing_plan_id":"free"},{"bike_id":"58c89153-f26f-46af-9459-8907686b3aa5","system_id":"levelo_inurba_marseille","lat":43.305714,"lon":5.365633,"is_reserved":false,"is_disabled":false,"rental_uris":{"android":"levelo://app?vid=58c89153-f26f-46af-9459-8907686b3aa5","ios":"levelo://app?vid=58c89153-f26f-46af-9459-8907686b3aa5"},"vehicle_type_id":"4","last_reported":1686607576,"current_range_meters":28000,"station_id":"ce4bgs12rcd13ifvqcag","pricing_plan_id":"free"},{"bike_id":"a905a992-ad3f-4a7f-a7f5-f77a27153810","system_id":"levelo_inurba_marseille","lat":43.311131,"lon":5.377651,"is_reserved":false,"is_disabled":false,"rental_uris":{"android":"levelo://app?vid=a905a992-ad3f-4a7f-a7f5-f77a27153810","ios":"levelo://app?vid=a905a992-ad3f-4a7f-a7f5-f77a27153810"},"vehicle_type_id":"4","last_reported":1686607576,"current_range_meters":31200,"station_id":"ce4bgt92rcd13ifvqcg0","pricing_plan_id":"free"},{"bike_id":"b2307c51-0646-4ae1-ba6b-e144a937beb5","system_id":"levelo_inurba_marseille","lat":43.31125,"lon":5.37761,"is_reserved":false,"is_disabled":false,"rental_uris":{"android":"levelo://app?vid=b2307c51-0646-4ae1-ba6b-e144a937beb5","ios":"levelo://app?vid=b2307c51-0646-4ae1-ba6b-e144a937beb5"},"vehicle_type_id":"4","last_reported":1686607576,"current_range_meters":8400,"station_id":"ce4bgt92rcd13ifvqcg0","pricing_plan_id":"free"},{"bike_id":"d7b3f85f-67f9-4c87-b8b7-b1a8daf5ebcb","system_id":"levelo_inurba_marseille","lat":43.31127,"lon":5.37766,"is_reserved":false,"is_disabled":false,"rental_uris":{"android":"levelo://app?vid=d7b3f85f-67f9-4c87-b8b7-b1a8daf5ebcb","ios":"levelo://app?vid=d7b3f85f-67f9-4c87-b8b7-b1a8daf5ebcb"},"vehicle_type_id":"4","last_reported":1686607576,"current_range_meters":13200,"station_id":"ce4bgt92rcd13ifvqcg0","pricing_plan_id":"free"},{"bike_id":"7644dde3-e0ac-4967-807d-17d7c7710fb2","system_id":"levelo_inurba_marseille","lat":43.311125,"lon":5.377624,"is_reserved":false,"is_disabled":false,"rental_uris":{"android":"levelo://app?vid=7644dde3-e0ac-4967-807d-17d7c7710fb2","ios":"levelo://app?vid=7644dde3-e0ac-4967-807d-17d7c7710fb2"},"vehicle_type_id":"4","last_reported":1686607576,"current_range_meters":20800,"station_id":"ce4bgt92rcd13ifvqcg0","pricing_plan_id":"free"},{"bike_id":"e371172f-8e29-4e86-abe5-eb892838ef49","system_id":"levelo_inurba_marseille","lat":43.317075,"lon":5.377367,"is_reserved":false,"is_disabled":false,"rental_uris":{"android":"levelo://app?vid=e371172f-8e29-4e86-abe5-eb892838ef49","ios":"levelo://app?vid=e371172f-8e29-4e86-abe5-eb892838ef49"},"vehicle_type_id":"4","last_reported":1686607576,"current_range_meters":28800,"station_id":"ce4bgth2rcd13ifvqch0","pricing_plan_id":"free"},{"bike_id":"7ebb3b84-8461-4a02-a883-e30c4e7a95ab","system_id":"levelo_inurba_marseille","lat":43.30968,"lon":5.37961,"is_reserved":false,"is_disabled":false,"rental_uris":{"android":"levelo://app?vid=7ebb3b84-8461-4a02-a883-e30c4e7a95ab","ios":"levelo://app?vid=7ebb3b84-8461-4a02-a883-e30c4e7a95ab"},"vehicle_type_id":"4","last_reported":1686607576,"current_range_meters":23200,"station_id":"ce4bgt12rcd13ifvqce0","pricing_plan_id":"free"},{"bike_id":"12d71afa-8a20-4eaf-be5b-0500d7dc0dd7","system_id":"levelo_inurba_marseille","lat":43.31531,"lon":5.38025,"is_reserved":false,"is_disabled":false,"rental_uris":{"android":"levelo://app?vid=12d71afa-8a20-4eaf-be5b-0500d7dc0dd7","ios":"levelo://app?vid=12d71afa-8a20-4eaf-be5b-0500d7dc0dd7"},"vehicle_type_id":"4","last_reported":1686607576,"current_range_meters":1200,"station_id":"ce4bhsp2rcd13ifvqi50","pricing_plan_id":"free"},{"bike_id":"6569413d-633a-4f88-83bc-21912c25e6c1","system_id":"levelo_inurba_marseille","lat":43.31535,"lon":5.38027,"is_reserved":false,"is_disabled":false,"rental_uris":{"android":"levelo://app?vid=6569413d-633a-4f88-83bc-21912c25e6c1","ios":"levelo://app?vid=6569413d-633a-4f88-83bc-21912c25e6c1"},"vehicle_type_id":"4","last_reported":1686607576,"current_range_meters":3200,"station_id":"ce4bhsp2rcd13ifvqi50","pricing_plan_id":"free"},{"bike_id":"ce27853c-3346-473e-99fb-e121615e6d3f","system_id":"levelo_inurba_marseille","lat":43.31543,"lon":5.38025,"is_reserved":false,"is_disabled":false,"rental_uris":{"android":"levelo://app?vid=ce27853c-3346-473e-99fb-e121615e6d3f","ios":"levelo://app?vid=ce27853c-3346-473e-99fb-e121615e6d3f"},"vehicle_type_id":"4","last_reported":1686607576,"current_range_meters":4800,"station_id":"ce4bhsp2rcd13ifvqi50","pricing_plan_id":"free"},{"bike_id":"67f53162-9837-407d-81cf-fc3c4b765ca1","system_id":"levelo_inurba_marseille","lat":43.31534,"lon":5.38029,"is_reserved":false,"is_disabled":false,"rental_uris":{"android":"levelo://app?vid=67f53162-9837-407d-81cf-fc3c4b765ca1","ios":"levelo://app?vid=67f53162-9837-407d-81cf-fc3c4b765ca1"},"vehicle_type_id":"4","last_reported":1686607576,"current_range_meters":4800,"station_id":"ce4bhsp2rcd13ifvqi50","pricing_plan_id":"free"},{"bike_id":"9e094e1e-e3ac-4cc9-b272-eaa06bf6e461","system_id":"levelo_inurba_marseille","lat":43.30191,"lon":5.36627,"is_reserved":false,"is_disabled":false,"rental_uris":{"android":"levelo://app?vid=9e094e1e-e3ac-4cc9-b272-eaa06bf6e461","ios":"levelo://app?vid=9e094e1e-e3ac-4cc9-b272-eaa06bf6e461"},"vehicle_type_id":"4","last_reported":1686607576,"current_range_meters":23200,"station_id":"ce4bgrh2rcd13ifvqc8g","pricing_plan_id":"free"},{"bike_id":"e4eb563a-2d01-4fac-972d-7f62e590ead0","system_id":"levelo_inurba_marseille","lat":43.308012,"lon":5.381511,"is_reserved":false,"is_disabled":false,"rental_uris":{"android":"levelo://app?vid=e4eb563a-2d01-4fac-972d-7f62e590ead0","ios":"levelo://app?vid=e4eb563a-2d01-4fac-972d-7f62e590ead0"},"vehicle_type_id":"4","last_reported":1686607576,"current_range_meters":31200,"station_id":"ce4bgt12rcd13ifvqce0","pricing_plan_id":"free"},{"bike_id":"1bac387a-baa0-4faf-b9c8-002be9ad92b7","system_id":"levelo_inurba_marseille","lat":43.308012,"lon":5.381511,"is_reserved":false,"is_disabled":false,"rental_uris":{"android":"levelo://app?vid=1bac387a-baa0-4faf-b9c8-002be9ad92b7","ios":"levelo://app?vid=1bac387a-baa0-4faf-b9c8-002be9ad92b7"},"vehicle_type_id":"4","last_reported":1686607576,"current_range_meters":30400,"station_id":"ce4bgt12rcd13ifvqce0","pricing_plan_id":"free"},{"bike_id":"f07de445-9260-4b0e-ad41-3caeda06d319","system_id":"levelo_inurba_marseille","lat":43.308012,"lon":5.381511,"is_reserved":false,"is_disabled":false,"rental_uris":{"android":"levelo://app?vid=f07de445-9260-4b0e-ad41-3caeda06d319","ios":"levelo://app?vid=f07de445-9260-4b0e-ad41-3caeda06d319"},"vehicle_type_id":"4","last_reported":1686607576,"current_range_meters":0,"station_id":"ce4bgt12rcd13ifvqce0","pricing_plan_id":"free"},{"bike_id":"54091f13-ad77-4e04-b2cb-d4cf5d5f6ac2","system_id":"levelo_inurba_marseille","lat":43.308012,"lon":5.381511,"is_reserved":false,"is_disabled":false,"rental_uris":{"android":"levelo://app?vid=54091f13-ad77-4e04-b2cb-d4cf5d5f6ac2","ios":"levelo://app?vid=54091f13-ad77-4e04-b2cb-d4cf5d5f6ac2"},"vehicle_type_id":"4","last_reported":1686607576,"current_range_meters":18000,"station_id":"ce4bgt12rcd13ifvqce0","pricing_plan_id":"free"},{"bike_id":"e9556d91-6189-4203-8f01-ccae0efe1551","system_id":"levelo_inurba_marseille","lat":43.308012,"lon":5.381511,"is_reserved":false,"is_disabled":false,"rental_uris":{"android":"levelo://app?vid=e9556d91-6189-4203-8f01-ccae0efe1551","ios":"levelo://app?vid=e9556d91-6189-4203-8f01-ccae0efe1551"},"vehicle_type_id":"4","last_reported":1686607576,"current_range_meters":31200,"station_id":"ce4bgt12rcd13ifvqce0","pricing_plan_id":"free"},{"bike_id":"180adcf1-5ca4-4465-8525-2d0f746755f3","system_id":"levelo_inurba_marseille","lat":43.308012,"lon":5.381511,"is_reserved":false,"is_disabled":false,"rental_uris":{"android":"levelo://app?vid=180adcf1-5ca4-4465-8525-2d0f746755f3","ios":"levelo://app?vid=180adcf1-5ca4-4465-8525-2d0f746755f3"},"vehicle_type_id":"4","last_reported":1686607576,"current_range_meters":29600,"station_id":"ce4bgt12rcd13ifvqce0","pricing_plan_id":"free"},{"bike_id":"25d805fd-1d61-401c-9657-537d969db265","system_id":"levelo_inurba_marseille","lat":43.308012,"lon":5.381511,"is_reserved":false,"is_disabled":false,"rental_uris":{"android":"levelo://app?vid=25d805fd-1d61-401c-9657-537d969db265","ios":"levelo://app?vid=25d805fd-1d61-401c-9657-537d969db265"},"vehicle_type_id":"4","last_reported":1686607576,"current_range_meters":24800,"station_id":"ce4bgt12rcd13ifvqce0","pricing_plan_id":"free"},{"bike_id":"148976ba-5642-4c28-9d40-d4126c007abe","system_id":"levelo_inurba_marseille","lat":43.31766,"lon":5.38319,"is_reserved":false,"is_disabled":false,"rental_uris":{"android":"levelo://app?vid=148976ba-5642-4c28-9d40-d4126c007abe","ios":"levelo://app?vid=148976ba-5642-4c28-9d40-d4126c007abe"},"vehicle_type_id":"4","last_reported":1686607576,"current_range_meters":22800,"station_id":"","pricing_plan_id":"free"},{"bike_id":"53be99d0-4300-4f33-aa2a-8622745e539e","system_id":"levelo_inurba_marseille","lat":43.31994,"lon":5.38151,"is_reserved":false,"is_disabled":false,"rental_uris":{"android":"levelo://app?vid=53be99d0-4300-4f33-aa2a-8622745e539e","ios":"levelo://app?vid=53be99d0-4300-4f33-aa2a-8622745e539e"},"vehicle_type_id":"4","last_reported":1686607576,"current_range_meters":25600,"station_id":"ce4bhr12rcd13ifvqhpg","pricing_plan_id":"free"},{"bike_id":"31a3da9b-f536-496b-af9a-79b9d3d919c9","system_id":"levelo_inurba_marseille","lat":43.31997,"lon":5.38163,"is_reserved":false,"is_disabled":false,"rental_uris":{"android":"levelo://app?vid=31a3da9b-f536-496b-af9a-79b9d3d919c9","ios":"levelo://app?vid=31a3da9b-f536-496b-af9a-79b9d3d919c9"},"vehicle_type_id":"4","last_reported":1686607576,"current_range_meters":3200,"station_id":"ce4bhr12rcd13ifvqhpg","pricing_plan_id":"free"},{"bike_id":"241479bc-85d3-4b05-8f6f-1c276f5686ac","system_id":"levelo_inurba_marseille","lat":43.32001,"lon":5.38164,"is_reserved":false,"is_disabled":false,"rental_uris":{"android":"levelo://app?vid=241479bc-85d3-4b05-8f6f-1c276f5686ac","ios":"levelo://app?vid=241479bc-85d3-4b05-8f6f-1c276f5686ac"},"vehicle_type_id":"4","last_reported":1686607576,"current_range_meters":1600,"station_id":"ce4bhr12rcd13ifvqhpg","pricing_plan_id":"free"},{"bike_id":"a4d105a5-3c82-4659-b281-f56532fcafe7","system_id":"levelo_inurba_marseille","lat":43.31376,"lon":5.38495,"is_reserved":false,"is_disabled":false,"rental_uris":{"android":"levelo://app?vid=a4d105a5-3c82-4659-b281-f56532fcafe7","ios":"levelo://app?vid=a4d105a5-3c82-4659-b281-f56532fcafe7"},"vehicle_type_id":"4","last_reported":1686607576,"current_range_meters":5600,"station_id":"ce4bgt92rcd13ifvqcf0","pricing_plan_id":"free"},{"bike_id":"223e2019-fce8-432d-b885-7860cc9c1b88","system_id":"levelo_inurba_marseille","lat":43.313571,"lon":5.384829,"is_reserved":false,"is_disabled":false,"rental_uris":{"android":"levelo://app?vid=223e2019-fce8-432d-b885-7860cc9c1b88","ios":"levelo://app?vid=223e2019-fce8-432d-b885-7860cc9c1b88"},"vehicle_type_id":"4","last_reported":1686607576,"current_range_meters":19600,"station_id":"ce4bgt92rcd13ifvqcf0","pricing_plan_id":"free"},{"bike_id":"bc02f6ad-8898-4750-9aa5-77aaaf4d7501","system_id":"levelo_inurba_marseille","lat":43.3054,"lon":5.38433,"is_reserved":false,"is_disabled":false,"rental_uris":{"android":"levelo://app?vid=bc02f6ad-8898-4750-9aa5-77aaaf4d7501","ios":"levelo://app?vid=bc02f6ad-8898-4750-9aa5-77aaaf4d7501"},"vehicle_type_id":"4","last_reported":1686607576,"current_range_meters":14000,"station_id":"ce4bgg92rcd13ifvqb30","pricing_plan_id":"free"},{"bike_id":"f5a1d4ef-5383-4d7e-8558-291fd9d60d4a","system_id":"levelo_inurba_marseille","lat":43.299243,"lon":5.374807,"is_reserved":false,"is_disabled":false,"rental_uris":{"android":"levelo://app?vid=f5a1d4ef-5383-4d7e-8558-291fd9d60d4a","ios":"levelo://app?vid=f5a1d4ef-5383-4d7e-8558-291fd9d60d4a"},"vehicle_type_id":"4","last_reported":1686607576,"current_range_meters":400,"station_id":"ce4bgjh2rcd13ifvqbg0","pricing_plan_id":"free"},{"bike_id":"e7cf2b77-783e-4ab5-a8bc-113bf5670edd","system_id":"levelo_inurba_marseille","lat":43.311722,"lon":5.387247,"is_reserved":false,"is_disabled":false,"rental_uris":{"android":"levelo://app?vid=e7cf2b77-783e-4ab5-a8bc-113bf5670edd","ios":"levelo://app?vid=e7cf2b77-783e-4ab5-a8bc-113bf5670edd"},"vehicle_type_id":"4","last_reported":1686607576,"current_range_meters":12000,"station_id":"ce4bgv12rcd13ifvqcp0","pricing_plan_id":"free"},{"bike_id":"0776d609-1b95-49c5-98fd-804fa1096dba","system_id":"levelo_inurba_marseille","lat":43.311722,"lon":5.387247,"is_reserved":false,"is_disabled":false,"rental_uris":{"android":"levelo://app?vid=0776d609-1b95-49c5-98fd-804fa1096dba","ios":"levelo://app?vid=0776d609-1b95-49c5-98fd-804fa1096dba"},"vehicle_type_id":"4","last_reported":1686607576,"current_range_meters":25200,"station_id":"ce4bgv12rcd13ifvqcp0","pricing_plan_id":"free"},{"bike_id":"487f7a82-4fc4-481c-b0ea-f122c0254040","system_id":"levelo_inurba_marseille","lat":43.31169,"lon":5.38722,"is_reserved":false,"is_disabled":false,"rental_uris":{"android":"levelo://app?vid=487f7a82-4fc4-481c-b0ea-f122c0254040","ios":"levelo://app?vid=487f7a82-4fc4-481c-b0ea-f122c0254040"},"vehicle_type_id":"4","last_reported":1686607576,"current_range_meters":29600,"station_id":"ce4bgv12rcd13ifvqcp0","pricing_plan_id":"free"},{"bike_id":"7bc10528-85fc-4b6b-8503-3097b1a72235","system_id":"levelo_inurba_marseille","lat":43.311722,"lon":5.387247,"is_reserved":false,"is_disabled":false,"rental_uris":{"android":"levelo://app?vid=7bc10528-85fc-4b6b-8503-3097b1a72235","ios":"levelo://app?vid=7bc10528-85fc-4b6b-8503-3097b1a72235"},"vehicle_type_id":"4","last_reported":1686607576,"current_range_meters":20400,"station_id":"ce4bgv12rcd13ifvqcp0","pricing_plan_id":"free"},{"bike_id":"10373a1f-7395-484b-9bf4-f643d1dc0ec7","system_id":"levelo_inurba_marseille","lat":43.32213,"lon":5.38284,"is_reserved":false,"is_disabled":false,"rental_uris":{"android":"levelo://app?vid=10373a1f-7395-484b-9bf4-f643d1dc0ec7","ios":"levelo://app?vid=10373a1f-7395-484b-9bf4-f643d1dc0ec7"},"vehicle_type_id":"4","last_reported":1686607576,"current_range_meters":24400,"station_id":"","pricing_plan_id":"free"},{"bike_id":"e63ab30a-c3da-4dff-9adc-d899ea37f38d","system_id":"levelo_inurba_marseille","lat":43.29724,"lon":5.36598,"is_reserved":false,"is_disabled":false,"rental_uris":{"android":"levelo://app?vid=e63ab30a-c3da-4dff-9adc-d899ea37f38d","ios":"levelo://app?vid=e63ab30a-c3da-4dff-9adc-d899ea37f38d"},"vehicle_type_id":"4","last_reported":1686607576,"current_range_meters":12000,"station_id":"","pricing_plan_id":"free"},{"bike_id":"78bf69f9-bc80-4579-b422-a498c4fb9c83","system_id":"levelo_inurba_marseille","lat":43.29715,"lon":5.36605,"is_reserved":false,"is_disabled":false,"rental_uris":{"android":"levelo://app?vid=78bf69f9-bc80-4579-b422-a498c4fb9c83","ios":"levelo://app?vid=78bf69f9-bc80-4579-b422-a498c4fb9c83"},"vehicle_type_id":"4","last_reported":1686607576,"current_range_meters":31200,"station_id":"","pricing_plan_id":"free"},{"bike_id":"88d0330c-5bb0-4a19-9b65-d4683b42e015","system_id":"levelo_inurba_marseille","lat":43.29683,"lon":5.36046,"is_reserved":false,"is_disabled":false,"rental_uris":{"android":"levelo://app?vid=88d0330c-5bb0-4a19-9b65-d4683b42e015","ios":"levelo://app?vid=88d0330c-5bb0-4a19-9b65-d4683b42e015"},"vehicle_type_id":"4","last_reported":1686607576,"current_range_meters":24400,"station_id":"ce4bgpp2rcd13ifvqc3g","pricing_plan_id":"free"},{"bike_id":"39eb588e-a8e6-4baf-8d39-bf56cc3eb436","system_id":"levelo_inurba_marseille","lat":43.309589,"lon":5.390258,"is_reserved":false,"is_disabled":false,"rental_uris":{"android":"levelo://app?vid=39eb588e-a8e6-4baf-8d39-bf56cc3eb436","ios":"levelo://app?vid=39eb588e-a8e6-4baf-8d39-bf56cc3eb436"},"vehicle_type_id":"4","last_reported":1686607576,"current_range_meters":29600,"station_id":"ce4bgup2rcd13ifvqco0","pricing_plan_id":"free"},{"bike_id":"05ba0d0e-6931-402d-8c38-4e84c70ef6d9","system_id":"levelo_inurba_marseille","lat":43.296921,"lon":5.376579,"is_reserved":false,"is_disabled":false,"rental_uris":{"android":"levelo://app?vid=05ba0d0e-6931-402d-8c38-4e84c70ef6d9","ios":"levelo://app?vid=05ba0d0e-6931-402d-8c38-4e84c70ef6d9"},"vehicle_type_id":"4","last_reported":1686607576,"current_range_meters":30000,"station_id":"ce4bgkh2rcd13ifvqbl0","pricing_plan_id":"free"},{"bike_id":"a14f2b33-da3d-47cd-8554-f9f4dd9a5489","system_id":"levelo_inurba_marseille","lat":43.31768,"lon":5.39007,"is_reserved":false,"is_disabled":false,"rental_uris":{"android":"levelo://app?vid=a14f2b33-da3d-47cd-8554-f9f4dd9a5489","ios":"levelo://app?vid=a14f2b33-da3d-47cd-8554-f9f4dd9a5489"},"vehicle_type_id":"4","last_reported":1686607576,"current_range_meters":29200,"station_id":"ce4bhqp2rcd13ifvqhng","pricing_plan_id":"free"},{"bike_id":"225c7872-eaa4-4089-b361-77c4400a5087","system_id":"levelo_inurba_marseille","lat":43.317557,"lon":5.390173,"is_reserved":false,"is_disabled":false,"rental_uris":{"android":"levelo://app?vid=225c7872-eaa4-4089-b361-77c4400a5087","ios":"levelo://app?vid=225c7872-eaa4-4089-b361-77c4400a5087"},"vehicle_type_id":"4","last_reported":1686607576,"current_range_meters":31200,"station_id":"ce4bhqp2rcd13ifvqhng","pricing_plan_id":"free"},{"bike_id":"b909ed30-4755-4370-9370-327f2b4559b8","system_id":"levelo_inurba_marseille","lat":43.317557,"lon":5.390173,"is_reserved":false,"is_disabled":false,"rental_uris":{"android":"levelo://app?vid=b909ed30-4755-4370-9370-327f2b4559b8","ios":"levelo://app?vid=b909ed30-4755-4370-9370-327f2b4559b8"},"vehicle_type_id":"4","last_reported":1686607576,"current_range_meters":30000,"station_id":"ce4bhqp2rcd13ifvqhng","pricing_plan_id":"free"},{"bike_id":"286da168-c8a5-4017-99ab-09e47d6213d5","system_id":"levelo_inurba_marseille","lat":43.304278,"lon":5.388868,"is_reserved":false,"is_disabled":false,"rental_uris":{"android":"levelo://app?vid=286da168-c8a5-4017-99ab-09e47d6213d5","ios":"levelo://app?vid=286da168-c8a5-4017-99ab-09e47d6213d5"},"vehicle_type_id":"4","last_reported":1686607576,"current_range_meters":29200,"station_id":"ce4bgk12rcd13ifvqbi0","pricing_plan_id":"free"},{"bike_id":"3684fde1-3fab-4edd-b47e-3cffa1383d6e","system_id":"levelo_inurba_marseille","lat":43.29977,"lon":5.38487,"is_reserved":false,"is_disabled":false,"rental_uris":{"android":"levelo://app?vid=3684fde1-3fab-4edd-b47e-3cffa1383d6e","ios":"levelo://app?vid=3684fde1-3fab-4edd-b47e-3cffa1383d6e"},"vehicle_type_id":"4","last_reported":1686607576,"current_range_meters":31200,"station_id":"ce4bgj92rcd13ifvqbd0","pricing_plan_id":"free"},{"bike_id":"d5697ef2-403f-41e4-a767-aca6744428ff","system_id":"levelo_inurba_marseille","lat":43.309589,"lon":5.390258,"is_reserved":false,"is_disabled":false,"rental_uris":{"android":"levelo://app?vid=d5697ef2-403f-41e4-a767-aca6744428ff","ios":"levelo://app?vid=d5697ef2-403f-41e4-a767-aca6744428ff"},"vehicle_type_id":"4","last_reported":1686607576,"current_range_meters":16800,"station_id":"ce4bgup2rcd13ifvqco0","pricing_plan_id":"free"},{"bike_id":"e6a3dac9-7f09-471f-865b-75685d05e4ff","system_id":"levelo_inurba_marseille","lat":43.32367,"lon":5.388836,"is_reserved":false,"is_disabled":false,"rental_uris":{"android":"levelo://app?vid=e6a3dac9-7f09-471f-865b-75685d05e4ff","ios":"levelo://app?vid=e6a3dac9-7f09-471f-865b-75685d05e4ff"},"vehicle_type_id":"4","last_reported":1686607576,"current_range_meters":31200,"station_id":"ce4bhqp2rcd13ifvqhog","pricing_plan_id":"free"},{"bike_id":"9e6cb235-fe65-45fb-85e0-c410fab4b87f","system_id":"levelo_inurba_marseille","lat":43.32367,"lon":5.388836,"is_reserved":false,"is_disabled":false,"rental_uris":{"android":"levelo://app?vid=9e6cb235-fe65-45fb-85e0-c410fab4b87f","ios":"levelo://app?vid=9e6cb235-fe65-45fb-85e0-c410fab4b87f"},"vehicle_type_id":"4","last_reported":1686607576,"current_range_meters":28400,"station_id":"ce4bhqp2rcd13ifvqhog","pricing_plan_id":"free"},{"bike_id":"ea6cfea9-3ee5-4e73-9098-b16615a56cd9","system_id":"levelo_inurba_marseille","lat":43.32367,"lon":5.388836,"is_reserved":false,"is_disabled":false,"rental_uris":{"android":"levelo://app?vid=ea6cfea9-3ee5-4e73-9098-b16615a56cd9","ios":"levelo://app?vid=ea6cfea9-3ee5-4e73-9098-b16615a56cd9"},"vehicle_type_id":"4","last_reported":1686607576,"current_range_meters":22800,"station_id":"ce4bhqp2rcd13ifvqhog","pricing_plan_id":"free"},{"bike_id":"c78bfe50-28c8-47b8-9d61-53b0e44412a3","system_id":"levelo_inurba_marseille","lat":43.32367,"lon":5.388836,"is_reserved":false,"is_disabled":false,"rental_uris":{"android":"levelo://app?vid=c78bfe50-28c8-47b8-9d61-53b0e44412a3","ios":"levelo://app?vid=c78bfe50-28c8-47b8-9d61-53b0e44412a3"},"vehicle_type_id":"4","last_reported":1686607576,"current_range_meters":31200,"station_id":"ce4bhqp2rcd13ifvqhog","pricing_plan_id":"free"},{"bike_id":"46855f82-9c64-4051-920e-312c6a202b8d","system_id":"levelo_inurba_marseille","lat":43.32367,"lon":5.388836,"is_reserved":false,"is_disabled":false,"rental_uris":{"android":"levelo://app?vid=46855f82-9c64-4051-920e-312c6a202b8d","ios":"levelo://app?vid=46855f82-9c64-4051-920e-312c6a202b8d"},"vehicle_type_id":"4","last_reported":1686607576,"current_range_meters":31200,"station_id":"ce4bhqp2rcd13ifvqhog","pricing_plan_id":"free"},{"bike_id":"91e70a52-1e7d-4517-a1af-205b2fb62940","system_id":"levelo_inurba_marseille","lat":43.32367,"lon":5.388836,"is_reserved":false,"is_disabled":false,"rental_uris":{"android":"levelo://app?vid=91e70a52-1e7d-4517-a1af-205b2fb62940","ios":"levelo://app?vid=91e70a52-1e7d-4517-a1af-205b2fb62940"},"vehicle_type_id":"4","last_reported":1686607576,"current_range_meters":22800,"station_id":"ce4bhqp2rcd13ifvqhog","pricing_plan_id":"free"},{"bike_id":"3e6b930b-cc5b-4216-9d08-679450341852","system_id":"levelo_inurba_marseille","lat":43.29601,"lon":5.381084,"is_reserved":false,"is_disabled":false,"rental_uris":{"android":"levelo://app?vid=3e6b930b-cc5b-4216-9d08-679450341852","ios":"levelo://app?vid=3e6b930b-cc5b-4216-9d08-679450341852"},"vehicle_type_id":"4","last_reported":1686607576,"current_range_meters":0,"station_id":"ce4bgl12rcd13ifvqbo0","pricing_plan_id":"free"},{"bike_id":"c6c0b752-0f09-4dfe-802c-d1f863d133a7","system_id":"levelo_inurba_marseille","lat":43.3031,"lon":5.39202,"is_reserved":false,"is_disabled":false,"rental_uris":{"android":"levelo://app?vid=c6c0b752-0f09-4dfe-802c-d1f863d133a7","ios":"levelo://app?vid=c6c0b752-0f09-4dfe-802c-d1f863d133a7"},"vehicle_type_id":"4","last_reported":1686607576,"current_range_meters":31200,"station_id":"ce4bgkh2rcd13ifvqbk0","pricing_plan_id":"free"},{"bike_id":"f98cff19-51bd-4d5b-a879-bab37d2dd67e","system_id":"levelo_inurba_marseille","lat":43.302992,"lon":5.392136,"is_reserved":false,"is_disabled":false,"rental_uris":{"android":"levelo://app?vid=f98cff19-51bd-4d5b-a879-bab37d2dd67e","ios":"levelo://app?vid=f98cff19-51bd-4d5b-a879-bab37d2dd67e"},"vehicle_type_id":"4","last_reported":1686607576,"current_range_meters":31200,"station_id":"ce4bgkh2rcd13ifvqbk0","pricing_plan_id":"free"},{"bike_id":"5462025e-195b-4cd8-b97c-ed85462003c7","system_id":"levelo_inurba_marseille","lat":43.302992,"lon":5.392136,"is_reserved":false,"is_disabled":false,"rental_uris":{"android":"levelo://app?vid=5462025e-195b-4cd8-b97c-ed85462003c7","ios":"levelo://app?vid=5462025e-195b-4cd8-b97c-ed85462003c7"},"vehicle_type_id":"4","last_reported":1686607576,"current_range_meters":29600,"station_id":"ce4bgkh2rcd13ifvqbk0","pricing_plan_id":"free"},{"bike_id":"4ee773fb-5c5e-4afd-ba3a-4395f33d3536","system_id":"levelo_inurba_marseille","lat":43.302992,"lon":5.392136,"is_reserved":false,"is_disabled":false,"rental_uris":{"android":"levelo://app?vid=4ee773fb-5c5e-4afd-ba3a-4395f33d3536","ios":"levelo://app?vid=4ee773fb-5c5e-4afd-ba3a-4395f33d3536"},"vehicle_type_id":"4","last_reported":1686607576,"current_range_meters":31200,"station_id":"ce4bgkh2rcd13ifvqbk0","pricing_plan_id":"free"},{"bike_id":"6bfdfd3a-21a9-47d4-a479-78e81501bc6d","system_id":"levelo_inurba_marseille","lat":43.302992,"lon":5.392136,"is_reserved":false,"is_disabled":false,"rental_uris":{"android":"levelo://app?vid=6bfdfd3a-21a9-47d4-a479-78e81501bc6d","ios":"levelo://app?vid=6bfdfd3a-21a9-47d4-a479-78e81501bc6d"},"vehicle_type_id":"4","last_reported":1686607576,"current_range_meters":20800,"station_id":"ce4bgkh2rcd13ifvqbk0","pricing_plan_id":"free"},{"bike_id":"3d7364d7-b716-49a8-a214-7273b554a851","system_id":"levelo_inurba_marseille","lat":43.303076,"lon":5.392189,"is_reserved":false,"is_disabled":false,"rental_uris":{"android":"levelo://app?vid=3d7364d7-b716-49a8-a214-7273b554a851","ios":"levelo://app?vid=3d7364d7-b716-49a8-a214-7273b554a851"},"vehicle_type_id":"4","last_reported":1686607576,"current_range_meters":21200,"station_id":"","pricing_plan_id":"free"},{"bike_id":"bc2041f6-5485-4181-b130-38e837f19086","system_id":"levelo_inurba_marseille","lat":43.302992,"lon":5.392136,"is_reserved":false,"is_disabled":false,"rental_uris":{"android":"levelo://app?vid=bc2041f6-5485-4181-b130-38e837f19086","ios":"levelo://app?vid=bc2041f6-5485-4181-b130-38e837f19086"},"vehicle_type_id":"4","last_reported":1686607576,"current_range_meters":31200,"station_id":"ce4bgkh2rcd13ifvqbk0","pricing_plan_id":"free"},{"bike_id":"9cf65377-5c66-4a9b-913e-21b62cfe7ef3","system_id":"levelo_inurba_marseille","lat":43.302992,"lon":5.392136,"is_reserved":false,"is_disabled":false,"rental_uris":{"android":"levelo://app?vid=9cf65377-5c66-4a9b-913e-21b62cfe7ef3","ios":"levelo://app?vid=9cf65377-5c66-4a9b-913e-21b62cfe7ef3"},"vehicle_type_id":"4","last_reported":1686607576,"current_range_meters":29600,"station_id":"ce4bgkh2rcd13ifvqbk0","pricing_plan_id":"free"},{"bike_id":"3b5e1804-3b1f-4c97-b7c4-5661612573e0","system_id":"levelo_inurba_marseille","lat":43.2936,"lon":5.37835,"is_reserved":false,"is_disabled":false,"rental_uris":{"android":"levelo://app?vid=3b5e1804-3b1f-4c97-b7c4-5661612573e0","ios":"levelo://app?vid=3b5e1804-3b1f-4c97-b7c4-5661612573e0"},"vehicle_type_id":"4","last_reported":1686607576,"current_range_meters":27200,"station_id":"ce4bgjh2rcd13ifvqbf0","pricing_plan_id":"free"},{"bike_id":"0cd7bfde-500c-459d-ae75-1b9c6cc6d3d5","system_id":"levelo_inurba_marseille","lat":43.300852,"lon":5.390859,"is_reserved":false,"is_disabled":false,"rental_uris":{"android":"levelo://app?vid=0cd7bfde-500c-459d-ae75-1b9c6cc6d3d5","ios":"levelo://app?vid=0cd7bfde-500c-459d-ae75-1b9c6cc6d3d5"},"vehicle_type_id":"4","last_reported":1686607576,"current_range_meters":0,"station_id":"ce4bh192rcd13ifvqdb0","pricing_plan_id":"free"},{"bike_id":"13de7327-00ec-4c14-8e7b-91480df5a490","system_id":"levelo_inurba_marseille","lat":43.300852,"lon":5.390859,"is_reserved":false,"is_disabled":false,"rental_uris":{"android":"levelo://app?vid=13de7327-00ec-4c14-8e7b-91480df5a490","ios":"levelo://app?vid=13de7327-00ec-4c14-8e7b-91480df5a490"},"vehicle_type_id":"4","last_reported":1686607576,"current_range_meters":23600,"station_id":"ce4bh192rcd13ifvqdb0","pricing_plan_id":"free"},{"bike_id":"7aa887fd-9509-4e3e-ae7f-76836a1f5c93","system_id":"levelo_inurba_marseille","lat":43.313291,"lon":5.396838,"is_reserved":false,"is_disabled":false,"rental_uris":{"android":"levelo://app?vid=7aa887fd-9509-4e3e-ae7f-76836a1f5c93","ios":"levelo://app?vid=7aa887fd-9509-4e3e-ae7f-76836a1f5c93"},"vehicle_type_id":"4","last_reported":1686607576,"current_range_meters":20000,"station_id":"ce4bgvp2rcd13ifvqcu0","pricing_plan_id":"free"},{"bike_id":"bed5f88d-3a0d-419e-b574-7d088b7f0334","system_id":"levelo_inurba_marseille","lat":43.29888,"lon":5.38907,"is_reserved":false,"is_disabled":false,"rental_uris":{"android":"levelo://app?vid=bed5f88d-3a0d-419e-b574-7d088b7f0334","ios":"levelo://app?vid=bed5f88d-3a0d-419e-b574-7d088b7f0334"},"vehicle_type_id":"4","last_reported":1686607576,"current_range_meters":24800,"station_id":"ce4bh392rcd13ifvqdl0","pricing_plan_id":"free"},{"bike_id":"89076e1c-907b-40d8-a1c5-001c2e616bd7","system_id":"levelo_inurba_marseille","lat":43.298836,"lon":5.389046,"is_reserved":false,"is_disabled":false,"rental_uris":{"android":"levelo://app?vid=89076e1c-907b-40d8-a1c5-001c2e616bd7","ios":"levelo://app?vid=89076e1c-907b-40d8-a1c5-001c2e616bd7"},"vehicle_type_id":"4","last_reported":1686607576,"current_range_meters":30400,"station_id":"ce4bh392rcd13ifvqdl0","pricing_plan_id":"free"},{"bike_id":"a66ed510-ad9f-4825-a9c6-d651c3a7b028","system_id":"levelo_inurba_marseille","lat":43.29881,"lon":5.38908,"is_reserved":false,"is_disabled":false,"rental_uris":{"android":"levelo://app?vid=a66ed510-ad9f-4825-a9c6-d651c3a7b028","ios":"levelo://app?vid=a66ed510-ad9f-4825-a9c6-d651c3a7b028"},"vehicle_type_id":"4","last_reported":1686607576,"current_range_meters":31200,"station_id":"ce4bh392rcd13ifvqdl0","pricing_plan_id":"free"},{"bike_id":"f6edbc83-f193-4cf6-9d46-f4e284a197f2","system_id":"levelo_inurba_marseille","lat":43.29878,"lon":5.38909,"is_reserved":false,"is_disabled":false,"rental_uris":{"android":"levelo://app?vid=f6edbc83-f193-4cf6-9d46-f4e284a197f2","ios":"levelo://app?vid=f6edbc83-f193-4cf6-9d46-f4e284a197f2"},"vehicle_type_id":"4","last_reported":1686607576,"current_range_meters":31200,"station_id":"ce4bh392rcd13ifvqdl0","pricing_plan_id":"free"},{"bike_id":"63fcf2a6-7190-48c0-ace7-501f50d6e122","system_id":"levelo_inurba_marseille","lat":43.29868,"lon":5.38903,"is_reserved":false,"is_disabled":false,"rental_uris":{"android":"levelo://app?vid=63fcf2a6-7190-48c0-ace7-501f50d6e122","ios":"levelo://app?vid=63fcf2a6-7190-48c0-ace7-501f50d6e122"},"vehicle_type_id":"4","last_reported":1686607576,"current_range_meters":21600,"station_id":"ce4bh392rcd13ifvqdl0","pricing_plan_id":"free"},{"bike_id":"3bb3f96b-75bd-448c-a808-702d298a70ec","system_id":"levelo_inurba_marseille","lat":43.29869,"lon":5.38905,"is_reserved":false,"is_disabled":false,"rental_uris":{"android":"levelo://app?vid=3bb3f96b-75bd-448c-a808-702d298a70ec","ios":"levelo://app?vid=3bb3f96b-75bd-448c-a808-702d298a70ec"},"vehicle_type_id":"4","last_reported":1686607576,"current_range_meters":27600,"station_id":"ce4bh392rcd13ifvqdl0","pricing_plan_id":"free"},{"bike_id":"270b958c-d630-4466-82ab-94d61b43c266","system_id":"levelo_inurba_marseille","lat":43.29873,"lon":5.38914,"is_reserved":false,"is_disabled":false,"rental_uris":{"android":"levelo://app?vid=270b958c-d630-4466-82ab-94d61b43c266","ios":"levelo://app?vid=270b958c-d630-4466-82ab-94d61b43c266"},"vehicle_type_id":"4","last_reported":1686607576,"current_range_meters":22400,"station_id":"ce4bh392rcd13ifvqdl0","pricing_plan_id":"free"},{"bike_id":"5fb96060-9ab4-4a4a-86d6-8a2df976c11a","system_id":"levelo_inurba_marseille","lat":43.309038,"lon":5.396546,"is_reserved":false,"is_disabled":false,"rental_uris":{"android":"levelo://app?vid=5fb96060-9ab4-4a4a-86d6-8a2df976c11a","ios":"levelo://app?vid=5fb96060-9ab4-4a4a-86d6-8a2df976c11a"},"vehicle_type_id":"4","last_reported":1686607576,"current_range_meters":31200,"station_id":"ce4bh012rcd13ifvqcv0","pricing_plan_id":"free"},{"bike_id":"dad6d30e-66cc-4762-9d6c-98a79a4cfa97","system_id":"levelo_inurba_marseille","lat":43.309038,"lon":5.396546,"is_reserved":false,"is_disabled":false,"rental_uris":{"android":"levelo://app?vid=dad6d30e-66cc-4762-9d6c-98a79a4cfa97","ios":"levelo://app?vid=dad6d30e-66cc-4762-9d6c-98a79a4cfa97"},"vehicle_type_id":"4","last_reported":1686607576,"current_range_meters":14000,"station_id":"ce4bh012rcd13ifvqcv0","pricing_plan_id":"free"},{"bike_id":"72475053-be63-4034-9945-5238c7431aee","system_id":"levelo_inurba_marseille","lat":43.309038,"lon":5.396546,"is_reserved":false,"is_disabled":false,"rental_uris":{"android":"levelo://app?vid=72475053-be63-4034-9945-5238c7431aee","ios":"levelo://app?vid=72475053-be63-4034-9945-5238c7431aee"},"vehicle_type_id":"4","last_reported":1686607576,"current_range_meters":31200,"station_id":"ce4bh012rcd13ifvqcv0","pricing_plan_id":"free"},{"bike_id":"302b4c6f-20a2-488f-9606-77baf8366192","system_id":"levelo_inurba_marseille","lat":43.309038,"lon":5.396546,"is_reserved":false,"is_disabled":false,"rental_uris":{"android":"levelo://app?vid=302b4c6f-20a2-488f-9606-77baf8366192","ios":"levelo://app?vid=302b4c6f-20a2-488f-9606-77baf8366192"},"vehicle_type_id":"4","last_reported":1686607576,"current_range_meters":29200,"station_id":"ce4bh012rcd13ifvqcv0","pricing_plan_id":"free"},{"bike_id":"3cb5d608-4ca6-41a4-b687-86aad8b89ec8","system_id":"levelo_inurba_marseille","lat":43.309038,"lon":5.396546,"is_reserved":false,"is_disabled":false,"rental_uris":{"android":"levelo://app?vid=3cb5d608-4ca6-41a4-b687-86aad8b89ec8","ios":"levelo://app?vid=3cb5d608-4ca6-41a4-b687-86aad8b89ec8"},"vehicle_type_id":"4","last_reported":1686607576,"current_range_meters":19200,"station_id":"ce4bh012rcd13ifvqcv0","pricing_plan_id":"free"},{"bike_id":"df36824a-dcd9-445a-83a9-b8cc6eb3d6bd","system_id":"levelo_inurba_marseille","lat":43.309038,"lon":5.396546,"is_reserved":false,"is_disabled":false,"rental_uris":{"android":"levelo://app?vid=df36824a-dcd9-445a-83a9-b8cc6eb3d6bd","ios":"levelo://app?vid=df36824a-dcd9-445a-83a9-b8cc6eb3d6bd"},"vehicle_type_id":"4","last_reported":1686607576,"current_range_meters":29200,"station_id":"ce4bh012rcd13ifvqcv0","pricing_plan_id":"free"},{"bike_id":"2135837d-4fda-45b0-a0c3-27be307cb340","system_id":"levelo_inurba_marseille","lat":43.309038,"lon":5.396546,"is_reserved":false,"is_disabled":false,"rental_uris":{"android":"levelo://app?vid=2135837d-4fda-45b0-a0c3-27be307cb340","ios":"levelo://app?vid=2135837d-4fda-45b0-a0c3-27be307cb340"},"vehicle_type_id":"4","last_reported":1686607576,"current_range_meters":23600,"station_id":"ce4bh012rcd13ifvqcv0","pricing_plan_id":"free"},{"bike_id":"0bef4b14-1fee-4703-82ce-5c570120e986","system_id":"levelo_inurba_marseille","lat":43.309038,"lon":5.396546,"is_reserved":false,"is_disabled":false,"rental_uris":{"android":"levelo://app?vid=0bef4b14-1fee-4703-82ce-5c570120e986","ios":"levelo://app?vid=0bef4b14-1fee-4703-82ce-5c570120e986"},"vehicle_type_id":"4","last_reported":1686607576,"current_range_meters":30800,"station_id":"ce4bh012rcd13ifvqcv0","pricing_plan_id":"free"},{"bike_id":"6dd2cc0c-3b2b-458c-bf09-26335dc63dec","system_id":"levelo_inurba_marseille","lat":43.309038,"lon":5.396546,"is_reserved":false,"is_disabled":false,"rental_uris":{"android":"levelo://app?vid=6dd2cc0c-3b2b-458c-bf09-26335dc63dec","ios":"levelo://app?vid=6dd2cc0c-3b2b-458c-bf09-26335dc63dec"},"vehicle_type_id":"4","last_reported":1686607576,"current_range_meters":10400,"station_id":"ce4bh012rcd13ifvqcv0","pricing_plan_id":"free"},{"bike_id":"905a473d-cfd7-485b-ad9b-5ec6bc09bec7","system_id":"levelo_inurba_marseille","lat":43.309038,"lon":5.396546,"is_reserved":false,"is_disabled":false,"rental_uris":{"android":"levelo://app?vid=905a473d-cfd7-485b-ad9b-5ec6bc09bec7","ios":"levelo://app?vid=905a473d-cfd7-485b-ad9b-5ec6bc09bec7"},"vehicle_type_id":"4","last_reported":1686607576,"current_range_meters":16800,"station_id":"ce4bh012rcd13ifvqcv0","pricing_plan_id":"free"},{"bike_id":"37431231-1437-41ba-aede-a60c625cb93b","system_id":"levelo_inurba_marseille","lat":43.313291,"lon":5.396838,"is_reserved":false,"is_disabled":false,"rental_uris":{"android":"levelo://app?vid=37431231-1437-41ba-aede-a60c625cb93b","ios":"levelo://app?vid=37431231-1437-41ba-aede-a60c625cb93b"},"vehicle_type_id":"4","last_reported":1686607576,"current_range_meters":12800,"station_id":"ce4bgvp2rcd13ifvqcu0","pricing_plan_id":"free"},{"bike_id":"e2b2eb08-d4dc-4f12-a8aa-b70784382e62","system_id":"levelo_inurba_marseille","lat":43.305994,"lon":5.393687,"is_reserved":false,"is_disabled":false,"rental_uris":{"android":"levelo://app?vid=e2b2eb08-d4dc-4f12-a8aa-b70784382e62","ios":"levelo://app?vid=e2b2eb08-d4dc-4f12-a8aa-b70784382e62"},"vehicle_type_id":"4","last_reported":1686607576,"current_range_meters":24000,"station_id":"ce4bh0p2rcd13ifvqd80","pricing_plan_id":"free"},{"bike_id":"cda0442e-64f4-4c8b-a697-13deaa53c9e8","system_id":"levelo_inurba_marseille","lat":43.313291,"lon":5.396838,"is_reserved":false,"is_disabled":false,"rental_uris":{"android":"levelo://app?vid=cda0442e-64f4-4c8b-a697-13deaa53c9e8","ios":"levelo://app?vid=cda0442e-64f4-4c8b-a697-13deaa53c9e8"},"vehicle_type_id":"4","last_reported":1686607576,"current_range_meters":17200,"station_id":"ce4bgvp2rcd13ifvqcu0","pricing_plan_id":"free"},{"bike_id":"7f3131e1-f81e-4225-9a0c-130153a2a8a1","system_id":"levelo_inurba_marseille","lat":43.313291,"lon":5.396838,"is_reserved":false,"is_disabled":false,"rental_uris":{"android":"levelo://app?vid=7f3131e1-f81e-4225-9a0c-130153a2a8a1","ios":"levelo://app?vid=7f3131e1-f81e-4225-9a0c-130153a2a8a1"},"vehicle_type_id":"4","last_reported":1686607576,"current_range_meters":7200,"station_id":"ce4bgvp2rcd13ifvqcu0","pricing_plan_id":"free"},{"bike_id":"2f1be7c7-b312-4957-946c-605052015bc2","system_id":"levelo_inurba_marseille","lat":43.313291,"lon":5.396838,"is_reserved":false,"is_disabled":false,"rental_uris":{"android":"levelo://app?vid=2f1be7c7-b312-4957-946c-605052015bc2","ios":"levelo://app?vid=2f1be7c7-b312-4957-946c-605052015bc2"},"vehicle_type_id":"4","last_reported":1686607576,"current_range_meters":3600,"station_id":"ce4bgvp2rcd13ifvqcu0","pricing_plan_id":"free"},{"bike_id":"14066299-bed7-4c02-a922-34eae844b8b1","system_id":"levelo_inurba_marseille","lat":43.309038,"lon":5.396546,"is_reserved":false,"is_disabled":false,"rental_uris":{"android":"levelo://app?vid=14066299-bed7-4c02-a922-34eae844b8b1","ios":"levelo://app?vid=14066299-bed7-4c02-a922-34eae844b8b1"},"vehicle_type_id":"4","last_reported":1686607576,"current_range_meters":26800,"station_id":"ce4bh012rcd13ifvqcv0","pricing_plan_id":"free"},{"bike_id":"13d90531-4643-471a-b61f-38d25bfdf8e8","system_id":"levelo_inurba_marseille","lat":43.309038,"lon":5.396546,"is_reserved":false,"is_disabled":false,"rental_uris":{"android":"levelo://app?vid=13d90531-4643-471a-b61f-38d25bfdf8e8","ios":"levelo://app?vid=13d90531-4643-471a-b61f-38d25bfdf8e8"},"vehicle_type_id":"4","last_reported":1686607576,"current_range_meters":1200,"station_id":"ce4bh012rcd13ifvqcv0","pricing_plan_id":"free"},{"bike_id":"b7145ca8-b3b8-4eb3-b52a-1206bde08cde","system_id":"levelo_inurba_marseille","lat":43.29529,"lon":5.385581,"is_reserved":false,"is_disabled":false,"rental_uris":{"android":"levelo://app?vid=b7145ca8-b3b8-4eb3-b52a-1206bde08cde","ios":"levelo://app?vid=b7145ca8-b3b8-4eb3-b52a-1206bde08cde"},"vehicle_type_id":"4","last_reported":1686607576,"current_range_meters":23200,"station_id":"ce4bgih2rcd13ifvqba0","pricing_plan_id":"free"},{"bike_id":"f647ff2d-69c7-44c1-9a09-a407b3c62294","system_id":"levelo_inurba_marseille","lat":43.29532,"lon":5.38542,"is_reserved":false,"is_disabled":false,"rental_uris":{"android":"levelo://app?vid=f647ff2d-69c7-44c1-9a09-a407b3c62294","ios":"levelo://app?vid=f647ff2d-69c7-44c1-9a09-a407b3c62294"},"vehicle_type_id":"4","last_reported":1686607576,"current_range_meters":24400,"station_id":"ce4bgih2rcd13ifvqba0","pricing_plan_id":"free"},{"bike_id":"affe110a-09db-446c-9738-a57b66e7bf0f","system_id":"levelo_inurba_marseille","lat":43.302008,"lon":5.394694,"is_reserved":false,"is_disabled":false,"rental_uris":{"android":"levelo://app?vid=affe110a-09db-446c-9738-a57b66e7bf0f","ios":"levelo://app?vid=affe110a-09db-446c-9738-a57b66e7bf0f"},"vehicle_type_id":"4","last_reported":1686607576,"current_range_meters":30800,"station_id":"ce4bh0p2rcd13ifvqd70","pricing_plan_id":"free"},{"bike_id":"ce3396be-d4cd-4b34-9468-84687581fb43","system_id":"levelo_inurba_marseille","lat":43.290624,"lon":5.359245,"is_reserved":false,"is_disabled":false,"rental_uris":{"android":"levelo://app?vid=ce3396be-d4cd-4b34-9468-84687581fb43","ios":"levelo://app?vid=ce3396be-d4cd-4b34-9468-84687581fb43"},"vehicle_type_id":"4","last_reported":1686607576,"current_range_meters":5600,"station_id":"ce4bha92rcd13ifvqeg0","pricing_plan_id":"free"},{"bike_id":"6fab9e1c-b92e-492e-99e2-2a0d029c44a7","system_id":"levelo_inurba_marseille","lat":43.290631,"lon":5.359244,"is_reserved":false,"is_disabled":false,"rental_uris":{"android":"levelo://app?vid=6fab9e1c-b92e-492e-99e2-2a0d029c44a7","ios":"levelo://app?vid=6fab9e1c-b92e-492e-99e2-2a0d029c44a7"},"vehicle_type_id":"4","last_reported":1686607576,"current_range_meters":21600,"station_id":"ce4bha92rcd13ifvqeg0","pricing_plan_id":"free"},{"bike_id":"6e5268ac-eedc-4f68-8587-0848a8c8882e","system_id":"levelo_inurba_marseille","lat":43.294153,"lon":5.386305,"is_reserved":false,"is_disabled":false,"rental_uris":{"android":"levelo://app?vid=6e5268ac-eedc-4f68-8587-0848a8c8882e","ios":"levelo://app?vid=6e5268ac-eedc-4f68-8587-0848a8c8882e"},"vehicle_type_id":"4","last_reported":1686607576,"current_range_meters":5200,"station_id":"ce4bh2h2rcd13ifvqdh0","pricing_plan_id":"free"},{"bike_id":"3045a0d8-cfcd-49e7-9bcc-843e80ec1484","system_id":"levelo_inurba_marseille","lat":43.290327,"lon":5.375711,"is_reserved":false,"is_disabled":false,"rental_uris":{"android":"levelo://app?vid=3045a0d8-cfcd-49e7-9bcc-843e80ec1484","ios":"levelo://app?vid=3045a0d8-cfcd-49e7-9bcc-843e80ec1484"},"vehicle_type_id":"4","last_reported":1686607576,"current_range_meters":14400,"station_id":"ce4bh692rcd13ifvqe90","pricing_plan_id":"free"},{"bike_id":"464a32f9-60a6-46e2-99cf-726cc637f86e","system_id":"levelo_inurba_marseille","lat":43.289184,"lon":5.366408,"is_reserved":false,"is_disabled":false,"rental_uris":{"android":"levelo://app?vid=464a32f9-60a6-46e2-99cf-726cc637f86e","ios":"levelo://app?vid=464a32f9-60a6-46e2-99cf-726cc637f86e"},"vehicle_type_id":"4","last_reported":1686607576,"current_range_meters":10800,"station_id":"ce4bhap2rcd13ifvqek0","pricing_plan_id":"free"},{"bike_id":"f1ffb759-7621-4bb2-b893-2e12e4354e3b","system_id":"levelo_inurba_marseille","lat":43.28938,"lon":5.36632,"is_reserved":false,"is_disabled":false,"rental_uris":{"android":"levelo://app?vid=f1ffb759-7621-4bb2-b893-2e12e4354e3b","ios":"levelo://app?vid=f1ffb759-7621-4bb2-b893-2e12e4354e3b"},"vehicle_type_id":"4","last_reported":1686607576,"current_range_meters":20800,"station_id":"ce4bhap2rcd13ifvqek0","pricing_plan_id":"free"},{"bike_id":"0a4beee8-1d0b-40b6-a628-dd56857f4693","system_id":"levelo_inurba_marseille","lat":43.294032,"lon":5.386342,"is_reserved":false,"is_disabled":false,"rental_uris":{"android":"levelo://app?vid=0a4beee8-1d0b-40b6-a628-dd56857f4693","ios":"levelo://app?vid=0a4beee8-1d0b-40b6-a628-dd56857f4693"},"vehicle_type_id":"4","last_reported":1686607576,"current_range_meters":14800,"station_id":"","pricing_plan_id":"free"},{"bike_id":"ff87d75a-e069-4392-92a4-cab34378b065","system_id":"levelo_inurba_marseille","lat":43.289468,"lon":5.363719,"is_reserved":false,"is_disabled":false,"rental_uris":{"android":"levelo://app?vid=ff87d75a-e069-4392-92a4-cab34378b065","ios":"levelo://app?vid=ff87d75a-e069-4392-92a4-cab34378b065"},"vehicle_type_id":"4","last_reported":1686607576,"current_range_meters":12400,"station_id":"ce4bhc92rcd13ifvqetg","pricing_plan_id":"free"},{"bike_id":"120db851-e9ef-4590-a985-3b99c7af3653","system_id":"levelo_inurba_marseille","lat":43.33042,"lon":5.38906,"is_reserved":false,"is_disabled":false,"rental_uris":{"android":"levelo://app?vid=120db851-e9ef-4590-a985-3b99c7af3653","ios":"levelo://app?vid=120db851-e9ef-4590-a985-3b99c7af3653"},"vehicle_type_id":"4","last_reported":1686607576,"current_range_meters":31200,"station_id":"ce4bhr92rcd13ifvqhrg","pricing_plan_id":"free"},{"bike_id":"1c096b92-d73b-48f3-b43c-8265fd1feca0","system_id":"levelo_inurba_marseille","lat":43.330442,"lon":5.389148,"is_reserved":false,"is_disabled":false,"rental_uris":{"android":"levelo://app?vid=1c096b92-d73b-48f3-b43c-8265fd1feca0","ios":"levelo://app?vid=1c096b92-d73b-48f3-b43c-8265fd1feca0"},"vehicle_type_id":"4","last_reported":1686607576,"current_range_meters":30400,"station_id":"ce4bhr92rcd13ifvqhrg","pricing_plan_id":"free"},{"bike_id":"d411c1be-10b4-4838-a93f-35add8fed384","system_id":"levelo_inurba_marseille","lat":43.330442,"lon":5.389148,"is_reserved":false,"is_disabled":false,"rental_uris":{"android":"levelo://app?vid=d411c1be-10b4-4838-a93f-35add8fed384","ios":"levelo://app?vid=d411c1be-10b4-4838-a93f-35add8fed384"},"vehicle_type_id":"4","last_reported":1686607576,"current_range_meters":21600,"station_id":"ce4bhr92rcd13ifvqhrg","pricing_plan_id":"free"},{"bike_id":"3f1bd78a-f1dd-4e51-b7e6-2d86b6a5ac61","system_id":"levelo_inurba_marseille","lat":43.33045,"lon":5.38917,"is_reserved":false,"is_disabled":false,"rental_uris":{"android":"levelo://app?vid=3f1bd78a-f1dd-4e51-b7e6-2d86b6a5ac61","ios":"levelo://app?vid=3f1bd78a-f1dd-4e51-b7e6-2d86b6a5ac61"},"vehicle_type_id":"4","last_reported":1686607576,"current_range_meters":25200,"station_id":"ce4bhr92rcd13ifvqhrg","pricing_plan_id":"free"},{"bike_id":"4e632f99-a7ad-4f2e-9dd7-c255ca77bfd2","system_id":"levelo_inurba_marseille","lat":43.3305,"lon":5.38916,"is_reserved":false,"is_disabled":false,"rental_uris":{"android":"levelo://app?vid=4e632f99-a7ad-4f2e-9dd7-c255ca77bfd2","ios":"levelo://app?vid=4e632f99-a7ad-4f2e-9dd7-c255ca77bfd2"},"vehicle_type_id":"4","last_reported":1686607576,"current_range_meters":31200,"station_id":"ce4bhr92rcd13ifvqhrg","pricing_plan_id":"free"},{"bike_id":"425d8b0f-616f-4407-9a9e-35e5618394a6","system_id":"levelo_inurba_marseille","lat":43.29094,"lon":5.38128,"is_reserved":false,"is_disabled":false,"rental_uris":{"android":"levelo://app?vid=425d8b0f-616f-4407-9a9e-35e5618394a6","ios":"levelo://app?vid=425d8b0f-616f-4407-9a9e-35e5618394a6"},"vehicle_type_id":"4","last_reported":1686607576,"current_range_meters":4800,"station_id":"ce4bh512rcd13ifvqe2g","pricing_plan_id":"free"},{"bike_id":"a79959ec-0e97-465f-b895-8844e9b311f3","system_id":"levelo_inurba_marseille","lat":43.297814,"lon":5.393513,"is_reserved":false,"is_disabled":false,"rental_uris":{"android":"levelo://app?vid=a79959ec-0e97-465f-b895-8844e9b311f3","ios":"levelo://app?vid=a79959ec-0e97-465f-b895-8844e9b311f3"},"vehicle_type_id":"4","last_reported":1686607576,"current_range_meters":1200,"station_id":"chh1huq6cuj3fo74tm60","pricing_plan_id":"free"},{"bike_id":"c554dd53-d47a-4c85-9cc4-1de90c773480","system_id":"levelo_inurba_marseille","lat":43.297814,"lon":5.393513,"is_reserved":false,"is_disabled":false,"rental_uris":{"android":"levelo://app?vid=c554dd53-d47a-4c85-9cc4-1de90c773480","ios":"levelo://app?vid=c554dd53-d47a-4c85-9cc4-1de90c773480"},"vehicle_type_id":"4","last_reported":1686607576,"current_range_meters":0,"station_id":"chh1huq6cuj3fo74tm60","pricing_plan_id":"free"},{"bike_id":"c3ad9b61-228d-4295-a175-fe90c1a58ac8","system_id":"levelo_inurba_marseille","lat":43.29088,"lon":5.38319,"is_reserved":false,"is_disabled":false,"rental_uris":{"android":"levelo://app?vid=c3ad9b61-228d-4295-a175-fe90c1a58ac8","ios":"levelo://app?vid=c3ad9b61-228d-4295-a175-fe90c1a58ac8"},"vehicle_type_id":"4","last_reported":1686607576,"current_range_meters":25200,"station_id":"","pricing_plan_id":"free"},{"bike_id":"c0fb8083-e02d-4dec-b1b9-fa095e6c5b75","system_id":"levelo_inurba_marseille","lat":43.337396,"lon":5.374526,"is_reserved":false,"is_disabled":false,"rental_uris":{"android":"levelo://app?vid=c0fb8083-e02d-4dec-b1b9-fa095e6c5b75","ios":"levelo://app?vid=c0fb8083-e02d-4dec-b1b9-fa095e6c5b75"},"vehicle_type_id":"4","last_reported":1686607576,"current_range_meters":15200,"station_id":"ce4bhp92rcd13ifvqhag","pricing_plan_id":"free"},{"bike_id":"e900097d-98df-44c9-84b3-7479563e711d","system_id":"levelo_inurba_marseille","lat":43.309371,"lon":5.401449,"is_reserved":false,"is_disabled":false,"rental_uris":{"android":"levelo://app?vid=e900097d-98df-44c9-84b3-7479563e711d","ios":"levelo://app?vid=e900097d-98df-44c9-84b3-7479563e711d"},"vehicle_type_id":"4","last_reported":1686607576,"current_range_meters":26800,"station_id":"ce4bgvp2rcd13ifvqct0","pricing_plan_id":"free"},{"bike_id":"b9355282-1b19-4560-8893-c8d31e0e19e8","system_id":"levelo_inurba_marseille","lat":43.306412,"lon":5.401035,"is_reserved":false,"is_disabled":false,"rental_uris":{"android":"levelo://app?vid=b9355282-1b19-4560-8893-c8d31e0e19e8","ios":"levelo://app?vid=b9355282-1b19-4560-8893-c8d31e0e19e8"},"vehicle_type_id":"4","last_reported":1686607576,"current_range_meters":8400,"station_id":"ce4bh112rcd13ifvqda0","pricing_plan_id":"free"},{"bike_id":"1a1f8da4-88b0-4044-a437-5610219fa53c","system_id":"levelo_inurba_marseille","lat":43.30642,"lon":5.401031,"is_reserved":false,"is_disabled":false,"rental_uris":{"android":"levelo://app?vid=1a1f8da4-88b0-4044-a437-5610219fa53c","ios":"levelo://app?vid=1a1f8da4-88b0-4044-a437-5610219fa53c"},"vehicle_type_id":"4","last_reported":1686607576,"current_range_meters":27200,"station_id":"ce4bh112rcd13ifvqda0","pricing_plan_id":"free"},{"bike_id":"e1080713-e3e4-40c3-a6a0-f0479965244b","system_id":"levelo_inurba_marseille","lat":43.306412,"lon":5.401035,"is_reserved":false,"is_disabled":false,"rental_uris":{"android":"levelo://app?vid=e1080713-e3e4-40c3-a6a0-f0479965244b","ios":"levelo://app?vid=e1080713-e3e4-40c3-a6a0-f0479965244b"},"vehicle_type_id":"4","last_reported":1686607576,"current_range_meters":21200,"station_id":"ce4bh112rcd13ifvqda0","pricing_plan_id":"free"},{"bike_id":"5014e0e8-1091-4582-865b-ed616505b7c5","system_id":"levelo_inurba_marseille","lat":43.30645,"lon":5.40087,"is_reserved":false,"is_disabled":false,"rental_uris":{"android":"levelo://app?vid=5014e0e8-1091-4582-865b-ed616505b7c5","ios":"levelo://app?vid=5014e0e8-1091-4582-865b-ed616505b7c5"},"vehicle_type_id":"4","last_reported":1686607576,"current_range_meters":24400,"station_id":"ce4bh112rcd13ifvqda0","pricing_plan_id":"free"},{"bike_id":"8bffc96a-ce82-4b93-90aa-a7beb255ac54","system_id":"levelo_inurba_marseille","lat":43.301117,"lon":5.398795,"is_reserved":false,"is_disabled":false,"rental_uris":{"android":"levelo://app?vid=8bffc96a-ce82-4b93-90aa-a7beb255ac54","ios":"levelo://app?vid=8bffc96a-ce82-4b93-90aa-a7beb255ac54"},"vehicle_type_id":"4","last_reported":1686607576,"current_range_meters":7600,"station_id":"ce4bh0h2rcd13ifvqd40","pricing_plan_id":"free"},{"bike_id":"16da788a-0d5b-40fe-9e75-796419818da2","system_id":"levelo_inurba_marseille","lat":43.301117,"lon":5.398795,"is_reserved":false,"is_disabled":false,"rental_uris":{"android":"levelo://app?vid=16da788a-0d5b-40fe-9e75-796419818da2","ios":"levelo://app?vid=16da788a-0d5b-40fe-9e75-796419818da2"},"vehicle_type_id":"4","last_reported":1686607576,"current_range_meters":26400,"station_id":"ce4bh0h2rcd13ifvqd40","pricing_plan_id":"free"},{"bike_id":"af17827f-99ef-430a-aa42-4028060c2630","system_id":"levelo_inurba_marseille","lat":43.28716,"lon":5.37385,"is_reserved":false,"is_disabled":false,"rental_uris":{"android":"levelo://app?vid=af17827f-99ef-430a-aa42-4028060c2630","ios":"levelo://app?vid=af17827f-99ef-430a-aa42-4028060c2630"},"vehicle_type_id":"4","last_reported":1686607576,"current_range_meters":10000,"station_id":"","pricing_plan_id":"free"},{"bike_id":"e308896f-13f0-4de1-8039-0cfd14ded282","system_id":"levelo_inurba_marseille","lat":43.286591,"lon":5.363346,"is_reserved":false,"is_disabled":false,"rental_uris":{"android":"levelo://app?vid=e308896f-13f0-4de1-8039-0cfd14ded282","ios":"levelo://app?vid=e308896f-13f0-4de1-8039-0cfd14ded282"},"vehicle_type_id":"4","last_reported":1686607576,"current_range_meters":31600,"station_id":"ce4bhah2rcd13ifvqej0","pricing_plan_id":"free"},{"bike_id":"b964de44-be59-4650-8aa6-29ea0b023e95","system_id":"levelo_inurba_marseille","lat":43.2871,"lon":5.37379,"is_reserved":false,"is_disabled":false,"rental_uris":{"android":"levelo://app?vid=b964de44-be59-4650-8aa6-29ea0b023e95","ios":"levelo://app?vid=b964de44-be59-4650-8aa6-29ea0b023e95"},"vehicle_type_id":"4","last_reported":1686607576,"current_range_meters":9600,"station_id":"","pricing_plan_id":"free"},{"bike_id":"f6f7f520-1291-4960-ba9e-219b19631321","system_id":"levelo_inurba_marseille","lat":43.2871,"lon":5.37386,"is_reserved":false,"is_disabled":false,"rental_uris":{"android":"levelo://app?vid=f6f7f520-1291-4960-ba9e-219b19631321","ios":"levelo://app?vid=f6f7f520-1291-4960-ba9e-219b19631321"},"vehicle_type_id":"4","last_reported":1686607576,"current_range_meters":22000,"station_id":"","pricing_plan_id":"free"},{"bike_id":"353e4895-dd28-41ab-ad55-d8da5a359441","system_id":"levelo_inurba_marseille","lat":43.286593,"lon":5.363346,"is_reserved":false,"is_disabled":false,"rental_uris":{"android":"levelo://app?vid=353e4895-dd28-41ab-ad55-d8da5a359441","ios":"levelo://app?vid=353e4895-dd28-41ab-ad55-d8da5a359441"},"vehicle_type_id":"4","last_reported":1686607576,"current_range_meters":19200,"station_id":"ce4bhah2rcd13ifvqej0","pricing_plan_id":"free"},{"bike_id":"d02baf04-0cec-4f1f-9bf8-77fd369ec519","system_id":"levelo_inurba_marseille","lat":43.298681,"lon":5.397225,"is_reserved":false,"is_disabled":false,"rental_uris":{"android":"levelo://app?vid=d02baf04-0cec-4f1f-9bf8-77fd369ec519","ios":"levelo://app?vid=d02baf04-0cec-4f1f-9bf8-77fd369ec519"},"vehicle_type_id":"4","last_reported":1686607576,"current_range_meters":22400,"station_id":"ce4bh0h2rcd13ifvqd50","pricing_plan_id":"free"},{"bike_id":"56958d85-50df-486d-a009-88f3986a7f2d","system_id":"levelo_inurba_marseille","lat":43.286591,"lon":5.363346,"is_reserved":false,"is_disabled":false,"rental_uris":{"android":"levelo://app?vid=56958d85-50df-486d-a009-88f3986a7f2d","ios":"levelo://app?vid=56958d85-50df-486d-a009-88f3986a7f2d"},"vehicle_type_id":"4","last_reported":1686607576,"current_range_meters":29200,"station_id":"ce4bhah2rcd13ifvqej0","pricing_plan_id":"free"},{"bike_id":"cd5d29bd-a255-425c-9a12-6f6ca1903fa3","system_id":"levelo_inurba_marseille","lat":43.286593,"lon":5.363346,"is_reserved":false,"is_disabled":false,"rental_uris":{"android":"levelo://app?vid=cd5d29bd-a255-425c-9a12-6f6ca1903fa3","ios":"levelo://app?vid=cd5d29bd-a255-425c-9a12-6f6ca1903fa3"},"vehicle_type_id":"4","last_reported":1686607576,"current_range_meters":28000,"station_id":"ce4bhah2rcd13ifvqej0","pricing_plan_id":"free"},{"bike_id":"acc9a16d-31a1-4915-802a-d90cd6285f4e","system_id":"levelo_inurba_marseille","lat":43.298681,"lon":5.397225,"is_reserved":false,"is_disabled":false,"rental_uris":{"android":"levelo://app?vid=acc9a16d-31a1-4915-802a-d90cd6285f4e","ios":"levelo://app?vid=acc9a16d-31a1-4915-802a-d90cd6285f4e"},"vehicle_type_id":"4","last_reported":1686607576,"current_range_meters":16400,"station_id":"ce4bh0h2rcd13ifvqd50","pricing_plan_id":"free"},{"bike_id":"8d88e11d-3425-417e-ae78-4786dbeced9a","system_id":"levelo_inurba_marseille","lat":43.286591,"lon":5.363346,"is_reserved":false,"is_disabled":false,"rental_uris":{"android":"levelo://app?vid=8d88e11d-3425-417e-ae78-4786dbeced9a","ios":"levelo://app?vid=8d88e11d-3425-417e-ae78-4786dbeced9a"},"vehicle_type_id":"4","last_reported":1686607576,"current_range_meters":23600,"station_id":"ce4bhah2rcd13ifvqej0","pricing_plan_id":"free"},{"bike_id":"ca3f33cb-eef3-46ad-ab42-0b4c12758ab1","system_id":"levelo_inurba_marseille","lat":43.298681,"lon":5.397225,"is_reserved":false,"is_disabled":false,"rental_uris":{"android":"levelo://app?vid=ca3f33cb-eef3-46ad-ab42-0b4c12758ab1","ios":"levelo://app?vid=ca3f33cb-eef3-46ad-ab42-0b4c12758ab1"},"vehicle_type_id":"4","last_reported":1686607576,"current_range_meters":15600,"station_id":"ce4bh0h2rcd13ifvqd50","pricing_plan_id":"free"},{"bike_id":"80bc739a-9b6a-41cc-83b7-6ba44a310f21","system_id":"levelo_inurba_marseille","lat":43.28663,"lon":5.3635,"is_reserved":false,"is_disabled":false,"rental_uris":{"android":"levelo://app?vid=80bc739a-9b6a-41cc-83b7-6ba44a310f21","ios":"levelo://app?vid=80bc739a-9b6a-41cc-83b7-6ba44a310f21"},"vehicle_type_id":"4","last_reported":1686607576,"current_range_meters":27600,"station_id":"ce4bhah2rcd13ifvqej0","pricing_plan_id":"free"},{"bike_id":"ccb3a525-b300-4273-8631-4956ae5b0ec7","system_id":"levelo_inurba_marseille","lat":43.287,"lon":5.37395,"is_reserved":false,"is_disabled":false,"rental_uris":{"android":"levelo://app?vid=ccb3a525-b300-4273-8631-4956ae5b0ec7","ios":"levelo://app?vid=ccb3a525-b300-4273-8631-4956ae5b0ec7"},"vehicle_type_id":"4","last_reported":1686607576,"current_range_meters":21600,"station_id":"","pricing_plan_id":"free"},{"bike_id":"76a6be4b-0deb-4622-a947-3c511fe763e5","system_id":"levelo_inurba_marseille","lat":43.298681,"lon":5.397225,"is_reserved":false,"is_disabled":false,"rental_uris":{"android":"levelo://app?vid=76a6be4b-0deb-4622-a947-3c511fe763e5","ios":"levelo://app?vid=76a6be4b-0deb-4622-a947-3c511fe763e5"},"vehicle_type_id":"4","last_reported":1686607576,"current_range_meters":26400,"station_id":"ce4bh0h2rcd13ifvqd50","pricing_plan_id":"free"},{"bike_id":"49574b42-0728-45ed-aa6b-3f1ad11d7632","system_id":"levelo_inurba_marseille","lat":43.286591,"lon":5.363346,"is_reserved":false,"is_disabled":false,"rental_uris":{"android":"levelo://app?vid=49574b42-0728-45ed-aa6b-3f1ad11d7632","ios":"levelo://app?vid=49574b42-0728-45ed-aa6b-3f1ad11d7632"},"vehicle_type_id":"4","last_reported":1686607576,"current_range_meters":24800,"station_id":"ce4bhah2rcd13ifvqej0","pricing_plan_id":"free"},{"bike_id":"533b80b0-641c-47be-b145-5f04821afae8","system_id":"levelo_inurba_marseille","lat":43.302759,"lon":5.400793,"is_reserved":false,"is_disabled":false,"rental_uris":{"android":"levelo://app?vid=533b80b0-641c-47be-b145-5f04821afae8","ios":"levelo://app?vid=533b80b0-641c-47be-b145-5f04821afae8"},"vehicle_type_id":"4","last_reported":1686607576,"current_range_meters":29200,"station_id":"ce4bgvh2rcd13ifvqcs0","pricing_plan_id":"free"},{"bike_id":"f5070c10-f821-4465-bf92-5bcef403af2f","system_id":"levelo_inurba_marseille","lat":43.302759,"lon":5.400793,"is_reserved":false,"is_disabled":false,"rental_uris":{"android":"levelo://app?vid=f5070c10-f821-4465-bf92-5bcef403af2f","ios":"levelo://app?vid=f5070c10-f821-4465-bf92-5bcef403af2f"},"vehicle_type_id":"4","last_reported":1686607576,"current_range_meters":31200,"station_id":"ce4bgvh2rcd13ifvqcs0","pricing_plan_id":"free"},{"bike_id":"dd92ac87-b88f-4ed7-abf5-c8449c595ce9","system_id":"levelo_inurba_marseille","lat":43.30248,"lon":5.40055,"is_reserved":false,"is_disabled":false,"rental_uris":{"android":"levelo://app?vid=dd92ac87-b88f-4ed7-abf5-c8449c595ce9","ios":"levelo://app?vid=dd92ac87-b88f-4ed7-abf5-c8449c595ce9"},"vehicle_type_id":"4","last_reported":1686607576,"current_range_meters":25200,"station_id":"","pricing_plan_id":"free"},{"bike_id":"0668b8e2-55cb-431a-8719-9e7810284dad","system_id":"levelo_inurba_marseille","lat":43.29027,"lon":5.38632,"is_reserved":false,"is_disabled":false,"rental_uris":{"android":"levelo://app?vid=0668b8e2-55cb-431a-8719-9e7810284dad","ios":"levelo://app?vid=0668b8e2-55cb-431a-8719-9e7810284dad"},"vehicle_type_id":"4","last_reported":1686607576,"current_range_meters":8800,"station_id":"ce4bh4p2rcd13ifvqe0g","pricing_plan_id":"free"},{"bike_id":"3b8e11da-b7ca-4a06-a7f5-e366276dbf22","system_id":"levelo_inurba_marseille","lat":43.29028,"lon":5.38636,"is_reserved":false,"is_disabled":false,"rental_uris":{"android":"levelo://app?vid=3b8e11da-b7ca-4a06-a7f5-e366276dbf22","ios":"levelo://app?vid=3b8e11da-b7ca-4a06-a7f5-e366276dbf22"},"vehicle_type_id":"4","last_reported":1686607576,"current_range_meters":31200,"station_id":"ce4bh4p2rcd13ifvqe0g","pricing_plan_id":"free"},{"bike_id":"a6237bf4-9bce-48c2-9ec7-37da523a0fb3","system_id":"levelo_inurba_marseille","lat":43.3025,"lon":5.40065,"is_reserved":false,"is_disabled":false,"rental_uris":{"android":"levelo://app?vid=a6237bf4-9bce-48c2-9ec7-37da523a0fb3","ios":"levelo://app?vid=a6237bf4-9bce-48c2-9ec7-37da523a0fb3"},"vehicle_type_id":"4","last_reported":1686607576,"current_range_meters":11600,"station_id":"","pricing_plan_id":"free"},{"bike_id":"d0c5964c-b379-4ee4-962b-c6f70920c58c","system_id":"levelo_inurba_marseille","lat":43.29022,"lon":5.38637,"is_reserved":false,"is_disabled":false,"rental_uris":{"android":"levelo://app?vid=d0c5964c-b379-4ee4-962b-c6f70920c58c","ios":"levelo://app?vid=d0c5964c-b379-4ee4-962b-c6f70920c58c"},"vehicle_type_id":"4","last_reported":1686607576,"current_range_meters":29200,"station_id":"ce4bh4p2rcd13ifvqe0g","pricing_plan_id":"free"},{"bike_id":"19e5aced-2d36-40ee-91d4-59b7726a7b00","system_id":"levelo_inurba_marseille","lat":43.302759,"lon":5.400793,"is_reserved":false,"is_disabled":false,"rental_uris":{"android":"levelo://app?vid=19e5aced-2d36-40ee-91d4-59b7726a7b00","ios":"levelo://app?vid=19e5aced-2d36-40ee-91d4-59b7726a7b00"},"vehicle_type_id":"4","last_reported":1686607576,"current_range_meters":25200,"station_id":"ce4bgvh2rcd13ifvqcs0","pricing_plan_id":"free"},{"bike_id":"ba469bb5-b7b1-47bb-be63-bfde72adb4d7","system_id":"levelo_inurba_marseille","lat":43.302759,"lon":5.400793,"is_reserved":false,"is_disabled":false,"rental_uris":{"android":"levelo://app?vid=ba469bb5-b7b1-47bb-be63-bfde72adb4d7","ios":"levelo://app?vid=ba469bb5-b7b1-47bb-be63-bfde72adb4d7"},"vehicle_type_id":"4","last_reported":1686607576,"current_range_meters":6800,"station_id":"ce4bgvh2rcd13ifvqcs0","pricing_plan_id":"free"},{"bike_id":"941bad24-2610-4820-bfcb-0d8467972935","system_id":"levelo_inurba_marseille","lat":43.287184,"lon":5.37937,"is_reserved":false,"is_disabled":false,"rental_uris":{"android":"levelo://app?vid=941bad24-2610-4820-bfcb-0d8467972935","ios":"levelo://app?vid=941bad24-2610-4820-bfcb-0d8467972935"},"vehicle_type_id":"4","last_reported":1686607576,"current_range_meters":31200,"station_id":"ce4bh9p2rcd13ifvqec0","pricing_plan_id":"free"},{"bike_id":"f338f4ca-bb70-4d4c-b255-ea09e6077d33","system_id":"levelo_inurba_marseille","lat":43.287184,"lon":5.37937,"is_reserved":false,"is_disabled":false,"rental_uris":{"android":"levelo://app?vid=f338f4ca-bb70-4d4c-b255-ea09e6077d33","ios":"levelo://app?vid=f338f4ca-bb70-4d4c-b255-ea09e6077d33"},"vehicle_type_id":"4","last_reported":1686607576,"current_range_meters":24000,"station_id":"ce4bh9p2rcd13ifvqec0","pricing_plan_id":"free"},{"bike_id":"7e585926-5f7a-487d-83ef-d266ea752bb6","system_id":"levelo_inurba_marseille","lat":43.287184,"lon":5.37937,"is_reserved":false,"is_disabled":false,"rental_uris":{"android":"levelo://app?vid=7e585926-5f7a-487d-83ef-d266ea752bb6","ios":"levelo://app?vid=7e585926-5f7a-487d-83ef-d266ea752bb6"},"vehicle_type_id":"4","last_reported":1686607576,"current_range_meters":0,"station_id":"ce4bh9p2rcd13ifvqec0","pricing_plan_id":"free"},{"bike_id":"fc2a6c63-1eb7-439a-bb00-d1f077bcbb49","system_id":"levelo_inurba_marseille","lat":43.287185,"lon":5.379373,"is_reserved":false,"is_disabled":false,"rental_uris":{"android":"levelo://app?vid=fc2a6c63-1eb7-439a-bb00-d1f077bcbb49","ios":"levelo://app?vid=fc2a6c63-1eb7-439a-bb00-d1f077bcbb49"},"vehicle_type_id":"4","last_reported":1686607576,"current_range_meters":31200,"station_id":"ce4bh9p2rcd13ifvqec0","pricing_plan_id":"free"},{"bike_id":"0f905a89-4831-4ac5-bef6-66b2344c3e56","system_id":"levelo_inurba_marseille","lat":43.287184,"lon":5.37937,"is_reserved":false,"is_disabled":false,"rental_uris":{"android":"levelo://app?vid=0f905a89-4831-4ac5-bef6-66b2344c3e56","ios":"levelo://app?vid=0f905a89-4831-4ac5-bef6-66b2344c3e56"},"vehicle_type_id":"4","last_reported":1686607576,"current_range_meters":26800,"station_id":"ce4bh9p2rcd13ifvqec0","pricing_plan_id":"free"},{"bike_id":"0c2d8ec6-0a81-42b1-9f74-6c58ce544873","system_id":"levelo_inurba_marseille","lat":43.28726,"lon":5.3794,"is_reserved":false,"is_disabled":false,"rental_uris":{"android":"levelo://app?vid=0c2d8ec6-0a81-42b1-9f74-6c58ce544873","ios":"levelo://app?vid=0c2d8ec6-0a81-42b1-9f74-6c58ce544873"},"vehicle_type_id":"4","last_reported":1686607576,"current_range_meters":31200,"station_id":"ce4bh9p2rcd13ifvqec0","pricing_plan_id":"free"},{"bike_id":"abb14ea0-f271-4bf2-b250-bef8ee4685e3","system_id":"levelo_inurba_marseille","lat":43.28711,"lon":5.37954,"is_reserved":false,"is_disabled":false,"rental_uris":{"android":"levelo://app?vid=abb14ea0-f271-4bf2-b250-bef8ee4685e3","ios":"levelo://app?vid=abb14ea0-f271-4bf2-b250-bef8ee4685e3"},"vehicle_type_id":"4","last_reported":1686607576,"current_range_meters":31200,"station_id":"ce4bh9p2rcd13ifvqec0","pricing_plan_id":"free"},{"bike_id":"f1619b46-4086-469a-a31a-72bc64344099","system_id":"levelo_inurba_marseille","lat":43.316517,"lon":5.404375,"is_reserved":false,"is_disabled":false,"rental_uris":{"android":"levelo://app?vid=f1619b46-4086-469a-a31a-72bc64344099","ios":"levelo://app?vid=f1619b46-4086-469a-a31a-72bc64344099"},"vehicle_type_id":"4","last_reported":1686607576,"current_range_meters":13200,"station_id":"ce4bh012rcd13ifvqd00","pricing_plan_id":"free"},{"bike_id":"8e529050-7054-4c4e-9b5a-d1e81da51499","system_id":"levelo_inurba_marseille","lat":43.316523,"lon":5.404367,"is_reserved":false,"is_disabled":false,"rental_uris":{"android":"levelo://app?vid=8e529050-7054-4c4e-9b5a-d1e81da51499","ios":"levelo://app?vid=8e529050-7054-4c4e-9b5a-d1e81da51499"},"vehicle_type_id":"4","last_reported":1686607576,"current_range_meters":23600,"station_id":"ce4bh012rcd13ifvqd00","pricing_plan_id":"free"},{"bike_id":"107bd10a-6f27-41ea-b14a-ccd02069bac4","system_id":"levelo_inurba_marseille","lat":43.291994,"lon":5.392907,"is_reserved":false,"is_disabled":false,"rental_uris":{"android":"levelo://app?vid=107bd10a-6f27-41ea-b14a-ccd02069bac4","ios":"levelo://app?vid=107bd10a-6f27-41ea-b14a-ccd02069bac4"},"vehicle_type_id":"4","last_reported":1686607576,"current_range_meters":15600,"station_id":"ce4bh192rcd13ifvqdd0","pricing_plan_id":"free"},{"bike_id":"b0ad82a8-5ec4-4193-b8ea-580c59eb7935","system_id":"levelo_inurba_marseille","lat":43.30716,"lon":5.40528,"is_reserved":false,"is_disabled":false,"rental_uris":{"android":"levelo://app?vid=b0ad82a8-5ec4-4193-b8ea-580c59eb7935","ios":"levelo://app?vid=b0ad82a8-5ec4-4193-b8ea-580c59eb7935"},"vehicle_type_id":"4","last_reported":1686607576,"current_range_meters":2800,"station_id":"","pricing_plan_id":"free"},{"bike_id":"44e99649-6eb2-4d51-be7e-d3538df68132","system_id":"levelo_inurba_marseille","lat":43.284534,"lon":5.358662,"is_reserved":false,"is_disabled":false,"rental_uris":{"android":"levelo://app?vid=44e99649-6eb2-4d51-be7e-d3538df68132","ios":"levelo://app?vid=44e99649-6eb2-4d51-be7e-d3538df68132"},"vehicle_type_id":"4","last_reported":1686607576,"current_range_meters":17200,"station_id":"ce4bhah2rcd13ifvqei0","pricing_plan_id":"free"},{"bike_id":"cd6105e5-4675-465d-91ee-8e5b097df60a","system_id":"levelo_inurba_marseille","lat":43.284534,"lon":5.358662,"is_reserved":false,"is_disabled":false,"rental_uris":{"android":"levelo://app?vid=cd6105e5-4675-465d-91ee-8e5b097df60a","ios":"levelo://app?vid=cd6105e5-4675-465d-91ee-8e5b097df60a"},"vehicle_type_id":"4","last_reported":1686607576,"current_range_meters":7600,"station_id":"ce4bhah2rcd13ifvqei0","pricing_plan_id":"free"},{"bike_id":"a57e4ca0-3af1-431c-b961-4d0759ae6864","system_id":"levelo_inurba_marseille","lat":43.28619,"lon":5.35108,"is_reserved":false,"is_disabled":false,"rental_uris":{"android":"levelo://app?vid=a57e4ca0-3af1-431c-b961-4d0759ae6864","ios":"levelo://app?vid=a57e4ca0-3af1-431c-b961-4d0759ae6864"},"vehicle_type_id":"4","last_reported":1686607576,"current_range_meters":29200,"station_id":"","pricing_plan_id":"free"},{"bike_id":"bc282245-bd8b-4c2a-b15f-03fa4a86f4fc","system_id":"levelo_inurba_marseille","lat":43.28619,"lon":5.35106,"is_reserved":false,"is_disabled":false,"rental_uris":{"android":"levelo://app?vid=bc282245-bd8b-4c2a-b15f-03fa4a86f4fc","ios":"levelo://app?vid=bc282245-bd8b-4c2a-b15f-03fa4a86f4fc"},"vehicle_type_id":"4","last_reported":1686607576,"current_range_meters":22400,"station_id":"","pricing_plan_id":"free"},{"bike_id":"96b332a6-1005-47b9-ae1e-d25af3b0c2c0","system_id":"levelo_inurba_marseille","lat":43.28618,"lon":5.35105,"is_reserved":false,"is_disabled":false,"rental_uris":{"android":"levelo://app?vid=96b332a6-1005-47b9-ae1e-d25af3b0c2c0","ios":"levelo://app?vid=96b332a6-1005-47b9-ae1e-d25af3b0c2c0"},"vehicle_type_id":"4","last_reported":1686607576,"current_range_meters":22000,"station_id":"","pricing_plan_id":"free"},{"bike_id":"c1f05937-f1ce-4bb7-8171-0c4bb6a3e32f","system_id":"levelo_inurba_marseille","lat":43.28409,"lon":5.37521,"is_reserved":false,"is_disabled":false,"rental_uris":{"android":"levelo://app?vid=c1f05937-f1ce-4bb7-8171-0c4bb6a3e32f","ios":"levelo://app?vid=c1f05937-f1ce-4bb7-8171-0c4bb6a3e32f"},"vehicle_type_id":"4","last_reported":1686607576,"current_range_meters":10000,"station_id":"","pricing_plan_id":"free"},{"bike_id":"155497b2-ad50-4eca-9500-804ea861dd67","system_id":"levelo_inurba_marseille","lat":43.29579,"lon":5.39977,"is_reserved":false,"is_disabled":false,"rental_uris":{"android":"levelo://app?vid=155497b2-ad50-4eca-9500-804ea861dd67","ios":"levelo://app?vid=155497b2-ad50-4eca-9500-804ea861dd67"},"vehicle_type_id":"4","last_reported":1686607576,"current_range_meters":2000,"station_id":"ce4bh312rcd13ifvqdj0","pricing_plan_id":"free"},{"bike_id":"c2d17567-a1d2-46db-8082-b89e56e67b7a","system_id":"levelo_inurba_marseille","lat":43.29905,"lon":5.40276,"is_reserved":false,"is_disabled":false,"rental_uris":{"android":"levelo://app?vid=c2d17567-a1d2-46db-8082-b89e56e67b7a","ios":"levelo://app?vid=c2d17567-a1d2-46db-8082-b89e56e67b7a"},"vehicle_type_id":"4","last_reported":1686607576,"current_range_meters":19200,"station_id":"","pricing_plan_id":"free"},{"bike_id":"19bb0c32-bde3-47e9-8453-930feb6ad389","system_id":"levelo_inurba_marseille","lat":43.286595,"lon":5.386795,"is_reserved":false,"is_disabled":false,"rental_uris":{"android":"levelo://app?vid=19bb0c32-bde3-47e9-8453-930feb6ad389","ios":"levelo://app?vid=19bb0c32-bde3-47e9-8453-930feb6ad389"},"vehicle_type_id":"4","last_reported":1686607576,"current_range_meters":1200,"station_id":"ce4bh492rcd13ifvqdug","pricing_plan_id":"free"},{"bike_id":"c8c3140d-d298-43ef-ad93-18aa8301435d","system_id":"levelo_inurba_marseille","lat":43.28665,"lon":5.38661,"is_reserved":false,"is_disabled":false,"rental_uris":{"android":"levelo://app?vid=c8c3140d-d298-43ef-ad93-18aa8301435d","ios":"levelo://app?vid=c8c3140d-d298-43ef-ad93-18aa8301435d"},"vehicle_type_id":"4","last_reported":1686607576,"current_range_meters":30800,"station_id":"ce4bh492rcd13ifvqdug","pricing_plan_id":"free"},{"bike_id":"b0c5f1dd-4c4a-4918-a58b-fa1c8d7451db","system_id":"levelo_inurba_marseille","lat":43.286595,"lon":5.386795,"is_reserved":false,"is_disabled":false,"rental_uris":{"android":"levelo://app?vid=b0c5f1dd-4c4a-4918-a58b-fa1c8d7451db","ios":"levelo://app?vid=b0c5f1dd-4c4a-4918-a58b-fa1c8d7451db"},"vehicle_type_id":"4","last_reported":1686607576,"current_range_meters":26400,"station_id":"ce4bh492rcd13ifvqdug","pricing_plan_id":"free"},{"bike_id":"5fc8293f-7100-4c17-9023-981b82c610d1","system_id":"levelo_inurba_marseille","lat":43.2852,"lon":5.35032,"is_reserved":false,"is_disabled":false,"rental_uris":{"android":"levelo://app?vid=5fc8293f-7100-4c17-9023-981b82c610d1","ios":"levelo://app?vid=5fc8293f-7100-4c17-9023-981b82c610d1"},"vehicle_type_id":"4","last_reported":1686607576,"current_range_meters":2800,"station_id":"ce4bhbh2rcd13ifvqepg","pricing_plan_id":"free"},{"bike_id":"de8e53ac-c9d9-4e77-9c77-6adccfaaedc6","system_id":"levelo_inurba_marseille","lat":43.323464,"lon":5.406297,"is_reserved":false,"is_disabled":false,"rental_uris":{"android":"levelo://app?vid=de8e53ac-c9d9-4e77-9c77-6adccfaaedc6","ios":"levelo://app?vid=de8e53ac-c9d9-4e77-9c77-6adccfaaedc6"},"vehicle_type_id":"4","last_reported":1686607576,"current_range_meters":29200,"station_id":"ce4bhq92rcd13ifvqhjg","pricing_plan_id":"free"},{"bike_id":"16e5fedd-6e86-436a-a0a2-72c7cd60a6ea","system_id":"levelo_inurba_marseille","lat":43.323464,"lon":5.406297,"is_reserved":false,"is_disabled":false,"rental_uris":{"android":"levelo://app?vid=16e5fedd-6e86-436a-a0a2-72c7cd60a6ea","ios":"levelo://app?vid=16e5fedd-6e86-436a-a0a2-72c7cd60a6ea"},"vehicle_type_id":"4","last_reported":1686607576,"current_range_meters":28800,"station_id":"ce4bhq92rcd13ifvqhjg","pricing_plan_id":"free"},{"bike_id":"c94e786e-64bf-4086-bd5f-dc89f7159837","system_id":"levelo_inurba_marseille","lat":43.323464,"lon":5.406297,"is_reserved":false,"is_disabled":false,"rental_uris":{"android":"levelo://app?vid=c94e786e-64bf-4086-bd5f-dc89f7159837","ios":"levelo://app?vid=c94e786e-64bf-4086-bd5f-dc89f7159837"},"vehicle_type_id":"4","last_reported":1686607576,"current_range_meters":30000,"station_id":"ce4bhq92rcd13ifvqhjg","pricing_plan_id":"free"},{"bike_id":"891e330d-9ba6-4dc1-aaa9-b9a093e22a23","system_id":"levelo_inurba_marseille","lat":43.323464,"lon":5.406297,"is_reserved":false,"is_disabled":false,"rental_uris":{"android":"levelo://app?vid=891e330d-9ba6-4dc1-aaa9-b9a093e22a23","ios":"levelo://app?vid=891e330d-9ba6-4dc1-aaa9-b9a093e22a23"},"vehicle_type_id":"4","last_reported":1686607576,"current_range_meters":24400,"station_id":"ce4bhq92rcd13ifvqhjg","pricing_plan_id":"free"},{"bike_id":"b4539131-1565-43a1-90ff-abecf0c5cd55","system_id":"levelo_inurba_marseille","lat":43.284787,"lon":5.384116,"is_reserved":false,"is_disabled":false,"rental_uris":{"android":"levelo://app?vid=b4539131-1565-43a1-90ff-abecf0c5cd55","ios":"levelo://app?vid=b4539131-1565-43a1-90ff-abecf0c5cd55"},"vehicle_type_id":"4","last_reported":1686607576,"current_range_meters":11600,"station_id":"ce4bh512rcd13ifvqe3g","pricing_plan_id":"free"},{"bike_id":"64d52dc3-ff87-4dd8-a0f3-d46547a43f95","system_id":"levelo_inurba_marseille","lat":43.288501,"lon":5.393087,"is_reserved":false,"is_disabled":false,"rental_uris":{"android":"levelo://app?vid=64d52dc3-ff87-4dd8-a0f3-d46547a43f95","ios":"levelo://app?vid=64d52dc3-ff87-4dd8-a0f3-d46547a43f95"},"vehicle_type_id":"4","last_reported":1686607576,"current_range_meters":24000,"station_id":"ce4bh2p2rcd13ifvqdi0","pricing_plan_id":"free"},{"bike_id":"c6146ae8-6a85-4744-96b6-4bdf65beae4e","system_id":"levelo_inurba_marseille","lat":43.28345,"lon":5.38105,"is_reserved":false,"is_disabled":false,"rental_uris":{"android":"levelo://app?vid=c6146ae8-6a85-4744-96b6-4bdf65beae4e","ios":"levelo://app?vid=c6146ae8-6a85-4744-96b6-4bdf65beae4e"},"vehicle_type_id":"4","last_reported":1686607576,"current_range_meters":4400,"station_id":"ce4bh412rcd13ifvqdr0","pricing_plan_id":"free"},{"bike_id":"240b92fe-3787-4d12-8d85-41caf6b69a79","system_id":"levelo_inurba_marseille","lat":43.289363,"lon":5.396322,"is_reserved":false,"is_disabled":false,"rental_uris":{"android":"levelo://app?vid=240b92fe-3787-4d12-8d85-41caf6b69a79","ios":"levelo://app?vid=240b92fe-3787-4d12-8d85-41caf6b69a79"},"vehicle_type_id":"4","last_reported":1686607576,"current_range_meters":10000,"station_id":"ce4bh3h2rcd13ifvqdn0","pricing_plan_id":"free"},{"bike_id":"6278accc-a72e-401a-ab94-f78a37c6499f","system_id":"levelo_inurba_marseille","lat":43.292724,"lon":5.401131,"is_reserved":false,"is_disabled":false,"rental_uris":{"android":"levelo://app?vid=6278accc-a72e-401a-ab94-f78a37c6499f","ios":"levelo://app?vid=6278accc-a72e-401a-ab94-f78a37c6499f"},"vehicle_type_id":"4","last_reported":1686607576,"current_range_meters":0,"station_id":"ce4bh312rcd13ifvqdk0","pricing_plan_id":"free"},{"bike_id":"17d6f1fd-137f-454d-83b0-1a34bc199714","system_id":"levelo_inurba_marseille","lat":43.292724,"lon":5.401131,"is_reserved":false,"is_disabled":false,"rental_uris":{"android":"levelo://app?vid=17d6f1fd-137f-454d-83b0-1a34bc199714","ios":"levelo://app?vid=17d6f1fd-137f-454d-83b0-1a34bc199714"},"vehicle_type_id":"4","last_reported":1686607576,"current_range_meters":29200,"station_id":"ce4bh312rcd13ifvqdk0","pricing_plan_id":"free"},{"bike_id":"4e8ff71d-9f21-412b-8f54-3e613789ef08","system_id":"levelo_inurba_marseille","lat":43.292724,"lon":5.401131,"is_reserved":false,"is_disabled":false,"rental_uris":{"android":"levelo://app?vid=4e8ff71d-9f21-412b-8f54-3e613789ef08","ios":"levelo://app?vid=4e8ff71d-9f21-412b-8f54-3e613789ef08"},"vehicle_type_id":"4","last_reported":1686607576,"current_range_meters":30000,"station_id":"ce4bh312rcd13ifvqdk0","pricing_plan_id":"free"},{"bike_id":"71de4926-e503-466a-815e-60118d21d01d","system_id":"levelo_inurba_marseille","lat":43.292724,"lon":5.401131,"is_reserved":false,"is_disabled":false,"rental_uris":{"android":"levelo://app?vid=71de4926-e503-466a-815e-60118d21d01d","ios":"levelo://app?vid=71de4926-e503-466a-815e-60118d21d01d"},"vehicle_type_id":"4","last_reported":1686607576,"current_range_meters":20000,"station_id":"ce4bh312rcd13ifvqdk0","pricing_plan_id":"free"},{"bike_id":"3f9e2468-8c40-4c3f-9d6f-8df99684c136","system_id":"levelo_inurba_marseille","lat":43.292724,"lon":5.401131,"is_reserved":false,"is_disabled":false,"rental_uris":{"android":"levelo://app?vid=3f9e2468-8c40-4c3f-9d6f-8df99684c136","ios":"levelo://app?vid=3f9e2468-8c40-4c3f-9d6f-8df99684c136"},"vehicle_type_id":"4","last_reported":1686607576,"current_range_meters":12000,"station_id":"ce4bh312rcd13ifvqdk0","pricing_plan_id":"free"},{"bike_id":"33b08433-cc38-44bc-a36f-ee317b4e800d","system_id":"levelo_inurba_marseille","lat":43.292724,"lon":5.401131,"is_reserved":false,"is_disabled":false,"rental_uris":{"android":"levelo://app?vid=33b08433-cc38-44bc-a36f-ee317b4e800d","ios":"levelo://app?vid=33b08433-cc38-44bc-a36f-ee317b4e800d"},"vehicle_type_id":"4","last_reported":1686607576,"current_range_meters":1200,"station_id":"ce4bh312rcd13ifvqdk0","pricing_plan_id":"free"},{"bike_id":"32e8cb40-ff4e-4d91-b104-f620e6196523","system_id":"levelo_inurba_marseille","lat":43.2966,"lon":5.40502,"is_reserved":false,"is_disabled":false,"rental_uris":{"android":"levelo://app?vid=32e8cb40-ff4e-4d91-b104-f620e6196523","ios":"levelo://app?vid=32e8cb40-ff4e-4d91-b104-f620e6196523"},"vehicle_type_id":"4","last_reported":1686607576,"current_range_meters":23600,"station_id":"","pricing_plan_id":"free"},{"bike_id":"f315e0df-3c49-443e-bb0a-bd1ad8e6a74f","system_id":"levelo_inurba_marseille","lat":43.280382,"lon":5.369291,"is_reserved":false,"is_disabled":false,"rental_uris":{"android":"levelo://app?vid=f315e0df-3c49-443e-bb0a-bd1ad8e6a74f","ios":"levelo://app?vid=f315e0df-3c49-443e-bb0a-bd1ad8e6a74f"},"vehicle_type_id":"4","last_reported":1686607576,"current_range_meters":29200,"station_id":"ce4bha12rcd13ifvqef0","pricing_plan_id":"free"},{"bike_id":"0f1592dd-7d64-4b04-9db0-bd2144656768","system_id":"levelo_inurba_marseille","lat":43.28039,"lon":5.369297,"is_reserved":false,"is_disabled":false,"rental_uris":{"android":"levelo://app?vid=0f1592dd-7d64-4b04-9db0-bd2144656768","ios":"levelo://app?vid=0f1592dd-7d64-4b04-9db0-bd2144656768"},"vehicle_type_id":"4","last_reported":1686607576,"current_range_meters":26800,"station_id":"ce4bha12rcd13ifvqef0","pricing_plan_id":"free"},{"bike_id":"9f844e77-bb9b-42eb-b000-a8f13c1d8c4b","system_id":"levelo_inurba_marseille","lat":43.280382,"lon":5.369291,"is_reserved":false,"is_disabled":false,"rental_uris":{"android":"levelo://app?vid=9f844e77-bb9b-42eb-b000-a8f13c1d8c4b","ios":"levelo://app?vid=9f844e77-bb9b-42eb-b000-a8f13c1d8c4b"},"vehicle_type_id":"4","last_reported":1686607576,"current_range_meters":22400,"station_id":"ce4bha12rcd13ifvqef0","pricing_plan_id":"free"},{"bike_id":"e2acf386-2b70-42aa-8db5-e9e677506e83","system_id":"levelo_inurba_marseille","lat":43.290412,"lon":5.399633,"is_reserved":false,"is_disabled":false,"rental_uris":{"android":"levelo://app?vid=e2acf386-2b70-42aa-8db5-e9e677506e83","ios":"levelo://app?vid=e2acf386-2b70-42aa-8db5-e9e677506e83"},"vehicle_type_id":"4","last_reported":1686607576,"current_range_meters":29600,"station_id":"ce4bh392rcd13ifvqdm0","pricing_plan_id":"free"},{"bike_id":"3310edb5-d574-45e5-a79a-68d82d999530","system_id":"levelo_inurba_marseille","lat":43.29041,"lon":5.399634,"is_reserved":false,"is_disabled":false,"rental_uris":{"android":"levelo://app?vid=3310edb5-d574-45e5-a79a-68d82d999530","ios":"levelo://app?vid=3310edb5-d574-45e5-a79a-68d82d999530"},"vehicle_type_id":"4","last_reported":1686607576,"current_range_meters":30800,"station_id":"ce4bh392rcd13ifvqdm0","pricing_plan_id":"free"},{"bike_id":"77fcc606-b390-442d-b15c-6512c9ca7206","system_id":"levelo_inurba_marseille","lat":43.28113,"lon":5.37843,"is_reserved":false,"is_disabled":false,"rental_uris":{"android":"levelo://app?vid=77fcc606-b390-442d-b15c-6512c9ca7206","ios":"levelo://app?vid=77fcc606-b390-442d-b15c-6512c9ca7206"},"vehicle_type_id":"4","last_reported":1686607576,"current_range_meters":20000,"station_id":"ce4bha12rcd13ifvqee0","pricing_plan_id":"free"},{"bike_id":"1450b485-c2d2-4667-95ce-ce9e18714292","system_id":"levelo_inurba_marseille","lat":43.290412,"lon":5.399633,"is_reserved":false,"is_disabled":false,"rental_uris":{"android":"levelo://app?vid=1450b485-c2d2-4667-95ce-ce9e18714292","ios":"levelo://app?vid=1450b485-c2d2-4667-95ce-ce9e18714292"},"vehicle_type_id":"4","last_reported":1686607576,"current_range_meters":13600,"station_id":"ce4bh392rcd13ifvqdm0","pricing_plan_id":"free"},{"bike_id":"b2449f37-d90e-42f6-9c88-282cf579fdca","system_id":"levelo_inurba_marseille","lat":43.28109,"lon":5.37839,"is_reserved":false,"is_disabled":false,"rental_uris":{"android":"levelo://app?vid=b2449f37-d90e-42f6-9c88-282cf579fdca","ios":"levelo://app?vid=b2449f37-d90e-42f6-9c88-282cf579fdca"},"vehicle_type_id":"4","last_reported":1686607576,"current_range_meters":26400,"station_id":"ce4bha12rcd13ifvqee0","pricing_plan_id":"free"},{"bike_id":"07d94717-ad34-41fa-8154-86363c3a8dc5","system_id":"levelo_inurba_marseille","lat":43.28109,"lon":5.37841,"is_reserved":false,"is_disabled":false,"rental_uris":{"android":"levelo://app?vid=07d94717-ad34-41fa-8154-86363c3a8dc5","ios":"levelo://app?vid=07d94717-ad34-41fa-8154-86363c3a8dc5"},"vehicle_type_id":"4","last_reported":1686607576,"current_range_meters":5200,"station_id":"ce4bha12rcd13ifvqee0","pricing_plan_id":"free"},{"bike_id":"2cbf2405-a2ca-4fee-863e-4f0d493f1acd","system_id":"levelo_inurba_marseille","lat":43.296263,"lon":5.40601,"is_reserved":false,"is_disabled":false,"rental_uris":{"android":"levelo://app?vid=2cbf2405-a2ca-4fee-863e-4f0d493f1acd","ios":"levelo://app?vid=2cbf2405-a2ca-4fee-863e-4f0d493f1acd"},"vehicle_type_id":"4","last_reported":1686607576,"current_range_meters":31200,"station_id":"ce4bh0h2rcd13ifvqd60","pricing_plan_id":"free"},{"bike_id":"98a2ba34-650e-46df-9ba9-a164d86bc58f","system_id":"levelo_inurba_marseille","lat":43.296263,"lon":5.40601,"is_reserved":false,"is_disabled":false,"rental_uris":{"android":"levelo://app?vid=98a2ba34-650e-46df-9ba9-a164d86bc58f","ios":"levelo://app?vid=98a2ba34-650e-46df-9ba9-a164d86bc58f"},"vehicle_type_id":"4","last_reported":1686607576,"current_range_meters":4000,"station_id":"ce4bh0h2rcd13ifvqd60","pricing_plan_id":"free"},{"bike_id":"f5d053f2-ed04-4f1f-99de-9bb34f926733","system_id":"levelo_inurba_marseille","lat":43.296263,"lon":5.40601,"is_reserved":false,"is_disabled":false,"rental_uris":{"android":"levelo://app?vid=f5d053f2-ed04-4f1f-99de-9bb34f926733","ios":"levelo://app?vid=f5d053f2-ed04-4f1f-99de-9bb34f926733"},"vehicle_type_id":"4","last_reported":1686607576,"current_range_meters":8800,"station_id":"ce4bh0h2rcd13ifvqd60","pricing_plan_id":"free"},{"bike_id":"b5a56ae2-74d9-4bcb-a18d-4419fbe7d095","system_id":"levelo_inurba_marseille","lat":43.296263,"lon":5.40601,"is_reserved":false,"is_disabled":false,"rental_uris":{"android":"levelo://app?vid=b5a56ae2-74d9-4bcb-a18d-4419fbe7d095","ios":"levelo://app?vid=b5a56ae2-74d9-4bcb-a18d-4419fbe7d095"},"vehicle_type_id":"4","last_reported":1686607576,"current_range_meters":6400,"station_id":"ce4bh0h2rcd13ifvqd60","pricing_plan_id":"free"},{"bike_id":"5a4c71fd-9f64-467b-bb0c-f1494eee303e","system_id":"levelo_inurba_marseille","lat":43.28096,"lon":5.3785,"is_reserved":false,"is_disabled":false,"rental_uris":{"android":"levelo://app?vid=5a4c71fd-9f64-467b-bb0c-f1494eee303e","ios":"levelo://app?vid=5a4c71fd-9f64-467b-bb0c-f1494eee303e"},"vehicle_type_id":"4","last_reported":1686607576,"current_range_meters":28800,"station_id":"ce4bha12rcd13ifvqee0","pricing_plan_id":"free"},{"bike_id":"8469adac-7ead-4b8d-860a-efa0049d6824","system_id":"levelo_inurba_marseille","lat":43.284462,"lon":5.392121,"is_reserved":false,"is_disabled":false,"rental_uris":{"android":"levelo://app?vid=8469adac-7ead-4b8d-860a-efa0049d6824","ios":"levelo://app?vid=8469adac-7ead-4b8d-860a-efa0049d6824"},"vehicle_type_id":"4","last_reported":1686607576,"current_range_meters":14800,"station_id":"ce4bhoh2rcd13ifvqh5g","pricing_plan_id":"free"},{"bike_id":"9fb4e5eb-dc23-48f9-a851-7c9ab475f730","system_id":"levelo_inurba_marseille","lat":43.284462,"lon":5.392121,"is_reserved":false,"is_disabled":false,"rental_uris":{"android":"levelo://app?vid=9fb4e5eb-dc23-48f9-a851-7c9ab475f730","ios":"levelo://app?vid=9fb4e5eb-dc23-48f9-a851-7c9ab475f730"},"vehicle_type_id":"4","last_reported":1686607576,"current_range_meters":28000,"station_id":"ce4bhoh2rcd13ifvqh5g","pricing_plan_id":"free"},{"bike_id":"8d75fd2b-0b94-4d49-b060-9b5cc5cc0db9","system_id":"levelo_inurba_marseille","lat":43.28573,"lon":5.394992,"is_reserved":false,"is_disabled":false,"rental_uris":{"android":"levelo://app?vid=8d75fd2b-0b94-4d49-b060-9b5cc5cc0db9","ios":"levelo://app?vid=8d75fd2b-0b94-4d49-b060-9b5cc5cc0db9"},"vehicle_type_id":"4","last_reported":1686607576,"current_range_meters":30400,"station_id":"ce4bh292rcd13ifvqdg0","pricing_plan_id":"free"},{"bike_id":"10d25faf-f018-4141-88b0-166d73c8b999","system_id":"levelo_inurba_marseille","lat":43.28573,"lon":5.394992,"is_reserved":false,"is_disabled":false,"rental_uris":{"android":"levelo://app?vid=10d25faf-f018-4141-88b0-166d73c8b999","ios":"levelo://app?vid=10d25faf-f018-4141-88b0-166d73c8b999"},"vehicle_type_id":"4","last_reported":1686607576,"current_range_meters":24800,"station_id":"ce4bh292rcd13ifvqdg0","pricing_plan_id":"free"},{"bike_id":"a43003b0-062c-424a-b32d-4643f78d6d10","system_id":"levelo_inurba_marseille","lat":43.285742,"lon":5.395004,"is_reserved":false,"is_disabled":false,"rental_uris":{"android":"levelo://app?vid=a43003b0-062c-424a-b32d-4643f78d6d10","ios":"levelo://app?vid=a43003b0-062c-424a-b32d-4643f78d6d10"},"vehicle_type_id":"4","last_reported":1686607576,"current_range_meters":19200,"station_id":"ce4bh292rcd13ifvqdg0","pricing_plan_id":"free"},{"bike_id":"9cc780de-4c61-4010-ab1b-3e0bf73329cd","system_id":"levelo_inurba_marseille","lat":43.32656,"lon":5.40998,"is_reserved":false,"is_disabled":false,"rental_uris":{"android":"levelo://app?vid=9cc780de-4c61-4010-ab1b-3e0bf73329cd","ios":"levelo://app?vid=9cc780de-4c61-4010-ab1b-3e0bf73329cd"},"vehicle_type_id":"4","last_reported":1686607576,"current_range_meters":25200,"station_id":"ce4bhpp2rcd13ifvqhgg","pricing_plan_id":"free"},{"bike_id":"786f1a60-0092-4603-addc-ac7cceb4eba6","system_id":"levelo_inurba_marseille","lat":43.3278,"lon":5.41007,"is_reserved":false,"is_disabled":false,"rental_uris":{"android":"levelo://app?vid=786f1a60-0092-4603-addc-ac7cceb4eba6","ios":"levelo://app?vid=786f1a60-0092-4603-addc-ac7cceb4eba6"},"vehicle_type_id":"4","last_reported":1686607576,"current_range_meters":0,"station_id":"","pricing_plan_id":"free"},{"bike_id":"97e29739-440a-4cef-bf39-c0c6072232b5","system_id":"levelo_inurba_marseille","lat":43.287154,"lon":5.399979,"is_reserved":false,"is_disabled":false,"rental_uris":{"android":"levelo://app?vid=97e29739-440a-4cef-bf39-c0c6072232b5","ios":"levelo://app?vid=97e29739-440a-4cef-bf39-c0c6072232b5"},"vehicle_type_id":"4","last_reported":1686607576,"current_range_meters":28400,"station_id":"ce4bho92rcd13ifvqh3g","pricing_plan_id":"free"},{"bike_id":"2e256ee5-e298-4ba7-b51f-4cdd2481acc5","system_id":"levelo_inurba_marseille","lat":43.28705,"lon":5.39968,"is_reserved":false,"is_disabled":false,"rental_uris":{"android":"levelo://app?vid=2e256ee5-e298-4ba7-b51f-4cdd2481acc5","ios":"levelo://app?vid=2e256ee5-e298-4ba7-b51f-4cdd2481acc5"},"vehicle_type_id":"4","last_reported":1686607576,"current_range_meters":16400,"station_id":"ce4bho92rcd13ifvqh3g","pricing_plan_id":"free"},{"bike_id":"3c09f11d-a44d-4cc5-9f30-f203cd0602f9","system_id":"levelo_inurba_marseille","lat":43.27902,"lon":5.38006,"is_reserved":false,"is_disabled":false,"rental_uris":{"android":"levelo://app?vid=3c09f11d-a44d-4cc5-9f30-f203cd0602f9","ios":"levelo://app?vid=3c09f11d-a44d-4cc5-9f30-f203cd0602f9"},"vehicle_type_id":"4","last_reported":1686607576,"current_range_meters":13600,"station_id":"","pricing_plan_id":"free"},{"bike_id":"b26d8423-67a7-46a2-954a-ef1e3b9a835b","system_id":"levelo_inurba_marseille","lat":43.287154,"lon":5.399979,"is_reserved":false,"is_disabled":false,"rental_uris":{"android":"levelo://app?vid=b26d8423-67a7-46a2-954a-ef1e3b9a835b","ios":"levelo://app?vid=b26d8423-67a7-46a2-954a-ef1e3b9a835b"},"vehicle_type_id":"4","last_reported":1686607576,"current_range_meters":28400,"station_id":"ce4bho92rcd13ifvqh3g","pricing_plan_id":"free"},{"bike_id":"f38d8a14-8212-4f30-b454-4ad2337f26d2","system_id":"levelo_inurba_marseille","lat":43.287154,"lon":5.399979,"is_reserved":false,"is_disabled":false,"rental_uris":{"android":"levelo://app?vid=f38d8a14-8212-4f30-b454-4ad2337f26d2","ios":"levelo://app?vid=f38d8a14-8212-4f30-b454-4ad2337f26d2"},"vehicle_type_id":"4","last_reported":1686607576,"current_range_meters":31200,"station_id":"ce4bho92rcd13ifvqh3g","pricing_plan_id":"free"},{"bike_id":"578f4edb-709b-4f71-887c-1f6894bfb091","system_id":"levelo_inurba_marseille","lat":43.287154,"lon":5.399979,"is_reserved":false,"is_disabled":false,"rental_uris":{"android":"levelo://app?vid=578f4edb-709b-4f71-887c-1f6894bfb091","ios":"levelo://app?vid=578f4edb-709b-4f71-887c-1f6894bfb091"},"vehicle_type_id":"4","last_reported":1686607576,"current_range_meters":20800,"station_id":"ce4bho92rcd13ifvqh3g","pricing_plan_id":"free"},{"bike_id":"9fffe942-4aae-4873-8c4d-cf5218a75724","system_id":"levelo_inurba_marseille","lat":43.287154,"lon":5.399979,"is_reserved":false,"is_disabled":false,"rental_uris":{"android":"levelo://app?vid=9fffe942-4aae-4873-8c4d-cf5218a75724","ios":"levelo://app?vid=9fffe942-4aae-4873-8c4d-cf5218a75724"},"vehicle_type_id":"4","last_reported":1686607576,"current_range_meters":21200,"station_id":"ce4bho92rcd13ifvqh3g","pricing_plan_id":"free"},{"bike_id":"e19298e9-865a-4ac6-97e3-a8d225a1b2c1","system_id":"levelo_inurba_marseille","lat":43.287154,"lon":5.399979,"is_reserved":false,"is_disabled":false,"rental_uris":{"android":"levelo://app?vid=e19298e9-865a-4ac6-97e3-a8d225a1b2c1","ios":"levelo://app?vid=e19298e9-865a-4ac6-97e3-a8d225a1b2c1"},"vehicle_type_id":"4","last_reported":1686607576,"current_range_meters":2800,"station_id":"ce4bho92rcd13ifvqh3g","pricing_plan_id":"free"},{"bike_id":"a93bc820-3e1f-484e-bcd3-268bcaf20516","system_id":"levelo_inurba_marseille","lat":43.279742,"lon":5.38744,"is_reserved":false,"is_disabled":false,"rental_uris":{"android":"levelo://app?vid=a93bc820-3e1f-484e-bcd3-268bcaf20516","ios":"levelo://app?vid=a93bc820-3e1f-484e-bcd3-268bcaf20516"},"vehicle_type_id":"4","last_reported":1686607576,"current_range_meters":4400,"station_id":"ce4bhg12rcd13ifvqf80","pricing_plan_id":"free"},{"bike_id":"114c3d15-cb51-49f8-b604-b652fbe2174e","system_id":"levelo_inurba_marseille","lat":43.279742,"lon":5.38744,"is_reserved":false,"is_disabled":false,"rental_uris":{"android":"levelo://app?vid=114c3d15-cb51-49f8-b604-b652fbe2174e","ios":"levelo://app?vid=114c3d15-cb51-49f8-b604-b652fbe2174e"},"vehicle_type_id":"4","last_reported":1686607576,"current_range_meters":26000,"station_id":"ce4bhg12rcd13ifvqf80","pricing_plan_id":"free"},{"bike_id":"7ec7f780-539c-4f14-b9bf-4d609a067fae","system_id":"levelo_inurba_marseille","lat":43.29259,"lon":5.40895,"is_reserved":false,"is_disabled":false,"rental_uris":{"android":"levelo://app?vid=7ec7f780-539c-4f14-b9bf-4d609a067fae","ios":"levelo://app?vid=7ec7f780-539c-4f14-b9bf-4d609a067fae"},"vehicle_type_id":"4","last_reported":1686607576,"current_range_meters":28000,"station_id":"ce4bh192rcd13ifvqdc0","pricing_plan_id":"free"},{"bike_id":"c45842f0-3ec7-41a2-aa0e-be2b9d881191","system_id":"levelo_inurba_marseille","lat":43.292571,"lon":5.409107,"is_reserved":false,"is_disabled":false,"rental_uris":{"android":"levelo://app?vid=c45842f0-3ec7-41a2-aa0e-be2b9d881191","ios":"levelo://app?vid=c45842f0-3ec7-41a2-aa0e-be2b9d881191"},"vehicle_type_id":"4","last_reported":1686607576,"current_range_meters":31200,"station_id":"ce4bh192rcd13ifvqdc0","pricing_plan_id":"free"},{"bike_id":"976db4c6-635e-45fd-bdbd-feaaf0a7ceee","system_id":"levelo_inurba_marseille","lat":43.292571,"lon":5.409107,"is_reserved":false,"is_disabled":false,"rental_uris":{"android":"levelo://app?vid=976db4c6-635e-45fd-bdbd-feaaf0a7ceee","ios":"levelo://app?vid=976db4c6-635e-45fd-bdbd-feaaf0a7ceee"},"vehicle_type_id":"4","last_reported":1686607576,"current_range_meters":31200,"station_id":"ce4bh192rcd13ifvqdc0","pricing_plan_id":"free"},{"bike_id":"c8d97780-7674-4578-8026-71aecd9ef5e5","system_id":"levelo_inurba_marseille","lat":43.292571,"lon":5.409107,"is_reserved":false,"is_disabled":false,"rental_uris":{"android":"levelo://app?vid=c8d97780-7674-4578-8026-71aecd9ef5e5","ios":"levelo://app?vid=c8d97780-7674-4578-8026-71aecd9ef5e5"},"vehicle_type_id":"4","last_reported":1686607576,"current_range_meters":12800,"station_id":"ce4bh192rcd13ifvqdc0","pricing_plan_id":"free"},