{"last_updated":1767943056,"ttl":60,"version":"2.2","data":{"bikes":[{"bike_id":"e7876eda-f20f-4ac4-9f72-f1c6c0f3442f","system_id":"levelo_inurba_marseille","lat":43.24058,"lon":5.37741,"is_reserved":false,"is_disabled":false,"rental_uris":{"android":"levelo://app?vid=e7876eda-f20f-4ac4-9f72-f1c6c0f3442f","ios":"levelo://app?vid=e7876eda-f20f-4ac4-9f72-f1c6c0f3442f"},"vehicle_type_id":"4","last_reported":1767943057,"current_range_meters":2800,"station_id":"ce4bhnp2rcd13ifvqgvg","pricing_plan_id":"cebpf4jnsgd1na2vs0mg"},{"bike_id":"d0581bff-1d0c-4410-806f-6b8c4cb9781f","system_id":"levelo_inurba_marseille","lat":43.2845,"lon":5.35892,"is_reserved":false,"is_disabled":false,"rental_uris":{"android":"levelo://app?vid=d0581bff-1d0c-4410-806f-6b8c4cb9781f","ios":"levelo://app?vid=d0581bff-1d0c-4410-806f-6b8c4cb9781f"},"vehicle_type_id":"4","last_reported":1767943057,"current_range_meters":2800,"station_id":"ce4bhah2rcd13ifvqei0","pricing_plan_id":"cebpf4jnsgd1na2vs0mg"},{"bike_id":"0896a6b0-9fee-43d9-b927-69a576d730d9","system_id":"levelo_inurba_marseille","lat":43.28928,"lon":5.36644,"is_reserved":false,"is_disabled":true,"rental_uris":{"android":"levelo://app?vid=0896a6b0-9fee-43d9-b927-69a576d730d9","ios":"levelo://app?vid=0896a6b0-9fee-43d9-b927-69a576d730d9"},"vehicle_type_id":"4","last_reported":1767943057,"current_range_meters":2800,"station_id":"ce4bhap2rcd13ifvqek0","pricing_plan_id":"cebpf4jnsgd1na2vs0mg"},{"bike_id":"348346be-23b6-4510-9dfb-f0de0af16842","system_id":"levelo_inurba_marseille","lat":43.3031,"lon":5.40448,"is_reserved":false,"is_disabled":false,"rental_uris":{"android":"levelo://app?vid=348346be-23b6-4510-9dfb-f0de0af16842","ios":"levelo://app?vid=348346be-23b6-4510-9dfb-f0de0af16842"},"vehicle_type_id":"4","last_reported":1767943057,"current_range_meters":2800,"station_id":"ce4bh012rcd13ifvqd10","pricing_plan_id":"cebpf4jnsgd1na2vs0mg"},{"bike_id":"e87e13ae-d69b-4129-94d6-fdb38119b5d3","system_id":"levelo_inurba_marseille","lat":43.28403,"lon":5.34956,"is_reserved":false,"is_disabled":false,"rental_uris":{"android":"levelo://app?vid=e87e13ae-d69b-4129-94d6-fdb38119b5d3","ios":"levelo://app?vid=e87e13ae-d69b-4129-94d6-fdb38119b5d3"},"vehicle_type_id":"4","last_reported":1767943057,"current_range_meters":2800,"station_id":"ce4bhbh2rcd13ifvqepg","pricing_plan_id":"cebpf4jnsgd1na2vs0mg"},{"bike_id":"b30b42a5-f140-4b6b-82d4-5c456fa62a3a","system_id":"levelo_inurba_marseille","lat":43.30254,"lon":5.40083,"is_reserved":false,"is_disabled":false,"rental_uris":{"android":"levelo://app?vid=b30b42a5-f140-4b6b-82d4-5c456fa62a3a","ios":"levelo://app?vid=b30b42a5-f140-4b6b-82d4-5c456fa62a3a"},"vehicle_type_id":"4","last_reported":1767943057,"current_range_meters":2800,"station_id":"ce4bgvh2rcd13ifvqcs0","pricing_plan_id":"cebpf4jnsgd1na2vs0mg"},{"bike_id":"a371abd4-bbe1-4cf7-88b4-417586de59e8","system_id":"levelo_inurba_marseille","lat":43.29009,"lon":5.35597,"is_reserved":false,"is_disabled":false,"rental_uris":{"android":"levelo://app?vid=a371abd4-bbe1-4cf7-88b4-417586de59e8","ios":"levelo://app?vid=a371abd4-bbe1-4cf7-88b4-417586de59e8"},"vehicle_type_id":"4","last_reported":1767943057,"current_range_meters":3200,"station_id":"ce4bhb92rcd13ifvqen0","pricing_plan_id":"cebpf4jnsgd1na2vs0mg"},{"bike_id":"173302e6-6e83-436f-a5e7-5728fa6cbe75","system_id":"levelo_inurba_marseille","lat":43.2756,"lon":5.38436,"is_reserved":false,"is_disabled":false,"rental_uris":{"android":"levelo://app?vid=173302e6-6e83-436f-a5e7-5728fa6cbe75","ios":"levelo://app?vid=173302e6-6e83-436f-a5e7-5728fa6cbe75"},"vehicle_type_id":"4","last_reported":1767943057,"current_range_meters":3200,"station_id":"ce4bhh92rcd13ifvqfi0","pricing_plan_id":"cebpf4jnsgd1na2vs0mg"},{"bike_id":"d7ab7fe9-03f2-4d7f-8a03-703c1e727f77","system_id":"levelo_inurba_marseille","lat":43.26214,"lon":5.40493,"is_reserved":false,"is_disabled":false,"rental_uris":{"android":"levelo://app?vid=d7ab7fe9-03f2-4d7f-8a03-703c1e727f77","ios":"levelo://app?vid=d7ab7fe9-03f2-4d7f-8a03-703c1e727f77"},"vehicle_type_id":"4","last_reported":1767943057,"current_range_meters":3200,"station_id":"ce4bhmh2rcd13ifvqgmg","pricing_plan_id":"cebpf4jnsgd1na2vs0mg"},{"bike_id":"212da61f-e45f-49da-8ac8-22c9c61d8835","system_id":"levelo_inurba_marseille","lat":43.31741,"lon":5.38515,"is_reserved":false,"is_disabled":false,"rental_uris":{"android":"levelo://app?vid=212da61f-e45f-49da-8ac8-22c9c61d8835","ios":"levelo://app?vid=212da61f-e45f-49da-8ac8-22c9c61d8835"},"vehicle_type_id":"4","last_reported":1767943057,"current_range_meters":3200,"station_id":"","pricing_plan_id":"cebpf4jnsgd1na2vs0mg"},{"bike_id":"db8f8f51-ff30-47b0-92b1-e03a1700e59d","system_id":"levelo_inurba_marseille","lat":43.279875,"lon":5.416564,"is_reserved":false,"is_disabled":false,"rental_uris":{"android":"levelo://app?vid=db8f8f51-ff30-47b0-92b1-e03a1700e59d","ios":"levelo://app?vid=db8f8f51-ff30-47b0-92b1-e03a1700e59d"},"vehicle_type_id":"4","last_reported":1767943057,"current_range_meters":3200,"station_id":"ce4bho12rcd13ifvqh1g","pricing_plan_id":"cebpf4jnsgd1na2vs0mg"},{"bike_id":"511a0a4e-8808-437d-8ea6-734f50bee3bd","system_id":"levelo_inurba_marseille","lat":43.28718,"lon":5.36111,"is_reserved":false,"is_disabled":false,"rental_uris":{"android":"levelo://app?vid=511a0a4e-8808-437d-8ea6-734f50bee3bd","ios":"levelo://app?vid=511a0a4e-8808-437d-8ea6-734f50bee3bd"},"vehicle_type_id":"4","last_reported":1767943057,"current_range_meters":3200,"station_id":"cki0cbj6b192h4jlfktg","pricing_plan_id":"cebpf4jnsgd1na2vs0mg"},{"bike_id":"b7e5c00d-3c0a-42ad-a38c-eb6c73e5c683","system_id":"levelo_inurba_marseille","lat":43.28859,"lon":5.42512,"is_reserved":false,"is_disabled":false,"rental_uris":{"android":"levelo://app?vid=b7e5c00d-3c0a-42ad-a38c-eb6c73e5c683","ios":"levelo://app?vid=b7e5c00d-3c0a-42ad-a38c-eb6c73e5c683"},"vehicle_type_id":"4","last_reported":1767943057,"current_range_meters":3200,"station_id":"st_d3b462108ojc7389ooeg","pricing_plan_id":"cebpf4jnsgd1na2vs0mg"},{"bike_id":"a41786cc-391e-4c15-baeb-cfabad9de7ed","system_id":"levelo_inurba_marseille","lat":43.32661,"lon":5.409925,"is_reserved":false,"is_disabled":false,"rental_uris":{"android":"levelo://app?vid=a41786cc-391e-4c15-baeb-cfabad9de7ed","ios":"levelo://app?vid=a41786cc-391e-4c15-baeb-cfabad9de7ed"},"vehicle_type_id":"4","last_reported":1767943057,"current_range_meters":3200,"station_id":"ce4bhpp2rcd13ifvqhgg","pricing_plan_id":"cebpf4jnsgd1na2vs0mg"},{"bike_id":"47d0a8b3-c4fc-4d20-befe-0d9c69ad92a9","system_id":"levelo_inurba_marseille","lat":43.2378,"lon":5.36639,"is_reserved":false,"is_disabled":false,"rental_uris":{"android":"levelo://app?vid=47d0a8b3-c4fc-4d20-befe-0d9c69ad92a9","ios":"levelo://app?vid=47d0a8b3-c4fc-4d20-befe-0d9c69ad92a9"},"vehicle_type_id":"4","last_reported":1767943057,"current_range_meters":3200,"station_id":"st_d3nk18o9ro0c73en2l3g","pricing_plan_id":"cebpf4jnsgd1na2vs0mg"},{"bike_id":"0c106f61-b1e2-4634-ae66-0b75c689e13d","system_id":"levelo_inurba_marseille","lat":43.249544,"lon":5.404931,"is_reserved":false,"is_disabled":false,"rental_uris":{"android":"levelo://app?vid=0c106f61-b1e2-4634-ae66-0b75c689e13d","ios":"levelo://app?vid=0c106f61-b1e2-4634-ae66-0b75c689e13d"},"vehicle_type_id":"4","last_reported":1767943057,"current_range_meters":3600,"station_id":"st_d2ngiaodas8pm72gd1h0","pricing_plan_id":"cebpf4jnsgd1na2vs0mg"},{"bike_id":"d159bb94-d7f5-43ef-99a9-bf56fa3242c7","system_id":"levelo_inurba_marseille","lat":43.2894,"lon":5.36637,"is_reserved":false,"is_disabled":false,"rental_uris":{"android":"levelo://app?vid=d159bb94-d7f5-43ef-99a9-bf56fa3242c7","ios":"levelo://app?vid=d159bb94-d7f5-43ef-99a9-bf56fa3242c7"},"vehicle_type_id":"4","last_reported":1767943057,"current_range_meters":3600,"station_id":"ce4bhap2rcd13ifvqek0","pricing_plan_id":"cebpf4jnsgd1na2vs0mg"},{"bike_id":"c10c03af-eba1-4f9f-a373-ad08e2aac44e","system_id":"levelo_inurba_marseille","lat":43.259391,"lon":5.409011,"is_reserved":false,"is_disabled":false,"rental_uris":{"android":"levelo://app?vid=c10c03af-eba1-4f9f-a373-ad08e2aac44e","ios":"levelo://app?vid=c10c03af-eba1-4f9f-a373-ad08e2aac44e"},"vehicle_type_id":"4","last_reported":1767943057,"current_range_meters":3600,"station_id":"ce4bhm92rcd13ifvqglg","pricing_plan_id":"cebpf4jnsgd1na2vs0mg"},{"bike_id":"82582fec-7dfe-4668-947f-7bf0439e6b8e","system_id":"levelo_inurba_marseille","lat":43.284749,"lon":5.484048,"is_reserved":false,"is_disabled":false,"rental_uris":{"android":"levelo://app?vid=82582fec-7dfe-4668-947f-7bf0439e6b8e","ios":"levelo://app?vid=82582fec-7dfe-4668-947f-7bf0439e6b8e"},"vehicle_type_id":"4","last_reported":1767943057,"current_range_meters":3600,"station_id":"","pricing_plan_id":"cebpf4jnsgd1na2vs0mg"},{"bike_id":"f0db0b22-e088-46a2-abbe-dbd55331e79a","system_id":"levelo_inurba_marseille","lat":43.26364,"lon":5.41039,"is_reserved":false,"is_disabled":false,"rental_uris":{"android":"levelo://app?vid=f0db0b22-e088-46a2-abbe-dbd55331e79a","ios":"levelo://app?vid=f0db0b22-e088-46a2-abbe-dbd55331e79a"},"vehicle_type_id":"4","last_reported":1767943057,"current_range_meters":3600,"station_id":"st_d4e5ca6na9uc73bfl5fg","pricing_plan_id":"cebpf4jnsgd1na2vs0mg"},{"bike_id":"8467f275-f659-442c-b398-0f67f70d7fd1","system_id":"levelo_inurba_marseille","lat":43.27364,"lon":5.36216,"is_reserved":false,"is_disabled":true,"rental_uris":{"android":"levelo://app?vid=8467f275-f659-442c-b398-0f67f70d7fd1","ios":"levelo://app?vid=8467f275-f659-442c-b398-0f67f70d7fd1"},"vehicle_type_id":"4","last_reported":1767943057,"current_range_meters":3600,"station_id":"ce4bhbh2rcd13ifvqeo0","pricing_plan_id":"cebpf4jnsgd1na2vs0mg"},{"bike_id":"7401be6f-cce5-4127-bfd0-4e81a357cf0d","system_id":"levelo_inurba_marseille","lat":43.25558,"lon":5.3828,"is_reserved":false,"is_disabled":false,"rental_uris":{"android":"levelo://app?vid=7401be6f-cce5-4127-bfd0-4e81a357cf0d","ios":"levelo://app?vid=7401be6f-cce5-4127-bfd0-4e81a357cf0d"},"vehicle_type_id":"4","last_reported":1767943057,"current_range_meters":3600,"station_id":"ce4bhih2rcd13ifvqfs0","pricing_plan_id":"cebpf4jnsgd1na2vs0mg"},{"bike_id":"128bd15e-cdfd-4739-bdd9-ca2b6944900c","system_id":"levelo_inurba_marseille","lat":43.27668,"lon":5.38883,"is_reserved":false,"is_disabled":true,"rental_uris":{"android":"levelo://app?vid=128bd15e-cdfd-4739-bdd9-ca2b6944900c","ios":"levelo://app?vid=128bd15e-cdfd-4739-bdd9-ca2b6944900c"},"vehicle_type_id":"4","last_reported":1767943057,"current_range_meters":3600,"station_id":"ce4bhi12rcd13ifvqfo0","pricing_plan_id":"cebpf4jnsgd1na2vs0mg"},{"bike_id":"1b7ba17f-a2d9-4006-b7cb-64bec9a0b7bc","system_id":"levelo_inurba_marseille","lat":43.2893,"lon":5.40836,"is_reserved":false,"is_disabled":false,"rental_uris":{"android":"levelo://app?vid=1b7ba17f-a2d9-4006-b7cb-64bec9a0b7bc","ios":"levelo://app?vid=1b7ba17f-a2d9-4006-b7cb-64bec9a0b7bc"},"vehicle_type_id":"4","last_reported":1767943057,"current_range_meters":4000,"station_id":"","pricing_plan_id":"cebpf4jnsgd1na2vs0mg"},{"bike_id":"bc80bdb5-586c-4328-ad85-a5efa6122a55","system_id":"levelo_inurba_marseille","lat":43.28844,"lon":5.393233,"is_reserved":false,"is_disabled":false,"rental_uris":{"android":"levelo://app?vid=bc80bdb5-586c-4328-ad85-a5efa6122a55","ios":"levelo://app?vid=bc80bdb5-586c-4328-ad85-a5efa6122a55"},"vehicle_type_id":"4","last_reported":1767943057,"current_range_meters":4000,"station_id":"","pricing_plan_id":"cebpf4jnsgd1na2vs0mg"},{"bike_id":"19e15d06-cf4c-459d-8887-b3feaa0bcacf","system_id":"levelo_inurba_marseille","lat":43.32852,"lon":5.40552,"is_reserved":false,"is_disabled":false,"rental_uris":{"android":"levelo://app?vid=19e15d06-cf4c-459d-8887-b3feaa0bcacf","ios":"levelo://app?vid=19e15d06-cf4c-459d-8887-b3feaa0bcacf"},"vehicle_type_id":"4","last_reported":1767943057,"current_range_meters":4000,"station_id":"ce4bhq92rcd13ifvqhkg","pricing_plan_id":"cebpf4jnsgd1na2vs0mg"},{"bike_id":"cc85a6ba-05f9-4c4d-a519-e1f41fd3e5dc","system_id":"levelo_inurba_marseille","lat":43.29951,"lon":5.3652,"is_reserved":false,"is_disabled":true,"rental_uris":{"android":"levelo://app?vid=cc85a6ba-05f9-4c4d-a519-e1f41fd3e5dc","ios":"levelo://app?vid=cc85a6ba-05f9-4c4d-a519-e1f41fd3e5dc"},"vehicle_type_id":"4","last_reported":1767943057,"current_range_meters":4000,"station_id":"ce4bgm92rcd13ifvqbr0","pricing_plan_id":"cebpf4jnsgd1na2vs0mg"},{"bike_id":"54eb4ea2-62d2-46f1-be28-8b9786edbd57","system_id":"levelo_inurba_marseille","lat":43.23137,"lon":5.43751,"is_reserved":false,"is_disabled":false,"rental_uris":{"android":"levelo://app?vid=54eb4ea2-62d2-46f1-be28-8b9786edbd57","ios":"levelo://app?vid=54eb4ea2-62d2-46f1-be28-8b9786edbd57"},"vehicle_type_id":"4","last_reported":1767943057,"current_range_meters":4000,"station_id":"","pricing_plan_id":"cebpf4jnsgd1na2vs0mg"},{"bike_id":"b13e2f01-6b92-41c2-904a-19b5d6db7307","system_id":"levelo_inurba_marseille","lat":43.27375,"lon":5.36251,"is_reserved":false,"is_disabled":false,"rental_uris":{"android":"levelo://app?vid=b13e2f01-6b92-41c2-904a-19b5d6db7307","ios":"levelo://app?vid=b13e2f01-6b92-41c2-904a-19b5d6db7307"},"vehicle_type_id":"4","last_reported":1767943057,"current_range_meters":4000,"station_id":"ce4bhbh2rcd13ifvqeo0","pricing_plan_id":"cebpf4jnsgd1na2vs0mg"},{"bike_id":"6fb551a5-6fdb-4074-a9b2-bd83e07c80f2","system_id":"levelo_inurba_marseille","lat":43.30421,"lon":5.4128,"is_reserved":false,"is_disabled":false,"rental_uris":{"android":"levelo://app?vid=6fb551a5-6fdb-4074-a9b2-bd83e07c80f2","ios":"levelo://app?vid=6fb551a5-6fdb-4074-a9b2-bd83e07c80f2"},"vehicle_type_id":"4","last_reported":1767943057,"current_range_meters":4000,"station_id":"ce4bhop2rcd13ifvqh8g","pricing_plan_id":"cebpf4jnsgd1na2vs0mg"},{"bike_id":"b041f73e-24b2-45dc-94b4-d3fa21cc46b4","system_id":"levelo_inurba_marseille","lat":43.248104,"lon":5.374556,"is_reserved":false,"is_disabled":false,"rental_uris":{"android":"levelo://app?vid=b041f73e-24b2-45dc-94b4-d3fa21cc46b4","ios":"levelo://app?vid=b041f73e-24b2-45dc-94b4-d3fa21cc46b4"},"vehicle_type_id":"4","last_reported":1767943057,"current_range_meters":4000,"station_id":"ce4bhgh2rcd13ifvqfb0","pricing_plan_id":"cebpf4jnsgd1na2vs0mg"},{"bike_id":"ac85bb10-c7ee-4643-b359-aaaae092715f","system_id":"levelo_inurba_marseille","lat":43.27981,"lon":5.41661,"is_reserved":false,"is_disabled":false,"rental_uris":{"android":"levelo://app?vid=ac85bb10-c7ee-4643-b359-aaaae092715f","ios":"levelo://app?vid=ac85bb10-c7ee-4643-b359-aaaae092715f"},"vehicle_type_id":"4","last_reported":1767943057,"current_range_meters":4000,"station_id":"ce4bho12rcd13ifvqh1g","pricing_plan_id":"cebpf4jnsgd1na2vs0mg"},{"bike_id":"4074063f-57f2-4c78-96cb-fffd67eb84b0","system_id":"levelo_inurba_marseille","lat":43.335977,"lon":5.410219,"is_reserved":false,"is_disabled":false,"rental_uris":{"android":"levelo://app?vid=4074063f-57f2-4c78-96cb-fffd67eb84b0","ios":"levelo://app?vid=4074063f-57f2-4c78-96cb-fffd67eb84b0"},"vehicle_type_id":"4","last_reported":1767943057,"current_range_meters":4000,"station_id":"ce4bhqh2rcd13ifvqhmg","pricing_plan_id":"cebpf4jnsgd1na2vs0mg"},{"bike_id":"80c1456b-51ee-4fc1-b2ab-63785d9f6190","system_id":"levelo_inurba_marseille","lat":43.27807,"lon":5.40716,"is_reserved":false,"is_disabled":false,"rental_uris":{"android":"levelo://app?vid=80c1456b-51ee-4fc1-b2ab-63785d9f6190","ios":"levelo://app?vid=80c1456b-51ee-4fc1-b2ab-63785d9f6190"},"vehicle_type_id":"4","last_reported":1767943057,"current_range_meters":4000,"station_id":"ce4bhnh2rcd13ifvqgtg","pricing_plan_id":"cebpf4jnsgd1na2vs0mg"},{"bike_id":"63e4976f-7d93-49f6-a2b3-f7ce857422dd","system_id":"levelo_inurba_marseille","lat":43.30294,"lon":5.39204,"is_reserved":false,"is_disabled":true,"rental_uris":{"android":"levelo://app?vid=63e4976f-7d93-49f6-a2b3-f7ce857422dd","ios":"levelo://app?vid=63e4976f-7d93-49f6-a2b3-f7ce857422dd"},"vehicle_type_id":"4","last_reported":1767943057,"current_range_meters":4000,"station_id":"ce4bgkh2rcd13ifvqbk0","pricing_plan_id":"cebpf4jnsgd1na2vs0mg"},{"bike_id":"73543345-4ef9-4e98-84ee-ab10ee209479","system_id":"levelo_inurba_marseille","lat":43.31064,"lon":5.38349,"is_reserved":false,"is_disabled":true,"rental_uris":{"android":"levelo://app?vid=73543345-4ef9-4e98-84ee-ab10ee209479","ios":"levelo://app?vid=73543345-4ef9-4e98-84ee-ab10ee209479"},"vehicle_type_id":"4","last_reported":1767943057,"current_range_meters":4000,"station_id":"ce4bgv92rcd13ifvqcr0","pricing_plan_id":"cebpf4jnsgd1na2vs0mg"},{"bike_id":"ef8b8eb6-6226-4146-95a1-d01c656eb60d","system_id":"levelo_inurba_marseille","lat":43.28487,"lon":5.48377,"is_reserved":false,"is_disabled":false,"rental_uris":{"android":"levelo://app?vid=ef8b8eb6-6226-4146-95a1-d01c656eb60d","ios":"levelo://app?vid=ef8b8eb6-6226-4146-95a1-d01c656eb60d"},"vehicle_type_id":"4","last_reported":1767943057,"current_range_meters":4000,"station_id":"st_d3svhcjqgbts73a3dn0g","pricing_plan_id":"cebpf4jnsgd1na2vs0mg"},{"bike_id":"393a41f0-e5f4-413f-9f9a-e6feae5722eb","system_id":"levelo_inurba_marseille","lat":43.25822,"lon":5.39423,"is_reserved":false,"is_disabled":false,"rental_uris":{"android":"levelo://app?vid=393a41f0-e5f4-413f-9f9a-e6feae5722eb","ios":"levelo://app?vid=393a41f0-e5f4-413f-9f9a-e6feae5722eb"},"vehicle_type_id":"4","last_reported":1767943057,"current_range_meters":4000,"station_id":"ce4bhip2rcd13ifvqft0","pricing_plan_id":"cebpf4jnsgd1na2vs0mg"},{"bike_id":"e9be6d9d-169b-4cae-9a40-1aae9b41881f","system_id":"levelo_inurba_marseille","lat":43.28758,"lon":5.38088,"is_reserved":false,"is_disabled":false,"rental_uris":{"android":"levelo://app?vid=e9be6d9d-169b-4cae-9a40-1aae9b41881f","ios":"levelo://app?vid=e9be6d9d-169b-4cae-9a40-1aae9b41881f"},"vehicle_type_id":"4","last_reported":1767943057,"current_range_meters":4000,"station_id":"","pricing_plan_id":"cebpf4jnsgd1na2vs0mg"},{"bike_id":"357563d8-d33e-4f70-862e-8fab05436ef0","system_id":"levelo_inurba_marseille","lat":43.289776,"lon":5.378228,"is_reserved":false,"is_disabled":false,"rental_uris":{"android":"levelo://app?vid=357563d8-d33e-4f70-862e-8fab05436ef0","ios":"levelo://app?vid=357563d8-d33e-4f70-862e-8fab05436ef0"},"vehicle_type_id":"4","last_reported":1767943057,"current_range_meters":4000,"station_id":"","pricing_plan_id":"cebpf4jnsgd1na2vs0mg"},{"bike_id":"fd172d07-e62e-4e89-83ff-b73ffdf2df2c","system_id":"levelo_inurba_marseille","lat":43.2658,"lon":5.39011,"is_reserved":false,"is_disabled":false,"rental_uris":{"android":"levelo://app?vid=fd172d07-e62e-4e89-83ff-b73ffdf2df2c","ios":"levelo://app?vid=fd172d07-e62e-4e89-83ff-b73ffdf2df2c"},"vehicle_type_id":"4","last_reported":1767943057,"current_range_meters":4000,"station_id":"ce4bhe12rcd13ifvqf30","pricing_plan_id":"cebpf4jnsgd1na2vs0mg"},{"bike_id":"105c24dc-55f2-45c6-a67a-b0586dccd52d","system_id":"levelo_inurba_marseille","lat":43.278061,"lon":5.407199,"is_reserved":false,"is_disabled":false,"rental_uris":{"android":"levelo://app?vid=105c24dc-55f2-45c6-a67a-b0586dccd52d","ios":"levelo://app?vid=105c24dc-55f2-45c6-a67a-b0586dccd52d"},"vehicle_type_id":"4","last_reported":1767943057,"current_range_meters":4000,"station_id":"ce4bhnh2rcd13ifvqgtg","pricing_plan_id":"cebpf4jnsgd1na2vs0mg"},{"bike_id":"c0fe2e41-5fe7-4373-ae10-e9969e5811d1","system_id":"levelo_inurba_marseille","lat":43.29756,"lon":5.3809,"is_reserved":false,"is_disabled":false,"rental_uris":{"android":"levelo://app?vid=c0fe2e41-5fe7-4373-ae10-e9969e5811d1","ios":"levelo://app?vid=c0fe2e41-5fe7-4373-ae10-e9969e5811d1"},"vehicle_type_id":"4","last_reported":1767943057,"current_range_meters":4000,"station_id":"","pricing_plan_id":"cebpf4jnsgd1na2vs0mg"},{"bike_id":"b4fa0935-9b50-4a59-a851-194d4cccd67f","system_id":"levelo_inurba_marseille","lat":43.2415,"lon":5.36432,"is_reserved":false,"is_disabled":false,"rental_uris":{"android":"levelo://app?vid=b4fa0935-9b50-4a59-a851-194d4cccd67f","ios":"levelo://app?vid=b4fa0935-9b50-4a59-a851-194d4cccd67f"},"vehicle_type_id":"4","last_reported":1767943057,"current_range_meters":4000,"station_id":"cpo36qri1sfpv3e86is0","pricing_plan_id":"cebpf4jnsgd1na2vs0mg"},{"bike_id":"7d9aa96c-637e-4eb3-9755-31af971b3df0","system_id":"levelo_inurba_marseille","lat":43.28857,"lon":5.42513,"is_reserved":false,"is_disabled":false,"rental_uris":{"android":"levelo://app?vid=7d9aa96c-637e-4eb3-9755-31af971b3df0","ios":"levelo://app?vid=7d9aa96c-637e-4eb3-9755-31af971b3df0"},"vehicle_type_id":"4","last_reported":1767943057,"current_range_meters":4400,"station_id":"st_d3b462108ojc7389ooeg","pricing_plan_id":"cebpf4jnsgd1na2vs0mg"},{"bike_id":"9cfeff17-a54a-4b3c-baa8-c7ed795fc5f2","system_id":"levelo_inurba_marseille","lat":43.241634,"lon":5.363922,"is_reserved":false,"is_disabled":false,"rental_uris":{"android":"levelo://app?vid=9cfeff17-a54a-4b3c-baa8-c7ed795fc5f2","ios":"levelo://app?vid=9cfeff17-a54a-4b3c-baa8-c7ed795fc5f2"},"vehicle_type_id":"4","last_reported":1767943057,"current_range_meters":4400,"station_id":"cpo36qri1sfpv3e86is0","pricing_plan_id":"cebpf4jnsgd1na2vs0mg"},{"bike_id":"662b526c-8c27-4d2d-b35e-6a1cdf3512ce","system_id":"levelo_inurba_marseille","lat":43.24789,"lon":5.37445,"is_reserved":false,"is_disabled":false,"rental_uris":{"android":"levelo://app?vid=662b526c-8c27-4d2d-b35e-6a1cdf3512ce","ios":"levelo://app?vid=662b526c-8c27-4d2d-b35e-6a1cdf3512ce"},"vehicle_type_id":"4","last_reported":1767943057,"current_range_meters":4400,"station_id":"ce4bhgh2rcd13ifvqfb0","pricing_plan_id":"cebpf4jnsgd1na2vs0mg"},{"bike_id":"df8e1d6f-10b7-488a-9164-bc1802e0bddd","system_id":"levelo_inurba_marseille","lat":43.25813,"lon":5.39437,"is_reserved":false,"is_disabled":false,"rental_uris":{"android":"levelo://app?vid=df8e1d6f-10b7-488a-9164-bc1802e0bddd","ios":"levelo://app?vid=df8e1d6f-10b7-488a-9164-bc1802e0bddd"},"vehicle_type_id":"4","last_reported":1767943057,"current_range_meters":4400,"station_id":"ce4bhip2rcd13ifvqft0","pricing_plan_id":"cebpf4jnsgd1na2vs0mg"},{"bike_id":"97452125-5d86-4a9e-b4a3-a2dd4fe9ffac","system_id":"levelo_inurba_marseille","lat":43.254881,"lon":5.376456,"is_reserved":false,"is_disabled":false,"rental_uris":{"android":"levelo://app?vid=97452125-5d86-4a9e-b4a3-a2dd4fe9ffac","ios":"levelo://app?vid=97452125-5d86-4a9e-b4a3-a2dd4fe9ffac"},"vehicle_type_id":"4","last_reported":1767943057,"current_range_meters":4400,"station_id":"ce4bhh12rcd13ifvqff0","pricing_plan_id":"cebpf4jnsgd1na2vs0mg"},{"bike_id":"e9fbb55b-45ea-4b51-8726-aff775b6f253","system_id":"levelo_inurba_marseille","lat":43.22925,"lon":5.35376,"is_reserved":false,"is_disabled":false,"rental_uris":{"android":"levelo://app?vid=e9fbb55b-45ea-4b51-8726-aff775b6f253","ios":"levelo://app?vid=e9fbb55b-45ea-4b51-8726-aff775b6f253"},"vehicle_type_id":"4","last_reported":1767943057,"current_range_meters":4400,"station_id":"cpo3532slgdg3j2ikp40","pricing_plan_id":"cebpf4jnsgd1na2vs0mg"},{"bike_id":"9885975e-ca53-49b9-a352-df3d21a0d3c7","system_id":"levelo_inurba_marseille","lat":43.27492,"lon":5.42441,"is_reserved":false,"is_disabled":false,"rental_uris":{"android":"levelo://app?vid=9885975e-ca53-49b9-a352-df3d21a0d3c7","ios":"levelo://app?vid=9885975e-ca53-49b9-a352-df3d21a0d3c7"},"vehicle_type_id":"4","last_reported":1767943057,"current_range_meters":4400,"station_id":"ce4bhn92rcd13ifvqgrg","pricing_plan_id":"cebpf4jnsgd1na2vs0mg"},{"bike_id":"ac62c4bb-d4c1-4a08-95d9-40ee91fdac3a","system_id":"levelo_inurba_marseille","lat":43.30296,"lon":5.3921,"is_reserved":false,"is_disabled":false,"rental_uris":{"android":"levelo://app?vid=ac62c4bb-d4c1-4a08-95d9-40ee91fdac3a","ios":"levelo://app?vid=ac62c4bb-d4c1-4a08-95d9-40ee91fdac3a"},"vehicle_type_id":"4","last_reported":1767943057,"current_range_meters":4400,"station_id":"ce4bgkh2rcd13ifvqbk0","pricing_plan_id":"cebpf4jnsgd1na2vs0mg"},{"bike_id":"1e38a170-3a59-4964-ac74-f59bcf2ec101","system_id":"levelo_inurba_marseille","lat":43.30523,"lon":5.36711,"is_reserved":false,"is_disabled":false,"rental_uris":{"android":"levelo://app?vid=1e38a170-3a59-4964-ac74-f59bcf2ec101","ios":"levelo://app?vid=1e38a170-3a59-4964-ac74-f59bcf2ec101"},"vehicle_type_id":"4","last_reported":1767943057,"current_range_meters":4400,"station_id":"ce4bgrp2rcd13ifvqc9g","pricing_plan_id":"cebpf4jnsgd1na2vs0mg"},{"bike_id":"2f3e3b53-8f1f-4490-9110-66421bc9e27e","system_id":"levelo_inurba_marseille","lat":43.31352,"lon":5.38502,"is_reserved":false,"is_disabled":false,"rental_uris":{"android":"levelo://app?vid=2f3e3b53-8f1f-4490-9110-66421bc9e27e","ios":"levelo://app?vid=2f3e3b53-8f1f-4490-9110-66421bc9e27e"},"vehicle_type_id":"4","last_reported":1767943057,"current_range_meters":4400,"station_id":"ce4bgt92rcd13ifvqcf0","pricing_plan_id":"cebpf4jnsgd1na2vs0mg"},{"bike_id":"690d7b5d-09af-414a-9bea-3892849e41fe","system_id":"levelo_inurba_marseille","lat":43.30798,"lon":5.38153,"is_reserved":false,"is_disabled":false,"rental_uris":{"android":"levelo://app?vid=690d7b5d-09af-414a-9bea-3892849e41fe","ios":"levelo://app?vid=690d7b5d-09af-414a-9bea-3892849e41fe"},"vehicle_type_id":"4","last_reported":1767943057,"current_range_meters":4800,"station_id":"ce4bgt12rcd13ifvqce0","pricing_plan_id":"cebpf4jnsgd1na2vs0mg"},{"bike_id":"ec7bdac0-05d6-48f4-8822-230fe108a37f","system_id":"levelo_inurba_marseille","lat":43.30886,"lon":5.39618,"is_reserved":false,"is_disabled":true,"rental_uris":{"android":"levelo://app?vid=ec7bdac0-05d6-48f4-8822-230fe108a37f","ios":"levelo://app?vid=ec7bdac0-05d6-48f4-8822-230fe108a37f"},"vehicle_type_id":"4","last_reported":1767943057,"current_range_meters":4800,"station_id":"ce4bh012rcd13ifvqcv0","pricing_plan_id":"cebpf4jnsgd1na2vs0mg"},{"bike_id":"d701f9a2-629b-4468-98f6-17ad25abddd3","system_id":"levelo_inurba_marseille","lat":43.28892,"lon":5.42514,"is_reserved":false,"is_disabled":false,"rental_uris":{"android":"levelo://app?vid=d701f9a2-629b-4468-98f6-17ad25abddd3","ios":"levelo://app?vid=d701f9a2-629b-4468-98f6-17ad25abddd3"},"vehicle_type_id":"4","last_reported":1767943057,"current_range_meters":4800,"station_id":"st_d3b462108ojc7389ooeg","pricing_plan_id":"cebpf4jnsgd1na2vs0mg"},{"bike_id":"d1aec26d-c572-4d57-b073-47990dc08907","system_id":"levelo_inurba_marseille","lat":43.278132,"lon":5.407064,"is_reserved":false,"is_disabled":false,"rental_uris":{"android":"levelo://app?vid=d1aec26d-c572-4d57-b073-47990dc08907","ios":"levelo://app?vid=d1aec26d-c572-4d57-b073-47990dc08907"},"vehicle_type_id":"4","last_reported":1767943057,"current_range_meters":4800,"station_id":"ce4bhnh2rcd13ifvqgtg","pricing_plan_id":"cebpf4jnsgd1na2vs0mg"},{"bike_id":"868e0723-8a5a-4918-864f-30e9341848ec","system_id":"levelo_inurba_marseille","lat":43.25327,"lon":5.42153,"is_reserved":false,"is_disabled":false,"rental_uris":{"android":"levelo://app?vid=868e0723-8a5a-4918-864f-30e9341848ec","ios":"levelo://app?vid=868e0723-8a5a-4918-864f-30e9341848ec"},"vehicle_type_id":"4","last_reported":1767943057,"current_range_meters":4800,"station_id":"st_d2m65c5bi1j21697t3ng","pricing_plan_id":"cebpf4jnsgd1na2vs0mg"},{"bike_id":"efcbda51-62e1-4f07-ab6b-7f654193639e","system_id":"levelo_inurba_marseille","lat":43.260678,"lon":5.393835,"is_reserved":false,"is_disabled":false,"rental_uris":{"android":"levelo://app?vid=efcbda51-62e1-4f07-ab6b-7f654193639e","ios":"levelo://app?vid=efcbda51-62e1-4f07-ab6b-7f654193639e"},"vehicle_type_id":"4","last_reported":1767943057,"current_range_meters":4800,"station_id":"ce4bhh92rcd13ifvqfj0","pricing_plan_id":"cebpf4jnsgd1na2vs0mg"},{"bike_id":"9b74e88b-aa07-4fe6-908a-fa88542debbc","system_id":"levelo_inurba_marseille","lat":43.29972,"lon":5.36542,"is_reserved":false,"is_disabled":false,"rental_uris":{"android":"levelo://app?vid=9b74e88b-aa07-4fe6-908a-fa88542debbc","ios":"levelo://app?vid=9b74e88b-aa07-4fe6-908a-fa88542debbc"},"vehicle_type_id":"4","last_reported":1767943057,"current_range_meters":4800,"station_id":"","pricing_plan_id":"cebpf4jnsgd1na2vs0mg"},{"bike_id":"4eb82fa0-7803-4a10-90fe-2a5c9e41b4a0","system_id":"levelo_inurba_marseille","lat":43.255776,"lon":5.382249,"is_reserved":false,"is_disabled":false,"rental_uris":{"android":"levelo://app?vid=4eb82fa0-7803-4a10-90fe-2a5c9e41b4a0","ios":"levelo://app?vid=4eb82fa0-7803-4a10-90fe-2a5c9e41b4a0"},"vehicle_type_id":"4","last_reported":1767943057,"current_range_meters":4800,"station_id":"ce4bhih2rcd13ifvqfs0","pricing_plan_id":"cebpf4jnsgd1na2vs0mg"},{"bike_id":"a9c6d546-b01e-4f1f-9ee6-93cac570bf9c","system_id":"levelo_inurba_marseille","lat":43.28606,"lon":5.35114,"is_reserved":false,"is_disabled":false,"rental_uris":{"android":"levelo://app?vid=a9c6d546-b01e-4f1f-9ee6-93cac570bf9c","ios":"levelo://app?vid=a9c6d546-b01e-4f1f-9ee6-93cac570bf9c"},"vehicle_type_id":"4","last_reported":1767943057,"current_range_meters":4800,"station_id":"ce4bhch2rcd13ifvqeug","pricing_plan_id":"cebpf4jnsgd1na2vs0mg"},{"bike_id":"83baf7ef-456e-4c72-9805-22aa4846a1b3","system_id":"levelo_inurba_marseille","lat":43.28517,"lon":5.44138,"is_reserved":false,"is_disabled":false,"rental_uris":{"android":"levelo://app?vid=83baf7ef-456e-4c72-9805-22aa4846a1b3","ios":"levelo://app?vid=83baf7ef-456e-4c72-9805-22aa4846a1b3"},"vehicle_type_id":"4","last_reported":1767943057,"current_range_meters":4800,"station_id":"st_d3j3df2ikq2c7380ej80","pricing_plan_id":"cebpf4jnsgd1na2vs0mg"},{"bike_id":"79544bb9-349f-409e-b2bb-723f19511937","system_id":"levelo_inurba_marseille","lat":43.285332,"lon":5.440926,"is_reserved":false,"is_disabled":false,"rental_uris":{"android":"levelo://app?vid=79544bb9-349f-409e-b2bb-723f19511937","ios":"levelo://app?vid=79544bb9-349f-409e-b2bb-723f19511937"},"vehicle_type_id":"4","last_reported":1767943057,"current_range_meters":4800,"station_id":"st_d3j3df2ikq2c7380ej80","pricing_plan_id":"cebpf4jnsgd1na2vs0mg"},{"bike_id":"0fd80f10-4304-4c12-9af3-a94a305f109a","system_id":"levelo_inurba_marseille","lat":43.26063,"lon":5.39398,"is_reserved":false,"is_disabled":false,"rental_uris":{"android":"levelo://app?vid=0fd80f10-4304-4c12-9af3-a94a305f109a","ios":"levelo://app?vid=0fd80f10-4304-4c12-9af3-a94a305f109a"},"vehicle_type_id":"4","last_reported":1767943057,"current_range_meters":4800,"station_id":"ce4bhh92rcd13ifvqfj0","pricing_plan_id":"cebpf4jnsgd1na2vs0mg"},{"bike_id":"3ada1a6b-6031-458a-b05a-7b349030768e","system_id":"levelo_inurba_marseille","lat":43.30528,"lon":5.36848,"is_reserved":false,"is_disabled":false,"rental_uris":{"android":"levelo://app?vid=3ada1a6b-6031-458a-b05a-7b349030768e","ios":"levelo://app?vid=3ada1a6b-6031-458a-b05a-7b349030768e"},"vehicle_type_id":"4","last_reported":1767943057,"current_range_meters":4800,"station_id":"","pricing_plan_id":"cebpf4jnsgd1na2vs0mg"},{"bike_id":"ae4ea6af-ac8e-4f9d-acb8-d08926e47bb1","system_id":"levelo_inurba_marseille","lat":43.3314,"lon":5.3771,"is_reserved":false,"is_disabled":false,"rental_uris":{"android":"levelo://app?vid=ae4ea6af-ac8e-4f9d-acb8-d08926e47bb1","ios":"levelo://app?vid=ae4ea6af-ac8e-4f9d-acb8-d08926e47bb1"},"vehicle_type_id":"4","last_reported":1767943057,"current_range_meters":5600,"station_id":"st_d46cu089ee8s73dldbu0","pricing_plan_id":"cebpf4jnsgd1na2vs0mg"},{"bike_id":"c9b9f614-2a8e-4d1a-a652-5ef008ccb0b8","system_id":"levelo_inurba_marseille","lat":43.30325,"lon":5.40427,"is_reserved":false,"is_disabled":false,"rental_uris":{"android":"levelo://app?vid=c9b9f614-2a8e-4d1a-a652-5ef008ccb0b8","ios":"levelo://app?vid=c9b9f614-2a8e-4d1a-a652-5ef008ccb0b8"},"vehicle_type_id":"4","last_reported":1767943057,"current_range_meters":5600,"station_id":"ce4bh012rcd13ifvqd10","pricing_plan_id":"cebpf4jnsgd1na2vs0mg"},{"bike_id":"5407fece-b1e5-43a9-86e2-b54a7e31d89d","system_id":"levelo_inurba_marseille","lat":43.26204,"lon":5.37452,"is_reserved":false,"is_disabled":false,"rental_uris":{"android":"levelo://app?vid=5407fece-b1e5-43a9-86e2-b54a7e31d89d","ios":"levelo://app?vid=5407fece-b1e5-43a9-86e2-b54a7e31d89d"},"vehicle_type_id":"4","last_reported":1767943057,"current_range_meters":5600,"station_id":"ce4bhgp2rcd13ifvqfc0","pricing_plan_id":"cebpf4jnsgd1na2vs0mg"},{"bike_id":"3b23b54b-4b37-4bff-b135-f439977afa85","system_id":"levelo_inurba_marseille","lat":43.26379,"lon":5.4109,"is_reserved":false,"is_disabled":false,"rental_uris":{"android":"levelo://app?vid=3b23b54b-4b37-4bff-b135-f439977afa85","ios":"levelo://app?vid=3b23b54b-4b37-4bff-b135-f439977afa85"},"vehicle_type_id":"4","last_reported":1767943057,"current_range_meters":5600,"station_id":"st_d4e5ca6na9uc73bfl5fg","pricing_plan_id":"cebpf4jnsgd1na2vs0mg"},{"bike_id":"25c8d4c0-fd91-4199-89e8-3326d427edbe","system_id":"levelo_inurba_marseille","lat":43.29723,"lon":5.37721,"is_reserved":false,"is_disabled":false,"rental_uris":{"android":"levelo://app?vid=25c8d4c0-fd91-4199-89e8-3326d427edbe","ios":"levelo://app?vid=25c8d4c0-fd91-4199-89e8-3326d427edbe"},"vehicle_type_id":"4","last_reported":1767943057,"current_range_meters":5600,"station_id":"ce4bgkh2rcd13ifvqbl0","pricing_plan_id":"cebpf4jnsgd1na2vs0mg"},{"bike_id":"8ee270fc-231b-4fa0-a80b-86eeca775b2d","system_id":"levelo_inurba_marseille","lat":43.31894,"lon":5.40751,"is_reserved":false,"is_disabled":false,"rental_uris":{"android":"levelo://app?vid=8ee270fc-231b-4fa0-a80b-86eeca775b2d","ios":"levelo://app?vid=8ee270fc-231b-4fa0-a80b-86eeca775b2d"},"vehicle_type_id":"4","last_reported":1767943057,"current_range_meters":5600,"station_id":"ce4bhq12rcd13ifvqhig","pricing_plan_id":"cebpf4jnsgd1na2vs0mg"},{"bike_id":"7079bdb2-fe45-4309-a762-84cee8c3e4fd","system_id":"levelo_inurba_marseille","lat":43.26536,"lon":5.37279,"is_reserved":false,"is_disabled":false,"rental_uris":{"android":"levelo://app?vid=7079bdb2-fe45-4309-a762-84cee8c3e4fd","ios":"levelo://app?vid=7079bdb2-fe45-4309-a762-84cee8c3e4fd"},"vehicle_type_id":"4","last_reported":1767943057,"current_range_meters":5600,"station_id":"ce4bhg12rcd13ifvqf70","pricing_plan_id":"cebpf4jnsgd1na2vs0mg"},{"bike_id":"35a19685-6196-4a2f-a2f5-11ccfe968eb4","system_id":"levelo_inurba_marseille","lat":43.30919,"lon":5.40151,"is_reserved":false,"is_disabled":false,"rental_uris":{"android":"levelo://app?vid=35a19685-6196-4a2f-a2f5-11ccfe968eb4","ios":"levelo://app?vid=35a19685-6196-4a2f-a2f5-11ccfe968eb4"},"vehicle_type_id":"4","last_reported":1767943057,"current_range_meters":5600,"station_id":"ce4bgvp2rcd13ifvqct0","pricing_plan_id":"cebpf4jnsgd1na2vs0mg"},{"bike_id":"e412bd1f-9559-40df-baea-da06ff8409ea","system_id":"levelo_inurba_marseille","lat":43.31045,"lon":5.37192,"is_reserved":false,"is_disabled":true,"rental_uris":{"android":"levelo://app?vid=e412bd1f-9559-40df-baea-da06ff8409ea","ios":"levelo://app?vid=e412bd1f-9559-40df-baea-da06ff8409ea"},"vehicle_type_id":"4","last_reported":1767943057,"current_range_meters":5600,"station_id":"st_d4kl2rp97mjs73e7tdfg","pricing_plan_id":"cebpf4jnsgd1na2vs0mg"},{"bike_id":"8ddd903e-4b58-445b-933d-a20697560094","system_id":"levelo_inurba_marseille","lat":43.33406,"lon":5.40052,"is_reserved":false,"is_disabled":false,"rental_uris":{"android":"levelo://app?vid=8ddd903e-4b58-445b-933d-a20697560094","ios":"levelo://app?vid=8ddd903e-4b58-445b-933d-a20697560094"},"vehicle_type_id":"4","last_reported":1767943057,"current_range_meters":5600,"station_id":"","pricing_plan_id":"cebpf4jnsgd1na2vs0mg"},{"bike_id":"57997491-6d3e-482c-9d76-5c92688e72f6","system_id":"levelo_inurba_marseille","lat":43.304646,"lon":5.379105,"is_reserved":false,"is_disabled":false,"rental_uris":{"android":"levelo://app?vid=57997491-6d3e-482c-9d76-5c92688e72f6","ios":"levelo://app?vid=57997491-6d3e-482c-9d76-5c92688e72f6"},"vehicle_type_id":"4","last_reported":1767943057,"current_range_meters":5600,"station_id":"ce4bgv12rcd13ifvqcp0","pricing_plan_id":"cebpf4jnsgd1na2vs0mg"},{"bike_id":"d1da6efe-850d-40dc-ab1a-ce4ecb2d89c2","system_id":"levelo_inurba_marseille","lat":43.23186,"lon":5.39996,"is_reserved":false,"is_disabled":false,"rental_uris":{"android":"levelo://app?vid=d1da6efe-850d-40dc-ab1a-ce4ecb2d89c2","ios":"levelo://app?vid=d1da6efe-850d-40dc-ab1a-ce4ecb2d89c2"},"vehicle_type_id":"4","last_reported":1767943057,"current_range_meters":5600,"station_id":"ce4bhn12rcd13ifvqgqg","pricing_plan_id":"cebpf4jnsgd1na2vs0mg"},{"bike_id":"92ec400a-1816-464b-b776-d8ae8599bbc7","system_id":"levelo_inurba_marseille","lat":43.25599,"lon":5.38205,"is_reserved":false,"is_disabled":false,"rental_uris":{"android":"levelo://app?vid=92ec400a-1816-464b-b776-d8ae8599bbc7","ios":"levelo://app?vid=92ec400a-1816-464b-b776-d8ae8599bbc7"},"vehicle_type_id":"4","last_reported":1767943057,"current_range_meters":6000,"station_id":"ce4bhih2rcd13ifvqfs0","pricing_plan_id":"cebpf4jnsgd1na2vs0mg"},{"bike_id":"8f870c12-c0c3-4b7a-8d0a-24f628ad1788","system_id":"levelo_inurba_marseille","lat":43.31004,"lon":5.37963,"is_reserved":false,"is_disabled":false,"rental_uris":{"android":"levelo://app?vid=8f870c12-c0c3-4b7a-8d0a-24f628ad1788","ios":"levelo://app?vid=8f870c12-c0c3-4b7a-8d0a-24f628ad1788"},"vehicle_type_id":"4","last_reported":1767943057,"current_range_meters":6000,"station_id":"","pricing_plan_id":"cebpf4jnsgd1na2vs0mg"},{"bike_id":"98dc7c1c-3a5e-42a5-9270-a7d4dc83e61a","system_id":"levelo_inurba_marseille","lat":43.29531,"lon":5.37493,"is_reserved":false,"is_disabled":true,"rental_uris":{"android":"levelo://app?vid=98dc7c1c-3a5e-42a5-9270-a7d4dc83e61a","ios":"levelo://app?vid=98dc7c1c-3a5e-42a5-9270-a7d4dc83e61a"},"vehicle_type_id":"4","last_reported":1767943057,"current_range_meters":6000,"station_id":"ce4bgkp2rcd13ifvqbmg","pricing_plan_id":"cebpf4jnsgd1na2vs0mg"},{"bike_id":"919b15c7-f6dc-4085-8719-a8f579d2184e","system_id":"levelo_inurba_marseille","lat":43.273729,"lon":5.362593,"is_reserved":false,"is_disabled":false,"rental_uris":{"android":"levelo://app?vid=919b15c7-f6dc-4085-8719-a8f579d2184e","ios":"levelo://app?vid=919b15c7-f6dc-4085-8719-a8f579d2184e"},"vehicle_type_id":"4","last_reported":1767943057,"current_range_meters":6000,"station_id":"ce4bhbh2rcd13ifvqeo0","pricing_plan_id":"cebpf4jnsgd1na2vs0mg"},{"bike_id":"fd42f689-ee12-4ab7-90b1-ea6a200ccc0d","system_id":"levelo_inurba_marseille","lat":43.29647,"lon":5.378,"is_reserved":false,"is_disabled":false,"rental_uris":{"android":"levelo://app?vid=fd42f689-ee12-4ab7-90b1-ea6a200ccc0d","ios":"levelo://app?vid=fd42f689-ee12-4ab7-90b1-ea6a200ccc0d"},"vehicle_type_id":"4","last_reported":1767943057,"current_range_meters":6000,"station_id":"","pricing_plan_id":"cebpf4jnsgd1na2vs0mg"},{"bike_id":"00bf2578-c2e7-4693-bdfc-aa0da096cebc","system_id":"levelo_inurba_marseille","lat":43.2533,"lon":5.42162,"is_reserved":false,"is_disabled":false,"rental_uris":{"android":"levelo://app?vid=00bf2578-c2e7-4693-bdfc-aa0da096cebc","ios":"levelo://app?vid=00bf2578-c2e7-4693-bdfc-aa0da096cebc"},"vehicle_type_id":"4","last_reported":1767943057,"current_range_meters":6000,"station_id":"st_d2m65c5bi1j21697t3ng","pricing_plan_id":"cebpf4jnsgd1na2vs0mg"},{"bike_id":"e41d8bea-ffd2-440d-b446-b472b1d04e4d","system_id":"levelo_inurba_marseille","lat":43.239535,"lon":5.366281,"is_reserved":false,"is_disabled":false,"rental_uris":{"android":"levelo://app?vid=e41d8bea-ffd2-440d-b446-b472b1d04e4d","ios":"levelo://app?vid=e41d8bea-ffd2-440d-b446-b472b1d04e4d"},"vehicle_type_id":"4","last_reported":1767943057,"current_range_meters":6000,"station_id":"ce4bhi12rcd13ifvqfp0","pricing_plan_id":"cebpf4jnsgd1na2vs0mg"},{"bike_id":"ac64f432-9ab8-4dd9-b132-5f28fccbe7fd","system_id":"levelo_inurba_marseille","lat":43.30549,"lon":5.36704,"is_reserved":false,"is_disabled":false,"rental_uris":{"android":"levelo://app?vid=ac64f432-9ab8-4dd9-b132-5f28fccbe7fd","ios":"levelo://app?vid=ac64f432-9ab8-4dd9-b132-5f28fccbe7fd"},"vehicle_type_id":"4","last_reported":1767943057,"current_range_meters":6000,"station_id":"ce4bgrp2rcd13ifvqc9g","pricing_plan_id":"cebpf4jnsgd1na2vs0mg"},{"bike_id":"617ca6f2-1481-4c5f-a165-87db9947444a","system_id":"levelo_inurba_marseille","lat":43.284796,"lon":5.483883,"is_reserved":false,"is_disabled":false,"rental_uris":{"android":"levelo://app?vid=617ca6f2-1481-4c5f-a165-87db9947444a","ios":"levelo://app?vid=617ca6f2-1481-4c5f-a165-87db9947444a"},"vehicle_type_id":"4","last_reported":1767943057,"current_range_meters":6000,"station_id":"st_d3svhcjqgbts73a3dn0g","pricing_plan_id":"cebpf4jnsgd1na2vs0mg"},{"bike_id":"9490b0a7-c0e4-4b73-bab8-6508165586af","system_id":"levelo_inurba_marseille","lat":43.24951,"lon":5.40492,"is_reserved":false,"is_disabled":false,"rental_uris":{"android":"levelo://app?vid=9490b0a7-c0e4-4b73-bab8-6508165586af","ios":"levelo://app?vid=9490b0a7-c0e4-4b73-bab8-6508165586af"},"vehicle_type_id":"4","last_reported":1767943057,"current_range_meters":6000,"station_id":"st_d2ngiaodas8pm72gd1h0","pricing_plan_id":"cebpf4jnsgd1na2vs0mg"},{"bike_id":"bb0e890d-0506-44f5-a8d9-b29bad87de2a","system_id":"levelo_inurba_marseille","lat":43.24158,"lon":5.36399,"is_reserved":false,"is_disabled":false,"rental_uris":{"android":"levelo://app?vid=bb0e890d-0506-44f5-a8d9-b29bad87de2a","ios":"levelo://app?vid=bb0e890d-0506-44f5-a8d9-b29bad87de2a"},"vehicle_type_id":"4","last_reported":1767943057,"current_range_meters":6000,"station_id":"cpo36qri1sfpv3e86is0","pricing_plan_id":"cebpf4jnsgd1na2vs0mg"},{"bike_id":"fa99c4ad-c02a-4d08-a929-1ee6d535f8ed","system_id":"levelo_inurba_marseille","lat":43.273703,"lon":5.362598,"is_reserved":false,"is_disabled":false,"rental_uris":{"android":"levelo://app?vid=fa99c4ad-c02a-4d08-a929-1ee6d535f8ed","ios":"levelo://app?vid=fa99c4ad-c02a-4d08-a929-1ee6d535f8ed"},"vehicle_type_id":"4","last_reported":1767943057,"current_range_meters":6000,"station_id":"ce4bhbh2rcd13ifvqeo0","pricing_plan_id":"cebpf4jnsgd1na2vs0mg"},{"bike_id":"94a6901e-f050-4dbd-8990-b774d466a29a","system_id":"levelo_inurba_marseille","lat":43.32105,"lon":5.36779,"is_reserved":false,"is_disabled":false,"rental_uris":{"android":"levelo://app?vid=94a6901e-f050-4dbd-8990-b774d466a29a","ios":"levelo://app?vid=94a6901e-f050-4dbd-8990-b774d466a29a"},"vehicle_type_id":"4","last_reported":1767943057,"current_range_meters":6000,"station_id":"ce4bhrh2rcd13ifvqhug","pricing_plan_id":"cebpf4jnsgd1na2vs0mg"},{"bike_id":"ef83cfc4-1cbb-4f2c-8e21-d450d04201c5","system_id":"levelo_inurba_marseille","lat":43.258129,"lon":5.394385,"is_reserved":false,"is_disabled":false,"rental_uris":{"android":"levelo://app?vid=ef83cfc4-1cbb-4f2c-8e21-d450d04201c5","ios":"levelo://app?vid=ef83cfc4-1cbb-4f2c-8e21-d450d04201c5"},"vehicle_type_id":"4","last_reported":1767943057,"current_range_meters":6000,"station_id":"ce4bhm92rcd13ifvqglg","pricing_plan_id":"cebpf4jnsgd1na2vs0mg"},{"bike_id":"c87a2b3a-1a74-4d63-af20-4f594b888de7","system_id":"levelo_inurba_marseille","lat":43.28723,"lon":5.37916,"is_reserved":false,"is_disabled":false,"rental_uris":{"android":"levelo://app?vid=c87a2b3a-1a74-4d63-af20-4f594b888de7","ios":"levelo://app?vid=c87a2b3a-1a74-4d63-af20-4f594b888de7"},"vehicle_type_id":"4","last_reported":1767943057,"current_range_meters":6000,"station_id":"ce4bh9p2rcd13ifvqec0","pricing_plan_id":"cebpf4jnsgd1na2vs0mg"},{"bike_id":"8aba30f8-907a-4a45-af36-097fb37e6019","system_id":"levelo_inurba_marseille","lat":43.30252,"lon":5.40082,"is_reserved":false,"is_disabled":false,"rental_uris":{"android":"levelo://app?vid=8aba30f8-907a-4a45-af36-097fb37e6019","ios":"levelo://app?vid=8aba30f8-907a-4a45-af36-097fb37e6019"},"vehicle_type_id":"4","last_reported":1767943057,"current_range_meters":6000,"station_id":"ce4bgvh2rcd13ifvqcs0","pricing_plan_id":"cebpf4jnsgd1na2vs0mg"},{"bike_id":"ca029dba-79f5-484b-846c-15f5c06c0952","system_id":"levelo_inurba_marseille","lat":43.29222,"lon":5.36076,"is_reserved":false,"is_disabled":false,"rental_uris":{"android":"levelo://app?vid=ca029dba-79f5-484b-846c-15f5c06c0952","ios":"levelo://app?vid=ca029dba-79f5-484b-846c-15f5c06c0952"},"vehicle_type_id":"4","last_reported":1767943057,"current_range_meters":6000,"station_id":"ce4bhbh2rcd13ifvqeqg","pricing_plan_id":"cebpf4jnsgd1na2vs0mg"},{"bike_id":"87871899-387c-48e0-8ac8-f4aa24731241","system_id":"levelo_inurba_marseille","lat":43.28484,"lon":5.38425,"is_reserved":false,"is_disabled":false,"rental_uris":{"android":"levelo://app?vid=87871899-387c-48e0-8ac8-f4aa24731241","ios":"levelo://app?vid=87871899-387c-48e0-8ac8-f4aa24731241"},"vehicle_type_id":"4","last_reported":1767943057,"current_range_meters":6400,"station_id":"ce4bh512rcd13ifvqe3g","pricing_plan_id":"cebpf4jnsgd1na2vs0mg"},{"bike_id":"528852f0-b3e1-4361-91fd-d35d5de704d7","system_id":"levelo_inurba_marseille","lat":43.255086,"lon":5.376608,"is_reserved":false,"is_disabled":false,"rental_uris":{"android":"levelo://app?vid=528852f0-b3e1-4361-91fd-d35d5de704d7","ios":"levelo://app?vid=528852f0-b3e1-4361-91fd-d35d5de704d7"},"vehicle_type_id":"4","last_reported":1767943057,"current_range_meters":6400,"station_id":"ce4bhh12rcd13ifvqff0","pricing_plan_id":"cebpf4jnsgd1na2vs0mg"},{"bike_id":"6df19930-e3eb-4eb3-9a45-a01da3418078","system_id":"levelo_inurba_marseille","lat":43.25823,"lon":5.39431,"is_reserved":false,"is_disabled":false,"rental_uris":{"android":"levelo://app?vid=6df19930-e3eb-4eb3-9a45-a01da3418078","ios":"levelo://app?vid=6df19930-e3eb-4eb3-9a45-a01da3418078"},"vehicle_type_id":"4","last_reported":1767943057,"current_range_meters":6400,"station_id":"ce4bhip2rcd13ifvqft0","pricing_plan_id":"cebpf4jnsgd1na2vs0mg"},{"bike_id":"35bc93a6-6f9c-416a-8b7f-3420f66213d3","system_id":"levelo_inurba_marseille","lat":43.24142,"lon":5.36427,"is_reserved":false,"is_disabled":false,"rental_uris":{"android":"levelo://app?vid=35bc93a6-6f9c-416a-8b7f-3420f66213d3","ios":"levelo://app?vid=35bc93a6-6f9c-416a-8b7f-3420f66213d3"},"vehicle_type_id":"4","last_reported":1767943057,"current_range_meters":6400,"station_id":"cpo36qri1sfpv3e86is0","pricing_plan_id":"cebpf4jnsgd1na2vs0mg"},{"bike_id":"c3c1f2ac-afb8-4ee3-8aa5-6687f610d70e","system_id":"levelo_inurba_marseille","lat":43.29577,"lon":5.37648,"is_reserved":false,"is_disabled":false,"rental_uris":{"android":"levelo://app?vid=c3c1f2ac-afb8-4ee3-8aa5-6687f610d70e","ios":"levelo://app?vid=c3c1f2ac-afb8-4ee3-8aa5-6687f610d70e"},"vehicle_type_id":"4","last_reported":1767943057,"current_range_meters":6400,"station_id":"","pricing_plan_id":"cebpf4jnsgd1na2vs0mg"},{"bike_id":"88436fbc-a867-41fd-9af6-6ae673233f14","system_id":"levelo_inurba_marseille","lat":43.24546,"lon":5.39522,"is_reserved":false,"is_disabled":false,"rental_uris":{"android":"levelo://app?vid=88436fbc-a867-41fd-9af6-6ae673233f14","ios":"levelo://app?vid=88436fbc-a867-41fd-9af6-6ae673233f14"},"vehicle_type_id":"4","last_reported":1767943057,"current_range_meters":6400,"station_id":"ce4bhlp2rcd13ifvqgjg","pricing_plan_id":"cebpf4jnsgd1na2vs0mg"},{"bike_id":"00352e05-4548-41f0-b7b3-bf74dc835bdc","system_id":"levelo_inurba_marseille","lat":43.31337,"lon":5.38459,"is_reserved":false,"is_disabled":false,"rental_uris":{"android":"levelo://app?vid=00352e05-4548-41f0-b7b3-bf74dc835bdc","ios":"levelo://app?vid=00352e05-4548-41f0-b7b3-bf74dc835bdc"},"vehicle_type_id":"4","last_reported":1767943057,"current_range_meters":6400,"station_id":"ce4bgt92rcd13ifvqcf0","pricing_plan_id":"cebpf4jnsgd1na2vs0mg"},{"bike_id":"57656998-3f15-4c97-8d73-d35acd8d34a5","system_id":"levelo_inurba_marseille","lat":43.26212,"lon":5.37439,"is_reserved":false,"is_disabled":false,"rental_uris":{"android":"levelo://app?vid=57656998-3f15-4c97-8d73-d35acd8d34a5","ios":"levelo://app?vid=57656998-3f15-4c97-8d73-d35acd8d34a5"},"vehicle_type_id":"4","last_reported":1767943057,"current_range_meters":6400,"station_id":"ce4bhgp2rcd13ifvqfc0","pricing_plan_id":"cebpf4jnsgd1na2vs0mg"},{"bike_id":"52c545a6-4990-49e9-b5f1-ef579ddc71f3","system_id":"levelo_inurba_marseille","lat":43.25566,"lon":5.38231,"is_reserved":false,"is_disabled":false,"rental_uris":{"android":"levelo://app?vid=52c545a6-4990-49e9-b5f1-ef579ddc71f3","ios":"levelo://app?vid=52c545a6-4990-49e9-b5f1-ef579ddc71f3"},"vehicle_type_id":"4","last_reported":1767943057,"current_range_meters":6400,"station_id":"ce4bhih2rcd13ifvqfs0","pricing_plan_id":"cebpf4jnsgd1na2vs0mg"},{"bike_id":"ce3cc1d9-9ec8-4064-92e2-4915f0b7e6ce","system_id":"levelo_inurba_marseille","lat":43.24632,"lon":5.43148,"is_reserved":false,"is_disabled":false,"rental_uris":{"android":"levelo://app?vid=ce3cc1d9-9ec8-4064-92e2-4915f0b7e6ce","ios":"levelo://app?vid=ce3cc1d9-9ec8-4064-92e2-4915f0b7e6ce"},"vehicle_type_id":"4","last_reported":1767943057,"current_range_meters":6400,"station_id":"st_d2m6c4gdas8pm72e190g","pricing_plan_id":"cebpf4jnsgd1na2vs0mg"},{"bike_id":"18afe1b5-d903-471c-9912-7f7a549b58cf","system_id":"levelo_inurba_marseille","lat":43.32118,"lon":5.36807,"is_reserved":false,"is_disabled":false,"rental_uris":{"android":"levelo://app?vid=18afe1b5-d903-471c-9912-7f7a549b58cf","ios":"levelo://app?vid=18afe1b5-d903-471c-9912-7f7a549b58cf"},"vehicle_type_id":"4","last_reported":1767943057,"current_range_meters":6400,"station_id":"ce4bhrh2rcd13ifvqhug","pricing_plan_id":"cebpf4jnsgd1na2vs0mg"},{"bike_id":"ff952794-f6da-4471-9ec2-f667cbadd91a","system_id":"levelo_inurba_marseille","lat":43.241,"lon":5.377,"is_reserved":false,"is_disabled":false,"rental_uris":{"android":"levelo://app?vid=ff952794-f6da-4471-9ec2-f667cbadd91a","ios":"levelo://app?vid=ff952794-f6da-4471-9ec2-f667cbadd91a"},"vehicle_type_id":"4","last_reported":1767943057,"current_range_meters":6400,"station_id":"","pricing_plan_id":"cebpf4jnsgd1na2vs0mg"},{"bike_id":"a76c3cca-0b55-4bb3-a27f-9c1202d23218","system_id":"levelo_inurba_marseille","lat":43.27797,"lon":5.4072,"is_reserved":false,"is_disabled":false,"rental_uris":{"android":"levelo://app?vid=a76c3cca-0b55-4bb3-a27f-9c1202d23218","ios":"levelo://app?vid=a76c3cca-0b55-4bb3-a27f-9c1202d23218"},"vehicle_type_id":"4","last_reported":1767943057,"current_range_meters":6400,"station_id":"ce4bhnh2rcd13ifvqgtg","pricing_plan_id":"cebpf4jnsgd1na2vs0mg"},{"bike_id":"91bccf3c-f690-48b4-b144-369e46790523","system_id":"levelo_inurba_marseille","lat":43.29228,"lon":5.36064,"is_reserved":false,"is_disabled":false,"rental_uris":{"android":"levelo://app?vid=91bccf3c-f690-48b4-b144-369e46790523","ios":"levelo://app?vid=91bccf3c-f690-48b4-b144-369e46790523"},"vehicle_type_id":"4","last_reported":1767943057,"current_range_meters":6400,"station_id":"ce4bhbh2rcd13ifvqeqg","pricing_plan_id":"cebpf4jnsgd1na2vs0mg"},{"bike_id":"31447a0e-5f20-40ed-81c7-81b3e7eb8db6","system_id":"levelo_inurba_marseille","lat":43.31363,"lon":5.38587,"is_reserved":false,"is_disabled":false,"rental_uris":{"android":"levelo://app?vid=31447a0e-5f20-40ed-81c7-81b3e7eb8db6","ios":"levelo://app?vid=31447a0e-5f20-40ed-81c7-81b3e7eb8db6"},"vehicle_type_id":"4","last_reported":1767943057,"current_range_meters":6400,"station_id":"","pricing_plan_id":"cebpf4jnsgd1na2vs0mg"},{"bike_id":"02fbedcf-0ea4-4d04-a895-b6fc85e856b0","system_id":"levelo_inurba_marseille","lat":43.239617,"lon":5.366342,"is_reserved":false,"is_disabled":false,"rental_uris":{"android":"levelo://app?vid=02fbedcf-0ea4-4d04-a895-b6fc85e856b0","ios":"levelo://app?vid=02fbedcf-0ea4-4d04-a895-b6fc85e856b0"},"vehicle_type_id":"4","last_reported":1767943057,"current_range_meters":6400,"station_id":"ce4bhi12rcd13ifvqfp0","pricing_plan_id":"cebpf4jnsgd1na2vs0mg"},{"bike_id":"571ac46c-c09d-448b-985a-7beda82b850e","system_id":"levelo_inurba_marseille","lat":43.25422,"lon":5.42183,"is_reserved":false,"is_disabled":false,"rental_uris":{"android":"levelo://app?vid=571ac46c-c09d-448b-985a-7beda82b850e","ios":"levelo://app?vid=571ac46c-c09d-448b-985a-7beda82b850e"},"vehicle_type_id":"4","last_reported":1767943057,"current_range_meters":6400,"station_id":"","pricing_plan_id":"cebpf4jnsgd1na2vs0mg"},{"bike_id":"1ec94ba1-41d1-4288-80e5-6a131d1cb21d","system_id":"levelo_inurba_marseille","lat":43.253345,"lon":5.42173,"is_reserved":false,"is_disabled":false,"rental_uris":{"android":"levelo://app?vid=1ec94ba1-41d1-4288-80e5-6a131d1cb21d","ios":"levelo://app?vid=1ec94ba1-41d1-4288-80e5-6a131d1cb21d"},"vehicle_type_id":"4","last_reported":1767943057,"current_range_meters":6400,"station_id":"st_d2m65c5bi1j21697t3ng","pricing_plan_id":"cebpf4jnsgd1na2vs0mg"},{"bike_id":"66f67598-2018-40a7-a9e5-3a1c95b88666","system_id":"levelo_inurba_marseille","lat":43.287325,"lon":5.360782,"is_reserved":false,"is_disabled":false,"rental_uris":{"android":"levelo://app?vid=66f67598-2018-40a7-a9e5-3a1c95b88666","ios":"levelo://app?vid=66f67598-2018-40a7-a9e5-3a1c95b88666"},"vehicle_type_id":"4","last_reported":1767943057,"current_range_meters":6400,"station_id":"cki0cbj6b192h4jlfktg","pricing_plan_id":"cebpf4jnsgd1na2vs0mg"},{"bike_id":"755fddff-196e-4df8-9ed5-b269f8727526","system_id":"levelo_inurba_marseille","lat":43.271931,"lon":5.410003,"is_reserved":false,"is_disabled":false,"rental_uris":{"android":"levelo://app?vid=755fddff-196e-4df8-9ed5-b269f8727526","ios":"levelo://app?vid=755fddff-196e-4df8-9ed5-b269f8727526"},"vehicle_type_id":"4","last_reported":1767943057,"current_range_meters":6400,"station_id":"ce4bhl12rcd13ifvqgf0","pricing_plan_id":"cebpf4jnsgd1na2vs0mg"},{"bike_id":"ce1a06cb-ba22-4a53-8942-1590e42f6244","system_id":"levelo_inurba_marseille","lat":43.305961,"lon":5.393615,"is_reserved":false,"is_disabled":false,"rental_uris":{"android":"levelo://app?vid=ce1a06cb-ba22-4a53-8942-1590e42f6244","ios":"levelo://app?vid=ce1a06cb-ba22-4a53-8942-1590e42f6244"},"vehicle_type_id":"4","last_reported":1767943057,"current_range_meters":6400,"station_id":"","pricing_plan_id":"cebpf4jnsgd1na2vs0mg"},{"bike_id":"a7797131-7cf7-4206-a200-4e16abaaf694","system_id":"levelo_inurba_marseille","lat":43.28441,"lon":5.3918,"is_reserved":false,"is_disabled":false,"rental_uris":{"android":"levelo://app?vid=a7797131-7cf7-4206-a200-4e16abaaf694","ios":"levelo://app?vid=a7797131-7cf7-4206-a200-4e16abaaf694"},"vehicle_type_id":"4","last_reported":1767943057,"current_range_meters":6400,"station_id":"ce4bhoh2rcd13ifvqh5g","pricing_plan_id":"cebpf4jnsgd1na2vs0mg"},{"bike_id":"8c90c973-d813-4351-b024-6a22ded6d260","system_id":"levelo_inurba_marseille","lat":43.323492,"lon":5.367313,"is_reserved":false,"is_disabled":false,"rental_uris":{"android":"levelo://app?vid=8c90c973-d813-4351-b024-6a22ded6d260","ios":"levelo://app?vid=8c90c973-d813-4351-b024-6a22ded6d260"},"vehicle_type_id":"4","last_reported":1767943057,"current_range_meters":6400,"station_id":"ce4bhsh2rcd13ifvqi2g","pricing_plan_id":"cebpf4jnsgd1na2vs0mg"},{"bike_id":"845bee73-fea8-4b21-9671-09bb9a36c361","system_id":"levelo_inurba_marseille","lat":43.2508,"lon":5.39516,"is_reserved":false,"is_disabled":false,"rental_uris":{"android":"levelo://app?vid=845bee73-fea8-4b21-9671-09bb9a36c361","ios":"levelo://app?vid=845bee73-fea8-4b21-9671-09bb9a36c361"},"vehicle_type_id":"4","last_reported":1767943057,"current_range_meters":6400,"station_id":"ce4bhm12rcd13ifvqgkg","pricing_plan_id":"cebpf4jnsgd1na2vs0mg"},{"bike_id":"3bf819a9-2891-4288-b01d-580df0ae67c2","system_id":"levelo_inurba_marseille","lat":43.240705,"lon":5.377627,"is_reserved":false,"is_disabled":false,"rental_uris":{"android":"levelo://app?vid=3bf819a9-2891-4288-b01d-580df0ae67c2","ios":"levelo://app?vid=3bf819a9-2891-4288-b01d-580df0ae67c2"},"vehicle_type_id":"4","last_reported":1767943057,"current_range_meters":6400,"station_id":"ce4bhnp2rcd13ifvqgvg","pricing_plan_id":"cebpf4jnsgd1na2vs0mg"},{"bike_id":"df8ff779-90c8-4b65-a5d0-99687c060dae","system_id":"levelo_inurba_marseille","lat":43.32349,"lon":5.36746,"is_reserved":false,"is_disabled":false,"rental_uris":{"android":"levelo://app?vid=df8ff779-90c8-4b65-a5d0-99687c060dae","ios":"levelo://app?vid=df8ff779-90c8-4b65-a5d0-99687c060dae"},"vehicle_type_id":"4","last_reported":1767943057,"current_range_meters":6400,"station_id":"ce4bhsh2rcd13ifvqi2g","pricing_plan_id":"cebpf4jnsgd1na2vs0mg"},{"bike_id":"748e6a5e-97a9-489d-8fdc-20f62045411a","system_id":"levelo_inurba_marseille","lat":43.28885,"lon":5.39686,"is_reserved":false,"is_disabled":false,"rental_uris":{"android":"levelo://app?vid=748e6a5e-97a9-489d-8fdc-20f62045411a","ios":"levelo://app?vid=748e6a5e-97a9-489d-8fdc-20f62045411a"},"vehicle_type_id":"4","last_reported":1767943057,"current_range_meters":6400,"station_id":"","pricing_plan_id":"cebpf4jnsgd1na2vs0mg"},{"bike_id":"4a17308d-76c5-4b91-a55b-3ce8529ea7b8","system_id":"levelo_inurba_marseille","lat":43.32722,"lon":5.39252,"is_reserved":false,"is_disabled":false,"rental_uris":{"android":"levelo://app?vid=4a17308d-76c5-4b91-a55b-3ce8529ea7b8","ios":"levelo://app?vid=4a17308d-76c5-4b91-a55b-3ce8529ea7b8"},"vehicle_type_id":"4","last_reported":1767943057,"current_range_meters":6400,"station_id":"","pricing_plan_id":"cebpf4jnsgd1na2vs0mg"},{"bike_id":"207c1b32-ebc4-4783-ae0b-e370ada0350c","system_id":"levelo_inurba_marseille","lat":43.3062,"lon":5.39309,"is_reserved":false,"is_disabled":false,"rental_uris":{"android":"levelo://app?vid=207c1b32-ebc4-4783-ae0b-e370ada0350c","ios":"levelo://app?vid=207c1b32-ebc4-4783-ae0b-e370ada0350c"},"vehicle_type_id":"4","last_reported":1767943057,"current_range_meters":6400,"station_id":"","pricing_plan_id":"cebpf4jnsgd1na2vs0mg"},{"bike_id":"9b21fb58-1ca0-4226-bc9d-2eb45c91c4c6","system_id":"levelo_inurba_marseille","lat":43.22553,"lon":5.41619,"is_reserved":false,"is_disabled":false,"rental_uris":{"android":"levelo://app?vid=9b21fb58-1ca0-4226-bc9d-2eb45c91c4c6","ios":"levelo://app?vid=9b21fb58-1ca0-4226-bc9d-2eb45c91c4c6"},"vehicle_type_id":"4","last_reported":1767943057,"current_range_meters":6400,"station_id":"st_d2o4gvlbi1j2169b742g","pricing_plan_id":"cebpf4jnsgd1na2vs0mg"},{"bike_id":"51c6a9dd-af05-408b-83ce-2013893e5661","system_id":"levelo_inurba_marseille","lat":43.31754,"lon":5.39005,"is_reserved":false,"is_disabled":false,"rental_uris":{"android":"levelo://app?vid=51c6a9dd-af05-408b-83ce-2013893e5661","ios":"levelo://app?vid=51c6a9dd-af05-408b-83ce-2013893e5661"},"vehicle_type_id":"4","last_reported":1767943057,"current_range_meters":6400,"station_id":"ce4bhqp2rcd13ifvqhng","pricing_plan_id":"cebpf4jnsgd1na2vs0mg"},{"bike_id":"0be2933b-3376-4854-8e8b-e51b6e23ecc1","system_id":"levelo_inurba_marseille","lat":43.292265,"lon":5.360651,"is_reserved":false,"is_disabled":false,"rental_uris":{"android":"levelo://app?vid=0be2933b-3376-4854-8e8b-e51b6e23ecc1","ios":"levelo://app?vid=0be2933b-3376-4854-8e8b-e51b6e23ecc1"},"vehicle_type_id":"4","last_reported":1767943057,"current_range_meters":6800,"station_id":"ce4bhbh2rcd13ifvqeqg","pricing_plan_id":"cebpf4jnsgd1na2vs0mg"},{"bike_id":"57aa5ac2-23db-4768-b571-1d1bb04178da","system_id":"levelo_inurba_marseille","lat":43.31036,"lon":5.37177,"is_reserved":false,"is_disabled":false,"rental_uris":{"android":"levelo://app?vid=57aa5ac2-23db-4768-b571-1d1bb04178da","ios":"levelo://app?vid=57aa5ac2-23db-4768-b571-1d1bb04178da"},"vehicle_type_id":"4","last_reported":1767943057,"current_range_meters":6800,"station_id":"st_d4kl2rp97mjs73e7tdfg","pricing_plan_id":"cebpf4jnsgd1na2vs0mg"},{"bike_id":"07ce38ef-b77b-4e60-8d32-d85f5b3b47f2","system_id":"levelo_inurba_marseille","lat":43.32358,"lon":5.3677,"is_reserved":false,"is_disabled":false,"rental_uris":{"android":"levelo://app?vid=07ce38ef-b77b-4e60-8d32-d85f5b3b47f2","ios":"levelo://app?vid=07ce38ef-b77b-4e60-8d32-d85f5b3b47f2"},"vehicle_type_id":"4","last_reported":1767943057,"current_range_meters":6800,"station_id":"ce4bhsh2rcd13ifvqi2g","pricing_plan_id":"cebpf4jnsgd1na2vs0mg"},{"bike_id":"79240f33-4a9c-4431-ac4a-e3c6cfd448c3","system_id":"levelo_inurba_marseille","lat":43.27991,"lon":5.4001,"is_reserved":false,"is_disabled":false,"rental_uris":{"android":"levelo://app?vid=79240f33-4a9c-4431-ac4a-e3c6cfd448c3","ios":"levelo://app?vid=79240f33-4a9c-4431-ac4a-e3c6cfd448c3"},"vehicle_type_id":"4","last_reported":1767943057,"current_range_meters":6800,"station_id":"ce4bho92rcd13ifvqh4g","pricing_plan_id":"cebpf4jnsgd1na2vs0mg"},{"bike_id":"fb8ebe22-05ca-4504-a2a2-5e92c8ef8e17","system_id":"levelo_inurba_marseille","lat":43.28729,"lon":5.360784,"is_reserved":false,"is_disabled":false,"rental_uris":{"android":"levelo://app?vid=fb8ebe22-05ca-4504-a2a2-5e92c8ef8e17","ios":"levelo://app?vid=fb8ebe22-05ca-4504-a2a2-5e92c8ef8e17"},"vehicle_type_id":"4","last_reported":1767943057,"current_range_meters":6800,"station_id":"cki0cbj6b192h4jlfktg","pricing_plan_id":"cebpf4jnsgd1na2vs0mg"},{"bike_id":"b2a3da8f-bf56-4eb9-9359-d00614059d44","system_id":"levelo_inurba_marseille","lat":43.29088,"lon":5.38102,"is_reserved":false,"is_disabled":false,"rental_uris":{"android":"levelo://app?vid=b2a3da8f-bf56-4eb9-9359-d00614059d44","ios":"levelo://app?vid=b2a3da8f-bf56-4eb9-9359-d00614059d44"},"vehicle_type_id":"4","last_reported":1767943057,"current_range_meters":6800,"station_id":"ce4bh512rcd13ifvqe2g","pricing_plan_id":"cebpf4jnsgd1na2vs0mg"},{"bike_id":"cb54f6e5-9911-4432-98fa-33b8ae0da364","system_id":"levelo_inurba_marseille","lat":43.26581,"lon":5.38988,"is_reserved":false,"is_disabled":false,"rental_uris":{"android":"levelo://app?vid=cb54f6e5-9911-4432-98fa-33b8ae0da364","ios":"levelo://app?vid=cb54f6e5-9911-4432-98fa-33b8ae0da364"},"vehicle_type_id":"4","last_reported":1767943057,"current_range_meters":6800,"station_id":"ce4bhe12rcd13ifvqf30","pricing_plan_id":"cebpf4jnsgd1na2vs0mg"},{"bike_id":"bd3e889b-ccc0-4909-843d-efebd6b00eb2","system_id":"levelo_inurba_marseille","lat":43.31054,"lon":5.37152,"is_reserved":false,"is_disabled":false,"rental_uris":{"android":"levelo://app?vid=bd3e889b-ccc0-4909-843d-efebd6b00eb2","ios":"levelo://app?vid=bd3e889b-ccc0-4909-843d-efebd6b00eb2"},"vehicle_type_id":"4","last_reported":1767943057,"current_range_meters":6800,"station_id":"st_d4kl2rp97mjs73e7tdfg","pricing_plan_id":"cebpf4jnsgd1na2vs0mg"},{"bike_id":"577b404b-63b1-4b8e-82e8-29162d5c26c7","system_id":"levelo_inurba_marseille","lat":43.32573,"lon":5.36493,"is_reserved":false,"is_disabled":false,"rental_uris":{"android":"levelo://app?vid=577b404b-63b1-4b8e-82e8-29162d5c26c7","ios":"levelo://app?vid=577b404b-63b1-4b8e-82e8-29162d5c26c7"},"vehicle_type_id":"4","last_reported":1767943057,"current_range_meters":6800,"station_id":"","pricing_plan_id":"cebpf4jnsgd1na2vs0mg"},{"bike_id":"5276ea7c-4ee8-41ee-a967-310d9fa70d4f","system_id":"levelo_inurba_marseille","lat":43.28727,"lon":5.37937,"is_reserved":false,"is_disabled":false,"rental_uris":{"android":"levelo://app?vid=5276ea7c-4ee8-41ee-a967-310d9fa70d4f","ios":"levelo://app?vid=5276ea7c-4ee8-41ee-a967-310d9fa70d4f"},"vehicle_type_id":"4","last_reported":1767943057,"current_range_meters":6800,"station_id":"ce4bh9p2rcd13ifvqec0","pricing_plan_id":"cebpf4jnsgd1na2vs0mg"},{"bike_id":"84be322d-3f5a-42b3-b4ff-9332fdae0ce8","system_id":"levelo_inurba_marseille","lat":43.33165,"lon":5.37704,"is_reserved":false,"is_disabled":false,"rental_uris":{"android":"levelo://app?vid=84be322d-3f5a-42b3-b4ff-9332fdae0ce8","ios":"levelo://app?vid=84be322d-3f5a-42b3-b4ff-9332fdae0ce8"},"vehicle_type_id":"4","last_reported":1767943057,"current_range_meters":6800,"station_id":"st_d46cu089ee8s73dldbu0","pricing_plan_id":"cebpf4jnsgd1na2vs0mg"},{"bike_id":"e4b543e4-7198-4112-93ae-6c25b36bd4a3","system_id":"levelo_inurba_marseille","lat":43.23777,"lon":5.36628,"is_reserved":false,"is_disabled":false,"rental_uris":{"android":"levelo://app?vid=e4b543e4-7198-4112-93ae-6c25b36bd4a3","ios":"levelo://app?vid=e4b543e4-7198-4112-93ae-6c25b36bd4a3"},"vehicle_type_id":"4","last_reported":1767943057,"current_range_meters":6800,"station_id":"st_d3nk18o9ro0c73en2l3g","pricing_plan_id":"cebpf4jnsgd1na2vs0mg"},{"bike_id":"6ced9933-a7b3-4fa1-aedd-aa0efe62c41a","system_id":"levelo_inurba_marseille","lat":43.2853,"lon":5.44098,"is_reserved":false,"is_disabled":false,"rental_uris":{"android":"levelo://app?vid=6ced9933-a7b3-4fa1-aedd-aa0efe62c41a","ios":"levelo://app?vid=6ced9933-a7b3-4fa1-aedd-aa0efe62c41a"},"vehicle_type_id":"4","last_reported":1767943057,"current_range_meters":6800,"station_id":"st_d3j3df2ikq2c7380ej80","pricing_plan_id":"cebpf4jnsgd1na2vs0mg"},{"bike_id":"a1e6a190-1622-47e5-b894-de8a4869158b","system_id":"levelo_inurba_marseille","lat":43.270092,"lon":5.387211,"is_reserved":false,"is_disabled":false,"rental_uris":{"android":"levelo://app?vid=a1e6a190-1622-47e5-b894-de8a4869158b","ios":"levelo://app?vid=a1e6a190-1622-47e5-b894-de8a4869158b"},"vehicle_type_id":"4","last_reported":1767943057,"current_range_meters":6800,"station_id":"ce4bhjp2rcd13ifvqg90","pricing_plan_id":"cebpf4jnsgd1na2vs0mg"},{"bike_id":"7a4121ad-9563-4e83-abfa-53a6ccaf8687","system_id":"levelo_inurba_marseille","lat":43.29278,"lon":5.40119,"is_reserved":false,"is_disabled":true,"rental_uris":{"android":"levelo://app?vid=7a4121ad-9563-4e83-abfa-53a6ccaf8687","ios":"levelo://app?vid=7a4121ad-9563-4e83-abfa-53a6ccaf8687"},"vehicle_type_id":"4","last_reported":1767943057,"current_range_meters":6800,"station_id":"ce4bh312rcd13ifvqdk0","pricing_plan_id":"cebpf4jnsgd1na2vs0mg"},{"bike_id":"da10a0db-4447-469a-95b9-b9e9c6623f5d","system_id":"levelo_inurba_marseille","lat":43.26298,"lon":5.39697,"is_reserved":false,"is_disabled":false,"rental_uris":{"android":"levelo://app?vid=da10a0db-4447-469a-95b9-b9e9c6623f5d","ios":"levelo://app?vid=da10a0db-4447-469a-95b9-b9e9c6623f5d"},"vehicle_type_id":"4","last_reported":1767943057,"current_range_meters":6800,"station_id":"","pricing_plan_id":"cebpf4jnsgd1na2vs0mg"},{"bike_id":"ee6e2cb0-3438-450d-a7e5-bdd8563f0fbe","system_id":"levelo_inurba_marseille","lat":43.24807,"lon":5.37466,"is_reserved":false,"is_disabled":false,"rental_uris":{"android":"levelo://app?vid=ee6e2cb0-3438-450d-a7e5-bdd8563f0fbe","ios":"levelo://app?vid=ee6e2cb0-3438-450d-a7e5-bdd8563f0fbe"},"vehicle_type_id":"4","last_reported":1767943057,"current_range_meters":6800,"station_id":"ce4bhgh2rcd13ifvqfb0","pricing_plan_id":"cebpf4jnsgd1na2vs0mg"},{"bike_id":"a1a7263a-268a-42b5-a24c-d15189561d6f","system_id":"levelo_inurba_marseille","lat":43.26236,"lon":5.38795,"is_reserved":false,"is_disabled":false,"rental_uris":{"android":"levelo://app?vid=a1a7263a-268a-42b5-a24c-d15189561d6f","ios":"levelo://app?vid=a1a7263a-268a-42b5-a24c-d15189561d6f"},"vehicle_type_id":"4","last_reported":1767943057,"current_range_meters":6800,"station_id":"","pricing_plan_id":"cebpf4jnsgd1na2vs0mg"},{"bike_id":"4cffb3bc-6cb7-4fb3-8e35-ce4d3792bbf1","system_id":"levelo_inurba_marseille","lat":43.28427,"lon":5.37508,"is_reserved":false,"is_disabled":false,"rental_uris":{"android":"levelo://app?vid=4cffb3bc-6cb7-4fb3-8e35-ce4d3792bbf1","ios":"levelo://app?vid=4cffb3bc-6cb7-4fb3-8e35-ce4d3792bbf1"},"vehicle_type_id":"4","last_reported":1767943057,"current_range_meters":6800,"station_id":"ce4bh412rcd13ifvqds0","pricing_plan_id":"cebpf4jnsgd1na2vs0mg"},{"bike_id":"0f277686-ed3a-4e7b-be4a-9935e9ee293a","system_id":"levelo_inurba_marseille","lat":43.31266,"lon":5.40164,"is_reserved":false,"is_disabled":false,"rental_uris":{"android":"levelo://app?vid=0f277686-ed3a-4e7b-be4a-9935e9ee293a","ios":"levelo://app?vid=0f277686-ed3a-4e7b-be4a-9935e9ee293a"},"vehicle_type_id":"4","last_reported":1767943057,"current_range_meters":6800,"station_id":"ce4bh092rcd13ifvqd30","pricing_plan_id":"cebpf4jnsgd1na2vs0mg"},{"bike_id":"134dfc4d-d213-4250-8f53-f5b2a2e6009e","system_id":"levelo_inurba_marseille","lat":43.29032,"lon":5.39976,"is_reserved":false,"is_disabled":false,"rental_uris":{"android":"levelo://app?vid=134dfc4d-d213-4250-8f53-f5b2a2e6009e","ios":"levelo://app?vid=134dfc4d-d213-4250-8f53-f5b2a2e6009e"},"vehicle_type_id":"4","last_reported":1767943057,"current_range_meters":6800,"station_id":"ce4bh392rcd13ifvqdm0","pricing_plan_id":"cebpf4jnsgd1na2vs0mg"},{"bike_id":"d564640e-8980-4d50-9141-d01b2d41a726","system_id":"levelo_inurba_marseille","lat":43.24136,"lon":5.3644,"is_reserved":false,"is_disabled":false,"rental_uris":{"android":"levelo://app?vid=d564640e-8980-4d50-9141-d01b2d41a726","ios":"levelo://app?vid=d564640e-8980-4d50-9141-d01b2d41a726"},"vehicle_type_id":"4","last_reported":1767943057,"current_range_meters":6800,"station_id":"cpo36qri1sfpv3e86is0","pricing_plan_id":"cebpf4jnsgd1na2vs0mg"},{"bike_id":"fc9b7cac-bfef-44b9-9359-8b6b48c75cb4","system_id":"levelo_inurba_marseille","lat":43.2582,"lon":5.39418,"is_reserved":false,"is_disabled":true,"rental_uris":{"android":"levelo://app?vid=fc9b7cac-bfef-44b9-9359-8b6b48c75cb4","ios":"levelo://app?vid=fc9b7cac-bfef-44b9-9359-8b6b48c75cb4"},"vehicle_type_id":"4","last_reported":1767943057,"current_range_meters":6800,"station_id":"ce4bhip2rcd13ifvqft0","pricing_plan_id":"cebpf4jnsgd1na2vs0mg"},{"bike_id":"1456ae37-f1ed-4712-949f-79cb8e4e5a03","system_id":"levelo_inurba_marseille","lat":43.23179,"lon":5.39952,"is_reserved":false,"is_disabled":false,"rental_uris":{"android":"levelo://app?vid=1456ae37-f1ed-4712-949f-79cb8e4e5a03","ios":"levelo://app?vid=1456ae37-f1ed-4712-949f-79cb8e4e5a03"},"vehicle_type_id":"4","last_reported":1767943057,"current_range_meters":6800,"station_id":"ce4bhn12rcd13ifvqgqg","pricing_plan_id":"cebpf4jnsgd1na2vs0mg"},{"bike_id":"36c3097c-2122-4b98-a149-c16b13fb82b9","system_id":"levelo_inurba_marseille","lat":43.26067,"lon":5.39388,"is_reserved":false,"is_disabled":false,"rental_uris":{"android":"levelo://app?vid=36c3097c-2122-4b98-a149-c16b13fb82b9","ios":"levelo://app?vid=36c3097c-2122-4b98-a149-c16b13fb82b9"},"vehicle_type_id":"4","last_reported":1767943057,"current_range_meters":6800,"station_id":"ce4bhh92rcd13ifvqfj0","pricing_plan_id":"cebpf4jnsgd1na2vs0mg"},{"bike_id":"203901a8-7796-462c-b8ca-ce985701687f","system_id":"levelo_inurba_marseille","lat":43.28036,"lon":5.39935,"is_reserved":false,"is_disabled":false,"rental_uris":{"android":"levelo://app?vid=203901a8-7796-462c-b8ca-ce985701687f","ios":"levelo://app?vid=203901a8-7796-462c-b8ca-ce985701687f"},"vehicle_type_id":"4","last_reported":1767943057,"current_range_meters":6800,"station_id":"","pricing_plan_id":"cebpf4jnsgd1na2vs0mg"},{"bike_id":"0f003947-35f3-407d-841f-7fac78f83875","system_id":"levelo_inurba_marseille","lat":43.28005,"lon":5.41667,"is_reserved":false,"is_disabled":false,"rental_uris":{"android":"levelo://app?vid=0f003947-35f3-407d-841f-7fac78f83875","ios":"levelo://app?vid=0f003947-35f3-407d-841f-7fac78f83875"},"vehicle_type_id":"4","last_reported":1767943057,"current_range_meters":6800,"station_id":"ce4bho12rcd13ifvqh1g","pricing_plan_id":"cebpf4jnsgd1na2vs0mg"},{"bike_id":"5b729795-3f58-42af-b7c7-f29959ec97ba","system_id":"levelo_inurba_marseille","lat":43.263,"lon":5.39729,"is_reserved":false,"is_disabled":false,"rental_uris":{"android":"levelo://app?vid=5b729795-3f58-42af-b7c7-f29959ec97ba","ios":"levelo://app?vid=5b729795-3f58-42af-b7c7-f29959ec97ba"},"vehicle_type_id":"4","last_reported":1767943057,"current_range_meters":7200,"station_id":"","pricing_plan_id":"cebpf4jnsgd1na2vs0mg"},{"bike_id":"a947241a-d3af-4302-a18c-3fd572da3e9b","system_id":"levelo_inurba_marseille","lat":43.26008,"lon":5.37565,"is_reserved":false,"is_disabled":false,"rental_uris":{"android":"levelo://app?vid=a947241a-d3af-4302-a18c-3fd572da3e9b","ios":"levelo://app?vid=a947241a-d3af-4302-a18c-3fd572da3e9b"},"vehicle_type_id":"4","last_reported":1767943057,"current_range_meters":7200,"station_id":"ce4bhgh2rcd13ifvqfa0","pricing_plan_id":"cebpf4jnsgd1na2vs0mg"},{"bike_id":"30c1554a-5a63-48b6-a122-23d1d5bc5565","system_id":"levelo_inurba_marseille","lat":43.29628,"lon":5.37789,"is_reserved":false,"is_disabled":false,"rental_uris":{"android":"levelo://app?vid=30c1554a-5a63-48b6-a122-23d1d5bc5565","ios":"levelo://app?vid=30c1554a-5a63-48b6-a122-23d1d5bc5565"},"vehicle_type_id":"4","last_reported":1767943057,"current_range_meters":7200,"station_id":"","pricing_plan_id":"cebpf4jnsgd1na2vs0mg"},{"bike_id":"b7dddc8e-ff5d-458a-a8d3-88dc4e34e930","system_id":"levelo_inurba_marseille","lat":43.27362,"lon":5.36238,"is_reserved":false,"is_disabled":false,"rental_uris":{"android":"levelo://app?vid=b7dddc8e-ff5d-458a-a8d3-88dc4e34e930","ios":"levelo://app?vid=b7dddc8e-ff5d-458a-a8d3-88dc4e34e930"},"vehicle_type_id":"4","last_reported":1767943057,"current_range_meters":7200,"station_id":"ce4bhbh2rcd13ifvqeo0","pricing_plan_id":"cebpf4jnsgd1na2vs0mg"},{"bike_id":"c674c454-2af5-49f7-821c-c3b83a90b616","system_id":"levelo_inurba_marseille","lat":43.311559,"lon":5.407135,"is_reserved":false,"is_disabled":false,"rental_uris":{"android":"levelo://app?vid=c674c454-2af5-49f7-821c-c3b83a90b616","ios":"levelo://app?vid=c674c454-2af5-49f7-821c-c3b83a90b616"},"vehicle_type_id":"4","last_reported":1767943057,"current_range_meters":7200,"station_id":"","pricing_plan_id":"cebpf4jnsgd1na2vs0mg"},{"bike_id":"18afa7e5-a060-43b9-bd3e-ab224bbb7669","system_id":"levelo_inurba_marseille","lat":43.28864,"lon":5.42527,"is_reserved":false,"is_disabled":false,"rental_uris":{"android":"levelo://app?vid=18afa7e5-a060-43b9-bd3e-ab224bbb7669","ios":"levelo://app?vid=18afa7e5-a060-43b9-bd3e-ab224bbb7669"},"vehicle_type_id":"4","last_reported":1767943057,"current_range_meters":7200,"station_id":"st_d3b462108ojc7389ooeg","pricing_plan_id":"cebpf4jnsgd1na2vs0mg"},{"bike_id":"0d6a9a04-1891-48de-b8dc-a5fb353d9b7e","system_id":"levelo_inurba_marseille","lat":43.28975,"lon":5.35804,"is_reserved":false,"is_disabled":false,"rental_uris":{"android":"levelo://app?vid=0d6a9a04-1891-48de-b8dc-a5fb353d9b7e","ios":"levelo://app?vid=0d6a9a04-1891-48de-b8dc-a5fb353d9b7e"},"vehicle_type_id":"4","last_reported":1767943057,"current_range_meters":7200,"station_id":"","pricing_plan_id":"cebpf4jnsgd1na2vs0mg"},{"bike_id":"49693813-6422-4c0b-883f-2f9444f40ff2","system_id":"levelo_inurba_marseille","lat":43.25478,"lon":5.37653,"is_reserved":false,"is_disabled":false,"rental_uris":{"android":"levelo://app?vid=49693813-6422-4c0b-883f-2f9444f40ff2","ios":"levelo://app?vid=49693813-6422-4c0b-883f-2f9444f40ff2"},"vehicle_type_id":"4","last_reported":1767943057,"current_range_meters":7200,"station_id":"ce4bhh12rcd13ifvqff0","pricing_plan_id":"cebpf4jnsgd1na2vs0mg"},{"bike_id":"f58d6f7b-cbb0-4399-a343-55040a73d9f6","system_id":"levelo_inurba_marseille","lat":43.25332,"lon":5.4218,"is_reserved":false,"is_disabled":false,"rental_uris":{"android":"levelo://app?vid=f58d6f7b-cbb0-4399-a343-55040a73d9f6","ios":"levelo://app?vid=f58d6f7b-cbb0-4399-a343-55040a73d9f6"},"vehicle_type_id":"4","last_reported":1767943057,"current_range_meters":7200,"station_id":"st_d2m65c5bi1j21697t3ng","pricing_plan_id":"cebpf4jnsgd1na2vs0mg"},{"bike_id":"c9f5cdb5-550a-48c6-8a88-d0fcb3922882","system_id":"levelo_inurba_marseille","lat":43.30432,"lon":5.3889,"is_reserved":false,"is_disabled":false,"rental_uris":{"android":"levelo://app?vid=c9f5cdb5-550a-48c6-8a88-d0fcb3922882","ios":"levelo://app?vid=c9f5cdb5-550a-48c6-8a88-d0fcb3922882"},"vehicle_type_id":"4","last_reported":1767943057,"current_range_meters":7200,"station_id":"ce4bgk12rcd13ifvqbi0","pricing_plan_id":"cebpf4jnsgd1na2vs0mg"},{"bike_id":"3050a01e-b5dd-4ce9-9416-d39aa54e8000","system_id":"levelo_inurba_marseille","lat":43.27998,"lon":5.41671,"is_reserved":false,"is_disabled":false,"rental_uris":{"android":"levelo://app?vid=3050a01e-b5dd-4ce9-9416-d39aa54e8000","ios":"levelo://app?vid=3050a01e-b5dd-4ce9-9416-d39aa54e8000"},"vehicle_type_id":"4","last_reported":1767943057,"current_range_meters":7200,"station_id":"ce4bho12rcd13ifvqh1g","pricing_plan_id":"cebpf4jnsgd1na2vs0mg"},{"bike_id":"a8e18155-d5ce-4d37-9cc5-12efc31f909e","system_id":"levelo_inurba_marseille","lat":43.24163,"lon":5.36405,"is_reserved":false,"is_disabled":false,"rental_uris":{"android":"levelo://app?vid=a8e18155-d5ce-4d37-9cc5-12efc31f909e","ios":"levelo://app?vid=a8e18155-d5ce-4d37-9cc5-12efc31f909e"},"vehicle_type_id":"4","last_reported":1767943057,"current_range_meters":7200,"station_id":"cpo36qri1sfpv3e86is0","pricing_plan_id":"cebpf4jnsgd1na2vs0mg"},{"bike_id":"a4537b00-759d-4d03-b0ab-600d30f2ba73","system_id":"levelo_inurba_marseille","lat":43.26564,"lon":5.38988,"is_reserved":false,"is_disabled":false,"rental_uris":{"android":"levelo://app?vid=a4537b00-759d-4d03-b0ab-600d30f2ba73","ios":"levelo://app?vid=a4537b00-759d-4d03-b0ab-600d30f2ba73"},"vehicle_type_id":"4","last_reported":1767943057,"current_range_meters":7200,"station_id":"ce4bhe12rcd13ifvqf30","pricing_plan_id":"cebpf4jnsgd1na2vs0mg"},{"bike_id":"1153437e-047c-4abd-a606-5e276ed66d05","system_id":"levelo_inurba_marseille","lat":43.304644,"lon":5.393479,"is_reserved":false,"is_disabled":false,"rental_uris":{"android":"levelo://app?vid=1153437e-047c-4abd-a606-5e276ed66d05","ios":"levelo://app?vid=1153437e-047c-4abd-a606-5e276ed66d05"},"vehicle_type_id":"4","last_reported":1767943057,"current_range_meters":7200,"station_id":"","pricing_plan_id":"cebpf4jnsgd1na2vs0mg"},{"bike_id":"69185927-b2e2-42eb-87d5-744730150590","system_id":"levelo_inurba_marseille","lat":43.262286,"lon":5.404469,"is_reserved":false,"is_disabled":false,"rental_uris":{"android":"levelo://app?vid=69185927-b2e2-42eb-87d5-744730150590","ios":"levelo://app?vid=69185927-b2e2-42eb-87d5-744730150590"},"vehicle_type_id":"4","last_reported":1767943057,"current_range_meters":7200,"station_id":"ce4bhmh2rcd13ifvqgmg","pricing_plan_id":"cebpf4jnsgd1na2vs0mg"},{"bike_id":"c103346d-3384-4b83-9ff8-dff851f4fdfe","system_id":"levelo_inurba_marseille","lat":43.3142,"lon":5.38062,"is_reserved":false,"is_disabled":false,"rental_uris":{"android":"levelo://app?vid=c103346d-3384-4b83-9ff8-dff851f4fdfe","ios":"levelo://app?vid=c103346d-3384-4b83-9ff8-dff851f4fdfe"},"vehicle_type_id":"4","last_reported":1767943057,"current_range_meters":7200,"station_id":"","pricing_plan_id":"cebpf4jnsgd1na2vs0mg"},{"bike_id":"713202e1-eaed-4067-ab17-b43e53314e08","system_id":"levelo_inurba_marseille","lat":43.3015,"lon":5.38085,"is_reserved":false,"is_disabled":false,"rental_uris":{"android":"levelo://app?vid=713202e1-eaed-4067-ab17-b43e53314e08","ios":"levelo://app?vid=713202e1-eaed-4067-ab17-b43e53314e08"},"vehicle_type_id":"4","last_reported":1767943057,"current_range_meters":7200,"station_id":"ce4bgjp2rcd13ifvqbh0","pricing_plan_id":"cebpf4jnsgd1na2vs0mg"},{"bike_id":"9a84455d-66b0-4d3f-8c81-d289293761d8","system_id":"levelo_inurba_marseille","lat":43.24158,"lon":5.36408,"is_reserved":false,"is_disabled":false,"rental_uris":{"android":"levelo://app?vid=9a84455d-66b0-4d3f-8c81-d289293761d8","ios":"levelo://app?vid=9a84455d-66b0-4d3f-8c81-d289293761d8"},"vehicle_type_id":"4","last_reported":1767943057,"current_range_meters":7200,"station_id":"cpo36qri1sfpv3e86is0","pricing_plan_id":"cebpf4jnsgd1na2vs0mg"},{"bike_id":"7e97d085-1a25-4c51-a0fb-4ca1da01f44e","system_id":"levelo_inurba_marseille","lat":43.29889,"lon":5.38868,"is_reserved":false,"is_disabled":false,"rental_uris":{"android":"levelo://app?vid=7e97d085-1a25-4c51-a0fb-4ca1da01f44e","ios":"levelo://app?vid=7e97d085-1a25-4c51-a0fb-4ca1da01f44e"},"vehicle_type_id":"4","last_reported":1767943057,"current_range_meters":8000,"station_id":"ce4bh392rcd13ifvqdl0","pricing_plan_id":"cebpf4jnsgd1na2vs0mg"},{"bike_id":"e10d5ccc-4c33-499b-a08a-1348681381f9","system_id":"levelo_inurba_marseille","lat":43.295154,"lon":5.381855,"is_reserved":false,"is_disabled":false,"rental_uris":{"android":"levelo://app?vid=e10d5ccc-4c33-499b-a08a-1348681381f9","ios":"levelo://app?vid=e10d5ccc-4c33-499b-a08a-1348681381f9"},"vehicle_type_id":"4","last_reported":1767943057,"current_range_meters":8000,"station_id":"","pricing_plan_id":"cebpf4jnsgd1na2vs0mg"},{"bike_id":"0e7e919c-83a3-45be-90bf-dcf29db4b4ea","system_id":"levelo_inurba_marseille","lat":43.32343,"lon":5.36721,"is_reserved":false,"is_disabled":false,"rental_uris":{"android":"levelo://app?vid=0e7e919c-83a3-45be-90bf-dcf29db4b4ea","ios":"levelo://app?vid=0e7e919c-83a3-45be-90bf-dcf29db4b4ea"},"vehicle_type_id":"4","last_reported":1767943057,"current_range_meters":8000,"station_id":"ce4bhsh2rcd13ifvqi2g","pricing_plan_id":"cebpf4jnsgd1na2vs0mg"},{"bike_id":"81a2563a-845e-4b8c-9fa4-436f570b52dc","system_id":"levelo_inurba_marseille","lat":43.27053,"lon":5.38321,"is_reserved":false,"is_disabled":false,"rental_uris":{"android":"levelo://app?vid=81a2563a-845e-4b8c-9fa4-436f570b52dc","ios":"levelo://app?vid=81a2563a-845e-4b8c-9fa4-436f570b52dc"},"vehicle_type_id":"4","last_reported":1767943057,"current_range_meters":8000,"station_id":"st_d3n2fo6cfp8s73cte1j0","pricing_plan_id":"cebpf4jnsgd1na2vs0mg"},{"bike_id":"b64e452a-bec0-47a7-9fd3-b6c2486866f5","system_id":"levelo_inurba_marseille","lat":43.28478,"lon":5.48391,"is_reserved":false,"is_disabled":false,"rental_uris":{"android":"levelo://app?vid=b64e452a-bec0-47a7-9fd3-b6c2486866f5","ios":"levelo://app?vid=b64e452a-bec0-47a7-9fd3-b6c2486866f5"},"vehicle_type_id":"4","last_reported":1767943057,"current_range_meters":8000,"station_id":"","pricing_plan_id":"cebpf4jnsgd1na2vs0mg"},{"bike_id":"93857ce9-4590-4c62-bbc1-59d0b9ff292e","system_id":"levelo_inurba_marseille","lat":43.31492,"lon":5.37281,"is_reserved":false,"is_disabled":false,"rental_uris":{"android":"levelo://app?vid=93857ce9-4590-4c62-bbc1-59d0b9ff292e","ios":"levelo://app?vid=93857ce9-4590-4c62-bbc1-59d0b9ff292e"},"vehicle_type_id":"4","last_reported":1767943057,"current_range_meters":8000,"station_id":"ce4bgt12rcd13ifvqcd0","pricing_plan_id":"cebpf4jnsgd1na2vs0mg"},{"bike_id":"19c90349-756f-4679-a530-ebef5565e237","system_id":"levelo_inurba_marseille","lat":43.32352,"lon":5.36739,"is_reserved":false,"is_disabled":false,"rental_uris":{"android":"levelo://app?vid=19c90349-756f-4679-a530-ebef5565e237","ios":"levelo://app?vid=19c90349-756f-4679-a530-ebef5565e237"},"vehicle_type_id":"4","last_reported":1767943057,"current_range_meters":8000,"station_id":"ce4bhsh2rcd13ifvqi2g","pricing_plan_id":"cebpf4jnsgd1na2vs0mg"},{"bike_id":"6fad9ca1-61fd-4cab-8c8e-75dda08e921f","system_id":"levelo_inurba_marseille","lat":43.31957,"lon":5.37392,"is_reserved":false,"is_disabled":false,"rental_uris":{"android":"levelo://app?vid=6fad9ca1-61fd-4cab-8c8e-75dda08e921f","ios":"levelo://app?vid=6fad9ca1-61fd-4cab-8c8e-75dda08e921f"},"vehicle_type_id":"4","last_reported":1767943057,"current_range_meters":8000,"station_id":"","pricing_plan_id":"cebpf4jnsgd1na2vs0mg"},{"bike_id":"c9c0a45f-0b5e-493e-b81b-012e0d5b7250","system_id":"levelo_inurba_marseille","lat":43.26552,"lon":5.37293,"is_reserved":false,"is_disabled":false,"rental_uris":{"android":"levelo://app?vid=c9c0a45f-0b5e-493e-b81b-012e0d5b7250","ios":"levelo://app?vid=c9c0a45f-0b5e-493e-b81b-012e0d5b7250"},"vehicle_type_id":"4","last_reported":1767943057,"current_range_meters":8000,"station_id":"ce4bhg12rcd13ifvqf70","pricing_plan_id":"cebpf4jnsgd1na2vs0mg"},{"bike_id":"51b00eb7-b5fe-4189-81b2-3bc9042a13d5","system_id":"levelo_inurba_marseille","lat":43.27206,"lon":5.39191,"is_reserved":false,"is_disabled":false,"rental_uris":{"android":"levelo://app?vid=51b00eb7-b5fe-4189-81b2-3bc9042a13d5","ios":"levelo://app?vid=51b00eb7-b5fe-4189-81b2-3bc9042a13d5"},"vehicle_type_id":"4","last_reported":1767943057,"current_range_meters":8000,"station_id":"ce4bhhp2rcd13ifvqfm0","pricing_plan_id":"cebpf4jnsgd1na2vs0mg"},{"bike_id":"73311dd9-ce76-4424-880c-4c44988d4f09","system_id":"levelo_inurba_marseille","lat":43.249489,"lon":5.4049,"is_reserved":false,"is_disabled":false,"rental_uris":{"android":"levelo://app?vid=73311dd9-ce76-4424-880c-4c44988d4f09","ios":"levelo://app?vid=73311dd9-ce76-4424-880c-4c44988d4f09"},"vehicle_type_id":"4","last_reported":1767943057,"current_range_meters":8000,"station_id":"st_d2ngiaodas8pm72gd1h0","pricing_plan_id":"cebpf4jnsgd1na2vs0mg"},{"bike_id":"0ad91354-ce1a-4be6-8d51-7bf5197b2d54","system_id":"levelo_inurba_marseille","lat":43.26219,"lon":5.40462,"is_reserved":false,"is_disabled":true,"rental_uris":{"android":"levelo://app?vid=0ad91354-ce1a-4be6-8d51-7bf5197b2d54","ios":"levelo://app?vid=0ad91354-ce1a-4be6-8d51-7bf5197b2d54"},"vehicle_type_id":"4","last_reported":1767943057,"current_range_meters":8000,"station_id":"ce4bhmh2rcd13ifvqgmg","pricing_plan_id":"cebpf4jnsgd1na2vs0mg"},{"bike_id":"bef98ff8-e15d-45ba-812b-84a58c5c1af3","system_id":"levelo_inurba_marseille","lat":43.25812,"lon":5.39429,"is_reserved":false,"is_disabled":false,"rental_uris":{"android":"levelo://app?vid=bef98ff8-e15d-45ba-812b-84a58c5c1af3","ios":"levelo://app?vid=bef98ff8-e15d-45ba-812b-84a58c5c1af3"},"vehicle_type_id":"4","last_reported":1767943057,"current_range_meters":8000,"station_id":"ce4bhip2rcd13ifvqft0","pricing_plan_id":"cebpf4jnsgd1na2vs0mg"},{"bike_id":"a14ad7f9-bf16-4829-9533-365e7ac50c2f","system_id":"levelo_inurba_marseille","lat":43.32104,"lon":5.36798,"is_reserved":false,"is_disabled":false,"rental_uris":{"android":"levelo://app?vid=a14ad7f9-bf16-4829-9533-365e7ac50c2f","ios":"levelo://app?vid=a14ad7f9-bf16-4829-9533-365e7ac50c2f"},"vehicle_type_id":"4","last_reported":1767943057,"current_range_meters":8000,"station_id":"ce4bhrh2rcd13ifvqhug","pricing_plan_id":"cebpf4jnsgd1na2vs0mg"},{"bike_id":"2ce5425d-5b38-4acd-a6e9-bb0d6532119b","system_id":"levelo_inurba_marseille","lat":43.29902,"lon":5.43646,"is_reserved":false,"is_disabled":false,"rental_uris":{"android":"levelo://app?vid=2ce5425d-5b38-4acd-a6e9-bb0d6532119b","ios":"levelo://app?vid=2ce5425d-5b38-4acd-a6e9-bb0d6532119b"},"vehicle_type_id":"4","last_reported":1767943057,"current_range_meters":8000,"station_id":"ce4bhpp2rcd13ifvqhfg","pricing_plan_id":"cebpf4jnsgd1na2vs0mg"},{"bike_id":"bff6940a-d2ed-49ac-a8f5-e4a674d161ff","system_id":"levelo_inurba_marseille","lat":43.23974,"lon":5.36621,"is_reserved":false,"is_disabled":false,"rental_uris":{"android":"levelo://app?vid=bff6940a-d2ed-49ac-a8f5-e4a674d161ff","ios":"levelo://app?vid=bff6940a-d2ed-49ac-a8f5-e4a674d161ff"},"vehicle_type_id":"4","last_reported":1767943057,"current_range_meters":8000,"station_id":"ce4bhi12rcd13ifvqfp0","pricing_plan_id":"cebpf4jnsgd1na2vs0mg"},{"bike_id":"3f8a7466-ae4f-4db8-be91-c1b807f5b75a","system_id":"levelo_inurba_marseille","lat":43.30158,"lon":5.38086,"is_reserved":false,"is_disabled":false,"rental_uris":{"android":"levelo://app?vid=3f8a7466-ae4f-4db8-be91-c1b807f5b75a","ios":"levelo://app?vid=3f8a7466-ae4f-4db8-be91-c1b807f5b75a"},"vehicle_type_id":"4","last_reported":1767943057,"current_range_meters":8000,"station_id":"ce4bgjp2rcd13ifvqbh0","pricing_plan_id":"cebpf4jnsgd1na2vs0mg"},{"bike_id":"ad01ba0d-64c9-42a1-8aa2-cca202ad64e0","system_id":"levelo_inurba_marseille","lat":43.270566,"lon":5.402583,"is_reserved":false,"is_disabled":false,"rental_uris":{"android":"levelo://app?vid=ad01ba0d-64c9-42a1-8aa2-cca202ad64e0","ios":"levelo://app?vid=ad01ba0d-64c9-42a1-8aa2-cca202ad64e0"},"vehicle_type_id":"4","last_reported":1767943057,"current_range_meters":8000,"station_id":"ce4bhk92rcd13ifvqgc0","pricing_plan_id":"cebpf4jnsgd1na2vs0mg"},{"bike_id":"85ec619e-5ea0-4fca-a7de-dd41384f5c43","system_id":"levelo_inurba_marseille","lat":43.26543,"lon":5.37282,"is_reserved":false,"is_disabled":false,"rental_uris":{"android":"levelo://app?vid=85ec619e-5ea0-4fca-a7de-dd41384f5c43","ios":"levelo://app?vid=85ec619e-5ea0-4fca-a7de-dd41384f5c43"},"vehicle_type_id":"4","last_reported":1767943057,"current_range_meters":8000,"station_id":"ce4bhg12rcd13ifvqf70","pricing_plan_id":"cebpf4jnsgd1na2vs0mg"},{"bike_id":"dd60021c-9d71-49b7-8f5a-e168a6d4726a","system_id":"levelo_inurba_marseille","lat":43.30591,"lon":5.39346,"is_reserved":false,"is_disabled":false,"rental_uris":{"android":"levelo://app?vid=dd60021c-9d71-49b7-8f5a-e168a6d4726a","ios":"levelo://app?vid=dd60021c-9d71-49b7-8f5a-e168a6d4726a"},"vehicle_type_id":"4","last_reported":1767943057,"current_range_meters":8000,"station_id":"ce4bh0p2rcd13ifvqd80","pricing_plan_id":"cebpf4jnsgd1na2vs0mg"},{"bike_id":"d62b1dd7-04ea-48f5-a204-d6921ceaf13e","system_id":"levelo_inurba_marseille","lat":43.24134,"lon":5.36414,"is_reserved":false,"is_disabled":false,"rental_uris":{"android":"levelo://app?vid=d62b1dd7-04ea-48f5-a204-d6921ceaf13e","ios":"levelo://app?vid=d62b1dd7-04ea-48f5-a204-d6921ceaf13e"},"vehicle_type_id":"4","last_reported":1767943057,"current_range_meters":8000,"station_id":"cpo36qri1sfpv3e86is0","pricing_plan_id":"cebpf4jnsgd1na2vs0mg"},{"bike_id":"0f7fabb7-8da9-4e25-985f-3737ae9746ca","system_id":"levelo_inurba_marseille","lat":43.24085,"lon":5.37747,"is_reserved":false,"is_disabled":false,"rental_uris":{"android":"levelo://app?vid=0f7fabb7-8da9-4e25-985f-3737ae9746ca","ios":"levelo://app?vid=0f7fabb7-8da9-4e25-985f-3737ae9746ca"},"vehicle_type_id":"4","last_reported":1767943057,"current_range_meters":8000,"station_id":"ce4bhnp2rcd13ifvqgvg","pricing_plan_id":"cebpf4jnsgd1na2vs0mg"},{"bike_id":"8b697a24-51a2-452a-93c9-5c0c040134d0","system_id":"levelo_inurba_marseille","lat":43.3222,"lon":5.39426,"is_reserved":false,"is_disabled":false,"rental_uris":{"android":"levelo://app?vid=8b697a24-51a2-452a-93c9-5c0c040134d0","ios":"levelo://app?vid=8b697a24-51a2-452a-93c9-5c0c040134d0"},"vehicle_type_id":"4","last_reported":1767943057,"current_range_meters":8000,"station_id":"","pricing_plan_id":"cebpf4jnsgd1na2vs0mg"},{"bike_id":"b1080c4f-4d5c-4234-be17-68edd0d10f1f","system_id":"levelo_inurba_marseille","lat":43.284277,"lon":5.391893,"is_reserved":false,"is_disabled":false,"rental_uris":{"android":"levelo://app?vid=b1080c4f-4d5c-4234-be17-68edd0d10f1f","ios":"levelo://app?vid=b1080c4f-4d5c-4234-be17-68edd0d10f1f"},"vehicle_type_id":"4","last_reported":1767943057,"current_range_meters":8000,"station_id":"ce4bhoh2rcd13ifvqh5g","pricing_plan_id":"cebpf4jnsgd1na2vs0mg"},{"bike_id":"96141708-dc26-4382-babc-91d6cb07aefd","system_id":"levelo_inurba_marseille","lat":43.28852,"lon":5.35838,"is_reserved":false,"is_disabled":false,"rental_uris":{"android":"levelo://app?vid=96141708-dc26-4382-babc-91d6cb07aefd","ios":"levelo://app?vid=96141708-dc26-4382-babc-91d6cb07aefd"},"vehicle_type_id":"4","last_reported":1767943057,"current_range_meters":8000,"station_id":"ce4bhb12rcd13ifvqem0","pricing_plan_id":"cebpf4jnsgd1na2vs0mg"},{"bike_id":"e11d069d-cc7d-4b1f-a7f9-e060ab894ff0","system_id":"levelo_inurba_marseille","lat":43.26369,"lon":5.41079,"is_reserved":false,"is_disabled":false,"rental_uris":{"android":"levelo://app?vid=e11d069d-cc7d-4b1f-a7f9-e060ab894ff0","ios":"levelo://app?vid=e11d069d-cc7d-4b1f-a7f9-e060ab894ff0"},"vehicle_type_id":"4","last_reported":1767943057,"current_range_meters":8000,"station_id":"st_d4e5ca6na9uc73bfl5fg","pricing_plan_id":"cebpf4jnsgd1na2vs0mg"},{"bike_id":"d5c29c18-7a27-4023-8927-8003cd0b16af","system_id":"levelo_inurba_marseille","lat":43.261624,"lon":5.375005,"is_reserved":false,"is_disabled":false,"rental_uris":{"android":"levelo://app?vid=d5c29c18-7a27-4023-8927-8003cd0b16af","ios":"levelo://app?vid=d5c29c18-7a27-4023-8927-8003cd0b16af"},"vehicle_type_id":"4","last_reported":1767943057,"current_range_meters":8000,"station_id":"ce4bhgp2rcd13ifvqfc0","pricing_plan_id":"cebpf4jnsgd1na2vs0mg"},{"bike_id":"4e41aa3b-9162-476b-82f4-857ae55d1a75","system_id":"levelo_inurba_marseille","lat":43.32362,"lon":5.36711,"is_reserved":false,"is_disabled":false,"rental_uris":{"android":"levelo://app?vid=4e41aa3b-9162-476b-82f4-857ae55d1a75","ios":"levelo://app?vid=4e41aa3b-9162-476b-82f4-857ae55d1a75"},"vehicle_type_id":"4","last_reported":1767943057,"current_range_meters":8000,"station_id":"ce4bhsh2rcd13ifvqi2g","pricing_plan_id":"cebpf4jnsgd1na2vs0mg"},{"bike_id":"e48a0a1d-139d-4eae-9bc8-4eb881e00720","system_id":"levelo_inurba_marseille","lat":43.32353,"lon":5.36747,"is_reserved":false,"is_disabled":false,"rental_uris":{"android":"levelo://app?vid=e48a0a1d-139d-4eae-9bc8-4eb881e00720","ios":"levelo://app?vid=e48a0a1d-139d-4eae-9bc8-4eb881e00720"},"vehicle_type_id":"4","last_reported":1767943057,"current_range_meters":8000,"station_id":"ce4bhsh2rcd13ifvqi2g","pricing_plan_id":"cebpf4jnsgd1na2vs0mg"},{"bike_id":"0300afac-912a-4bda-b7af-7e061ba01547","system_id":"levelo_inurba_marseille","lat":43.29657,"lon":5.376,"is_reserved":false,"is_disabled":false,"rental_uris":{"android":"levelo://app?vid=0300afac-912a-4bda-b7af-7e061ba01547","ios":"levelo://app?vid=0300afac-912a-4bda-b7af-7e061ba01547"},"vehicle_type_id":"4","last_reported":1767943057,"current_range_meters":8000,"station_id":"","pricing_plan_id":"cebpf4jnsgd1na2vs0mg"},{"bike_id":"569b0032-d7de-4ef5-ac08-24b2ac42db20","system_id":"levelo_inurba_marseille","lat":43.26542,"lon":5.37315,"is_reserved":false,"is_disabled":false,"rental_uris":{"android":"levelo://app?vid=569b0032-d7de-4ef5-ac08-24b2ac42db20","ios":"levelo://app?vid=569b0032-d7de-4ef5-ac08-24b2ac42db20"},"vehicle_type_id":"4","last_reported":1767943057,"current_range_meters":8400,"station_id":"ce4bhg12rcd13ifvqf70","pricing_plan_id":"cebpf4jnsgd1na2vs0mg"},{"bike_id":"aa186435-cc03-4095-aab3-165e1212d005","system_id":"levelo_inurba_marseille","lat":43.32366,"lon":5.36775,"is_reserved":false,"is_disabled":false,"rental_uris":{"android":"levelo://app?vid=aa186435-cc03-4095-aab3-165e1212d005","ios":"levelo://app?vid=aa186435-cc03-4095-aab3-165e1212d005"},"vehicle_type_id":"4","last_reported":1767943057,"current_range_meters":8400,"station_id":"ce4bhsh2rcd13ifvqi2g","pricing_plan_id":"cebpf4jnsgd1na2vs0mg"},{"bike_id":"bd78d29c-c760-450d-bc73-3e8bb1aa3e1f","system_id":"levelo_inurba_marseille","lat":43.32349,"lon":5.36741,"is_reserved":false,"is_disabled":false,"rental_uris":{"android":"levelo://app?vid=bd78d29c-c760-450d-bc73-3e8bb1aa3e1f","ios":"levelo://app?vid=bd78d29c-c760-450d-bc73-3e8bb1aa3e1f"},"vehicle_type_id":"4","last_reported":1767943057,"current_range_meters":8400,"station_id":"ce4bhsh2rcd13ifvqi2g","pricing_plan_id":"cebpf4jnsgd1na2vs0mg"},{"bike_id":"b01b28d2-3f19-4003-9ec3-2602e6f718f6","system_id":"levelo_inurba_marseille","lat":43.30477,"lon":5.37616,"is_reserved":false,"is_disabled":false,"rental_uris":{"android":"levelo://app?vid=b01b28d2-3f19-4003-9ec3-2602e6f718f6","ios":"levelo://app?vid=b01b28d2-3f19-4003-9ec3-2602e6f718f6"},"vehicle_type_id":"4","last_reported":1767943057,"current_range_meters":8400,"station_id":"","pricing_plan_id":"cebpf4jnsgd1na2vs0mg"},{"bike_id":"ff4d3f0c-f4ca-4e9d-a96d-386990436f7f","system_id":"levelo_inurba_marseille","lat":43.323489,"lon":5.367408,"is_reserved":false,"is_disabled":false,"rental_uris":{"android":"levelo://app?vid=ff4d3f0c-f4ca-4e9d-a96d-386990436f7f","ios":"levelo://app?vid=ff4d3f0c-f4ca-4e9d-a96d-386990436f7f"},"vehicle_type_id":"4","last_reported":1767943057,"current_range_meters":8400,"station_id":"ce4bhsh2rcd13ifvqi2g","pricing_plan_id":"cebpf4jnsgd1na2vs0mg"},{"bike_id":"b4702897-d3f0-43ef-959b-855897d2b5ad","system_id":"levelo_inurba_marseille","lat":43.26554,"lon":5.37298,"is_reserved":false,"is_disabled":false,"rental_uris":{"android":"levelo://app?vid=b4702897-d3f0-43ef-959b-855897d2b5ad","ios":"levelo://app?vid=b4702897-d3f0-43ef-959b-855897d2b5ad"},"vehicle_type_id":"4","last_reported":1767943057,"current_range_meters":8400,"station_id":"ce4bhg12rcd13ifvqf70","pricing_plan_id":"cebpf4jnsgd1na2vs0mg"},{"bike_id":"ed27761f-ddf8-4ca6-ad7f-042a477fd7ea","system_id":"levelo_inurba_marseille","lat":43.29523,"lon":5.37395,"is_reserved":false,"is_disabled":false,"rental_uris":{"android":"levelo://app?vid=ed27761f-ddf8-4ca6-ad7f-042a477fd7ea","ios":"levelo://app?vid=ed27761f-ddf8-4ca6-ad7f-042a477fd7ea"},"vehicle_type_id":"4","last_reported":1767943057,"current_range_meters":8400,"station_id":"","pricing_plan_id":"cebpf4jnsgd1na2vs0mg"},{"bike_id":"acf9b465-5657-433f-abd2-b0a7dddb60bc","system_id":"levelo_inurba_marseille","lat":43.265427,"lon":5.372952,"is_reserved":false,"is_disabled":false,"rental_uris":{"android":"levelo://app?vid=acf9b465-5657-433f-abd2-b0a7dddb60bc","ios":"levelo://app?vid=acf9b465-5657-433f-abd2-b0a7dddb60bc"},"vehicle_type_id":"4","last_reported":1767943057,"current_range_meters":8400,"station_id":"ce4bhg12rcd13ifvqf70","pricing_plan_id":"cebpf4jnsgd1na2vs0mg"},{"bike_id":"6b06f9d6-c38f-4326-b6d4-c284d1f3e548","system_id":"levelo_inurba_marseille","lat":43.289229,"lon":5.354765,"is_reserved":false,"is_disabled":true,"rental_uris":{"android":"levelo://app?vid=6b06f9d6-c38f-4326-b6d4-c284d1f3e548","ios":"levelo://app?vid=6b06f9d6-c38f-4326-b6d4-c284d1f3e548"},"vehicle_type_id":"4","last_reported":1767943057,"current_range_meters":8400,"station_id":"ce4bhb92rcd13ifvqen0","pricing_plan_id":"cebpf4jnsgd1na2vs0mg"},{"bike_id":"b909c541-cf8c-40c7-a3f1-643e84ca0b16","system_id":"levelo_inurba_marseille","lat":43.31684,"lon":5.40481,"is_reserved":false,"is_disabled":false,"rental_uris":{"android":"levelo://app?vid=b909c541-cf8c-40c7-a3f1-643e84ca0b16","ios":"levelo://app?vid=b909c541-cf8c-40c7-a3f1-643e84ca0b16"},"vehicle_type_id":"4","last_reported":1767943057,"current_range_meters":8400,"station_id":"ce4bh012rcd13ifvqd00","pricing_plan_id":"cebpf4jnsgd1na2vs0mg"},{"bike_id":"82c0a696-6183-4df7-9d3a-8136dced99f1","system_id":"levelo_inurba_marseille","lat":43.24787,"lon":5.37468,"is_reserved":false,"is_disabled":false,"rental_uris":{"android":"levelo://app?vid=82c0a696-6183-4df7-9d3a-8136dced99f1","ios":"levelo://app?vid=82c0a696-6183-4df7-9d3a-8136dced99f1"},"vehicle_type_id":"4","last_reported":1767943057,"current_range_meters":8400,"station_id":"ce4bhgh2rcd13ifvqfb0","pricing_plan_id":"cebpf4jnsgd1na2vs0mg"},{"bike_id":"baa1156a-155c-4625-a9d3-27c9511e7ffa","system_id":"levelo_inurba_marseille","lat":43.30325,"lon":5.373868,"is_reserved":false,"is_disabled":false,"rental_uris":{"android":"levelo://app?vid=baa1156a-155c-4625-a9d3-27c9511e7ffa","ios":"levelo://app?vid=baa1156a-155c-4625-a9d3-27c9511e7ffa"},"vehicle_type_id":"4","last_reported":1767943057,"current_range_meters":8400,"station_id":"","pricing_plan_id":"cebpf4jnsgd1na2vs0mg"},{"bike_id":"7556ec87-ee82-453f-8a43-79b64208618a","system_id":"levelo_inurba_marseille","lat":43.2114,"lon":5.35073,"is_reserved":false,"is_disabled":false,"rental_uris":{"android":"levelo://app?vid=7556ec87-ee82-453f-8a43-79b64208618a","ios":"levelo://app?vid=7556ec87-ee82-453f-8a43-79b64208618a"},"vehicle_type_id":"4","last_reported":1767943057,"current_range_meters":8400,"station_id":"st_cvj6sg6p6f1abm77japg","pricing_plan_id":"cebpf4jnsgd1na2vs0mg"},{"bike_id":"563f06c7-aaae-463f-bd77-2a2b09c362dc","system_id":"levelo_inurba_marseille","lat":43.26551,"lon":5.37292,"is_reserved":false,"is_disabled":false,"rental_uris":{"android":"levelo://app?vid=563f06c7-aaae-463f-bd77-2a2b09c362dc","ios":"levelo://app?vid=563f06c7-aaae-463f-bd77-2a2b09c362dc"},"vehicle_type_id":"4","last_reported":1767943057,"current_range_meters":8400,"station_id":"ce4bhg12rcd13ifvqf70","pricing_plan_id":"cebpf4jnsgd1na2vs0mg"},{"bike_id":"bfeb2665-4621-41d0-85e6-1bd77bbc9afb","system_id":"levelo_inurba_marseille","lat":43.32539,"lon":5.41433,"is_reserved":false,"is_disabled":false,"rental_uris":{"android":"levelo://app?vid=bfeb2665-4621-41d0-85e6-1bd77bbc9afb","ios":"levelo://app?vid=bfeb2665-4621-41d0-85e6-1bd77bbc9afb"},"vehicle_type_id":"4","last_reported":1767943057,"current_range_meters":8400,"station_id":"ce4bhq12rcd13ifvqhhg","pricing_plan_id":"cebpf4jnsgd1na2vs0mg"},{"bike_id":"7d50baf1-e702-4bc4-8ad1-ca576e44cfe3","system_id":"levelo_inurba_marseille","lat":43.24664,"lon":5.43107,"is_reserved":false,"is_disabled":false,"rental_uris":{"android":"levelo://app?vid=7d50baf1-e702-4bc4-8ad1-ca576e44cfe3","ios":"levelo://app?vid=7d50baf1-e702-4bc4-8ad1-ca576e44cfe3"},"vehicle_type_id":"4","last_reported":1767943057,"current_range_meters":8400,"station_id":"st_d2m6c4gdas8pm72e190g","pricing_plan_id":"cebpf4jnsgd1na2vs0mg"},{"bike_id":"85264b74-5b04-4dbe-94c6-abdbdfeafcf0","system_id":"levelo_inurba_marseille","lat":43.28469,"lon":5.48413,"is_reserved":false,"is_disabled":false,"rental_uris":{"android":"levelo://app?vid=85264b74-5b04-4dbe-94c6-abdbdfeafcf0","ios":"levelo://app?vid=85264b74-5b04-4dbe-94c6-abdbdfeafcf0"},"vehicle_type_id":"4","last_reported":1767943057,"current_range_meters":8400,"station_id":"st_d3svhcjqgbts73a3dn0g","pricing_plan_id":"cebpf4jnsgd1na2vs0mg"},{"bike_id":"917baaa6-5d19-4e19-b1f1-064996d3de7f","system_id":"levelo_inurba_marseille","lat":43.25082,"lon":5.39525,"is_reserved":false,"is_disabled":false,"rental_uris":{"android":"levelo://app?vid=917baaa6-5d19-4e19-b1f1-064996d3de7f","ios":"levelo://app?vid=917baaa6-5d19-4e19-b1f1-064996d3de7f"},"vehicle_type_id":"4","last_reported":1767943057,"current_range_meters":8400,"station_id":"ce4bhm12rcd13ifvqgkg","pricing_plan_id":"cebpf4jnsgd1na2vs0mg"},