{"last_updated":1766254481,"ttl":60,"version":"2.2","data":{"bikes":[{"bike_id":"436e467e-3ef8-4484-b12e-82fd46509f97","system_id":"levelo_inurba_marseille","lat":43.23313,"lon":5.44373,"is_reserved":false,"is_disabled":false,"rental_uris":{"android":"levelo://app?vid=436e467e-3ef8-4484-b12e-82fd46509f97","ios":"levelo://app?vid=436e467e-3ef8-4484-b12e-82fd46509f97"},"vehicle_type_id":"4","last_reported":1766254481,"current_range_meters":2800,"station_id":"","pricing_plan_id":"cebpf4jnsgd1na2vs0mg"},{"bike_id":"4a614ce4-d61c-499d-8955-0569e02f377b","system_id":"levelo_inurba_marseille","lat":43.27532,"lon":5.37311,"is_reserved":false,"is_disabled":false,"rental_uris":{"android":"levelo://app?vid=4a614ce4-d61c-499d-8955-0569e02f377b","ios":"levelo://app?vid=4a614ce4-d61c-499d-8955-0569e02f377b"},"vehicle_type_id":"4","last_reported":1766254481,"current_range_meters":2800,"station_id":"","pricing_plan_id":"cebpf4jnsgd1na2vs0mg"},{"bike_id":"5bb1bf7b-d2b1-411e-98a8-cd5a6b402bd6","system_id":"levelo_inurba_marseille","lat":43.28496,"lon":5.38424,"is_reserved":false,"is_disabled":false,"rental_uris":{"android":"levelo://app?vid=5bb1bf7b-d2b1-411e-98a8-cd5a6b402bd6","ios":"levelo://app?vid=5bb1bf7b-d2b1-411e-98a8-cd5a6b402bd6"},"vehicle_type_id":"4","last_reported":1766254481,"current_range_meters":2800,"station_id":"ce4bh512rcd13ifvqe3g","pricing_plan_id":"cebpf4jnsgd1na2vs0mg"},{"bike_id":"851b3791-fe3f-4fce-b8c4-7b7d2671a2be","system_id":"levelo_inurba_marseille","lat":43.29005,"lon":5.3561,"is_reserved":false,"is_disabled":false,"rental_uris":{"android":"levelo://app?vid=851b3791-fe3f-4fce-b8c4-7b7d2671a2be","ios":"levelo://app?vid=851b3791-fe3f-4fce-b8c4-7b7d2671a2be"},"vehicle_type_id":"4","last_reported":1766254481,"current_range_meters":2800,"station_id":"ce4bhb92rcd13ifvqen0","pricing_plan_id":"cebpf4jnsgd1na2vs0mg"},{"bike_id":"973e9250-4425-40c7-a330-85e364348cc8","system_id":"levelo_inurba_marseille","lat":43.27371,"lon":5.36255,"is_reserved":false,"is_disabled":false,"rental_uris":{"android":"levelo://app?vid=973e9250-4425-40c7-a330-85e364348cc8","ios":"levelo://app?vid=973e9250-4425-40c7-a330-85e364348cc8"},"vehicle_type_id":"4","last_reported":1766254481,"current_range_meters":2800,"station_id":"ce4bhbh2rcd13ifvqeo0","pricing_plan_id":"cebpf4jnsgd1na2vs0mg"},{"bike_id":"46e5faec-2282-4f13-90bc-6602ec0de353","system_id":"levelo_inurba_marseille","lat":43.265778,"lon":5.39013,"is_reserved":false,"is_disabled":false,"rental_uris":{"android":"levelo://app?vid=46e5faec-2282-4f13-90bc-6602ec0de353","ios":"levelo://app?vid=46e5faec-2282-4f13-90bc-6602ec0de353"},"vehicle_type_id":"4","last_reported":1766254481,"current_range_meters":2800,"station_id":"ce4bhe12rcd13ifvqf30","pricing_plan_id":"cebpf4jnsgd1na2vs0mg"},{"bike_id":"b0ea13a9-cd45-4f18-ad7f-a216cd8ff739","system_id":"levelo_inurba_marseille","lat":43.27178,"lon":5.39214,"is_reserved":false,"is_disabled":false,"rental_uris":{"android":"levelo://app?vid=b0ea13a9-cd45-4f18-ad7f-a216cd8ff739","ios":"levelo://app?vid=b0ea13a9-cd45-4f18-ad7f-a216cd8ff739"},"vehicle_type_id":"4","last_reported":1766254481,"current_range_meters":2800,"station_id":"ce4bhhp2rcd13ifvqfm0","pricing_plan_id":"cebpf4jnsgd1na2vs0mg"},{"bike_id":"204f4e52-223e-4ae7-8c33-a372925b828e","system_id":"levelo_inurba_marseille","lat":43.272111,"lon":5.391808,"is_reserved":false,"is_disabled":false,"rental_uris":{"android":"levelo://app?vid=204f4e52-223e-4ae7-8c33-a372925b828e","ios":"levelo://app?vid=204f4e52-223e-4ae7-8c33-a372925b828e"},"vehicle_type_id":"4","last_reported":1766254481,"current_range_meters":3200,"station_id":"ce4bhhp2rcd13ifvqfm0","pricing_plan_id":"cebpf4jnsgd1na2vs0mg"},{"bike_id":"ddf74a66-5f13-4abc-923d-8e4ee89432d9","system_id":"levelo_inurba_marseille","lat":43.29281,"lon":5.36837,"is_reserved":false,"is_disabled":false,"rental_uris":{"android":"levelo://app?vid=ddf74a66-5f13-4abc-923d-8e4ee89432d9","ios":"levelo://app?vid=ddf74a66-5f13-4abc-923d-8e4ee89432d9"},"vehicle_type_id":"4","last_reported":1766254481,"current_range_meters":3200,"station_id":"","pricing_plan_id":"cebpf4jnsgd1na2vs0mg"},{"bike_id":"5c82aa5d-e9af-478b-9ffa-e9de9eb19a05","system_id":"levelo_inurba_marseille","lat":43.24811,"lon":5.37455,"is_reserved":false,"is_disabled":true,"rental_uris":{"android":"levelo://app?vid=5c82aa5d-e9af-478b-9ffa-e9de9eb19a05","ios":"levelo://app?vid=5c82aa5d-e9af-478b-9ffa-e9de9eb19a05"},"vehicle_type_id":"4","last_reported":1766254481,"current_range_meters":3200,"station_id":"ce4bhgh2rcd13ifvqfb0","pricing_plan_id":"cebpf4jnsgd1na2vs0mg"},{"bike_id":"f45c3f17-e5b3-4662-a1cf-72d51736959e","system_id":"levelo_inurba_marseille","lat":43.29014,"lon":5.38133,"is_reserved":false,"is_disabled":false,"rental_uris":{"android":"levelo://app?vid=f45c3f17-e5b3-4662-a1cf-72d51736959e","ios":"levelo://app?vid=f45c3f17-e5b3-4662-a1cf-72d51736959e"},"vehicle_type_id":"4","last_reported":1766254481,"current_range_meters":3600,"station_id":"ce4bh4p2rcd13ifvqe1g","pricing_plan_id":"cebpf4jnsgd1na2vs0mg"},{"bike_id":"788c94de-1a40-4861-940f-f8c6403d139b","system_id":"levelo_inurba_marseille","lat":43.24809,"lon":5.37459,"is_reserved":false,"is_disabled":false,"rental_uris":{"android":"levelo://app?vid=788c94de-1a40-4861-940f-f8c6403d139b","ios":"levelo://app?vid=788c94de-1a40-4861-940f-f8c6403d139b"},"vehicle_type_id":"4","last_reported":1766254481,"current_range_meters":3600,"station_id":"ce4bhgh2rcd13ifvqfb0","pricing_plan_id":"cebpf4jnsgd1na2vs0mg"},{"bike_id":"f3a4c2fd-c27a-4ca6-bbe5-3949d2a88808","system_id":"levelo_inurba_marseille","lat":43.285734,"lon":5.429931,"is_reserved":false,"is_disabled":false,"rental_uris":{"android":"levelo://app?vid=f3a4c2fd-c27a-4ca6-bbe5-3949d2a88808","ios":"levelo://app?vid=f3a4c2fd-c27a-4ca6-bbe5-3949d2a88808"},"vehicle_type_id":"4","last_reported":1766254481,"current_range_meters":4000,"station_id":"","pricing_plan_id":"cebpf4jnsgd1na2vs0mg"},{"bike_id":"c5365846-c619-4f12-8c92-97c9f9725a15","system_id":"levelo_inurba_marseille","lat":43.29522,"lon":5.37918,"is_reserved":false,"is_disabled":false,"rental_uris":{"android":"levelo://app?vid=c5365846-c619-4f12-8c92-97c9f9725a15","ios":"levelo://app?vid=c5365846-c619-4f12-8c92-97c9f9725a15"},"vehicle_type_id":"4","last_reported":1766254481,"current_range_meters":4000,"station_id":"","pricing_plan_id":"cebpf4jnsgd1na2vs0mg"},{"bike_id":"f8611ade-e44a-4005-b035-0c2861161682","system_id":"levelo_inurba_marseille","lat":43.296234,"lon":5.406059,"is_reserved":false,"is_disabled":false,"rental_uris":{"android":"levelo://app?vid=f8611ade-e44a-4005-b035-0c2861161682","ios":"levelo://app?vid=f8611ade-e44a-4005-b035-0c2861161682"},"vehicle_type_id":"4","last_reported":1766254481,"current_range_meters":4000,"station_id":"","pricing_plan_id":"cebpf4jnsgd1na2vs0mg"},{"bike_id":"c989796d-dcc1-4fc7-b147-6dbca1d74de3","system_id":"levelo_inurba_marseille","lat":43.28154,"lon":5.38327,"is_reserved":false,"is_disabled":false,"rental_uris":{"android":"levelo://app?vid=c989796d-dcc1-4fc7-b147-6dbca1d74de3","ios":"levelo://app?vid=c989796d-dcc1-4fc7-b147-6dbca1d74de3"},"vehicle_type_id":"4","last_reported":1766254481,"current_range_meters":4400,"station_id":"","pricing_plan_id":"cebpf4jnsgd1na2vs0mg"},{"bike_id":"aa012364-4b1d-42f2-aabc-75dac469352c","system_id":"levelo_inurba_marseille","lat":43.2623,"lon":5.40447,"is_reserved":false,"is_disabled":false,"rental_uris":{"android":"levelo://app?vid=aa012364-4b1d-42f2-aabc-75dac469352c","ios":"levelo://app?vid=aa012364-4b1d-42f2-aabc-75dac469352c"},"vehicle_type_id":"4","last_reported":1766254481,"current_range_meters":4800,"station_id":"ce4bhmh2rcd13ifvqgmg","pricing_plan_id":"cebpf4jnsgd1na2vs0mg"},{"bike_id":"e2a9b7ba-b45a-4a5a-9a89-a4fae3311d11","system_id":"levelo_inurba_marseille","lat":43.25509,"lon":5.37659,"is_reserved":false,"is_disabled":false,"rental_uris":{"android":"levelo://app?vid=e2a9b7ba-b45a-4a5a-9a89-a4fae3311d11","ios":"levelo://app?vid=e2a9b7ba-b45a-4a5a-9a89-a4fae3311d11"},"vehicle_type_id":"4","last_reported":1766254481,"current_range_meters":4800,"station_id":"ce4bhh12rcd13ifvqff0","pricing_plan_id":"cebpf4jnsgd1na2vs0mg"},{"bike_id":"48e30a46-3a61-4ed5-93c8-2b0ee8661bac","system_id":"levelo_inurba_marseille","lat":43.29817,"lon":5.37788,"is_reserved":false,"is_disabled":false,"rental_uris":{"android":"levelo://app?vid=48e30a46-3a61-4ed5-93c8-2b0ee8661bac","ios":"levelo://app?vid=48e30a46-3a61-4ed5-93c8-2b0ee8661bac"},"vehicle_type_id":"4","last_reported":1766254481,"current_range_meters":5600,"station_id":"","pricing_plan_id":"cebpf4jnsgd1na2vs0mg"},{"bike_id":"cde75731-be94-4954-af76-b79651b240b9","system_id":"levelo_inurba_marseille","lat":43.2993,"lon":5.39397,"is_reserved":false,"is_disabled":false,"rental_uris":{"android":"levelo://app?vid=cde75731-be94-4954-af76-b79651b240b9","ios":"levelo://app?vid=cde75731-be94-4954-af76-b79651b240b9"},"vehicle_type_id":"4","last_reported":1766254481,"current_range_meters":6000,"station_id":"","pricing_plan_id":"cebpf4jnsgd1na2vs0mg"},{"bike_id":"30229b9a-9a15-47da-ad4a-bfe3427650f5","system_id":"levelo_inurba_marseille","lat":43.29042,"lon":5.38147,"is_reserved":false,"is_disabled":false,"rental_uris":{"android":"levelo://app?vid=30229b9a-9a15-47da-ad4a-bfe3427650f5","ios":"levelo://app?vid=30229b9a-9a15-47da-ad4a-bfe3427650f5"},"vehicle_type_id":"4","last_reported":1766254481,"current_range_meters":6000,"station_id":"ce4bh4p2rcd13ifvqe1g","pricing_plan_id":"cebpf4jnsgd1na2vs0mg"},{"bike_id":"91c907dc-ce6a-4640-9c95-aece17d49ec3","system_id":"levelo_inurba_marseille","lat":43.29608,"lon":5.37691,"is_reserved":false,"is_disabled":false,"rental_uris":{"android":"levelo://app?vid=91c907dc-ce6a-4640-9c95-aece17d49ec3","ios":"levelo://app?vid=91c907dc-ce6a-4640-9c95-aece17d49ec3"},"vehicle_type_id":"4","last_reported":1766254481,"current_range_meters":6000,"station_id":"ce4bgi92rcd13ifvqb90","pricing_plan_id":"cebpf4jnsgd1na2vs0mg"},{"bike_id":"c844a6af-1301-44d2-8b87-884c4f6e7e16","system_id":"levelo_inurba_marseille","lat":43.28484,"lon":5.38569,"is_reserved":false,"is_disabled":false,"rental_uris":{"android":"levelo://app?vid=c844a6af-1301-44d2-8b87-884c4f6e7e16","ios":"levelo://app?vid=c844a6af-1301-44d2-8b87-884c4f6e7e16"},"vehicle_type_id":"4","last_reported":1766254481,"current_range_meters":6000,"station_id":"ce4bh8p2rcd13ifvqeb0","pricing_plan_id":"cebpf4jnsgd1na2vs0mg"},{"bike_id":"078b7244-b55a-42d5-95ac-39ad634e0be9","system_id":"levelo_inurba_marseille","lat":43.298455,"lon":5.362784,"is_reserved":false,"is_disabled":false,"rental_uris":{"android":"levelo://app?vid=078b7244-b55a-42d5-95ac-39ad634e0be9","ios":"levelo://app?vid=078b7244-b55a-42d5-95ac-39ad634e0be9"},"vehicle_type_id":"4","last_reported":1766254481,"current_range_meters":6000,"station_id":"ce4bgpp2rcd13ifvqc3g","pricing_plan_id":"cebpf4jnsgd1na2vs0mg"},{"bike_id":"700442f5-a082-454e-8bc7-ab3bbb77bfce","system_id":"levelo_inurba_marseille","lat":43.26656,"lon":5.37435,"is_reserved":false,"is_disabled":false,"rental_uris":{"android":"levelo://app?vid=700442f5-a082-454e-8bc7-ab3bbb77bfce","ios":"levelo://app?vid=700442f5-a082-454e-8bc7-ab3bbb77bfce"},"vehicle_type_id":"4","last_reported":1766254481,"current_range_meters":6000,"station_id":"","pricing_plan_id":"cebpf4jnsgd1na2vs0mg"},{"bike_id":"0542b405-bdd6-414d-ab13-9c08de4ebb5b","system_id":"levelo_inurba_marseille","lat":43.24653,"lon":5.38898,"is_reserved":false,"is_disabled":false,"rental_uris":{"android":"levelo://app?vid=0542b405-bdd6-414d-ab13-9c08de4ebb5b","ios":"levelo://app?vid=0542b405-bdd6-414d-ab13-9c08de4ebb5b"},"vehicle_type_id":"4","last_reported":1766254481,"current_range_meters":6000,"station_id":"ce4bhg12rcd13ifvqf60","pricing_plan_id":"cebpf4jnsgd1na2vs0mg"},{"bike_id":"aeea8b8f-7017-4851-8498-538a913c28ac","system_id":"levelo_inurba_marseille","lat":43.29619,"lon":5.37737,"is_reserved":false,"is_disabled":false,"rental_uris":{"android":"levelo://app?vid=aeea8b8f-7017-4851-8498-538a913c28ac","ios":"levelo://app?vid=aeea8b8f-7017-4851-8498-538a913c28ac"},"vehicle_type_id":"4","last_reported":1766254481,"current_range_meters":6400,"station_id":"ce4bgi92rcd13ifvqb90","pricing_plan_id":"cebpf4jnsgd1na2vs0mg"},{"bike_id":"7d735d51-cc6e-4b97-aa05-8cab0caf52e5","system_id":"levelo_inurba_marseille","lat":43.28228,"lon":5.390793,"is_reserved":false,"is_disabled":false,"rental_uris":{"android":"levelo://app?vid=7d735d51-cc6e-4b97-aa05-8cab0caf52e5","ios":"levelo://app?vid=7d735d51-cc6e-4b97-aa05-8cab0caf52e5"},"vehicle_type_id":"4","last_reported":1766254481,"current_range_meters":6400,"station_id":"ce4bhn92rcd13ifvqgsg","pricing_plan_id":"cebpf4jnsgd1na2vs0mg"},{"bike_id":"27e6ea58-5ccf-4902-ad2a-71b7ca4e77a1","system_id":"levelo_inurba_marseille","lat":43.28871,"lon":5.42522,"is_reserved":false,"is_disabled":false,"rental_uris":{"android":"levelo://app?vid=27e6ea58-5ccf-4902-ad2a-71b7ca4e77a1","ios":"levelo://app?vid=27e6ea58-5ccf-4902-ad2a-71b7ca4e77a1"},"vehicle_type_id":"4","last_reported":1766254481,"current_range_meters":6400,"station_id":"st_d3b462108ojc7389ooeg","pricing_plan_id":"cebpf4jnsgd1na2vs0mg"},{"bike_id":"12138612-a604-48fa-aed1-618503ec37b2","system_id":"levelo_inurba_marseille","lat":43.261917,"lon":5.397343,"is_reserved":false,"is_disabled":false,"rental_uris":{"android":"levelo://app?vid=12138612-a604-48fa-aed1-618503ec37b2","ios":"levelo://app?vid=12138612-a604-48fa-aed1-618503ec37b2"},"vehicle_type_id":"4","last_reported":1766254481,"current_range_meters":6400,"station_id":"ce4bh512rcd13ifvqe2g","pricing_plan_id":"cebpf4jnsgd1na2vs0mg"},{"bike_id":"b2da97c5-62c8-4ec9-ac74-fb4039f0d49d","system_id":"levelo_inurba_marseille","lat":43.2906,"lon":5.35906,"is_reserved":false,"is_disabled":false,"rental_uris":{"android":"levelo://app?vid=b2da97c5-62c8-4ec9-ac74-fb4039f0d49d","ios":"levelo://app?vid=b2da97c5-62c8-4ec9-ac74-fb4039f0d49d"},"vehicle_type_id":"4","last_reported":1766254481,"current_range_meters":6800,"station_id":"ce4bha92rcd13ifvqeg0","pricing_plan_id":"cebpf4jnsgd1na2vs0mg"},{"bike_id":"b3a07bb8-ddcd-4e86-b746-e49da9fb6b2e","system_id":"levelo_inurba_marseille","lat":43.29513,"lon":5.37498,"is_reserved":false,"is_disabled":false,"rental_uris":{"android":"levelo://app?vid=b3a07bb8-ddcd-4e86-b746-e49da9fb6b2e","ios":"levelo://app?vid=b3a07bb8-ddcd-4e86-b746-e49da9fb6b2e"},"vehicle_type_id":"4","last_reported":1766254481,"current_range_meters":6800,"station_id":"ce4bgkp2rcd13ifvqbmg","pricing_plan_id":"cebpf4jnsgd1na2vs0mg"},{"bike_id":"f8cabbe3-e5bd-4f7e-a5a9-69eab5a9adac","system_id":"levelo_inurba_marseille","lat":43.29044,"lon":5.3996,"is_reserved":false,"is_disabled":false,"rental_uris":{"android":"levelo://app?vid=f8cabbe3-e5bd-4f7e-a5a9-69eab5a9adac","ios":"levelo://app?vid=f8cabbe3-e5bd-4f7e-a5a9-69eab5a9adac"},"vehicle_type_id":"4","last_reported":1766254481,"current_range_meters":6800,"station_id":"ce4bh392rcd13ifvqdm0","pricing_plan_id":"cebpf4jnsgd1na2vs0mg"},{"bike_id":"9c863439-cdff-4bc3-9778-1ad0b17eb845","system_id":"levelo_inurba_marseille","lat":43.28352,"lon":5.38114,"is_reserved":false,"is_disabled":false,"rental_uris":{"android":"levelo://app?vid=9c863439-cdff-4bc3-9778-1ad0b17eb845","ios":"levelo://app?vid=9c863439-cdff-4bc3-9778-1ad0b17eb845"},"vehicle_type_id":"4","last_reported":1766254481,"current_range_meters":6800,"station_id":"ce4bh412rcd13ifvqdr0","pricing_plan_id":"cebpf4jnsgd1na2vs0mg"},{"bike_id":"70d1a6fc-714c-4d28-90f5-0f0412ebb785","system_id":"levelo_inurba_marseille","lat":43.30435,"lon":5.39734,"is_reserved":false,"is_disabled":false,"rental_uris":{"android":"levelo://app?vid=70d1a6fc-714c-4d28-90f5-0f0412ebb785","ios":"levelo://app?vid=70d1a6fc-714c-4d28-90f5-0f0412ebb785"},"vehicle_type_id":"4","last_reported":1766254481,"current_range_meters":7200,"station_id":"ce4bh092rcd13ifvqd20","pricing_plan_id":"cebpf4jnsgd1na2vs0mg"},{"bike_id":"fcd75001-1344-42ec-a013-2f4c6240ace8","system_id":"levelo_inurba_marseille","lat":43.29817,"lon":5.3865,"is_reserved":false,"is_disabled":false,"rental_uris":{"android":"levelo://app?vid=fcd75001-1344-42ec-a013-2f4c6240ace8","ios":"levelo://app?vid=fcd75001-1344-42ec-a013-2f4c6240ace8"},"vehicle_type_id":"4","last_reported":1766254481,"current_range_meters":7200,"station_id":"","pricing_plan_id":"cebpf4jnsgd1na2vs0mg"},{"bike_id":"128f68df-e6c8-471d-bf6e-3a9c347712de","system_id":"levelo_inurba_marseille","lat":43.29234,"lon":5.40898,"is_reserved":false,"is_disabled":false,"rental_uris":{"android":"levelo://app?vid=128f68df-e6c8-471d-bf6e-3a9c347712de","ios":"levelo://app?vid=128f68df-e6c8-471d-bf6e-3a9c347712de"},"vehicle_type_id":"4","last_reported":1766254481,"current_range_meters":7200,"station_id":"ce4bh192rcd13ifvqdc0","pricing_plan_id":"cebpf4jnsgd1na2vs0mg"},{"bike_id":"1c79eb29-135e-40c1-8651-901759d4aaa6","system_id":"levelo_inurba_marseille","lat":43.28585,"lon":5.35299,"is_reserved":false,"is_disabled":false,"rental_uris":{"android":"levelo://app?vid=1c79eb29-135e-40c1-8651-901759d4aaa6","ios":"levelo://app?vid=1c79eb29-135e-40c1-8651-901759d4aaa6"},"vehicle_type_id":"4","last_reported":1766254481,"current_range_meters":7200,"station_id":"","pricing_plan_id":"cebpf4jnsgd1na2vs0mg"},{"bike_id":"778e8483-3c21-4f50-8f48-6f87c0ee13c5","system_id":"levelo_inurba_marseille","lat":43.27572,"lon":5.38423,"is_reserved":false,"is_disabled":false,"rental_uris":{"android":"levelo://app?vid=778e8483-3c21-4f50-8f48-6f87c0ee13c5","ios":"levelo://app?vid=778e8483-3c21-4f50-8f48-6f87c0ee13c5"},"vehicle_type_id":"4","last_reported":1766254481,"current_range_meters":7200,"station_id":"ce4bhh92rcd13ifvqfi0","pricing_plan_id":"cebpf4jnsgd1na2vs0mg"},{"bike_id":"c521da0f-e117-4fc7-a4d6-e31cb18f3388","system_id":"levelo_inurba_marseille","lat":43.29795,"lon":5.38103,"is_reserved":false,"is_disabled":false,"rental_uris":{"android":"levelo://app?vid=c521da0f-e117-4fc7-a4d6-e31cb18f3388","ios":"levelo://app?vid=c521da0f-e117-4fc7-a4d6-e31cb18f3388"},"vehicle_type_id":"4","last_reported":1766254481,"current_range_meters":7200,"station_id":"ce4bgip2rcd13ifvqbb0","pricing_plan_id":"cebpf4jnsgd1na2vs0mg"},{"bike_id":"d6eef481-8da3-4fc0-be6e-4b6f06ca446b","system_id":"levelo_inurba_marseille","lat":43.27812,"lon":5.40719,"is_reserved":false,"is_disabled":false,"rental_uris":{"android":"levelo://app?vid=d6eef481-8da3-4fc0-be6e-4b6f06ca446b","ios":"levelo://app?vid=d6eef481-8da3-4fc0-be6e-4b6f06ca446b"},"vehicle_type_id":"4","last_reported":1766254481,"current_range_meters":7200,"station_id":"ce4bhnh2rcd13ifvqgtg","pricing_plan_id":"cebpf4jnsgd1na2vs0mg"},{"bike_id":"cf6f8f91-1c80-4f05-af48-5cc512422eab","system_id":"levelo_inurba_marseille","lat":43.31238,"lon":5.36899,"is_reserved":false,"is_disabled":false,"rental_uris":{"android":"levelo://app?vid=cf6f8f91-1c80-4f05-af48-5cc512422eab","ios":"levelo://app?vid=cf6f8f91-1c80-4f05-af48-5cc512422eab"},"vehicle_type_id":"4","last_reported":1766254481,"current_range_meters":7200,"station_id":"ce4bgl92rcd13ifvqbq0","pricing_plan_id":"cebpf4jnsgd1na2vs0mg"},{"bike_id":"e93451ea-98d9-4d4c-a422-b9147ceed730","system_id":"levelo_inurba_marseille","lat":43.29199,"lon":5.35788,"is_reserved":false,"is_disabled":false,"rental_uris":{"android":"levelo://app?vid=e93451ea-98d9-4d4c-a422-b9147ceed730","ios":"levelo://app?vid=e93451ea-98d9-4d4c-a422-b9147ceed730"},"vehicle_type_id":"4","last_reported":1766254481,"current_range_meters":8000,"station_id":"ce4bhb12rcd13ifvqel0","pricing_plan_id":"cebpf4jnsgd1na2vs0mg"},{"bike_id":"46f6c635-a42f-42f7-979c-8e7dbaa711c6","system_id":"levelo_inurba_marseille","lat":43.27863,"lon":5.35459,"is_reserved":false,"is_disabled":false,"rental_uris":{"android":"levelo://app?vid=46f6c635-a42f-42f7-979c-8e7dbaa711c6","ios":"levelo://app?vid=46f6c635-a42f-42f7-979c-8e7dbaa711c6"},"vehicle_type_id":"4","last_reported":1766254481,"current_range_meters":8000,"station_id":"","pricing_plan_id":"cebpf4jnsgd1na2vs0mg"},{"bike_id":"26c78947-38c8-4fe2-9c04-b54c7806b0ba","system_id":"levelo_inurba_marseille","lat":43.2738,"lon":5.36245,"is_reserved":false,"is_disabled":true,"rental_uris":{"android":"levelo://app?vid=26c78947-38c8-4fe2-9c04-b54c7806b0ba","ios":"levelo://app?vid=26c78947-38c8-4fe2-9c04-b54c7806b0ba"},"vehicle_type_id":"4","last_reported":1766254481,"current_range_meters":8000,"station_id":"ce4bhbh2rcd13ifvqeo0","pricing_plan_id":"cebpf4jnsgd1na2vs0mg"},{"bike_id":"e473bd1d-bff8-4fb5-a794-d58a75d9821a","system_id":"levelo_inurba_marseille","lat":43.25336,"lon":5.42171,"is_reserved":false,"is_disabled":true,"rental_uris":{"android":"levelo://app?vid=e473bd1d-bff8-4fb5-a794-d58a75d9821a","ios":"levelo://app?vid=e473bd1d-bff8-4fb5-a794-d58a75d9821a"},"vehicle_type_id":"4","last_reported":1766254481,"current_range_meters":8000,"station_id":"st_d2m65c5bi1j21697t3ng","pricing_plan_id":"cebpf4jnsgd1na2vs0mg"},{"bike_id":"2fc78644-fed3-46e5-876d-45bfe9a25cc9","system_id":"levelo_inurba_marseille","lat":43.30952,"lon":5.39021,"is_reserved":false,"is_disabled":false,"rental_uris":{"android":"levelo://app?vid=2fc78644-fed3-46e5-876d-45bfe9a25cc9","ios":"levelo://app?vid=2fc78644-fed3-46e5-876d-45bfe9a25cc9"},"vehicle_type_id":"4","last_reported":1766254481,"current_range_meters":8000,"station_id":"ce4bgup2rcd13ifvqco0","pricing_plan_id":"cebpf4jnsgd1na2vs0mg"},{"bike_id":"f577692b-beb9-462c-a948-ba15765380b7","system_id":"levelo_inurba_marseille","lat":43.30076,"lon":5.3864,"is_reserved":false,"is_disabled":false,"rental_uris":{"android":"levelo://app?vid=f577692b-beb9-462c-a948-ba15765380b7","ios":"levelo://app?vid=f577692b-beb9-462c-a948-ba15765380b7"},"vehicle_type_id":"4","last_reported":1766254481,"current_range_meters":8000,"station_id":"","pricing_plan_id":"cebpf4jnsgd1na2vs0mg"},{"bike_id":"6ec9a6be-eed9-4adb-a34f-9a64c85ea37b","system_id":"levelo_inurba_marseille","lat":43.30635,"lon":5.37569,"is_reserved":false,"is_disabled":false,"rental_uris":{"android":"levelo://app?vid=6ec9a6be-eed9-4adb-a34f-9a64c85ea37b","ios":"levelo://app?vid=6ec9a6be-eed9-4adb-a34f-9a64c85ea37b"},"vehicle_type_id":"4","last_reported":1766254481,"current_range_meters":8000,"station_id":"","pricing_plan_id":"cebpf4jnsgd1na2vs0mg"},{"bike_id":"fc586a28-713c-4f6d-b61f-49ac1e3d7ec0","system_id":"levelo_inurba_marseille","lat":43.29973,"lon":5.37181,"is_reserved":false,"is_disabled":false,"rental_uris":{"android":"levelo://app?vid=fc586a28-713c-4f6d-b61f-49ac1e3d7ec0","ios":"levelo://app?vid=fc586a28-713c-4f6d-b61f-49ac1e3d7ec0"},"vehicle_type_id":"4","last_reported":1766254481,"current_range_meters":8000,"station_id":"ce4bgr92rcd13ifvqc7g","pricing_plan_id":"cebpf4jnsgd1na2vs0mg"},{"bike_id":"70173629-d5f3-4032-9a71-b12bf2ac8c21","system_id":"levelo_inurba_marseille","lat":43.290168,"lon":5.381276,"is_reserved":false,"is_disabled":false,"rental_uris":{"android":"levelo://app?vid=70173629-d5f3-4032-9a71-b12bf2ac8c21","ios":"levelo://app?vid=70173629-d5f3-4032-9a71-b12bf2ac8c21"},"vehicle_type_id":"4","last_reported":1766254481,"current_range_meters":8400,"station_id":"ce4bh4p2rcd13ifvqe1g","pricing_plan_id":"cebpf4jnsgd1na2vs0mg"},{"bike_id":"207776d7-b88e-48a6-b74f-2b1aae5e54c7","system_id":"levelo_inurba_marseille","lat":43.268961,"lon":5.387159,"is_reserved":false,"is_disabled":true,"rental_uris":{"android":"levelo://app?vid=207776d7-b88e-48a6-b74f-2b1aae5e54c7","ios":"levelo://app?vid=207776d7-b88e-48a6-b74f-2b1aae5e54c7"},"vehicle_type_id":"4","last_reported":1766254481,"current_range_meters":8400,"station_id":"","pricing_plan_id":"cebpf4jnsgd1na2vs0mg"},{"bike_id":"4a721085-9cf4-4c7b-9ae8-3abb654f8898","system_id":"levelo_inurba_marseille","lat":43.28854,"lon":5.35866,"is_reserved":false,"is_disabled":false,"rental_uris":{"android":"levelo://app?vid=4a721085-9cf4-4c7b-9ae8-3abb654f8898","ios":"levelo://app?vid=4a721085-9cf4-4c7b-9ae8-3abb654f8898"},"vehicle_type_id":"4","last_reported":1766254481,"current_range_meters":8400,"station_id":"ce4bhb12rcd13ifvqem0","pricing_plan_id":"cebpf4jnsgd1na2vs0mg"},{"bike_id":"342f1aab-f383-4095-9af9-476f39ec27e6","system_id":"levelo_inurba_marseille","lat":43.22563,"lon":5.41627,"is_reserved":false,"is_disabled":false,"rental_uris":{"android":"levelo://app?vid=342f1aab-f383-4095-9af9-476f39ec27e6","ios":"levelo://app?vid=342f1aab-f383-4095-9af9-476f39ec27e6"},"vehicle_type_id":"4","last_reported":1766254481,"current_range_meters":8400,"station_id":"st_d2o4gvlbi1j2169b742g","pricing_plan_id":"cebpf4jnsgd1na2vs0mg"},{"bike_id":"7905ae8d-cc82-4f8d-9146-9561edff9060","system_id":"levelo_inurba_marseille","lat":43.2952,"lon":5.375,"is_reserved":false,"is_disabled":false,"rental_uris":{"android":"levelo://app?vid=7905ae8d-cc82-4f8d-9146-9561edff9060","ios":"levelo://app?vid=7905ae8d-cc82-4f8d-9146-9561edff9060"},"vehicle_type_id":"4","last_reported":1766254481,"current_range_meters":8400,"station_id":"ce4bgkp2rcd13ifvqbmg","pricing_plan_id":"cebpf4jnsgd1na2vs0mg"},{"bike_id":"657677ff-bd0f-45b9-a985-0cee09b5fde2","system_id":"levelo_inurba_marseille","lat":43.317125,"lon":5.43701,"is_reserved":false,"is_disabled":false,"rental_uris":{"android":"levelo://app?vid=657677ff-bd0f-45b9-a985-0cee09b5fde2","ios":"levelo://app?vid=657677ff-bd0f-45b9-a985-0cee09b5fde2"},"vehicle_type_id":"4","last_reported":1766254481,"current_range_meters":8400,"station_id":"ce4bhp92rcd13ifvqhcg","pricing_plan_id":"cebpf4jnsgd1na2vs0mg"},{"bike_id":"0f9cf49a-a542-457b-9bb8-7dbdc79e4286","system_id":"levelo_inurba_marseille","lat":43.28379,"lon":5.3864,"is_reserved":false,"is_disabled":false,"rental_uris":{"android":"levelo://app?vid=0f9cf49a-a542-457b-9bb8-7dbdc79e4286","ios":"levelo://app?vid=0f9cf49a-a542-457b-9bb8-7dbdc79e4286"},"vehicle_type_id":"4","last_reported":1766254481,"current_range_meters":8800,"station_id":"ce4bh492rcd13ifvqdvg","pricing_plan_id":"cebpf4jnsgd1na2vs0mg"},{"bike_id":"3fbe86d6-50aa-4dbb-b535-cf846f212f8d","system_id":"levelo_inurba_marseille","lat":43.212,"lon":5.35067,"is_reserved":false,"is_disabled":true,"rental_uris":{"android":"levelo://app?vid=3fbe86d6-50aa-4dbb-b535-cf846f212f8d","ios":"levelo://app?vid=3fbe86d6-50aa-4dbb-b535-cf846f212f8d"},"vehicle_type_id":"4","last_reported":1766254481,"current_range_meters":8800,"station_id":"","pricing_plan_id":"cebpf4jnsgd1na2vs0mg"},{"bike_id":"d5c2d554-5edd-4b1f-8bbf-acce17eb866f","system_id":"levelo_inurba_marseille","lat":43.29327,"lon":5.37546,"is_reserved":false,"is_disabled":true,"rental_uris":{"android":"levelo://app?vid=d5c2d554-5edd-4b1f-8bbf-acce17eb866f","ios":"levelo://app?vid=d5c2d554-5edd-4b1f-8bbf-acce17eb866f"},"vehicle_type_id":"4","last_reported":1766254481,"current_range_meters":8800,"station_id":"","pricing_plan_id":"cebpf4jnsgd1na2vs0mg"},{"bike_id":"f1c6ef30-df40-4531-b632-19b3b8de3f93","system_id":"levelo_inurba_marseille","lat":43.337444,"lon":5.374475,"is_reserved":false,"is_disabled":false,"rental_uris":{"android":"levelo://app?vid=f1c6ef30-df40-4531-b632-19b3b8de3f93","ios":"levelo://app?vid=f1c6ef30-df40-4531-b632-19b3b8de3f93"},"vehicle_type_id":"4","last_reported":1766254481,"current_range_meters":8800,"station_id":"","pricing_plan_id":"cebpf4jnsgd1na2vs0mg"},{"bike_id":"bbacc191-282d-4ecd-858a-0cdfd37923cf","system_id":"levelo_inurba_marseille","lat":43.2957,"lon":5.39975,"is_reserved":false,"is_disabled":false,"rental_uris":{"android":"levelo://app?vid=bbacc191-282d-4ecd-858a-0cdfd37923cf","ios":"levelo://app?vid=bbacc191-282d-4ecd-858a-0cdfd37923cf"},"vehicle_type_id":"4","last_reported":1766254481,"current_range_meters":8800,"station_id":"ce4bh312rcd13ifvqdj0","pricing_plan_id":"cebpf4jnsgd1na2vs0mg"},{"bike_id":"c83d1f55-848c-49d2-a645-18db8b752e41","system_id":"levelo_inurba_marseille","lat":43.27997,"lon":5.41664,"is_reserved":false,"is_disabled":false,"rental_uris":{"android":"levelo://app?vid=c83d1f55-848c-49d2-a645-18db8b752e41","ios":"levelo://app?vid=c83d1f55-848c-49d2-a645-18db8b752e41"},"vehicle_type_id":"4","last_reported":1766254481,"current_range_meters":8800,"station_id":"ce4bho12rcd13ifvqh1g","pricing_plan_id":"cebpf4jnsgd1na2vs0mg"},{"bike_id":"8ddf5f0b-8638-4227-b0ee-efe27c023df6","system_id":"levelo_inurba_marseille","lat":43.308014,"lon":5.381433,"is_reserved":false,"is_disabled":true,"rental_uris":{"android":"levelo://app?vid=8ddf5f0b-8638-4227-b0ee-efe27c023df6","ios":"levelo://app?vid=8ddf5f0b-8638-4227-b0ee-efe27c023df6"},"vehicle_type_id":"4","last_reported":1766254481,"current_range_meters":8800,"station_id":"ce4bgjp2rcd13ifvqbh0","pricing_plan_id":"cebpf4jnsgd1na2vs0mg"},{"bike_id":"0b0c3165-7313-45d9-8069-1e1e73cd7203","system_id":"levelo_inurba_marseille","lat":43.2668,"lon":5.38267,"is_reserved":false,"is_disabled":false,"rental_uris":{"android":"levelo://app?vid=0b0c3165-7313-45d9-8069-1e1e73cd7203","ios":"levelo://app?vid=0b0c3165-7313-45d9-8069-1e1e73cd7203"},"vehicle_type_id":"4","last_reported":1766254481,"current_range_meters":8800,"station_id":"ce4bhg92rcd13ifvqf90","pricing_plan_id":"cebpf4jnsgd1na2vs0mg"},{"bike_id":"342831ac-e927-49d6-8b43-22fa72e5bef8","system_id":"levelo_inurba_marseille","lat":43.28045,"lon":5.38728,"is_reserved":false,"is_disabled":false,"rental_uris":{"android":"levelo://app?vid=342831ac-e927-49d6-8b43-22fa72e5bef8","ios":"levelo://app?vid=342831ac-e927-49d6-8b43-22fa72e5bef8"},"vehicle_type_id":"4","last_reported":1766254481,"current_range_meters":8800,"station_id":"","pricing_plan_id":"cebpf4jnsgd1na2vs0mg"},{"bike_id":"2774eca9-c878-4033-8514-2330fd47f167","system_id":"levelo_inurba_marseille","lat":43.28475,"lon":5.48397,"is_reserved":false,"is_disabled":false,"rental_uris":{"android":"levelo://app?vid=2774eca9-c878-4033-8514-2330fd47f167","ios":"levelo://app?vid=2774eca9-c878-4033-8514-2330fd47f167"},"vehicle_type_id":"4","last_reported":1766254481,"current_range_meters":8800,"station_id":"","pricing_plan_id":"cebpf4jnsgd1na2vs0mg"},{"bike_id":"3d8062de-4bd0-49c7-86a6-7bf3b5df4845","system_id":"levelo_inurba_marseille","lat":43.284781,"lon":5.484062,"is_reserved":false,"is_disabled":false,"rental_uris":{"android":"levelo://app?vid=3d8062de-4bd0-49c7-86a6-7bf3b5df4845","ios":"levelo://app?vid=3d8062de-4bd0-49c7-86a6-7bf3b5df4845"},"vehicle_type_id":"4","last_reported":1766254481,"current_range_meters":8800,"station_id":"st_d3svhcjqgbts73a3dn0g","pricing_plan_id":"cebpf4jnsgd1na2vs0mg"},{"bike_id":"69283cd9-f357-4be6-8046-be9aa81062b2","system_id":"levelo_inurba_marseille","lat":43.295797,"lon":5.375139,"is_reserved":false,"is_disabled":false,"rental_uris":{"android":"levelo://app?vid=69283cd9-f357-4be6-8046-be9aa81062b2","ios":"levelo://app?vid=69283cd9-f357-4be6-8046-be9aa81062b2"},"vehicle_type_id":"4","last_reported":1766254481,"current_range_meters":8800,"station_id":"ce4bgh92rcd13ifvqb50","pricing_plan_id":"cebpf4jnsgd1na2vs0mg"},{"bike_id":"bbe6d64f-2cb1-409d-ba24-ff27de876e43","system_id":"levelo_inurba_marseille","lat":43.28544,"lon":5.44093,"is_reserved":false,"is_disabled":false,"rental_uris":{"android":"levelo://app?vid=bbe6d64f-2cb1-409d-ba24-ff27de876e43","ios":"levelo://app?vid=bbe6d64f-2cb1-409d-ba24-ff27de876e43"},"vehicle_type_id":"4","last_reported":1766254481,"current_range_meters":9200,"station_id":"st_d3j3df2ikq2c7380ej80","pricing_plan_id":"cebpf4jnsgd1na2vs0mg"},{"bike_id":"e42ac7ed-f66a-44b4-b394-3418e57e1ec0","system_id":"levelo_inurba_marseille","lat":43.21189,"lon":5.35075,"is_reserved":false,"is_disabled":true,"rental_uris":{"android":"levelo://app?vid=e42ac7ed-f66a-44b4-b394-3418e57e1ec0","ios":"levelo://app?vid=e42ac7ed-f66a-44b4-b394-3418e57e1ec0"},"vehicle_type_id":"4","last_reported":1766254481,"current_range_meters":9200,"station_id":"st_cvj6sg6p6f1abm77japg","pricing_plan_id":"cebpf4jnsgd1na2vs0mg"},{"bike_id":"bcb638ec-1f7a-45bb-913f-62a7a0a453a1","system_id":"levelo_inurba_marseille","lat":43.29835,"lon":5.38574,"is_reserved":false,"is_disabled":false,"rental_uris":{"android":"levelo://app?vid=bcb638ec-1f7a-45bb-913f-62a7a0a453a1","ios":"levelo://app?vid=bcb638ec-1f7a-45bb-913f-62a7a0a453a1"},"vehicle_type_id":"4","last_reported":1766254481,"current_range_meters":9200,"station_id":"","pricing_plan_id":"cebpf4jnsgd1na2vs0mg"},{"bike_id":"16cbd352-d293-4a94-96f0-eea08a192136","system_id":"levelo_inurba_marseille","lat":43.26438,"lon":5.39059,"is_reserved":false,"is_disabled":false,"rental_uris":{"android":"levelo://app?vid=16cbd352-d293-4a94-96f0-eea08a192136","ios":"levelo://app?vid=16cbd352-d293-4a94-96f0-eea08a192136"},"vehicle_type_id":"4","last_reported":1766254481,"current_range_meters":9200,"station_id":"","pricing_plan_id":"cebpf4jnsgd1na2vs0mg"},{"bike_id":"e18d88c4-447f-4613-ac8f-5a6e3bb9a21c","system_id":"levelo_inurba_marseille","lat":43.29824,"lon":5.44083,"is_reserved":false,"is_disabled":false,"rental_uris":{"android":"levelo://app?vid=e18d88c4-447f-4613-ac8f-5a6e3bb9a21c","ios":"levelo://app?vid=e18d88c4-447f-4613-ac8f-5a6e3bb9a21c"},"vehicle_type_id":"4","last_reported":1766254481,"current_range_meters":9200,"station_id":"","pricing_plan_id":"cebpf4jnsgd1na2vs0mg"},{"bike_id":"fb9985ff-11e8-4491-b375-e13a68b9fe41","system_id":"levelo_inurba_marseille","lat":43.293124,"lon":5.371801,"is_reserved":false,"is_disabled":false,"rental_uris":{"android":"levelo://app?vid=fb9985ff-11e8-4491-b375-e13a68b9fe41","ios":"levelo://app?vid=fb9985ff-11e8-4491-b375-e13a68b9fe41"},"vehicle_type_id":"4","last_reported":1766254481,"current_range_meters":9200,"station_id":"ce4bgh92rcd13ifvqb40","pricing_plan_id":"cebpf4jnsgd1na2vs0mg"},{"bike_id":"a155df3e-4b60-4af2-bb99-ef9672812592","system_id":"levelo_inurba_marseille","lat":43.31185,"lon":5.38151,"is_reserved":false,"is_disabled":false,"rental_uris":{"android":"levelo://app?vid=a155df3e-4b60-4af2-bb99-ef9672812592","ios":"levelo://app?vid=a155df3e-4b60-4af2-bb99-ef9672812592"},"vehicle_type_id":"4","last_reported":1766254481,"current_range_meters":9200,"station_id":"","pricing_plan_id":"cebpf4jnsgd1na2vs0mg"},{"bike_id":"b66452a7-bad6-4e84-bd53-26b0555471d7","system_id":"levelo_inurba_marseille","lat":43.30936,"lon":5.40141,"is_reserved":false,"is_disabled":false,"rental_uris":{"android":"levelo://app?vid=b66452a7-bad6-4e84-bd53-26b0555471d7","ios":"levelo://app?vid=b66452a7-bad6-4e84-bd53-26b0555471d7"},"vehicle_type_id":"4","last_reported":1766254481,"current_range_meters":9200,"station_id":"ce4bgvp2rcd13ifvqct0","pricing_plan_id":"cebpf4jnsgd1na2vs0mg"},{"bike_id":"11e96860-a03d-49ba-8a37-5389c8f69bf9","system_id":"levelo_inurba_marseille","lat":43.29263,"lon":5.37721,"is_reserved":false,"is_disabled":false,"rental_uris":{"android":"levelo://app?vid=11e96860-a03d-49ba-8a37-5389c8f69bf9","ios":"levelo://app?vid=11e96860-a03d-49ba-8a37-5389c8f69bf9"},"vehicle_type_id":"4","last_reported":1766254481,"current_range_meters":9600,"station_id":"ce4bh512rcd13ifvqe2g","pricing_plan_id":"cebpf4jnsgd1na2vs0mg"},{"bike_id":"025bcf3c-9127-4e0c-b7ed-8709d35ce958","system_id":"levelo_inurba_marseille","lat":43.31757,"lon":5.37215,"is_reserved":false,"is_disabled":false,"rental_uris":{"android":"levelo://app?vid=025bcf3c-9127-4e0c-b7ed-8709d35ce958","ios":"levelo://app?vid=025bcf3c-9127-4e0c-b7ed-8709d35ce958"},"vehicle_type_id":"4","last_reported":1766254481,"current_range_meters":9600,"station_id":"","pricing_plan_id":"cebpf4jnsgd1na2vs0mg"},{"bike_id":"99ad97c1-5a83-4b1c-9cf1-08492f7d7210","system_id":"levelo_inurba_marseille","lat":43.29249,"lon":5.409,"is_reserved":false,"is_disabled":false,"rental_uris":{"android":"levelo://app?vid=99ad97c1-5a83-4b1c-9cf1-08492f7d7210","ios":"levelo://app?vid=99ad97c1-5a83-4b1c-9cf1-08492f7d7210"},"vehicle_type_id":"4","last_reported":1766254481,"current_range_meters":9600,"station_id":"ce4bh192rcd13ifvqdc0","pricing_plan_id":"cebpf4jnsgd1na2vs0mg"},{"bike_id":"4a53d494-69c4-49cb-9d98-2171acee5734","system_id":"levelo_inurba_marseille","lat":43.286135,"lon":5.35855,"is_reserved":false,"is_disabled":false,"rental_uris":{"android":"levelo://app?vid=4a53d494-69c4-49cb-9d98-2171acee5734","ios":"levelo://app?vid=4a53d494-69c4-49cb-9d98-2171acee5734"},"vehicle_type_id":"4","last_reported":1766254481,"current_range_meters":9600,"station_id":"ce4bgi12rcd13ifvqb70","pricing_plan_id":"cebpf4jnsgd1na2vs0mg"},{"bike_id":"0c1f6896-cbd5-4c55-b68a-3cd9b92201dc","system_id":"levelo_inurba_marseille","lat":43.29895,"lon":5.43666,"is_reserved":false,"is_disabled":false,"rental_uris":{"android":"levelo://app?vid=0c1f6896-cbd5-4c55-b68a-3cd9b92201dc","ios":"levelo://app?vid=0c1f6896-cbd5-4c55-b68a-3cd9b92201dc"},"vehicle_type_id":"4","last_reported":1766254481,"current_range_meters":9600,"station_id":"ce4bhpp2rcd13ifvqhfg","pricing_plan_id":"cebpf4jnsgd1na2vs0mg"},{"bike_id":"156e61f2-3d75-4260-9924-a8b3ec92c21b","system_id":"levelo_inurba_marseille","lat":43.22554,"lon":5.41634,"is_reserved":false,"is_disabled":true,"rental_uris":{"android":"levelo://app?vid=156e61f2-3d75-4260-9924-a8b3ec92c21b","ios":"levelo://app?vid=156e61f2-3d75-4260-9924-a8b3ec92c21b"},"vehicle_type_id":"4","last_reported":1766254481,"current_range_meters":9600,"station_id":"st_d2o4gvlbi1j2169b742g","pricing_plan_id":"cebpf4jnsgd1na2vs0mg"},{"bike_id":"386d9b2e-68db-4c0e-ad9a-abd598255140","system_id":"levelo_inurba_marseille","lat":43.29265,"lon":5.37629,"is_reserved":false,"is_disabled":false,"rental_uris":{"android":"levelo://app?vid=386d9b2e-68db-4c0e-ad9a-abd598255140","ios":"levelo://app?vid=386d9b2e-68db-4c0e-ad9a-abd598255140"},"vehicle_type_id":"4","last_reported":1766254481,"current_range_meters":9600,"station_id":"ce4bgi12rcd13ifvqb80","pricing_plan_id":"cebpf4jnsgd1na2vs0mg"},{"bike_id":"af1f9193-90aa-4f34-b2c4-fb0bbaea183c","system_id":"levelo_inurba_marseille","lat":43.28489,"lon":5.48393,"is_reserved":false,"is_disabled":false,"rental_uris":{"android":"levelo://app?vid=af1f9193-90aa-4f34-b2c4-fb0bbaea183c","ios":"levelo://app?vid=af1f9193-90aa-4f34-b2c4-fb0bbaea183c"},"vehicle_type_id":"4","last_reported":1766254481,"current_range_meters":9600,"station_id":"st_d3svhcjqgbts73a3dn0g","pricing_plan_id":"cebpf4jnsgd1na2vs0mg"},{"bike_id":"db0b6e17-f007-4555-a115-7884737cc2e8","system_id":"levelo_inurba_marseille","lat":43.28443,"lon":5.39205,"is_reserved":false,"is_disabled":false,"rental_uris":{"android":"levelo://app?vid=db0b6e17-f007-4555-a115-7884737cc2e8","ios":"levelo://app?vid=db0b6e17-f007-4555-a115-7884737cc2e8"},"vehicle_type_id":"4","last_reported":1766254481,"current_range_meters":10000,"station_id":"ce4bhoh2rcd13ifvqh5g","pricing_plan_id":"cebpf4jnsgd1na2vs0mg"},{"bike_id":"13510b18-4a9b-47d0-a954-6d7cdc2c118c","system_id":"levelo_inurba_marseille","lat":43.28487,"lon":5.48395,"is_reserved":false,"is_disabled":false,"rental_uris":{"android":"levelo://app?vid=13510b18-4a9b-47d0-a954-6d7cdc2c118c","ios":"levelo://app?vid=13510b18-4a9b-47d0-a954-6d7cdc2c118c"},"vehicle_type_id":"4","last_reported":1766254481,"current_range_meters":10000,"station_id":"","pricing_plan_id":"cebpf4jnsgd1na2vs0mg"},{"bike_id":"715d9561-8fa5-47bb-9c01-bb5405ae1ea0","system_id":"levelo_inurba_marseille","lat":43.295261,"lon":5.374888,"is_reserved":false,"is_disabled":false,"rental_uris":{"android":"levelo://app?vid=715d9561-8fa5-47bb-9c01-bb5405ae1ea0","ios":"levelo://app?vid=715d9561-8fa5-47bb-9c01-bb5405ae1ea0"},"vehicle_type_id":"4","last_reported":1766254481,"current_range_meters":10000,"station_id":"ce4bgkp2rcd13ifvqbmg","pricing_plan_id":"cebpf4jnsgd1na2vs0mg"},{"bike_id":"2d867c3d-a460-4764-ab61-1da2f9fb0b03","system_id":"levelo_inurba_marseille","lat":43.29224,"lon":5.36051,"is_reserved":false,"is_disabled":true,"rental_uris":{"android":"levelo://app?vid=2d867c3d-a460-4764-ab61-1da2f9fb0b03","ios":"levelo://app?vid=2d867c3d-a460-4764-ab61-1da2f9fb0b03"},"vehicle_type_id":"4","last_reported":1766254481,"current_range_meters":10000,"station_id":"","pricing_plan_id":"cebpf4jnsgd1na2vs0mg"},{"bike_id":"b54038a2-909c-416b-b201-a58c8e32d843","system_id":"levelo_inurba_marseille","lat":43.29528,"lon":5.38556,"is_reserved":false,"is_disabled":false,"rental_uris":{"android":"levelo://app?vid=b54038a2-909c-416b-b201-a58c8e32d843","ios":"levelo://app?vid=b54038a2-909c-416b-b201-a58c8e32d843"},"vehicle_type_id":"4","last_reported":1766254481,"current_range_meters":10000,"station_id":"ce4bgih2rcd13ifvqba0","pricing_plan_id":"cebpf4jnsgd1na2vs0mg"},{"bike_id":"20e9dd8e-ed66-4bff-9188-35cbfde59a24","system_id":"levelo_inurba_marseille","lat":43.32323,"lon":5.39369,"is_reserved":false,"is_disabled":true,"rental_uris":{"android":"levelo://app?vid=20e9dd8e-ed66-4bff-9188-35cbfde59a24","ios":"levelo://app?vid=20e9dd8e-ed66-4bff-9188-35cbfde59a24"},"vehicle_type_id":"4","last_reported":1766254481,"current_range_meters":10000,"station_id":"","pricing_plan_id":"cebpf4jnsgd1na2vs0mg"},{"bike_id":"8c3bb80d-c85a-4921-aa94-9dd5cdc9e58a","system_id":"levelo_inurba_marseille","lat":43.295,"lon":5.43298,"is_reserved":false,"is_disabled":false,"rental_uris":{"android":"levelo://app?vid=8c3bb80d-c85a-4921-aa94-9dd5cdc9e58a","ios":"levelo://app?vid=8c3bb80d-c85a-4921-aa94-9dd5cdc9e58a"},"vehicle_type_id":"4","last_reported":1766254481,"current_range_meters":10000,"station_id":"st_d3j5ugp08ojc73fj9d10","pricing_plan_id":"cebpf4jnsgd1na2vs0mg"},{"bike_id":"a5973c9d-7726-4950-9e13-2f71380599c8","system_id":"levelo_inurba_marseille","lat":43.28224,"lon":5.39076,"is_reserved":false,"is_disabled":false,"rental_uris":{"android":"levelo://app?vid=a5973c9d-7726-4950-9e13-2f71380599c8","ios":"levelo://app?vid=a5973c9d-7726-4950-9e13-2f71380599c8"},"vehicle_type_id":"4","last_reported":1766254481,"current_range_meters":10000,"station_id":"ce4bhn92rcd13ifvqgsg","pricing_plan_id":"cebpf4jnsgd1na2vs0mg"},{"bike_id":"3376eee6-bbde-4036-be12-762e39561f80","system_id":"levelo_inurba_marseille","lat":43.28265,"lon":5.35067,"is_reserved":false,"is_disabled":false,"rental_uris":{"android":"levelo://app?vid=3376eee6-bbde-4036-be12-762e39561f80","ios":"levelo://app?vid=3376eee6-bbde-4036-be12-762e39561f80"},"vehicle_type_id":"4","last_reported":1766254481,"current_range_meters":10000,"station_id":"ce4bhbp2rcd13ifvqerg","pricing_plan_id":"cebpf4jnsgd1na2vs0mg"},{"bike_id":"44260141-4029-40fc-9c3d-97bb94516402","system_id":"levelo_inurba_marseille","lat":43.29313,"lon":5.37185,"is_reserved":false,"is_disabled":false,"rental_uris":{"android":"levelo://app?vid=44260141-4029-40fc-9c3d-97bb94516402","ios":"levelo://app?vid=44260141-4029-40fc-9c3d-97bb94516402"},"vehicle_type_id":"4","last_reported":1766254481,"current_range_meters":10000,"station_id":"ce4bgh92rcd13ifvqb40","pricing_plan_id":"cebpf4jnsgd1na2vs0mg"},{"bike_id":"28d36d66-e4d6-4e13-a6c5-33e9d81e47d2","system_id":"levelo_inurba_marseille","lat":43.2961,"lon":5.37677,"is_reserved":false,"is_disabled":false,"rental_uris":{"android":"levelo://app?vid=28d36d66-e4d6-4e13-a6c5-33e9d81e47d2","ios":"levelo://app?vid=28d36d66-e4d6-4e13-a6c5-33e9d81e47d2"},"vehicle_type_id":"4","last_reported":1766254481,"current_range_meters":10800,"station_id":"ce4bgi92rcd13ifvqb90","pricing_plan_id":"cebpf4jnsgd1na2vs0mg"},{"bike_id":"2fda15d0-a6ef-4d8e-9c3f-6c588efb6ad3","system_id":"levelo_inurba_marseille","lat":43.23784,"lon":5.36635,"is_reserved":false,"is_disabled":false,"rental_uris":{"android":"levelo://app?vid=2fda15d0-a6ef-4d8e-9c3f-6c588efb6ad3","ios":"levelo://app?vid=2fda15d0-a6ef-4d8e-9c3f-6c588efb6ad3"},"vehicle_type_id":"4","last_reported":1766254481,"current_range_meters":10800,"station_id":"st_d3nk18o9ro0c73en2l3g","pricing_plan_id":"cebpf4jnsgd1na2vs0mg"},{"bike_id":"9288dce9-f7b9-4348-89e0-817fc8bdda7b","system_id":"levelo_inurba_marseille","lat":43.29579,"lon":5.37505,"is_reserved":false,"is_disabled":false,"rental_uris":{"android":"levelo://app?vid=9288dce9-f7b9-4348-89e0-817fc8bdda7b","ios":"levelo://app?vid=9288dce9-f7b9-4348-89e0-817fc8bdda7b"},"vehicle_type_id":"4","last_reported":1766254481,"current_range_meters":10800,"station_id":"ce4bgh92rcd13ifvqb50","pricing_plan_id":"cebpf4jnsgd1na2vs0mg"},{"bike_id":"d333f5c5-54f8-4cf5-940a-bb6a2ed8e5fd","system_id":"levelo_inurba_marseille","lat":43.30557,"lon":5.37648,"is_reserved":false,"is_disabled":false,"rental_uris":{"android":"levelo://app?vid=d333f5c5-54f8-4cf5-940a-bb6a2ed8e5fd","ios":"levelo://app?vid=d333f5c5-54f8-4cf5-940a-bb6a2ed8e5fd"},"vehicle_type_id":"4","last_reported":1766254481,"current_range_meters":10800,"station_id":"","pricing_plan_id":"cebpf4jnsgd1na2vs0mg"},{"bike_id":"82a22c69-4528-497e-a34e-a79f9053706d","system_id":"levelo_inurba_marseille","lat":43.21191,"lon":5.35068,"is_reserved":false,"is_disabled":false,"rental_uris":{"android":"levelo://app?vid=82a22c69-4528-497e-a34e-a79f9053706d","ios":"levelo://app?vid=82a22c69-4528-497e-a34e-a79f9053706d"},"vehicle_type_id":"4","last_reported":1766254481,"current_range_meters":10800,"station_id":"","pricing_plan_id":"cebpf4jnsgd1na2vs0mg"},{"bike_id":"f3718731-22e8-48f9-bdc9-85867161b03f","system_id":"levelo_inurba_marseille","lat":43.31041,"lon":5.40071,"is_reserved":false,"is_disabled":false,"rental_uris":{"android":"levelo://app?vid=f3718731-22e8-48f9-bdc9-85867161b03f","ios":"levelo://app?vid=f3718731-22e8-48f9-bdc9-85867161b03f"},"vehicle_type_id":"4","last_reported":1766254481,"current_range_meters":10800,"station_id":"","pricing_plan_id":"cebpf4jnsgd1na2vs0mg"},{"bike_id":"9ed2abc5-3eb4-46ee-9006-c9e3411abb84","system_id":"levelo_inurba_marseille","lat":43.263633,"lon":5.399345,"is_reserved":false,"is_disabled":false,"rental_uris":{"android":"levelo://app?vid=9ed2abc5-3eb4-46ee-9006-c9e3411abb84","ios":"levelo://app?vid=9ed2abc5-3eb4-46ee-9006-c9e3411abb84"},"vehicle_type_id":"4","last_reported":1766254481,"current_range_meters":10800,"station_id":"","pricing_plan_id":"cebpf4jnsgd1na2vs0mg"},{"bike_id":"ce9b0ccc-7bfd-4069-a59b-fd440a9983df","system_id":"levelo_inurba_marseille","lat":43.295227,"lon":5.375044,"is_reserved":false,"is_disabled":false,"rental_uris":{"android":"levelo://app?vid=ce9b0ccc-7bfd-4069-a59b-fd440a9983df","ios":"levelo://app?vid=ce9b0ccc-7bfd-4069-a59b-fd440a9983df"},"vehicle_type_id":"4","last_reported":1766254481,"current_range_meters":10800,"station_id":"ce4bgkp2rcd13ifvqbmg","pricing_plan_id":"cebpf4jnsgd1na2vs0mg"},{"bike_id":"e690c867-6f92-4878-bff7-a3243322d024","system_id":"levelo_inurba_marseille","lat":43.29494,"lon":5.42766,"is_reserved":false,"is_disabled":false,"rental_uris":{"android":"levelo://app?vid=e690c867-6f92-4878-bff7-a3243322d024","ios":"levelo://app?vid=e690c867-6f92-4878-bff7-a3243322d024"},"vehicle_type_id":"4","last_reported":1766254481,"current_range_meters":10800,"station_id":"","pricing_plan_id":"cebpf4jnsgd1na2vs0mg"},{"bike_id":"4f2bc6c6-d63f-4e59-bdbf-91760def261d","system_id":"levelo_inurba_marseille","lat":43.28535,"lon":5.441,"is_reserved":false,"is_disabled":false,"rental_uris":{"android":"levelo://app?vid=4f2bc6c6-d63f-4e59-bdbf-91760def261d","ios":"levelo://app?vid=4f2bc6c6-d63f-4e59-bdbf-91760def261d"},"vehicle_type_id":"4","last_reported":1766254481,"current_range_meters":10800,"station_id":"st_d3j3df2ikq2c7380ej80","pricing_plan_id":"cebpf4jnsgd1na2vs0mg"},{"bike_id":"60104876-cfb4-4c08-831d-06fdc216973b","system_id":"levelo_inurba_marseille","lat":43.29971,"lon":5.38472,"is_reserved":false,"is_disabled":true,"rental_uris":{"android":"levelo://app?vid=60104876-cfb4-4c08-831d-06fdc216973b","ios":"levelo://app?vid=60104876-cfb4-4c08-831d-06fdc216973b"},"vehicle_type_id":"4","last_reported":1766254481,"current_range_meters":10800,"station_id":"ce4bgj92rcd13ifvqbd0","pricing_plan_id":"cebpf4jnsgd1na2vs0mg"},{"bike_id":"90dac6f2-4e58-4623-b929-4f8d06ec1c31","system_id":"levelo_inurba_marseille","lat":43.28524,"lon":5.42531,"is_reserved":false,"is_disabled":false,"rental_uris":{"android":"levelo://app?vid=90dac6f2-4e58-4623-b929-4f8d06ec1c31","ios":"levelo://app?vid=90dac6f2-4e58-4623-b929-4f8d06ec1c31"},"vehicle_type_id":"4","last_reported":1766254481,"current_range_meters":11200,"station_id":"","pricing_plan_id":"cebpf4jnsgd1na2vs0mg"},{"bike_id":"db3dd2e5-bfe5-4ef9-ac56-a9eab3a3f3f6","system_id":"levelo_inurba_marseille","lat":43.29274,"lon":5.3684,"is_reserved":false,"is_disabled":false,"rental_uris":{"android":"levelo://app?vid=db3dd2e5-bfe5-4ef9-ac56-a9eab3a3f3f6","ios":"levelo://app?vid=db3dd2e5-bfe5-4ef9-ac56-a9eab3a3f3f6"},"vehicle_type_id":"4","last_reported":1766254481,"current_range_meters":11200,"station_id":"","pricing_plan_id":"cebpf4jnsgd1na2vs0mg"},{"bike_id":"5cdf0c26-71fe-4230-ab4f-b50d47db508a","system_id":"levelo_inurba_marseille","lat":43.3014,"lon":5.3976,"is_reserved":false,"is_disabled":false,"rental_uris":{"android":"levelo://app?vid=5cdf0c26-71fe-4230-ab4f-b50d47db508a","ios":"levelo://app?vid=5cdf0c26-71fe-4230-ab4f-b50d47db508a"},"vehicle_type_id":"4","last_reported":1766254481,"current_range_meters":11200,"station_id":"","pricing_plan_id":"cebpf4jnsgd1na2vs0mg"},{"bike_id":"628a75f3-7312-4f05-a812-11eaca59fded","system_id":"levelo_inurba_marseille","lat":43.28486,"lon":5.38565,"is_reserved":false,"is_disabled":false,"rental_uris":{"android":"levelo://app?vid=628a75f3-7312-4f05-a812-11eaca59fded","ios":"levelo://app?vid=628a75f3-7312-4f05-a812-11eaca59fded"},"vehicle_type_id":"4","last_reported":1766254481,"current_range_meters":11200,"station_id":"ce4bh8p2rcd13ifvqeb0","pricing_plan_id":"cebpf4jnsgd1na2vs0mg"},{"bike_id":"7805d77b-04d7-43bf-aba7-0ada439e7ea9","system_id":"levelo_inurba_marseille","lat":43.286942,"lon":5.373866,"is_reserved":false,"is_disabled":false,"rental_uris":{"android":"levelo://app?vid=7805d77b-04d7-43bf-aba7-0ada439e7ea9","ios":"levelo://app?vid=7805d77b-04d7-43bf-aba7-0ada439e7ea9"},"vehicle_type_id":"4","last_reported":1766254481,"current_range_meters":11200,"station_id":"ce4bh692rcd13ifvqea0","pricing_plan_id":"cebpf4jnsgd1na2vs0mg"},{"bike_id":"cc90e2c4-8295-441e-9856-0e38a6c7e045","system_id":"levelo_inurba_marseille","lat":43.2957,"lon":5.40645,"is_reserved":false,"is_disabled":false,"rental_uris":{"android":"levelo://app?vid=cc90e2c4-8295-441e-9856-0e38a6c7e045","ios":"levelo://app?vid=cc90e2c4-8295-441e-9856-0e38a6c7e045"},"vehicle_type_id":"4","last_reported":1766254481,"current_range_meters":11200,"station_id":"","pricing_plan_id":"cebpf4jnsgd1na2vs0mg"},{"bike_id":"c84b8e47-5802-4c21-b1cc-1df47c4f26c2","system_id":"levelo_inurba_marseille","lat":43.28477,"lon":5.48386,"is_reserved":false,"is_disabled":false,"rental_uris":{"android":"levelo://app?vid=c84b8e47-5802-4c21-b1cc-1df47c4f26c2","ios":"levelo://app?vid=c84b8e47-5802-4c21-b1cc-1df47c4f26c2"},"vehicle_type_id":"4","last_reported":1766254481,"current_range_meters":11200,"station_id":"","pricing_plan_id":"cebpf4jnsgd1na2vs0mg"},{"bike_id":"291505b5-260d-45ae-bcc9-a273c15bfa69","system_id":"levelo_inurba_marseille","lat":43.283462,"lon":5.380991,"is_reserved":false,"is_disabled":false,"rental_uris":{"android":"levelo://app?vid=291505b5-260d-45ae-bcc9-a273c15bfa69","ios":"levelo://app?vid=291505b5-260d-45ae-bcc9-a273c15bfa69"},"vehicle_type_id":"4","last_reported":1766254481,"current_range_meters":11200,"station_id":"ce4bh412rcd13ifvqdr0","pricing_plan_id":"cebpf4jnsgd1na2vs0mg"},{"bike_id":"98c040ff-ac12-4358-bded-c79cb9358db9","system_id":"levelo_inurba_marseille","lat":43.31721,"lon":5.42397,"is_reserved":false,"is_disabled":false,"rental_uris":{"android":"levelo://app?vid=98c040ff-ac12-4358-bded-c79cb9358db9","ios":"levelo://app?vid=98c040ff-ac12-4358-bded-c79cb9358db9"},"vehicle_type_id":"4","last_reported":1766254481,"current_range_meters":11200,"station_id":"ce4bhp92rcd13ifvqhbg","pricing_plan_id":"cebpf4jnsgd1na2vs0mg"},{"bike_id":"693daa65-f98e-49a9-8cb7-de40b16ccdc7","system_id":"levelo_inurba_marseille","lat":43.22568,"lon":5.41629,"is_reserved":false,"is_disabled":false,"rental_uris":{"android":"levelo://app?vid=693daa65-f98e-49a9-8cb7-de40b16ccdc7","ios":"levelo://app?vid=693daa65-f98e-49a9-8cb7-de40b16ccdc7"},"vehicle_type_id":"4","last_reported":1766254481,"current_range_meters":11200,"station_id":"st_d2o4gvlbi1j2169b742g","pricing_plan_id":"cebpf4jnsgd1na2vs0mg"},{"bike_id":"1caaad22-6ace-46c9-a3b4-1288b523af3f","system_id":"levelo_inurba_marseille","lat":43.29098,"lon":5.38138,"is_reserved":false,"is_disabled":false,"rental_uris":{"android":"levelo://app?vid=1caaad22-6ace-46c9-a3b4-1288b523af3f","ios":"levelo://app?vid=1caaad22-6ace-46c9-a3b4-1288b523af3f"},"vehicle_type_id":"4","last_reported":1766254481,"current_range_meters":11200,"station_id":"ce4bh512rcd13ifvqe2g","pricing_plan_id":"cebpf4jnsgd1na2vs0mg"},{"bike_id":"2a0b8521-e8c2-435f-ac2a-f305f0065e9f","system_id":"levelo_inurba_marseille","lat":43.21188,"lon":5.35069,"is_reserved":false,"is_disabled":false,"rental_uris":{"android":"levelo://app?vid=2a0b8521-e8c2-435f-ac2a-f305f0065e9f","ios":"levelo://app?vid=2a0b8521-e8c2-435f-ac2a-f305f0065e9f"},"vehicle_type_id":"4","last_reported":1766254481,"current_range_meters":11600,"station_id":"st_cvj6sg6p6f1abm77japg","pricing_plan_id":"cebpf4jnsgd1na2vs0mg"},{"bike_id":"1a399a16-62ed-47ae-ba1c-654e7762c033","system_id":"levelo_inurba_marseille","lat":43.30027,"lon":5.37991,"is_reserved":false,"is_disabled":false,"rental_uris":{"android":"levelo://app?vid=1a399a16-62ed-47ae-ba1c-654e7762c033","ios":"levelo://app?vid=1a399a16-62ed-47ae-ba1c-654e7762c033"},"vehicle_type_id":"4","last_reported":1766254481,"current_range_meters":11600,"station_id":"","pricing_plan_id":"cebpf4jnsgd1na2vs0mg"},{"bike_id":"e5cf4f29-8329-4fd9-9c5a-2808ba57b37a","system_id":"levelo_inurba_marseille","lat":43.29706,"lon":5.36608,"is_reserved":false,"is_disabled":false,"rental_uris":{"android":"levelo://app?vid=e5cf4f29-8329-4fd9-9c5a-2808ba57b37a","ios":"levelo://app?vid=e5cf4f29-8329-4fd9-9c5a-2808ba57b37a"},"vehicle_type_id":"4","last_reported":1766254481,"current_range_meters":11600,"station_id":"ce4bgn12rcd13ifvqbt0","pricing_plan_id":"cebpf4jnsgd1na2vs0mg"},{"bike_id":"ac69310b-48fc-4542-b776-5797f9034e72","system_id":"levelo_inurba_marseille","lat":43.29818,"lon":5.44064,"is_reserved":false,"is_disabled":false,"rental_uris":{"android":"levelo://app?vid=ac69310b-48fc-4542-b776-5797f9034e72","ios":"levelo://app?vid=ac69310b-48fc-4542-b776-5797f9034e72"},"vehicle_type_id":"4","last_reported":1766254481,"current_range_meters":11600,"station_id":"st_d3jp68qikq2c7381ktn0","pricing_plan_id":"cebpf4jnsgd1na2vs0mg"},{"bike_id":"11072089-4b46-418b-8a56-7ed3428c06cc","system_id":"levelo_inurba_marseille","lat":43.30748,"lon":5.37104,"is_reserved":false,"is_disabled":false,"rental_uris":{"android":"levelo://app?vid=11072089-4b46-418b-8a56-7ed3428c06cc","ios":"levelo://app?vid=11072089-4b46-418b-8a56-7ed3428c06cc"},"vehicle_type_id":"4","last_reported":1766254481,"current_range_meters":11600,"station_id":"","pricing_plan_id":"cebpf4jnsgd1na2vs0mg"},{"bike_id":"ad96ab35-147e-4b00-8b43-b29c4d85a4c0","system_id":"levelo_inurba_marseille","lat":43.29478,"lon":5.374,"is_reserved":false,"is_disabled":false,"rental_uris":{"android":"levelo://app?vid=ad96ab35-147e-4b00-8b43-b29c4d85a4c0","ios":"levelo://app?vid=ad96ab35-147e-4b00-8b43-b29c4d85a4c0"},"vehicle_type_id":"4","last_reported":1766254481,"current_range_meters":11600,"station_id":"","pricing_plan_id":"cebpf4jnsgd1na2vs0mg"},{"bike_id":"ae977d6c-e9ef-41f7-b804-ef0e4fe2355a","system_id":"levelo_inurba_marseille","lat":43.27207,"lon":5.39164,"is_reserved":false,"is_disabled":false,"rental_uris":{"android":"levelo://app?vid=ae977d6c-e9ef-41f7-b804-ef0e4fe2355a","ios":"levelo://app?vid=ae977d6c-e9ef-41f7-b804-ef0e4fe2355a"},"vehicle_type_id":"4","last_reported":1766254481,"current_range_meters":11600,"station_id":"ce4bhhp2rcd13ifvqfm0","pricing_plan_id":"cebpf4jnsgd1na2vs0mg"},{"bike_id":"dc3689f5-e765-4c32-91f9-79dc71fe1c49","system_id":"levelo_inurba_marseille","lat":43.249476,"lon":5.404784,"is_reserved":false,"is_disabled":false,"rental_uris":{"android":"levelo://app?vid=dc3689f5-e765-4c32-91f9-79dc71fe1c49","ios":"levelo://app?vid=dc3689f5-e765-4c32-91f9-79dc71fe1c49"},"vehicle_type_id":"4","last_reported":1766254481,"current_range_meters":11600,"station_id":"st_d2ngiaodas8pm72gd1h0","pricing_plan_id":"cebpf4jnsgd1na2vs0mg"},{"bike_id":"ba985f25-dab9-4a64-b841-0ddda8893f2d","system_id":"levelo_inurba_marseille","lat":43.29312,"lon":5.37169,"is_reserved":false,"is_disabled":false,"rental_uris":{"android":"levelo://app?vid=ba985f25-dab9-4a64-b841-0ddda8893f2d","ios":"levelo://app?vid=ba985f25-dab9-4a64-b841-0ddda8893f2d"},"vehicle_type_id":"4","last_reported":1766254481,"current_range_meters":11600,"station_id":"ce4bgh92rcd13ifvqb40","pricing_plan_id":"cebpf4jnsgd1na2vs0mg"},{"bike_id":"de4957ca-9c93-409a-ae9b-9b8d86479fcf","system_id":"levelo_inurba_marseille","lat":43.29532,"lon":5.37515,"is_reserved":false,"is_disabled":true,"rental_uris":{"android":"levelo://app?vid=de4957ca-9c93-409a-ae9b-9b8d86479fcf","ios":"levelo://app?vid=de4957ca-9c93-409a-ae9b-9b8d86479fcf"},"vehicle_type_id":"4","last_reported":1766254481,"current_range_meters":12000,"station_id":"ce4bgkp2rcd13ifvqbmg","pricing_plan_id":"cebpf4jnsgd1na2vs0mg"},{"bike_id":"fbd5c578-7cb6-42e9-9555-4b9213fc1665","system_id":"levelo_inurba_marseille","lat":43.29933,"lon":5.36543,"is_reserved":false,"is_disabled":false,"rental_uris":{"android":"levelo://app?vid=fbd5c578-7cb6-42e9-9555-4b9213fc1665","ios":"levelo://app?vid=fbd5c578-7cb6-42e9-9555-4b9213fc1665"},"vehicle_type_id":"4","last_reported":1766254481,"current_range_meters":12000,"station_id":"ce4bgm92rcd13ifvqbr0","pricing_plan_id":"cebpf4jnsgd1na2vs0mg"},{"bike_id":"6321fe57-59f4-4d15-83e3-f64320476ab2","system_id":"levelo_inurba_marseille","lat":43.21199,"lon":5.35071,"is_reserved":false,"is_disabled":false,"rental_uris":{"android":"levelo://app?vid=6321fe57-59f4-4d15-83e3-f64320476ab2","ios":"levelo://app?vid=6321fe57-59f4-4d15-83e3-f64320476ab2"},"vehicle_type_id":"4","last_reported":1766254481,"current_range_meters":12000,"station_id":"st_cvj6sg6p6f1abm77japg","pricing_plan_id":"cebpf4jnsgd1na2vs0mg"},{"bike_id":"91b86b1b-0794-44eb-a1be-42af9158c5a6","system_id":"levelo_inurba_marseille","lat":43.29758,"lon":5.37092,"is_reserved":false,"is_disabled":false,"rental_uris":{"android":"levelo://app?vid=91b86b1b-0794-44eb-a1be-42af9158c5a6","ios":"levelo://app?vid=91b86b1b-0794-44eb-a1be-42af9158c5a6"},"vehicle_type_id":"4","last_reported":1766254481,"current_range_meters":12000,"station_id":"ce4bgop2rcd13ifvqc1g","pricing_plan_id":"cebpf4jnsgd1na2vs0mg"},{"bike_id":"50b8d03a-86ed-4938-93de-772d12cbc21e","system_id":"levelo_inurba_marseille","lat":43.31226,"lon":5.36848,"is_reserved":false,"is_disabled":false,"rental_uris":{"android":"levelo://app?vid=50b8d03a-86ed-4938-93de-772d12cbc21e","ios":"levelo://app?vid=50b8d03a-86ed-4938-93de-772d12cbc21e"},"vehicle_type_id":"4","last_reported":1766254481,"current_range_meters":12000,"station_id":"ce4bgl92rcd13ifvqbq0","pricing_plan_id":"cebpf4jnsgd1na2vs0mg"},{"bike_id":"c328caa6-418f-4ee3-ac4e-abe84a3a4470","system_id":"levelo_inurba_marseille","lat":43.296279,"lon":5.377172,"is_reserved":false,"is_disabled":false,"rental_uris":{"android":"levelo://app?vid=c328caa6-418f-4ee3-ac4e-abe84a3a4470","ios":"levelo://app?vid=c328caa6-418f-4ee3-ac4e-abe84a3a4470"},"vehicle_type_id":"4","last_reported":1766254481,"current_range_meters":12000,"station_id":"ce4bgi92rcd13ifvqb90","pricing_plan_id":"cebpf4jnsgd1na2vs0mg"},{"bike_id":"8c1ab11e-9e0c-4d16-a145-c73e6f57ea67","system_id":"levelo_inurba_marseille","lat":43.30133,"lon":5.37379,"is_reserved":false,"is_disabled":false,"rental_uris":{"android":"levelo://app?vid=8c1ab11e-9e0c-4d16-a145-c73e6f57ea67","ios":"levelo://app?vid=8c1ab11e-9e0c-4d16-a145-c73e6f57ea67"},"vehicle_type_id":"4","last_reported":1766254481,"current_range_meters":12000,"station_id":"ce4bgs92rcd13ifvqcc0","pricing_plan_id":"cebpf4jnsgd1na2vs0mg"},{"bike_id":"c84a71ad-3c95-41b7-8328-051373ba0e48","system_id":"levelo_inurba_marseille","lat":43.266959,"lon":5.389602,"is_reserved":false,"is_disabled":false,"rental_uris":{"android":"levelo://app?vid=c84a71ad-3c95-41b7-8328-051373ba0e48","ios":"levelo://app?vid=c84a71ad-3c95-41b7-8328-051373ba0e48"},"vehicle_type_id":"4","last_reported":1766254481,"current_range_meters":12000,"station_id":"ce4bhe12rcd13ifvqf30","pricing_plan_id":"cebpf4jnsgd1na2vs0mg"},{"bike_id":"85f80c36-b01d-4148-8a0f-5ed00798dda8","system_id":"levelo_inurba_marseille","lat":43.30124,"lon":5.36513,"is_reserved":false,"is_disabled":false,"rental_uris":{"android":"levelo://app?vid=85f80c36-b01d-4148-8a0f-5ed00798dda8","ios":"levelo://app?vid=85f80c36-b01d-4148-8a0f-5ed00798dda8"},"vehicle_type_id":"4","last_reported":1766254481,"current_range_meters":12000,"station_id":"","pricing_plan_id":"cebpf4jnsgd1na2vs0mg"},{"bike_id":"f247771e-2838-4c74-9387-68cb8feccb4e","system_id":"levelo_inurba_marseille","lat":43.28591,"lon":5.40464,"is_reserved":false,"is_disabled":false,"rental_uris":{"android":"levelo://app?vid=f247771e-2838-4c74-9387-68cb8feccb4e","ios":"levelo://app?vid=f247771e-2838-4c74-9387-68cb8feccb4e"},"vehicle_type_id":"4","last_reported":1766254481,"current_range_meters":12000,"station_id":"","pricing_plan_id":"cebpf4jnsgd1na2vs0mg"},{"bike_id":"28ad1a9a-391c-435e-96a8-1e7f1aea86aa","system_id":"levelo_inurba_marseille","lat":43.301338,"lon":5.431128,"is_reserved":false,"is_disabled":false,"rental_uris":{"android":"levelo://app?vid=28ad1a9a-391c-435e-96a8-1e7f1aea86aa","ios":"levelo://app?vid=28ad1a9a-391c-435e-96a8-1e7f1aea86aa"},"vehicle_type_id":"4","last_reported":1766254481,"current_range_meters":12400,"station_id":"st_d3js3co5814s73ftftug","pricing_plan_id":"cebpf4jnsgd1na2vs0mg"},{"bike_id":"2964d339-565e-4966-a8d5-dd5de314e6fd","system_id":"levelo_inurba_marseille","lat":43.32357,"lon":5.36723,"is_reserved":false,"is_disabled":false,"rental_uris":{"android":"levelo://app?vid=2964d339-565e-4966-a8d5-dd5de314e6fd","ios":"levelo://app?vid=2964d339-565e-4966-a8d5-dd5de314e6fd"},"vehicle_type_id":"4","last_reported":1766254481,"current_range_meters":12400,"station_id":"ce4bhsh2rcd13ifvqi2g","pricing_plan_id":"cebpf4jnsgd1na2vs0mg"},{"bike_id":"b4c06ecc-7a46-4aca-a09e-6e605e584bbd","system_id":"levelo_inurba_marseille","lat":43.2981,"lon":5.44034,"is_reserved":false,"is_disabled":false,"rental_uris":{"android":"levelo://app?vid=b4c06ecc-7a46-4aca-a09e-6e605e584bbd","ios":"levelo://app?vid=b4c06ecc-7a46-4aca-a09e-6e605e584bbd"},"vehicle_type_id":"4","last_reported":1766254481,"current_range_meters":12400,"station_id":"st_d3jp68qikq2c7381ktn0","pricing_plan_id":"cebpf4jnsgd1na2vs0mg"},{"bike_id":"f72b59c6-6c39-4032-a755-77cfdc86a361","system_id":"levelo_inurba_marseille","lat":43.26203,"lon":5.3793,"is_reserved":false,"is_disabled":false,"rental_uris":{"android":"levelo://app?vid=f72b59c6-6c39-4032-a755-77cfdc86a361","ios":"levelo://app?vid=f72b59c6-6c39-4032-a755-77cfdc86a361"},"vehicle_type_id":"4","last_reported":1766254481,"current_range_meters":12400,"station_id":"ce4bhjp2rcd13ifvqg90","pricing_plan_id":"cebpf4jnsgd1na2vs0mg"},{"bike_id":"167ff5eb-f7ec-4a9a-a389-047000be67d8","system_id":"levelo_inurba_marseille","lat":43.28125,"lon":5.42625,"is_reserved":false,"is_disabled":false,"rental_uris":{"android":"levelo://app?vid=167ff5eb-f7ec-4a9a-a389-047000be67d8","ios":"levelo://app?vid=167ff5eb-f7ec-4a9a-a389-047000be67d8"},"vehicle_type_id":"4","last_reported":1766254481,"current_range_meters":12400,"station_id":"ce4bhnh2rcd13ifvqgug","pricing_plan_id":"cebpf4jnsgd1na2vs0mg"},{"bike_id":"00a29bb1-88ca-440d-9219-07d673c689ed","system_id":"levelo_inurba_marseille","lat":43.29665,"lon":5.37844,"is_reserved":false,"is_disabled":false,"rental_uris":{"android":"levelo://app?vid=00a29bb1-88ca-440d-9219-07d673c689ed","ios":"levelo://app?vid=00a29bb1-88ca-440d-9219-07d673c689ed"},"vehicle_type_id":"4","last_reported":1766254481,"current_range_meters":12400,"station_id":"","pricing_plan_id":"cebpf4jnsgd1na2vs0mg"},{"bike_id":"f1a91494-4ea9-498a-8b4d-c2877ea07d2f","system_id":"levelo_inurba_marseille","lat":43.33484,"lon":5.37493,"is_reserved":false,"is_disabled":false,"rental_uris":{"android":"levelo://app?vid=f1a91494-4ea9-498a-8b4d-c2877ea07d2f","ios":"levelo://app?vid=f1a91494-4ea9-498a-8b4d-c2877ea07d2f"},"vehicle_type_id":"4","last_reported":1766254481,"current_range_meters":12400,"station_id":"st_d46tts09ee8s73dlu43g","pricing_plan_id":"cebpf4jnsgd1na2vs0mg"},{"bike_id":"a8848b83-4516-4b82-bd01-22d44a0d2599","system_id":"levelo_inurba_marseille","lat":43.29024,"lon":5.3813,"is_reserved":false,"is_disabled":false,"rental_uris":{"android":"levelo://app?vid=a8848b83-4516-4b82-bd01-22d44a0d2599","ios":"levelo://app?vid=a8848b83-4516-4b82-bd01-22d44a0d2599"},"vehicle_type_id":"4","last_reported":1766254481,"current_range_meters":12400,"station_id":"ce4bh4p2rcd13ifvqe1g","pricing_plan_id":"cebpf4jnsgd1na2vs0mg"},{"bike_id":"9d21dcb0-ce26-48db-a303-317550439f40","system_id":"levelo_inurba_marseille","lat":43.28492,"lon":5.48376,"is_reserved":false,"is_disabled":false,"rental_uris":{"android":"levelo://app?vid=9d21dcb0-ce26-48db-a303-317550439f40","ios":"levelo://app?vid=9d21dcb0-ce26-48db-a303-317550439f40"},"vehicle_type_id":"4","last_reported":1766254481,"current_range_meters":12400,"station_id":"st_d3svhcjqgbts73a3dn0g","pricing_plan_id":"cebpf4jnsgd1na2vs0mg"},{"bike_id":"a4b77bf5-d0c4-4220-855e-0704c15fbd78","system_id":"levelo_inurba_marseille","lat":43.255,"lon":5.37648,"is_reserved":false,"is_disabled":false,"rental_uris":{"android":"levelo://app?vid=a4b77bf5-d0c4-4220-855e-0704c15fbd78","ios":"levelo://app?vid=a4b77bf5-d0c4-4220-855e-0704c15fbd78"},"vehicle_type_id":"4","last_reported":1766254481,"current_range_meters":12400,"station_id":"ce4bhh12rcd13ifvqff0","pricing_plan_id":"cebpf4jnsgd1na2vs0mg"},{"bike_id":"4cd31c8b-e2bf-4aad-b061-09eb9872ab3f","system_id":"levelo_inurba_marseille","lat":43.30735,"lon":5.42447,"is_reserved":false,"is_disabled":false,"rental_uris":{"android":"levelo://app?vid=4cd31c8b-e2bf-4aad-b061-09eb9872ab3f","ios":"levelo://app?vid=4cd31c8b-e2bf-4aad-b061-09eb9872ab3f"},"vehicle_type_id":"4","last_reported":1766254481,"current_range_meters":12400,"station_id":"st_cvj6ca6bvosntc0bfgr0","pricing_plan_id":"cebpf4jnsgd1na2vs0mg"},{"bike_id":"0c9b32cb-982e-4cfb-8098-15bfb9c320f6","system_id":"levelo_inurba_marseille","lat":43.29278,"lon":5.36835,"is_reserved":false,"is_disabled":false,"rental_uris":{"android":"levelo://app?vid=0c9b32cb-982e-4cfb-8098-15bfb9c320f6","ios":"levelo://app?vid=0c9b32cb-982e-4cfb-8098-15bfb9c320f6"},"vehicle_type_id":"4","last_reported":1766254481,"current_range_meters":12400,"station_id":"","pricing_plan_id":"cebpf4jnsgd1na2vs0mg"},{"bike_id":"d8cd132b-7397-429f-a4c3-5888deaed502","system_id":"levelo_inurba_marseille","lat":43.29905,"lon":5.38147,"is_reserved":false,"is_disabled":false,"rental_uris":{"android":"levelo://app?vid=d8cd132b-7397-429f-a4c3-5888deaed502","ios":"levelo://app?vid=d8cd132b-7397-429f-a4c3-5888deaed502"},"vehicle_type_id":"4","last_reported":1766254481,"current_range_meters":12400,"station_id":"ce4bgj12rcd13ifvqbc0","pricing_plan_id":"cebpf4jnsgd1na2vs0mg"},{"bike_id":"2aa30feb-fec4-4c71-9e60-17bc8dfb73f8","system_id":"levelo_inurba_marseille","lat":43.301351,"lon":5.398546,"is_reserved":false,"is_disabled":false,"rental_uris":{"android":"levelo://app?vid=2aa30feb-fec4-4c71-9e60-17bc8dfb73f8","ios":"levelo://app?vid=2aa30feb-fec4-4c71-9e60-17bc8dfb73f8"},"vehicle_type_id":"4","last_reported":1766254481,"current_range_meters":12400,"station_id":"ce4bh0h2rcd13ifvqd40","pricing_plan_id":"cebpf4jnsgd1na2vs0mg"},{"bike_id":"5d659cd2-54cf-4e2f-87ad-96ec4a98ad28","system_id":"levelo_inurba_marseille","lat":43.29709,"lon":5.36618,"is_reserved":false,"is_disabled":false,"rental_uris":{"android":"levelo://app?vid=5d659cd2-54cf-4e2f-87ad-96ec4a98ad28","ios":"levelo://app?vid=5d659cd2-54cf-4e2f-87ad-96ec4a98ad28"},"vehicle_type_id":"4","last_reported":1766254481,"current_range_meters":12400,"station_id":"ce4bgn12rcd13ifvqbt0","pricing_plan_id":"cebpf4jnsgd1na2vs0mg"},{"bike_id":"cf01deac-2376-4d88-bc76-849623b1c99e","system_id":"levelo_inurba_marseille","lat":43.30842,"lon":5.37625,"is_reserved":false,"is_disabled":false,"rental_uris":{"android":"levelo://app?vid=cf01deac-2376-4d88-bc76-849623b1c99e","ios":"levelo://app?vid=cf01deac-2376-4d88-bc76-849623b1c99e"},"vehicle_type_id":"4","last_reported":1766254481,"current_range_meters":12800,"station_id":"","pricing_plan_id":"cebpf4jnsgd1na2vs0mg"},{"bike_id":"2154a936-f819-49ae-b7ae-2734365f2c42","system_id":"levelo_inurba_marseille","lat":43.335436,"lon":5.374693,"is_reserved":false,"is_disabled":false,"rental_uris":{"android":"levelo://app?vid=2154a936-f819-49ae-b7ae-2734365f2c42","ios":"levelo://app?vid=2154a936-f819-49ae-b7ae-2734365f2c42"},"vehicle_type_id":"4","last_reported":1766254481,"current_range_meters":12800,"station_id":"st_d46tts09ee8s73dlu43g","pricing_plan_id":"cebpf4jnsgd1na2vs0mg"},{"bike_id":"7003f313-702d-4b1e-9579-528ba4d56198","system_id":"levelo_inurba_marseille","lat":43.30173,"lon":5.38092,"is_reserved":false,"is_disabled":false,"rental_uris":{"android":"levelo://app?vid=7003f313-702d-4b1e-9579-528ba4d56198","ios":"levelo://app?vid=7003f313-702d-4b1e-9579-528ba4d56198"},"vehicle_type_id":"4","last_reported":1766254481,"current_range_meters":12800,"station_id":"ce4bgjp2rcd13ifvqbh0","pricing_plan_id":"cebpf4jnsgd1na2vs0mg"},{"bike_id":"c0fb8cc1-ebe9-4001-a3ec-0d3fc87db3d9","system_id":"levelo_inurba_marseille","lat":43.34351,"lon":5.35495,"is_reserved":false,"is_disabled":false,"rental_uris":{"android":"levelo://app?vid=c0fb8cc1-ebe9-4001-a3ec-0d3fc87db3d9","ios":"levelo://app?vid=c0fb8cc1-ebe9-4001-a3ec-0d3fc87db3d9"},"vehicle_type_id":"4","last_reported":1766254481,"current_range_meters":12800,"station_id":"","pricing_plan_id":"cebpf4jnsgd1na2vs0mg"},{"bike_id":"1297d7d4-6788-43a1-ac73-4fb6d116076e","system_id":"levelo_inurba_marseille","lat":43.29539,"lon":5.37516,"is_reserved":false,"is_disabled":true,"rental_uris":{"android":"levelo://app?vid=1297d7d4-6788-43a1-ac73-4fb6d116076e","ios":"levelo://app?vid=1297d7d4-6788-43a1-ac73-4fb6d116076e"},"vehicle_type_id":"4","last_reported":1766254481,"current_range_meters":12800,"station_id":"ce4bgkp2rcd13ifvqbmg","pricing_plan_id":"cebpf4jnsgd1na2vs0mg"},{"bike_id":"e9d9572b-ddba-424a-8878-decd1227ae70","system_id":"levelo_inurba_marseille","lat":43.28934,"lon":5.36663,"is_reserved":false,"is_disabled":false,"rental_uris":{"android":"levelo://app?vid=e9d9572b-ddba-424a-8878-decd1227ae70","ios":"levelo://app?vid=e9d9572b-ddba-424a-8878-decd1227ae70"},"vehicle_type_id":"4","last_reported":1766254481,"current_range_meters":12800,"station_id":"ce4bhap2rcd13ifvqek0","pricing_plan_id":"cebpf4jnsgd1na2vs0mg"},{"bike_id":"49b32667-a5b9-4886-84eb-14582b80721d","system_id":"levelo_inurba_marseille","lat":43.29761,"lon":5.37755,"is_reserved":false,"is_disabled":false,"rental_uris":{"android":"levelo://app?vid=49b32667-a5b9-4886-84eb-14582b80721d","ios":"levelo://app?vid=49b32667-a5b9-4886-84eb-14582b80721d"},"vehicle_type_id":"4","last_reported":1766254481,"current_range_meters":12800,"station_id":"","pricing_plan_id":"cebpf4jnsgd1na2vs0mg"},{"bike_id":"f9df09a0-3737-4582-8136-0e0c747a0f9b","system_id":"levelo_inurba_marseille","lat":43.32352,"lon":5.3675,"is_reserved":false,"is_disabled":false,"rental_uris":{"android":"levelo://app?vid=f9df09a0-3737-4582-8136-0e0c747a0f9b","ios":"levelo://app?vid=f9df09a0-3737-4582-8136-0e0c747a0f9b"},"vehicle_type_id":"4","last_reported":1766254481,"current_range_meters":12800,"station_id":"ce4bhsh2rcd13ifvqi2g","pricing_plan_id":"cebpf4jnsgd1na2vs0mg"},{"bike_id":"4c78dd1f-142e-4678-9ed9-4be39e68c023","system_id":"levelo_inurba_marseille","lat":43.30544,"lon":5.36554,"is_reserved":false,"is_disabled":false,"rental_uris":{"android":"levelo://app?vid=4c78dd1f-142e-4678-9ed9-4be39e68c023","ios":"levelo://app?vid=4c78dd1f-142e-4678-9ed9-4be39e68c023"},"vehicle_type_id":"4","last_reported":1766254481,"current_range_meters":12800,"station_id":"ce4bgs12rcd13ifvqcag","pricing_plan_id":"cebpf4jnsgd1na2vs0mg"},{"bike_id":"3438a49f-f96c-4411-98ac-605b43d43580","system_id":"levelo_inurba_marseille","lat":43.25089,"lon":5.39519,"is_reserved":false,"is_disabled":false,"rental_uris":{"android":"levelo://app?vid=3438a49f-f96c-4411-98ac-605b43d43580","ios":"levelo://app?vid=3438a49f-f96c-4411-98ac-605b43d43580"},"vehicle_type_id":"4","last_reported":1766254481,"current_range_meters":12800,"station_id":"ce4bhm12rcd13ifvqgkg","pricing_plan_id":"cebpf4jnsgd1na2vs0mg"},{"bike_id":"01771f8d-2f34-4473-bd01-f0d5524731a9","system_id":"levelo_inurba_marseille","lat":43.27813,"lon":5.40717,"is_reserved":false,"is_disabled":false,"rental_uris":{"android":"levelo://app?vid=01771f8d-2f34-4473-bd01-f0d5524731a9","ios":"levelo://app?vid=01771f8d-2f34-4473-bd01-f0d5524731a9"},"vehicle_type_id":"4","last_reported":1766254481,"current_range_meters":13600,"station_id":"ce4bhnh2rcd13ifvqgtg","pricing_plan_id":"cebpf4jnsgd1na2vs0mg"},{"bike_id":"8bbcdc5d-1751-4d82-93eb-b68a7300128d","system_id":"levelo_inurba_marseille","lat":43.29522,"lon":5.375,"is_reserved":false,"is_disabled":false,"rental_uris":{"android":"levelo://app?vid=8bbcdc5d-1751-4d82-93eb-b68a7300128d","ios":"levelo://app?vid=8bbcdc5d-1751-4d82-93eb-b68a7300128d"},"vehicle_type_id":"4","last_reported":1766254481,"current_range_meters":13600,"station_id":"ce4bgkp2rcd13ifvqbmg","pricing_plan_id":"cebpf4jnsgd1na2vs0mg"},{"bike_id":"5046e52c-2d03-4dab-83b5-0d9b216c15bd","system_id":"levelo_inurba_marseille","lat":43.30814,"lon":5.37005,"is_reserved":false,"is_disabled":false,"rental_uris":{"android":"levelo://app?vid=5046e52c-2d03-4dab-83b5-0d9b216c15bd","ios":"levelo://app?vid=5046e52c-2d03-4dab-83b5-0d9b216c15bd"},"vehicle_type_id":"4","last_reported":1766254481,"current_range_meters":13600,"station_id":"","pricing_plan_id":"cebpf4jnsgd1na2vs0mg"},{"bike_id":"b5c37b4c-5839-4b87-9c4d-cd6cceb26ce3","system_id":"levelo_inurba_marseille","lat":43.29276,"lon":5.36843,"is_reserved":false,"is_disabled":false,"rental_uris":{"android":"levelo://app?vid=b5c37b4c-5839-4b87-9c4d-cd6cceb26ce3","ios":"levelo://app?vid=b5c37b4c-5839-4b87-9c4d-cd6cceb26ce3"},"vehicle_type_id":"4","last_reported":1766254481,"current_range_meters":13600,"station_id":"","pricing_plan_id":"cebpf4jnsgd1na2vs0mg"},{"bike_id":"894b07af-2d2b-4e6f-add6-20e2189c2168","system_id":"levelo_inurba_marseille","lat":43.26919,"lon":5.38651,"is_reserved":false,"is_disabled":false,"rental_uris":{"android":"levelo://app?vid=894b07af-2d2b-4e6f-add6-20e2189c2168","ios":"levelo://app?vid=894b07af-2d2b-4e6f-add6-20e2189c2168"},"vehicle_type_id":"4","last_reported":1766254481,"current_range_meters":13600,"station_id":"ce4bhh92rcd13ifvqfh0","pricing_plan_id":"cebpf4jnsgd1na2vs0mg"},{"bike_id":"6c82c1ec-12c0-4853-8f0e-c86b5bef3983","system_id":"levelo_inurba_marseille","lat":43.26217,"lon":5.37438,"is_reserved":false,"is_disabled":false,"rental_uris":{"android":"levelo://app?vid=6c82c1ec-12c0-4853-8f0e-c86b5bef3983","ios":"levelo://app?vid=6c82c1ec-12c0-4853-8f0e-c86b5bef3983"},"vehicle_type_id":"4","last_reported":1766254481,"current_range_meters":13600,"station_id":"ce4bhgp2rcd13ifvqfc0","pricing_plan_id":"cebpf4jnsgd1na2vs0mg"},{"bike_id":"b5a98133-8267-4179-8e69-4caa1a3fdd3c","system_id":"levelo_inurba_marseille","lat":43.29314,"lon":5.37475,"is_reserved":false,"is_disabled":false,"rental_uris":{"android":"levelo://app?vid=b5a98133-8267-4179-8e69-4caa1a3fdd3c","ios":"levelo://app?vid=b5a98133-8267-4179-8e69-4caa1a3fdd3c"},"vehicle_type_id":"4","last_reported":1766254481,"current_range_meters":13600,"station_id":"ce4bgi12rcd13ifvqb70","pricing_plan_id":"cebpf4jnsgd1na2vs0mg"},{"bike_id":"447328e0-3eeb-4392-81d6-dc183f792a45","system_id":"levelo_inurba_marseille","lat":43.26587,"lon":5.39054,"is_reserved":false,"is_disabled":false,"rental_uris":{"android":"levelo://app?vid=447328e0-3eeb-4392-81d6-dc183f792a45","ios":"levelo://app?vid=447328e0-3eeb-4392-81d6-dc183f792a45"},"vehicle_type_id":"4","last_reported":1766254481,"current_range_meters":13600,"station_id":"","pricing_plan_id":"cebpf4jnsgd1na2vs0mg"},{"bike_id":"ab337bae-f985-42ac-a822-8cc38b42992f","system_id":"levelo_inurba_marseille","lat":43.29781,"lon":5.381,"is_reserved":false,"is_disabled":false,"rental_uris":{"android":"levelo://app?vid=ab337bae-f985-42ac-a822-8cc38b42992f","ios":"levelo://app?vid=ab337bae-f985-42ac-a822-8cc38b42992f"},"vehicle_type_id":"4","last_reported":1766254481,"current_range_meters":13600,"station_id":"ce4bgip2rcd13ifvqbb0","pricing_plan_id":"cebpf4jnsgd1na2vs0mg"},{"bike_id":"f3fdb73c-e2e3-4dd3-a99d-4f3e3986936b","system_id":"levelo_inurba_marseille","lat":43.22572,"lon":5.4162,"is_reserved":false,"is_disabled":false,"rental_uris":{"android":"levelo://app?vid=f3fdb73c-e2e3-4dd3-a99d-4f3e3986936b","ios":"levelo://app?vid=f3fdb73c-e2e3-4dd3-a99d-4f3e3986936b"},"vehicle_type_id":"4","last_reported":1766254481,"current_range_meters":13600,"station_id":"st_d2o4gvlbi1j2169b742g","pricing_plan_id":"cebpf4jnsgd1na2vs0mg"},{"bike_id":"a516ce71-740b-43b0-a57d-e49ede3f322e","system_id":"levelo_inurba_marseille","lat":43.27327,"lon":5.39084,"is_reserved":false,"is_disabled":false,"rental_uris":{"android":"levelo://app?vid=a516ce71-740b-43b0-a57d-e49ede3f322e","ios":"levelo://app?vid=a516ce71-740b-43b0-a57d-e49ede3f322e"},"vehicle_type_id":"4","last_reported":1766254481,"current_range_meters":14000,"station_id":"ce4bhgp2rcd13ifvqfe0","pricing_plan_id":"cebpf4jnsgd1na2vs0mg"},{"bike_id":"f05b1d45-099e-428c-8304-1aeb2bda8a9a","system_id":"levelo_inurba_marseille","lat":43.231893,"lon":5.355693,"is_reserved":false,"is_disabled":true,"rental_uris":{"android":"levelo://app?vid=f05b1d45-099e-428c-8304-1aeb2bda8a9a","ios":"levelo://app?vid=f05b1d45-099e-428c-8304-1aeb2bda8a9a"},"vehicle_type_id":"4","last_reported":1766254481,"current_range_meters":14000,"station_id":"ce4bhu92rcd13ifvqi70","pricing_plan_id":"cebpf4jnsgd1na2vs0mg"},{"bike_id":"27c6cab6-027c-4350-9b9c-20490c10cfe9","system_id":"levelo_inurba_marseille","lat":43.32496,"lon":5.38305,"is_reserved":false,"is_disabled":false,"rental_uris":{"android":"levelo://app?vid=27c6cab6-027c-4350-9b9c-20490c10cfe9","ios":"levelo://app?vid=27c6cab6-027c-4350-9b9c-20490c10cfe9"},"vehicle_type_id":"4","last_reported":1766254481,"current_range_meters":14000,"station_id":"st_d4asgbiv49dc73anf9m0","pricing_plan_id":"cebpf4jnsgd1na2vs0mg"},{"bike_id":"88faa14e-1a0a-4d67-8915-3eda7601efcf","system_id":"levelo_inurba_marseille","lat":43.211922,"lon":5.350742,"is_reserved":false,"is_disabled":false,"rental_uris":{"android":"levelo://app?vid=88faa14e-1a0a-4d67-8915-3eda7601efcf","ios":"levelo://app?vid=88faa14e-1a0a-4d67-8915-3eda7601efcf"},"vehicle_type_id":"4","last_reported":1766254481,"current_range_meters":14000,"station_id":"","pricing_plan_id":"cebpf4jnsgd1na2vs0mg"},{"bike_id":"2bbc71c7-bd58-41dd-b1bc-322a7159a69f","system_id":"levelo_inurba_marseille","lat":43.30154,"lon":5.38083,"is_reserved":false,"is_disabled":false,"rental_uris":{"android":"levelo://app?vid=2bbc71c7-bd58-41dd-b1bc-322a7159a69f","ios":"levelo://app?vid=2bbc71c7-bd58-41dd-b1bc-322a7159a69f"},"vehicle_type_id":"4","last_reported":1766254481,"current_range_meters":14000,"station_id":"ce4bgjp2rcd13ifvqbh0","pricing_plan_id":"cebpf4jnsgd1na2vs0mg"},{"bike_id":"5549c5d4-40ee-4672-8eb6-d9e741467e36","system_id":"levelo_inurba_marseille","lat":43.29958,"lon":5.37453,"is_reserved":false,"is_disabled":true,"rental_uris":{"android":"levelo://app?vid=5549c5d4-40ee-4672-8eb6-d9e741467e36","ios":"levelo://app?vid=5549c5d4-40ee-4672-8eb6-d9e741467e36"},"vehicle_type_id":"4","last_reported":1766254481,"current_range_meters":14000,"station_id":"ce4bgjh2rcd13ifvqbg0","pricing_plan_id":"cebpf4jnsgd1na2vs0mg"},{"bike_id":"d4e12687-73c4-4f9e-bbf6-f4cb62632c79","system_id":"levelo_inurba_marseille","lat":43.27947,"lon":5.41044,"is_reserved":false,"is_disabled":false,"rental_uris":{"android":"levelo://app?vid=d4e12687-73c4-4f9e-bbf6-f4cb62632c79","ios":"levelo://app?vid=d4e12687-73c4-4f9e-bbf6-f4cb62632c79"},"vehicle_type_id":"4","last_reported":1766254481,"current_range_meters":14000,"station_id":"ce4bhnp2rcd13ifvqh0g","pricing_plan_id":"cebpf4jnsgd1na2vs0mg"},{"bike_id":"d25f24ab-f823-4841-8e66-0ee07bb012c7","system_id":"levelo_inurba_marseille","lat":43.29313,"lon":5.37425,"is_reserved":false,"is_disabled":false,"rental_uris":{"android":"levelo://app?vid=d25f24ab-f823-4841-8e66-0ee07bb012c7","ios":"levelo://app?vid=d25f24ab-f823-4841-8e66-0ee07bb012c7"},"vehicle_type_id":"4","last_reported":1766254481,"current_range_meters":14000,"station_id":"ce4bgi12rcd13ifvqb70","pricing_plan_id":"cebpf4jnsgd1na2vs0mg"},{"bike_id":"468b1521-1cc9-4756-8c4d-0fc33bf70730","system_id":"levelo_inurba_marseille","lat":43.297126,"lon":5.376928,"is_reserved":false,"is_disabled":false,"rental_uris":{"android":"levelo://app?vid=468b1521-1cc9-4756-8c4d-0fc33bf70730","ios":"levelo://app?vid=468b1521-1cc9-4756-8c4d-0fc33bf70730"},"vehicle_type_id":"4","last_reported":1766254481,"current_range_meters":14000,"station_id":"ce4bgkh2rcd13ifvqbl0","pricing_plan_id":"cebpf4jnsgd1na2vs0mg"},{"bike_id":"611bb42d-81f1-42fc-b832-157e5dfb6bb7","system_id":"levelo_inurba_marseille","lat":43.285346,"lon":5.441061,"is_reserved":false,"is_disabled":false,"rental_uris":{"android":"levelo://app?vid=611bb42d-81f1-42fc-b832-157e5dfb6bb7","ios":"levelo://app?vid=611bb42d-81f1-42fc-b832-157e5dfb6bb7"},"vehicle_type_id":"4","last_reported":1766254481,"current_range_meters":14000,"station_id":"st_d3j3df2ikq2c7380ej80","pricing_plan_id":"cebpf4jnsgd1na2vs0mg"},{"bike_id":"49302437-6f32-4b67-a486-ae28561da399","system_id":"levelo_inurba_marseille","lat":43.27988,"lon":5.41657,"is_reserved":false,"is_disabled":false,"rental_uris":{"android":"levelo://app?vid=49302437-6f32-4b67-a486-ae28561da399","ios":"levelo://app?vid=49302437-6f32-4b67-a486-ae28561da399"},"vehicle_type_id":"4","last_reported":1766254481,"current_range_meters":14000,"station_id":"ce4bho12rcd13ifvqh1g","pricing_plan_id":"cebpf4jnsgd1na2vs0mg"},{"bike_id":"31c5945c-b87b-4b13-9f1e-e5e1495e908e","system_id":"levelo_inurba_marseille","lat":43.28668,"lon":5.38649,"is_reserved":false,"is_disabled":false,"rental_uris":{"android":"levelo://app?vid=31c5945c-b87b-4b13-9f1e-e5e1495e908e","ios":"levelo://app?vid=31c5945c-b87b-4b13-9f1e-e5e1495e908e"},"vehicle_type_id":"4","last_reported":1766254481,"current_range_meters":14000,"station_id":"ce4bh492rcd13ifvqdug","pricing_plan_id":"cebpf4jnsgd1na2vs0mg"},{"bike_id":"455016d2-5fbf-4a3e-85ba-1e7337979a51","system_id":"levelo_inurba_marseille","lat":43.23774,"lon":5.36632,"is_reserved":false,"is_disabled":false,"rental_uris":{"android":"levelo://app?vid=455016d2-5fbf-4a3e-85ba-1e7337979a51","ios":"levelo://app?vid=455016d2-5fbf-4a3e-85ba-1e7337979a51"},"vehicle_type_id":"4","last_reported":1766254481,"current_range_meters":14000,"station_id":"st_d3nk18o9ro0c73en2l3g","pricing_plan_id":"cebpf4jnsgd1na2vs0mg"},{"bike_id":"cf25fa01-3c56-4d6f-af3c-0a798011bda7","system_id":"levelo_inurba_marseille","lat":43.26769,"lon":5.39407,"is_reserved":false,"is_disabled":false,"rental_uris":{"android":"levelo://app?vid=cf25fa01-3c56-4d6f-af3c-0a798011bda7","ios":"levelo://app?vid=cf25fa01-3c56-4d6f-af3c-0a798011bda7"},"vehicle_type_id":"4","last_reported":1766254481,"current_range_meters":14000,"station_id":"ce4bhh12rcd13ifvqfg0","pricing_plan_id":"cebpf4jnsgd1na2vs0mg"},{"bike_id":"83aa2394-effb-49c3-8b5c-ff28767b8dce","system_id":"levelo_inurba_marseille","lat":43.29716,"lon":5.36617,"is_reserved":false,"is_disabled":false,"rental_uris":{"android":"levelo://app?vid=83aa2394-effb-49c3-8b5c-ff28767b8dce","ios":"levelo://app?vid=83aa2394-effb-49c3-8b5c-ff28767b8dce"},"vehicle_type_id":"4","last_reported":1766254481,"current_range_meters":14000,"station_id":"ce4bgn12rcd13ifvqbt0","pricing_plan_id":"cebpf4jnsgd1na2vs0mg"},{"bike_id":"e1e0c5d5-d1ff-4328-abce-0032e41eb0b8","system_id":"levelo_inurba_marseille","lat":43.24634,"lon":5.43141,"is_reserved":false,"is_disabled":false,"rental_uris":{"android":"levelo://app?vid=e1e0c5d5-d1ff-4328-abce-0032e41eb0b8","ios":"levelo://app?vid=e1e0c5d5-d1ff-4328-abce-0032e41eb0b8"},"vehicle_type_id":"4","last_reported":1766254481,"current_range_meters":14400,"station_id":"st_d2m6c4gdas8pm72e190g","pricing_plan_id":"cebpf4jnsgd1na2vs0mg"},{"bike_id":"852886ca-04e3-4ed7-9a57-11badf8a4e90","system_id":"levelo_inurba_marseille","lat":43.28454,"lon":5.35889,"is_reserved":false,"is_disabled":false,"rental_uris":{"android":"levelo://app?vid=852886ca-04e3-4ed7-9a57-11badf8a4e90","ios":"levelo://app?vid=852886ca-04e3-4ed7-9a57-11badf8a4e90"},"vehicle_type_id":"4","last_reported":1766254481,"current_range_meters":14400,"station_id":"ce4bhah2rcd13ifvqei0","pricing_plan_id":"cebpf4jnsgd1na2vs0mg"},{"bike_id":"be6edca5-cbaf-425d-ba3c-7981181dd2c6","system_id":"levelo_inurba_marseille","lat":43.283626,"lon":5.386419,"is_reserved":false,"is_disabled":true,"rental_uris":{"android":"levelo://app?vid=be6edca5-cbaf-425d-ba3c-7981181dd2c6","ios":"levelo://app?vid=be6edca5-cbaf-425d-ba3c-7981181dd2c6"},"vehicle_type_id":"4","last_reported":1766254481,"current_range_meters":14400,"station_id":"ce4bhi12rcd13ifvqfo0","pricing_plan_id":"cebpf4jnsgd1na2vs0mg"},{"bike_id":"ae6c1aeb-ea56-4930-8ca5-97f00c057268","system_id":"levelo_inurba_marseille","lat":43.25,"lon":5.38927,"is_reserved":false,"is_disabled":false,"rental_uris":{"android":"levelo://app?vid=ae6c1aeb-ea56-4930-8ca5-97f00c057268","ios":"levelo://app?vid=ae6c1aeb-ea56-4930-8ca5-97f00c057268"},"vehicle_type_id":"4","last_reported":1766254481,"current_range_meters":14400,"station_id":"ce4bhgp2rcd13ifvqfd0","pricing_plan_id":"cebpf4jnsgd1na2vs0mg"},{"bike_id":"785156da-0593-4b75-94f6-e2ccbbaee3ef","system_id":"levelo_inurba_marseille","lat":43.27398,"lon":5.39402,"is_reserved":false,"is_disabled":false,"rental_uris":{"android":"levelo://app?vid=785156da-0593-4b75-94f6-e2ccbbaee3ef","ios":"levelo://app?vid=785156da-0593-4b75-94f6-e2ccbbaee3ef"},"vehicle_type_id":"4","last_reported":1766254481,"current_range_meters":14400,"station_id":"ce4bhdp2rcd13ifvqf20","pricing_plan_id":"cebpf4jnsgd1na2vs0mg"},{"bike_id":"ec556940-3cb6-4f3a-abab-4b9665729460","system_id":"levelo_inurba_marseille","lat":43.26504,"lon":5.39528,"is_reserved":false,"is_disabled":false,"rental_uris":{"android":"levelo://app?vid=ec556940-3cb6-4f3a-abab-4b9665729460","ios":"levelo://app?vid=ec556940-3cb6-4f3a-abab-4b9665729460"},"vehicle_type_id":"4","last_reported":1766254481,"current_range_meters":14400,"station_id":"ce4bhi12rcd13ifvqfq0","pricing_plan_id":"cebpf4jnsgd1na2vs0mg"},{"bike_id":"f74f690a-ab44-4e9f-8a36-1702c27f53fd","system_id":"levelo_inurba_marseille","lat":43.29658,"lon":5.37066,"is_reserved":false,"is_disabled":false,"rental_uris":{"android":"levelo://app?vid=f74f690a-ab44-4e9f-8a36-1702c27f53fd","ios":"levelo://app?vid=f74f690a-ab44-4e9f-8a36-1702c27f53fd"},"vehicle_type_id":"4","last_reported":1766254481,"current_range_meters":14400,"station_id":"","pricing_plan_id":"cebpf4jnsgd1na2vs0mg"},{"bike_id":"2b865b81-8e0b-44c8-9263-6925783afa45","system_id":"levelo_inurba_marseille","lat":43.2621,"lon":5.3743,"is_reserved":false,"is_disabled":false,"rental_uris":{"android":"levelo://app?vid=2b865b81-8e0b-44c8-9263-6925783afa45","ios":"levelo://app?vid=2b865b81-8e0b-44c8-9263-6925783afa45"},"vehicle_type_id":"4","last_reported":1766254481,"current_range_meters":14400,"station_id":"ce4bhgp2rcd13ifvqfc0","pricing_plan_id":"cebpf4jnsgd1na2vs0mg"},{"bike_id":"1a80cb1e-f6c4-464e-b7b2-c93856f1b02c","system_id":"levelo_inurba_marseille","lat":43.29017,"lon":5.38108,"is_reserved":false,"is_disabled":false,"rental_uris":{"android":"levelo://app?vid=1a80cb1e-f6c4-464e-b7b2-c93856f1b02c","ios":"levelo://app?vid=1a80cb1e-f6c4-464e-b7b2-c93856f1b02c"},"vehicle_type_id":"4","last_reported":1766254481,"current_range_meters":14400,"station_id":"ce4bh4p2rcd13ifvqe1g","pricing_plan_id":"cebpf4jnsgd1na2vs0mg"},{"bike_id":"4c0d6fce-33ab-431d-b903-8bcf563c13d6","system_id":"levelo_inurba_marseille","lat":43.27214,"lon":5.39187,"is_reserved":false,"is_disabled":false,"rental_uris":{"android":"levelo://app?vid=4c0d6fce-33ab-431d-b903-8bcf563c13d6","ios":"levelo://app?vid=4c0d6fce-33ab-431d-b903-8bcf563c13d6"},"vehicle_type_id":"4","last_reported":1766254481,"current_range_meters":14400,"station_id":"ce4bhhp2rcd13ifvqfm0","pricing_plan_id":"cebpf4jnsgd1na2vs0mg"},{"bike_id":"b0eb95b9-79ce-4691-a99c-e8e830cecad7","system_id":"levelo_inurba_marseille","lat":43.3037,"lon":5.42486,"is_reserved":false,"is_disabled":false,"rental_uris":{"android":"levelo://app?vid=b0eb95b9-79ce-4691-a99c-e8e830cecad7","ios":"levelo://app?vid=b0eb95b9-79ce-4691-a99c-e8e830cecad7"},"vehicle_type_id":"4","last_reported":1766254481,"current_range_meters":14400,"station_id":"ce4bhoh2rcd13ifvqh6g","pricing_plan_id":"cebpf4jnsgd1na2vs0mg"},{"bike_id":"24b6ac78-4b8c-46f2-b195-8b56904b7752","system_id":"levelo_inurba_marseille","lat":43.31684,"lon":5.40474,"is_reserved":false,"is_disabled":false,"rental_uris":{"android":"levelo://app?vid=24b6ac78-4b8c-46f2-b195-8b56904b7752","ios":"levelo://app?vid=24b6ac78-4b8c-46f2-b195-8b56904b7752"},"vehicle_type_id":"4","last_reported":1766254481,"current_range_meters":14800,"station_id":"ce4bh012rcd13ifvqd00","pricing_plan_id":"cebpf4jnsgd1na2vs0mg"},{"bike_id":"2bede430-4250-4bb5-9cc1-2011ee04070d","system_id":"levelo_inurba_marseille","lat":43.284756,"lon":5.483941,"is_reserved":false,"is_disabled":false,"rental_uris":{"android":"levelo://app?vid=2bede430-4250-4bb5-9cc1-2011ee04070d","ios":"levelo://app?vid=2bede430-4250-4bb5-9cc1-2011ee04070d"},"vehicle_type_id":"4","last_reported":1766254481,"current_range_meters":14800,"station_id":"","pricing_plan_id":"cebpf4jnsgd1na2vs0mg"},{"bike_id":"ca4aebeb-c0bd-47ba-96e8-38e2345a1424","system_id":"levelo_inurba_marseille","lat":43.2929,"lon":5.40119,"is_reserved":false,"is_disabled":false,"rental_uris":{"android":"levelo://app?vid=ca4aebeb-c0bd-47ba-96e8-38e2345a1424","ios":"levelo://app?vid=ca4aebeb-c0bd-47ba-96e8-38e2345a1424"},"vehicle_type_id":"4","last_reported":1766254481,"current_range_meters":14800,"station_id":"ce4bh312rcd13ifvqdk0","pricing_plan_id":"cebpf4jnsgd1na2vs0mg"},{"bike_id":"9811bfbc-76a5-4eda-b7c6-20abdb4cb011","system_id":"levelo_inurba_marseille","lat":43.27622,"lon":5.36106,"is_reserved":false,"is_disabled":false,"rental_uris":{"android":"levelo://app?vid=9811bfbc-76a5-4eda-b7c6-20abdb4cb011","ios":"levelo://app?vid=9811bfbc-76a5-4eda-b7c6-20abdb4cb011"},"vehicle_type_id":"4","last_reported":1766254481,"current_range_meters":14800,"station_id":"ce4bgj92rcd13ifvqbe0","pricing_plan_id":"cebpf4jnsgd1na2vs0mg"},{"bike_id":"03b71e07-ba2b-4a69-a716-a07a4ba4558c","system_id":"levelo_inurba_marseille","lat":43.25111,"lon":5.40329,"is_reserved":false,"is_disabled":false,"rental_uris":{"android":"levelo://app?vid=03b71e07-ba2b-4a69-a716-a07a4ba4558c","ios":"levelo://app?vid=03b71e07-ba2b-4a69-a716-a07a4ba4558c"},"vehicle_type_id":"4","last_reported":1766254481,"current_range_meters":14800,"station_id":"ce4bhlh2rcd13ifvqgig","pricing_plan_id":"cebpf4jnsgd1na2vs0mg"},{"bike_id":"73e2925b-3961-4e27-be9f-277c3490deb8","system_id":"levelo_inurba_marseille","lat":43.29611,"lon":5.37691,"is_reserved":false,"is_disabled":false,"rental_uris":{"android":"levelo://app?vid=73e2925b-3961-4e27-be9f-277c3490deb8","ios":"levelo://app?vid=73e2925b-3961-4e27-be9f-277c3490deb8"},"vehicle_type_id":"4","last_reported":1766254481,"current_range_meters":14800,"station_id":"ce4bgi92rcd13ifvqb90","pricing_plan_id":"cebpf4jnsgd1na2vs0mg"},{"bike_id":"0148f50c-cc95-4a05-bd27-01c3107569d3","system_id":"levelo_inurba_marseille","lat":43.29968,"lon":5.38489,"is_reserved":false,"is_disabled":false,"rental_uris":{"android":"levelo://app?vid=0148f50c-cc95-4a05-bd27-01c3107569d3","ios":"levelo://app?vid=0148f50c-cc95-4a05-bd27-01c3107569d3"},"vehicle_type_id":"4","last_reported":1766254481,"current_range_meters":15200,"station_id":"ce4bgj92rcd13ifvqbd0","pricing_plan_id":"cebpf4jnsgd1na2vs0mg"},{"bike_id":"09f1adab-48d6-45ee-95a1-8ac43b1951a3","system_id":"levelo_inurba_marseille","lat":43.29627,"lon":5.40601,"is_reserved":false,"is_disabled":false,"rental_uris":{"android":"levelo://app?vid=09f1adab-48d6-45ee-95a1-8ac43b1951a3","ios":"levelo://app?vid=09f1adab-48d6-45ee-95a1-8ac43b1951a3"},"vehicle_type_id":"4","last_reported":1766254481,"current_range_meters":15200,"station_id":"ce4bh0h2rcd13ifvqd60","pricing_plan_id":"cebpf4jnsgd1na2vs0mg"},{"bike_id":"674911cf-1cfd-40f1-9e5e-f3941e7b6fc6","system_id":"levelo_inurba_marseille","lat":43.337444,"lon":5.374475,"is_reserved":false,"is_disabled":false,"rental_uris":{"android":"levelo://app?vid=674911cf-1cfd-40f1-9e5e-f3941e7b6fc6","ios":"levelo://app?vid=674911cf-1cfd-40f1-9e5e-f3941e7b6fc6"},"vehicle_type_id":"4","last_reported":1766254481,"current_range_meters":15200,"station_id":"","pricing_plan_id":"cebpf4jnsgd1na2vs0mg"},{"bike_id":"ade91ab6-5e8a-4de3-9d82-ea6f467f1576","system_id":"levelo_inurba_marseille","lat":43.22924,"lon":5.35389,"is_reserved":false,"is_disabled":false,"rental_uris":{"android":"levelo://app?vid=ade91ab6-5e8a-4de3-9d82-ea6f467f1576","ios":"levelo://app?vid=ade91ab6-5e8a-4de3-9d82-ea6f467f1576"},"vehicle_type_id":"4","last_reported":1766254481,"current_range_meters":15200,"station_id":"cpo3532slgdg3j2ikp40","pricing_plan_id":"cebpf4jnsgd1na2vs0mg"},{"bike_id":"106040ef-d17a-4758-80dc-c4ded7618c79","system_id":"levelo_inurba_marseille","lat":43.27189,"lon":5.39155,"is_reserved":false,"is_disabled":false,"rental_uris":{"android":"levelo://app?vid=106040ef-d17a-4758-80dc-c4ded7618c79","ios":"levelo://app?vid=106040ef-d17a-4758-80dc-c4ded7618c79"},"vehicle_type_id":"4","last_reported":1766254481,"current_range_meters":15200,"station_id":"ce4bhhp2rcd13ifvqfm0","pricing_plan_id":"cebpf4jnsgd1na2vs0mg"},{"bike_id":"c3600c1e-1952-476d-9e4e-7c733aefa216","system_id":"levelo_inurba_marseille","lat":43.3064,"lon":5.40094,"is_reserved":false,"is_disabled":false,"rental_uris":{"android":"levelo://app?vid=c3600c1e-1952-476d-9e4e-7c733aefa216","ios":"levelo://app?vid=c3600c1e-1952-476d-9e4e-7c733aefa216"},"vehicle_type_id":"4","last_reported":1766254481,"current_range_meters":15200,"station_id":"ce4bh112rcd13ifvqda0","pricing_plan_id":"cebpf4jnsgd1na2vs0mg"},{"bike_id":"2e9c8dd4-f89b-44d3-8db1-2ec25bc5bf0a","system_id":"levelo_inurba_marseille","lat":43.29524,"lon":5.39028,"is_reserved":false,"is_disabled":false,"rental_uris":{"android":"levelo://app?vid=2e9c8dd4-f89b-44d3-8db1-2ec25bc5bf0a","ios":"levelo://app?vid=2e9c8dd4-f89b-44d3-8db1-2ec25bc5bf0a"},"vehicle_type_id":"4","last_reported":1766254481,"current_range_meters":15200,"station_id":"ce4bh3p2rcd13ifvqdp0","pricing_plan_id":"cebpf4jnsgd1na2vs0mg"},{"bike_id":"395c2bd4-f387-49f5-a4de-bf4b294178b7","system_id":"levelo_inurba_marseille","lat":43.28463,"lon":5.35894,"is_reserved":false,"is_disabled":false,"rental_uris":{"android":"levelo://app?vid=395c2bd4-f387-49f5-a4de-bf4b294178b7","ios":"levelo://app?vid=395c2bd4-f387-49f5-a4de-bf4b294178b7"},"vehicle_type_id":"4","last_reported":1766254481,"current_range_meters":15200,"station_id":"ce4bhah2rcd13ifvqei0","pricing_plan_id":"cebpf4jnsgd1na2vs0mg"},{"bike_id":"220aff5d-2c09-4121-a94f-34ba8ddd6f6f","system_id":"levelo_inurba_marseille","lat":43.285378,"lon":5.44096,"is_reserved":false,"is_disabled":false,"rental_uris":{"android":"levelo://app?vid=220aff5d-2c09-4121-a94f-34ba8ddd6f6f","ios":"levelo://app?vid=220aff5d-2c09-4121-a94f-34ba8ddd6f6f"},"vehicle_type_id":"4","last_reported":1766254481,"current_range_meters":15200,"station_id":"st_d3j3df2ikq2c7380ej80","pricing_plan_id":"cebpf4jnsgd1na2vs0mg"},{"bike_id":"5051d93a-2df5-4ea3-bb8b-f70de774e1b4","system_id":"levelo_inurba_marseille","lat":43.29307,"lon":5.37156,"is_reserved":false,"is_disabled":false,"rental_uris":{"android":"levelo://app?vid=5051d93a-2df5-4ea3-bb8b-f70de774e1b4","ios":"levelo://app?vid=5051d93a-2df5-4ea3-bb8b-f70de774e1b4"},"vehicle_type_id":"4","last_reported":1766254481,"current_range_meters":15200,"station_id":"ce4bgh92rcd13ifvqb40","pricing_plan_id":"cebpf4jnsgd1na2vs0mg"},{"bike_id":"1686839b-0972-4d66-a949-1eae098c6a90","system_id":"levelo_inurba_marseille","lat":43.33539,"lon":5.37451,"is_reserved":false,"is_disabled":false,"rental_uris":{"android":"levelo://app?vid=1686839b-0972-4d66-a949-1eae098c6a90","ios":"levelo://app?vid=1686839b-0972-4d66-a949-1eae098c6a90"},"vehicle_type_id":"4","last_reported":1766254481,"current_range_meters":15200,"station_id":"st_d46tts09ee8s73dlu43g","pricing_plan_id":"cebpf4jnsgd1na2vs0mg"},{"bike_id":"53bc5552-e614-48c0-92b0-75103c474caa","system_id":"levelo_inurba_marseille","lat":43.32115,"lon":5.36763,"is_reserved":false,"is_disabled":false,"rental_uris":{"android":"levelo://app?vid=53bc5552-e614-48c0-92b0-75103c474caa","ios":"levelo://app?vid=53bc5552-e614-48c0-92b0-75103c474caa"},"vehicle_type_id":"4","last_reported":1766254481,"current_range_meters":15200,"station_id":"ce4bhrh2rcd13ifvqhug","pricing_plan_id":"cebpf4jnsgd1na2vs0mg"},{"bike_id":"b07e4d74-f66b-44ab-948c-0f49d351d05f","system_id":"levelo_inurba_marseille","lat":43.24628,"lon":5.43144,"is_reserved":false,"is_disabled":false,"rental_uris":{"android":"levelo://app?vid=b07e4d74-f66b-44ab-948c-0f49d351d05f","ios":"levelo://app?vid=b07e4d74-f66b-44ab-948c-0f49d351d05f"},"vehicle_type_id":"4","last_reported":1766254481,"current_range_meters":16000,"station_id":"st_d2m6c4gdas8pm72e190g","pricing_plan_id":"cebpf4jnsgd1na2vs0mg"},{"bike_id":"7a2810d9-a7a2-4f55-a626-e3338912c6bf","system_id":"levelo_inurba_marseille","lat":43.33747,"lon":5.37513,"is_reserved":false,"is_disabled":false,"rental_uris":{"android":"levelo://app?vid=7a2810d9-a7a2-4f55-a626-e3338912c6bf","ios":"levelo://app?vid=7a2810d9-a7a2-4f55-a626-e3338912c6bf"},"vehicle_type_id":"4","last_reported":1766254481,"current_range_meters":16000,"station_id":"","pricing_plan_id":"cebpf4jnsgd1na2vs0mg"},{"bike_id":"515b1067-c9f1-499f-828f-2aace95d367e","system_id":"levelo_inurba_marseille","lat":43.270703,"lon":5.422826,"is_reserved":false,"is_disabled":false,"rental_uris":{"android":"levelo://app?vid=515b1067-c9f1-499f-828f-2aace95d367e","ios":"levelo://app?vid=515b1067-c9f1-499f-828f-2aace95d367e"},"vehicle_type_id":"4","last_reported":1766254481,"current_range_meters":16000,"station_id":"ce4bhk92rcd13ifvqgb0","pricing_plan_id":"cebpf4jnsgd1na2vs0mg"},{"bike_id":"2c46c7a5-389f-47fc-8086-ed2504307f23","system_id":"levelo_inurba_marseille","lat":43.27952,"lon":5.41051,"is_reserved":false,"is_disabled":false,"rental_uris":{"android":"levelo://app?vid=2c46c7a5-389f-47fc-8086-ed2504307f23","ios":"levelo://app?vid=2c46c7a5-389f-47fc-8086-ed2504307f23"},"vehicle_type_id":"4","last_reported":1766254481,"current_range_meters":16000,"station_id":"ce4bhnp2rcd13ifvqh0g","pricing_plan_id":"cebpf4jnsgd1na2vs0mg"},{"bike_id":"44692cea-5bbf-4044-9d9f-905140fec479","system_id":"levelo_inurba_marseille","lat":43.31264,"lon":5.3779,"is_reserved":false,"is_disabled":false,"rental_uris":{"android":"levelo://app?vid=44692cea-5bbf-4044-9d9f-905140fec479","ios":"levelo://app?vid=44692cea-5bbf-4044-9d9f-905140fec479"},"vehicle_type_id":"4","last_reported":1766254481,"current_range_meters":16000,"station_id":"","pricing_plan_id":"cebpf4jnsgd1na2vs0mg"},{"bike_id":"c0723a55-d0d0-493e-a4c5-9479bcaeff93","system_id":"levelo_inurba_marseille","lat":43.284754,"lon":5.483878,"is_reserved":false,"is_disabled":false,"rental_uris":{"android":"levelo://app?vid=c0723a55-d0d0-493e-a4c5-9479bcaeff93","ios":"levelo://app?vid=c0723a55-d0d0-493e-a4c5-9479bcaeff93"},"vehicle_type_id":"4","last_reported":1766254481,"current_range_meters":16000,"station_id":"st_d3svhcjqgbts73a3dn0g","pricing_plan_id":"cebpf4jnsgd1na2vs0mg"},{"bike_id":"7779a310-72f4-4850-9ca4-aaa217a589d2","system_id":"levelo_inurba_marseille","lat":43.337444,"lon":5.374475,"is_reserved":false,"is_disabled":false,"rental_uris":{"android":"levelo://app?vid=7779a310-72f4-4850-9ca4-aaa217a589d2","ios":"levelo://app?vid=7779a310-72f4-4850-9ca4-aaa217a589d2"},"vehicle_type_id":"4","last_reported":1766254481,"current_range_meters":16000,"station_id":"","pricing_plan_id":"cebpf4jnsgd1na2vs0mg"},