{"last_updated":1687093666,"ttl":30,"version":"2.2","data":{"bikes":[{"bike_id":"8c93d0a6-a357-4f9c-923d-20823dd0e1b8","system_id":"levelo_inurba_marseille","lat":43.31505,"lon":5.37309,"is_reserved":false,"is_disabled":false,"rental_uris":{"android":"levelo://app?vid=8c93d0a6-a357-4f9c-923d-20823dd0e1b8","ios":"levelo://app?vid=8c93d0a6-a357-4f9c-923d-20823dd0e1b8"},"vehicle_type_id":"4","last_reported":1687093667,"current_range_meters":25600,"station_id":"ce4bgt12rcd13ifvqcd0","pricing_plan_id":"free"},{"bike_id":"bc5dfdcd-9f3f-442f-8ff0-f90c18be3eef","system_id":"levelo_inurba_marseille","lat":43.30807,"lon":5.37035,"is_reserved":false,"is_disabled":false,"rental_uris":{"android":"levelo://app?vid=bc5dfdcd-9f3f-442f-8ff0-f90c18be3eef","ios":"levelo://app?vid=bc5dfdcd-9f3f-442f-8ff0-f90c18be3eef"},"vehicle_type_id":"4","last_reported":1687093667,"current_range_meters":0,"station_id":"","pricing_plan_id":"free"},{"bike_id":"9c746439-937e-436d-8c66-cb90c42aae7f","system_id":"levelo_inurba_marseille","lat":43.3137,"lon":5.37666,"is_reserved":false,"is_disabled":false,"rental_uris":{"android":"levelo://app?vid=9c746439-937e-436d-8c66-cb90c42aae7f","ios":"levelo://app?vid=9c746439-937e-436d-8c66-cb90c42aae7f"},"vehicle_type_id":"4","last_reported":1687093667,"current_range_meters":24800,"station_id":"","pricing_plan_id":"free"},{"bike_id":"fecbd0c2-bfeb-4320-8680-9bf772d4dcfa","system_id":"levelo_inurba_marseille","lat":43.31123,"lon":5.3779,"is_reserved":false,"is_disabled":false,"rental_uris":{"android":"levelo://app?vid=fecbd0c2-bfeb-4320-8680-9bf772d4dcfa","ios":"levelo://app?vid=fecbd0c2-bfeb-4320-8680-9bf772d4dcfa"},"vehicle_type_id":"4","last_reported":1687093667,"current_range_meters":28800,"station_id":"","pricing_plan_id":"free"},{"bike_id":"2424216c-0462-4ad0-b127-d0366c91b61c","system_id":"levelo_inurba_marseille","lat":43.31699,"lon":5.37674,"is_reserved":false,"is_disabled":false,"rental_uris":{"android":"levelo://app?vid=2424216c-0462-4ad0-b127-d0366c91b61c","ios":"levelo://app?vid=2424216c-0462-4ad0-b127-d0366c91b61c"},"vehicle_type_id":"4","last_reported":1687093667,"current_range_meters":28400,"station_id":"","pricing_plan_id":"free"},{"bike_id":"5163578d-8747-43d5-b8fa-a2ad8c8b0efb","system_id":"levelo_inurba_marseille","lat":43.31113,"lon":5.37822,"is_reserved":false,"is_disabled":false,"rental_uris":{"android":"levelo://app?vid=5163578d-8747-43d5-b8fa-a2ad8c8b0efb","ios":"levelo://app?vid=5163578d-8747-43d5-b8fa-a2ad8c8b0efb"},"vehicle_type_id":"4","last_reported":1687093667,"current_range_meters":31200,"station_id":"","pricing_plan_id":"free"},{"bike_id":"03c63a22-5af4-4731-b58c-68faf2f7a292","system_id":"levelo_inurba_marseille","lat":43.31856,"lon":5.37568,"is_reserved":false,"is_disabled":false,"rental_uris":{"android":"levelo://app?vid=03c63a22-5af4-4731-b58c-68faf2f7a292","ios":"levelo://app?vid=03c63a22-5af4-4731-b58c-68faf2f7a292"},"vehicle_type_id":"4","last_reported":1687093667,"current_range_meters":28800,"station_id":"","pricing_plan_id":"free"},{"bike_id":"142ea6ff-5a56-4e78-a0fb-fc43c2431b5c","system_id":"levelo_inurba_marseille","lat":43.317075,"lon":5.377367,"is_reserved":false,"is_disabled":false,"rental_uris":{"android":"levelo://app?vid=142ea6ff-5a56-4e78-a0fb-fc43c2431b5c","ios":"levelo://app?vid=142ea6ff-5a56-4e78-a0fb-fc43c2431b5c"},"vehicle_type_id":"4","last_reported":1687093667,"current_range_meters":28400,"station_id":"ce4bgth2rcd13ifvqch0","pricing_plan_id":"free"},{"bike_id":"cada2054-cd0b-4ffd-b35d-70e3683fc5a7","system_id":"levelo_inurba_marseille","lat":43.315293,"lon":5.380349,"is_reserved":false,"is_disabled":false,"rental_uris":{"android":"levelo://app?vid=cada2054-cd0b-4ffd-b35d-70e3683fc5a7","ios":"levelo://app?vid=cada2054-cd0b-4ffd-b35d-70e3683fc5a7"},"vehicle_type_id":"4","last_reported":1687093667,"current_range_meters":29200,"station_id":"ce4bhsp2rcd13ifvqi50","pricing_plan_id":"free"},{"bike_id":"8d51db3c-ddf0-4868-a42f-0868b9c8ed86","system_id":"levelo_inurba_marseille","lat":43.31538,"lon":5.38029,"is_reserved":false,"is_disabled":false,"rental_uris":{"android":"levelo://app?vid=8d51db3c-ddf0-4868-a42f-0868b9c8ed86","ios":"levelo://app?vid=8d51db3c-ddf0-4868-a42f-0868b9c8ed86"},"vehicle_type_id":"4","last_reported":1687093667,"current_range_meters":30000,"station_id":"ce4bhsp2rcd13ifvqi50","pricing_plan_id":"free"},{"bike_id":"d055f953-52d5-4408-87b2-a23be1395d94","system_id":"levelo_inurba_marseille","lat":43.301939,"lon":5.366286,"is_reserved":false,"is_disabled":false,"rental_uris":{"android":"levelo://app?vid=d055f953-52d5-4408-87b2-a23be1395d94","ios":"levelo://app?vid=d055f953-52d5-4408-87b2-a23be1395d94"},"vehicle_type_id":"4","last_reported":1687093667,"current_range_meters":15200,"station_id":"ce4bgrh2rcd13ifvqc8g","pricing_plan_id":"free"},{"bike_id":"ae33307b-fcd5-479b-9ae1-9002ed226c6e","system_id":"levelo_inurba_marseille","lat":43.308012,"lon":5.381511,"is_reserved":false,"is_disabled":false,"rental_uris":{"android":"levelo://app?vid=ae33307b-fcd5-479b-9ae1-9002ed226c6e","ios":"levelo://app?vid=ae33307b-fcd5-479b-9ae1-9002ed226c6e"},"vehicle_type_id":"4","last_reported":1687093667,"current_range_meters":29600,"station_id":"ce4bgt12rcd13ifvqce0","pricing_plan_id":"free"},{"bike_id":"c7b7c2a6-6de8-40e1-8b4a-dc0127f16969","system_id":"levelo_inurba_marseille","lat":43.30185,"lon":5.37287,"is_reserved":false,"is_disabled":false,"rental_uris":{"android":"levelo://app?vid=c7b7c2a6-6de8-40e1-8b4a-dc0127f16969","ios":"levelo://app?vid=c7b7c2a6-6de8-40e1-8b4a-dc0127f16969"},"vehicle_type_id":"4","last_reported":1687093667,"current_range_meters":5200,"station_id":"ce4bgkh2rcd13ifvqbk0","pricing_plan_id":"free"},{"bike_id":"269a3b39-cb84-4a8f-96e4-c241ab4a243e","system_id":"levelo_inurba_marseille","lat":43.304606,"lon":5.379026,"is_reserved":false,"is_disabled":false,"rental_uris":{"android":"levelo://app?vid=269a3b39-cb84-4a8f-96e4-c241ab4a243e","ios":"levelo://app?vid=269a3b39-cb84-4a8f-96e4-c241ab4a243e"},"vehicle_type_id":"4","last_reported":1687093667,"current_range_meters":25200,"station_id":"ce4bgup2rcd13ifvqcn0","pricing_plan_id":"free"},{"bike_id":"43fc693e-f2a9-4aec-8fd9-d094bb02cb70","system_id":"levelo_inurba_marseille","lat":43.304606,"lon":5.379026,"is_reserved":false,"is_disabled":false,"rental_uris":{"android":"levelo://app?vid=43fc693e-f2a9-4aec-8fd9-d094bb02cb70","ios":"levelo://app?vid=43fc693e-f2a9-4aec-8fd9-d094bb02cb70"},"vehicle_type_id":"4","last_reported":1687093667,"current_range_meters":17600,"station_id":"ce4bgup2rcd13ifvqcn0","pricing_plan_id":"free"},{"bike_id":"9d997f51-8b4f-4066-8e74-38cb555e670c","system_id":"levelo_inurba_marseille","lat":43.31997,"lon":5.38151,"is_reserved":false,"is_disabled":false,"rental_uris":{"android":"levelo://app?vid=9d997f51-8b4f-4066-8e74-38cb555e670c","ios":"levelo://app?vid=9d997f51-8b4f-4066-8e74-38cb555e670c"},"vehicle_type_id":"4","last_reported":1687093667,"current_range_meters":11600,"station_id":"ce4bhr12rcd13ifvqhpg","pricing_plan_id":"free"},{"bike_id":"82e36e69-7682-4804-bd27-143b685964ea","system_id":"levelo_inurba_marseille","lat":43.31366,"lon":5.38491,"is_reserved":false,"is_disabled":false,"rental_uris":{"android":"levelo://app?vid=82e36e69-7682-4804-bd27-143b685964ea","ios":"levelo://app?vid=82e36e69-7682-4804-bd27-143b685964ea"},"vehicle_type_id":"4","last_reported":1687093667,"current_range_meters":25600,"station_id":"ce4bgt92rcd13ifvqcf0","pricing_plan_id":"free"},{"bike_id":"1d47b2e2-b6b2-467e-89b2-30c2b3dd988b","system_id":"levelo_inurba_marseille","lat":43.31371,"lon":5.38514,"is_reserved":false,"is_disabled":false,"rental_uris":{"android":"levelo://app?vid=1d47b2e2-b6b2-467e-89b2-30c2b3dd988b","ios":"levelo://app?vid=1d47b2e2-b6b2-467e-89b2-30c2b3dd988b"},"vehicle_type_id":"4","last_reported":1687093667,"current_range_meters":11600,"station_id":"","pricing_plan_id":"free"},{"bike_id":"9d8edd00-92a2-49dc-9055-fd97b01cf741","system_id":"levelo_inurba_marseille","lat":43.299222,"lon":5.365554,"is_reserved":false,"is_disabled":false,"rental_uris":{"android":"levelo://app?vid=9d8edd00-92a2-49dc-9055-fd97b01cf741","ios":"levelo://app?vid=9d8edd00-92a2-49dc-9055-fd97b01cf741"},"vehicle_type_id":"4","last_reported":1687093667,"current_range_meters":28000,"station_id":"ce4bgm92rcd13ifvqbr0","pricing_plan_id":"free"},{"bike_id":"330412da-b9eb-49fa-9ba0-9288ee9ddd31","system_id":"levelo_inurba_marseille","lat":43.30048,"lon":5.37524,"is_reserved":false,"is_disabled":false,"rental_uris":{"android":"levelo://app?vid=330412da-b9eb-49fa-9ba0-9288ee9ddd31","ios":"levelo://app?vid=330412da-b9eb-49fa-9ba0-9288ee9ddd31"},"vehicle_type_id":"4","last_reported":1687093667,"current_range_meters":14800,"station_id":"","pricing_plan_id":"free"},{"bike_id":"cb15bb72-0e0a-428f-86da-2268e392f117","system_id":"levelo_inurba_marseille","lat":43.298433,"lon":5.362774,"is_reserved":false,"is_disabled":false,"rental_uris":{"android":"levelo://app?vid=cb15bb72-0e0a-428f-86da-2268e392f117","ios":"levelo://app?vid=cb15bb72-0e0a-428f-86da-2268e392f117"},"vehicle_type_id":"4","last_reported":1687093667,"current_range_meters":30400,"station_id":"ce4bgpp2rcd13ifvqc3g","pricing_plan_id":"free"},{"bike_id":"8585fa7b-0f2f-412c-a5af-2eec4d6f7cd8","system_id":"levelo_inurba_marseille","lat":43.298433,"lon":5.362774,"is_reserved":false,"is_disabled":false,"rental_uris":{"android":"levelo://app?vid=8585fa7b-0f2f-412c-a5af-2eec4d6f7cd8","ios":"levelo://app?vid=8585fa7b-0f2f-412c-a5af-2eec4d6f7cd8"},"vehicle_type_id":"4","last_reported":1687093667,"current_range_meters":31200,"station_id":"ce4bgpp2rcd13ifvqc3g","pricing_plan_id":"free"},{"bike_id":"f85b3b8d-0cdd-4254-9d33-ad5471b0c0ea","system_id":"levelo_inurba_marseille","lat":43.298433,"lon":5.362774,"is_reserved":false,"is_disabled":false,"rental_uris":{"android":"levelo://app?vid=f85b3b8d-0cdd-4254-9d33-ad5471b0c0ea","ios":"levelo://app?vid=f85b3b8d-0cdd-4254-9d33-ad5471b0c0ea"},"vehicle_type_id":"4","last_reported":1687093667,"current_range_meters":31200,"station_id":"ce4bgpp2rcd13ifvqc3g","pricing_plan_id":"free"},{"bike_id":"bb2a979e-6700-4165-a8b6-e6076a7a99a4","system_id":"levelo_inurba_marseille","lat":43.299243,"lon":5.37481,"is_reserved":false,"is_disabled":false,"rental_uris":{"android":"levelo://app?vid=bb2a979e-6700-4165-a8b6-e6076a7a99a4","ios":"levelo://app?vid=bb2a979e-6700-4165-a8b6-e6076a7a99a4"},"vehicle_type_id":"4","last_reported":1687093667,"current_range_meters":18800,"station_id":"ce4bgjh2rcd13ifvqbg0","pricing_plan_id":"free"},{"bike_id":"006c8443-5b8e-4bff-9354-291c039e085d","system_id":"levelo_inurba_marseille","lat":43.299243,"lon":5.37481,"is_reserved":false,"is_disabled":false,"rental_uris":{"android":"levelo://app?vid=006c8443-5b8e-4bff-9354-291c039e085d","ios":"levelo://app?vid=006c8443-5b8e-4bff-9354-291c039e085d"},"vehicle_type_id":"4","last_reported":1687093667,"current_range_meters":22000,"station_id":"ce4bgjh2rcd13ifvqbg0","pricing_plan_id":"free"},{"bike_id":"c981c3dc-8ac8-4ce2-8031-ed68d66c3a9e","system_id":"levelo_inurba_marseille","lat":43.298433,"lon":5.362774,"is_reserved":false,"is_disabled":false,"rental_uris":{"android":"levelo://app?vid=c981c3dc-8ac8-4ce2-8031-ed68d66c3a9e","ios":"levelo://app?vid=c981c3dc-8ac8-4ce2-8031-ed68d66c3a9e"},"vehicle_type_id":"4","last_reported":1687093667,"current_range_meters":29600,"station_id":"ce4bgpp2rcd13ifvqc3g","pricing_plan_id":"free"},{"bike_id":"686a213e-42f5-458f-a677-d9aa05f7eb68","system_id":"levelo_inurba_marseille","lat":43.298433,"lon":5.362774,"is_reserved":false,"is_disabled":false,"rental_uris":{"android":"levelo://app?vid=686a213e-42f5-458f-a677-d9aa05f7eb68","ios":"levelo://app?vid=686a213e-42f5-458f-a677-d9aa05f7eb68"},"vehicle_type_id":"4","last_reported":1687093667,"current_range_meters":31200,"station_id":"ce4bgpp2rcd13ifvqc3g","pricing_plan_id":"free"},{"bike_id":"e29573a6-9244-4887-b6c6-52441e59b586","system_id":"levelo_inurba_marseille","lat":43.311722,"lon":5.387247,"is_reserved":false,"is_disabled":false,"rental_uris":{"android":"levelo://app?vid=e29573a6-9244-4887-b6c6-52441e59b586","ios":"levelo://app?vid=e29573a6-9244-4887-b6c6-52441e59b586"},"vehicle_type_id":"4","last_reported":1687093667,"current_range_meters":13200,"station_id":"ce4bgv12rcd13ifvqcp0","pricing_plan_id":"free"},{"bike_id":"f1e38b89-a388-4be5-ab8d-45d2aebe6f4c","system_id":"levelo_inurba_marseille","lat":43.311722,"lon":5.387247,"is_reserved":false,"is_disabled":false,"rental_uris":{"android":"levelo://app?vid=f1e38b89-a388-4be5-ab8d-45d2aebe6f4c","ios":"levelo://app?vid=f1e38b89-a388-4be5-ab8d-45d2aebe6f4c"},"vehicle_type_id":"4","last_reported":1687093667,"current_range_meters":21200,"station_id":"ce4bgv12rcd13ifvqcp0","pricing_plan_id":"free"},{"bike_id":"deba4255-1be7-4e35-93f5-fda3b82e3c6e","system_id":"levelo_inurba_marseille","lat":43.299243,"lon":5.374807,"is_reserved":false,"is_disabled":false,"rental_uris":{"android":"levelo://app?vid=deba4255-1be7-4e35-93f5-fda3b82e3c6e","ios":"levelo://app?vid=deba4255-1be7-4e35-93f5-fda3b82e3c6e"},"vehicle_type_id":"4","last_reported":1687093667,"current_range_meters":26000,"station_id":"ce4bgjh2rcd13ifvqbg0","pricing_plan_id":"free"},{"bike_id":"84f49f54-6b65-4144-af2e-a5eb805d3d43","system_id":"levelo_inurba_marseille","lat":43.311722,"lon":5.387247,"is_reserved":false,"is_disabled":false,"rental_uris":{"android":"levelo://app?vid=84f49f54-6b65-4144-af2e-a5eb805d3d43","ios":"levelo://app?vid=84f49f54-6b65-4144-af2e-a5eb805d3d43"},"vehicle_type_id":"4","last_reported":1687093667,"current_range_meters":800,"station_id":"ce4bgv12rcd13ifvqcp0","pricing_plan_id":"free"},{"bike_id":"9e60ff88-fe04-4b70-9af4-05a83fe316c7","system_id":"levelo_inurba_marseille","lat":43.328371,"lon":5.366909,"is_reserved":false,"is_disabled":false,"rental_uris":{"android":"levelo://app?vid=9e60ff88-fe04-4b70-9af4-05a83fe316c7","ios":"levelo://app?vid=9e60ff88-fe04-4b70-9af4-05a83fe316c7"},"vehicle_type_id":"4","last_reported":1687093667,"current_range_meters":29200,"station_id":"ce4bhs92rcd13ifvqi0g","pricing_plan_id":"free"},{"bike_id":"6d5ccf33-759a-4c7a-af82-9f67388b4177","system_id":"levelo_inurba_marseille","lat":43.328371,"lon":5.366909,"is_reserved":false,"is_disabled":false,"rental_uris":{"android":"levelo://app?vid=6d5ccf33-759a-4c7a-af82-9f67388b4177","ios":"levelo://app?vid=6d5ccf33-759a-4c7a-af82-9f67388b4177"},"vehicle_type_id":"4","last_reported":1687093667,"current_range_meters":30400,"station_id":"ce4bhs92rcd13ifvqi0g","pricing_plan_id":"free"},{"bike_id":"dba9e30e-a749-43fa-a75b-51b691339771","system_id":"levelo_inurba_marseille","lat":43.328371,"lon":5.366909,"is_reserved":false,"is_disabled":false,"rental_uris":{"android":"levelo://app?vid=dba9e30e-a749-43fa-a75b-51b691339771","ios":"levelo://app?vid=dba9e30e-a749-43fa-a75b-51b691339771"},"vehicle_type_id":"4","last_reported":1687093667,"current_range_meters":30400,"station_id":"ce4bhs92rcd13ifvqi0g","pricing_plan_id":"free"},{"bike_id":"3b343a5c-8423-476a-a7c8-83278a85a66d","system_id":"levelo_inurba_marseille","lat":43.328371,"lon":5.366909,"is_reserved":false,"is_disabled":false,"rental_uris":{"android":"levelo://app?vid=3b343a5c-8423-476a-a7c8-83278a85a66d","ios":"levelo://app?vid=3b343a5c-8423-476a-a7c8-83278a85a66d"},"vehicle_type_id":"4","last_reported":1687093667,"current_range_meters":30400,"station_id":"ce4bhs92rcd13ifvqi0g","pricing_plan_id":"free"},{"bike_id":"27e857a0-6074-435d-85c0-7fc3761f1cbb","system_id":"levelo_inurba_marseille","lat":43.328371,"lon":5.366909,"is_reserved":false,"is_disabled":false,"rental_uris":{"android":"levelo://app?vid=27e857a0-6074-435d-85c0-7fc3761f1cbb","ios":"levelo://app?vid=27e857a0-6074-435d-85c0-7fc3761f1cbb"},"vehicle_type_id":"4","last_reported":1687093667,"current_range_meters":29600,"station_id":"ce4bhs92rcd13ifvqi0g","pricing_plan_id":"free"},{"bike_id":"78911849-321a-41c5-b67b-eefecdab885b","system_id":"levelo_inurba_marseille","lat":43.328371,"lon":5.366909,"is_reserved":false,"is_disabled":false,"rental_uris":{"android":"levelo://app?vid=78911849-321a-41c5-b67b-eefecdab885b","ios":"levelo://app?vid=78911849-321a-41c5-b67b-eefecdab885b"},"vehicle_type_id":"4","last_reported":1687093667,"current_range_meters":14800,"station_id":"ce4bhs92rcd13ifvqi0g","pricing_plan_id":"free"},{"bike_id":"c4c82479-60a6-4390-8970-3229e3eebb9c","system_id":"levelo_inurba_marseille","lat":43.328371,"lon":5.366909,"is_reserved":false,"is_disabled":false,"rental_uris":{"android":"levelo://app?vid=c4c82479-60a6-4390-8970-3229e3eebb9c","ios":"levelo://app?vid=c4c82479-60a6-4390-8970-3229e3eebb9c"},"vehicle_type_id":"4","last_reported":1687093667,"current_range_meters":19200,"station_id":"ce4bhs92rcd13ifvqi0g","pricing_plan_id":"free"},{"bike_id":"69bf5c29-7e5d-45c7-b1b2-514d42707ee7","system_id":"levelo_inurba_marseille","lat":43.328371,"lon":5.366909,"is_reserved":false,"is_disabled":false,"rental_uris":{"android":"levelo://app?vid=69bf5c29-7e5d-45c7-b1b2-514d42707ee7","ios":"levelo://app?vid=69bf5c29-7e5d-45c7-b1b2-514d42707ee7"},"vehicle_type_id":"4","last_reported":1687093667,"current_range_meters":30400,"station_id":"ce4bhs92rcd13ifvqi0g","pricing_plan_id":"free"},{"bike_id":"eb463cab-b54c-4ed2-a710-d6d777606789","system_id":"levelo_inurba_marseille","lat":43.32832,"lon":5.36685,"is_reserved":false,"is_disabled":false,"rental_uris":{"android":"levelo://app?vid=eb463cab-b54c-4ed2-a710-d6d777606789","ios":"levelo://app?vid=eb463cab-b54c-4ed2-a710-d6d777606789"},"vehicle_type_id":"4","last_reported":1687093667,"current_range_meters":18000,"station_id":"ce4bhs92rcd13ifvqi0g","pricing_plan_id":"free"},{"bike_id":"d4175595-0982-4085-a219-346e22f36d28","system_id":"levelo_inurba_marseille","lat":43.328371,"lon":5.366909,"is_reserved":false,"is_disabled":false,"rental_uris":{"android":"levelo://app?vid=d4175595-0982-4085-a219-346e22f36d28","ios":"levelo://app?vid=d4175595-0982-4085-a219-346e22f36d28"},"vehicle_type_id":"4","last_reported":1687093667,"current_range_meters":30400,"station_id":"ce4bhs92rcd13ifvqi0g","pricing_plan_id":"free"},{"bike_id":"731cce5d-c725-402d-b941-54910a08f036","system_id":"levelo_inurba_marseille","lat":43.328371,"lon":5.366909,"is_reserved":false,"is_disabled":false,"rental_uris":{"android":"levelo://app?vid=731cce5d-c725-402d-b941-54910a08f036","ios":"levelo://app?vid=731cce5d-c725-402d-b941-54910a08f036"},"vehicle_type_id":"4","last_reported":1687093667,"current_range_meters":30400,"station_id":"ce4bhs92rcd13ifvqi0g","pricing_plan_id":"free"},{"bike_id":"7305d8d9-7d56-41c2-ae77-869303774f4d","system_id":"levelo_inurba_marseille","lat":43.328371,"lon":5.366909,"is_reserved":false,"is_disabled":false,"rental_uris":{"android":"levelo://app?vid=7305d8d9-7d56-41c2-ae77-869303774f4d","ios":"levelo://app?vid=7305d8d9-7d56-41c2-ae77-869303774f4d"},"vehicle_type_id":"4","last_reported":1687093667,"current_range_meters":15200,"station_id":"ce4bhs92rcd13ifvqi0g","pricing_plan_id":"free"},{"bike_id":"d274035b-0f58-4337-b3a4-00d4c36764fe","system_id":"levelo_inurba_marseille","lat":43.297163,"lon":5.365866,"is_reserved":false,"is_disabled":false,"rental_uris":{"android":"levelo://app?vid=d274035b-0f58-4337-b3a4-00d4c36764fe","ios":"levelo://app?vid=d274035b-0f58-4337-b3a4-00d4c36764fe"},"vehicle_type_id":"4","last_reported":1687093667,"current_range_meters":27200,"station_id":"ce4bgn12rcd13ifvqbt0","pricing_plan_id":"free"},{"bike_id":"01003604-ca83-4a0f-a050-81143b6da389","system_id":"levelo_inurba_marseille","lat":43.328371,"lon":5.366909,"is_reserved":false,"is_disabled":false,"rental_uris":{"android":"levelo://app?vid=01003604-ca83-4a0f-a050-81143b6da389","ios":"levelo://app?vid=01003604-ca83-4a0f-a050-81143b6da389"},"vehicle_type_id":"4","last_reported":1687093667,"current_range_meters":31200,"station_id":"ce4bhs92rcd13ifvqi0g","pricing_plan_id":"free"},{"bike_id":"4ed301a0-41d2-428a-a141-9cbf86eb3319","system_id":"levelo_inurba_marseille","lat":43.297163,"lon":5.365866,"is_reserved":false,"is_disabled":false,"rental_uris":{"android":"levelo://app?vid=4ed301a0-41d2-428a-a141-9cbf86eb3319","ios":"levelo://app?vid=4ed301a0-41d2-428a-a141-9cbf86eb3319"},"vehicle_type_id":"4","last_reported":1687093667,"current_range_meters":800,"station_id":"ce4bgn12rcd13ifvqbt0","pricing_plan_id":"free"},{"bike_id":"176f4894-d7fc-460e-aa5d-7c8c1e206dc3","system_id":"levelo_inurba_marseille","lat":43.297163,"lon":5.365866,"is_reserved":false,"is_disabled":false,"rental_uris":{"android":"levelo://app?vid=176f4894-d7fc-460e-aa5d-7c8c1e206dc3","ios":"levelo://app?vid=176f4894-d7fc-460e-aa5d-7c8c1e206dc3"},"vehicle_type_id":"4","last_reported":1687093667,"current_range_meters":10800,"station_id":"ce4bgn12rcd13ifvqbt0","pricing_plan_id":"free"},{"bike_id":"88d0330c-5bb0-4a19-9b65-d4683b42e015","system_id":"levelo_inurba_marseille","lat":43.29683,"lon":5.36046,"is_reserved":false,"is_disabled":false,"rental_uris":{"android":"levelo://app?vid=88d0330c-5bb0-4a19-9b65-d4683b42e015","ios":"levelo://app?vid=88d0330c-5bb0-4a19-9b65-d4683b42e015"},"vehicle_type_id":"4","last_reported":1687093667,"current_range_meters":2800,"station_id":"","pricing_plan_id":"free"},{"bike_id":"24f41ca5-b432-4feb-a0c8-a15026b97306","system_id":"levelo_inurba_marseille","lat":43.296131,"lon":5.370773,"is_reserved":false,"is_disabled":false,"rental_uris":{"android":"levelo://app?vid=24f41ca5-b432-4feb-a0c8-a15026b97306","ios":"levelo://app?vid=24f41ca5-b432-4feb-a0c8-a15026b97306"},"vehicle_type_id":"4","last_reported":1687093667,"current_range_meters":12000,"station_id":"ce4bgnh2rcd13ifvqc0g","pricing_plan_id":"free"},{"bike_id":"83f6075d-3e24-4cf1-a7cb-da5638440d94","system_id":"levelo_inurba_marseille","lat":43.31764,"lon":5.39012,"is_reserved":false,"is_disabled":false,"rental_uris":{"android":"levelo://app?vid=83f6075d-3e24-4cf1-a7cb-da5638440d94","ios":"levelo://app?vid=83f6075d-3e24-4cf1-a7cb-da5638440d94"},"vehicle_type_id":"4","last_reported":1687093667,"current_range_meters":20000,"station_id":"ce4bhqp2rcd13ifvqhng","pricing_plan_id":"free"},{"bike_id":"dab115bf-1cab-4b8d-ad6a-67fda1d71234","system_id":"levelo_inurba_marseille","lat":43.31764,"lon":5.39013,"is_reserved":false,"is_disabled":false,"rental_uris":{"android":"levelo://app?vid=dab115bf-1cab-4b8d-ad6a-67fda1d71234","ios":"levelo://app?vid=dab115bf-1cab-4b8d-ad6a-67fda1d71234"},"vehicle_type_id":"4","last_reported":1687093667,"current_range_meters":24400,"station_id":"ce4bhqp2rcd13ifvqhng","pricing_plan_id":"free"},{"bike_id":"d89a6111-594c-4044-bab7-fa8ad5f81068","system_id":"levelo_inurba_marseille","lat":43.317557,"lon":5.390173,"is_reserved":false,"is_disabled":false,"rental_uris":{"android":"levelo://app?vid=d89a6111-594c-4044-bab7-fa8ad5f81068","ios":"levelo://app?vid=d89a6111-594c-4044-bab7-fa8ad5f81068"},"vehicle_type_id":"4","last_reported":1687093667,"current_range_meters":30400,"station_id":"ce4bhqp2rcd13ifvqhng","pricing_plan_id":"free"},{"bike_id":"4a10882c-7152-4233-bc08-3e7673adbd38","system_id":"levelo_inurba_marseille","lat":43.317557,"lon":5.390173,"is_reserved":false,"is_disabled":false,"rental_uris":{"android":"levelo://app?vid=4a10882c-7152-4233-bc08-3e7673adbd38","ios":"levelo://app?vid=4a10882c-7152-4233-bc08-3e7673adbd38"},"vehicle_type_id":"4","last_reported":1687093667,"current_range_meters":24400,"station_id":"ce4bhqp2rcd13ifvqhng","pricing_plan_id":"free"},{"bike_id":"ebda9d18-22b7-485a-ac08-a24bcdc44577","system_id":"levelo_inurba_marseille","lat":43.298037,"lon":5.381066,"is_reserved":false,"is_disabled":false,"rental_uris":{"android":"levelo://app?vid=ebda9d18-22b7-485a-ac08-a24bcdc44577","ios":"levelo://app?vid=ebda9d18-22b7-485a-ac08-a24bcdc44577"},"vehicle_type_id":"4","last_reported":1687093667,"current_range_meters":26400,"station_id":"ce4bgip2rcd13ifvqbb0","pricing_plan_id":"free"},{"bike_id":"aeff82aa-6b98-42e9-a816-fdda34852015","system_id":"levelo_inurba_marseille","lat":43.304278,"lon":5.388868,"is_reserved":false,"is_disabled":false,"rental_uris":{"android":"levelo://app?vid=aeff82aa-6b98-42e9-a816-fdda34852015","ios":"levelo://app?vid=aeff82aa-6b98-42e9-a816-fdda34852015"},"vehicle_type_id":"4","last_reported":1687093667,"current_range_meters":12000,"station_id":"ce4bgk12rcd13ifvqbi0","pricing_plan_id":"free"},{"bike_id":"250c8a96-8498-4211-b8f3-1b00a8d1fbaf","system_id":"levelo_inurba_marseille","lat":43.296477,"lon":5.37768,"is_reserved":false,"is_disabled":false,"rental_uris":{"android":"levelo://app?vid=250c8a96-8498-4211-b8f3-1b00a8d1fbaf","ios":"levelo://app?vid=250c8a96-8498-4211-b8f3-1b00a8d1fbaf"},"vehicle_type_id":"4","last_reported":1687093667,"current_range_meters":12800,"station_id":"","pricing_plan_id":"free"},{"bike_id":"dc7fa830-4db2-4beb-adbf-69d412bfeb2d","system_id":"levelo_inurba_marseille","lat":43.295748,"lon":5.37522,"is_reserved":false,"is_disabled":false,"rental_uris":{"android":"levelo://app?vid=dc7fa830-4db2-4beb-adbf-69d412bfeb2d","ios":"levelo://app?vid=dc7fa830-4db2-4beb-adbf-69d412bfeb2d"},"vehicle_type_id":"4","last_reported":1687093667,"current_range_meters":26400,"station_id":"ce4bgh92rcd13ifvqb50","pricing_plan_id":"free"},{"bike_id":"f9b6322e-21b3-4c57-914a-8619e0cf87d3","system_id":"levelo_inurba_marseille","lat":43.304278,"lon":5.388868,"is_reserved":false,"is_disabled":false,"rental_uris":{"android":"levelo://app?vid=f9b6322e-21b3-4c57-914a-8619e0cf87d3","ios":"levelo://app?vid=f9b6322e-21b3-4c57-914a-8619e0cf87d3"},"vehicle_type_id":"4","last_reported":1687093667,"current_range_meters":29600,"station_id":"ce4bgk12rcd13ifvqbi0","pricing_plan_id":"free"},{"bike_id":"54c4898d-cba4-475a-95a1-dd1da3d807ec","system_id":"levelo_inurba_marseille","lat":43.296277,"lon":5.377108,"is_reserved":false,"is_disabled":false,"rental_uris":{"android":"levelo://app?vid=54c4898d-cba4-475a-95a1-dd1da3d807ec","ios":"levelo://app?vid=54c4898d-cba4-475a-95a1-dd1da3d807ec"},"vehicle_type_id":"4","last_reported":1687093667,"current_range_meters":10400,"station_id":"ce4bgi92rcd13ifvqb90","pricing_plan_id":"free"},{"bike_id":"eb56f040-d7e3-440c-9d05-82afe187dd21","system_id":"levelo_inurba_marseille","lat":43.2998,"lon":5.38499,"is_reserved":false,"is_disabled":false,"rental_uris":{"android":"levelo://app?vid=eb56f040-d7e3-440c-9d05-82afe187dd21","ios":"levelo://app?vid=eb56f040-d7e3-440c-9d05-82afe187dd21"},"vehicle_type_id":"4","last_reported":1687093667,"current_range_meters":28400,"station_id":"ce4bgj92rcd13ifvqbd0","pricing_plan_id":"free"},{"bike_id":"bb335696-9086-470f-9c5f-1244bc2e0b8f","system_id":"levelo_inurba_marseille","lat":43.299717,"lon":5.384845,"is_reserved":false,"is_disabled":false,"rental_uris":{"android":"levelo://app?vid=bb335696-9086-470f-9c5f-1244bc2e0b8f","ios":"levelo://app?vid=bb335696-9086-470f-9c5f-1244bc2e0b8f"},"vehicle_type_id":"4","last_reported":1687093667,"current_range_meters":26400,"station_id":"ce4bgj92rcd13ifvqbd0","pricing_plan_id":"free"},{"bike_id":"a5d34394-8ea3-4622-ac56-bc8a8abe2d11","system_id":"levelo_inurba_marseille","lat":43.32367,"lon":5.388836,"is_reserved":false,"is_disabled":false,"rental_uris":{"android":"levelo://app?vid=a5d34394-8ea3-4622-ac56-bc8a8abe2d11","ios":"levelo://app?vid=a5d34394-8ea3-4622-ac56-bc8a8abe2d11"},"vehicle_type_id":"4","last_reported":1687093667,"current_range_meters":30400,"station_id":"ce4bhqp2rcd13ifvqhog","pricing_plan_id":"free"},{"bike_id":"05d585c0-9c9e-4f05-83e5-50aae80e7424","system_id":"levelo_inurba_marseille","lat":43.32367,"lon":5.388836,"is_reserved":false,"is_disabled":false,"rental_uris":{"android":"levelo://app?vid=05d585c0-9c9e-4f05-83e5-50aae80e7424","ios":"levelo://app?vid=05d585c0-9c9e-4f05-83e5-50aae80e7424"},"vehicle_type_id":"4","last_reported":1687093667,"current_range_meters":30400,"station_id":"ce4bhqp2rcd13ifvqhog","pricing_plan_id":"free"},{"bike_id":"ec20d355-e7bb-4dd1-9847-3fb64795c68e","system_id":"levelo_inurba_marseille","lat":43.32369,"lon":5.38882,"is_reserved":false,"is_disabled":false,"rental_uris":{"android":"levelo://app?vid=ec20d355-e7bb-4dd1-9847-3fb64795c68e","ios":"levelo://app?vid=ec20d355-e7bb-4dd1-9847-3fb64795c68e"},"vehicle_type_id":"4","last_reported":1687093667,"current_range_meters":26000,"station_id":"ce4bhqp2rcd13ifvqhog","pricing_plan_id":"free"},{"bike_id":"c25bbca6-334a-48c9-b2aa-c69eb97c9d81","system_id":"levelo_inurba_marseille","lat":43.32367,"lon":5.388836,"is_reserved":false,"is_disabled":false,"rental_uris":{"android":"levelo://app?vid=c25bbca6-334a-48c9-b2aa-c69eb97c9d81","ios":"levelo://app?vid=c25bbca6-334a-48c9-b2aa-c69eb97c9d81"},"vehicle_type_id":"4","last_reported":1687093667,"current_range_meters":29600,"station_id":"ce4bhqp2rcd13ifvqhog","pricing_plan_id":"free"},{"bike_id":"8d657f48-94bc-462a-82e8-e3df4294a58c","system_id":"levelo_inurba_marseille","lat":43.29276,"lon":5.36831,"is_reserved":false,"is_disabled":false,"rental_uris":{"android":"levelo://app?vid=8d657f48-94bc-462a-82e8-e3df4294a58c","ios":"levelo://app?vid=8d657f48-94bc-462a-82e8-e3df4294a58c"},"vehicle_type_id":"4","last_reported":1687093667,"current_range_meters":16400,"station_id":"ce4bhbp2rcd13ifvqesg","pricing_plan_id":"free"},{"bike_id":"eddad406-0907-4bc5-9fb4-020a35ef4d3d","system_id":"levelo_inurba_marseille","lat":43.29361,"lon":5.37825,"is_reserved":false,"is_disabled":false,"rental_uris":{"android":"levelo://app?vid=eddad406-0907-4bc5-9fb4-020a35ef4d3d","ios":"levelo://app?vid=eddad406-0907-4bc5-9fb4-020a35ef4d3d"},"vehicle_type_id":"4","last_reported":1687093667,"current_range_meters":31200,"station_id":"ce4bgjh2rcd13ifvqbf0","pricing_plan_id":"free"},{"bike_id":"4aa795bf-3d12-4075-abe5-ae5175be9b8e","system_id":"levelo_inurba_marseille","lat":43.29228,"lon":5.36072,"is_reserved":false,"is_disabled":false,"rental_uris":{"android":"levelo://app?vid=4aa795bf-3d12-4075-abe5-ae5175be9b8e","ios":"levelo://app?vid=4aa795bf-3d12-4075-abe5-ae5175be9b8e"},"vehicle_type_id":"4","last_reported":1687093667,"current_range_meters":17200,"station_id":"ce4bhbh2rcd13ifvqeqg","pricing_plan_id":"free"},{"bike_id":"ebcfe727-45e4-4da4-bfd9-4fbd5d233c06","system_id":"levelo_inurba_marseille","lat":43.292311,"lon":5.360731,"is_reserved":false,"is_disabled":false,"rental_uris":{"android":"levelo://app?vid=ebcfe727-45e4-4da4-bfd9-4fbd5d233c06","ios":"levelo://app?vid=ebcfe727-45e4-4da4-bfd9-4fbd5d233c06"},"vehicle_type_id":"4","last_reported":1687093667,"current_range_meters":29600,"station_id":"ce4bhbh2rcd13ifvqeqg","pricing_plan_id":"free"},{"bike_id":"5e609339-1f3a-4349-9ded-6cf3ea9a53d3","system_id":"levelo_inurba_marseille","lat":43.292311,"lon":5.360731,"is_reserved":false,"is_disabled":false,"rental_uris":{"android":"levelo://app?vid=5e609339-1f3a-4349-9ded-6cf3ea9a53d3","ios":"levelo://app?vid=5e609339-1f3a-4349-9ded-6cf3ea9a53d3"},"vehicle_type_id":"4","last_reported":1687093667,"current_range_meters":10800,"station_id":"ce4bhbh2rcd13ifvqeqg","pricing_plan_id":"free"},{"bike_id":"319bb047-1204-4f7e-aa72-5047ae4d4577","system_id":"levelo_inurba_marseille","lat":43.291994,"lon":5.357886,"is_reserved":false,"is_disabled":false,"rental_uris":{"android":"levelo://app?vid=319bb047-1204-4f7e-aa72-5047ae4d4577","ios":"levelo://app?vid=319bb047-1204-4f7e-aa72-5047ae4d4577"},"vehicle_type_id":"4","last_reported":1687093667,"current_range_meters":24400,"station_id":"ce4bhb12rcd13ifvqel0","pricing_plan_id":"free"},{"bike_id":"2f075962-cfe7-4342-aac9-f3a4aa23cb14","system_id":"levelo_inurba_marseille","lat":43.309038,"lon":5.396546,"is_reserved":false,"is_disabled":false,"rental_uris":{"android":"levelo://app?vid=2f075962-cfe7-4342-aac9-f3a4aa23cb14","ios":"levelo://app?vid=2f075962-cfe7-4342-aac9-f3a4aa23cb14"},"vehicle_type_id":"4","last_reported":1687093667,"current_range_meters":30000,"station_id":"ce4bh012rcd13ifvqcv0","pricing_plan_id":"free"},{"bike_id":"4826eefb-a0a6-4adb-8b0d-5c2e7c40aa9a","system_id":"levelo_inurba_marseille","lat":43.291994,"lon":5.357886,"is_reserved":false,"is_disabled":false,"rental_uris":{"android":"levelo://app?vid=4826eefb-a0a6-4adb-8b0d-5c2e7c40aa9a","ios":"levelo://app?vid=4826eefb-a0a6-4adb-8b0d-5c2e7c40aa9a"},"vehicle_type_id":"4","last_reported":1687093667,"current_range_meters":12800,"station_id":"ce4bhb12rcd13ifvqel0","pricing_plan_id":"free"},{"bike_id":"eea0c93c-b109-40f8-ba74-ab1ca867469f","system_id":"levelo_inurba_marseille","lat":43.291994,"lon":5.357886,"is_reserved":false,"is_disabled":false,"rental_uris":{"android":"levelo://app?vid=eea0c93c-b109-40f8-ba74-ab1ca867469f","ios":"levelo://app?vid=eea0c93c-b109-40f8-ba74-ab1ca867469f"},"vehicle_type_id":"4","last_reported":1687093667,"current_range_meters":0,"station_id":"ce4bhb12rcd13ifvqel0","pricing_plan_id":"free"},{"bike_id":"ff662890-739c-4628-bc4e-6a89ed07e75b","system_id":"levelo_inurba_marseille","lat":43.291994,"lon":5.357886,"is_reserved":false,"is_disabled":false,"rental_uris":{"android":"levelo://app?vid=ff662890-739c-4628-bc4e-6a89ed07e75b","ios":"levelo://app?vid=ff662890-739c-4628-bc4e-6a89ed07e75b"},"vehicle_type_id":"4","last_reported":1687093667,"current_range_meters":12400,"station_id":"ce4bhb12rcd13ifvqel0","pricing_plan_id":"free"},{"bike_id":"ff113506-0b10-477a-a022-599aa1959a9e","system_id":"levelo_inurba_marseille","lat":43.291994,"lon":5.357886,"is_reserved":false,"is_disabled":false,"rental_uris":{"android":"levelo://app?vid=ff113506-0b10-477a-a022-599aa1959a9e","ios":"levelo://app?vid=ff113506-0b10-477a-a022-599aa1959a9e"},"vehicle_type_id":"4","last_reported":1687093667,"current_range_meters":13600,"station_id":"ce4bhb12rcd13ifvqel0","pricing_plan_id":"free"},{"bike_id":"1564b0a4-6aa3-486b-a610-6da1c70b2f67","system_id":"levelo_inurba_marseille","lat":43.291994,"lon":5.357886,"is_reserved":false,"is_disabled":false,"rental_uris":{"android":"levelo://app?vid=1564b0a4-6aa3-486b-a610-6da1c70b2f67","ios":"levelo://app?vid=1564b0a4-6aa3-486b-a610-6da1c70b2f67"},"vehicle_type_id":"4","last_reported":1687093667,"current_range_meters":26400,"station_id":"ce4bhb12rcd13ifvqel0","pricing_plan_id":"free"},{"bike_id":"49b47b48-bfcf-4039-9116-c0e8fea8220e","system_id":"levelo_inurba_marseille","lat":43.290511,"lon":5.359101,"is_reserved":false,"is_disabled":false,"rental_uris":{"android":"levelo://app?vid=49b47b48-bfcf-4039-9116-c0e8fea8220e","ios":"levelo://app?vid=49b47b48-bfcf-4039-9116-c0e8fea8220e"},"vehicle_type_id":"4","last_reported":1687093667,"current_range_meters":23200,"station_id":"ce4bhbh2rcd13ifvqeqg","pricing_plan_id":"free"},{"bike_id":"6a8b856a-2769-4865-86dc-9a97782975f0","system_id":"levelo_inurba_marseille","lat":43.29038,"lon":5.35922,"is_reserved":false,"is_disabled":false,"rental_uris":{"android":"levelo://app?vid=6a8b856a-2769-4865-86dc-9a97782975f0","ios":"levelo://app?vid=6a8b856a-2769-4865-86dc-9a97782975f0"},"vehicle_type_id":"4","last_reported":1687093667,"current_range_meters":0,"station_id":"","pricing_plan_id":"free"},{"bike_id":"e3552471-63e3-46f9-9c7e-0d87e7a6587b","system_id":"levelo_inurba_marseille","lat":43.289184,"lon":5.366408,"is_reserved":false,"is_disabled":false,"rental_uris":{"android":"levelo://app?vid=e3552471-63e3-46f9-9c7e-0d87e7a6587b","ios":"levelo://app?vid=e3552471-63e3-46f9-9c7e-0d87e7a6587b"},"vehicle_type_id":"4","last_reported":1687093667,"current_range_meters":2400,"station_id":"ce4bhap2rcd13ifvqek0","pricing_plan_id":"free"},{"bike_id":"38eb09af-7166-42b9-865e-84246929498f","system_id":"levelo_inurba_marseille","lat":43.292642,"lon":5.384254,"is_reserved":false,"is_disabled":false,"rental_uris":{"android":"levelo://app?vid=38eb09af-7166-42b9-865e-84246929498f","ios":"levelo://app?vid=38eb09af-7166-42b9-865e-84246929498f"},"vehicle_type_id":"4","last_reported":1687093667,"current_range_meters":31200,"station_id":"ce4bh692rcd13ifvqea0","pricing_plan_id":"free"},{"bike_id":"de0b23ce-4cb4-42f1-87dd-3468d17c6dde","system_id":"levelo_inurba_marseille","lat":43.290104,"lon":5.356111,"is_reserved":false,"is_disabled":false,"rental_uris":{"android":"levelo://app?vid=de0b23ce-4cb4-42f1-87dd-3468d17c6dde","ios":"levelo://app?vid=de0b23ce-4cb4-42f1-87dd-3468d17c6dde"},"vehicle_type_id":"4","last_reported":1687093667,"current_range_meters":11200,"station_id":"ce4bhb92rcd13ifvqen0","pricing_plan_id":"free"},{"bike_id":"04711775-4ec3-471a-8402-6d258f7e503d","system_id":"levelo_inurba_marseille","lat":43.290104,"lon":5.356111,"is_reserved":false,"is_disabled":false,"rental_uris":{"android":"levelo://app?vid=04711775-4ec3-471a-8402-6d258f7e503d","ios":"levelo://app?vid=04711775-4ec3-471a-8402-6d258f7e503d"},"vehicle_type_id":"4","last_reported":1687093667,"current_range_meters":24800,"station_id":"ce4bhb92rcd13ifvqen0","pricing_plan_id":"free"},{"bike_id":"374c1208-ce7d-4985-b7b9-d2788f446e3f","system_id":"levelo_inurba_marseille","lat":43.290103,"lon":5.356114,"is_reserved":false,"is_disabled":false,"rental_uris":{"android":"levelo://app?vid=374c1208-ce7d-4985-b7b9-d2788f446e3f","ios":"levelo://app?vid=374c1208-ce7d-4985-b7b9-d2788f446e3f"},"vehicle_type_id":"4","last_reported":1687093667,"current_range_meters":13600,"station_id":"ce4bhb92rcd13ifvqen0","pricing_plan_id":"free"},{"bike_id":"83ec9094-4ba8-4a8b-8d07-1bdbf3e9f56d","system_id":"levelo_inurba_marseille","lat":43.290103,"lon":5.356114,"is_reserved":false,"is_disabled":false,"rental_uris":{"android":"levelo://app?vid=83ec9094-4ba8-4a8b-8d07-1bdbf3e9f56d","ios":"levelo://app?vid=83ec9094-4ba8-4a8b-8d07-1bdbf3e9f56d"},"vehicle_type_id":"4","last_reported":1687093667,"current_range_meters":14800,"station_id":"ce4bhb92rcd13ifvqen0","pricing_plan_id":"free"},{"bike_id":"f95d8be0-c840-4b03-9e0d-b8050ae0f057","system_id":"levelo_inurba_marseille","lat":43.33045,"lon":5.38921,"is_reserved":false,"is_disabled":false,"rental_uris":{"android":"levelo://app?vid=f95d8be0-c840-4b03-9e0d-b8050ae0f057","ios":"levelo://app?vid=f95d8be0-c840-4b03-9e0d-b8050ae0f057"},"vehicle_type_id":"4","last_reported":1687093667,"current_range_meters":24000,"station_id":"ce4bhr92rcd13ifvqhrg","pricing_plan_id":"free"},{"bike_id":"a9863e9e-72b4-4b49-b40a-3ab1079e6640","system_id":"levelo_inurba_marseille","lat":43.290103,"lon":5.356114,"is_reserved":false,"is_disabled":false,"rental_uris":{"android":"levelo://app?vid=a9863e9e-72b4-4b49-b40a-3ab1079e6640","ios":"levelo://app?vid=a9863e9e-72b4-4b49-b40a-3ab1079e6640"},"vehicle_type_id":"4","last_reported":1687093667,"current_range_meters":23600,"station_id":"ce4bhb92rcd13ifvqen0","pricing_plan_id":"free"},{"bike_id":"d921b576-6fcd-4f49-9801-1624663e65c9","system_id":"levelo_inurba_marseille","lat":43.290104,"lon":5.356111,"is_reserved":false,"is_disabled":false,"rental_uris":{"android":"levelo://app?vid=d921b576-6fcd-4f49-9801-1624663e65c9","ios":"levelo://app?vid=d921b576-6fcd-4f49-9801-1624663e65c9"},"vehicle_type_id":"4","last_reported":1687093667,"current_range_meters":24000,"station_id":"ce4bhb92rcd13ifvqen0","pricing_plan_id":"free"},{"bike_id":"17d0eda2-68bb-4e20-95b0-f4eb6dbe98ba","system_id":"levelo_inurba_marseille","lat":43.28999,"lon":5.35601,"is_reserved":false,"is_disabled":false,"rental_uris":{"android":"levelo://app?vid=17d0eda2-68bb-4e20-95b0-f4eb6dbe98ba","ios":"levelo://app?vid=17d0eda2-68bb-4e20-95b0-f4eb6dbe98ba"},"vehicle_type_id":"4","last_reported":1687093667,"current_range_meters":23600,"station_id":"ce4bhb92rcd13ifvqen0","pricing_plan_id":"free"},{"bike_id":"b43db59e-1bac-49cd-b4e0-311de70c4168","system_id":"levelo_inurba_marseille","lat":43.29524,"lon":5.39036,"is_reserved":false,"is_disabled":false,"rental_uris":{"android":"levelo://app?vid=b43db59e-1bac-49cd-b4e0-311de70c4168","ios":"levelo://app?vid=b43db59e-1bac-49cd-b4e0-311de70c4168"},"vehicle_type_id":"4","last_reported":1687093667,"current_range_meters":20800,"station_id":"ce4bh3p2rcd13ifvqdp0","pricing_plan_id":"free"},{"bike_id":"b9b44b37-7edf-4ab6-8685-17eb58a26dbc","system_id":"levelo_inurba_marseille","lat":43.295169,"lon":5.390426,"is_reserved":false,"is_disabled":false,"rental_uris":{"android":"levelo://app?vid=b9b44b37-7edf-4ab6-8685-17eb58a26dbc","ios":"levelo://app?vid=b9b44b37-7edf-4ab6-8685-17eb58a26dbc"},"vehicle_type_id":"4","last_reported":1687093667,"current_range_meters":29200,"station_id":"ce4bh3p2rcd13ifvqdp0","pricing_plan_id":"free"},{"bike_id":"db51c0f4-0249-4dac-81ad-ad101898dcff","system_id":"levelo_inurba_marseille","lat":43.28856,"lon":5.358371,"is_reserved":false,"is_disabled":false,"rental_uris":{"android":"levelo://app?vid=db51c0f4-0249-4dac-81ad-ad101898dcff","ios":"levelo://app?vid=db51c0f4-0249-4dac-81ad-ad101898dcff"},"vehicle_type_id":"4","last_reported":1687093667,"current_range_meters":12000,"station_id":"ce4bhb12rcd13ifvqem0","pricing_plan_id":"free"},{"bike_id":"c63d9dac-0bdb-43e2-81d3-b1b688e43486","system_id":"levelo_inurba_marseille","lat":43.28856,"lon":5.358371,"is_reserved":false,"is_disabled":false,"rental_uris":{"android":"levelo://app?vid=c63d9dac-0bdb-43e2-81d3-b1b688e43486","ios":"levelo://app?vid=c63d9dac-0bdb-43e2-81d3-b1b688e43486"},"vehicle_type_id":"4","last_reported":1687093667,"current_range_meters":29600,"station_id":"ce4bhb12rcd13ifvqem0","pricing_plan_id":"free"},{"bike_id":"c0fb8083-e02d-4dec-b1b9-fa095e6c5b75","system_id":"levelo_inurba_marseille","lat":43.337396,"lon":5.374526,"is_reserved":false,"is_disabled":false,"rental_uris":{"android":"levelo://app?vid=c0fb8083-e02d-4dec-b1b9-fa095e6c5b75","ios":"levelo://app?vid=c0fb8083-e02d-4dec-b1b9-fa095e6c5b75"},"vehicle_type_id":"4","last_reported":1687093667,"current_range_meters":0,"station_id":"ce4bhp92rcd13ifvqhag","pricing_plan_id":"free"},{"bike_id":"b3706de1-9323-48f9-bb33-478f7fa9a040","system_id":"levelo_inurba_marseille","lat":43.33744,"lon":5.3746,"is_reserved":false,"is_disabled":false,"rental_uris":{"android":"levelo://app?vid=b3706de1-9323-48f9-bb33-478f7fa9a040","ios":"levelo://app?vid=b3706de1-9323-48f9-bb33-478f7fa9a040"},"vehicle_type_id":"4","last_reported":1687093667,"current_range_meters":30000,"station_id":"","pricing_plan_id":"free"},{"bike_id":"5185e25c-da39-4070-9511-45e9c4c27cfe","system_id":"levelo_inurba_marseille","lat":43.309371,"lon":5.401449,"is_reserved":false,"is_disabled":false,"rental_uris":{"android":"levelo://app?vid=5185e25c-da39-4070-9511-45e9c4c27cfe","ios":"levelo://app?vid=5185e25c-da39-4070-9511-45e9c4c27cfe"},"vehicle_type_id":"4","last_reported":1687093667,"current_range_meters":10000,"station_id":"ce4bgvp2rcd13ifvqct0","pricing_plan_id":"free"},{"bike_id":"41a8749b-6d93-4d1b-8e52-c5f60f65ae7c","system_id":"levelo_inurba_marseille","lat":43.33752,"lon":5.37443,"is_reserved":false,"is_disabled":false,"rental_uris":{"android":"levelo://app?vid=41a8749b-6d93-4d1b-8e52-c5f60f65ae7c","ios":"levelo://app?vid=41a8749b-6d93-4d1b-8e52-c5f60f65ae7c"},"vehicle_type_id":"4","last_reported":1687093667,"current_range_meters":26800,"station_id":"","pricing_plan_id":"free"},{"bike_id":"26362f9b-fe06-4b77-ba5c-552c4693243a","system_id":"levelo_inurba_marseille","lat":43.309371,"lon":5.401449,"is_reserved":false,"is_disabled":false,"rental_uris":{"android":"levelo://app?vid=26362f9b-fe06-4b77-ba5c-552c4693243a","ios":"levelo://app?vid=26362f9b-fe06-4b77-ba5c-552c4693243a"},"vehicle_type_id":"4","last_reported":1687093667,"current_range_meters":15600,"station_id":"ce4bgvp2rcd13ifvqct0","pricing_plan_id":"free"},{"bike_id":"619e2e38-e81a-4070-a67b-d6025d1ded78","system_id":"levelo_inurba_marseille","lat":43.30638,"lon":5.40087,"is_reserved":false,"is_disabled":false,"rental_uris":{"android":"levelo://app?vid=619e2e38-e81a-4070-a67b-d6025d1ded78","ios":"levelo://app?vid=619e2e38-e81a-4070-a67b-d6025d1ded78"},"vehicle_type_id":"4","last_reported":1687093667,"current_range_meters":30800,"station_id":"ce4bh112rcd13ifvqda0","pricing_plan_id":"free"},{"bike_id":"68dd3a00-7d02-4a3b-9933-c4a9e24975eb","system_id":"levelo_inurba_marseille","lat":43.286593,"lon":5.363346,"is_reserved":false,"is_disabled":false,"rental_uris":{"android":"levelo://app?vid=68dd3a00-7d02-4a3b-9933-c4a9e24975eb","ios":"levelo://app?vid=68dd3a00-7d02-4a3b-9933-c4a9e24975eb"},"vehicle_type_id":"4","last_reported":1687093667,"current_range_meters":27200,"station_id":"ce4bhah2rcd13ifvqej0","pricing_plan_id":"free"},{"bike_id":"089306c4-a0f2-4bc1-aeaa-d787efcdfa51","system_id":"levelo_inurba_marseille","lat":43.298681,"lon":5.397225,"is_reserved":false,"is_disabled":false,"rental_uris":{"android":"levelo://app?vid=089306c4-a0f2-4bc1-aeaa-d787efcdfa51","ios":"levelo://app?vid=089306c4-a0f2-4bc1-aeaa-d787efcdfa51"},"vehicle_type_id":"4","last_reported":1687093667,"current_range_meters":18000,"station_id":"ce4bh0h2rcd13ifvqd50","pricing_plan_id":"free"},{"bike_id":"fa3f295e-ddbf-4d0c-8fa1-e5db2012c410","system_id":"levelo_inurba_marseille","lat":43.286593,"lon":5.363346,"is_reserved":false,"is_disabled":false,"rental_uris":{"android":"levelo://app?vid=fa3f295e-ddbf-4d0c-8fa1-e5db2012c410","ios":"levelo://app?vid=fa3f295e-ddbf-4d0c-8fa1-e5db2012c410"},"vehicle_type_id":"4","last_reported":1687093667,"current_range_meters":21200,"station_id":"ce4bhah2rcd13ifvqej0","pricing_plan_id":"free"},{"bike_id":"8632a104-3662-4dd4-9214-33893785f5e3","system_id":"levelo_inurba_marseille","lat":43.295194,"lon":5.39397,"is_reserved":false,"is_disabled":false,"rental_uris":{"android":"levelo://app?vid=8632a104-3662-4dd4-9214-33893785f5e3","ios":"levelo://app?vid=8632a104-3662-4dd4-9214-33893785f5e3"},"vehicle_type_id":"4","last_reported":1687093667,"current_range_meters":13200,"station_id":"ce4bh292rcd13ifvqdf0","pricing_plan_id":"free"},{"bike_id":"83c0bd0a-dbc7-4d30-9fee-8b6d3e01f7db","system_id":"levelo_inurba_marseille","lat":43.29037,"lon":5.38656,"is_reserved":false,"is_disabled":false,"rental_uris":{"android":"levelo://app?vid=83c0bd0a-dbc7-4d30-9fee-8b6d3e01f7db","ios":"levelo://app?vid=83c0bd0a-dbc7-4d30-9fee-8b6d3e01f7db"},"vehicle_type_id":"4","last_reported":1687093667,"current_range_meters":19200,"station_id":"","pricing_plan_id":"free"},{"bike_id":"c70187f1-1d35-4b82-a5fb-e57ec311f8fd","system_id":"levelo_inurba_marseille","lat":43.290336,"lon":5.386425,"is_reserved":false,"is_disabled":false,"rental_uris":{"android":"levelo://app?vid=c70187f1-1d35-4b82-a5fb-e57ec311f8fd","ios":"levelo://app?vid=c70187f1-1d35-4b82-a5fb-e57ec311f8fd"},"vehicle_type_id":"4","last_reported":1687093667,"current_range_meters":12000,"station_id":"ce4bh4p2rcd13ifvqe0g","pricing_plan_id":"free"},{"bike_id":"23ed75f5-98f9-4078-b293-962b7f6d8657","system_id":"levelo_inurba_marseille","lat":43.302759,"lon":5.400793,"is_reserved":false,"is_disabled":false,"rental_uris":{"android":"levelo://app?vid=23ed75f5-98f9-4078-b293-962b7f6d8657","ios":"levelo://app?vid=23ed75f5-98f9-4078-b293-962b7f6d8657"},"vehicle_type_id":"4","last_reported":1687093667,"current_range_meters":31200,"station_id":"ce4bgvh2rcd13ifvqcs0","pricing_plan_id":"free"},{"bike_id":"533121de-47c3-457e-bdcc-d81f3e48da48","system_id":"levelo_inurba_marseille","lat":43.30244,"lon":5.40064,"is_reserved":false,"is_disabled":false,"rental_uris":{"android":"levelo://app?vid=533121de-47c3-457e-bdcc-d81f3e48da48","ios":"levelo://app?vid=533121de-47c3-457e-bdcc-d81f3e48da48"},"vehicle_type_id":"4","last_reported":1687093667,"current_range_meters":17600,"station_id":"","pricing_plan_id":"free"},{"bike_id":"21cf0a29-31c0-46c5-9516-b0f5847b8ecc","system_id":"levelo_inurba_marseille","lat":43.30234,"lon":5.40062,"is_reserved":false,"is_disabled":false,"rental_uris":{"android":"levelo://app?vid=21cf0a29-31c0-46c5-9516-b0f5847b8ecc","ios":"levelo://app?vid=21cf0a29-31c0-46c5-9516-b0f5847b8ecc"},"vehicle_type_id":"4","last_reported":1687093667,"current_range_meters":13600,"station_id":"","pricing_plan_id":"free"},{"bike_id":"2724b277-3342-4a61-8f2f-7eac0f1f36b4","system_id":"levelo_inurba_marseille","lat":43.30232,"lon":5.40069,"is_reserved":false,"is_disabled":false,"rental_uris":{"android":"levelo://app?vid=2724b277-3342-4a61-8f2f-7eac0f1f36b4","ios":"levelo://app?vid=2724b277-3342-4a61-8f2f-7eac0f1f36b4"},"vehicle_type_id":"4","last_reported":1687093667,"current_range_meters":25200,"station_id":"","pricing_plan_id":"free"},{"bike_id":"c16cd8a2-f45f-40d1-aaac-a94463da4f69","system_id":"levelo_inurba_marseille","lat":43.30238,"lon":5.40074,"is_reserved":false,"is_disabled":false,"rental_uris":{"android":"levelo://app?vid=c16cd8a2-f45f-40d1-aaac-a94463da4f69","ios":"levelo://app?vid=c16cd8a2-f45f-40d1-aaac-a94463da4f69"},"vehicle_type_id":"4","last_reported":1687093667,"current_range_meters":18400,"station_id":"","pricing_plan_id":"free"},{"bike_id":"b60bc646-4240-4b9e-9e24-be831bda7074","system_id":"levelo_inurba_marseille","lat":43.28599,"lon":5.37064,"is_reserved":false,"is_disabled":false,"rental_uris":{"android":"levelo://app?vid=b60bc646-4240-4b9e-9e24-be831bda7074","ios":"levelo://app?vid=b60bc646-4240-4b9e-9e24-be831bda7074"},"vehicle_type_id":"4","last_reported":1687093667,"current_range_meters":30400,"station_id":"ce4bht12rcd13ifvqi60","pricing_plan_id":"free"},{"bike_id":"3656d18b-0ba2-4b03-8685-f7535b20cd89","system_id":"levelo_inurba_marseille","lat":43.287184,"lon":5.37937,"is_reserved":false,"is_disabled":false,"rental_uris":{"android":"levelo://app?vid=3656d18b-0ba2-4b03-8685-f7535b20cd89","ios":"levelo://app?vid=3656d18b-0ba2-4b03-8685-f7535b20cd89"},"vehicle_type_id":"4","last_reported":1687093667,"current_range_meters":13600,"station_id":"ce4bh9p2rcd13ifvqec0","pricing_plan_id":"free"},{"bike_id":"3174584e-f3fb-4e1d-8168-759c3975de72","system_id":"levelo_inurba_marseille","lat":43.287184,"lon":5.37937,"is_reserved":false,"is_disabled":false,"rental_uris":{"android":"levelo://app?vid=3174584e-f3fb-4e1d-8168-759c3975de72","ios":"levelo://app?vid=3174584e-f3fb-4e1d-8168-759c3975de72"},"vehicle_type_id":"4","last_reported":1687093667,"current_range_meters":6000,"station_id":"ce4bh9p2rcd13ifvqec0","pricing_plan_id":"free"},{"bike_id":"effd1f59-2132-40d8-a358-7eec180e2035","system_id":"levelo_inurba_marseille","lat":43.287184,"lon":5.37937,"is_reserved":false,"is_disabled":false,"rental_uris":{"android":"levelo://app?vid=effd1f59-2132-40d8-a358-7eec180e2035","ios":"levelo://app?vid=effd1f59-2132-40d8-a358-7eec180e2035"},"vehicle_type_id":"4","last_reported":1687093667,"current_range_meters":9600,"station_id":"ce4bh9p2rcd13ifvqec0","pricing_plan_id":"free"},{"bike_id":"70c1473b-715d-4ec6-b70e-9713b86ca1fe","system_id":"levelo_inurba_marseille","lat":43.284534,"lon":5.358662,"is_reserved":false,"is_disabled":false,"rental_uris":{"android":"levelo://app?vid=70c1473b-715d-4ec6-b70e-9713b86ca1fe","ios":"levelo://app?vid=70c1473b-715d-4ec6-b70e-9713b86ca1fe"},"vehicle_type_id":"4","last_reported":1687093667,"current_range_meters":16400,"station_id":"ce4bhah2rcd13ifvqei0","pricing_plan_id":"free"},{"bike_id":"82c0072e-7d78-424a-aa20-c845461b6b51","system_id":"levelo_inurba_marseille","lat":43.28623,"lon":5.35105,"is_reserved":false,"is_disabled":false,"rental_uris":{"android":"levelo://app?vid=82c0072e-7d78-424a-aa20-c845461b6b51","ios":"levelo://app?vid=82c0072e-7d78-424a-aa20-c845461b6b51"},"vehicle_type_id":"4","last_reported":1687093667,"current_range_meters":28800,"station_id":"ce4bhch2rcd13ifvqeug","pricing_plan_id":"free"},{"bike_id":"5aa0ea34-43dd-4046-b5ef-67f2ff4c7f09","system_id":"levelo_inurba_marseille","lat":43.28623,"lon":5.35104,"is_reserved":false,"is_disabled":false,"rental_uris":{"android":"levelo://app?vid=5aa0ea34-43dd-4046-b5ef-67f2ff4c7f09","ios":"levelo://app?vid=5aa0ea34-43dd-4046-b5ef-67f2ff4c7f09"},"vehicle_type_id":"4","last_reported":1687093667,"current_range_meters":31200,"station_id":"ce4bhch2rcd13ifvqeug","pricing_plan_id":"free"},{"bike_id":"7a1a5c31-8dde-4935-a492-f2a9c804ec90","system_id":"levelo_inurba_marseille","lat":43.28621,"lon":5.35107,"is_reserved":false,"is_disabled":false,"rental_uris":{"android":"levelo://app?vid=7a1a5c31-8dde-4935-a492-f2a9c804ec90","ios":"levelo://app?vid=7a1a5c31-8dde-4935-a492-f2a9c804ec90"},"vehicle_type_id":"4","last_reported":1687093667,"current_range_meters":17600,"station_id":"ce4bhch2rcd13ifvqeug","pricing_plan_id":"free"},{"bike_id":"7bc26892-6534-4e26-8d3a-41bc6818d47e","system_id":"levelo_inurba_marseille","lat":43.28621,"lon":5.35106,"is_reserved":false,"is_disabled":false,"rental_uris":{"android":"levelo://app?vid=7bc26892-6534-4e26-8d3a-41bc6818d47e","ios":"levelo://app?vid=7bc26892-6534-4e26-8d3a-41bc6818d47e"},"vehicle_type_id":"4","last_reported":1687093667,"current_range_meters":25200,"station_id":"ce4bhch2rcd13ifvqeug","pricing_plan_id":"free"},{"bike_id":"973c9c19-e74d-45f5-b427-a5f0739caa25","system_id":"levelo_inurba_marseille","lat":43.28619,"lon":5.35109,"is_reserved":false,"is_disabled":false,"rental_uris":{"android":"levelo://app?vid=973c9c19-e74d-45f5-b427-a5f0739caa25","ios":"levelo://app?vid=973c9c19-e74d-45f5-b427-a5f0739caa25"},"vehicle_type_id":"4","last_reported":1687093667,"current_range_meters":28400,"station_id":"ce4bhch2rcd13ifvqeug","pricing_plan_id":"free"},{"bike_id":"cb82f7b4-a043-4e39-be66-b4b7697c997b","system_id":"levelo_inurba_marseille","lat":43.28619,"lon":5.35108,"is_reserved":false,"is_disabled":false,"rental_uris":{"android":"levelo://app?vid=cb82f7b4-a043-4e39-be66-b4b7697c997b","ios":"levelo://app?vid=cb82f7b4-a043-4e39-be66-b4b7697c997b"},"vehicle_type_id":"4","last_reported":1687093667,"current_range_meters":28800,"station_id":"ce4bhch2rcd13ifvqeug","pricing_plan_id":"free"},{"bike_id":"646342b4-601e-441b-bfaf-82400a1b4de7","system_id":"levelo_inurba_marseille","lat":43.2862,"lon":5.35103,"is_reserved":false,"is_disabled":false,"rental_uris":{"android":"levelo://app?vid=646342b4-601e-441b-bfaf-82400a1b4de7","ios":"levelo://app?vid=646342b4-601e-441b-bfaf-82400a1b4de7"},"vehicle_type_id":"4","last_reported":1687093667,"current_range_meters":12000,"station_id":"ce4bhch2rcd13ifvqeug","pricing_plan_id":"free"},{"bike_id":"af8a55e4-5fd6-495c-9fab-05b01d873d72","system_id":"levelo_inurba_marseille","lat":43.285856,"lon":5.350771,"is_reserved":false,"is_disabled":false,"rental_uris":{"android":"levelo://app?vid=af8a55e4-5fd6-495c-9fab-05b01d873d72","ios":"levelo://app?vid=af8a55e4-5fd6-495c-9fab-05b01d873d72"},"vehicle_type_id":"4","last_reported":1687093667,"current_range_meters":31200,"station_id":"ce4bhch2rcd13ifvqeug","pricing_plan_id":"free"},{"bike_id":"b17a8dfb-a7c7-47b4-839e-9fc51a1e81e3","system_id":"levelo_inurba_marseille","lat":43.285856,"lon":5.350771,"is_reserved":false,"is_disabled":false,"rental_uris":{"android":"levelo://app?vid=b17a8dfb-a7c7-47b4-839e-9fc51a1e81e3","ios":"levelo://app?vid=b17a8dfb-a7c7-47b4-839e-9fc51a1e81e3"},"vehicle_type_id":"4","last_reported":1687093667,"current_range_meters":31200,"station_id":"ce4bhch2rcd13ifvqeug","pricing_plan_id":"free"},{"bike_id":"46b45f1d-e36a-41f0-9fc5-d8262b4c6a24","system_id":"levelo_inurba_marseille","lat":43.285856,"lon":5.350771,"is_reserved":false,"is_disabled":false,"rental_uris":{"android":"levelo://app?vid=46b45f1d-e36a-41f0-9fc5-d8262b4c6a24","ios":"levelo://app?vid=46b45f1d-e36a-41f0-9fc5-d8262b4c6a24"},"vehicle_type_id":"4","last_reported":1687093667,"current_range_meters":14800,"station_id":"ce4bhch2rcd13ifvqeug","pricing_plan_id":"free"},{"bike_id":"af4dd12b-1912-4e6d-b53a-039796841ae0","system_id":"levelo_inurba_marseille","lat":43.285856,"lon":5.350771,"is_reserved":false,"is_disabled":false,"rental_uris":{"android":"levelo://app?vid=af4dd12b-1912-4e6d-b53a-039796841ae0","ios":"levelo://app?vid=af4dd12b-1912-4e6d-b53a-039796841ae0"},"vehicle_type_id":"4","last_reported":1687093667,"current_range_meters":16800,"station_id":"ce4bhch2rcd13ifvqeug","pricing_plan_id":"free"},{"bike_id":"333b4488-a814-4b3f-ad04-154226366c2b","system_id":"levelo_inurba_marseille","lat":43.285856,"lon":5.350771,"is_reserved":false,"is_disabled":false,"rental_uris":{"android":"levelo://app?vid=333b4488-a814-4b3f-ad04-154226366c2b","ios":"levelo://app?vid=333b4488-a814-4b3f-ad04-154226366c2b"},"vehicle_type_id":"4","last_reported":1687093667,"current_range_meters":24000,"station_id":"ce4bhch2rcd13ifvqeug","pricing_plan_id":"free"},{"bike_id":"e854cd58-eec0-47f8-9538-8be7ef1fef2e","system_id":"levelo_inurba_marseille","lat":43.283998,"lon":5.375062,"is_reserved":false,"is_disabled":false,"rental_uris":{"android":"levelo://app?vid=e854cd58-eec0-47f8-9538-8be7ef1fef2e","ios":"levelo://app?vid=e854cd58-eec0-47f8-9538-8be7ef1fef2e"},"vehicle_type_id":"4","last_reported":1687093667,"current_range_meters":7600,"station_id":"ce4bh412rcd13ifvqds0","pricing_plan_id":"free"},{"bike_id":"43275ef6-770c-4f0e-926c-1c3aecd7abec","system_id":"levelo_inurba_marseille","lat":43.287909,"lon":5.390554,"is_reserved":false,"is_disabled":false,"rental_uris":{"android":"levelo://app?vid=43275ef6-770c-4f0e-926c-1c3aecd7abec","ios":"levelo://app?vid=43275ef6-770c-4f0e-926c-1c3aecd7abec"},"vehicle_type_id":"4","last_reported":1687093667,"current_range_meters":12400,"station_id":"","pricing_plan_id":"free"},{"bike_id":"16e5fedd-6e86-436a-a0a2-72c7cd60a6ea","system_id":"levelo_inurba_marseille","lat":43.323464,"lon":5.406297,"is_reserved":false,"is_disabled":false,"rental_uris":{"android":"levelo://app?vid=16e5fedd-6e86-436a-a0a2-72c7cd60a6ea","ios":"levelo://app?vid=16e5fedd-6e86-436a-a0a2-72c7cd60a6ea"},"vehicle_type_id":"4","last_reported":1687093667,"current_range_meters":31200,"station_id":"ce4bhq92rcd13ifvqhjg","pricing_plan_id":"free"},{"bike_id":"536b47a7-25f9-49cb-9608-1b3c49b68cf4","system_id":"levelo_inurba_marseille","lat":43.33727,"lon":5.39195,"is_reserved":false,"is_disabled":false,"rental_uris":{"android":"levelo://app?vid=536b47a7-25f9-49cb-9608-1b3c49b68cf4","ios":"levelo://app?vid=536b47a7-25f9-49cb-9608-1b3c49b68cf4"},"vehicle_type_id":"4","last_reported":1687093667,"current_range_meters":10400,"station_id":"","pricing_plan_id":"free"},{"bike_id":"4c7bb745-bc5b-4e15-ab18-6954b71e42f4","system_id":"levelo_inurba_marseille","lat":43.32265,"lon":5.40666,"is_reserved":false,"is_disabled":false,"rental_uris":{"android":"levelo://app?vid=4c7bb745-bc5b-4e15-ab18-6954b71e42f4","ios":"levelo://app?vid=4c7bb745-bc5b-4e15-ab18-6954b71e42f4"},"vehicle_type_id":"4","last_reported":1687093667,"current_range_meters":23200,"station_id":"","pricing_plan_id":"free"},{"bike_id":"c5a76547-83dd-4937-8812-759c1a206b25","system_id":"levelo_inurba_marseille","lat":43.28476,"lon":5.38414,"is_reserved":false,"is_disabled":false,"rental_uris":{"android":"levelo://app?vid=c5a76547-83dd-4937-8812-759c1a206b25","ios":"levelo://app?vid=c5a76547-83dd-4937-8812-759c1a206b25"},"vehicle_type_id":"4","last_reported":1687093667,"current_range_meters":28400,"station_id":"ce4bh512rcd13ifvqe3g","pricing_plan_id":"free"},{"bike_id":"00b4d942-d645-4a17-a320-9c02b5ecca68","system_id":"levelo_inurba_marseille","lat":43.288501,"lon":5.393087,"is_reserved":false,"is_disabled":false,"rental_uris":{"android":"levelo://app?vid=00b4d942-d645-4a17-a320-9c02b5ecca68","ios":"levelo://app?vid=00b4d942-d645-4a17-a320-9c02b5ecca68"},"vehicle_type_id":"4","last_reported":1687093667,"current_range_meters":22000,"station_id":"ce4bh2p2rcd13ifvqdi0","pricing_plan_id":"free"},{"bike_id":"6c5b4e1b-0910-4a59-addf-87b009f879c1","system_id":"levelo_inurba_marseille","lat":43.2843,"lon":5.35,"is_reserved":false,"is_disabled":false,"rental_uris":{"android":"levelo://app?vid=6c5b4e1b-0910-4a59-addf-87b009f879c1","ios":"levelo://app?vid=6c5b4e1b-0910-4a59-addf-87b009f879c1"},"vehicle_type_id":"4","last_reported":1687093667,"current_range_meters":5200,"station_id":"ce4bhbh2rcd13ifvqepg","pricing_plan_id":"free"},{"bike_id":"ae280e74-f758-40b4-824d-6dca93447e32","system_id":"levelo_inurba_marseille","lat":43.28428,"lon":5.34994,"is_reserved":false,"is_disabled":false,"rental_uris":{"android":"levelo://app?vid=ae280e74-f758-40b4-824d-6dca93447e32","ios":"levelo://app?vid=ae280e74-f758-40b4-824d-6dca93447e32"},"vehicle_type_id":"4","last_reported":1687093667,"current_range_meters":4000,"station_id":"ce4bhbh2rcd13ifvqepg","pricing_plan_id":"free"},{"bike_id":"c3a62e98-7da5-4621-a4a9-b5b43ef1b7e3","system_id":"levelo_inurba_marseille","lat":43.28426,"lon":5.3499,"is_reserved":false,"is_disabled":false,"rental_uris":{"android":"levelo://app?vid=c3a62e98-7da5-4621-a4a9-b5b43ef1b7e3","ios":"levelo://app?vid=c3a62e98-7da5-4621-a4a9-b5b43ef1b7e3"},"vehicle_type_id":"4","last_reported":1687093667,"current_range_meters":24000,"station_id":"ce4bhbh2rcd13ifvqepg","pricing_plan_id":"free"},{"bike_id":"a2faeb74-c96c-4a11-b169-e5acc36ad081","system_id":"levelo_inurba_marseille","lat":43.28426,"lon":5.34986,"is_reserved":false,"is_disabled":false,"rental_uris":{"android":"levelo://app?vid=a2faeb74-c96c-4a11-b169-e5acc36ad081","ios":"levelo://app?vid=a2faeb74-c96c-4a11-b169-e5acc36ad081"},"vehicle_type_id":"4","last_reported":1687093667,"current_range_meters":28000,"station_id":"ce4bhbh2rcd13ifvqepg","pricing_plan_id":"free"},{"bike_id":"1a55a783-27b2-4926-906d-f42f27707d72","system_id":"levelo_inurba_marseille","lat":43.28424,"lon":5.34992,"is_reserved":false,"is_disabled":false,"rental_uris":{"android":"levelo://app?vid=1a55a783-27b2-4926-906d-f42f27707d72","ios":"levelo://app?vid=1a55a783-27b2-4926-906d-f42f27707d72"},"vehicle_type_id":"4","last_reported":1687093667,"current_range_meters":11600,"station_id":"ce4bhbh2rcd13ifvqepg","pricing_plan_id":"free"},{"bike_id":"635ae931-9a3f-4d23-b04c-b8b1393e54b5","system_id":"levelo_inurba_marseille","lat":43.28424,"lon":5.34992,"is_reserved":false,"is_disabled":false,"rental_uris":{"android":"levelo://app?vid=635ae931-9a3f-4d23-b04c-b8b1393e54b5","ios":"levelo://app?vid=635ae931-9a3f-4d23-b04c-b8b1393e54b5"},"vehicle_type_id":"4","last_reported":1687093667,"current_range_meters":18400,"station_id":"ce4bhbh2rcd13ifvqepg","pricing_plan_id":"free"},{"bike_id":"292db270-d322-41f1-8752-c3c358872b40","system_id":"levelo_inurba_marseille","lat":43.28424,"lon":5.34987,"is_reserved":false,"is_disabled":false,"rental_uris":{"android":"levelo://app?vid=292db270-d322-41f1-8752-c3c358872b40","ios":"levelo://app?vid=292db270-d322-41f1-8752-c3c358872b40"},"vehicle_type_id":"4","last_reported":1687093667,"current_range_meters":10000,"station_id":"ce4bhbh2rcd13ifvqepg","pricing_plan_id":"free"},{"bike_id":"cd2caf10-38cd-4f71-b4e5-a7165d8ef10c","system_id":"levelo_inurba_marseille","lat":43.28423,"lon":5.3499,"is_reserved":false,"is_disabled":false,"rental_uris":{"android":"levelo://app?vid=cd2caf10-38cd-4f71-b4e5-a7165d8ef10c","ios":"levelo://app?vid=cd2caf10-38cd-4f71-b4e5-a7165d8ef10c"},"vehicle_type_id":"4","last_reported":1687093667,"current_range_meters":8400,"station_id":"ce4bhbh2rcd13ifvqepg","pricing_plan_id":"free"},{"bike_id":"8c092103-b929-4007-a0ec-9988db866eb2","system_id":"levelo_inurba_marseille","lat":43.28423,"lon":5.34988,"is_reserved":false,"is_disabled":false,"rental_uris":{"android":"levelo://app?vid=8c092103-b929-4007-a0ec-9988db866eb2","ios":"levelo://app?vid=8c092103-b929-4007-a0ec-9988db866eb2"},"vehicle_type_id":"4","last_reported":1687093667,"current_range_meters":25600,"station_id":"ce4bhbh2rcd13ifvqepg","pricing_plan_id":"free"},{"bike_id":"8ae84b9d-7089-4489-b59c-9d6c7550da2f","system_id":"levelo_inurba_marseille","lat":43.28423,"lon":5.34988,"is_reserved":false,"is_disabled":false,"rental_uris":{"android":"levelo://app?vid=8ae84b9d-7089-4489-b59c-9d6c7550da2f","ios":"levelo://app?vid=8ae84b9d-7089-4489-b59c-9d6c7550da2f"},"vehicle_type_id":"4","last_reported":1687093667,"current_range_meters":10000,"station_id":"ce4bhbh2rcd13ifvqepg","pricing_plan_id":"free"},{"bike_id":"993d371b-6c26-4745-906a-24b67da885b9","system_id":"levelo_inurba_marseille","lat":43.28422,"lon":5.34988,"is_reserved":false,"is_disabled":false,"rental_uris":{"android":"levelo://app?vid=993d371b-6c26-4745-906a-24b67da885b9","ios":"levelo://app?vid=993d371b-6c26-4745-906a-24b67da885b9"},"vehicle_type_id":"4","last_reported":1687093667,"current_range_meters":400,"station_id":"ce4bhbh2rcd13ifvqepg","pricing_plan_id":"free"},{"bike_id":"a7d33374-b144-41aa-a2a2-e2f6c4a37c6e","system_id":"levelo_inurba_marseille","lat":43.28422,"lon":5.34987,"is_reserved":false,"is_disabled":false,"rental_uris":{"android":"levelo://app?vid=a7d33374-b144-41aa-a2a2-e2f6c4a37c6e","ios":"levelo://app?vid=a7d33374-b144-41aa-a2a2-e2f6c4a37c6e"},"vehicle_type_id":"4","last_reported":1687093667,"current_range_meters":6800,"station_id":"ce4bhbh2rcd13ifvqepg","pricing_plan_id":"free"},{"bike_id":"ec5ff4d5-533d-41b0-b26d-ba38e72588a0","system_id":"levelo_inurba_marseille","lat":43.28421,"lon":5.34988,"is_reserved":false,"is_disabled":false,"rental_uris":{"android":"levelo://app?vid=ec5ff4d5-533d-41b0-b26d-ba38e72588a0","ios":"levelo://app?vid=ec5ff4d5-533d-41b0-b26d-ba38e72588a0"},"vehicle_type_id":"4","last_reported":1687093667,"current_range_meters":25600,"station_id":"ce4bhbh2rcd13ifvqepg","pricing_plan_id":"free"},{"bike_id":"82a21864-6176-49ca-946f-b8fa7aead590","system_id":"levelo_inurba_marseille","lat":43.28423,"lon":5.34981,"is_reserved":false,"is_disabled":false,"rental_uris":{"android":"levelo://app?vid=82a21864-6176-49ca-946f-b8fa7aead590","ios":"levelo://app?vid=82a21864-6176-49ca-946f-b8fa7aead590"},"vehicle_type_id":"4","last_reported":1687093667,"current_range_meters":13200,"station_id":"ce4bhbh2rcd13ifvqepg","pricing_plan_id":"free"},{"bike_id":"dade2c92-10e7-4f6c-8bba-b0f7edb7845d","system_id":"levelo_inurba_marseille","lat":43.28424,"lon":5.34977,"is_reserved":false,"is_disabled":false,"rental_uris":{"android":"levelo://app?vid=dade2c92-10e7-4f6c-8bba-b0f7edb7845d","ios":"levelo://app?vid=dade2c92-10e7-4f6c-8bba-b0f7edb7845d"},"vehicle_type_id":"4","last_reported":1687093667,"current_range_meters":15200,"station_id":"ce4bhbh2rcd13ifvqepg","pricing_plan_id":"free"},{"bike_id":"14a8657f-3935-4419-9435-21da568c9506","system_id":"levelo_inurba_marseille","lat":43.28423,"lon":5.34978,"is_reserved":false,"is_disabled":false,"rental_uris":{"android":"levelo://app?vid=14a8657f-3935-4419-9435-21da568c9506","ios":"levelo://app?vid=14a8657f-3935-4419-9435-21da568c9506"},"vehicle_type_id":"4","last_reported":1687093667,"current_range_meters":21600,"station_id":"ce4bhbh2rcd13ifvqepg","pricing_plan_id":"free"},{"bike_id":"cfbe5c99-3ef1-467f-a9f4-775e0efe1777","system_id":"levelo_inurba_marseille","lat":43.2842,"lon":5.34982,"is_reserved":false,"is_disabled":false,"rental_uris":{"android":"levelo://app?vid=cfbe5c99-3ef1-467f-a9f4-775e0efe1777","ios":"levelo://app?vid=cfbe5c99-3ef1-467f-a9f4-775e0efe1777"},"vehicle_type_id":"4","last_reported":1687093667,"current_range_meters":25600,"station_id":"ce4bhbh2rcd13ifvqepg","pricing_plan_id":"free"},{"bike_id":"67c102d5-445b-413e-8f04-0d8b1d6a1ba7","system_id":"levelo_inurba_marseille","lat":43.2842,"lon":5.34982,"is_reserved":false,"is_disabled":false,"rental_uris":{"android":"levelo://app?vid=67c102d5-445b-413e-8f04-0d8b1d6a1ba7","ios":"levelo://app?vid=67c102d5-445b-413e-8f04-0d8b1d6a1ba7"},"vehicle_type_id":"4","last_reported":1687093667,"current_range_meters":29600,"station_id":"ce4bhbh2rcd13ifvqepg","pricing_plan_id":"free"},{"bike_id":"eeac6fa4-7dd3-4b57-8aaf-a8de951b43fa","system_id":"levelo_inurba_marseille","lat":43.28422,"lon":5.34974,"is_reserved":false,"is_disabled":false,"rental_uris":{"android":"levelo://app?vid=eeac6fa4-7dd3-4b57-8aaf-a8de951b43fa","ios":"levelo://app?vid=eeac6fa4-7dd3-4b57-8aaf-a8de951b43fa"},"vehicle_type_id":"4","last_reported":1687093667,"current_range_meters":16400,"station_id":"ce4bhbh2rcd13ifvqepg","pricing_plan_id":"free"},{"bike_id":"f67c73a5-f935-45cf-af94-14603ae3ecae","system_id":"levelo_inurba_marseille","lat":43.28421,"lon":5.34977,"is_reserved":false,"is_disabled":false,"rental_uris":{"android":"levelo://app?vid=f67c73a5-f935-45cf-af94-14603ae3ecae","ios":"levelo://app?vid=f67c73a5-f935-45cf-af94-14603ae3ecae"},"vehicle_type_id":"4","last_reported":1687093667,"current_range_meters":24400,"station_id":"ce4bhbh2rcd13ifvqepg","pricing_plan_id":"free"},{"bike_id":"c1bb70da-fc31-4c38-bf00-c2baa8175000","system_id":"levelo_inurba_marseille","lat":43.28421,"lon":5.34974,"is_reserved":false,"is_disabled":false,"rental_uris":{"android":"levelo://app?vid=c1bb70da-fc31-4c38-bf00-c2baa8175000","ios":"levelo://app?vid=c1bb70da-fc31-4c38-bf00-c2baa8175000"},"vehicle_type_id":"4","last_reported":1687093667,"current_range_meters":24000,"station_id":"ce4bhbh2rcd13ifvqepg","pricing_plan_id":"free"},{"bike_id":"aba29aaf-bbd0-4941-922b-176a349ae6a6","system_id":"levelo_inurba_marseille","lat":43.28415,"lon":5.34991,"is_reserved":false,"is_disabled":false,"rental_uris":{"android":"levelo://app?vid=aba29aaf-bbd0-4941-922b-176a349ae6a6","ios":"levelo://app?vid=aba29aaf-bbd0-4941-922b-176a349ae6a6"},"vehicle_type_id":"4","last_reported":1687093667,"current_range_meters":31200,"station_id":"ce4bhbh2rcd13ifvqepg","pricing_plan_id":"free"},{"bike_id":"7e6faf1e-8ec7-48f0-b74d-ea4eae0ec56d","system_id":"levelo_inurba_marseille","lat":43.2842,"lon":5.34972,"is_reserved":false,"is_disabled":false,"rental_uris":{"android":"levelo://app?vid=7e6faf1e-8ec7-48f0-b74d-ea4eae0ec56d","ios":"levelo://app?vid=7e6faf1e-8ec7-48f0-b74d-ea4eae0ec56d"},"vehicle_type_id":"4","last_reported":1687093667,"current_range_meters":28800,"station_id":"ce4bhbh2rcd13ifvqepg","pricing_plan_id":"free"},{"bike_id":"b6309981-ffb2-480a-a0c6-98099542d55a","system_id":"levelo_inurba_marseille","lat":43.28415,"lon":5.34984,"is_reserved":false,"is_disabled":false,"rental_uris":{"android":"levelo://app?vid=b6309981-ffb2-480a-a0c6-98099542d55a","ios":"levelo://app?vid=b6309981-ffb2-480a-a0c6-98099542d55a"},"vehicle_type_id":"4","last_reported":1687093667,"current_range_meters":26000,"station_id":"ce4bhbh2rcd13ifvqepg","pricing_plan_id":"free"},{"bike_id":"c4a9d680-a76a-4217-a432-666e0020474a","system_id":"levelo_inurba_marseille","lat":43.28418,"lon":5.34973,"is_reserved":false,"is_disabled":false,"rental_uris":{"android":"levelo://app?vid=c4a9d680-a76a-4217-a432-666e0020474a","ios":"levelo://app?vid=c4a9d680-a76a-4217-a432-666e0020474a"},"vehicle_type_id":"4","last_reported":1687093667,"current_range_meters":15200,"station_id":"ce4bhbh2rcd13ifvqepg","pricing_plan_id":"free"},{"bike_id":"c736c3c1-d144-45f8-ad42-5cd5f9229f14","system_id":"levelo_inurba_marseille","lat":43.28412,"lon":5.34983,"is_reserved":false,"is_disabled":false,"rental_uris":{"android":"levelo://app?vid=c736c3c1-d144-45f8-ad42-5cd5f9229f14","ios":"levelo://app?vid=c736c3c1-d144-45f8-ad42-5cd5f9229f14"},"vehicle_type_id":"4","last_reported":1687093667,"current_range_meters":31200,"station_id":"ce4bhbh2rcd13ifvqepg","pricing_plan_id":"free"},{"bike_id":"c0ecaab7-d30d-4558-9e8e-d02877373217","system_id":"levelo_inurba_marseille","lat":43.28414,"lon":5.34976,"is_reserved":false,"is_disabled":false,"rental_uris":{"android":"levelo://app?vid=c0ecaab7-d30d-4558-9e8e-d02877373217","ios":"levelo://app?vid=c0ecaab7-d30d-4558-9e8e-d02877373217"},"vehicle_type_id":"4","last_reported":1687093667,"current_range_meters":5600,"station_id":"ce4bhbh2rcd13ifvqepg","pricing_plan_id":"free"},{"bike_id":"d693c1c7-2ae9-4444-9d13-cdfe5137ebd3","system_id":"levelo_inurba_marseille","lat":43.284217,"lon":5.349697,"is_reserved":false,"is_disabled":false,"rental_uris":{"android":"levelo://app?vid=d693c1c7-2ae9-4444-9d13-cdfe5137ebd3","ios":"levelo://app?vid=d693c1c7-2ae9-4444-9d13-cdfe5137ebd3"},"vehicle_type_id":"4","last_reported":1687093667,"current_range_meters":23200,"station_id":"ce4bhbh2rcd13ifvqepg","pricing_plan_id":"free"},{"bike_id":"f1a3eb68-08de-4b64-927c-fb9d2a5598ca","system_id":"levelo_inurba_marseille","lat":43.28411,"lon":5.34975,"is_reserved":false,"is_disabled":false,"rental_uris":{"android":"levelo://app?vid=f1a3eb68-08de-4b64-927c-fb9d2a5598ca","ios":"levelo://app?vid=f1a3eb68-08de-4b64-927c-fb9d2a5598ca"},"vehicle_type_id":"4","last_reported":1687093667,"current_range_meters":10000,"station_id":"ce4bhbh2rcd13ifvqepg","pricing_plan_id":"free"},{"bike_id":"f7dc2e9b-e5b8-4fc8-9a1f-1db3b439aae8","system_id":"levelo_inurba_marseille","lat":43.292724,"lon":5.401131,"is_reserved":false,"is_disabled":false,"rental_uris":{"android":"levelo://app?vid=f7dc2e9b-e5b8-4fc8-9a1f-1db3b439aae8","ios":"levelo://app?vid=f7dc2e9b-e5b8-4fc8-9a1f-1db3b439aae8"},"vehicle_type_id":"4","last_reported":1687093667,"current_range_meters":20000,"station_id":"ce4bh312rcd13ifvqdk0","pricing_plan_id":"free"},{"bike_id":"2e0755a2-c928-4a0b-b946-64235d680372","system_id":"levelo_inurba_marseille","lat":43.282754,"lon":5.350519,"is_reserved":false,"is_disabled":false,"rental_uris":{"android":"levelo://app?vid=2e0755a2-c928-4a0b-b946-64235d680372","ios":"levelo://app?vid=2e0755a2-c928-4a0b-b946-64235d680372"},"vehicle_type_id":"4","last_reported":1687093667,"current_range_meters":28000,"station_id":"ce4bhbp2rcd13ifvqerg","pricing_plan_id":"free"},{"bike_id":"31e70b9b-48a2-45b6-86a5-99497fbb831d","system_id":"levelo_inurba_marseille","lat":43.283502,"lon":5.386471,"is_reserved":false,"is_disabled":false,"rental_uris":{"android":"levelo://app?vid=31e70b9b-48a2-45b6-86a5-99497fbb831d","ios":"levelo://app?vid=31e70b9b-48a2-45b6-86a5-99497fbb831d"},"vehicle_type_id":"4","last_reported":1687093667,"current_range_meters":16400,"station_id":"ce4bh492rcd13ifvqdvg","pricing_plan_id":"free"},{"bike_id":"db40b91a-1d9e-4897-801c-87b15b095a62","system_id":"levelo_inurba_marseille","lat":43.28273,"lon":5.35061,"is_reserved":false,"is_disabled":false,"rental_uris":{"android":"levelo://app?vid=db40b91a-1d9e-4897-801c-87b15b095a62","ios":"levelo://app?vid=db40b91a-1d9e-4897-801c-87b15b095a62"},"vehicle_type_id":"4","last_reported":1687093667,"current_range_meters":2800,"station_id":"ce4bhbp2rcd13ifvqerg","pricing_plan_id":"free"},{"bike_id":"9a5d6119-45b7-478d-b951-31d9b00cba7a","system_id":"levelo_inurba_marseille","lat":43.282754,"lon":5.350519,"is_reserved":false,"is_disabled":false,"rental_uris":{"android":"levelo://app?vid=9a5d6119-45b7-478d-b951-31d9b00cba7a","ios":"levelo://app?vid=9a5d6119-45b7-478d-b951-31d9b00cba7a"},"vehicle_type_id":"4","last_reported":1687093667,"current_range_meters":21200,"station_id":"ce4bhbp2rcd13ifvqerg","pricing_plan_id":"free"},{"bike_id":"b32321d1-a987-44d2-90ad-26a237dcc2ee","system_id":"levelo_inurba_marseille","lat":43.282754,"lon":5.350519,"is_reserved":false,"is_disabled":false,"rental_uris":{"android":"levelo://app?vid=b32321d1-a987-44d2-90ad-26a237dcc2ee","ios":"levelo://app?vid=b32321d1-a987-44d2-90ad-26a237dcc2ee"},"vehicle_type_id":"4","last_reported":1687093667,"current_range_meters":28400,"station_id":"ce4bhbp2rcd13ifvqerg","pricing_plan_id":"free"},{"bike_id":"86c0737c-259e-4a44-88b2-4bc8a92ca8ce","system_id":"levelo_inurba_marseille","lat":43.282754,"lon":5.350519,"is_reserved":false,"is_disabled":false,"rental_uris":{"android":"levelo://app?vid=86c0737c-259e-4a44-88b2-4bc8a92ca8ce","ios":"levelo://app?vid=86c0737c-259e-4a44-88b2-4bc8a92ca8ce"},"vehicle_type_id":"4","last_reported":1687093667,"current_range_meters":28400,"station_id":"ce4bhbp2rcd13ifvqerg","pricing_plan_id":"free"},{"bike_id":"0748849c-9e9e-4411-a6f5-fccc6d3dd540","system_id":"levelo_inurba_marseille","lat":43.282744,"lon":5.350533,"is_reserved":false,"is_disabled":false,"rental_uris":{"android":"levelo://app?vid=0748849c-9e9e-4411-a6f5-fccc6d3dd540","ios":"levelo://app?vid=0748849c-9e9e-4411-a6f5-fccc6d3dd540"},"vehicle_type_id":"4","last_reported":1687093667,"current_range_meters":9600,"station_id":"ce4bhbp2rcd13ifvqerg","pricing_plan_id":"free"},{"bike_id":"85f9cfde-e033-4454-906a-2dc1c3e8f79d","system_id":"levelo_inurba_marseille","lat":43.282744,"lon":5.350533,"is_reserved":false,"is_disabled":false,"rental_uris":{"android":"levelo://app?vid=85f9cfde-e033-4454-906a-2dc1c3e8f79d","ios":"levelo://app?vid=85f9cfde-e033-4454-906a-2dc1c3e8f79d"},"vehicle_type_id":"4","last_reported":1687093667,"current_range_meters":0,"station_id":"ce4bhbp2rcd13ifvqerg","pricing_plan_id":"free"},{"bike_id":"04e32970-80fa-462e-95f8-703b986402ac","system_id":"levelo_inurba_marseille","lat":43.282754,"lon":5.350519,"is_reserved":false,"is_disabled":false,"rental_uris":{"android":"levelo://app?vid=04e32970-80fa-462e-95f8-703b986402ac","ios":"levelo://app?vid=04e32970-80fa-462e-95f8-703b986402ac"},"vehicle_type_id":"4","last_reported":1687093667,"current_range_meters":21200,"station_id":"ce4bhbp2rcd13ifvqerg","pricing_plan_id":"free"},{"bike_id":"84cba743-cc6f-411c-88e2-9414745aca7c","system_id":"levelo_inurba_marseille","lat":43.282744,"lon":5.350533,"is_reserved":false,"is_disabled":false,"rental_uris":{"android":"levelo://app?vid=84cba743-cc6f-411c-88e2-9414745aca7c","ios":"levelo://app?vid=84cba743-cc6f-411c-88e2-9414745aca7c"},"vehicle_type_id":"4","last_reported":1687093667,"current_range_meters":2000,"station_id":"ce4bhbp2rcd13ifvqerg","pricing_plan_id":"free"},{"bike_id":"1fa49750-210e-4159-a0b1-505efe994f29","system_id":"levelo_inurba_marseille","lat":43.282754,"lon":5.350519,"is_reserved":false,"is_disabled":false,"rental_uris":{"android":"levelo://app?vid=1fa49750-210e-4159-a0b1-505efe994f29","ios":"levelo://app?vid=1fa49750-210e-4159-a0b1-505efe994f29"},"vehicle_type_id":"4","last_reported":1687093667,"current_range_meters":23600,"station_id":"ce4bhbp2rcd13ifvqerg","pricing_plan_id":"free"},{"bike_id":"a30eeb3d-9830-4097-a3ac-69e307fede43","system_id":"levelo_inurba_marseille","lat":43.282744,"lon":5.350533,"is_reserved":false,"is_disabled":false,"rental_uris":{"android":"levelo://app?vid=a30eeb3d-9830-4097-a3ac-69e307fede43","ios":"levelo://app?vid=a30eeb3d-9830-4097-a3ac-69e307fede43"},"vehicle_type_id":"4","last_reported":1687093667,"current_range_meters":22000,"station_id":"ce4bhbp2rcd13ifvqerg","pricing_plan_id":"free"},{"bike_id":"dbe82689-de18-4be7-92ca-ffe6c583b1fa","system_id":"levelo_inurba_marseille","lat":43.284462,"lon":5.392121,"is_reserved":false,"is_disabled":false,"rental_uris":{"android":"levelo://app?vid=dbe82689-de18-4be7-92ca-ffe6c583b1fa","ios":"levelo://app?vid=dbe82689-de18-4be7-92ca-ffe6c583b1fa"},"vehicle_type_id":"4","last_reported":1687093667,"current_range_meters":25200,"station_id":"ce4bhoh2rcd13ifvqh5g","pricing_plan_id":"free"},{"bike_id":"672ca5d9-8b55-4ab1-836e-86961f106880","system_id":"levelo_inurba_marseille","lat":43.32652,"lon":5.4098,"is_reserved":false,"is_disabled":false,"rental_uris":{"android":"levelo://app?vid=672ca5d9-8b55-4ab1-836e-86961f106880","ios":"levelo://app?vid=672ca5d9-8b55-4ab1-836e-86961f106880"},"vehicle_type_id":"4","last_reported":1687093667,"current_range_meters":30000,"station_id":"ce4bhpp2rcd13ifvqhgg","pricing_plan_id":"free"},{"bike_id":"6868f38c-a653-49bb-a520-908ebc1c81f6","system_id":"levelo_inurba_marseille","lat":43.326605,"lon":5.409903,"is_reserved":false,"is_disabled":false,"rental_uris":{"android":"levelo://app?vid=6868f38c-a653-49bb-a520-908ebc1c81f6","ios":"levelo://app?vid=6868f38c-a653-49bb-a520-908ebc1c81f6"},"vehicle_type_id":"4","last_reported":1687093667,"current_range_meters":30800,"station_id":"ce4bhpp2rcd13ifvqhgg","pricing_plan_id":"free"},{"bike_id":"9766cb4a-9fcc-4d8d-9a29-1ae01d5a26ea","system_id":"levelo_inurba_marseille","lat":43.326605,"lon":5.409903,"is_reserved":false,"is_disabled":false,"rental_uris":{"android":"levelo://app?vid=9766cb4a-9fcc-4d8d-9a29-1ae01d5a26ea","ios":"levelo://app?vid=9766cb4a-9fcc-4d8d-9a29-1ae01d5a26ea"},"vehicle_type_id":"4","last_reported":1687093667,"current_range_meters":31200,"station_id":"ce4bhpp2rcd13ifvqhgg","pricing_plan_id":"free"},{"bike_id":"a3da8216-1249-455b-b949-9e5893b42718","system_id":"levelo_inurba_marseille","lat":43.326605,"lon":5.409903,"is_reserved":false,"is_disabled":false,"rental_uris":{"android":"levelo://app?vid=a3da8216-1249-455b-b949-9e5893b42718","ios":"levelo://app?vid=a3da8216-1249-455b-b949-9e5893b42718"},"vehicle_type_id":"4","last_reported":1687093667,"current_range_meters":25600,"station_id":"ce4bhpp2rcd13ifvqhgg","pricing_plan_id":"free"},{"bike_id":"7ff2d762-82f2-4c1f-90e3-1655b6b6a556","system_id":"levelo_inurba_marseille","lat":43.304188,"lon":5.412904,"is_reserved":false,"is_disabled":false,"rental_uris":{"android":"levelo://app?vid=7ff2d762-82f2-4c1f-90e3-1655b6b6a556","ios":"levelo://app?vid=7ff2d762-82f2-4c1f-90e3-1655b6b6a556"},"vehicle_type_id":"4","last_reported":1687093667,"current_range_meters":5200,"station_id":"ce4bhop2rcd13ifvqh8g","pricing_plan_id":"free"},{"bike_id":"fbdd0ff4-77ba-4748-927b-03c14fbef21a","system_id":"levelo_inurba_marseille","lat":43.304188,"lon":5.412904,"is_reserved":false,"is_disabled":false,"rental_uris":{"android":"levelo://app?vid=fbdd0ff4-77ba-4748-927b-03c14fbef21a","ios":"levelo://app?vid=fbdd0ff4-77ba-4748-927b-03c14fbef21a"},"vehicle_type_id":"4","last_reported":1687093667,"current_range_meters":31200,"station_id":"ce4bhop2rcd13ifvqh8g","pricing_plan_id":"free"},{"bike_id":"50c39738-ca7b-4a3b-8a00-a54751eab530","system_id":"levelo_inurba_marseille","lat":43.27897,"lon":5.37999,"is_reserved":false,"is_disabled":false,"rental_uris":{"android":"levelo://app?vid=50c39738-ca7b-4a3b-8a00-a54751eab530","ios":"levelo://app?vid=50c39738-ca7b-4a3b-8a00-a54751eab530"},"vehicle_type_id":"4","last_reported":1687093667,"current_range_meters":12800,"station_id":"","pricing_plan_id":"free"},{"bike_id":"34b57171-85d3-4e48-943a-a35e23d42cf9","system_id":"levelo_inurba_marseille","lat":43.32044,"lon":5.41531,"is_reserved":false,"is_disabled":false,"rental_uris":{"android":"levelo://app?vid=34b57171-85d3-4e48-943a-a35e23d42cf9","ios":"levelo://app?vid=34b57171-85d3-4e48-943a-a35e23d42cf9"},"vehicle_type_id":"4","last_reported":1687093667,"current_range_meters":27600,"station_id":"ce4bhq92rcd13ifvqhkg","pricing_plan_id":"free"},{"bike_id":"493bc7f7-8247-4d14-81cf-12c6de799e07","system_id":"levelo_inurba_marseille","lat":43.320045,"lon":5.415046,"is_reserved":false,"is_disabled":false,"rental_uris":{"android":"levelo://app?vid=493bc7f7-8247-4d14-81cf-12c6de799e07","ios":"levelo://app?vid=493bc7f7-8247-4d14-81cf-12c6de799e07"},"vehicle_type_id":"4","last_reported":1687093667,"current_range_meters":31200,"station_id":"ce4bhq92rcd13ifvqhkg","pricing_plan_id":"free"},{"bike_id":"a7c84892-8caa-4f38-8134-b58781939927","system_id":"levelo_inurba_marseille","lat":43.320045,"lon":5.415046,"is_reserved":false,"is_disabled":false,"rental_uris":{"android":"levelo://app?vid=a7c84892-8caa-4f38-8134-b58781939927","ios":"levelo://app?vid=a7c84892-8caa-4f38-8134-b58781939927"},"vehicle_type_id":"4","last_reported":1687093667,"current_range_meters":31200,"station_id":"ce4bhq92rcd13ifvqhkg","pricing_plan_id":"free"},{"bike_id":"70b89e08-0cf2-4364-bde6-cad337de2cb7","system_id":"levelo_inurba_marseille","lat":43.299577,"lon":5.413277,"is_reserved":false,"is_disabled":false,"rental_uris":{"android":"levelo://app?vid=70b89e08-0cf2-4364-bde6-cad337de2cb7","ios":"levelo://app?vid=70b89e08-0cf2-4364-bde6-cad337de2cb7"},"vehicle_type_id":"4","last_reported":1687093667,"current_range_meters":26000,"station_id":"ce4bhp12rcd13ifvqh9g","pricing_plan_id":"free"},{"bike_id":"256b166e-a421-4288-b1c6-6bc9f08c5caa","system_id":"levelo_inurba_marseille","lat":43.320045,"lon":5.415046,"is_reserved":false,"is_disabled":false,"rental_uris":{"android":"levelo://app?vid=256b166e-a421-4288-b1c6-6bc9f08c5caa","ios":"levelo://app?vid=256b166e-a421-4288-b1c6-6bc9f08c5caa"},"vehicle_type_id":"4","last_reported":1687093667,"current_range_meters":31200,"station_id":"ce4bhq92rcd13ifvqhkg","pricing_plan_id":"free"},{"bike_id":"57fd5849-2484-43f1-a90d-dea1e8442720","system_id":"levelo_inurba_marseille","lat":43.279742,"lon":5.38744,"is_reserved":false,"is_disabled":false,"rental_uris":{"android":"levelo://app?vid=57fd5849-2484-43f1-a90d-dea1e8442720","ios":"levelo://app?vid=57fd5849-2484-43f1-a90d-dea1e8442720"},"vehicle_type_id":"4","last_reported":1687093667,"current_range_meters":0,"station_id":"ce4bhg12rcd13ifvqf80","pricing_plan_id":"free"},{"bike_id":"77ea727b-47b3-49bd-a87f-4116164d15bb","system_id":"levelo_inurba_marseille","lat":43.279742,"lon":5.38744,"is_reserved":false,"is_disabled":false,"rental_uris":{"android":"levelo://app?vid=77ea727b-47b3-49bd-a87f-4116164d15bb","ios":"levelo://app?vid=77ea727b-47b3-49bd-a87f-4116164d15bb"},"vehicle_type_id":"4","last_reported":1687093667,"current_range_meters":18400,"station_id":"ce4bhg12rcd13ifvqf80","pricing_plan_id":"free"},{"bike_id":"6b3e7790-f12c-466d-8b80-faeb9577b249","system_id":"levelo_inurba_marseille","lat":43.279742,"lon":5.38744,"is_reserved":false,"is_disabled":false,"rental_uris":{"android":"levelo://app?vid=6b3e7790-f12c-466d-8b80-faeb9577b249","ios":"levelo://app?vid=6b3e7790-f12c-466d-8b80-faeb9577b249"},"vehicle_type_id":"4","last_reported":1687093667,"current_range_meters":5600,"station_id":"ce4bhg12rcd13ifvqf80","pricing_plan_id":"free"},{"bike_id":"b9340faf-573b-4c94-bdda-41ff6cea8c76","system_id":"levelo_inurba_marseille","lat":43.320045,"lon":5.415046,"is_reserved":false,"is_disabled":false,"rental_uris":{"android":"levelo://app?vid=b9340faf-573b-4c94-bdda-41ff6cea8c76","ios":"levelo://app?vid=b9340faf-573b-4c94-bdda-41ff6cea8c76"},"vehicle_type_id":"4","last_reported":1687093667,"current_range_meters":30400,"station_id":"ce4bhq92rcd13ifvqhkg","pricing_plan_id":"free"},{"bike_id":"95da1e40-e3de-4a67-836b-37fe8b803887","system_id":"levelo_inurba_marseille","lat":43.32536,"lon":5.41426,"is_reserved":false,"is_disabled":false,"rental_uris":{"android":"levelo://app?vid=95da1e40-e3de-4a67-836b-37fe8b803887","ios":"levelo://app?vid=95da1e40-e3de-4a67-836b-37fe8b803887"},"vehicle_type_id":"4","last_reported":1687093667,"current_range_meters":11600,"station_id":"ce4bhq12rcd13ifvqhhg","pricing_plan_id":"free"},{"bike_id":"5ec956d3-766b-4f38-9b7f-6187849f30f2","system_id":"levelo_inurba_marseille","lat":43.325233,"lon":5.414318,"is_reserved":false,"is_disabled":false,"rental_uris":{"android":"levelo://app?vid=5ec956d3-766b-4f38-9b7f-6187849f30f2","ios":"levelo://app?vid=5ec956d3-766b-4f38-9b7f-6187849f30f2"},"vehicle_type_id":"4","last_reported":1687093667,"current_range_meters":30800,"station_id":"ce4bhq12rcd13ifvqhhg","pricing_plan_id":"free"},{"bike_id":"7e502e4d-7043-49fb-9a97-dea01c21b68b","system_id":"levelo_inurba_marseille","lat":43.325233,"lon":5.414318,"is_reserved":false,"is_disabled":false,"rental_uris":{"android":"levelo://app?vid=7e502e4d-7043-49fb-9a97-dea01c21b68b","ios":"levelo://app?vid=7e502e4d-7043-49fb-9a97-dea01c21b68b"},"vehicle_type_id":"4","last_reported":1687093667,"current_range_meters":25200,"station_id":"ce4bhq12rcd13ifvqhhg","pricing_plan_id":"free"},{"bike_id":"d37cee95-a29b-41cd-a7d9-c1521a3d058a","system_id":"levelo_inurba_marseille","lat":43.32543,"lon":5.41438,"is_reserved":false,"is_disabled":false,"rental_uris":{"android":"levelo://app?vid=d37cee95-a29b-41cd-a7d9-c1521a3d058a","ios":"levelo://app?vid=d37cee95-a29b-41cd-a7d9-c1521a3d058a"},"vehicle_type_id":"4","last_reported":1687093667,"current_range_meters":31200,"station_id":"ce4bhq12rcd13ifvqhhg","pricing_plan_id":"free"},{"bike_id":"e00edbd5-2d65-4323-9a9f-2bc059c86552","system_id":"levelo_inurba_marseille","lat":43.27618,"lon":5.361009,"is_reserved":false,"is_disabled":false,"rental_uris":{"android":"levelo://app?vid=e00edbd5-2d65-4323-9a9f-2bc059c86552","ios":"levelo://app?vid=e00edbd5-2d65-4323-9a9f-2bc059c86552"},"vehicle_type_id":"4","last_reported":1687093667,"current_range_meters":25200,"station_id":"ce4bgj92rcd13ifvqbe0","pricing_plan_id":"free"},{"bike_id":"1c254128-9e8c-425d-afe5-8bb38d5fb28d","system_id":"levelo_inurba_marseille","lat":43.32541,"lon":5.41446,"is_reserved":false,"is_disabled":false,"rental_uris":{"android":"levelo://app?vid=1c254128-9e8c-425d-afe5-8bb38d5fb28d","ios":"levelo://app?vid=1c254128-9e8c-425d-afe5-8bb38d5fb28d"},"vehicle_type_id":"4","last_reported":1687093667,"current_range_meters":28400,"station_id":"ce4bhq12rcd13ifvqhhg","pricing_plan_id":"free"},{"bike_id":"f1823d82-43dc-4984-9359-7a508e9d8409","system_id":"levelo_inurba_marseille","lat":43.325233,"lon":5.414318,"is_reserved":false,"is_disabled":false,"rental_uris":{"android":"levelo://app?vid=f1823d82-43dc-4984-9359-7a508e9d8409","ios":"levelo://app?vid=f1823d82-43dc-4984-9359-7a508e9d8409"},"vehicle_type_id":"4","last_reported":1687093667,"current_range_meters":31200,"station_id":"ce4bhq12rcd13ifvqhhg","pricing_plan_id":"free"},{"bike_id":"0ba53651-50ff-49f4-a409-fc8bb2625444","system_id":"levelo_inurba_marseille","lat":43.27603,"lon":5.36095,"is_reserved":false,"is_disabled":false,"rental_uris":{"android":"levelo://app?vid=0ba53651-50ff-49f4-a409-fc8bb2625444","ios":"levelo://app?vid=0ba53651-50ff-49f4-a409-fc8bb2625444"},"vehicle_type_id":"4","last_reported":1687093667,"current_range_meters":24400,"station_id":"ce4bgj92rcd13ifvqbe0","pricing_plan_id":"free"},{"bike_id":"b4b42723-8fdf-4d0c-b696-b3794cbfbaea","system_id":"levelo_inurba_marseille","lat":43.30334,"lon":5.4187,"is_reserved":false,"is_disabled":false,"rental_uris":{"android":"levelo://app?vid=b4b42723-8fdf-4d0c-b696-b3794cbfbaea","ios":"levelo://app?vid=b4b42723-8fdf-4d0c-b696-b3794cbfbaea"},"vehicle_type_id":"4","last_reported":1687093667,"current_range_meters":22800,"station_id":"","pricing_plan_id":"free"},{"bike_id":"fe69ce81-b355-47d4-b93b-32793862d8f1","system_id":"levelo_inurba_marseille","lat":43.278401,"lon":5.392152,"is_reserved":false,"is_disabled":false,"rental_uris":{"android":"levelo://app?vid=fe69ce81-b355-47d4-b93b-32793862d8f1","ios":"levelo://app?vid=fe69ce81-b355-47d4-b93b-32793862d8f1"},"vehicle_type_id":"4","last_reported":1687093667,"current_range_meters":29200,"station_id":"ce4bhjp2rcd13ifvqga0","pricing_plan_id":"free"},{"bike_id":"6f01f42e-d2f2-4022-95ce-5f8edf16924f","system_id":"levelo_inurba_marseille","lat":43.278399,"lon":5.392139,"is_reserved":false,"is_disabled":false,"rental_uris":{"android":"levelo://app?vid=6f01f42e-d2f2-4022-95ce-5f8edf16924f","ios":"levelo://app?vid=6f01f42e-d2f2-4022-95ce-5f8edf16924f"},"vehicle_type_id":"4","last_reported":1687093667,"current_range_meters":1600,"station_id":"ce4bhjp2rcd13ifvqga0","pricing_plan_id":"free"},{"bike_id":"a668dab0-300b-4479-b1a1-73b79a6a4364","system_id":"levelo_inurba_marseille","lat":43.33612,"lon":5.410321,"is_reserved":false,"is_disabled":false,"rental_uris":{"android":"levelo://app?vid=a668dab0-300b-4479-b1a1-73b79a6a4364","ios":"levelo://app?vid=a668dab0-300b-4479-b1a1-73b79a6a4364"},"vehicle_type_id":"4","last_reported":1687093667,"current_range_meters":31200,"station_id":"ce4bhqh2rcd13ifvqhmg","pricing_plan_id":"free"},{"bike_id":"d75a9908-dc15-4793-bef2-a0789bc0979c","system_id":"levelo_inurba_marseille","lat":43.275625,"lon":5.384392,"is_reserved":false,"is_disabled":false,"rental_uris":{"android":"levelo://app?vid=d75a9908-dc15-4793-bef2-a0789bc0979c","ios":"levelo://app?vid=d75a9908-dc15-4793-bef2-a0789bc0979c"},"vehicle_type_id":"4","last_reported":1687093667,"current_range_meters":26400,"station_id":"ce4bhh92rcd13ifvqfi0","pricing_plan_id":"free"},{"bike_id":"6fdc4593-2819-440a-9fe1-fd0668526975","system_id":"levelo_inurba_marseille","lat":43.273613,"lon":5.362705,"is_reserved":false,"is_disabled":false,"rental_uris":{"android":"levelo://app?vid=6fdc4593-2819-440a-9fe1-fd0668526975","ios":"levelo://app?vid=6fdc4593-2819-440a-9fe1-fd0668526975"},"vehicle_type_id":"4","last_reported":1687093667,"current_range_meters":19200,"station_id":"ce4bhbh2rcd13ifvqeo0","pricing_plan_id":"free"},{"bike_id":"c5baf12b-f541-41fc-8746-c8047b9e9ea6","system_id":"levelo_inurba_marseille","lat":43.273613,"lon":5.362705,"is_reserved":false,"is_disabled":false,"rental_uris":{"android":"levelo://app?vid=c5baf12b-f541-41fc-8746-c8047b9e9ea6","ios":"levelo://app?vid=c5baf12b-f541-41fc-8746-c8047b9e9ea6"},"vehicle_type_id":"4","last_reported":1687093667,"current_range_meters":13600,"station_id":"ce4bhbh2rcd13ifvqeo0","pricing_plan_id":"free"},{"bike_id":"cb3870de-fd65-41d2-a675-65cbea85b9cf","system_id":"levelo_inurba_marseille","lat":43.273609,"lon":5.362708,"is_reserved":false,"is_disabled":false,"rental_uris":{"android":"levelo://app?vid=cb3870de-fd65-41d2-a675-65cbea85b9cf","ios":"levelo://app?vid=cb3870de-fd65-41d2-a675-65cbea85b9cf"},"vehicle_type_id":"4","last_reported":1687093667,"current_range_meters":22800,"station_id":"ce4bhbh2rcd13ifvqeo0","pricing_plan_id":"free"},{"bike_id":"749574ca-1854-4c8b-9f41-c1953e87399e","system_id":"levelo_inurba_marseille","lat":43.273609,"lon":5.362708,"is_reserved":false,"is_disabled":false,"rental_uris":{"android":"levelo://app?vid=749574ca-1854-4c8b-9f41-c1953e87399e","ios":"levelo://app?vid=749574ca-1854-4c8b-9f41-c1953e87399e"},"vehicle_type_id":"4","last_reported":1687093667,"current_range_meters":18000,"station_id":"ce4bhbh2rcd13ifvqeo0","pricing_plan_id":"free"},{"bike_id":"65d4e611-7d16-4b66-a755-938afa5136c2","system_id":"levelo_inurba_marseille","lat":43.273613,"lon":5.362705,"is_reserved":false,"is_disabled":false,"rental_uris":{"android":"levelo://app?vid=65d4e611-7d16-4b66-a755-938afa5136c2","ios":"levelo://app?vid=65d4e611-7d16-4b66-a755-938afa5136c2"},"vehicle_type_id":"4","last_reported":1687093667,"current_range_meters":13200,"station_id":"ce4bhbh2rcd13ifvqeo0","pricing_plan_id":"free"},{"bike_id":"ebd70f89-3ef5-4e8e-b601-09249ec90355","system_id":"levelo_inurba_marseille","lat":43.273609,"lon":5.362708,"is_reserved":false,"is_disabled":false,"rental_uris":{"android":"levelo://app?vid=ebd70f89-3ef5-4e8e-b601-09249ec90355","ios":"levelo://app?vid=ebd70f89-3ef5-4e8e-b601-09249ec90355"},"vehicle_type_id":"4","last_reported":1687093667,"current_range_meters":30800,"station_id":"ce4bhbh2rcd13ifvqeo0","pricing_plan_id":"free"},{"bike_id":"edef793a-8676-4cac-b9b3-51a038f8b0f1","system_id":"levelo_inurba_marseille","lat":43.273613,"lon":5.362705,"is_reserved":false,"is_disabled":false,"rental_uris":{"android":"levelo://app?vid=edef793a-8676-4cac-b9b3-51a038f8b0f1","ios":"levelo://app?vid=edef793a-8676-4cac-b9b3-51a038f8b0f1"},"vehicle_type_id":"4","last_reported":1687093667,"current_range_meters":19200,"station_id":"ce4bhbh2rcd13ifvqeo0","pricing_plan_id":"free"},{"bike_id":"251e31fe-6b48-4300-9c84-9df93eebf2c5","system_id":"levelo_inurba_marseille","lat":43.273609,"lon":5.362708,"is_reserved":false,"is_disabled":false,"rental_uris":{"android":"levelo://app?vid=251e31fe-6b48-4300-9c84-9df93eebf2c5","ios":"levelo://app?vid=251e31fe-6b48-4300-9c84-9df93eebf2c5"},"vehicle_type_id":"4","last_reported":1687093667,"current_range_meters":29200,"station_id":"ce4bhbh2rcd13ifvqeo0","pricing_plan_id":"free"},{"bike_id":"eec4fae8-c01a-447c-80c7-ed75ae0bdd82","system_id":"levelo_inurba_marseille","lat":43.273609,"lon":5.362708,"is_reserved":false,"is_disabled":false,"rental_uris":{"android":"levelo://app?vid=eec4fae8-c01a-447c-80c7-ed75ae0bdd82","ios":"levelo://app?vid=eec4fae8-c01a-447c-80c7-ed75ae0bdd82"},"vehicle_type_id":"4","last_reported":1687093667,"current_range_meters":29200,"station_id":"ce4bhbh2rcd13ifvqeo0","pricing_plan_id":"free"},{"bike_id":"6275aaca-a354-407f-be44-df40f2969d44","system_id":"levelo_inurba_marseille","lat":43.273613,"lon":5.362705,"is_reserved":false,"is_disabled":false,"rental_uris":{"android":"levelo://app?vid=6275aaca-a354-407f-be44-df40f2969d44","ios":"levelo://app?vid=6275aaca-a354-407f-be44-df40f2969d44"},"vehicle_type_id":"4","last_reported":1687093667,"current_range_meters":31200,"station_id":"ce4bhbh2rcd13ifvqeo0","pricing_plan_id":"free"},{"bike_id":"f35e0f95-9e78-47c5-8fc7-75059089de94","system_id":"levelo_inurba_marseille","lat":43.273613,"lon":5.362705,"is_reserved":false,"is_disabled":false,"rental_uris":{"android":"levelo://app?vid=f35e0f95-9e78-47c5-8fc7-75059089de94","ios":"levelo://app?vid=f35e0f95-9e78-47c5-8fc7-75059089de94"},"vehicle_type_id":"4","last_reported":1687093667,"current_range_meters":18400,"station_id":"ce4bhbh2rcd13ifvqeo0","pricing_plan_id":"free"},{"bike_id":"556fb3f4-627c-4057-a758-d79e8d9d1316","system_id":"levelo_inurba_marseille","lat":43.273609,"lon":5.362708,"is_reserved":false,"is_disabled":false,"rental_uris":{"android":"levelo://app?vid=556fb3f4-627c-4057-a758-d79e8d9d1316","ios":"levelo://app?vid=556fb3f4-627c-4057-a758-d79e8d9d1316"},"vehicle_type_id":"4","last_reported":1687093667,"current_range_meters":18000,"station_id":"ce4bhbh2rcd13ifvqeo0","pricing_plan_id":"free"},{"bike_id":"d3ad11ec-0dc7-4e73-8496-4204aa74e3e9","system_id":"levelo_inurba_marseille","lat":43.273609,"lon":5.362708,"is_reserved":false,"is_disabled":false,"rental_uris":{"android":"levelo://app?vid=d3ad11ec-0dc7-4e73-8496-4204aa74e3e9","ios":"levelo://app?vid=d3ad11ec-0dc7-4e73-8496-4204aa74e3e9"},"vehicle_type_id":"4","last_reported":1687093667,"current_range_meters":18800,"station_id":"ce4bhbh2rcd13ifvqeo0","pricing_plan_id":"free"},{"bike_id":"36757135-cc76-4716-ae29-2971ff26d1be","system_id":"levelo_inurba_marseille","lat":43.273613,"lon":5.362705,"is_reserved":false,"is_disabled":false,"rental_uris":{"android":"levelo://app?vid=36757135-cc76-4716-ae29-2971ff26d1be","ios":"levelo://app?vid=36757135-cc76-4716-ae29-2971ff26d1be"},"vehicle_type_id":"4","last_reported":1687093667,"current_range_meters":31600,"station_id":"ce4bhbh2rcd13ifvqeo0","pricing_plan_id":"free"},{"bike_id":"83571988-adcd-4861-8491-92d3dbeb0970","system_id":"levelo_inurba_marseille","lat":43.273609,"lon":5.362708,"is_reserved":false,"is_disabled":false,"rental_uris":{"android":"levelo://app?vid=83571988-adcd-4861-8491-92d3dbeb0970","ios":"levelo://app?vid=83571988-adcd-4861-8491-92d3dbeb0970"},"vehicle_type_id":"4","last_reported":1687093667,"current_range_meters":23200,"station_id":"ce4bhbh2rcd13ifvqeo0","pricing_plan_id":"free"},{"bike_id":"f409e937-97c9-4cc1-92c8-f23e490203be","system_id":"levelo_inurba_marseille","lat":43.336134,"lon":5.410341,"is_reserved":false,"is_disabled":false,"rental_uris":{"android":"levelo://app?vid=f409e937-97c9-4cc1-92c8-f23e490203be","ios":"levelo://app?vid=f409e937-97c9-4cc1-92c8-f23e490203be"},"vehicle_type_id":"4","last_reported":1687093667,"current_range_meters":30000,"station_id":"ce4bhqh2rcd13ifvqhmg","pricing_plan_id":"free"},{"bike_id":"f12892c1-d4f1-4521-8e67-bc8dbcc17b44","system_id":"levelo_inurba_marseille","lat":43.336134,"lon":5.410341,"is_reserved":false,"is_disabled":false,"rental_uris":{"android":"levelo://app?vid=f12892c1-d4f1-4521-8e67-bc8dbcc17b44","ios":"levelo://app?vid=f12892c1-d4f1-4521-8e67-bc8dbcc17b44"},"vehicle_type_id":"4","last_reported":1687093667,"current_range_meters":31200,"station_id":"ce4bhqh2rcd13ifvqhmg","pricing_plan_id":"free"},{"bike_id":"9889dd6d-a5f6-44f2-8765-970b02d8dcc1","system_id":"levelo_inurba_marseille","lat":43.33608,"lon":5.41033,"is_reserved":false,"is_disabled":false,"rental_uris":{"android":"levelo://app?vid=9889dd6d-a5f6-44f2-8765-970b02d8dcc1","ios":"levelo://app?vid=9889dd6d-a5f6-44f2-8765-970b02d8dcc1"},"vehicle_type_id":"4","last_reported":1687093667,"current_range_meters":31200,"station_id":"ce4bhqh2rcd13ifvqhmg","pricing_plan_id":"free"},{"bike_id":"0f0e4932-d833-48ab-bc48-5a321c593a6e","system_id":"levelo_inurba_marseille","lat":43.276771,"lon":5.388799,"is_reserved":false,"is_disabled":false,"rental_uris":{"android":"levelo://app?vid=0f0e4932-d833-48ab-bc48-5a321c593a6e","ios":"levelo://app?vid=0f0e4932-d833-48ab-bc48-5a321c593a6e"},"vehicle_type_id":"4","last_reported":1687093667,"current_range_meters":4800,"station_id":"ce4bhi12rcd13ifvqfo0","pricing_plan_id":"free"},{"bike_id":"045982fd-524a-4c9c-9800-a537c76c1cd8","system_id":"levelo_inurba_marseille","lat":43.276771,"lon":5.388799,"is_reserved":false,"is_disabled":false,"rental_uris":{"android":"levelo://app?vid=045982fd-524a-4c9c-9800-a537c76c1cd8","ios":"levelo://app?vid=045982fd-524a-4c9c-9800-a537c76c1cd8"},"vehicle_type_id":"4","last_reported":1687093667,"current_range_meters":27200,"station_id":"ce4bhi12rcd13ifvqfo0","pricing_plan_id":"free"},{"bike_id":"eec113f6-af82-4074-b82f-ee441f0cab19","system_id":"levelo_inurba_marseille","lat":43.317121,"lon":5.423936,"is_reserved":false,"is_disabled":false,"rental_uris":{"android":"levelo://app?vid=eec113f6-af82-4074-b82f-ee441f0cab19","ios":"levelo://app?vid=eec113f6-af82-4074-b82f-ee441f0cab19"},"vehicle_type_id":"4","last_reported":1687093667,"current_range_meters":20400,"station_id":"ce4bhp92rcd13ifvqhbg","pricing_plan_id":"free"},