{"last_updated":1702645784,"ttl":30,"version":"2.2","data":{"bikes":[{"bike_id":"11e88c8c-845b-4610-90d6-14f8e4a4bbc2","system_id":"levelo_inurba_marseille","lat":43.313391,"lon":5.36706,"is_reserved":false,"is_disabled":false,"rental_uris":{"android":"levelo://app?vid=11e88c8c-845b-4610-90d6-14f8e4a4bbc2","ios":"levelo://app?vid=11e88c8c-845b-4610-90d6-14f8e4a4bbc2"},"vehicle_type_id":"4","last_reported":1702645785,"current_range_meters":28400,"station_id":"ce4bgr92rcd13ifvqc6g","pricing_plan_id":"free"},{"bike_id":"c77789b9-4f3b-4e23-8aab-d21c099dc9f0","system_id":"levelo_inurba_marseille","lat":43.31341,"lon":5.367098,"is_reserved":false,"is_disabled":false,"rental_uris":{"android":"levelo://app?vid=c77789b9-4f3b-4e23-8aab-d21c099dc9f0","ios":"levelo://app?vid=c77789b9-4f3b-4e23-8aab-d21c099dc9f0"},"vehicle_type_id":"4","last_reported":1702645785,"current_range_meters":18400,"station_id":"ce4bgr92rcd13ifvqc6g","pricing_plan_id":"free"},{"bike_id":"4e4ce1ca-60c1-48b1-a6fe-29bac6729d91","system_id":"levelo_inurba_marseille","lat":43.313391,"lon":5.36706,"is_reserved":false,"is_disabled":false,"rental_uris":{"android":"levelo://app?vid=4e4ce1ca-60c1-48b1-a6fe-29bac6729d91","ios":"levelo://app?vid=4e4ce1ca-60c1-48b1-a6fe-29bac6729d91"},"vehicle_type_id":"4","last_reported":1702645785,"current_range_meters":9600,"station_id":"ce4bgr92rcd13ifvqc6g","pricing_plan_id":"free"},{"bike_id":"c3add2bb-6906-4891-95a5-d8fbb95eeb9a","system_id":"levelo_inurba_marseille","lat":43.312239,"lon":5.368562,"is_reserved":false,"is_disabled":false,"rental_uris":{"android":"levelo://app?vid=c3add2bb-6906-4891-95a5-d8fbb95eeb9a","ios":"levelo://app?vid=c3add2bb-6906-4891-95a5-d8fbb95eeb9a"},"vehicle_type_id":"4","last_reported":1702645785,"current_range_meters":22800,"station_id":"ce4bgl92rcd13ifvqbq0","pricing_plan_id":"free"},{"bike_id":"3f8b821f-e430-4a35-bf14-f8b6e777ea11","system_id":"levelo_inurba_marseille","lat":43.313939,"lon":5.375306,"is_reserved":false,"is_disabled":false,"rental_uris":{"android":"levelo://app?vid=3f8b821f-e430-4a35-bf14-f8b6e777ea11","ios":"levelo://app?vid=3f8b821f-e430-4a35-bf14-f8b6e777ea11"},"vehicle_type_id":"4","last_reported":1702645785,"current_range_meters":0,"station_id":"","pricing_plan_id":"free"},{"bike_id":"955e4ab2-16e5-44e8-a986-a2f50ff96c06","system_id":"levelo_inurba_marseille","lat":43.305382,"lon":5.365389,"is_reserved":false,"is_disabled":false,"rental_uris":{"android":"levelo://app?vid=955e4ab2-16e5-44e8-a986-a2f50ff96c06","ios":"levelo://app?vid=955e4ab2-16e5-44e8-a986-a2f50ff96c06"},"vehicle_type_id":"4","last_reported":1702645785,"current_range_meters":19200,"station_id":"","pricing_plan_id":"free"},{"bike_id":"aacfe432-6ac6-4f6e-9473-0a63d1707f5c","system_id":"levelo_inurba_marseille","lat":43.305706,"lon":5.365654,"is_reserved":false,"is_disabled":false,"rental_uris":{"android":"levelo://app?vid=aacfe432-6ac6-4f6e-9473-0a63d1707f5c","ios":"levelo://app?vid=aacfe432-6ac6-4f6e-9473-0a63d1707f5c"},"vehicle_type_id":"4","last_reported":1702645785,"current_range_meters":31200,"station_id":"ce4bgs12rcd13ifvqcag","pricing_plan_id":"free"},{"bike_id":"18a9f65f-e97c-40ee-bcc3-1b1c7dd5dd34","system_id":"levelo_inurba_marseille","lat":43.30536,"lon":5.36531,"is_reserved":false,"is_disabled":false,"rental_uris":{"android":"levelo://app?vid=18a9f65f-e97c-40ee-bcc3-1b1c7dd5dd34","ios":"levelo://app?vid=18a9f65f-e97c-40ee-bcc3-1b1c7dd5dd34"},"vehicle_type_id":"4","last_reported":1702645785,"current_range_meters":31200,"station_id":"ce4bgs12rcd13ifvqcag","pricing_plan_id":"free"},{"bike_id":"ea90133d-bf35-4e95-bb67-746ac9b8d0d3","system_id":"levelo_inurba_marseille","lat":43.305706,"lon":5.365654,"is_reserved":false,"is_disabled":false,"rental_uris":{"android":"levelo://app?vid=ea90133d-bf35-4e95-bb67-746ac9b8d0d3","ios":"levelo://app?vid=ea90133d-bf35-4e95-bb67-746ac9b8d0d3"},"vehicle_type_id":"4","last_reported":1702645785,"current_range_meters":30800,"station_id":"ce4bgs12rcd13ifvqcag","pricing_plan_id":"free"},{"bike_id":"95c5359e-f913-40bc-92c0-3ea7c91e9cf3","system_id":"levelo_inurba_marseille","lat":43.305706,"lon":5.365654,"is_reserved":false,"is_disabled":false,"rental_uris":{"android":"levelo://app?vid=95c5359e-f913-40bc-92c0-3ea7c91e9cf3","ios":"levelo://app?vid=95c5359e-f913-40bc-92c0-3ea7c91e9cf3"},"vehicle_type_id":"4","last_reported":1702645785,"current_range_meters":31200,"station_id":"ce4bgs12rcd13ifvqcag","pricing_plan_id":"free"},{"bike_id":"23a76755-2585-4c93-a187-d2ff6c53cfb4","system_id":"levelo_inurba_marseille","lat":43.305706,"lon":5.365654,"is_reserved":false,"is_disabled":false,"rental_uris":{"android":"levelo://app?vid=23a76755-2585-4c93-a187-d2ff6c53cfb4","ios":"levelo://app?vid=23a76755-2585-4c93-a187-d2ff6c53cfb4"},"vehicle_type_id":"4","last_reported":1702645785,"current_range_meters":31200,"station_id":"ce4bgs12rcd13ifvqcag","pricing_plan_id":"free"},{"bike_id":"71c601da-0203-478c-a7c8-63f1c683fe0f","system_id":"levelo_inurba_marseille","lat":43.311125,"lon":5.377624,"is_reserved":false,"is_disabled":false,"rental_uris":{"android":"levelo://app?vid=71c601da-0203-478c-a7c8-63f1c683fe0f","ios":"levelo://app?vid=71c601da-0203-478c-a7c8-63f1c683fe0f"},"vehicle_type_id":"4","last_reported":1702645785,"current_range_meters":9600,"station_id":"ce4bgt92rcd13ifvqcg0","pricing_plan_id":"free"},{"bike_id":"8fa752c6-2577-40ce-92b3-96c97a9de665","system_id":"levelo_inurba_marseille","lat":43.307945,"lon":5.376487,"is_reserved":false,"is_disabled":false,"rental_uris":{"android":"levelo://app?vid=8fa752c6-2577-40ce-92b3-96c97a9de665","ios":"levelo://app?vid=8fa752c6-2577-40ce-92b3-96c97a9de665"},"vehicle_type_id":"4","last_reported":1702645785,"current_range_meters":26400,"station_id":"ce4bgv92rcd13ifvqcq0","pricing_plan_id":"free"},{"bike_id":"b92ea576-d5b0-4943-ad41-df2b9b8cdbcf","system_id":"levelo_inurba_marseille","lat":43.317075,"lon":5.377367,"is_reserved":false,"is_disabled":false,"rental_uris":{"android":"levelo://app?vid=b92ea576-d5b0-4943-ad41-df2b9b8cdbcf","ios":"levelo://app?vid=b92ea576-d5b0-4943-ad41-df2b9b8cdbcf"},"vehicle_type_id":"4","last_reported":1702645785,"current_range_meters":21200,"station_id":"ce4bgth2rcd13ifvqch0","pricing_plan_id":"free"},{"bike_id":"c18ede86-438f-401f-b4a9-e2fb59555985","system_id":"levelo_inurba_marseille","lat":43.303046,"lon":5.368981,"is_reserved":false,"is_disabled":false,"rental_uris":{"android":"levelo://app?vid=c18ede86-438f-401f-b4a9-e2fb59555985","ios":"levelo://app?vid=c18ede86-438f-401f-b4a9-e2fb59555985"},"vehicle_type_id":"4","last_reported":1702645785,"current_range_meters":4400,"station_id":"ce4bgqh2rcd13ifvqc5g","pricing_plan_id":"free"},{"bike_id":"c5edea8e-96a2-4ba0-b99f-8586b412aacc","system_id":"levelo_inurba_marseille","lat":43.30304,"lon":5.368987,"is_reserved":false,"is_disabled":false,"rental_uris":{"android":"levelo://app?vid=c5edea8e-96a2-4ba0-b99f-8586b412aacc","ios":"levelo://app?vid=c5edea8e-96a2-4ba0-b99f-8586b412aacc"},"vehicle_type_id":"4","last_reported":1702645785,"current_range_meters":21600,"station_id":"ce4bgqh2rcd13ifvqc5g","pricing_plan_id":"free"},{"bike_id":"aa1194f3-20a8-4044-9420-7afd9ef77560","system_id":"levelo_inurba_marseille","lat":43.30304,"lon":5.368987,"is_reserved":false,"is_disabled":false,"rental_uris":{"android":"levelo://app?vid=aa1194f3-20a8-4044-9420-7afd9ef77560","ios":"levelo://app?vid=aa1194f3-20a8-4044-9420-7afd9ef77560"},"vehicle_type_id":"4","last_reported":1702645785,"current_range_meters":22800,"station_id":"ce4bgqh2rcd13ifvqc5g","pricing_plan_id":"free"},{"bike_id":"0f1ec8ec-18b5-4729-8d02-3b824b3e7c12","system_id":"levelo_inurba_marseille","lat":43.31532,"lon":5.3804,"is_reserved":false,"is_disabled":false,"rental_uris":{"android":"levelo://app?vid=0f1ec8ec-18b5-4729-8d02-3b824b3e7c12","ios":"levelo://app?vid=0f1ec8ec-18b5-4729-8d02-3b824b3e7c12"},"vehicle_type_id":"4","last_reported":1702645785,"current_range_meters":28400,"station_id":"ce4bhsp2rcd13ifvqi50","pricing_plan_id":"free"},{"bike_id":"1ffb3fa5-250a-438e-943f-13c9517e963f","system_id":"levelo_inurba_marseille","lat":43.301939,"lon":5.366286,"is_reserved":false,"is_disabled":false,"rental_uris":{"android":"levelo://app?vid=1ffb3fa5-250a-438e-943f-13c9517e963f","ios":"levelo://app?vid=1ffb3fa5-250a-438e-943f-13c9517e963f"},"vehicle_type_id":"4","last_reported":1702645785,"current_range_meters":27200,"station_id":"ce4bgrh2rcd13ifvqc8g","pricing_plan_id":"free"},{"bike_id":"35e7d3d8-7ea3-487d-93d5-e72fc5c89dc7","system_id":"levelo_inurba_marseille","lat":43.304606,"lon":5.379026,"is_reserved":false,"is_disabled":false,"rental_uris":{"android":"levelo://app?vid=35e7d3d8-7ea3-487d-93d5-e72fc5c89dc7","ios":"levelo://app?vid=35e7d3d8-7ea3-487d-93d5-e72fc5c89dc7"},"vehicle_type_id":"4","last_reported":1702645785,"current_range_meters":26400,"station_id":"ce4bgup2rcd13ifvqcn0","pricing_plan_id":"free"},{"bike_id":"8d530e8a-1a10-4875-a0ee-b3f76f01c730","system_id":"levelo_inurba_marseille","lat":43.304606,"lon":5.379026,"is_reserved":false,"is_disabled":false,"rental_uris":{"android":"levelo://app?vid=8d530e8a-1a10-4875-a0ee-b3f76f01c730","ios":"levelo://app?vid=8d530e8a-1a10-4875-a0ee-b3f76f01c730"},"vehicle_type_id":"4","last_reported":1702645785,"current_range_meters":26400,"station_id":"ce4bgup2rcd13ifvqcn0","pricing_plan_id":"free"},{"bike_id":"4265c6ff-7e79-4ea1-921d-0e654ddba6aa","system_id":"levelo_inurba_marseille","lat":43.324771,"lon":5.36557,"is_reserved":false,"is_disabled":false,"rental_uris":{"android":"levelo://app?vid=4265c6ff-7e79-4ea1-921d-0e654ddba6aa","ios":"levelo://app?vid=4265c6ff-7e79-4ea1-921d-0e654ddba6aa"},"vehicle_type_id":"4","last_reported":1702645785,"current_range_meters":19600,"station_id":"ce4bhs12rcd13ifvqhvg","pricing_plan_id":"free"},{"bike_id":"88f7ea2a-62f7-4a88-9e9d-900940b4d7e5","system_id":"levelo_inurba_marseille","lat":43.32481,"lon":5.36548,"is_reserved":false,"is_disabled":false,"rental_uris":{"android":"levelo://app?vid=88f7ea2a-62f7-4a88-9e9d-900940b4d7e5","ios":"levelo://app?vid=88f7ea2a-62f7-4a88-9e9d-900940b4d7e5"},"vehicle_type_id":"4","last_reported":1702645785,"current_range_meters":20800,"station_id":"ce4bhs12rcd13ifvqhvg","pricing_plan_id":"free"},{"bike_id":"36eb7f1b-e120-4e23-821d-34fca9a67d75","system_id":"levelo_inurba_marseille","lat":43.30284,"lon":5.37694,"is_reserved":false,"is_disabled":false,"rental_uris":{"android":"levelo://app?vid=36eb7f1b-e120-4e23-821d-34fca9a67d75","ios":"levelo://app?vid=36eb7f1b-e120-4e23-821d-34fca9a67d75"},"vehicle_type_id":"4","last_reported":1702645785,"current_range_meters":0,"station_id":"ce4bguh2rcd13ifvqcj0","pricing_plan_id":"free"},{"bike_id":"e6a6e07f-e3c0-48c0-bc0a-d3d886c0d364","system_id":"levelo_inurba_marseille","lat":43.30142,"lon":5.37411,"is_reserved":false,"is_disabled":false,"rental_uris":{"android":"levelo://app?vid=e6a6e07f-e3c0-48c0-bc0a-d3d886c0d364","ios":"levelo://app?vid=e6a6e07f-e3c0-48c0-bc0a-d3d886c0d364"},"vehicle_type_id":"4","last_reported":1702645785,"current_range_meters":0,"station_id":"ce4bgs92rcd13ifvqcc0","pricing_plan_id":"free"},{"bike_id":"fdcd74e0-5fce-436e-805d-ade6ef010660","system_id":"levelo_inurba_marseille","lat":43.31995,"lon":5.38142,"is_reserved":false,"is_disabled":false,"rental_uris":{"android":"levelo://app?vid=fdcd74e0-5fce-436e-805d-ade6ef010660","ios":"levelo://app?vid=fdcd74e0-5fce-436e-805d-ade6ef010660"},"vehicle_type_id":"4","last_reported":1702645785,"current_range_meters":0,"station_id":"ce4bhr12rcd13ifvqhpg","pricing_plan_id":"free"},{"bike_id":"45a33aed-6557-40c6-a2ba-3c7e15aa97a8","system_id":"levelo_inurba_marseille","lat":43.313571,"lon":5.384829,"is_reserved":false,"is_disabled":false,"rental_uris":{"android":"levelo://app?vid=45a33aed-6557-40c6-a2ba-3c7e15aa97a8","ios":"levelo://app?vid=45a33aed-6557-40c6-a2ba-3c7e15aa97a8"},"vehicle_type_id":"4","last_reported":1702645785,"current_range_meters":20000,"station_id":"ce4bgt92rcd13ifvqcf0","pricing_plan_id":"free"},{"bike_id":"c6ca61a5-b926-4cf4-948f-a86bc77c216e","system_id":"levelo_inurba_marseille","lat":43.313571,"lon":5.384829,"is_reserved":false,"is_disabled":false,"rental_uris":{"android":"levelo://app?vid=c6ca61a5-b926-4cf4-948f-a86bc77c216e","ios":"levelo://app?vid=c6ca61a5-b926-4cf4-948f-a86bc77c216e"},"vehicle_type_id":"4","last_reported":1702645785,"current_range_meters":14400,"station_id":"ce4bgt92rcd13ifvqcf0","pricing_plan_id":"free"},{"bike_id":"e6dff87a-211c-4cfb-8498-88ce2921812f","system_id":"levelo_inurba_marseille","lat":43.298433,"lon":5.362774,"is_reserved":false,"is_disabled":false,"rental_uris":{"android":"levelo://app?vid=e6dff87a-211c-4cfb-8498-88ce2921812f","ios":"levelo://app?vid=e6dff87a-211c-4cfb-8498-88ce2921812f"},"vehicle_type_id":"4","last_reported":1702645785,"current_range_meters":22000,"station_id":"ce4bgpp2rcd13ifvqc3g","pricing_plan_id":"free"},{"bike_id":"6e27ae55-f519-453b-afee-fbf526970ec6","system_id":"levelo_inurba_marseille","lat":43.299724,"lon":5.371829,"is_reserved":false,"is_disabled":false,"rental_uris":{"android":"levelo://app?vid=6e27ae55-f519-453b-afee-fbf526970ec6","ios":"levelo://app?vid=6e27ae55-f519-453b-afee-fbf526970ec6"},"vehicle_type_id":"4","last_reported":1702645785,"current_range_meters":13200,"station_id":"ce4bgr92rcd13ifvqc7g","pricing_plan_id":"free"},{"bike_id":"ca2d3eb4-25d6-48b3-980f-a3870e7ded66","system_id":"levelo_inurba_marseille","lat":43.298433,"lon":5.362774,"is_reserved":false,"is_disabled":false,"rental_uris":{"android":"levelo://app?vid=ca2d3eb4-25d6-48b3-980f-a3870e7ded66","ios":"levelo://app?vid=ca2d3eb4-25d6-48b3-980f-a3870e7ded66"},"vehicle_type_id":"4","last_reported":1702645785,"current_range_meters":16000,"station_id":"ce4bgpp2rcd13ifvqc3g","pricing_plan_id":"free"},{"bike_id":"9ecc7c7a-9c4b-4ebf-94be-efac63fbb7da","system_id":"levelo_inurba_marseille","lat":43.322872,"lon":5.382756,"is_reserved":false,"is_disabled":false,"rental_uris":{"android":"levelo://app?vid=9ecc7c7a-9c4b-4ebf-94be-efac63fbb7da","ios":"levelo://app?vid=9ecc7c7a-9c4b-4ebf-94be-efac63fbb7da"},"vehicle_type_id":"4","last_reported":1702645785,"current_range_meters":19200,"station_id":"ce4bhr12rcd13ifvqhqg","pricing_plan_id":"free"},{"bike_id":"5efff10c-d290-421e-9bc4-7e6506403680","system_id":"levelo_inurba_marseille","lat":43.297794,"lon":5.370888,"is_reserved":false,"is_disabled":false,"rental_uris":{"android":"levelo://app?vid=5efff10c-d290-421e-9bc4-7e6506403680","ios":"levelo://app?vid=5efff10c-d290-421e-9bc4-7e6506403680"},"vehicle_type_id":"4","last_reported":1702645785,"current_range_meters":20800,"station_id":"ce4bgop2rcd13ifvqc1g","pricing_plan_id":"free"},{"bike_id":"1b11e655-3ede-4537-a2c3-9ba60c2b25a3","system_id":"levelo_inurba_marseille","lat":43.29584,"lon":5.367482,"is_reserved":false,"is_disabled":false,"rental_uris":{"android":"levelo://app?vid=1b11e655-3ede-4537-a2c3-9ba60c2b25a3","ios":"levelo://app?vid=1b11e655-3ede-4537-a2c3-9ba60c2b25a3"},"vehicle_type_id":"4","last_reported":1702645785,"current_range_meters":18800,"station_id":"ce4bgph2rcd13ifvqc2g","pricing_plan_id":"free"},{"bike_id":"eefa961f-a2b6-44ad-9b08-0926d4f32d2a","system_id":"levelo_inurba_marseille","lat":43.29573,"lon":5.367355,"is_reserved":false,"is_disabled":false,"rental_uris":{"android":"levelo://app?vid=eefa961f-a2b6-44ad-9b08-0926d4f32d2a","ios":"levelo://app?vid=eefa961f-a2b6-44ad-9b08-0926d4f32d2a"},"vehicle_type_id":"4","last_reported":1702645785,"current_range_meters":16400,"station_id":"ce4bgph2rcd13ifvqc2g","pricing_plan_id":"free"},{"bike_id":"e028ddd1-844b-448b-871d-d17622d14299","system_id":"levelo_inurba_marseille","lat":43.317557,"lon":5.390173,"is_reserved":false,"is_disabled":false,"rental_uris":{"android":"levelo://app?vid=e028ddd1-844b-448b-871d-d17622d14299","ios":"levelo://app?vid=e028ddd1-844b-448b-871d-d17622d14299"},"vehicle_type_id":"4","last_reported":1702645785,"current_range_meters":2000,"station_id":"ce4bhqp2rcd13ifvqhng","pricing_plan_id":"free"},{"bike_id":"6cf1b79b-2efc-442b-8d59-758dd0cbb3ee","system_id":"levelo_inurba_marseille","lat":43.317557,"lon":5.390173,"is_reserved":false,"is_disabled":false,"rental_uris":{"android":"levelo://app?vid=6cf1b79b-2efc-442b-8d59-758dd0cbb3ee","ios":"levelo://app?vid=6cf1b79b-2efc-442b-8d59-758dd0cbb3ee"},"vehicle_type_id":"4","last_reported":1702645785,"current_range_meters":21200,"station_id":"ce4bhqp2rcd13ifvqhng","pricing_plan_id":"free"},{"bike_id":"f9b98c94-3bd2-4bc6-bfac-22d33c646230","system_id":"levelo_inurba_marseille","lat":43.298078,"lon":5.380842,"is_reserved":false,"is_disabled":false,"rental_uris":{"android":"levelo://app?vid=f9b98c94-3bd2-4bc6-bfac-22d33c646230","ios":"levelo://app?vid=f9b98c94-3bd2-4bc6-bfac-22d33c646230"},"vehicle_type_id":"4","last_reported":1702645785,"current_range_meters":28000,"station_id":"ce4bgip2rcd13ifvqbb0","pricing_plan_id":"free"},{"bike_id":"61447082-46e9-4379-93fb-606fc57fa83b","system_id":"levelo_inurba_marseille","lat":43.298007,"lon":5.38099,"is_reserved":false,"is_disabled":false,"rental_uris":{"android":"levelo://app?vid=61447082-46e9-4379-93fb-606fc57fa83b","ios":"levelo://app?vid=61447082-46e9-4379-93fb-606fc57fa83b"},"vehicle_type_id":"4","last_reported":1702645785,"current_range_meters":22800,"station_id":"ce4bgip2rcd13ifvqbb0","pricing_plan_id":"free"},{"bike_id":"32dfc77a-c3fc-4d4c-9646-e3e158b59f55","system_id":"levelo_inurba_marseille","lat":43.304274,"lon":5.388873,"is_reserved":false,"is_disabled":false,"rental_uris":{"android":"levelo://app?vid=32dfc77a-c3fc-4d4c-9646-e3e158b59f55","ios":"levelo://app?vid=32dfc77a-c3fc-4d4c-9646-e3e158b59f55"},"vehicle_type_id":"4","last_reported":1702645785,"current_range_meters":23600,"station_id":"ce4bgk12rcd13ifvqbi0","pricing_plan_id":"free"},{"bike_id":"7ae77ba6-2f8b-4a9d-a413-6006c2595c4e","system_id":"levelo_inurba_marseille","lat":43.296277,"lon":5.377108,"is_reserved":false,"is_disabled":false,"rental_uris":{"android":"levelo://app?vid=7ae77ba6-2f8b-4a9d-a413-6006c2595c4e","ios":"levelo://app?vid=7ae77ba6-2f8b-4a9d-a413-6006c2595c4e"},"vehicle_type_id":"4","last_reported":1702645785,"current_range_meters":3600,"station_id":"ce4bgi92rcd13ifvqb90","pricing_plan_id":"free"},{"bike_id":"883b6cb6-023b-496d-954e-863fa6d9797a","system_id":"levelo_inurba_marseille","lat":43.296263,"lon":5.377094,"is_reserved":false,"is_disabled":false,"rental_uris":{"android":"levelo://app?vid=883b6cb6-023b-496d-954e-863fa6d9797a","ios":"levelo://app?vid=883b6cb6-023b-496d-954e-863fa6d9797a"},"vehicle_type_id":"4","last_reported":1702645785,"current_range_meters":1600,"station_id":"ce4bgi92rcd13ifvqb90","pricing_plan_id":"free"},{"bike_id":"345c72e4-a005-4ce5-8223-19890bc66d9a","system_id":"levelo_inurba_marseille","lat":43.299717,"lon":5.384845,"is_reserved":false,"is_disabled":false,"rental_uris":{"android":"levelo://app?vid=345c72e4-a005-4ce5-8223-19890bc66d9a","ios":"levelo://app?vid=345c72e4-a005-4ce5-8223-19890bc66d9a"},"vehicle_type_id":"4","last_reported":1702645785,"current_range_meters":12000,"station_id":"ce4bgj92rcd13ifvqbd0","pricing_plan_id":"free"},{"bike_id":"a0ae25bb-b58c-401f-99ff-b1a65b3bd9ef","system_id":"levelo_inurba_marseille","lat":43.32367,"lon":5.388836,"is_reserved":false,"is_disabled":false,"rental_uris":{"android":"levelo://app?vid=a0ae25bb-b58c-401f-99ff-b1a65b3bd9ef","ios":"levelo://app?vid=a0ae25bb-b58c-401f-99ff-b1a65b3bd9ef"},"vehicle_type_id":"4","last_reported":1702645785,"current_range_meters":4400,"station_id":"ce4bhqp2rcd13ifvqhog","pricing_plan_id":"free"},{"bike_id":"28b31a36-379a-4d39-aed4-6b8c8b202893","system_id":"levelo_inurba_marseille","lat":43.29276,"lon":5.36845,"is_reserved":false,"is_disabled":false,"rental_uris":{"android":"levelo://app?vid=28b31a36-379a-4d39-aed4-6b8c8b202893","ios":"levelo://app?vid=28b31a36-379a-4d39-aed4-6b8c8b202893"},"vehicle_type_id":"4","last_reported":1702645785,"current_range_meters":23200,"station_id":"ce4bhbp2rcd13ifvqesg","pricing_plan_id":"free"},{"bike_id":"580978a0-5b29-41a9-b4e5-c83b0988564b","system_id":"levelo_inurba_marseille","lat":43.293009,"lon":5.374584,"is_reserved":false,"is_disabled":false,"rental_uris":{"android":"levelo://app?vid=580978a0-5b29-41a9-b4e5-c83b0988564b","ios":"levelo://app?vid=580978a0-5b29-41a9-b4e5-c83b0988564b"},"vehicle_type_id":"4","last_reported":1702645785,"current_range_meters":11600,"station_id":"ce4bgi12rcd13ifvqb70","pricing_plan_id":"free"},{"bike_id":"694bac71-4788-4ebe-b7bf-468c07f1a5e2","system_id":"levelo_inurba_marseille","lat":43.2936,"lon":5.37835,"is_reserved":false,"is_disabled":false,"rental_uris":{"android":"levelo://app?vid=694bac71-4788-4ebe-b7bf-468c07f1a5e2","ios":"levelo://app?vid=694bac71-4788-4ebe-b7bf-468c07f1a5e2"},"vehicle_type_id":"4","last_reported":1702645785,"current_range_meters":20400,"station_id":"ce4bgjh2rcd13ifvqbf0","pricing_plan_id":"free"},{"bike_id":"c6bef0b3-c797-45a3-bd6e-b1d2aca965d3","system_id":"levelo_inurba_marseille","lat":43.300852,"lon":5.390859,"is_reserved":false,"is_disabled":false,"rental_uris":{"android":"levelo://app?vid=c6bef0b3-c797-45a3-bd6e-b1d2aca965d3","ios":"levelo://app?vid=c6bef0b3-c797-45a3-bd6e-b1d2aca965d3"},"vehicle_type_id":"4","last_reported":1702645785,"current_range_meters":12800,"station_id":"ce4bh192rcd13ifvqdb0","pricing_plan_id":"free"},{"bike_id":"f85733e0-7177-48b9-8056-3005065b38cf","system_id":"levelo_inurba_marseille","lat":43.30085,"lon":5.390856,"is_reserved":false,"is_disabled":false,"rental_uris":{"android":"levelo://app?vid=f85733e0-7177-48b9-8056-3005065b38cf","ios":"levelo://app?vid=f85733e0-7177-48b9-8056-3005065b38cf"},"vehicle_type_id":"4","last_reported":1702645785,"current_range_meters":18800,"station_id":"ce4bh192rcd13ifvqdb0","pricing_plan_id":"free"},{"bike_id":"5b4b5e70-46e8-4e74-9d8a-5406a6de7896","system_id":"levelo_inurba_marseille","lat":43.291994,"lon":5.357886,"is_reserved":false,"is_disabled":false,"rental_uris":{"android":"levelo://app?vid=5b4b5e70-46e8-4e74-9d8a-5406a6de7896","ios":"levelo://app?vid=5b4b5e70-46e8-4e74-9d8a-5406a6de7896"},"vehicle_type_id":"4","last_reported":1702645785,"current_range_meters":31200,"station_id":"ce4bhb12rcd13ifvqel0","pricing_plan_id":"free"},{"bike_id":"49b516e7-1d61-4098-8bb5-d9d9b694a7fb","system_id":"levelo_inurba_marseille","lat":43.309038,"lon":5.396546,"is_reserved":false,"is_disabled":false,"rental_uris":{"android":"levelo://app?vid=49b516e7-1d61-4098-8bb5-d9d9b694a7fb","ios":"levelo://app?vid=49b516e7-1d61-4098-8bb5-d9d9b694a7fb"},"vehicle_type_id":"4","last_reported":1702645785,"current_range_meters":7200,"station_id":"ce4bh012rcd13ifvqcv0","pricing_plan_id":"free"},{"bike_id":"e768303e-51dc-4c9c-8f81-e544cd154209","system_id":"levelo_inurba_marseille","lat":43.29529,"lon":5.385581,"is_reserved":false,"is_disabled":false,"rental_uris":{"android":"levelo://app?vid=e768303e-51dc-4c9c-8f81-e544cd154209","ios":"levelo://app?vid=e768303e-51dc-4c9c-8f81-e544cd154209"},"vehicle_type_id":"4","last_reported":1702645785,"current_range_meters":26000,"station_id":"ce4bgih2rcd13ifvqba0","pricing_plan_id":"free"},{"bike_id":"1cba251e-577b-4dcb-b1ce-d30a6d1d376b","system_id":"levelo_inurba_marseille","lat":43.29529,"lon":5.385581,"is_reserved":false,"is_disabled":false,"rental_uris":{"android":"levelo://app?vid=1cba251e-577b-4dcb-b1ce-d30a6d1d376b","ios":"levelo://app?vid=1cba251e-577b-4dcb-b1ce-d30a6d1d376b"},"vehicle_type_id":"4","last_reported":1702645785,"current_range_meters":19200,"station_id":"ce4bgih2rcd13ifvqba0","pricing_plan_id":"free"},{"bike_id":"f7ec15d0-bd78-435a-a410-f0d47a1440da","system_id":"levelo_inurba_marseille","lat":43.289184,"lon":5.366408,"is_reserved":false,"is_disabled":false,"rental_uris":{"android":"levelo://app?vid=f7ec15d0-bd78-435a-a410-f0d47a1440da","ios":"levelo://app?vid=f7ec15d0-bd78-435a-a410-f0d47a1440da"},"vehicle_type_id":"4","last_reported":1702645785,"current_range_meters":9600,"station_id":"ce4bhap2rcd13ifvqek0","pricing_plan_id":"free"},{"bike_id":"4f3f4182-8b17-4608-a771-f5745e656378","system_id":"levelo_inurba_marseille","lat":43.290103,"lon":5.356114,"is_reserved":false,"is_disabled":false,"rental_uris":{"android":"levelo://app?vid=4f3f4182-8b17-4608-a771-f5745e656378","ios":"levelo://app?vid=4f3f4182-8b17-4608-a771-f5745e656378"},"vehicle_type_id":"4","last_reported":1702645785,"current_range_meters":26400,"station_id":"ce4bhb92rcd13ifvqen0","pricing_plan_id":"free"},{"bike_id":"dfa82b07-0d55-4fc6-b06f-cda3ef176a08","system_id":"levelo_inurba_marseille","lat":43.290995,"lon":5.381361,"is_reserved":false,"is_disabled":false,"rental_uris":{"android":"levelo://app?vid=dfa82b07-0d55-4fc6-b06f-cda3ef176a08","ios":"levelo://app?vid=dfa82b07-0d55-4fc6-b06f-cda3ef176a08"},"vehicle_type_id":"4","last_reported":1702645785,"current_range_meters":30000,"station_id":"ce4bh512rcd13ifvqe2g","pricing_plan_id":"free"},{"bike_id":"782c788e-ddc3-4333-990e-be5888424beb","system_id":"levelo_inurba_marseille","lat":43.290995,"lon":5.381361,"is_reserved":false,"is_disabled":false,"rental_uris":{"android":"levelo://app?vid=782c788e-ddc3-4333-990e-be5888424beb","ios":"levelo://app?vid=782c788e-ddc3-4333-990e-be5888424beb"},"vehicle_type_id":"4","last_reported":1702645785,"current_range_meters":21600,"station_id":"ce4bh512rcd13ifvqe2g","pricing_plan_id":"free"},{"bike_id":"305f91de-5b7e-4408-8261-1f35ce2f2e13","system_id":"levelo_inurba_marseille","lat":43.290995,"lon":5.381361,"is_reserved":false,"is_disabled":false,"rental_uris":{"android":"levelo://app?vid=305f91de-5b7e-4408-8261-1f35ce2f2e13","ios":"levelo://app?vid=305f91de-5b7e-4408-8261-1f35ce2f2e13"},"vehicle_type_id":"4","last_reported":1702645785,"current_range_meters":31600,"station_id":"ce4bh512rcd13ifvqe2g","pricing_plan_id":"free"},{"bike_id":"e1e27c99-2a2f-47f1-a907-5c884a04679a","system_id":"levelo_inurba_marseille","lat":43.297815,"lon":5.393548,"is_reserved":false,"is_disabled":false,"rental_uris":{"android":"levelo://app?vid=e1e27c99-2a2f-47f1-a907-5c884a04679a","ios":"levelo://app?vid=e1e27c99-2a2f-47f1-a907-5c884a04679a"},"vehicle_type_id":"4","last_reported":1702645785,"current_range_meters":31200,"station_id":"chh1huq6cuj3fo74tm60","pricing_plan_id":"free"},{"bike_id":"9d16dabc-7f64-4b1f-8ed2-49984b6c4307","system_id":"levelo_inurba_marseille","lat":43.295169,"lon":5.390426,"is_reserved":false,"is_disabled":false,"rental_uris":{"android":"levelo://app?vid=9d16dabc-7f64-4b1f-8ed2-49984b6c4307","ios":"levelo://app?vid=9d16dabc-7f64-4b1f-8ed2-49984b6c4307"},"vehicle_type_id":"4","last_reported":1702645785,"current_range_meters":22800,"station_id":"ce4bh3p2rcd13ifvqdp0","pricing_plan_id":"free"},{"bike_id":"1fdef275-7809-470f-98d3-ee58755e9ebb","system_id":"levelo_inurba_marseille","lat":43.290094,"lon":5.381264,"is_reserved":false,"is_disabled":false,"rental_uris":{"android":"levelo://app?vid=1fdef275-7809-470f-98d3-ee58755e9ebb","ios":"levelo://app?vid=1fdef275-7809-470f-98d3-ee58755e9ebb"},"vehicle_type_id":"4","last_reported":1702645785,"current_range_meters":25200,"station_id":"ce4bh4p2rcd13ifvqe1g","pricing_plan_id":"free"},{"bike_id":"2e1061ed-daf2-40fe-8960-b119908b058d","system_id":"levelo_inurba_marseille","lat":43.2901,"lon":5.381269,"is_reserved":false,"is_disabled":false,"rental_uris":{"android":"levelo://app?vid=2e1061ed-daf2-40fe-8960-b119908b058d","ios":"levelo://app?vid=2e1061ed-daf2-40fe-8960-b119908b058d"},"vehicle_type_id":"4","last_reported":1702645785,"current_range_meters":29600,"station_id":"ce4bh4p2rcd13ifvqe1g","pricing_plan_id":"free"},{"bike_id":"fa6c6eb4-2e61-40e2-96ab-62ef5ec036cc","system_id":"levelo_inurba_marseille","lat":43.29007,"lon":5.38133,"is_reserved":false,"is_disabled":false,"rental_uris":{"android":"levelo://app?vid=fa6c6eb4-2e61-40e2-96ab-62ef5ec036cc","ios":"levelo://app?vid=fa6c6eb4-2e61-40e2-96ab-62ef5ec036cc"},"vehicle_type_id":"4","last_reported":1702645785,"current_range_meters":11200,"station_id":"ce4bh4p2rcd13ifvqe1g","pricing_plan_id":"free"},{"bike_id":"965982ae-e792-4f5e-8ab2-d73e125a3e04","system_id":"levelo_inurba_marseille","lat":43.28856,"lon":5.358371,"is_reserved":false,"is_disabled":false,"rental_uris":{"android":"levelo://app?vid=965982ae-e792-4f5e-8ab2-d73e125a3e04","ios":"levelo://app?vid=965982ae-e792-4f5e-8ab2-d73e125a3e04"},"vehicle_type_id":"4","last_reported":1702645785,"current_range_meters":14800,"station_id":"ce4bhb12rcd13ifvqem0","pricing_plan_id":"free"},{"bike_id":"e09fa034-1f6e-4be2-b996-a4f9fd2312b6","system_id":"levelo_inurba_marseille","lat":43.28847,"lon":5.35837,"is_reserved":false,"is_disabled":false,"rental_uris":{"android":"levelo://app?vid=e09fa034-1f6e-4be2-b996-a4f9fd2312b6","ios":"levelo://app?vid=e09fa034-1f6e-4be2-b996-a4f9fd2312b6"},"vehicle_type_id":"4","last_reported":1702645785,"current_range_meters":31200,"station_id":"ce4bhb12rcd13ifvqem0","pricing_plan_id":"free"},{"bike_id":"ba0ee73b-c5f1-4cef-a929-860bc019b7de","system_id":"levelo_inurba_marseille","lat":43.312609,"lon":5.401662,"is_reserved":false,"is_disabled":false,"rental_uris":{"android":"levelo://app?vid=ba0ee73b-c5f1-4cef-a929-860bc019b7de","ios":"levelo://app?vid=ba0ee73b-c5f1-4cef-a929-860bc019b7de"},"vehicle_type_id":"4","last_reported":1702645785,"current_range_meters":25200,"station_id":"ce4bh092rcd13ifvqd30","pricing_plan_id":"free"},{"bike_id":"e5e97f74-e4a8-4bb6-ad54-01574dddc219","system_id":"levelo_inurba_marseille","lat":43.312759,"lon":5.40168,"is_reserved":false,"is_disabled":false,"rental_uris":{"android":"levelo://app?vid=e5e97f74-e4a8-4bb6-ad54-01574dddc219","ios":"levelo://app?vid=e5e97f74-e4a8-4bb6-ad54-01574dddc219"},"vehicle_type_id":"4","last_reported":1702645785,"current_range_meters":7200,"station_id":"ce4bh092rcd13ifvqd30","pricing_plan_id":"free"},{"bike_id":"3eb423de-39d7-428f-a2f6-e087a5939827","system_id":"levelo_inurba_marseille","lat":43.30642,"lon":5.401031,"is_reserved":false,"is_disabled":false,"rental_uris":{"android":"levelo://app?vid=3eb423de-39d7-428f-a2f6-e087a5939827","ios":"levelo://app?vid=3eb423de-39d7-428f-a2f6-e087a5939827"},"vehicle_type_id":"4","last_reported":1702645785,"current_range_meters":32000,"station_id":"ce4bh112rcd13ifvqda0","pricing_plan_id":"free"},{"bike_id":"776e672b-b934-4408-9adc-be65c947c4dd","system_id":"levelo_inurba_marseille","lat":43.30642,"lon":5.401031,"is_reserved":false,"is_disabled":false,"rental_uris":{"android":"levelo://app?vid=776e672b-b934-4408-9adc-be65c947c4dd","ios":"levelo://app?vid=776e672b-b934-4408-9adc-be65c947c4dd"},"vehicle_type_id":"4","last_reported":1702645785,"current_range_meters":30800,"station_id":"ce4bh112rcd13ifvqda0","pricing_plan_id":"free"},{"bike_id":"729e99d2-d3b5-4a46-9d23-f7baf4fffd6d","system_id":"levelo_inurba_marseille","lat":43.33751,"lon":5.37454,"is_reserved":false,"is_disabled":false,"rental_uris":{"android":"levelo://app?vid=729e99d2-d3b5-4a46-9d23-f7baf4fffd6d","ios":"levelo://app?vid=729e99d2-d3b5-4a46-9d23-f7baf4fffd6d"},"vehicle_type_id":"4","last_reported":1702645785,"current_range_meters":26800,"station_id":"","pricing_plan_id":"free"},{"bike_id":"13f9a4f7-6587-4e12-9d77-6fe97b01d195","system_id":"levelo_inurba_marseille","lat":43.309371,"lon":5.401449,"is_reserved":false,"is_disabled":false,"rental_uris":{"android":"levelo://app?vid=13f9a4f7-6587-4e12-9d77-6fe97b01d195","ios":"levelo://app?vid=13f9a4f7-6587-4e12-9d77-6fe97b01d195"},"vehicle_type_id":"4","last_reported":1702645785,"current_range_meters":22400,"station_id":"ce4bgvp2rcd13ifvqct0","pricing_plan_id":"free"},{"bike_id":"930bba3a-4350-44cf-bb9b-310a6cbdb5ef","system_id":"levelo_inurba_marseille","lat":43.337569,"lon":5.374555,"is_reserved":false,"is_disabled":false,"rental_uris":{"android":"levelo://app?vid=930bba3a-4350-44cf-bb9b-310a6cbdb5ef","ios":"levelo://app?vid=930bba3a-4350-44cf-bb9b-310a6cbdb5ef"},"vehicle_type_id":"4","last_reported":1702645785,"current_range_meters":28800,"station_id":"","pricing_plan_id":"free"},{"bike_id":"d0fa64f5-b870-48d6-af2a-d2d34192864b","system_id":"levelo_inurba_marseille","lat":43.30642,"lon":5.401031,"is_reserved":false,"is_disabled":false,"rental_uris":{"android":"levelo://app?vid=d0fa64f5-b870-48d6-af2a-d2d34192864b","ios":"levelo://app?vid=d0fa64f5-b870-48d6-af2a-d2d34192864b"},"vehicle_type_id":"4","last_reported":1702645785,"current_range_meters":30000,"station_id":"ce4bh112rcd13ifvqda0","pricing_plan_id":"free"},{"bike_id":"5de09532-e49e-465d-90eb-4a455137ae51","system_id":"levelo_inurba_marseille","lat":43.30642,"lon":5.401031,"is_reserved":false,"is_disabled":false,"rental_uris":{"android":"levelo://app?vid=5de09532-e49e-465d-90eb-4a455137ae51","ios":"levelo://app?vid=5de09532-e49e-465d-90eb-4a455137ae51"},"vehicle_type_id":"4","last_reported":1702645785,"current_range_meters":30000,"station_id":"ce4bh112rcd13ifvqda0","pricing_plan_id":"free"},{"bike_id":"0ba3c479-a2a8-4090-a234-19df6b5ab40c","system_id":"levelo_inurba_marseille","lat":43.306412,"lon":5.401035,"is_reserved":false,"is_disabled":false,"rental_uris":{"android":"levelo://app?vid=0ba3c479-a2a8-4090-a234-19df6b5ab40c","ios":"levelo://app?vid=0ba3c479-a2a8-4090-a234-19df6b5ab40c"},"vehicle_type_id":"4","last_reported":1702645785,"current_range_meters":24800,"station_id":"ce4bh112rcd13ifvqda0","pricing_plan_id":"free"},{"bike_id":"44b5f216-a7b6-4c19-8600-d0fc7a6dee0a","system_id":"levelo_inurba_marseille","lat":43.33764,"lon":5.374663,"is_reserved":false,"is_disabled":false,"rental_uris":{"android":"levelo://app?vid=44b5f216-a7b6-4c19-8600-d0fc7a6dee0a","ios":"levelo://app?vid=44b5f216-a7b6-4c19-8600-d0fc7a6dee0a"},"vehicle_type_id":"4","last_reported":1702645785,"current_range_meters":23200,"station_id":"","pricing_plan_id":"free"},{"bike_id":"af8344d5-149f-4eab-a1dd-a58a6b7a3980","system_id":"levelo_inurba_marseille","lat":43.337607,"lon":5.374869,"is_reserved":false,"is_disabled":false,"rental_uris":{"android":"levelo://app?vid=af8344d5-149f-4eab-a1dd-a58a6b7a3980","ios":"levelo://app?vid=af8344d5-149f-4eab-a1dd-a58a6b7a3980"},"vehicle_type_id":"4","last_reported":1702645785,"current_range_meters":29200,"station_id":"","pricing_plan_id":"free"},{"bike_id":"20b2b192-bdc0-4ef6-9e4d-c2811a2b0b11","system_id":"levelo_inurba_marseille","lat":43.306412,"lon":5.401035,"is_reserved":false,"is_disabled":false,"rental_uris":{"android":"levelo://app?vid=20b2b192-bdc0-4ef6-9e4d-c2811a2b0b11","ios":"levelo://app?vid=20b2b192-bdc0-4ef6-9e4d-c2811a2b0b11"},"vehicle_type_id":"4","last_reported":1702645785,"current_range_meters":25600,"station_id":"ce4bh112rcd13ifvqda0","pricing_plan_id":"free"},{"bike_id":"e6533872-bfd6-4009-bf18-4ad359d0f0f7","system_id":"levelo_inurba_marseille","lat":43.30642,"lon":5.401031,"is_reserved":false,"is_disabled":false,"rental_uris":{"android":"levelo://app?vid=e6533872-bfd6-4009-bf18-4ad359d0f0f7","ios":"levelo://app?vid=e6533872-bfd6-4009-bf18-4ad359d0f0f7"},"vehicle_type_id":"4","last_reported":1702645785,"current_range_meters":23600,"station_id":"ce4bh112rcd13ifvqda0","pricing_plan_id":"free"},{"bike_id":"c4dcd648-45d4-4a62-8bc1-646dd07d9239","system_id":"levelo_inurba_marseille","lat":43.337653,"lon":5.37464,"is_reserved":false,"is_disabled":false,"rental_uris":{"android":"levelo://app?vid=c4dcd648-45d4-4a62-8bc1-646dd07d9239","ios":"levelo://app?vid=c4dcd648-45d4-4a62-8bc1-646dd07d9239"},"vehicle_type_id":"4","last_reported":1702645785,"current_range_meters":23600,"station_id":"","pricing_plan_id":"free"},{"bike_id":"14a69ade-af37-42af-ba03-1d96289a5599","system_id":"levelo_inurba_marseille","lat":43.30642,"lon":5.401031,"is_reserved":false,"is_disabled":false,"rental_uris":{"android":"levelo://app?vid=14a69ade-af37-42af-ba03-1d96289a5599","ios":"levelo://app?vid=14a69ade-af37-42af-ba03-1d96289a5599"},"vehicle_type_id":"4","last_reported":1702645785,"current_range_meters":22800,"station_id":"ce4bh112rcd13ifvqda0","pricing_plan_id":"free"},{"bike_id":"311dc96d-7d73-4978-a127-e7b08583f324","system_id":"levelo_inurba_marseille","lat":43.30642,"lon":5.401031,"is_reserved":false,"is_disabled":false,"rental_uris":{"android":"levelo://app?vid=311dc96d-7d73-4978-a127-e7b08583f324","ios":"levelo://app?vid=311dc96d-7d73-4978-a127-e7b08583f324"},"vehicle_type_id":"4","last_reported":1702645785,"current_range_meters":30400,"station_id":"ce4bh112rcd13ifvqda0","pricing_plan_id":"free"},{"bike_id":"cc72efbe-e4ab-41bc-91c0-19880824bb53","system_id":"levelo_inurba_marseille","lat":43.306412,"lon":5.401035,"is_reserved":false,"is_disabled":false,"rental_uris":{"android":"levelo://app?vid=cc72efbe-e4ab-41bc-91c0-19880824bb53","ios":"levelo://app?vid=cc72efbe-e4ab-41bc-91c0-19880824bb53"},"vehicle_type_id":"4","last_reported":1702645785,"current_range_meters":23200,"station_id":"ce4bh112rcd13ifvqda0","pricing_plan_id":"free"},{"bike_id":"6d7318a9-36de-4622-98cb-30189da072ec","system_id":"levelo_inurba_marseille","lat":43.301117,"lon":5.398795,"is_reserved":false,"is_disabled":false,"rental_uris":{"android":"levelo://app?vid=6d7318a9-36de-4622-98cb-30189da072ec","ios":"levelo://app?vid=6d7318a9-36de-4622-98cb-30189da072ec"},"vehicle_type_id":"4","last_reported":1702645785,"current_range_meters":25200,"station_id":"ce4bh0h2rcd13ifvqd40","pricing_plan_id":"free"},{"bike_id":"f5884cca-6176-45e0-9f6b-d45476423ba4","system_id":"levelo_inurba_marseille","lat":43.298681,"lon":5.397225,"is_reserved":false,"is_disabled":false,"rental_uris":{"android":"levelo://app?vid=f5884cca-6176-45e0-9f6b-d45476423ba4","ios":"levelo://app?vid=f5884cca-6176-45e0-9f6b-d45476423ba4"},"vehicle_type_id":"4","last_reported":1702645785,"current_range_meters":28000,"station_id":"ce4bh0h2rcd13ifvqd50","pricing_plan_id":"free"},{"bike_id":"8fe89802-be45-4785-b151-1fd4a4ad7ba3","system_id":"levelo_inurba_marseille","lat":43.302759,"lon":5.400793,"is_reserved":false,"is_disabled":false,"rental_uris":{"android":"levelo://app?vid=8fe89802-be45-4785-b151-1fd4a4ad7ba3","ios":"levelo://app?vid=8fe89802-be45-4785-b151-1fd4a4ad7ba3"},"vehicle_type_id":"4","last_reported":1702645785,"current_range_meters":26000,"station_id":"ce4bgvh2rcd13ifvqcs0","pricing_plan_id":"free"},{"bike_id":"6bfc590f-6d1d-40e2-bdea-e3661e4d3d38","system_id":"levelo_inurba_marseille","lat":43.289307,"lon":5.38406,"is_reserved":false,"is_disabled":false,"rental_uris":{"android":"levelo://app?vid=6bfc590f-6d1d-40e2-bdea-e3661e4d3d38","ios":"levelo://app?vid=6bfc590f-6d1d-40e2-bdea-e3661e4d3d38"},"vehicle_type_id":"4","last_reported":1702645785,"current_range_meters":29600,"station_id":"ce4bh612rcd13ifvqe6g","pricing_plan_id":"free"},{"bike_id":"a77a8e2c-4cb8-4426-a140-42259d403753","system_id":"levelo_inurba_marseille","lat":43.29026,"lon":5.38643,"is_reserved":false,"is_disabled":false,"rental_uris":{"android":"levelo://app?vid=a77a8e2c-4cb8-4426-a140-42259d403753","ios":"levelo://app?vid=a77a8e2c-4cb8-4426-a140-42259d403753"},"vehicle_type_id":"4","last_reported":1702645785,"current_range_meters":24800,"station_id":"ce4bh4p2rcd13ifvqe0g","pricing_plan_id":"free"},{"bike_id":"45691a6c-e6ff-4f1a-aa92-49e418b60fcf","system_id":"levelo_inurba_marseille","lat":43.302759,"lon":5.400793,"is_reserved":false,"is_disabled":false,"rental_uris":{"android":"levelo://app?vid=45691a6c-e6ff-4f1a-aa92-49e418b60fcf","ios":"levelo://app?vid=45691a6c-e6ff-4f1a-aa92-49e418b60fcf"},"vehicle_type_id":"4","last_reported":1702645785,"current_range_meters":22400,"station_id":"ce4bgvh2rcd13ifvqcs0","pricing_plan_id":"free"},{"bike_id":"5f9f9e32-915d-4b5f-a2d2-f6fe7238338d","system_id":"levelo_inurba_marseille","lat":43.302759,"lon":5.400793,"is_reserved":false,"is_disabled":false,"rental_uris":{"android":"levelo://app?vid=5f9f9e32-915d-4b5f-a2d2-f6fe7238338d","ios":"levelo://app?vid=5f9f9e32-915d-4b5f-a2d2-f6fe7238338d"},"vehicle_type_id":"4","last_reported":1702645785,"current_range_meters":31200,"station_id":"ce4bgvh2rcd13ifvqcs0","pricing_plan_id":"free"},{"bike_id":"49fea7db-ce45-4322-8549-8cc8e421014b","system_id":"levelo_inurba_marseille","lat":43.302759,"lon":5.400793,"is_reserved":false,"is_disabled":false,"rental_uris":{"android":"levelo://app?vid=49fea7db-ce45-4322-8549-8cc8e421014b","ios":"levelo://app?vid=49fea7db-ce45-4322-8549-8cc8e421014b"},"vehicle_type_id":"4","last_reported":1702645785,"current_range_meters":4000,"station_id":"ce4bgvh2rcd13ifvqcs0","pricing_plan_id":"free"},{"bike_id":"9fe6fec6-85c2-42e5-a75c-3cca253a30b5","system_id":"levelo_inurba_marseille","lat":43.28975,"lon":5.38559,"is_reserved":false,"is_disabled":false,"rental_uris":{"android":"levelo://app?vid=9fe6fec6-85c2-42e5-a75c-3cca253a30b5","ios":"levelo://app?vid=9fe6fec6-85c2-42e5-a75c-3cca253a30b5"},"vehicle_type_id":"4","last_reported":1702645785,"current_range_meters":0,"station_id":"","pricing_plan_id":"free"},{"bike_id":"051b3582-5aef-4f33-9d1b-7ca6a5741455","system_id":"levelo_inurba_marseille","lat":43.316915,"lon":5.404709,"is_reserved":false,"is_disabled":false,"rental_uris":{"android":"levelo://app?vid=051b3582-5aef-4f33-9d1b-7ca6a5741455","ios":"levelo://app?vid=051b3582-5aef-4f33-9d1b-7ca6a5741455"},"vehicle_type_id":"4","last_reported":1702645785,"current_range_meters":20400,"station_id":"ce4bh012rcd13ifvqd00","pricing_plan_id":"free"},{"bike_id":"6a5a6d03-4ad4-4de7-9b29-64b101a2f883","system_id":"levelo_inurba_marseille","lat":43.291994,"lon":5.392907,"is_reserved":false,"is_disabled":false,"rental_uris":{"android":"levelo://app?vid=6a5a6d03-4ad4-4de7-9b29-64b101a2f883","ios":"levelo://app?vid=6a5a6d03-4ad4-4de7-9b29-64b101a2f883"},"vehicle_type_id":"4","last_reported":1702645785,"current_range_meters":26800,"station_id":"ce4bh192rcd13ifvqdd0","pricing_plan_id":"free"},{"bike_id":"58c93c52-3f90-4b90-8af7-39c7684dcfd4","system_id":"levelo_inurba_marseille","lat":43.291994,"lon":5.392907,"is_reserved":false,"is_disabled":false,"rental_uris":{"android":"levelo://app?vid=58c93c52-3f90-4b90-8af7-39c7684dcfd4","ios":"levelo://app?vid=58c93c52-3f90-4b90-8af7-39c7684dcfd4"},"vehicle_type_id":"4","last_reported":1702645785,"current_range_meters":17200,"station_id":"ce4bh192rcd13ifvqdd0","pricing_plan_id":"free"},{"bike_id":"4ecd9f03-f007-44ee-9bbc-3693a9b0201b","system_id":"levelo_inurba_marseille","lat":43.284538,"lon":5.358657,"is_reserved":false,"is_disabled":false,"rental_uris":{"android":"levelo://app?vid=4ecd9f03-f007-44ee-9bbc-3693a9b0201b","ios":"levelo://app?vid=4ecd9f03-f007-44ee-9bbc-3693a9b0201b"},"vehicle_type_id":"4","last_reported":1702645785,"current_range_meters":12800,"station_id":"ce4bhah2rcd13ifvqei0","pricing_plan_id":"free"},{"bike_id":"0c36ec1b-858a-4c98-872f-a279d27c66c4","system_id":"levelo_inurba_marseille","lat":43.285848,"lon":5.350787,"is_reserved":false,"is_disabled":false,"rental_uris":{"android":"levelo://app?vid=0c36ec1b-858a-4c98-872f-a279d27c66c4","ios":"levelo://app?vid=0c36ec1b-858a-4c98-872f-a279d27c66c4"},"vehicle_type_id":"4","last_reported":1702645785,"current_range_meters":21600,"station_id":"ce4bhch2rcd13ifvqeug","pricing_plan_id":"free"},{"bike_id":"b0477e31-6f5d-4870-8dbd-f1291151cdaa","system_id":"levelo_inurba_marseille","lat":43.28409,"lon":5.37506,"is_reserved":false,"is_disabled":false,"rental_uris":{"android":"levelo://app?vid=b0477e31-6f5d-4870-8dbd-f1291151cdaa","ios":"levelo://app?vid=b0477e31-6f5d-4870-8dbd-f1291151cdaa"},"vehicle_type_id":"4","last_reported":1702645785,"current_range_meters":9600,"station_id":"ce4bh412rcd13ifvqds0","pricing_plan_id":"free"},{"bike_id":"d41e22dc-0e2a-4097-b67d-d195cf53a849","system_id":"levelo_inurba_marseille","lat":43.28674,"lon":5.38672,"is_reserved":false,"is_disabled":false,"rental_uris":{"android":"levelo://app?vid=d41e22dc-0e2a-4097-b67d-d195cf53a849","ios":"levelo://app?vid=d41e22dc-0e2a-4097-b67d-d195cf53a849"},"vehicle_type_id":"4","last_reported":1702645785,"current_range_meters":7200,"station_id":"ce4bh492rcd13ifvqdug","pricing_plan_id":"free"},{"bike_id":"381cc8fc-dc75-4b8c-8f72-4016c5601a22","system_id":"levelo_inurba_marseille","lat":43.286595,"lon":5.386795,"is_reserved":false,"is_disabled":false,"rental_uris":{"android":"levelo://app?vid=381cc8fc-dc75-4b8c-8f72-4016c5601a22","ios":"levelo://app?vid=381cc8fc-dc75-4b8c-8f72-4016c5601a22"},"vehicle_type_id":"4","last_reported":1702645785,"current_range_meters":30400,"station_id":"ce4bh492rcd13ifvqdug","pricing_plan_id":"free"},{"bike_id":"02233a85-645d-4b7e-be0a-ae5ee696ac6f","system_id":"levelo_inurba_marseille","lat":43.28667,"lon":5.38667,"is_reserved":false,"is_disabled":false,"rental_uris":{"android":"levelo://app?vid=02233a85-645d-4b7e-be0a-ae5ee696ac6f","ios":"levelo://app?vid=02233a85-645d-4b7e-be0a-ae5ee696ac6f"},"vehicle_type_id":"4","last_reported":1702645785,"current_range_meters":18800,"station_id":"ce4bh492rcd13ifvqdug","pricing_plan_id":"free"},{"bike_id":"0dd700da-aacf-4580-b607-aecc0a56a0d2","system_id":"levelo_inurba_marseille","lat":43.286595,"lon":5.386795,"is_reserved":false,"is_disabled":false,"rental_uris":{"android":"levelo://app?vid=0dd700da-aacf-4580-b607-aecc0a56a0d2","ios":"levelo://app?vid=0dd700da-aacf-4580-b607-aecc0a56a0d2"},"vehicle_type_id":"4","last_reported":1702645785,"current_range_meters":14800,"station_id":"ce4bh492rcd13ifvqdug","pricing_plan_id":"free"},{"bike_id":"51b4e20b-8977-481c-9189-3d52ae708e0f","system_id":"levelo_inurba_marseille","lat":43.2901,"lon":5.381269,"is_reserved":false,"is_disabled":false,"rental_uris":{"android":"levelo://app?vid=51b4e20b-8977-481c-9189-3d52ae708e0f","ios":"levelo://app?vid=51b4e20b-8977-481c-9189-3d52ae708e0f"},"vehicle_type_id":"4","last_reported":1702645785,"current_range_meters":8800,"station_id":"ce4bh4p2rcd13ifvqe1g","pricing_plan_id":"free"},{"bike_id":"3c6dc98e-aa40-4668-8e35-73cc7969ce50","system_id":"levelo_inurba_marseille","lat":43.319179,"lon":5.407725,"is_reserved":false,"is_disabled":false,"rental_uris":{"android":"levelo://app?vid=3c6dc98e-aa40-4668-8e35-73cc7969ce50","ios":"levelo://app?vid=3c6dc98e-aa40-4668-8e35-73cc7969ce50"},"vehicle_type_id":"4","last_reported":1702645785,"current_range_meters":23200,"station_id":"ce4bhq12rcd13ifvqhig","pricing_plan_id":"free"},{"bike_id":"f3fcf217-4796-4d58-a2a4-0cb5ac61533e","system_id":"levelo_inurba_marseille","lat":43.33717,"lon":5.391857,"is_reserved":false,"is_disabled":false,"rental_uris":{"android":"levelo://app?vid=f3fcf217-4796-4d58-a2a4-0cb5ac61533e","ios":"levelo://app?vid=f3fcf217-4796-4d58-a2a4-0cb5ac61533e"},"vehicle_type_id":"4","last_reported":1702645785,"current_range_meters":30800,"station_id":"ce4bhr92rcd13ifvqhsg","pricing_plan_id":"free"},{"bike_id":"7dad4481-4867-4557-8614-5bf9a8d365e1","system_id":"levelo_inurba_marseille","lat":43.337168,"lon":5.391825,"is_reserved":false,"is_disabled":false,"rental_uris":{"android":"levelo://app?vid=7dad4481-4867-4557-8614-5bf9a8d365e1","ios":"levelo://app?vid=7dad4481-4867-4557-8614-5bf9a8d365e1"},"vehicle_type_id":"4","last_reported":1702645785,"current_range_meters":19600,"station_id":"ce4bhr92rcd13ifvqhsg","pricing_plan_id":"free"},{"bike_id":"b61fa72d-8cb1-460c-92e3-ab8406159d95","system_id":"levelo_inurba_marseille","lat":43.323464,"lon":5.406297,"is_reserved":false,"is_disabled":false,"rental_uris":{"android":"levelo://app?vid=b61fa72d-8cb1-460c-92e3-ab8406159d95","ios":"levelo://app?vid=b61fa72d-8cb1-460c-92e3-ab8406159d95"},"vehicle_type_id":"4","last_reported":1702645785,"current_range_meters":25600,"station_id":"ce4bhq92rcd13ifvqhjg","pricing_plan_id":"free"},{"bike_id":"01635438-2949-4055-9575-033dcfc074e0","system_id":"levelo_inurba_marseille","lat":43.284787,"lon":5.384116,"is_reserved":false,"is_disabled":false,"rental_uris":{"android":"levelo://app?vid=01635438-2949-4055-9575-033dcfc074e0","ios":"levelo://app?vid=01635438-2949-4055-9575-033dcfc074e0"},"vehicle_type_id":"4","last_reported":1702645785,"current_range_meters":28800,"station_id":"ce4bh512rcd13ifvqe3g","pricing_plan_id":"free"},{"bike_id":"1673000d-0cf2-4f76-b938-f1265f83aa84","system_id":"levelo_inurba_marseille","lat":43.284626,"lon":5.350072,"is_reserved":false,"is_disabled":false,"rental_uris":{"android":"levelo://app?vid=1673000d-0cf2-4f76-b938-f1265f83aa84","ios":"levelo://app?vid=1673000d-0cf2-4f76-b938-f1265f83aa84"},"vehicle_type_id":"4","last_reported":1702645785,"current_range_meters":0,"station_id":"ce4bhbh2rcd13ifvqepg","pricing_plan_id":"free"},{"bike_id":"7caf5fd8-3e23-4020-89be-00f11958972b","system_id":"levelo_inurba_marseille","lat":43.284787,"lon":5.384116,"is_reserved":false,"is_disabled":false,"rental_uris":{"android":"levelo://app?vid=7caf5fd8-3e23-4020-89be-00f11958972b","ios":"levelo://app?vid=7caf5fd8-3e23-4020-89be-00f11958972b"},"vehicle_type_id":"4","last_reported":1702645785,"current_range_meters":7200,"station_id":"ce4bh512rcd13ifvqe3g","pricing_plan_id":"free"},{"bike_id":"a8811fcf-4b16-41d9-8d75-be1c6794edfb","system_id":"levelo_inurba_marseille","lat":43.284793,"lon":5.384119,"is_reserved":false,"is_disabled":false,"rental_uris":{"android":"levelo://app?vid=a8811fcf-4b16-41d9-8d75-be1c6794edfb","ios":"levelo://app?vid=a8811fcf-4b16-41d9-8d75-be1c6794edfb"},"vehicle_type_id":"4","last_reported":1702645785,"current_range_meters":12000,"station_id":"ce4bh512rcd13ifvqe3g","pricing_plan_id":"free"},{"bike_id":"bb50534e-af80-4cdc-87e0-82e681ab59d4","system_id":"levelo_inurba_marseille","lat":43.288501,"lon":5.393087,"is_reserved":false,"is_disabled":false,"rental_uris":{"android":"levelo://app?vid=bb50534e-af80-4cdc-87e0-82e681ab59d4","ios":"levelo://app?vid=bb50534e-af80-4cdc-87e0-82e681ab59d4"},"vehicle_type_id":"4","last_reported":1702645785,"current_range_meters":18400,"station_id":"ce4bh2p2rcd13ifvqdi0","pricing_plan_id":"free"},{"bike_id":"2dd52896-5153-452f-ad3b-4b34ef14142e","system_id":"levelo_inurba_marseille","lat":43.283494,"lon":5.380945,"is_reserved":false,"is_disabled":false,"rental_uris":{"android":"levelo://app?vid=2dd52896-5153-452f-ad3b-4b34ef14142e","ios":"levelo://app?vid=2dd52896-5153-452f-ad3b-4b34ef14142e"},"vehicle_type_id":"4","last_reported":1702645785,"current_range_meters":5600,"station_id":"ce4bh412rcd13ifvqdr0","pricing_plan_id":"free"},{"bike_id":"1952599c-aad9-4623-b152-b1bcb830b6df","system_id":"levelo_inurba_marseille","lat":43.283494,"lon":5.380945,"is_reserved":false,"is_disabled":false,"rental_uris":{"android":"levelo://app?vid=1952599c-aad9-4623-b152-b1bcb830b6df","ios":"levelo://app?vid=1952599c-aad9-4623-b152-b1bcb830b6df"},"vehicle_type_id":"4","last_reported":1702645785,"current_range_meters":23200,"station_id":"ce4bh412rcd13ifvqdr0","pricing_plan_id":"free"},{"bike_id":"903e2db2-066c-444c-ae97-348994d80423","system_id":"levelo_inurba_marseille","lat":43.283498,"lon":5.380948,"is_reserved":false,"is_disabled":false,"rental_uris":{"android":"levelo://app?vid=903e2db2-066c-444c-ae97-348994d80423","ios":"levelo://app?vid=903e2db2-066c-444c-ae97-348994d80423"},"vehicle_type_id":"4","last_reported":1702645785,"current_range_meters":23600,"station_id":"ce4bh412rcd13ifvqdr0","pricing_plan_id":"free"},{"bike_id":"a18a251d-4865-430c-a4e9-47415c3e261e","system_id":"levelo_inurba_marseille","lat":43.283498,"lon":5.380948,"is_reserved":false,"is_disabled":false,"rental_uris":{"android":"levelo://app?vid=a18a251d-4865-430c-a4e9-47415c3e261e","ios":"levelo://app?vid=a18a251d-4865-430c-a4e9-47415c3e261e"},"vehicle_type_id":"4","last_reported":1702645785,"current_range_meters":30000,"station_id":"ce4bh412rcd13ifvqdr0","pricing_plan_id":"free"},{"bike_id":"9961f357-2993-487b-bb7c-2ca74c9fd342","system_id":"levelo_inurba_marseille","lat":43.289363,"lon":5.396322,"is_reserved":false,"is_disabled":false,"rental_uris":{"android":"levelo://app?vid=9961f357-2993-487b-bb7c-2ca74c9fd342","ios":"levelo://app?vid=9961f357-2993-487b-bb7c-2ca74c9fd342"},"vehicle_type_id":"4","last_reported":1702645785,"current_range_meters":8000,"station_id":"ce4bh3h2rcd13ifvqdn0","pricing_plan_id":"free"},{"bike_id":"f7a9f6a5-89eb-42a5-926e-f977a8f541da","system_id":"levelo_inurba_marseille","lat":43.282754,"lon":5.350519,"is_reserved":false,"is_disabled":false,"rental_uris":{"android":"levelo://app?vid=f7a9f6a5-89eb-42a5-926e-f977a8f541da","ios":"levelo://app?vid=f7a9f6a5-89eb-42a5-926e-f977a8f541da"},"vehicle_type_id":"4","last_reported":1702645785,"current_range_meters":21600,"station_id":"ce4bhbp2rcd13ifvqerg","pricing_plan_id":"free"},{"bike_id":"f1b81c94-2522-47fc-b22d-534de8fae010","system_id":"levelo_inurba_marseille","lat":43.282744,"lon":5.350533,"is_reserved":false,"is_disabled":false,"rental_uris":{"android":"levelo://app?vid=f1b81c94-2522-47fc-b22d-534de8fae010","ios":"levelo://app?vid=f1b81c94-2522-47fc-b22d-534de8fae010"},"vehicle_type_id":"4","last_reported":1702645785,"current_range_meters":30000,"station_id":"ce4bhbp2rcd13ifvqerg","pricing_plan_id":"free"},{"bike_id":"1e635aa2-6b9b-43ac-a2c8-c120dbe69eb7","system_id":"levelo_inurba_marseille","lat":43.283502,"lon":5.386471,"is_reserved":false,"is_disabled":false,"rental_uris":{"android":"levelo://app?vid=1e635aa2-6b9b-43ac-a2c8-c120dbe69eb7","ios":"levelo://app?vid=1e635aa2-6b9b-43ac-a2c8-c120dbe69eb7"},"vehicle_type_id":"4","last_reported":1702645785,"current_range_meters":10400,"station_id":"ce4bh492rcd13ifvqdvg","pricing_plan_id":"free"},{"bike_id":"53d5de8d-8cb2-4e0b-a0b6-b249493442a8","system_id":"levelo_inurba_marseille","lat":43.282754,"lon":5.350519,"is_reserved":false,"is_disabled":false,"rental_uris":{"android":"levelo://app?vid=53d5de8d-8cb2-4e0b-a0b6-b249493442a8","ios":"levelo://app?vid=53d5de8d-8cb2-4e0b-a0b6-b249493442a8"},"vehicle_type_id":"4","last_reported":1702645785,"current_range_meters":22000,"station_id":"ce4bhbp2rcd13ifvqerg","pricing_plan_id":"free"},{"bike_id":"8ccaa580-a3d2-4065-8c4e-4474922f21af","system_id":"levelo_inurba_marseille","lat":43.282744,"lon":5.350533,"is_reserved":false,"is_disabled":false,"rental_uris":{"android":"levelo://app?vid=8ccaa580-a3d2-4065-8c4e-4474922f21af","ios":"levelo://app?vid=8ccaa580-a3d2-4065-8c4e-4474922f21af"},"vehicle_type_id":"4","last_reported":1702645785,"current_range_meters":14400,"station_id":"ce4bhbp2rcd13ifvqerg","pricing_plan_id":"free"},{"bike_id":"4f52be2d-23db-460b-9309-5d50cbd09dfc","system_id":"levelo_inurba_marseille","lat":43.282754,"lon":5.350519,"is_reserved":false,"is_disabled":false,"rental_uris":{"android":"levelo://app?vid=4f52be2d-23db-460b-9309-5d50cbd09dfc","ios":"levelo://app?vid=4f52be2d-23db-460b-9309-5d50cbd09dfc"},"vehicle_type_id":"4","last_reported":1702645785,"current_range_meters":19200,"station_id":"ce4bhbp2rcd13ifvqerg","pricing_plan_id":"free"},{"bike_id":"32b7ff22-b8d6-4897-89ba-e8fc311c14b5","system_id":"levelo_inurba_marseille","lat":43.282744,"lon":5.350533,"is_reserved":false,"is_disabled":false,"rental_uris":{"android":"levelo://app?vid=32b7ff22-b8d6-4897-89ba-e8fc311c14b5","ios":"levelo://app?vid=32b7ff22-b8d6-4897-89ba-e8fc311c14b5"},"vehicle_type_id":"4","last_reported":1702645785,"current_range_meters":14000,"station_id":"ce4bhbp2rcd13ifvqerg","pricing_plan_id":"free"},{"bike_id":"d1e94677-31d4-44ea-8239-23f2f432050f","system_id":"levelo_inurba_marseille","lat":43.282744,"lon":5.350533,"is_reserved":false,"is_disabled":false,"rental_uris":{"android":"levelo://app?vid=d1e94677-31d4-44ea-8239-23f2f432050f","ios":"levelo://app?vid=d1e94677-31d4-44ea-8239-23f2f432050f"},"vehicle_type_id":"4","last_reported":1702645785,"current_range_meters":17600,"station_id":"ce4bhbp2rcd13ifvqerg","pricing_plan_id":"free"},{"bike_id":"078aaffb-b8bb-4f7a-be72-f9410dd16633","system_id":"levelo_inurba_marseille","lat":43.28035,"lon":5.36946,"is_reserved":false,"is_disabled":false,"rental_uris":{"android":"levelo://app?vid=078aaffb-b8bb-4f7a-be72-f9410dd16633","ios":"levelo://app?vid=078aaffb-b8bb-4f7a-be72-f9410dd16633"},"vehicle_type_id":"4","last_reported":1702645785,"current_range_meters":16400,"station_id":"ce4bha12rcd13ifvqef0","pricing_plan_id":"free"},{"bike_id":"4fd73b75-1c97-4343-b994-392a26228067","system_id":"levelo_inurba_marseille","lat":43.283502,"lon":5.386471,"is_reserved":false,"is_disabled":false,"rental_uris":{"android":"levelo://app?vid=4fd73b75-1c97-4343-b994-392a26228067","ios":"levelo://app?vid=4fd73b75-1c97-4343-b994-392a26228067"},"vehicle_type_id":"4","last_reported":1702645785,"current_range_meters":28000,"station_id":"ce4bh492rcd13ifvqdvg","pricing_plan_id":"free"},{"bike_id":"62c32a41-5c85-445e-a62d-27f8a6e615c9","system_id":"levelo_inurba_marseille","lat":43.280382,"lon":5.369291,"is_reserved":false,"is_disabled":false,"rental_uris":{"android":"levelo://app?vid=62c32a41-5c85-445e-a62d-27f8a6e615c9","ios":"levelo://app?vid=62c32a41-5c85-445e-a62d-27f8a6e615c9"},"vehicle_type_id":"4","last_reported":1702645785,"current_range_meters":12000,"station_id":"ce4bha12rcd13ifvqef0","pricing_plan_id":"free"},{"bike_id":"329bd0ce-cd8f-4268-a0f9-c5304fb1f856","system_id":"levelo_inurba_marseille","lat":43.280382,"lon":5.369291,"is_reserved":false,"is_disabled":false,"rental_uris":{"android":"levelo://app?vid=329bd0ce-cd8f-4268-a0f9-c5304fb1f856","ios":"levelo://app?vid=329bd0ce-cd8f-4268-a0f9-c5304fb1f856"},"vehicle_type_id":"4","last_reported":1702645785,"current_range_meters":28000,"station_id":"ce4bha12rcd13ifvqef0","pricing_plan_id":"free"},{"bike_id":"8fb47eb9-d1de-47c3-9a4f-063d68d00739","system_id":"levelo_inurba_marseille","lat":43.280382,"lon":5.369291,"is_reserved":false,"is_disabled":false,"rental_uris":{"android":"levelo://app?vid=8fb47eb9-d1de-47c3-9a4f-063d68d00739","ios":"levelo://app?vid=8fb47eb9-d1de-47c3-9a4f-063d68d00739"},"vehicle_type_id":"4","last_reported":1702645785,"current_range_meters":30000,"station_id":"ce4bha12rcd13ifvqef0","pricing_plan_id":"free"},{"bike_id":"047a598a-ec62-40a9-b0be-924dc52d8a4c","system_id":"levelo_inurba_marseille","lat":43.29036,"lon":5.39965,"is_reserved":false,"is_disabled":false,"rental_uris":{"android":"levelo://app?vid=047a598a-ec62-40a9-b0be-924dc52d8a4c","ios":"levelo://app?vid=047a598a-ec62-40a9-b0be-924dc52d8a4c"},"vehicle_type_id":"4","last_reported":1702645785,"current_range_meters":0,"station_id":"ce4bh392rcd13ifvqdm0","pricing_plan_id":"free"},{"bike_id":"e127a606-c1bf-4f5e-a310-8af35f882e39","system_id":"levelo_inurba_marseille","lat":43.281044,"lon":5.378308,"is_reserved":false,"is_disabled":false,"rental_uris":{"android":"levelo://app?vid=e127a606-c1bf-4f5e-a310-8af35f882e39","ios":"levelo://app?vid=e127a606-c1bf-4f5e-a310-8af35f882e39"},"vehicle_type_id":"4","last_reported":1702645785,"current_range_meters":13600,"station_id":"ce4bha12rcd13ifvqee0","pricing_plan_id":"free"},{"bike_id":"9b544339-9c42-4dc9-a03f-6e48b062cd2b","system_id":"levelo_inurba_marseille","lat":43.281044,"lon":5.378308,"is_reserved":false,"is_disabled":false,"rental_uris":{"android":"levelo://app?vid=9b544339-9c42-4dc9-a03f-6e48b062cd2b","ios":"levelo://app?vid=9b544339-9c42-4dc9-a03f-6e48b062cd2b"},"vehicle_type_id":"4","last_reported":1702645785,"current_range_meters":23600,"station_id":"ce4bha12rcd13ifvqee0","pricing_plan_id":"free"},{"bike_id":"dc6f2850-c208-4f49-b27b-adabfc05720b","system_id":"levelo_inurba_marseille","lat":43.284462,"lon":5.392121,"is_reserved":false,"is_disabled":false,"rental_uris":{"android":"levelo://app?vid=dc6f2850-c208-4f49-b27b-adabfc05720b","ios":"levelo://app?vid=dc6f2850-c208-4f49-b27b-adabfc05720b"},"vehicle_type_id":"4","last_reported":1702645785,"current_range_meters":14000,"station_id":"ce4bhoh2rcd13ifvqh5g","pricing_plan_id":"free"},{"bike_id":"b0d62d91-0ac4-428a-a0ff-83d95171a3f7","system_id":"levelo_inurba_marseille","lat":43.28573,"lon":5.394992,"is_reserved":false,"is_disabled":false,"rental_uris":{"android":"levelo://app?vid=b0d62d91-0ac4-428a-a0ff-83d95171a3f7","ios":"levelo://app?vid=b0d62d91-0ac4-428a-a0ff-83d95171a3f7"},"vehicle_type_id":"4","last_reported":1702645785,"current_range_meters":28400,"station_id":"ce4bh292rcd13ifvqdg0","pricing_plan_id":"free"},{"bike_id":"a9d60af6-a3c9-4c64-b256-61741fabb8dc","system_id":"levelo_inurba_marseille","lat":43.285742,"lon":5.395004,"is_reserved":false,"is_disabled":false,"rental_uris":{"android":"levelo://app?vid=a9d60af6-a3c9-4c64-b256-61741fabb8dc","ios":"levelo://app?vid=a9d60af6-a3c9-4c64-b256-61741fabb8dc"},"vehicle_type_id":"4","last_reported":1702645785,"current_range_meters":16400,"station_id":"ce4bh292rcd13ifvqdg0","pricing_plan_id":"free"},{"bike_id":"f0c72856-a476-4446-9808-3dc1fa89a2ef","system_id":"levelo_inurba_marseille","lat":43.287154,"lon":5.399979,"is_reserved":false,"is_disabled":false,"rental_uris":{"android":"levelo://app?vid=f0c72856-a476-4446-9808-3dc1fa89a2ef","ios":"levelo://app?vid=f0c72856-a476-4446-9808-3dc1fa89a2ef"},"vehicle_type_id":"4","last_reported":1702645785,"current_range_meters":12400,"station_id":"ce4bho92rcd13ifvqh3g","pricing_plan_id":"free"},{"bike_id":"4ed557a7-97dd-4781-a25d-62b4a4902bda","system_id":"levelo_inurba_marseille","lat":43.325233,"lon":5.414318,"is_reserved":false,"is_disabled":false,"rental_uris":{"android":"levelo://app?vid=4ed557a7-97dd-4781-a25d-62b4a4902bda","ios":"levelo://app?vid=4ed557a7-97dd-4781-a25d-62b4a4902bda"},"vehicle_type_id":"4","last_reported":1702645785,"current_range_meters":19200,"station_id":"ce4bhq12rcd13ifvqhhg","pricing_plan_id":"free"},{"bike_id":"58e9943b-43f5-4d87-96b8-329d761359b6","system_id":"levelo_inurba_marseille","lat":43.325233,"lon":5.414318,"is_reserved":false,"is_disabled":false,"rental_uris":{"android":"levelo://app?vid=58e9943b-43f5-4d87-96b8-329d761359b6","ios":"levelo://app?vid=58e9943b-43f5-4d87-96b8-329d761359b6"},"vehicle_type_id":"4","last_reported":1702645785,"current_range_meters":24400,"station_id":"ce4bhq12rcd13ifvqhhg","pricing_plan_id":"free"},{"bike_id":"ab3544c6-b5e4-4474-b68e-2d5686065610","system_id":"levelo_inurba_marseille","lat":43.292569,"lon":5.409107,"is_reserved":false,"is_disabled":false,"rental_uris":{"android":"levelo://app?vid=ab3544c6-b5e4-4474-b68e-2d5686065610","ios":"levelo://app?vid=ab3544c6-b5e4-4474-b68e-2d5686065610"},"vehicle_type_id":"4","last_reported":1702645785,"current_range_meters":13600,"station_id":"ce4bh192rcd13ifvqdc0","pricing_plan_id":"free"},{"bike_id":"21c5618d-7559-4926-a59a-b4477c11d53e","system_id":"levelo_inurba_marseille","lat":43.325233,"lon":5.414318,"is_reserved":false,"is_disabled":false,"rental_uris":{"android":"levelo://app?vid=21c5618d-7559-4926-a59a-b4477c11d53e","ios":"levelo://app?vid=21c5618d-7559-4926-a59a-b4477c11d53e"},"vehicle_type_id":"4","last_reported":1702645785,"current_range_meters":20400,"station_id":"ce4bhq12rcd13ifvqhhg","pricing_plan_id":"free"},{"bike_id":"6cd50120-6e70-4a3f-86bc-17a622bb7433","system_id":"levelo_inurba_marseille","lat":43.280784,"lon":5.396622,"is_reserved":false,"is_disabled":false,"rental_uris":{"android":"levelo://app?vid=6cd50120-6e70-4a3f-86bc-17a622bb7433","ios":"levelo://app?vid=6cd50120-6e70-4a3f-86bc-17a622bb7433"},"vehicle_type_id":"4","last_reported":1702645785,"current_range_meters":22000,"station_id":"ce4bho12rcd13ifvqh2g","pricing_plan_id":"free"},{"bike_id":"8e1e848d-d96b-4302-ada5-5df8b44d4656","system_id":"levelo_inurba_marseille","lat":43.303837,"lon":5.418724,"is_reserved":false,"is_disabled":false,"rental_uris":{"android":"levelo://app?vid=8e1e848d-d96b-4302-ada5-5df8b44d4656","ios":"levelo://app?vid=8e1e848d-d96b-4302-ada5-5df8b44d4656"},"vehicle_type_id":"4","last_reported":1702645785,"current_range_meters":18000,"station_id":"ce4bhop2rcd13ifvqh7g","pricing_plan_id":"free"},{"bike_id":"d1385168-cf75-4bb5-ae62-b1a74a1e6e6f","system_id":"levelo_inurba_marseille","lat":43.278399,"lon":5.392139,"is_reserved":false,"is_disabled":false,"rental_uris":{"android":"levelo://app?vid=d1385168-cf75-4bb5-ae62-b1a74a1e6e6f","ios":"levelo://app?vid=d1385168-cf75-4bb5-ae62-b1a74a1e6e6f"},"vehicle_type_id":"4","last_reported":1702645785,"current_range_meters":28000,"station_id":"ce4bhjp2rcd13ifvqga0","pricing_plan_id":"free"},{"bike_id":"f46b8131-d934-4d08-8783-3a4977f7a16d","system_id":"levelo_inurba_marseille","lat":43.273613,"lon":5.362705,"is_reserved":false,"is_disabled":false,"rental_uris":{"android":"levelo://app?vid=f46b8131-d934-4d08-8783-3a4977f7a16d","ios":"levelo://app?vid=f46b8131-d934-4d08-8783-3a4977f7a16d"},"vehicle_type_id":"4","last_reported":1702645785,"current_range_meters":29600,"station_id":"ce4bhbh2rcd13ifvqeo0","pricing_plan_id":"free"},{"bike_id":"88af7751-ef91-479e-9a6d-7edf1a472488","system_id":"levelo_inurba_marseille","lat":43.273613,"lon":5.362705,"is_reserved":false,"is_disabled":false,"rental_uris":{"android":"levelo://app?vid=88af7751-ef91-479e-9a6d-7edf1a472488","ios":"levelo://app?vid=88af7751-ef91-479e-9a6d-7edf1a472488"},"vehicle_type_id":"4","last_reported":1702645785,"current_range_meters":29600,"station_id":"ce4bhbh2rcd13ifvqeo0","pricing_plan_id":"free"},{"bike_id":"6470a7a2-1349-4ea5-b7c9-64e4a4a46249","system_id":"levelo_inurba_marseille","lat":43.273609,"lon":5.362708,"is_reserved":false,"is_disabled":false,"rental_uris":{"android":"levelo://app?vid=6470a7a2-1349-4ea5-b7c9-64e4a4a46249","ios":"levelo://app?vid=6470a7a2-1349-4ea5-b7c9-64e4a4a46249"},"vehicle_type_id":"4","last_reported":1702645785,"current_range_meters":26800,"station_id":"ce4bhbh2rcd13ifvqeo0","pricing_plan_id":"free"},{"bike_id":"221d63e7-23e0-465d-b284-e6263b22e20a","system_id":"levelo_inurba_marseille","lat":43.273609,"lon":5.362708,"is_reserved":false,"is_disabled":false,"rental_uris":{"android":"levelo://app?vid=221d63e7-23e0-465d-b284-e6263b22e20a","ios":"levelo://app?vid=221d63e7-23e0-465d-b284-e6263b22e20a"},"vehicle_type_id":"4","last_reported":1702645785,"current_range_meters":24000,"station_id":"ce4bhbh2rcd13ifvqeo0","pricing_plan_id":"free"},{"bike_id":"3958f235-7dad-4b3a-b3a4-33d029c7d310","system_id":"levelo_inurba_marseille","lat":43.273609,"lon":5.362708,"is_reserved":false,"is_disabled":false,"rental_uris":{"android":"levelo://app?vid=3958f235-7dad-4b3a-b3a4-33d029c7d310","ios":"levelo://app?vid=3958f235-7dad-4b3a-b3a4-33d029c7d310"},"vehicle_type_id":"4","last_reported":1702645785,"current_range_meters":19600,"station_id":"ce4bhbh2rcd13ifvqeo0","pricing_plan_id":"free"},{"bike_id":"3424c548-55f0-4012-abba-01ad45cc42fd","system_id":"levelo_inurba_marseille","lat":43.275625,"lon":5.384392,"is_reserved":false,"is_disabled":false,"rental_uris":{"android":"levelo://app?vid=3424c548-55f0-4012-abba-01ad45cc42fd","ios":"levelo://app?vid=3424c548-55f0-4012-abba-01ad45cc42fd"},"vehicle_type_id":"4","last_reported":1702645785,"current_range_meters":31200,"station_id":"ce4bhh92rcd13ifvqfi0","pricing_plan_id":"free"},{"bike_id":"cc79dc90-adb8-4eed-8de7-3ef24447b85c","system_id":"levelo_inurba_marseille","lat":43.275625,"lon":5.384392,"is_reserved":false,"is_disabled":false,"rental_uris":{"android":"levelo://app?vid=cc79dc90-adb8-4eed-8de7-3ef24447b85c","ios":"levelo://app?vid=cc79dc90-adb8-4eed-8de7-3ef24447b85c"},"vehicle_type_id":"4","last_reported":1702645785,"current_range_meters":9600,"station_id":"ce4bhh92rcd13ifvqfi0","pricing_plan_id":"free"},{"bike_id":"9be13157-b6ca-40ef-b106-6158119dc85f","system_id":"levelo_inurba_marseille","lat":43.276769,"lon":5.388787,"is_reserved":false,"is_disabled":false,"rental_uris":{"android":"levelo://app?vid=9be13157-b6ca-40ef-b106-6158119dc85f","ios":"levelo://app?vid=9be13157-b6ca-40ef-b106-6158119dc85f"},"vehicle_type_id":"4","last_reported":1702645785,"current_range_meters":19600,"station_id":"ce4bhi12rcd13ifvqfo0","pricing_plan_id":"free"},{"bike_id":"d3c5cc29-43e7-426f-9ce4-23fd46d68f77","system_id":"levelo_inurba_marseille","lat":43.317121,"lon":5.423936,"is_reserved":false,"is_disabled":false,"rental_uris":{"android":"levelo://app?vid=d3c5cc29-43e7-426f-9ce4-23fd46d68f77","ios":"levelo://app?vid=d3c5cc29-43e7-426f-9ce4-23fd46d68f77"},"vehicle_type_id":"4","last_reported":1702645785,"current_range_meters":6000,"station_id":"ce4bhp92rcd13ifvqhbg","pricing_plan_id":"free"},{"bike_id":"e925b3d1-1a08-4c4b-beb4-4c15019c4a47","system_id":"levelo_inurba_marseille","lat":43.310785,"lon":5.424305,"is_reserved":false,"is_disabled":false,"rental_uris":{"android":"levelo://app?vid=e925b3d1-1a08-4c4b-beb4-4c15019c4a47","ios":"levelo://app?vid=e925b3d1-1a08-4c4b-beb4-4c15019c4a47"},"vehicle_type_id":"4","last_reported":1702645785,"current_range_meters":28400,"station_id":"ce4bhp92rcd13ifvqhag","pricing_plan_id":"free"},{"bike_id":"3ca2c2d2-99b0-4aa6-a05d-e30f02e6a7fb","system_id":"levelo_inurba_marseille","lat":43.276092,"lon":5.395289,"is_reserved":false,"is_disabled":false,"rental_uris":{"android":"levelo://app?vid=3ca2c2d2-99b0-4aa6-a05d-e30f02e6a7fb","ios":"levelo://app?vid=3ca2c2d2-99b0-4aa6-a05d-e30f02e6a7fb"},"vehicle_type_id":"4","last_reported":1702645785,"current_range_meters":27600,"station_id":"","pricing_plan_id":"free"},{"bike_id":"f2d1ad7f-637b-4cf8-ad7c-5a2add2d74ab","system_id":"levelo_inurba_marseille","lat":43.273125,"lon":5.390731,"is_reserved":false,"is_disabled":false,"rental_uris":{"android":"levelo://app?vid=f2d1ad7f-637b-4cf8-ad7c-5a2add2d74ab","ios":"levelo://app?vid=f2d1ad7f-637b-4cf8-ad7c-5a2add2d74ab"},"vehicle_type_id":"4","last_reported":1702645785,"current_range_meters":17600,"station_id":"ce4bhgp2rcd13ifvqfe0","pricing_plan_id":"free"},{"bike_id":"597fbaac-2c9e-4e5e-a77f-b7b4e6511ada","system_id":"levelo_inurba_marseille","lat":43.273125,"lon":5.390731,"is_reserved":false,"is_disabled":false,"rental_uris":{"android":"levelo://app?vid=597fbaac-2c9e-4e5e-a77f-b7b4e6511ada","ios":"levelo://app?vid=597fbaac-2c9e-4e5e-a77f-b7b4e6511ada"},"vehicle_type_id":"4","last_reported":1702645785,"current_range_meters":20400,"station_id":"ce4bhgp2rcd13ifvqfe0","pricing_plan_id":"free"},{"bike_id":"122f24dc-cfb5-4915-ad6a-6e9a49375afe","system_id":"levelo_inurba_marseille","lat":43.273125,"lon":5.390731,"is_reserved":false,"is_disabled":false,"rental_uris":{"android":"levelo://app?vid=122f24dc-cfb5-4915-ad6a-6e9a49375afe","ios":"levelo://app?vid=122f24dc-cfb5-4915-ad6a-6e9a49375afe"},"vehicle_type_id":"4","last_reported":1702645785,"current_range_meters":26800,"station_id":"ce4bhgp2rcd13ifvqfe0","pricing_plan_id":"free"},{"bike_id":"b47c6f1a-56ac-43e2-8683-faadbcdafbd6","system_id":"levelo_inurba_marseille","lat":43.274099,"lon":5.394019,"is_reserved":false,"is_disabled":false,"rental_uris":{"android":"levelo://app?vid=b47c6f1a-56ac-43e2-8683-faadbcdafbd6","ios":"levelo://app?vid=b47c6f1a-56ac-43e2-8683-faadbcdafbd6"},"vehicle_type_id":"4","last_reported":1702645785,"current_range_meters":27200,"station_id":"ce4bhdp2rcd13ifvqf20","pricing_plan_id":"free"},{"bike_id":"ed3e420c-66ac-40df-be61-0c2eabccfba0","system_id":"levelo_inurba_marseille","lat":43.30411,"lon":5.42541,"is_reserved":false,"is_disabled":false,"rental_uris":{"android":"levelo://app?vid=ed3e420c-66ac-40df-be61-0c2eabccfba0","ios":"levelo://app?vid=ed3e420c-66ac-40df-be61-0c2eabccfba0"},"vehicle_type_id":"4","last_reported":1702645785,"current_range_meters":18400,"station_id":"ce4bhoh2rcd13ifvqh6g","pricing_plan_id":"free"},{"bike_id":"5a1b5282-2b51-4d9c-bacd-5818412db10f","system_id":"levelo_inurba_marseille","lat":43.29555,"lon":5.422837,"is_reserved":false,"is_disabled":false,"rental_uris":{"android":"levelo://app?vid=5a1b5282-2b51-4d9c-bacd-5818412db10f","ios":"levelo://app?vid=5a1b5282-2b51-4d9c-bacd-5818412db10f"},"vehicle_type_id":"4","last_reported":1702645785,"current_range_meters":19600,"station_id":"ce4bhph2rcd13ifvqhdg","pricing_plan_id":"free"},{"bike_id":"69f8ad0f-2459-47c5-93c3-15dea485ac8b","system_id":"levelo_inurba_marseille","lat":43.295511,"lon":5.422926,"is_reserved":false,"is_disabled":false,"rental_uris":{"android":"levelo://app?vid=69f8ad0f-2459-47c5-93c3-15dea485ac8b","ios":"levelo://app?vid=69f8ad0f-2459-47c5-93c3-15dea485ac8b"},"vehicle_type_id":"4","last_reported":1702645785,"current_range_meters":25600,"station_id":"ce4bhph2rcd13ifvqhdg","pricing_plan_id":"free"},{"bike_id":"94984fc3-6575-498f-bb52-e6c05e1c5e4b","system_id":"levelo_inurba_marseille","lat":43.29551,"lon":5.42285,"is_reserved":false,"is_disabled":false,"rental_uris":{"android":"levelo://app?vid=94984fc3-6575-498f-bb52-e6c05e1c5e4b","ios":"levelo://app?vid=94984fc3-6575-498f-bb52-e6c05e1c5e4b"},"vehicle_type_id":"4","last_reported":1702645785,"current_range_meters":21200,"station_id":"ce4bhph2rcd13ifvqhdg","pricing_plan_id":"free"},{"bike_id":"0fdd36e0-a97d-4931-83bd-dc41afbd80cb","system_id":"levelo_inurba_marseille","lat":43.295511,"lon":5.422926,"is_reserved":false,"is_disabled":false,"rental_uris":{"android":"levelo://app?vid=0fdd36e0-a97d-4931-83bd-dc41afbd80cb","ios":"levelo://app?vid=0fdd36e0-a97d-4931-83bd-dc41afbd80cb"},"vehicle_type_id":"4","last_reported":1702645785,"current_range_meters":25600,"station_id":"ce4bhph2rcd13ifvqhdg","pricing_plan_id":"free"},{"bike_id":"a7863f6b-776e-4daa-b931-d7ecbe1a71ad","system_id":"levelo_inurba_marseille","lat":43.295547,"lon":5.422894,"is_reserved":false,"is_disabled":false,"rental_uris":{"android":"levelo://app?vid=a7863f6b-776e-4daa-b931-d7ecbe1a71ad","ios":"levelo://app?vid=a7863f6b-776e-4daa-b931-d7ecbe1a71ad"},"vehicle_type_id":"4","last_reported":1702645785,"current_range_meters":21600,"station_id":"ce4bhph2rcd13ifvqhdg","pricing_plan_id":"free"},{"bike_id":"1d2472e2-350f-44fa-a627-38e6bb5829da","system_id":"levelo_inurba_marseille","lat":43.295511,"lon":5.422926,"is_reserved":false,"is_disabled":false,"rental_uris":{"android":"levelo://app?vid=1d2472e2-350f-44fa-a627-38e6bb5829da","ios":"levelo://app?vid=1d2472e2-350f-44fa-a627-38e6bb5829da"},"vehicle_type_id":"4","last_reported":1702645785,"current_range_meters":32000,"station_id":"ce4bhph2rcd13ifvqhdg","pricing_plan_id":"free"},{"bike_id":"87ef0344-46f3-4177-bd98-7f9a177a470d","system_id":"levelo_inurba_marseille","lat":43.295523,"lon":5.422926,"is_reserved":false,"is_disabled":false,"rental_uris":{"android":"levelo://app?vid=87ef0344-46f3-4177-bd98-7f9a177a470d","ios":"levelo://app?vid=87ef0344-46f3-4177-bd98-7f9a177a470d"},"vehicle_type_id":"4","last_reported":1702645785,"current_range_meters":8400,"station_id":"ce4bhph2rcd13ifvqhdg","pricing_plan_id":"free"},{"bike_id":"86e6a27f-b441-4918-a208-22badfd7e7cb","system_id":"levelo_inurba_marseille","lat":43.272116,"lon":5.391747,"is_reserved":false,"is_disabled":false,"rental_uris":{"android":"levelo://app?vid=86e6a27f-b441-4918-a208-22badfd7e7cb","ios":"levelo://app?vid=86e6a27f-b441-4918-a208-22badfd7e7cb"},"vehicle_type_id":"4","last_reported":1702645785,"current_range_meters":16800,"station_id":"ce4bhhp2rcd13ifvqfm0","pricing_plan_id":"free"},{"bike_id":"37ce3ccb-9dde-4a43-b03a-fa47d9bfd267","system_id":"levelo_inurba_marseille","lat":43.272116,"lon":5.391763,"is_reserved":false,"is_disabled":false,"rental_uris":{"android":"levelo://app?vid=37ce3ccb-9dde-4a43-b03a-fa47d9bfd267","ios":"levelo://app?vid=37ce3ccb-9dde-4a43-b03a-fa47d9bfd267"},"vehicle_type_id":"4","last_reported":1702645785,"current_range_meters":25200,"station_id":"ce4bhhp2rcd13ifvqfm0","pricing_plan_id":"free"},{"bike_id":"336f747c-1522-4bb3-89cb-bf45b691b5e7","system_id":"levelo_inurba_marseille","lat":43.272116,"lon":5.391747,"is_reserved":false,"is_disabled":false,"rental_uris":{"android":"levelo://app?vid=336f747c-1522-4bb3-89cb-bf45b691b5e7","ios":"levelo://app?vid=336f747c-1522-4bb3-89cb-bf45b691b5e7"},"vehicle_type_id":"4","last_reported":1702645785,"current_range_meters":27200,"station_id":"ce4bhhp2rcd13ifvqfm0","pricing_plan_id":"free"},{"bike_id":"9128feaf-36b8-4e63-849f-ccc68f896dc0","system_id":"levelo_inurba_marseille","lat":43.295023,"lon":5.423227,"is_reserved":false,"is_disabled":false,"rental_uris":{"android":"levelo://app?vid=9128feaf-36b8-4e63-849f-ccc68f896dc0","ios":"levelo://app?vid=9128feaf-36b8-4e63-849f-ccc68f896dc0"},"vehicle_type_id":"4","last_reported":1702645785,"current_range_meters":31200,"station_id":"","pricing_plan_id":"free"},{"bike_id":"77f72f47-608f-4280-a913-4d2f0b6b8ff3","system_id":"levelo_inurba_marseille","lat":43.278128,"lon":5.407195,"is_reserved":false,"is_disabled":false,"rental_uris":{"android":"levelo://app?vid=77f72f47-608f-4280-a913-4d2f0b6b8ff3","ios":"levelo://app?vid=77f72f47-608f-4280-a913-4d2f0b6b8ff3"},"vehicle_type_id":"4","last_reported":1702645785,"current_range_meters":25200,"station_id":"ce4bhnh2rcd13ifvqgtg","pricing_plan_id":"free"},{"bike_id":"5702f4a6-a2df-4ab7-90ca-bbf1a21df8e5","system_id":"levelo_inurba_marseille","lat":43.278128,"lon":5.407195,"is_reserved":false,"is_disabled":false,"rental_uris":{"android":"levelo://app?vid=5702f4a6-a2df-4ab7-90ca-bbf1a21df8e5","ios":"levelo://app?vid=5702f4a6-a2df-4ab7-90ca-bbf1a21df8e5"},"vehicle_type_id":"4","last_reported":1702645785,"current_range_meters":2000,"station_id":"ce4bhnh2rcd13ifvqgtg","pricing_plan_id":"free"},{"bike_id":"55da31f8-b175-4bfc-9a21-3044b8e3e3f1","system_id":"levelo_inurba_marseille","lat":43.279465,"lon":5.410561,"is_reserved":false,"is_disabled":false,"rental_uris":{"android":"levelo://app?vid=55da31f8-b175-4bfc-9a21-3044b8e3e3f1","ios":"levelo://app?vid=55da31f8-b175-4bfc-9a21-3044b8e3e3f1"},"vehicle_type_id":"4","last_reported":1702645785,"current_range_meters":27200,"station_id":"ce4bhnp2rcd13ifvqh0g","pricing_plan_id":"free"},{"bike_id":"b1e51169-f9b9-4039-9ea2-afc6e001b23c","system_id":"levelo_inurba_marseille","lat":43.269319,"lon":5.389397,"is_reserved":false,"is_disabled":false,"rental_uris":{"android":"levelo://app?vid=b1e51169-f9b9-4039-9ea2-afc6e001b23c","ios":"levelo://app?vid=b1e51169-f9b9-4039-9ea2-afc6e001b23c"},"vehicle_type_id":"4","last_reported":1702645785,"current_range_meters":9600,"station_id":"ce4bhhh2rcd13ifvqfl0","pricing_plan_id":"free"},{"bike_id":"65828be5-d27d-44c8-9ca2-dc34bef29c49","system_id":"levelo_inurba_marseille","lat":43.269319,"lon":5.389397,"is_reserved":false,"is_disabled":false,"rental_uris":{"android":"levelo://app?vid=65828be5-d27d-44c8-9ca2-dc34bef29c49","ios":"levelo://app?vid=65828be5-d27d-44c8-9ca2-dc34bef29c49"},"vehicle_type_id":"4","last_reported":1702645785,"current_range_meters":22000,"station_id":"ce4bhhh2rcd13ifvqfl0","pricing_plan_id":"free"},{"bike_id":"5bdeb62f-3697-4a8d-a2b6-0d9d785d06a4","system_id":"levelo_inurba_marseille","lat":43.26557,"lon":5.3729,"is_reserved":false,"is_disabled":false,"rental_uris":{"android":"levelo://app?vid=5bdeb62f-3697-4a8d-a2b6-0d9d785d06a4","ios":"levelo://app?vid=5bdeb62f-3697-4a8d-a2b6-0d9d785d06a4"},"vehicle_type_id":"4","last_reported":1702645785,"current_range_meters":0,"station_id":"ce4bhg12rcd13ifvqf70","pricing_plan_id":"free"},{"bike_id":"85d35529-d1d0-458f-b533-26d63f105ee7","system_id":"levelo_inurba_marseille","lat":43.265714,"lon":5.372891,"is_reserved":false,"is_disabled":false,"rental_uris":{"android":"levelo://app?vid=85d35529-d1d0-458f-b533-26d63f105ee7","ios":"levelo://app?vid=85d35529-d1d0-458f-b533-26d63f105ee7"},"vehicle_type_id":"4","last_reported":1702645785,"current_range_meters":16400,"station_id":"ce4bhg12rcd13ifvqf70","pricing_plan_id":"free"},{"bike_id":"0ec667af-c11c-418c-98ff-776bebc2669d","system_id":"levelo_inurba_marseille","lat":43.26554,"lon":5.37285,"is_reserved":false,"is_disabled":false,"rental_uris":{"android":"levelo://app?vid=0ec667af-c11c-418c-98ff-776bebc2669d","ios":"levelo://app?vid=0ec667af-c11c-418c-98ff-776bebc2669d"},"vehicle_type_id":"4","last_reported":1702645785,"current_range_meters":16400,"station_id":"ce4bhg12rcd13ifvqf70","pricing_plan_id":"free"},{"bike_id":"233e4d84-6e5c-4e53-ae5b-241ab43f5062","system_id":"levelo_inurba_marseille","lat":43.26812,"lon":5.389084,"is_reserved":false,"is_disabled":false,"rental_uris":{"android":"levelo://app?vid=233e4d84-6e5c-4e53-ae5b-241ab43f5062","ios":"levelo://app?vid=233e4d84-6e5c-4e53-ae5b-241ab43f5062"},"vehicle_type_id":"4","last_reported":1702645785,"current_range_meters":4400,"station_id":"","pricing_plan_id":"free"},{"bike_id":"5d3f594c-9b0e-418e-807f-31b01190d134","system_id":"levelo_inurba_marseille","lat":43.29121,"lon":5.42805,"is_reserved":false,"is_disabled":false,"rental_uris":{"android":"levelo://app?vid=5d3f594c-9b0e-418e-807f-31b01190d134","ios":"levelo://app?vid=5d3f594c-9b0e-418e-807f-31b01190d134"},"vehicle_type_id":"4","last_reported":1702645785,"current_range_meters":23200,"station_id":"","pricing_plan_id":"free"},{"bike_id":"d670efb1-efdf-42e6-83af-fe750cac2ec7","system_id":"levelo_inurba_marseille","lat":43.26599,"lon":5.38975,"is_reserved":false,"is_disabled":false,"rental_uris":{"android":"levelo://app?vid=d670efb1-efdf-42e6-83af-fe750cac2ec7","ios":"levelo://app?vid=d670efb1-efdf-42e6-83af-fe750cac2ec7"},"vehicle_type_id":"4","last_reported":1702645785,"current_range_meters":13200,"station_id":"","pricing_plan_id":"free"},{"bike_id":"4d9a8918-c41f-4254-a317-3372d16858b6","system_id":"levelo_inurba_marseille","lat":43.26561,"lon":5.39011,"is_reserved":false,"is_disabled":false,"rental_uris":{"android":"levelo://app?vid=4d9a8918-c41f-4254-a317-3372d16858b6","ios":"levelo://app?vid=4d9a8918-c41f-4254-a317-3372d16858b6"},"vehicle_type_id":"4","last_reported":1702645785,"current_range_meters":15600,"station_id":"ce4bhe12rcd13ifvqf30","pricing_plan_id":"free"},{"bike_id":"80b74e56-98aa-487d-8598-7ff008516755","system_id":"levelo_inurba_marseille","lat":43.261782,"lon":5.374515,"is_reserved":false,"is_disabled":false,"rental_uris":{"android":"levelo://app?vid=80b74e56-98aa-487d-8598-7ff008516755","ios":"levelo://app?vid=80b74e56-98aa-487d-8598-7ff008516755"},"vehicle_type_id":"4","last_reported":1702645785,"current_range_meters":11600,"station_id":"ce4bhgp2rcd13ifvqfc0","pricing_plan_id":"free"},{"bike_id":"756d9af0-f6ee-442d-b086-e291603e6255","system_id":"levelo_inurba_marseille","lat":43.26202,"lon":5.379299,"is_reserved":false,"is_disabled":false,"rental_uris":{"android":"levelo://app?vid=756d9af0-f6ee-442d-b086-e291603e6255","ios":"levelo://app?vid=756d9af0-f6ee-442d-b086-e291603e6255"},"vehicle_type_id":"4","last_reported":1702645785,"current_range_meters":26400,"station_id":"ce4bhjp2rcd13ifvqg90","pricing_plan_id":"free"},{"bike_id":"458b6ceb-e0e8-449e-9d54-718ca1726bcf","system_id":"levelo_inurba_marseille","lat":43.271388,"lon":5.409269,"is_reserved":false,"is_disabled":false,"rental_uris":{"android":"levelo://app?vid=458b6ceb-e0e8-449e-9d54-718ca1726bcf","ios":"levelo://app?vid=458b6ceb-e0e8-449e-9d54-718ca1726bcf"},"vehicle_type_id":"4","last_reported":1702645785,"current_range_meters":26800,"station_id":"ce4bhl12rcd13ifvqgf0","pricing_plan_id":"free"},{"bike_id":"4510633c-6100-41ad-9855-e4f0def2a04e","system_id":"levelo_inurba_marseille","lat":43.29901,"lon":5.43665,"is_reserved":false,"is_disabled":false,"rental_uris":{"android":"levelo://app?vid=4510633c-6100-41ad-9855-e4f0def2a04e","ios":"levelo://app?vid=4510633c-6100-41ad-9855-e4f0def2a04e"},"vehicle_type_id":"4","last_reported":1702645785,"current_range_meters":20000,"station_id":"ce4bhpp2rcd13ifvqhfg","pricing_plan_id":"free"},{"bike_id":"b6e121d8-399c-4cb0-a20a-f1c12a3a35ce","system_id":"levelo_inurba_marseille","lat":43.260225,"lon":5.375455,"is_reserved":false,"is_disabled":false,"rental_uris":{"android":"levelo://app?vid=b6e121d8-399c-4cb0-a20a-f1c12a3a35ce","ios":"levelo://app?vid=b6e121d8-399c-4cb0-a20a-f1c12a3a35ce"},"vehicle_type_id":"4","last_reported":1702645785,"current_range_meters":14000,"station_id":"ce4bhgh2rcd13ifvqfa0","pricing_plan_id":"free"},{"bike_id":"630427f7-e730-4e0f-8688-7218f3a79974","system_id":"levelo_inurba_marseille","lat":43.260219,"lon":5.37546,"is_reserved":false,"is_disabled":false,"rental_uris":{"android":"levelo://app?vid=630427f7-e730-4e0f-8688-7218f3a79974","ios":"levelo://app?vid=630427f7-e730-4e0f-8688-7218f3a79974"},"vehicle_type_id":"4","last_reported":1702645785,"current_range_meters":13200,"station_id":"ce4bhgh2rcd13ifvqfa0","pricing_plan_id":"free"},{"bike_id":"4a227c3e-ec12-484b-b426-7103e97eb0d3","system_id":"levelo_inurba_marseille","lat":43.27494,"lon":5.4245,"is_reserved":false,"is_disabled":false,"rental_uris":{"android":"levelo://app?vid=4a227c3e-ec12-484b-b426-7103e97eb0d3","ios":"levelo://app?vid=4a227c3e-ec12-484b-b426-7103e97eb0d3"},"vehicle_type_id":"4","last_reported":1702645785,"current_range_meters":26000,"station_id":"ce4bhn92rcd13ifvqgrg","pricing_plan_id":"free"},{"bike_id":"f49b059f-5e9b-4a92-b053-58d1d7a8de53","system_id":"levelo_inurba_marseille","lat":43.25578,"lon":5.38244,"is_reserved":false,"is_disabled":false,"rental_uris":{"android":"levelo://app?vid=f49b059f-5e9b-4a92-b053-58d1d7a8de53","ios":"levelo://app?vid=f49b059f-5e9b-4a92-b053-58d1d7a8de53"},"vehicle_type_id":"4","last_reported":1702645785,"current_range_meters":4000,"station_id":"ce4bhih2rcd13ifvqfs0","pricing_plan_id":"free"},{"bike_id":"ce02ad04-4610-4730-9d23-852a3ea122a0","system_id":"levelo_inurba_marseille","lat":43.254947,"lon":5.376454,"is_reserved":false,"is_disabled":false,"rental_uris":{"android":"levelo://app?vid=ce02ad04-4610-4730-9d23-852a3ea122a0","ios":"levelo://app?vid=ce02ad04-4610-4730-9d23-852a3ea122a0"},"vehicle_type_id":"4","last_reported":1702645785,"current_range_meters":27600,"station_id":"ce4bhh12rcd13ifvqff0","pricing_plan_id":"free"},{"bike_id":"eb4d3f35-a26e-4574-bc24-ec2a4abeca2e","system_id":"levelo_inurba_marseille","lat":43.25492,"lon":5.37647,"is_reserved":false,"is_disabled":false,"rental_uris":{"android":"levelo://app?vid=eb4d3f35-a26e-4574-bc24-ec2a4abeca2e","ios":"levelo://app?vid=eb4d3f35-a26e-4574-bc24-ec2a4abeca2e"},"vehicle_type_id":"4","last_reported":1702645785,"current_range_meters":30800,"station_id":"ce4bhh12rcd13ifvqff0","pricing_plan_id":"free"},{"bike_id":"6d4416fb-dd3c-487b-bf67-00a0d53295d7","system_id":"levelo_inurba_marseille","lat":43.254947,"lon":5.376454,"is_reserved":false,"is_disabled":false,"rental_uris":{"android":"levelo://app?vid=6d4416fb-dd3c-487b-bf67-00a0d53295d7","ios":"levelo://app?vid=6d4416fb-dd3c-487b-bf67-00a0d53295d7"},"vehicle_type_id":"4","last_reported":1702645785,"current_range_meters":6400,"station_id":"ce4bhh12rcd13ifvqff0","pricing_plan_id":"free"},{"bike_id":"9f2be9ac-5156-4917-ac32-77a822ce004c","system_id":"levelo_inurba_marseille","lat":43.258658,"lon":5.398935,"is_reserved":false,"is_disabled":false,"rental_uris":{"android":"levelo://app?vid=9f2be9ac-5156-4917-ac32-77a822ce004c","ios":"levelo://app?vid=9f2be9ac-5156-4917-ac32-77a822ce004c"},"vehicle_type_id":"4","last_reported":1702645785,"current_range_meters":23600,"station_id":"ce4bhl92rcd13ifvqghg","pricing_plan_id":"free"},{"bike_id":"6ac9f128-ddfa-4e31-a487-dd14c456b374","system_id":"levelo_inurba_marseille","lat":43.25941,"lon":5.40902,"is_reserved":false,"is_disabled":false,"rental_uris":{"android":"levelo://app?vid=6ac9f128-ddfa-4e31-a487-dd14c456b374","ios":"levelo://app?vid=6ac9f128-ddfa-4e31-a487-dd14c456b374"},"vehicle_type_id":"4","last_reported":1702645785,"current_range_meters":7200,"station_id":"ce4bhm92rcd13ifvqglg","pricing_plan_id":"free"},{"bike_id":"db140ae3-05d1-43cc-a7cb-19fe416166e3","system_id":"levelo_inurba_marseille","lat":43.25933,"lon":5.40911,"is_reserved":false,"is_disabled":false,"rental_uris":{"android":"levelo://app?vid=db140ae3-05d1-43cc-a7cb-19fe416166e3","ios":"levelo://app?vid=db140ae3-05d1-43cc-a7cb-19fe416166e3"},"vehicle_type_id":"4","last_reported":1702645785,"current_range_meters":11200,"station_id":"ce4bhm92rcd13ifvqglg","pricing_plan_id":"free"},{"bike_id":"b0f80740-e3e1-420c-9fab-1084f4861ab8","system_id":"levelo_inurba_marseille","lat":43.25933,"lon":5.40911,"is_reserved":false,"is_disabled":false,"rental_uris":{"android":"levelo://app?vid=b0f80740-e3e1-420c-9fab-1084f4861ab8","ios":"levelo://app?vid=b0f80740-e3e1-420c-9fab-1084f4861ab8"},"vehicle_type_id":"4","last_reported":1702645785,"current_range_meters":22400,"station_id":"ce4bhm92rcd13ifvqglg","pricing_plan_id":"free"},{"bike_id":"640714f5-618c-4118-bfeb-63a862712304","system_id":"levelo_inurba_marseille","lat":43.259009,"lon":5.40929,"is_reserved":false,"is_disabled":false,"rental_uris":{"android":"levelo://app?vid=640714f5-618c-4118-bfeb-63a862712304","ios":"levelo://app?vid=640714f5-618c-4118-bfeb-63a862712304"},"vehicle_type_id":"4","last_reported":1702645785,"current_range_meters":22400,"station_id":"ce4bhm92rcd13ifvqglg","pricing_plan_id":"free"},{"bike_id":"17312546-c0ff-413a-88c8-388ef633d0e0","system_id":"levelo_inurba_marseille","lat":43.257079,"lon":5.411051,"is_reserved":false,"is_disabled":false,"rental_uris":{"android":"levelo://app?vid=17312546-c0ff-413a-88c8-388ef633d0e0","ios":"levelo://app?vid=17312546-c0ff-413a-88c8-388ef633d0e0"},"vehicle_type_id":"4","last_reported":1702645785,"current_range_meters":11600,"station_id":"ce4bhkp2rcd13ifvqgd0","pricing_plan_id":"free"},{"bike_id":"30f27992-ba7e-43f7-aa91-a4e7136a79eb","system_id":"levelo_inurba_marseille","lat":43.257079,"lon":5.411051,"is_reserved":false,"is_disabled":false,"rental_uris":{"android":"levelo://app?vid=30f27992-ba7e-43f7-aa91-a4e7136a79eb","ios":"levelo://app?vid=30f27992-ba7e-43f7-aa91-a4e7136a79eb"},"vehicle_type_id":"4","last_reported":1702645785,"current_range_meters":19200,"station_id":"ce4bhkp2rcd13ifvqgd0","pricing_plan_id":"free"},{"bike_id":"36055a51-5a34-47f1-96fe-daf072616fe9","system_id":"levelo_inurba_marseille","lat":43.257079,"lon":5.411051,"is_reserved":false,"is_disabled":false,"rental_uris":{"android":"levelo://app?vid=36055a51-5a34-47f1-96fe-daf072616fe9","ios":"levelo://app?vid=36055a51-5a34-47f1-96fe-daf072616fe9"},"vehicle_type_id":"4","last_reported":1702645785,"current_range_meters":23200,"station_id":"ce4bhkp2rcd13ifvqgd0","pricing_plan_id":"free"},{"bike_id":"04ae7f63-ffaf-4142-bc00-2f642009b15f","system_id":"levelo_inurba_marseille","lat":43.250009,"lon":5.389195,"is_reserved":false,"is_disabled":false,"rental_uris":{"android":"levelo://app?vid=04ae7f63-ffaf-4142-bc00-2f642009b15f","ios":"levelo://app?vid=04ae7f63-ffaf-4142-bc00-2f642009b15f"},"vehicle_type_id":"4","last_reported":1702645785,"current_range_meters":25600,"station_id":"ce4bhgp2rcd13ifvqfd0","pricing_plan_id":"free"},{"bike_id":"1316491a-bc5b-4a9d-9c3a-d9f7a8da90c2","system_id":"levelo_inurba_marseille","lat":43.250023,"lon":5.38919,"is_reserved":false,"is_disabled":false,"rental_uris":{"android":"levelo://app?vid=1316491a-bc5b-4a9d-9c3a-d9f7a8da90c2","ios":"levelo://app?vid=1316491a-bc5b-4a9d-9c3a-d9f7a8da90c2"},"vehicle_type_id":"4","last_reported":1702645785,"current_range_meters":12400,"station_id":"ce4bhgp2rcd13ifvqfd0","pricing_plan_id":"free"},{"bike_id":"cfeaf938-5cb3-4832-af6a-4a60d6d12f7c","system_id":"levelo_inurba_marseille","lat":43.250023,"lon":5.38919,"is_reserved":false,"is_disabled":false,"rental_uris":{"android":"levelo://app?vid=cfeaf938-5cb3-4832-af6a-4a60d6d12f7c","ios":"levelo://app?vid=cfeaf938-5cb3-4832-af6a-4a60d6d12f7c"},"vehicle_type_id":"4","last_reported":1702645785,"current_range_meters":19600,"station_id":"ce4bhgp2rcd13ifvqfd0","pricing_plan_id":"free"},{"bike_id":"1fb7882f-5e9d-48c4-b9e2-b8d99c568ff0","system_id":"levelo_inurba_marseille","lat":43.2479,"lon":5.374457,"is_reserved":false,"is_disabled":false,"rental_uris":{"android":"levelo://app?vid=1fb7882f-5e9d-48c4-b9e2-b8d99c568ff0","ios":"levelo://app?vid=1fb7882f-5e9d-48c4-b9e2-b8d99c568ff0"},"vehicle_type_id":"4","last_reported":1702645785,"current_range_meters":9200,"station_id":"ce4bhgh2rcd13ifvqfb0","pricing_plan_id":"free"},{"bike_id":"3f67c8ae-edeb-47be-a0df-9dd2feebc7ba","system_id":"levelo_inurba_marseille","lat":43.2479,"lon":5.374457,"is_reserved":false,"is_disabled":false,"rental_uris":{"android":"levelo://app?vid=3f67c8ae-edeb-47be-a0df-9dd2feebc7ba","ios":"levelo://app?vid=3f67c8ae-edeb-47be-a0df-9dd2feebc7ba"},"vehicle_type_id":"4","last_reported":1702645785,"current_range_meters":16000,"station_id":"ce4bhgh2rcd13ifvqfb0","pricing_plan_id":"free"},{"bike_id":"c6090ec4-8560-48bc-94a6-7a1d3e384089","system_id":"levelo_inurba_marseille","lat":43.25102,"lon":5.403214,"is_reserved":false,"is_disabled":false,"rental_uris":{"android":"levelo://app?vid=c6090ec4-8560-48bc-94a6-7a1d3e384089","ios":"levelo://app?vid=c6090ec4-8560-48bc-94a6-7a1d3e384089"},"vehicle_type_id":"4","last_reported":1702645785,"current_range_meters":19600,"station_id":"ce4bhlh2rcd13ifvqgig","pricing_plan_id":"free"},{"bike_id":"76b3450d-b4f9-4302-bdc7-d4c7b251dffc","system_id":"levelo_inurba_marseille","lat":43.25102,"lon":5.403214,"is_reserved":false,"is_disabled":false,"rental_uris":{"android":"levelo://app?vid=76b3450d-b4f9-4302-bdc7-d4c7b251dffc","ios":"levelo://app?vid=76b3450d-b4f9-4302-bdc7-d4c7b251dffc"},"vehicle_type_id":"4","last_reported":1702645785,"current_range_meters":29200,"station_id":"ce4bhlh2rcd13ifvqgig","pricing_plan_id":"free"},{"bike_id":"24cf7ba8-9382-4158-b77d-2dba9f470feb","system_id":"levelo_inurba_marseille","lat":43.24387,"lon":5.37054,"is_reserved":false,"is_disabled":false,"rental_uris":{"android":"levelo://app?vid=24cf7ba8-9382-4158-b77d-2dba9f470feb","ios":"levelo://app?vid=24cf7ba8-9382-4158-b77d-2dba9f470feb"},"vehicle_type_id":"4","last_reported":1702645785,"current_range_meters":29600,"station_id":"ce4bhhh2rcd13ifvqfk0","pricing_plan_id":"free"},{"bike_id":"8eeee171-fe5f-4155-aca4-33366dd64596","system_id":"levelo_inurba_marseille","lat":43.245581,"lon":5.395069,"is_reserved":false,"is_disabled":false,"rental_uris":{"android":"levelo://app?vid=8eeee171-fe5f-4155-aca4-33366dd64596","ios":"levelo://app?vid=8eeee171-fe5f-4155-aca4-33366dd64596"},"vehicle_type_id":"4","last_reported":1702645785,"current_range_meters":19200,"station_id":"ce4bhlp2rcd13ifvqgjg","pricing_plan_id":"free"},{"bike_id":"0457aa3c-4d89-41d0-a5ea-91c2c9eabd61","system_id":"levelo_inurba_marseille","lat":43.24073,"lon":5.37762,"is_reserved":false,"is_disabled":false,"rental_uris":{"android":"levelo://app?vid=0457aa3c-4d89-41d0-a5ea-91c2c9eabd61","ios":"levelo://app?vid=0457aa3c-4d89-41d0-a5ea-91c2c9eabd61"},"vehicle_type_id":"4","last_reported":1702645785,"current_range_meters":8400,"station_id":"ce4bhnp2rcd13ifvqgvg","pricing_plan_id":"free"},{"bike_id":"6f863350-2a4e-4acf-aeb0-373bd019df1a","system_id":"levelo_inurba_marseille","lat":43.240623,"lon":5.377642,"is_reserved":false,"is_disabled":false,"rental_uris":{"android":"levelo://app?vid=6f863350-2a4e-4acf-aeb0-373bd019df1a","ios":"levelo://app?vid=6f863350-2a4e-4acf-aeb0-373bd019df1a"},"vehicle_type_id":"4","last_reported":1702645785,"current_range_meters":10800,"station_id":"ce4bhnp2rcd13ifvqgvg","pricing_plan_id":"free"},{"bike_id":"8c112bac-5f5a-407d-8532-bc3c79605cd8","system_id":"levelo_inurba_marseille","lat":43.239588,"lon":5.366238,"is_reserved":false,"is_disabled":false,"rental_uris":{"android":"levelo://app?vid=8c112bac-5f5a-407d-8532-bc3c79605cd8","ios":"levelo://app?vid=8c112bac-5f5a-407d-8532-bc3c79605cd8"},"vehicle_type_id":"4","last_reported":1702645785,"current_range_meters":22800,"station_id":"ce4bhi12rcd13ifvqfp0","pricing_plan_id":"free"},{"bike_id":"5c56cc11-c1ca-430f-b898-95a1151d8a21","system_id":"levelo_inurba_marseille","lat":43.232,"lon":5.35547,"is_reserved":false,"is_disabled":false,"rental_uris":{"android":"levelo://app?vid=5c56cc11-c1ca-430f-b898-95a1151d8a21","ios":"levelo://app?vid=5c56cc11-c1ca-430f-b898-95a1151d8a21"},"vehicle_type_id":"4","last_reported":1702645785,"current_range_meters":27200,"station_id":"ce4bhu92rcd13ifvqi70","pricing_plan_id":"free"},{"bike_id":"81e904a9-3da5-429d-9d59-11820eabd019","system_id":"levelo_inurba_marseille","lat":43.231919,"lon":5.355532,"is_reserved":false,"is_disabled":false,"rental_uris":{"android":"levelo://app?vid=81e904a9-3da5-429d-9d59-11820eabd019","ios":"levelo://app?vid=81e904a9-3da5-429d-9d59-11820eabd019"},"vehicle_type_id":"4","last_reported":1702645785,"current_range_meters":30400,"station_id":"ce4bhu92rcd13ifvqi70","pricing_plan_id":"free"},{"bike_id":"0e924b74-307d-4e15-a720-7d8a2aa09be1","system_id":"levelo_inurba_marseille","lat":43.231919,"lon":5.355532,"is_reserved":false,"is_disabled":false,"rental_uris":{"android":"levelo://app?vid=0e924b74-307d-4e15-a720-7d8a2aa09be1","ios":"levelo://app?vid=0e924b74-307d-4e15-a720-7d8a2aa09be1"},"vehicle_type_id":"4","last_reported":1702645785,"current_range_meters":10800,"station_id":"ce4bhu92rcd13ifvqi70","pricing_plan_id":"free"},{"bike_id":"c1429ef9-64a4-4967-b791-1805b200879e","system_id":"levelo_inurba_marseille","lat":43.23193,"lon":5.35554,"is_reserved":false,"is_disabled":false,"rental_uris":{"android":"levelo://app?vid=c1429ef9-64a4-4967-b791-1805b200879e","ios":"levelo://app?vid=c1429ef9-64a4-4967-b791-1805b200879e"},"vehicle_type_id":"4","last_reported":1702645785,"current_range_meters":19200,"station_id":"ce4bhu92rcd13ifvqi70","pricing_plan_id":"free"},{"bike_id":"547672b1-18af-4711-b9a3-86e73cab70b4","system_id":"levelo_inurba_marseille","lat":43.231919,"lon":5.355532,"is_reserved":false,"is_disabled":false,"rental_uris":{"android":"levelo://app?vid=547672b1-18af-4711-b9a3-86e73cab70b4","ios":"levelo://app?vid=547672b1-18af-4711-b9a3-86e73cab70b4"},"vehicle_type_id":"4","last_reported":1702645785,"current_range_meters":21200,"station_id":"ce4bhu92rcd13ifvqi70","pricing_plan_id":"free"},{"bike_id":"160d3fcc-bd25-4280-b137-d9379b2a4d30","system_id":"levelo_inurba_marseille","lat":43.23192,"lon":5.35551,"is_reserved":false,"is_disabled":false,"rental_uris":{"android":"levelo://app?vid=160d3fcc-bd25-4280-b137-d9379b2a4d30","ios":"levelo://app?vid=160d3fcc-bd25-4280-b137-d9379b2a4d30"},"vehicle_type_id":"4","last_reported":1702645785,"current_range_meters":19200,"station_id":"ce4bhu92rcd13ifvqi70","pricing_plan_id":"free"},{"bike_id":"1c152701-4b2a-4bae-9910-af52ecb96d7d","system_id":"levelo_inurba_marseille","lat":43.23192,"lon":5.35543,"is_reserved":false,"is_disabled":false,"rental_uris":{"android":"levelo://app?vid=1c152701-4b2a-4bae-9910-af52ecb96d7d","ios":"levelo://app?vid=1c152701-4b2a-4bae-9910-af52ecb96d7d"},"vehicle_type_id":"4","last_reported":1702645785,"current_range_meters":15200,"station_id":"ce4bhu92rcd13ifvqi70","pricing_plan_id":"free"},{"bike_id":"d657bd16-ddba-486a-8e03-61a1863435fa","system_id":"levelo_inurba_marseille","lat":43.231794,"lon":5.400052,"is_reserved":false,"is_disabled":false,"rental_uris":{"android":"levelo://app?vid=d657bd16-ddba-486a-8e03-61a1863435fa","ios":"levelo://app?vid=d657bd16-ddba-486a-8e03-61a1863435fa"},"vehicle_type_id":"4","last_reported":1702645785,"current_range_meters":31200,"station_id":"ce4bhn12rcd13ifvqgqg","pricing_plan_id":"free"},{"bike_id":"9ea1be43-fefe-4b43-a11d-aef0c1b7e1e5","system_id":"levelo_inurba_marseille","lat":43.231794,"lon":5.400052,"is_reserved":false,"is_disabled":false,"rental_uris":{"android":"levelo://app?vid=9ea1be43-fefe-4b43-a11d-aef0c1b7e1e5","ios":"levelo://app?vid=9ea1be43-fefe-4b43-a11d-aef0c1b7e1e5"},"vehicle_type_id":"4","last_reported":1702645785,"current_range_meters":9200,"station_id":"ce4bhn12rcd13ifvqgqg","pricing_plan_id":"free"},{"bike_id":"3ee3ddba-66ac-4768-bd27-f666c8f401d2","system_id":"levelo_inurba_marseille","lat":43.231794,"lon":5.400052,"is_reserved":false,"is_disabled":false,"rental_uris":{"android":"levelo://app?vid=3ee3ddba-66ac-4768-bd27-f666c8f401d2","ios":"levelo://app?vid=3ee3ddba-66ac-4768-bd27-f666c8f401d2"},"vehicle_type_id":"4","last_reported":1702645785,"current_range_meters":18400,"station_id":"ce4bhn12rcd13ifvqgqg","pricing_plan_id":"free"},{"bike_id":"772bf280-e3e4-4d15-8877-5d3c6fe1027c","system_id":"levelo_inurba_marseille","lat":43.231562,"lon":5.436933,"is_reserved":false,"is_disabled":false,"rental_uris":{"android":"levelo://app?vid=772bf280-e3e4-4d15-8877-5d3c6fe1027c","ios":"levelo://app?vid=772bf280-e3e4-4d15-8877-5d3c6fe1027c"},"vehicle_type_id":"4","last_reported":1702645785,"current_range_meters":16400,"station_id":"ce4bhmp2rcd13ifvqgog","pricing_plan_id":"free"},{"bike_id":"fbbf681a-061a-430f-9527-c1c58b604262","system_id":"levelo_inurba_marseille","lat":43.231562,"lon":5.436933,"is_reserved":false,"is_disabled":false,"rental_uris":{"android":"levelo://app?vid=fbbf681a-061a-430f-9527-c1c58b604262","ios":"levelo://app?vid=fbbf681a-061a-430f-9527-c1c58b604262"},"vehicle_type_id":"4","last_reported":1702645785,"current_range_meters":16800,"station_id":"ce4bhmp2rcd13ifvqgog","pricing_plan_id":"free"},